{"data": {"bikes": [{"fusion_lat": 0.0, "bike_id": "245a5aa75242880b10b1ef5b877eef7e", "fusion_lon": 0.0, "lon": -77.0447445, "lat": 38.892214833333334, "is_reserved": 0, "is_disabled": 0, "rental_uris": {"android": "https://dc.lft.to/lastmile_qr_scan", "ios": "https://dc.lft.to/lastmile_qr_scan"}, "name": "245a5aa75242880b10b1ef5b877eef7e", "type": "electric_scooter"}, {"fusion_lat": 0.0, "bike_id": "90ad923d240c315162bd0c61290c9444", "fusion_lon": 0.0, "lon": -76.99850716666667, "lat": 38.8962625, "is_reserved": 0, "is_disabled": 0, "rental_uris": {"android": "https://dc.lft.to/lastmile_qr_scan", "ios": "https://dc.lft.to/lastmile_qr_scan"}, "name": "90ad923d240c315162bd0c61290c9444", "type": "electric_scooter"}, {"fusion_lat": 0.0, "bike_id": "4cd8b4f76381345871cac055ae524112", "fusion_lon": 0.0, "lon": -77.03918316666666, "lat": 38.9219135, "is_reserved": 0, "is_disabled": 0, "rental_uris": {"android": "https://dc.lft.to/lastmile_qr_scan", "ios": "https://dc.lft.to/lastmile_qr_scan"}, "name": "4cd8b4f76381345871cac055ae524112", "type": "electric_scooter"}, {"fusion_lat": 0.0, "bike_id": "b7856a8f2a9362ebcce926b708cf819c", "fusion_lon": 0.0, "lon": -77.06893333333333, "lat": 38.90516233333334, "is_reserved": 0, "is_disabled": 0, "rental_uris": {"android": "https://dc.lft.to/lastmile_qr_scan", "ios": "https://dc.lft.to/lastmile_qr_scan"}, "name": "b7856a8f2a9362ebcce926b708cf819c", "type": "electric_scooter"}, {"fusion_lat": 0.0, "bike_id": "6aae4724d2a147ca57d8a2a9183a2ea4", "fusion_lon": 0.0, "lon": -77.02958, "lat": 38.905075833333335, "is_reserved": 0, "is_disabled": 0, "rental_uris": {"android": "https://dc.lft.to/lastmile_qr_scan", "ios": "https://dc.lft.to/lastmile_qr_scan"}, "name": "6aae4724d2a147ca57d8a2a9183a2ea4", "type": "electric_scooter"}, {"fusion_lat": 0.0, "bike_id": "ea25fdd6899c22ddbb3754b990b33dee", "fusion_lon": 0.0, "lon": -77.00045716666666, "lat": 38.90702516666666, "is_reserved": 0, "is_disabled": 0, "rental_uris": {"android": "https://dc.lft.to/lastmile_qr_scan", "ios": "https://dc.lft.to/lastmile_qr_scan"}, "name": "ea25fdd6899c22ddbb3754b990b33dee", "type": "electric_scooter"}, {"fusion_lat": 0.0, "bike_id": "bacf216c8484765c32165bfbaa004f69", "fusion_lon": 0.0, "lon": -77.0375275, "lat": 38.912650166666666, "is_reserved": 0, "is_disabled": 0, "rental_uris": {"android": "https://dc.lft.to/lastmile_qr_scan", "ios": "https://dc.lft.to/lastmile_qr_scan"}, "name": "bacf216c8484765c32165bfbaa004f69", "type": "electric_scooter"}, {"fusion_lat": 0.0, "bike_id": "68fd65083847580c813aa35f9dafd414", "fusion_lon": 0.0, "lon": -77.00311966666666, "lat": 38.923570166666664, "is_reserved": 0, "is_disabled": 0, "rental_uris": {"android": "https://dc.lft.to/lastmile_qr_scan", "ios": "https://dc.lft.to/lastmile_qr_scan"}, "name": "68fd65083847580c813aa35f9dafd414", "type": "electric_scooter"}, {"fusion_lat": 0.0, "bike_id": "8f1a9de5a6d2d2bb6317a2261c350a13", "fusion_lon": 0.0, "lon": -77.02509066666667, "lat": 38.892248, "is_reserved": 0, "is_disabled": 0, "rental_uris": {"android": "https://dc.lft.to/lastmile_qr_scan", "ios": "https://dc.lft.to/lastmile_qr_scan"}, "name": "8f1a9de5a6d2d2bb6317a2261c350a13", "type": "electric_scooter"}, {"fusion_lat": 0.0, "bike_id": "9795bcbb1f582b73cc78834986d91e7b", "fusion_lon": 0.0, "lon": -76.94639566666666, "lat": 38.898369833333334, "is_reserved": 0, "is_disabled": 0, "rental_uris": {"android": "https://dc.lft.to/lastmile_qr_scan", "ios": "https://dc.lft.to/lastmile_qr_scan"}, "name": "9795bcbb1f582b73cc78834986d91e7b", "type": "electric_scooter"}, {"fusion_lat": 0.0, "bike_id": "feef0ac867568efdab34ec56d16d6a74", "fusion_lon": 0.0, "lon": -77.01648416666667, "lat": 38.88128583333334, "is_reserved": 0, "is_disabled": 0, "rental_uris": {"android": "https://dc.lft.to/lastmile_qr_scan", "ios": "https://dc.lft.to/lastmile_qr_scan"}, "name": "feef0ac867568efdab34ec56d16d6a74", "type": "electric_scooter"}, {"fusion_lat": 0.0, "bike_id": "4940c97d687b2a1fa58887eaebed2321", "fusion_lon": 0.0, "lon": -76.98232033333333, "lat": 38.886468, "is_reserved": 0, "is_disabled": 0, "rental_uris": {"android": "https://dc.lft.to/lastmile_qr_scan", "ios": "https://dc.lft.to/lastmile_qr_scan"}, "name": "4940c97d687b2a1fa58887eaebed2321", "type": "electric_scooter"}, {"fusion_lat": 0.0, "bike_id": "b210d71fd5879874be593db1ced46b03", "fusion_lon": 0.0, "lon": -76.9858135, "lat": 38.90813583333333, "is_reserved": 0, "is_disabled": 0, "rental_uris": {"android": "https://dc.lft.to/lastmile_qr_scan", "ios": "https://dc.lft.to/lastmile_qr_scan"}, "name": "b210d71fd5879874be593db1ced46b03", "type": "electric_scooter"}, {"fusion_lat": 0.0, "bike_id": "f4fd5faf3123c89ba099acd0fc024b43", "fusion_lon": 0.0, "lon": -77.02782016666667, "lat": 38.89224266666667, "is_reserved": 0, "is_disabled": 0, "rental_uris": {"android": "https://dc.lft.to/lastmile_qr_scan", "ios": "https://dc.lft.to/lastmile_qr_scan"}, "name": "f4fd5faf3123c89ba099acd0fc024b43", "type": "electric_scooter"}, {"fusion_lat": 0.0, "bike_id": "0ec8c12f9def77a8d79de157a0982b0d", "fusion_lon": 0.0, "lon": -77.03215216666666, "lat": 38.916469666666664, "is_reserved": 0, "is_disabled": 0, "rental_uris": {"android": "https://dc.lft.to/lastmile_qr_scan", "ios": "https://dc.lft.to/lastmile_qr_scan"}, "name": "0ec8c12f9def77a8d79de157a0982b0d", "type": "electric_scooter"}, {"fusion_lat": 0.0, "bike_id": "faf09b351ce3726d44a95bdf3c066856", "fusion_lon": 0.0, "lon": -77.01700866666667, "lat": 38.920557, "is_reserved": 0, "is_disabled": 0, "rental_uris": {"android": "https://dc.lft.to/lastmile_qr_scan", "ios": "https://dc.lft.to/lastmile_qr_scan"}, "name": "faf09b351ce3726d44a95bdf3c066856", "type": "electric_scooter"}, {"fusion_lat": 0.0, "bike_id": "4225e94ee4311ab4be274ecad99a4aa1", "fusion_lon": 0.0, "lon": -77.04266883333334, "lat": 38.907343166666664, "is_reserved": 0, "is_disabled": 0, "rental_uris": {"android": "https://dc.lft.to/lastmile_qr_scan", "ios": "https://dc.lft.to/lastmile_qr_scan"}, "name": "4225e94ee4311ab4be274ecad99a4aa1", "type": "electric_scooter"}, {"fusion_lat": 0.0, "bike_id": "ec6fff82d0af5c05bc8feb29b0fa2d41", "fusion_lon": 0.0, "lon": -77.025968, "lat": 38.920435833333336, "is_reserved": 0, "is_disabled": 0, "rental_uris": {"android": "https://dc.lft.to/lastmile_qr_scan", "ios": "https://dc.lft.to/lastmile_qr_scan"}, "name": "ec6fff82d0af5c05bc8feb29b0fa2d41", "type": "electric_scooter"}, {"fusion_lat": 0.0, "bike_id": "da668a5a3eaa9ffdb0511c4b41524549", "fusion_lon": 0.0, "lon": -77.024062, "lat": 38.89197583333333, "is_reserved": 0, "is_disabled": 0, "rental_uris": {"android": "https://dc.lft.to/lastmile_qr_scan", "ios": "https://dc.lft.to/lastmile_qr_scan"}, "name": "da668a5a3eaa9ffdb0511c4b41524549", "type": "electric_scooter"}, {"fusion_lat": 0.0, "bike_id": "4c8feb2565904a78b5a806a392172528", "fusion_lon": 0.0, "lon": -77.043373, "lat": 38.922177, "is_reserved": 0, "is_disabled": 0, "rental_uris": {"android": "https://dc.lft.to/lastmile_qr_scan", "ios": "https://dc.lft.to/lastmile_qr_scan"}, "name": "4c8feb2565904a78b5a806a392172528", "type": "electric_scooter"}, {"fusion_lat": 0.0, "bike_id": "9c95e85028fe83230836981869f41bd9", "fusion_lon": 0.0, "lon": -77.05165066666666, "lat": 39.043166, "is_reserved": 0, "is_disabled": 0, "rental_uris": {"android": "https://dc.lft.to/lastmile_qr_scan", "ios": "https://dc.lft.to/lastmile_qr_scan"}, "name": "9c95e85028fe83230836981869f41bd9", "type": "electric_bike"}, {"fusion_lat": 0.0, "bike_id": "85fb816b7f5e096fa76f5b493a7a924e", "fusion_lon": 0.0, "lon": -77.04946516666666, "lat": 38.909517, "is_reserved": 0, "is_disabled": 0, "rental_uris": {"android": "https://dc.lft.to/lastmile_qr_scan", "ios": "https://dc.lft.to/lastmile_qr_scan"}, "name": "85fb816b7f5e096fa76f5b493a7a924e", "type": "electric_scooter"}, {"fusion_lat": 0.0, "bike_id": "f4737f385b70e51b569d11be98fe9295", "fusion_lon": 0.0, "lon": -76.93301816666667, "lat": 38.891984, "is_reserved": 0, "is_disabled": 0, "rental_uris": {"android": "https://dc.lft.to/lastmile_qr_scan", "ios": "https://dc.lft.to/lastmile_qr_scan"}, "name": "f4737f385b70e51b569d11be98fe9295", "type": "electric_scooter"}, {"fusion_lat": 0.0, "bike_id": "1e867c4991da1a3541ad5524312789dc", "fusion_lon": 0.0, "lon": -77.09576583333333, "lat": 38.98176816666667, "is_reserved": 0, "is_disabled": 0, "rental_uris": {"android": "https://dc.lft.to/lastmile_qr_scan", "ios": "https://dc.lft.to/lastmile_qr_scan"}, "name": "1e867c4991da1a3541ad5524312789dc", "type": "electric_bike"}, {"fusion_lat": 0.0, "bike_id": "e215c68151a72067b2302a0ed15933f3", "fusion_lon": 0.0, "lon": -77.063844, "lat": 38.9053065, "is_reserved": 0, "is_disabled": 0, "rental_uris": {"android": "https://dc.lft.to/lastmile_qr_scan", "ios": "https://dc.lft.to/lastmile_qr_scan"}, "name": "e215c68151a72067b2302a0ed15933f3", "type": "electric_scooter"}, {"fusion_lat": 0.0, "bike_id": "48309a0c38bc97da41b14e87b19f3c81", "fusion_lon": 0.0, "lon": -77.048863, "lat": 38.90558033333333, "is_reserved": 0, "is_disabled": 0, "rental_uris": {"android": "https://dc.lft.to/lastmile_qr_scan", "ios": "https://dc.lft.to/lastmile_qr_scan"}, "name": "48309a0c38bc97da41b14e87b19f3c81", "type": "electric_scooter"}, {"fusion_lat": 0.0, "bike_id": "16077967b5d6618516bb0e672ea8f54c", "fusion_lon": 0.0, "lon": -77.01498633333334, "lat": 38.8922235, "is_reserved": 0, "is_disabled": 0, "rental_uris": {"android": "https://dc.lft.to/lastmile_qr_scan", "ios": "https://dc.lft.to/lastmile_qr_scan"}, "name": "16077967b5d6618516bb0e672ea8f54c", "type": "electric_scooter"}, {"fusion_lat": 0.0, "bike_id": "d521b7d218d14bfb6733d0fc08efc4e6", "fusion_lon": 0.0, "lon": -77.1115985, "lat": 38.855087166666664, "is_reserved": 0, "is_disabled": 0, "rental_uris": {"android": "https://dc.lft.to/lastmile_qr_scan", "ios": "https://dc.lft.to/lastmile_qr_scan"}, "name": "d521b7d218d14bfb6733d0fc08efc4e6", "type": "electric_bike"}, {"fusion_lat": 0.0, "bike_id": "e9e06917f11d5f1fa39f0acd39f5e55e", "fusion_lon": 0.0, "lon": -76.93756833333333, "lat": 38.89039283333334, "is_reserved": 0, "is_disabled": 0, "rental_uris": {"android": "https://dc.lft.to/lastmile_qr_scan", "ios": "https://dc.lft.to/lastmile_qr_scan"}, "name": "e9e06917f11d5f1fa39f0acd39f5e55e", "type": "electric_scooter"}, {"fusion_lat": 0.0, "bike_id": "6e64caf13a8c63573d5d2eb989960033", "fusion_lon": 0.0, "lon": -77.1049135, "lat": 38.856054666666665, "is_reserved": 0, "is_disabled": 0, "rental_uris": {"android": "https://dc.lft.to/lastmile_qr_scan", "ios": "https://dc.lft.to/lastmile_qr_scan"}, "name": "6e64caf13a8c63573d5d2eb989960033", "type": "electric_bike"}, {"fusion_lat": 0.0, "bike_id": "210f9d943647f472495cec3aaf46339a", "fusion_lon": 0.0, "lon": -77.000696, "lat": 38.89503916666666, "is_reserved": 0, "is_disabled": 0, "rental_uris": {"android": "https://dc.lft.to/lastmile_qr_scan", "ios": "https://dc.lft.to/lastmile_qr_scan"}, "name": "210f9d943647f472495cec3aaf46339a", "type": "electric_scooter"}, {"fusion_lat": 0.0, "bike_id": "14f665c0a3e701508ca7a549813027c0", "fusion_lon": 0.0, "lon": -76.98226783333334, "lat": 38.866553333333336, "is_reserved": 0, "is_disabled": 0, "rental_uris": {"android": "https://dc.lft.to/lastmile_qr_scan", "ios": "https://dc.lft.to/lastmile_qr_scan"}, "name": "14f665c0a3e701508ca7a549813027c0", "type": "electric_scooter"}, {"fusion_lat": 0.0, "bike_id": "ab6e80b75cb438b0ccee495fd7b454c7", "fusion_lon": 0.0, "lon": -77.0436385, "lat": 38.901501333333336, "is_reserved": 0, "is_disabled": 0, "rental_uris": {"android": "https://dc.lft.to/lastmile_qr_scan", "ios": "https://dc.lft.to/lastmile_qr_scan"}, "name": "ab6e80b75cb438b0ccee495fd7b454c7", "type": "electric_scooter"}, {"fusion_lat": 0.0, "bike_id": "2fff3d000f37b5431a0d66097175091c", "fusion_lon": 0.0, "lon": -77.04182033333333, "lat": 38.892299666666666, "is_reserved": 0, "is_disabled": 0, "rental_uris": {"android": "https://dc.lft.to/lastmile_qr_scan", "ios": "https://dc.lft.to/lastmile_qr_scan"}, "name": "2fff3d000f37b5431a0d66097175091c", "type": "electric_scooter"}, {"fusion_lat": 0.0, "bike_id": "837ff7a67674da4eec4a5b7f3fa009ad", "fusion_lon": 0.0, "lon": -77.04158333333334, "lat": 38.914193, "is_reserved": 0, "is_disabled": 0, "rental_uris": {"android": "https://dc.lft.to/lastmile_qr_scan", "ios": "https://dc.lft.to/lastmile_qr_scan"}, "name": "837ff7a67674da4eec4a5b7f3fa009ad", "type": "electric_scooter"}, {"fusion_lat": 0.0, "bike_id": "d152dece267faa08bad07492e836ddd4", "fusion_lon": 0.0, "lon": -77.05697683333334, "lat": 38.937230166666666, "is_reserved": 0, "is_disabled": 0, "rental_uris": {"android": "https://dc.lft.to/lastmile_qr_scan", "ios": "https://dc.lft.to/lastmile_qr_scan"}, "name": "d152dece267faa08bad07492e836ddd4", "type": "electric_scooter"}, {"fusion_lat": 0.0, "bike_id": "02b08964c0ec81c9d207f05b88f9931c", "fusion_lon": 0.0, "lon": -76.994842, "lat": 38.886133666666666, "is_reserved": 0, "is_disabled": 0, "rental_uris": {"android": "https://dc.lft.to/lastmile_qr_scan", "ios": "https://dc.lft.to/lastmile_qr_scan"}, "name": "02b08964c0ec81c9d207f05b88f9931c", "type": "electric_scooter"}, {"fusion_lat": 0.0, "bike_id": "055f9565bbf6a9486457d486a1c9a536", "fusion_lon": 0.0, "lon": -77.0609495, "lat": 38.905214, "is_reserved": 0, "is_disabled": 0, "rental_uris": {"android": "https://dc.lft.to/lastmile_qr_scan", "ios": "https://dc.lft.to/lastmile_qr_scan"}, "name": "055f9565bbf6a9486457d486a1c9a536", "type": "electric_scooter"}, {"fusion_lat": 0.0, "bike_id": "fbe3beb5b75160d3e49bbdd19a1eefbc", "fusion_lon": 0.0, "lon": -77.01782266666666, "lat": 38.88412, "is_reserved": 0, "is_disabled": 0, "rental_uris": {"android": "https://dc.lft.to/lastmile_qr_scan", "ios": "https://dc.lft.to/lastmile_qr_scan"}, "name": "fbe3beb5b75160d3e49bbdd19a1eefbc", "type": "electric_scooter"}, {"fusion_lat": 0.0, "bike_id": "34ec98ae7a7e74fd605515dbb65d05c7", "fusion_lon": 0.0, "lon": -77.04158666666666, "lat": 38.9233595, "is_reserved": 0, "is_disabled": 0, "rental_uris": {"android": "https://dc.lft.to/lastmile_qr_scan", "ios": "https://dc.lft.to/lastmile_qr_scan"}, "name": "34ec98ae7a7e74fd605515dbb65d05c7", "type": "electric_scooter"}, {"fusion_lat": 0.0, "bike_id": "96827b4ad6c82682f772caf848837dad", "fusion_lon": 0.0, "lon": -77.02177583333334, "lat": 38.88728583333334, "is_reserved": 0, "is_disabled": 0, "rental_uris": {"android": "https://dc.lft.to/lastmile_qr_scan", "ios": "https://dc.lft.to/lastmile_qr_scan"}, "name": "96827b4ad6c82682f772caf848837dad", "type": "electric_scooter"}, {"fusion_lat": 0.0, "bike_id": "0ccf885e30c594a88c7bed24ffaf8451", "fusion_lon": 0.0, "lon": -77.0488115, "lat": 38.89235433333333, "is_reserved": 0, "is_disabled": 0, "rental_uris": {"android": "https://dc.lft.to/lastmile_qr_scan", "ios": "https://dc.lft.to/lastmile_qr_scan"}, "name": "0ccf885e30c594a88c7bed24ffaf8451", "type": "electric_scooter"}, {"fusion_lat": 0.0, "bike_id": "7e33fc25c0460e84c291f56324abc951", "fusion_lon": 0.0, "lon": -77.032291, "lat": 38.914131166666664, "is_reserved": 0, "is_disabled": 0, "rental_uris": {"android": "https://dc.lft.to/lastmile_qr_scan", "ios": "https://dc.lft.to/lastmile_qr_scan"}, "name": "7e33fc25c0460e84c291f56324abc951", "type": "electric_scooter"}, {"fusion_lat": 0.0, "bike_id": "1569bb794f5f68d79293ed3d041c18b3", "fusion_lon": 0.0, "lon": -77.0566495, "lat": 38.8954805, "is_reserved": 0, "is_disabled": 0, "rental_uris": {"android": "https://dc.lft.to/lastmile_qr_scan", "ios": "https://dc.lft.to/lastmile_qr_scan"}, "name": "1569bb794f5f68d79293ed3d041c18b3", "type": "electric_scooter"}, {"fusion_lat": 0.0, "bike_id": "3243f28c40cfc1782d51d2c0d179af62", "fusion_lon": 0.0, "lon": -77.225705, "lat": 38.92963966666667, "is_reserved": 0, "is_disabled": 0, "rental_uris": {"android": "https://dc.lft.to/lastmile_qr_scan", "ios": "https://dc.lft.to/lastmile_qr_scan"}, "name": "3243f28c40cfc1782d51d2c0d179af62", "type": "electric_bike"}, {"fusion_lat": 0.0, "bike_id": "ef8443414912ca6ba986ec3bec9ee795", "fusion_lon": 0.0, "lon": -77.0206805, "lat": 38.92703133333333, "is_reserved": 0, "is_disabled": 0, "rental_uris": {"android": "https://dc.lft.to/lastmile_qr_scan", "ios": "https://dc.lft.to/lastmile_qr_scan"}, "name": "ef8443414912ca6ba986ec3bec9ee795", "type": "electric_scooter"}, {"fusion_lat": 0.0, "bike_id": "ace0dd0491e6521bebe94607dcce642b", "fusion_lon": 0.0, "lon": -77.02586483333333, "lat": 38.887437, "is_reserved": 0, "is_disabled": 0, "rental_uris": {"android": "https://dc.lft.to/lastmile_qr_scan", "ios": "https://dc.lft.to/lastmile_qr_scan"}, "name": "ace0dd0491e6521bebe94607dcce642b", "type": "electric_scooter"}, {"fusion_lat": 0.0, "bike_id": "846c7a450e9f324346293b55579cc7df", "fusion_lon": 0.0, "lon": -77.026369, "lat": 38.917117, "is_reserved": 0, "is_disabled": 0, "rental_uris": {"android": "https://dc.lft.to/lastmile_qr_scan", "ios": "https://dc.lft.to/lastmile_qr_scan"}, "name": "846c7a450e9f324346293b55579cc7df", "type": "electric_scooter"}, {"fusion_lat": 0.0, "bike_id": "a3cc3fad847662b8a1ea65b632584548", "fusion_lon": 0.0, "lon": -77.03412383333334, "lat": 38.923239333333335, "is_reserved": 0, "is_disabled": 0, "rental_uris": {"android": "https://dc.lft.to/lastmile_qr_scan", "ios": "https://dc.lft.to/lastmile_qr_scan"}, "name": "a3cc3fad847662b8a1ea65b632584548", "type": "electric_scooter"}, {"fusion_lat": 0.0, "bike_id": "1fb40ab3d96a420f57ba884f7e855ee5", "fusion_lon": 0.0, "lon": -77.02757633333333, "lat": 38.94409016666667, "is_reserved": 0, "is_disabled": 0, "rental_uris": {"android": "https://dc.lft.to/lastmile_qr_scan", "ios": "https://dc.lft.to/lastmile_qr_scan"}, "name": "1fb40ab3d96a420f57ba884f7e855ee5", "type": "electric_scooter"}, {"fusion_lat": 0.0, "bike_id": "00ba5ba11387007d912577ca19b01d91", "fusion_lon": 0.0, "lon": -77.0246825, "lat": 38.900837833333334, "is_reserved": 0, "is_disabled": 0, "rental_uris": {"android": "https://dc.lft.to/lastmile_qr_scan", "ios": "https://dc.lft.to/lastmile_qr_scan"}, "name": "00ba5ba11387007d912577ca19b01d91", "type": "electric_scooter"}, {"fusion_lat": 0.0, "bike_id": "1b366abd9cc6003ca80bb3919bfa639e", "fusion_lon": 0.0, "lon": -77.0344355, "lat": 38.909867, "is_reserved": 0, "is_disabled": 0, "rental_uris": {"android": "https://dc.lft.to/lastmile_qr_scan", "ios": "https://dc.lft.to/lastmile_qr_scan"}, "name": "1b366abd9cc6003ca80bb3919bfa639e", "type": "electric_scooter"}, {"fusion_lat": 0.0, "bike_id": "21f8fdfa1591d8f12dd70d7ef834bc29", "fusion_lon": 0.0, "lon": -77.0586315, "lat": 38.93614633333333, "is_reserved": 0, "is_disabled": 0, "rental_uris": {"android": "https://dc.lft.to/lastmile_qr_scan", "ios": "https://dc.lft.to/lastmile_qr_scan"}, "name": "21f8fdfa1591d8f12dd70d7ef834bc29", "type": "electric_scooter"}, {"fusion_lat": 0.0, "bike_id": "44fb92564d5a079a895dfe4a7a6ca187", "fusion_lon": 0.0, "lon": -77.0050465, "lat": 38.91270033333333, "is_reserved": 0, "is_disabled": 0, "rental_uris": {"android": "https://dc.lft.to/lastmile_qr_scan", "ios": "https://dc.lft.to/lastmile_qr_scan"}, "name": "44fb92564d5a079a895dfe4a7a6ca187", "type": "electric_scooter"}, {"fusion_lat": 0.0, "bike_id": "7c06a097e7a8179965fb433d82f5df3c", "fusion_lon": 0.0, "lon": -77.04656566666667, "lat": 38.91600183333333, "is_reserved": 0, "is_disabled": 0, "rental_uris": {"android": "https://dc.lft.to/lastmile_qr_scan", "ios": "https://dc.lft.to/lastmile_qr_scan"}, "name": "7c06a097e7a8179965fb433d82f5df3c", "type": "electric_scooter"}, {"fusion_lat": 0.0, "bike_id": "07028cd834b03f90fcdba865c4785d6e", "fusion_lon": 0.0, "lon": -77.03849033333333, "lat": 38.906882, "is_reserved": 0, "is_disabled": 0, "rental_uris": {"android": "https://dc.lft.to/lastmile_qr_scan", "ios": "https://dc.lft.to/lastmile_qr_scan"}, "name": "07028cd834b03f90fcdba865c4785d6e", "type": "electric_scooter"}, {"fusion_lat": 0.0, "bike_id": "645848b0997a696df430e19424fcb28f", "fusion_lon": 0.0, "lon": -77.023636, "lat": 38.892224, "is_reserved": 0, "is_disabled": 0, "rental_uris": {"android": "https://dc.lft.to/lastmile_qr_scan", "ios": "https://dc.lft.to/lastmile_qr_scan"}, "name": "645848b0997a696df430e19424fcb28f", "type": "electric_scooter"}, {"fusion_lat": 0.0, "bike_id": "9ea0d76c5d383c7161ff496474332e29", "fusion_lon": 0.0, "lon": -77.02057483333333, "lat": 38.90976366666666, "is_reserved": 0, "is_disabled": 0, "rental_uris": {"android": "https://dc.lft.to/lastmile_qr_scan", "ios": "https://dc.lft.to/lastmile_qr_scan"}, "name": "9ea0d76c5d383c7161ff496474332e29", "type": "electric_scooter"}, {"fusion_lat": 0.0, "bike_id": "d401fcfcac433bef95c78d200f457443", "fusion_lon": 0.0, "lon": -77.021586, "lat": 38.9250415, "is_reserved": 0, "is_disabled": 0, "rental_uris": {"android": "https://dc.lft.to/lastmile_qr_scan", "ios": "https://dc.lft.to/lastmile_qr_scan"}, "name": "d401fcfcac433bef95c78d200f457443", "type": "electric_scooter"}, {"fusion_lat": 0.0, "bike_id": "c4b0c130447c7566a9a3e75c14f1e02d", "fusion_lon": 0.0, "lon": -77.030697, "lat": 38.8804995, "is_reserved": 0, "is_disabled": 0, "rental_uris": {"android": "https://dc.lft.to/lastmile_qr_scan", "ios": "https://dc.lft.to/lastmile_qr_scan"}, "name": "c4b0c130447c7566a9a3e75c14f1e02d", "type": "electric_scooter"}, {"fusion_lat": 0.0, "bike_id": "3887b098e95bcde1c2fb2cb730a9cc1e", "fusion_lon": 0.0, "lon": -77.02393983333333, "lat": 38.91682483333334, "is_reserved": 0, "is_disabled": 0, "rental_uris": {"android": "https://dc.lft.to/lastmile_qr_scan", "ios": "https://dc.lft.to/lastmile_qr_scan"}, "name": "3887b098e95bcde1c2fb2cb730a9cc1e", "type": "electric_scooter"}, {"fusion_lat": 0.0, "bike_id": "31f80606bfa5549a2113f736734d135d", "fusion_lon": 0.0, "lon": -77.040446, "lat": 38.923085, "is_reserved": 0, "is_disabled": 0, "rental_uris": {"android": "https://dc.lft.to/lastmile_qr_scan", "ios": "https://dc.lft.to/lastmile_qr_scan"}, "name": "31f80606bfa5549a2113f736734d135d", "type": "electric_scooter"}, {"fusion_lat": 0.0, "bike_id": "9282dfe7d1b7a7c1d206a9c395e7d7ea", "fusion_lon": 0.0, "lon": -77.0382465, "lat": 38.904138833333334, "is_reserved": 0, "is_disabled": 0, "rental_uris": {"android": "https://dc.lft.to/lastmile_qr_scan", "ios": "https://dc.lft.to/lastmile_qr_scan"}, "name": "9282dfe7d1b7a7c1d206a9c395e7d7ea", "type": "electric_scooter"}, {"fusion_lat": 0.0, "bike_id": "e16a6cccbdc9bf11ccba5e4d5c288288", "fusion_lon": 0.0, "lon": -77.03202416666667, "lat": 38.91302783333333, "is_reserved": 0, "is_disabled": 0, "rental_uris": {"android": "https://dc.lft.to/lastmile_qr_scan", "ios": "https://dc.lft.to/lastmile_qr_scan"}, "name": "e16a6cccbdc9bf11ccba5e4d5c288288", "type": "electric_scooter"}, {"fusion_lat": 0.0, "bike_id": "b78f753735756d1c1dd3f61bd7c425d1", "fusion_lon": 0.0, "lon": -77.05194983333334, "lat": 38.92390866666667, "is_reserved": 0, "is_disabled": 0, "rental_uris": {"android": "https://dc.lft.to/lastmile_qr_scan", "ios": "https://dc.lft.to/lastmile_qr_scan"}, "name": "b78f753735756d1c1dd3f61bd7c425d1", "type": "electric_scooter"}, {"fusion_lat": 0.0, "bike_id": "78135198b30893a5e981077e70f2309c", "fusion_lon": 0.0, "lon": -77.0058365, "lat": 38.87311666666667, "is_reserved": 0, "is_disabled": 0, "rental_uris": {"android": "https://dc.lft.to/lastmile_qr_scan", "ios": "https://dc.lft.to/lastmile_qr_scan"}, "name": "78135198b30893a5e981077e70f2309c", "type": "electric_scooter"}, {"fusion_lat": 0.0, "bike_id": "7117a25e2927a937b084628f56fa108f", "fusion_lon": 0.0, "lon": -77.03254233333334, "lat": 38.899778166666664, "is_reserved": 0, "is_disabled": 0, "rental_uris": {"android": "https://dc.lft.to/lastmile_qr_scan", "ios": "https://dc.lft.to/lastmile_qr_scan"}, "name": "7117a25e2927a937b084628f56fa108f", "type": "electric_scooter"}, {"fusion_lat": 0.0, "bike_id": "84ec895e90c26213a0627f0ce44c399a", "fusion_lon": 0.0, "lon": -77.03873116666666, "lat": 38.90636833333333, "is_reserved": 0, "is_disabled": 0, "rental_uris": {"android": "https://dc.lft.to/lastmile_qr_scan", "ios": "https://dc.lft.to/lastmile_qr_scan"}, "name": "84ec895e90c26213a0627f0ce44c399a", "type": "electric_scooter"}, {"fusion_lat": 0.0, "bike_id": "b08d3d6b512e58e89bdaa72b17b76bf7", "fusion_lon": 0.0, "lon": -77.02097583333334, "lat": 38.927110166666665, "is_reserved": 0, "is_disabled": 0, "rental_uris": {"android": "https://dc.lft.to/lastmile_qr_scan", "ios": "https://dc.lft.to/lastmile_qr_scan"}, "name": "b08d3d6b512e58e89bdaa72b17b76bf7", "type": "electric_scooter"}, {"fusion_lat": 0.0, "bike_id": "e8de8e186f14d53211fdecac1a9b30b6", "fusion_lon": 0.0, "lon": -76.98837483333334, "lat": 38.9013215, "is_reserved": 0, "is_disabled": 0, "rental_uris": {"android": "https://dc.lft.to/lastmile_qr_scan", "ios": "https://dc.lft.to/lastmile_qr_scan"}, "name": "e8de8e186f14d53211fdecac1a9b30b6", "type": "electric_scooter"}, {"fusion_lat": 0.0, "bike_id": "9da81ac2a32ab6003c2d2c59a3ad5c45", "fusion_lon": 0.0, "lon": -77.01643683333333, "lat": 38.929002833333335, "is_reserved": 0, "is_disabled": 0, "rental_uris": {"android": "https://dc.lft.to/lastmile_qr_scan", "ios": "https://dc.lft.to/lastmile_qr_scan"}, "name": "9da81ac2a32ab6003c2d2c59a3ad5c45", "type": "electric_scooter"}, {"fusion_lat": 0.0, "bike_id": "bdef9e0fe8d4eb22fa282940d52668ab", "fusion_lon": 0.0, "lon": -77.04675166666667, "lat": 38.895595, "is_reserved": 0, "is_disabled": 0, "rental_uris": {"android": "https://dc.lft.to/lastmile_qr_scan", "ios": "https://dc.lft.to/lastmile_qr_scan"}, "name": "bdef9e0fe8d4eb22fa282940d52668ab", "type": "electric_scooter"}, {"fusion_lat": 0.0, "bike_id": "b19bdc1effa4704bfdec01eacfcbed34", "fusion_lon": 0.0, "lon": -77.04470933333333, "lat": 38.89225716666667, "is_reserved": 0, "is_disabled": 0, "rental_uris": {"android": "https://dc.lft.to/lastmile_qr_scan", "ios": "https://dc.lft.to/lastmile_qr_scan"}, "name": "b19bdc1effa4704bfdec01eacfcbed34", "type": "electric_scooter"}, {"fusion_lat": 0.0, "bike_id": "a647866d09f784a33a3348067c6fd05b", "fusion_lon": 0.0, "lon": -77.09495866666667, "lat": 38.80768, "is_reserved": 0, "is_disabled": 0, "rental_uris": {"android": "https://dc.lft.to/lastmile_qr_scan", "ios": "https://dc.lft.to/lastmile_qr_scan"}, "name": "a647866d09f784a33a3348067c6fd05b", "type": "electric_bike"}, {"fusion_lat": 0.0, "bike_id": "e2a814832e3af25d278f0b925cf6d8e3", "fusion_lon": 0.0, "lon": -77.03646866666666, "lat": 38.924651, "is_reserved": 0, "is_disabled": 0, "rental_uris": {"android": "https://dc.lft.to/lastmile_qr_scan", "ios": "https://dc.lft.to/lastmile_qr_scan"}, "name": "e2a814832e3af25d278f0b925cf6d8e3", "type": "electric_scooter"}, {"fusion_lat": 0.0, "bike_id": "6e1a7037bb2741a2efb37c37e9ccd2f1", "fusion_lon": 0.0, "lon": -77.03198033333334, "lat": 38.926826166666665, "is_reserved": 0, "is_disabled": 0, "rental_uris": {"android": "https://dc.lft.to/lastmile_qr_scan", "ios": "https://dc.lft.to/lastmile_qr_scan"}, "name": "6e1a7037bb2741a2efb37c37e9ccd2f1", "type": "electric_scooter"}, {"fusion_lat": 0.0, "bike_id": "8f759b62a9704b6970310e76f1761523", "fusion_lon": 0.0, "lon": -77.0241045, "lat": 38.907031333333336, "is_reserved": 0, "is_disabled": 0, "rental_uris": {"android": "https://dc.lft.to/lastmile_qr_scan", "ios": "https://dc.lft.to/lastmile_qr_scan"}, "name": "8f759b62a9704b6970310e76f1761523", "type": "electric_scooter"}, {"fusion_lat": 0.0, "bike_id": "9c3cb7adbdefc835945e63e30966ce2b", "fusion_lon": 0.0, "lon": -77.037627, "lat": 38.9077915, "is_reserved": 0, "is_disabled": 0, "rental_uris": {"android": "https://dc.lft.to/lastmile_qr_scan", "ios": "https://dc.lft.to/lastmile_qr_scan"}, "name": "9c3cb7adbdefc835945e63e30966ce2b", "type": "electric_scooter"}, {"fusion_lat": 0.0, "bike_id": "cae4224808843fe4f4cf39a430fcc350", "fusion_lon": 0.0, "lon": -76.933694, "lat": 38.8992015, "is_reserved": 0, "is_disabled": 0, "rental_uris": {"android": "https://dc.lft.to/lastmile_qr_scan", "ios": "https://dc.lft.to/lastmile_qr_scan"}, "name": "cae4224808843fe4f4cf39a430fcc350", "type": "electric_scooter"}, {"fusion_lat": 0.0, "bike_id": "e3a636cfe7f4d0f4bcbfafb5102ea71d", "fusion_lon": 0.0, "lon": -77.05329383333333, "lat": 38.906512166666666, "is_reserved": 0, "is_disabled": 0, "rental_uris": {"android": "https://dc.lft.to/lastmile_qr_scan", "ios": "https://dc.lft.to/lastmile_qr_scan"}, "name": "e3a636cfe7f4d0f4bcbfafb5102ea71d", "type": "electric_scooter"}, {"fusion_lat": 0.0, "bike_id": "07c70c6ddd79acfff04924943e08a0b7", "fusion_lon": 0.0, "lon": -76.99837083333334, "lat": 38.885404666666666, "is_reserved": 0, "is_disabled": 0, "rental_uris": {"android": "https://dc.lft.to/lastmile_qr_scan", "ios": "https://dc.lft.to/lastmile_qr_scan"}, "name": "07c70c6ddd79acfff04924943e08a0b7", "type": "electric_scooter"}, {"fusion_lat": 0.0, "bike_id": "ee7d0f4e71f70c38b90d00fb59427d1d", "fusion_lon": 0.0, "lon": -77.03997033333333, "lat": 38.9079985, "is_reserved": 0, "is_disabled": 0, "rental_uris": {"android": "https://dc.lft.to/lastmile_qr_scan", "ios": "https://dc.lft.to/lastmile_qr_scan"}, "name": "ee7d0f4e71f70c38b90d00fb59427d1d", "type": "electric_scooter"}, {"fusion_lat": 0.0, "bike_id": "b3292f63ad47e75316eb390ee5c50394", "fusion_lon": 0.0, "lon": -77.02157416666667, "lat": 38.887498666666666, "is_reserved": 0, "is_disabled": 0, "rental_uris": {"android": "https://dc.lft.to/lastmile_qr_scan", "ios": "https://dc.lft.to/lastmile_qr_scan"}, "name": "b3292f63ad47e75316eb390ee5c50394", "type": "electric_scooter"}, {"fusion_lat": 0.0, "bike_id": "b62b55e6aa9e40535f5385b9a98a8e5b", "fusion_lon": 0.0, "lon": -77.02711816666667, "lat": 38.949879333333335, "is_reserved": 0, "is_disabled": 0, "rental_uris": {"android": "https://dc.lft.to/lastmile_qr_scan", "ios": "https://dc.lft.to/lastmile_qr_scan"}, "name": "b62b55e6aa9e40535f5385b9a98a8e5b", "type": "electric_scooter"}, {"fusion_lat": 0.0, "bike_id": "6e0fb9605abce92d90230a3f56df0958", "fusion_lon": 0.0, "lon": -76.99573033333333, "lat": 38.851800833333336, "is_reserved": 0, "is_disabled": 0, "rental_uris": {"android": "https://dc.lft.to/lastmile_qr_scan", "ios": "https://dc.lft.to/lastmile_qr_scan"}, "name": "6e0fb9605abce92d90230a3f56df0958", "type": "electric_bike"}, {"fusion_lat": 0.0, "bike_id": "4867b59b71022ffbb4b75cd4ffea9ccf", "fusion_lon": 0.0, "lon": -77.026243, "lat": 38.8922795, "is_reserved": 0, "is_disabled": 0, "rental_uris": {"android": "https://dc.lft.to/lastmile_qr_scan", "ios": "https://dc.lft.to/lastmile_qr_scan"}, "name": "4867b59b71022ffbb4b75cd4ffea9ccf", "type": "electric_scooter"}, {"fusion_lat": 0.0, "bike_id": "f8b58b161bb5a28750ed52a5d1710ab5", "fusion_lon": 0.0, "lon": -77.00597966666666, "lat": 38.87187766666667, "is_reserved": 0, "is_disabled": 0, "rental_uris": {"android": "https://dc.lft.to/lastmile_qr_scan", "ios": "https://dc.lft.to/lastmile_qr_scan"}, "name": "f8b58b161bb5a28750ed52a5d1710ab5", "type": "electric_scooter"}, {"fusion_lat": 0.0, "bike_id": "c664434fb829ad30d28ff6f4f935a864", "fusion_lon": 0.0, "lon": -77.03887716666667, "lat": 38.911145166666664, "is_reserved": 0, "is_disabled": 0, "rental_uris": {"android": "https://dc.lft.to/lastmile_qr_scan", "ios": "https://dc.lft.to/lastmile_qr_scan"}, "name": "c664434fb829ad30d28ff6f4f935a864", "type": "electric_scooter"}, {"fusion_lat": 0.0, "bike_id": "fa40814a9d36055be80605bb6449af99", "fusion_lon": 0.0, "lon": -77.04873466666666, "lat": 38.90469233333334, "is_reserved": 0, "is_disabled": 0, "rental_uris": {"android": "https://dc.lft.to/lastmile_qr_scan", "ios": "https://dc.lft.to/lastmile_qr_scan"}, "name": "fa40814a9d36055be80605bb6449af99", "type": "electric_scooter"}, {"fusion_lat": 0.0, "bike_id": "fdb23895a0fe240ffd599e83a54751d6", "fusion_lon": 0.0, "lon": -76.93753183333334, "lat": 38.89038383333333, "is_reserved": 0, "is_disabled": 0, "rental_uris": {"android": "https://dc.lft.to/lastmile_qr_scan", "ios": "https://dc.lft.to/lastmile_qr_scan"}, "name": "fdb23895a0fe240ffd599e83a54751d6", "type": "electric_scooter"}, {"fusion_lat": 0.0, "bike_id": "a930d103adc79de312ede8f4ec34e87d", "fusion_lon": 0.0, "lon": -76.9995295, "lat": 38.90706483333334, "is_reserved": 0, "is_disabled": 0, "rental_uris": {"android": "https://dc.lft.to/lastmile_qr_scan", "ios": "https://dc.lft.to/lastmile_qr_scan"}, "name": "a930d103adc79de312ede8f4ec34e87d", "type": "electric_scooter"}, {"fusion_lat": 0.0, "bike_id": "ce82a945b4a293a6f4b49c445b885237", "fusion_lon": 0.0, "lon": -77.04300233333333, "lat": 38.908999, "is_reserved": 0, "is_disabled": 0, "rental_uris": {"android": "https://dc.lft.to/lastmile_qr_scan", "ios": "https://dc.lft.to/lastmile_qr_scan"}, "name": "ce82a945b4a293a6f4b49c445b885237", "type": "electric_scooter"}, {"fusion_lat": 0.0, "bike_id": "bbb69705cc2cda768136334ff1791b37", "fusion_lon": 0.0, "lon": -77.02331616666666, "lat": 38.89739766666667, "is_reserved": 0, "is_disabled": 0, "rental_uris": {"android": "https://dc.lft.to/lastmile_qr_scan", "ios": "https://dc.lft.to/lastmile_qr_scan"}, "name": "bbb69705cc2cda768136334ff1791b37", "type": "electric_scooter"}, {"fusion_lat": 0.0, "bike_id": "e25e9e51ce363bfac233041fa665b5ba", "fusion_lon": 0.0, "lon": -77.0319105, "lat": 38.9029115, "is_reserved": 0, "is_disabled": 0, "rental_uris": {"android": "https://dc.lft.to/lastmile_qr_scan", "ios": "https://dc.lft.to/lastmile_qr_scan"}, "name": "e25e9e51ce363bfac233041fa665b5ba", "type": "electric_scooter"}, {"fusion_lat": 0.0, "bike_id": "898c37db7921282bd9300afb609f138d", "fusion_lon": 0.0, "lon": -77.0344215, "lat": 38.90434316666666, "is_reserved": 0, "is_disabled": 0, "rental_uris": {"android": "https://dc.lft.to/lastmile_qr_scan", "ios": "https://dc.lft.to/lastmile_qr_scan"}, "name": "898c37db7921282bd9300afb609f138d", "type": "electric_scooter"}, {"fusion_lat": 0.0, "bike_id": "8481fbfef272ce369e89f63ad98bec7c", "fusion_lon": 0.0, "lon": -77.0405745, "lat": 38.909621666666666, "is_reserved": 0, "is_disabled": 0, "rental_uris": {"android": "https://dc.lft.to/lastmile_qr_scan", "ios": "https://dc.lft.to/lastmile_qr_scan"}, "name": "8481fbfef272ce369e89f63ad98bec7c", "type": "electric_scooter"}, {"fusion_lat": 0.0, "bike_id": "650c57f3514ed061dac5ade06ab2c836", "fusion_lon": 0.0, "lon": -76.98946, "lat": 38.90187383333333, "is_reserved": 0, "is_disabled": 0, "rental_uris": {"android": "https://dc.lft.to/lastmile_qr_scan", "ios": "https://dc.lft.to/lastmile_qr_scan"}, "name": "650c57f3514ed061dac5ade06ab2c836", "type": "electric_scooter"}, {"fusion_lat": 0.0, "bike_id": "2d818892b55654b1dfd8bb7cb5c1ece0", "fusion_lon": 0.0, "lon": -77.0689375, "lat": 38.90410816666667, "is_reserved": 0, "is_disabled": 0, "rental_uris": {"android": "https://dc.lft.to/lastmile_qr_scan", "ios": "https://dc.lft.to/lastmile_qr_scan"}, "name": "2d818892b55654b1dfd8bb7cb5c1ece0", "type": "electric_bike"}, {"fusion_lat": 0.0, "bike_id": "e737e0b84c179b91052335df7ffccce7", "fusion_lon": 0.0, "lon": -77.0502685, "lat": 38.901572333333334, "is_reserved": 0, "is_disabled": 0, "rental_uris": {"android": "https://dc.lft.to/lastmile_qr_scan", "ios": "https://dc.lft.to/lastmile_qr_scan"}, "name": "e737e0b84c179b91052335df7ffccce7", "type": "electric_scooter"}, {"fusion_lat": 0.0, "bike_id": "e82c3ffc379fd96f88300b4efcf8cab9", "fusion_lon": 0.0, "lon": -77.03208616666667, "lat": 38.91259816666667, "is_reserved": 0, "is_disabled": 0, "rental_uris": {"android": "https://dc.lft.to/lastmile_qr_scan", "ios": "https://dc.lft.to/lastmile_qr_scan"}, "name": "e82c3ffc379fd96f88300b4efcf8cab9", "type": "electric_scooter"}, {"fusion_lat": 0.0, "bike_id": "c1e9fd12c7f757917eba4751d5a28ae5", "fusion_lon": 0.0, "lon": -76.9936745, "lat": 38.861491, "is_reserved": 0, "is_disabled": 0, "rental_uris": {"android": "https://dc.lft.to/lastmile_qr_scan", "ios": "https://dc.lft.to/lastmile_qr_scan"}, "name": "c1e9fd12c7f757917eba4751d5a28ae5", "type": "electric_scooter"}, {"fusion_lat": 0.0, "bike_id": "244690683979b06baeb18f1afcf9431c", "fusion_lon": 0.0, "lon": -76.93547916666667, "lat": 38.890232, "is_reserved": 0, "is_disabled": 0, "rental_uris": {"android": "https://dc.lft.to/lastmile_qr_scan", "ios": "https://dc.lft.to/lastmile_qr_scan"}, "name": "244690683979b06baeb18f1afcf9431c", "type": "electric_scooter"}, {"fusion_lat": 0.0, "bike_id": "d84af2cd4297c67c3f4c2098f2326b77", "fusion_lon": 0.0, "lon": -77.03662716666666, "lat": 38.922927333333334, "is_reserved": 0, "is_disabled": 0, "rental_uris": {"android": "https://dc.lft.to/lastmile_qr_scan", "ios": "https://dc.lft.to/lastmile_qr_scan"}, "name": "d84af2cd4297c67c3f4c2098f2326b77", "type": "electric_scooter"}, {"fusion_lat": 0.0, "bike_id": "5d46a59dc96ff73e070d48258560c0bb", "fusion_lon": 0.0, "lon": -77.03052366666667, "lat": 38.884359833333335, "is_reserved": 0, "is_disabled": 0, "rental_uris": {"android": "https://dc.lft.to/lastmile_qr_scan", "ios": "https://dc.lft.to/lastmile_qr_scan"}, "name": "5d46a59dc96ff73e070d48258560c0bb", "type": "electric_scooter"}, {"fusion_lat": 0.0, "bike_id": "09abad4e3d69bf004398d170cb109b94", "fusion_lon": 0.0, "lon": -76.95752516666667, "lat": 38.8843355, "is_reserved": 0, "is_disabled": 0, "rental_uris": {"android": "https://dc.lft.to/lastmile_qr_scan", "ios": "https://dc.lft.to/lastmile_qr_scan"}, "name": "09abad4e3d69bf004398d170cb109b94", "type": "electric_scooter"}, {"fusion_lat": 0.0, "bike_id": "8387ee5e387b0cd99e20c5c0027c2604", "fusion_lon": 0.0, "lon": -77.02401116666667, "lat": 38.923981833333336, "is_reserved": 0, "is_disabled": 0, "rental_uris": {"android": "https://dc.lft.to/lastmile_qr_scan", "ios": "https://dc.lft.to/lastmile_qr_scan"}, "name": "8387ee5e387b0cd99e20c5c0027c2604", "type": "electric_scooter"}, {"fusion_lat": 0.0, "bike_id": "f8a65a7a41a52048621f92492115a5ed", "fusion_lon": 0.0, "lon": -77.00256283333333, "lat": 38.89483933333333, "is_reserved": 0, "is_disabled": 0, "rental_uris": {"android": "https://dc.lft.to/lastmile_qr_scan", "ios": "https://dc.lft.to/lastmile_qr_scan"}, "name": "f8a65a7a41a52048621f92492115a5ed", "type": "electric_scooter"}, {"fusion_lat": 0.0, "bike_id": "9a727f221509abd4c0ec1a36235fb960", "fusion_lon": 0.0, "lon": -77.02116466666666, "lat": 38.91589916666667, "is_reserved": 0, "is_disabled": 0, "rental_uris": {"android": "https://dc.lft.to/lastmile_qr_scan", "ios": "https://dc.lft.to/lastmile_qr_scan"}, "name": "9a727f221509abd4c0ec1a36235fb960", "type": "electric_scooter"}, {"fusion_lat": 0.0, "bike_id": "903f52b7a1dc2ac5d8ddf9d0586a3c1e", "fusion_lon": 0.0, "lon": -77.01937583333333, "lat": 38.93693483333333, "is_reserved": 0, "is_disabled": 0, "rental_uris": {"android": "https://dc.lft.to/lastmile_qr_scan", "ios": "https://dc.lft.to/lastmile_qr_scan"}, "name": "903f52b7a1dc2ac5d8ddf9d0586a3c1e", "type": "electric_scooter"}, {"fusion_lat": 0.0, "bike_id": "b4822e81f0b8cd1ef08d5350213ba796", "fusion_lon": 0.0, "lon": -77.02468216666666, "lat": 38.9419675, "is_reserved": 0, "is_disabled": 0, "rental_uris": {"android": "https://dc.lft.to/lastmile_qr_scan", "ios": "https://dc.lft.to/lastmile_qr_scan"}, "name": "b4822e81f0b8cd1ef08d5350213ba796", "type": "electric_scooter"}, {"fusion_lat": 0.0, "bike_id": "427fec62f710170363fd26954f4f872d", "fusion_lon": 0.0, "lon": -77.02539366666667, "lat": 38.9933135, "is_reserved": 0, "is_disabled": 0, "rental_uris": {"android": "https://dc.lft.to/lastmile_qr_scan", "ios": "https://dc.lft.to/lastmile_qr_scan"}, "name": "427fec62f710170363fd26954f4f872d", "type": "electric_bike"}, {"fusion_lat": 0.0, "bike_id": "668835961944780cb8c54312b1a3a358", "fusion_lon": 0.0, "lon": -76.9762915, "lat": 38.9057355, "is_reserved": 0, "is_disabled": 0, "rental_uris": {"android": "https://dc.lft.to/lastmile_qr_scan", "ios": "https://dc.lft.to/lastmile_qr_scan"}, "name": "668835961944780cb8c54312b1a3a358", "type": "electric_scooter"}, {"fusion_lat": 0.0, "bike_id": "a3349ca44172612566a5e8f9d022efb6", "fusion_lon": 0.0, "lon": -77.0382725, "lat": 38.91040783333333, "is_reserved": 0, "is_disabled": 0, "rental_uris": {"android": "https://dc.lft.to/lastmile_qr_scan", "ios": "https://dc.lft.to/lastmile_qr_scan"}, "name": "a3349ca44172612566a5e8f9d022efb6", "type": "electric_scooter"}, {"fusion_lat": 0.0, "bike_id": "fa49f5b547073e58e82970225b37ac39", "fusion_lon": 0.0, "lon": -76.99501066666667, "lat": 38.86246466666667, "is_reserved": 0, "is_disabled": 0, "rental_uris": {"android": "https://dc.lft.to/lastmile_qr_scan", "ios": "https://dc.lft.to/lastmile_qr_scan"}, "name": "fa49f5b547073e58e82970225b37ac39", "type": "electric_scooter"}, {"fusion_lat": 0.0, "bike_id": "cfed48650f99d1c5e87257bbc58b17a6", "fusion_lon": 0.0, "lon": -76.9305825, "lat": 38.901541, "is_reserved": 0, "is_disabled": 0, "rental_uris": {"android": "https://dc.lft.to/lastmile_qr_scan", "ios": "https://dc.lft.to/lastmile_qr_scan"}, "name": "cfed48650f99d1c5e87257bbc58b17a6", "type": "electric_scooter"}, {"fusion_lat": 0.0, "bike_id": "ed35aa723978c251f8127af7f3e8a8ca", "fusion_lon": 0.0, "lon": -77.02973233333333, "lat": 38.91682566666667, "is_reserved": 0, "is_disabled": 0, "rental_uris": {"android": "https://dc.lft.to/lastmile_qr_scan", "ios": "https://dc.lft.to/lastmile_qr_scan"}, "name": "ed35aa723978c251f8127af7f3e8a8ca", "type": "electric_scooter"}, {"fusion_lat": 0.0, "bike_id": "7ac1f6d56f1ee5e3974b789be5775bfb", "fusion_lon": 0.0, "lon": -77.05035966666667, "lat": 38.90378366666667, "is_reserved": 0, "is_disabled": 0, "rental_uris": {"android": "https://dc.lft.to/lastmile_qr_scan", "ios": "https://dc.lft.to/lastmile_qr_scan"}, "name": "7ac1f6d56f1ee5e3974b789be5775bfb", "type": "electric_scooter"}, {"fusion_lat": 0.0, "bike_id": "0abd3c155311c1cea3a20fdc912de2a8", "fusion_lon": 0.0, "lon": -77.03307583333333, "lat": 38.92559966666666, "is_reserved": 0, "is_disabled": 0, "rental_uris": {"android": "https://dc.lft.to/lastmile_qr_scan", "ios": "https://dc.lft.to/lastmile_qr_scan"}, "name": "0abd3c155311c1cea3a20fdc912de2a8", "type": "electric_scooter"}, {"fusion_lat": 0.0, "bike_id": "65a01d6d3ca6af586b26f4a60e08d740", "fusion_lon": 0.0, "lon": -77.00938483333333, "lat": 38.8998935, "is_reserved": 0, "is_disabled": 0, "rental_uris": {"android": "https://dc.lft.to/lastmile_qr_scan", "ios": "https://dc.lft.to/lastmile_qr_scan"}, "name": "65a01d6d3ca6af586b26f4a60e08d740", "type": "electric_scooter"}, {"fusion_lat": 0.0, "bike_id": "7b2e9d6e6f9cda7b4a4d5066e135e43b", "fusion_lon": 0.0, "lon": -77.047674, "lat": 38.921449833333334, "is_reserved": 0, "is_disabled": 0, "rental_uris": {"android": "https://dc.lft.to/lastmile_qr_scan", "ios": "https://dc.lft.to/lastmile_qr_scan"}, "name": "7b2e9d6e6f9cda7b4a4d5066e135e43b", "type": "electric_scooter"}, {"fusion_lat": 0.0, "bike_id": "edc2eb116c080430b518fe5f84ff9722", "fusion_lon": 0.0, "lon": -77.02831416666666, "lat": 38.914195, "is_reserved": 0, "is_disabled": 0, "rental_uris": {"android": "https://dc.lft.to/lastmile_qr_scan", "ios": "https://dc.lft.to/lastmile_qr_scan"}, "name": "edc2eb116c080430b518fe5f84ff9722", "type": "electric_scooter"}, {"fusion_lat": 0.0, "bike_id": "ecda6bc88e7908d2e60e04a77ac29c05", "fusion_lon": 0.0, "lon": -77.02162066666666, "lat": 38.92686483333333, "is_reserved": 0, "is_disabled": 0, "rental_uris": {"android": "https://dc.lft.to/lastmile_qr_scan", "ios": "https://dc.lft.to/lastmile_qr_scan"}, "name": "ecda6bc88e7908d2e60e04a77ac29c05", "type": "electric_scooter"}, {"fusion_lat": 0.0, "bike_id": "dab75b4741b2a2bc53d6216559a7931d", "fusion_lon": 0.0, "lon": -77.03181533333333, "lat": 38.8922215, "is_reserved": 0, "is_disabled": 0, "rental_uris": {"android": "https://dc.lft.to/lastmile_qr_scan", "ios": "https://dc.lft.to/lastmile_qr_scan"}, "name": "dab75b4741b2a2bc53d6216559a7931d", "type": "electric_scooter"}, {"fusion_lat": 0.0, "bike_id": "1a44e5592b2959400b4478dffb8a5e61", "fusion_lon": 0.0, "lon": -77.03321683333333, "lat": 38.909754, "is_reserved": 0, "is_disabled": 0, "rental_uris": {"android": "https://dc.lft.to/lastmile_qr_scan", "ios": "https://dc.lft.to/lastmile_qr_scan"}, "name": "1a44e5592b2959400b4478dffb8a5e61", "type": "electric_scooter"}, {"fusion_lat": 0.0, "bike_id": "a9de63812db0b514e6fb28f472ef3307", "fusion_lon": 0.0, "lon": -77.02587466666667, "lat": 38.9203915, "is_reserved": 0, "is_disabled": 0, "rental_uris": {"android": "https://dc.lft.to/lastmile_qr_scan", "ios": "https://dc.lft.to/lastmile_qr_scan"}, "name": "a9de63812db0b514e6fb28f472ef3307", "type": "electric_scooter"}, {"fusion_lat": 0.0, "bike_id": "2a6abfae4c2e0c8ce620e4a8593db824", "fusion_lon": 0.0, "lon": -77.02587683333333, "lat": 38.9319655, "is_reserved": 0, "is_disabled": 0, "rental_uris": {"android": "https://dc.lft.to/lastmile_qr_scan", "ios": "https://dc.lft.to/lastmile_qr_scan"}, "name": "2a6abfae4c2e0c8ce620e4a8593db824", "type": "electric_scooter"}, {"fusion_lat": 0.0, "bike_id": "da338d1e0bb42a7ff5caec9316b769f5", "fusion_lon": 0.0, "lon": -77.02783683333334, "lat": 38.89938633333333, "is_reserved": 0, "is_disabled": 0, "rental_uris": {"android": "https://dc.lft.to/lastmile_qr_scan", "ios": "https://dc.lft.to/lastmile_qr_scan"}, "name": "da338d1e0bb42a7ff5caec9316b769f5", "type": "electric_scooter"}, {"fusion_lat": 0.0, "bike_id": "672bdb9b71e181d522b8a592c86543cd", "fusion_lon": 0.0, "lon": -77.03734366666667, "lat": 38.93581016666667, "is_reserved": 0, "is_disabled": 0, "rental_uris": {"android": "https://dc.lft.to/lastmile_qr_scan", "ios": "https://dc.lft.to/lastmile_qr_scan"}, "name": "672bdb9b71e181d522b8a592c86543cd", "type": "electric_scooter"}, {"fusion_lat": 0.0, "bike_id": "834c826b08fd112c1199852f27fd2522", "fusion_lon": 0.0, "lon": -77.01978816666667, "lat": 38.883771833333334, "is_reserved": 0, "is_disabled": 0, "rental_uris": {"android": "https://dc.lft.to/lastmile_qr_scan", "ios": "https://dc.lft.to/lastmile_qr_scan"}, "name": "834c826b08fd112c1199852f27fd2522", "type": "electric_scooter"}, {"fusion_lat": 0.0, "bike_id": "c05600d06cb8875ca834e199e3acfbbf", "fusion_lon": 0.0, "lon": -77.03287933333333, "lat": 38.92855216666667, "is_reserved": 0, "is_disabled": 0, "rental_uris": {"android": "https://dc.lft.to/lastmile_qr_scan", "ios": "https://dc.lft.to/lastmile_qr_scan"}, "name": "c05600d06cb8875ca834e199e3acfbbf", "type": "electric_scooter"}, {"fusion_lat": 0.0, "bike_id": "961b342506a2af2c89ee0dc457c3f292", "fusion_lon": 0.0, "lon": -77.00362716666666, "lat": 38.896696166666665, "is_reserved": 0, "is_disabled": 0, "rental_uris": {"android": "https://dc.lft.to/lastmile_qr_scan", "ios": "https://dc.lft.to/lastmile_qr_scan"}, "name": "961b342506a2af2c89ee0dc457c3f292", "type": "electric_scooter"}, {"fusion_lat": 0.0, "bike_id": "4827f94193cb437a7fa1d0a296e537e6", "fusion_lon": 0.0, "lon": -77.0576845, "lat": 38.9339065, "is_reserved": 0, "is_disabled": 0, "rental_uris": {"android": "https://dc.lft.to/lastmile_qr_scan", "ios": "https://dc.lft.to/lastmile_qr_scan"}, "name": "4827f94193cb437a7fa1d0a296e537e6", "type": "electric_scooter"}, {"fusion_lat": 0.0, "bike_id": "fb8c660e6cd8c45796f7606acdf83d0e", "fusion_lon": 0.0, "lon": -77.02636216666667, "lat": 38.91691483333334, "is_reserved": 0, "is_disabled": 0, "rental_uris": {"android": "https://dc.lft.to/lastmile_qr_scan", "ios": "https://dc.lft.to/lastmile_qr_scan"}, "name": "fb8c660e6cd8c45796f7606acdf83d0e", "type": "electric_scooter"}, {"fusion_lat": 0.0, "bike_id": "f23d6958f99a854daa752f45bc008835", "fusion_lon": 0.0, "lon": -77.02735116666666, "lat": 38.9320545, "is_reserved": 0, "is_disabled": 0, "rental_uris": {"android": "https://dc.lft.to/lastmile_qr_scan", "ios": "https://dc.lft.to/lastmile_qr_scan"}, "name": "f23d6958f99a854daa752f45bc008835", "type": "electric_scooter"}, {"fusion_lat": 0.0, "bike_id": "44b960b13ba93beaa524685206cda3fe", "fusion_lon": 0.0, "lon": -77.0504615, "lat": 38.923678833333334, "is_reserved": 0, "is_disabled": 0, "rental_uris": {"android": "https://dc.lft.to/lastmile_qr_scan", "ios": "https://dc.lft.to/lastmile_qr_scan"}, "name": "44b960b13ba93beaa524685206cda3fe", "type": "electric_scooter"}, {"fusion_lat": 0.0, "bike_id": "761493ebb827d9207b3efaf6fe8883a8", "fusion_lon": 0.0, "lon": -77.0348815, "lat": 38.93439, "is_reserved": 0, "is_disabled": 0, "rental_uris": {"android": "https://dc.lft.to/lastmile_qr_scan", "ios": "https://dc.lft.to/lastmile_qr_scan"}, "name": "761493ebb827d9207b3efaf6fe8883a8", "type": "electric_scooter"}, {"fusion_lat": 0.0, "bike_id": "8d6edb6c7f2f33e1dae6536d2ebc74c5", "fusion_lon": 0.0, "lon": -77.058923, "lat": 38.90305166666667, "is_reserved": 0, "is_disabled": 0, "rental_uris": {"android": "https://dc.lft.to/lastmile_qr_scan", "ios": "https://dc.lft.to/lastmile_qr_scan"}, "name": "8d6edb6c7f2f33e1dae6536d2ebc74c5", "type": "electric_scooter"}, {"fusion_lat": 0.0, "bike_id": "9bf2331b947c68ca62bc76d0e9f02dc5", "fusion_lon": 0.0, "lon": -77.00390183333333, "lat": 38.836126166666666, "is_reserved": 0, "is_disabled": 0, "rental_uris": {"android": "https://dc.lft.to/lastmile_qr_scan", "ios": "https://dc.lft.to/lastmile_qr_scan"}, "name": "9bf2331b947c68ca62bc76d0e9f02dc5", "type": "electric_bike"}, {"fusion_lat": 0.0, "bike_id": "bec3d61ef6113535f98838d3e1235aac", "fusion_lon": 0.0, "lon": -77.04153116666667, "lat": 38.90518, "is_reserved": 0, "is_disabled": 0, "rental_uris": {"android": "https://dc.lft.to/lastmile_qr_scan", "ios": "https://dc.lft.to/lastmile_qr_scan"}, "name": "bec3d61ef6113535f98838d3e1235aac", "type": "electric_scooter"}, {"fusion_lat": 0.0, "bike_id": "eaaac2fabc08032e3d5b5305f6200b4a", "fusion_lon": 0.0, "lon": -77.03270116666667, "lat": 38.932076333333335, "is_reserved": 0, "is_disabled": 0, "rental_uris": {"android": "https://dc.lft.to/lastmile_qr_scan", "ios": "https://dc.lft.to/lastmile_qr_scan"}, "name": "eaaac2fabc08032e3d5b5305f6200b4a", "type": "electric_scooter"}, {"fusion_lat": 0.0, "bike_id": "2ca5975b50a160d9f49b800d1ed7c82b", "fusion_lon": 0.0, "lon": -77.046924, "lat": 38.921840833333334, "is_reserved": 0, "is_disabled": 0, "rental_uris": {"android": "https://dc.lft.to/lastmile_qr_scan", "ios": "https://dc.lft.to/lastmile_qr_scan"}, "name": "2ca5975b50a160d9f49b800d1ed7c82b", "type": "electric_scooter"}, {"fusion_lat": 0.0, "bike_id": "750d86838a7667eff699feceb3fdd60a", "fusion_lon": 0.0, "lon": -77.04694216666667, "lat": 38.92140166666667, "is_reserved": 0, "is_disabled": 0, "rental_uris": {"android": "https://dc.lft.to/lastmile_qr_scan", "ios": "https://dc.lft.to/lastmile_qr_scan"}, "name": "750d86838a7667eff699feceb3fdd60a", "type": "electric_scooter"}, {"fusion_lat": 0.0, "bike_id": "828310b89b63c6df55185cd1dc105fc2", "fusion_lon": 0.0, "lon": -76.992924, "lat": 38.898896666666666, "is_reserved": 0, "is_disabled": 0, "rental_uris": {"android": "https://dc.lft.to/lastmile_qr_scan", "ios": "https://dc.lft.to/lastmile_qr_scan"}, "name": "828310b89b63c6df55185cd1dc105fc2", "type": "electric_scooter"}, {"fusion_lat": 0.0, "bike_id": "2d618a27553b0b7cb93e66dbc6849c8c", "fusion_lon": 0.0, "lon": -77.02658683333334, "lat": 38.9170115, "is_reserved": 0, "is_disabled": 0, "rental_uris": {"android": "https://dc.lft.to/lastmile_qr_scan", "ios": "https://dc.lft.to/lastmile_qr_scan"}, "name": "2d618a27553b0b7cb93e66dbc6849c8c", "type": "electric_scooter"}, {"fusion_lat": 0.0, "bike_id": "c6a7da5597a8f977fd302242845aeb68", "fusion_lon": 0.0, "lon": -77.04524933333333, "lat": 38.92319533333333, "is_reserved": 0, "is_disabled": 0, "rental_uris": {"android": "https://dc.lft.to/lastmile_qr_scan", "ios": "https://dc.lft.to/lastmile_qr_scan"}, "name": "c6a7da5597a8f977fd302242845aeb68", "type": "electric_scooter"}, {"fusion_lat": 0.0, "bike_id": "6b1b090c7629ffa9606f300ba196f1c2", "fusion_lon": 0.0, "lon": -77.05550783333334, "lat": 38.93014, "is_reserved": 0, "is_disabled": 0, "rental_uris": {"android": "https://dc.lft.to/lastmile_qr_scan", "ios": "https://dc.lft.to/lastmile_qr_scan"}, "name": "6b1b090c7629ffa9606f300ba196f1c2", "type": "electric_scooter"}, {"fusion_lat": 0.0, "bike_id": "ccac79e0e71e793331e4e47fe70a0ae1", "fusion_lon": 0.0, "lon": -77.02156416666666, "lat": 38.925026833333334, "is_reserved": 0, "is_disabled": 0, "rental_uris": {"android": "https://dc.lft.to/lastmile_qr_scan", "ios": "https://dc.lft.to/lastmile_qr_scan"}, "name": "ccac79e0e71e793331e4e47fe70a0ae1", "type": "electric_scooter"}, {"fusion_lat": 0.0, "bike_id": "9312e6b79cd1b9d08a76f68e88506448", "fusion_lon": 0.0, "lon": -77.037545, "lat": 38.92917166666667, "is_reserved": 0, "is_disabled": 0, "rental_uris": {"android": "https://dc.lft.to/lastmile_qr_scan", "ios": "https://dc.lft.to/lastmile_qr_scan"}, "name": "9312e6b79cd1b9d08a76f68e88506448", "type": "electric_scooter"}, {"fusion_lat": 0.0, "bike_id": "f6ce4c47c23eaf7c8573eef8bd8f822e", "fusion_lon": 0.0, "lon": -77.04223133333333, "lat": 38.913476, "is_reserved": 0, "is_disabled": 0, "rental_uris": {"android": "https://dc.lft.to/lastmile_qr_scan", "ios": "https://dc.lft.to/lastmile_qr_scan"}, "name": "f6ce4c47c23eaf7c8573eef8bd8f822e", "type": "electric_scooter"}, {"fusion_lat": 0.0, "bike_id": "200be0440b154018b0ff7a0171403af2", "fusion_lon": 0.0, "lon": -77.02213633333334, "lat": 38.905650666666666, "is_reserved": 0, "is_disabled": 0, "rental_uris": {"android": "https://dc.lft.to/lastmile_qr_scan", "ios": "https://dc.lft.to/lastmile_qr_scan"}, "name": "200be0440b154018b0ff7a0171403af2", "type": "electric_scooter"}, {"fusion_lat": 0.0, "bike_id": "802b015e9092cc2be8917a2ccf40dca4", "fusion_lon": 0.0, "lon": -76.984614, "lat": 38.90558516666667, "is_reserved": 0, "is_disabled": 0, "rental_uris": {"android": "https://dc.lft.to/lastmile_qr_scan", "ios": "https://dc.lft.to/lastmile_qr_scan"}, "name": "802b015e9092cc2be8917a2ccf40dca4", "type": "electric_scooter"}, {"fusion_lat": 0.0, "bike_id": "894de614e7409f1d10b1e37adaf0168b", "fusion_lon": 0.0, "lon": -77.0337185, "lat": 38.9215845, "is_reserved": 0, "is_disabled": 0, "rental_uris": {"android": "https://dc.lft.to/lastmile_qr_scan", "ios": "https://dc.lft.to/lastmile_qr_scan"}, "name": "894de614e7409f1d10b1e37adaf0168b", "type": "electric_scooter"}, {"fusion_lat": 0.0, "bike_id": "5a8e40c03da5d0e8fcd7e0aaea202fdc", "fusion_lon": 0.0, "lon": -77.024702, "lat": 38.9419525, "is_reserved": 0, "is_disabled": 0, "rental_uris": {"android": "https://dc.lft.to/lastmile_qr_scan", "ios": "https://dc.lft.to/lastmile_qr_scan"}, "name": "5a8e40c03da5d0e8fcd7e0aaea202fdc", "type": "electric_scooter"}, {"fusion_lat": 0.0, "bike_id": "130f7c05c5ff2a475af530069604db76", "fusion_lon": 0.0, "lon": -77.0270325, "lat": 38.897379, "is_reserved": 0, "is_disabled": 0, "rental_uris": {"android": "https://dc.lft.to/lastmile_qr_scan", "ios": "https://dc.lft.to/lastmile_qr_scan"}, "name": "130f7c05c5ff2a475af530069604db76", "type": "electric_scooter"}, {"fusion_lat": 0.0, "bike_id": "abfbeaaca0fee28564373954ae460986", "fusion_lon": 0.0, "lon": -77.03822916666667, "lat": 38.930673166666665, "is_reserved": 0, "is_disabled": 0, "rental_uris": {"android": "https://dc.lft.to/lastmile_qr_scan", "ios": "https://dc.lft.to/lastmile_qr_scan"}, "name": "abfbeaaca0fee28564373954ae460986", "type": "electric_scooter"}, {"fusion_lat": 0.0, "bike_id": "9b2a3896b6b22db39b76af856e143251", "fusion_lon": 0.0, "lon": -77.02231816666666, "lat": 38.91255433333333, "is_reserved": 0, "is_disabled": 0, "rental_uris": {"android": "https://dc.lft.to/lastmile_qr_scan", "ios": "https://dc.lft.to/lastmile_qr_scan"}, "name": "9b2a3896b6b22db39b76af856e143251", "type": "electric_scooter"}, {"fusion_lat": 0.0, "bike_id": "b3ef5ca41e07ddbfb4e08725132f77fd", "fusion_lon": 0.0, "lon": -77.02009333333334, "lat": 38.897574166666665, "is_reserved": 0, "is_disabled": 0, "rental_uris": {"android": "https://dc.lft.to/lastmile_qr_scan", "ios": "https://dc.lft.to/lastmile_qr_scan"}, "name": "b3ef5ca41e07ddbfb4e08725132f77fd", "type": "electric_scooter"}, {"fusion_lat": 0.0, "bike_id": "6746df19a196d0c2469bdabc2e670f54", "fusion_lon": 0.0, "lon": -77.0325965, "lat": 38.904639333333336, "is_reserved": 0, "is_disabled": 0, "rental_uris": {"android": "https://dc.lft.to/lastmile_qr_scan", "ios": "https://dc.lft.to/lastmile_qr_scan"}, "name": "6746df19a196d0c2469bdabc2e670f54", "type": "electric_scooter"}, {"fusion_lat": 0.0, "bike_id": "a268b9d959202cc9a657deef3b72bcf5", "fusion_lon": 0.0, "lon": -77.04501066666667, "lat": 38.8975365, "is_reserved": 0, "is_disabled": 0, "rental_uris": {"android": "https://dc.lft.to/lastmile_qr_scan", "ios": "https://dc.lft.to/lastmile_qr_scan"}, "name": "a268b9d959202cc9a657deef3b72bcf5", "type": "electric_scooter"}, {"fusion_lat": 0.0, "bike_id": "980fd3566c26bdba5c40d7a086abcbee", "fusion_lon": 0.0, "lon": -77.00888216666667, "lat": 38.90038766666667, "is_reserved": 0, "is_disabled": 0, "rental_uris": {"android": "https://dc.lft.to/lastmile_qr_scan", "ios": "https://dc.lft.to/lastmile_qr_scan"}, "name": "980fd3566c26bdba5c40d7a086abcbee", "type": "electric_scooter"}, {"fusion_lat": 0.0, "bike_id": "41028b6a8781d9dafab8da19da7d1a2d", "fusion_lon": 0.0, "lon": -77.073386, "lat": 38.90999816666667, "is_reserved": 0, "is_disabled": 0, "rental_uris": {"android": "https://dc.lft.to/lastmile_qr_scan", "ios": "https://dc.lft.to/lastmile_qr_scan"}, "name": "41028b6a8781d9dafab8da19da7d1a2d", "type": "electric_scooter"}, {"fusion_lat": 0.0, "bike_id": "3d388f62be5bcf323ec13f1bd4111cc6", "fusion_lon": 0.0, "lon": -76.95577016666667, "lat": 38.88771666666667, "is_reserved": 0, "is_disabled": 0, "rental_uris": {"android": "https://dc.lft.to/lastmile_qr_scan", "ios": "https://dc.lft.to/lastmile_qr_scan"}, "name": "3d388f62be5bcf323ec13f1bd4111cc6", "type": "electric_scooter"}, {"fusion_lat": 0.0, "bike_id": "a72406683a342dea66bee5da8f14bee9", "fusion_lon": 0.0, "lon": -77.02146716666667, "lat": 38.90580466666667, "is_reserved": 0, "is_disabled": 0, "rental_uris": {"android": "https://dc.lft.to/lastmile_qr_scan", "ios": "https://dc.lft.to/lastmile_qr_scan"}, "name": "a72406683a342dea66bee5da8f14bee9", "type": "electric_scooter"}, {"fusion_lat": 0.0, "bike_id": "9ac3dab8285842fdbd0acc66ff07c180", "fusion_lon": 0.0, "lon": -76.98552133333334, "lat": 38.92018816666667, "is_reserved": 0, "is_disabled": 0, "rental_uris": {"android": "https://dc.lft.to/lastmile_qr_scan", "ios": "https://dc.lft.to/lastmile_qr_scan"}, "name": "9ac3dab8285842fdbd0acc66ff07c180", "type": "electric_scooter"}, {"fusion_lat": 0.0, "bike_id": "177813a9adfa8500fcc4190dd179a138", "fusion_lon": 0.0, "lon": -77.02844883333333, "lat": 38.92579083333333, "is_reserved": 0, "is_disabled": 0, "rental_uris": {"android": "https://dc.lft.to/lastmile_qr_scan", "ios": "https://dc.lft.to/lastmile_qr_scan"}, "name": "177813a9adfa8500fcc4190dd179a138", "type": "electric_scooter"}, {"fusion_lat": 0.0, "bike_id": "86db4f57306c40ea142f1959ca0512e6", "fusion_lon": 0.0, "lon": -77.0238925, "lat": 38.93251466666667, "is_reserved": 0, "is_disabled": 0, "rental_uris": {"android": "https://dc.lft.to/lastmile_qr_scan", "ios": "https://dc.lft.to/lastmile_qr_scan"}, "name": "86db4f57306c40ea142f1959ca0512e6", "type": "electric_scooter"}, {"fusion_lat": 0.0, "bike_id": "38ebf6eb186c18f50d6044d91e599b8f", "fusion_lon": 0.0, "lon": -77.02232016666666, "lat": 38.92635966666667, "is_reserved": 0, "is_disabled": 0, "rental_uris": {"android": "https://dc.lft.to/lastmile_qr_scan", "ios": "https://dc.lft.to/lastmile_qr_scan"}, "name": "38ebf6eb186c18f50d6044d91e599b8f", "type": "electric_scooter"}, {"fusion_lat": 0.0, "bike_id": "12a6263a44bb5a396e43d8cf60cdae57", "fusion_lon": 0.0, "lon": -77.04391133333333, "lat": 39.047218666666666, "is_reserved": 0, "is_disabled": 0, "rental_uris": {"android": "https://dc.lft.to/lastmile_qr_scan", "ios": "https://dc.lft.to/lastmile_qr_scan"}, "name": "12a6263a44bb5a396e43d8cf60cdae57", "type": "electric_bike"}, {"fusion_lat": 0.0, "bike_id": "a0c2c2c6640e745fcab658a7be9dd4d9", "fusion_lon": 0.0, "lon": -77.04660983333333, "lat": 38.89826566666667, "is_reserved": 0, "is_disabled": 0, "rental_uris": {"android": "https://dc.lft.to/lastmile_qr_scan", "ios": "https://dc.lft.to/lastmile_qr_scan"}, "name": "a0c2c2c6640e745fcab658a7be9dd4d9", "type": "electric_scooter"}, {"fusion_lat": 0.0, "bike_id": "d51df66e88e0326a085f6d1167f864d6", "fusion_lon": 0.0, "lon": -77.04030633333333, "lat": 38.912597833333336, "is_reserved": 0, "is_disabled": 0, "rental_uris": {"android": "https://dc.lft.to/lastmile_qr_scan", "ios": "https://dc.lft.to/lastmile_qr_scan"}, "name": "d51df66e88e0326a085f6d1167f864d6", "type": "electric_scooter"}, {"fusion_lat": 0.0, "bike_id": "035561cb551688d8b8586274026edfa9", "fusion_lon": 0.0, "lon": -77.0357875, "lat": 38.90846966666667, "is_reserved": 0, "is_disabled": 0, "rental_uris": {"android": "https://dc.lft.to/lastmile_qr_scan", "ios": "https://dc.lft.to/lastmile_qr_scan"}, "name": "035561cb551688d8b8586274026edfa9", "type": "electric_scooter"}, {"fusion_lat": 0.0, "bike_id": "d3b1b2437422bab66afbf8e34714ef01", "fusion_lon": 0.0, "lon": -77.02602883333333, "lat": 38.8926315, "is_reserved": 0, "is_disabled": 0, "rental_uris": {"android": "https://dc.lft.to/lastmile_qr_scan", "ios": "https://dc.lft.to/lastmile_qr_scan"}, "name": "d3b1b2437422bab66afbf8e34714ef01", "type": "electric_scooter"}, {"fusion_lat": 0.0, "bike_id": "790ab4f377ea562b1059424141d3ba39", "fusion_lon": 0.0, "lon": -77.03210533333333, "lat": 38.90448583333333, "is_reserved": 0, "is_disabled": 0, "rental_uris": {"android": "https://dc.lft.to/lastmile_qr_scan", "ios": "https://dc.lft.to/lastmile_qr_scan"}, "name": "790ab4f377ea562b1059424141d3ba39", "type": "electric_scooter"}, {"fusion_lat": 0.0, "bike_id": "71a0ae758af0720e95ed92e755dd1b2d", "fusion_lon": 0.0, "lon": -77.05002183333333, "lat": 38.892286666666664, "is_reserved": 0, "is_disabled": 0, "rental_uris": {"android": "https://dc.lft.to/lastmile_qr_scan", "ios": "https://dc.lft.to/lastmile_qr_scan"}, "name": "71a0ae758af0720e95ed92e755dd1b2d", "type": "electric_scooter"}, {"fusion_lat": 0.0, "bike_id": "cda454c3d10f708f20f7ea8c97594694", "fusion_lon": 0.0, "lon": -77.03519016666667, "lat": 38.92204233333333, "is_reserved": 0, "is_disabled": 0, "rental_uris": {"android": "https://dc.lft.to/lastmile_qr_scan", "ios": "https://dc.lft.to/lastmile_qr_scan"}, "name": "cda454c3d10f708f20f7ea8c97594694", "type": "electric_scooter"}, {"fusion_lat": 0.0, "bike_id": "435c9a2f149deecccd10c3eb66e839fe", "fusion_lon": 0.0, "lon": -77.03913183333333, "lat": 38.92577716666667, "is_reserved": 0, "is_disabled": 0, "rental_uris": {"android": "https://dc.lft.to/lastmile_qr_scan", "ios": "https://dc.lft.to/lastmile_qr_scan"}, "name": "435c9a2f149deecccd10c3eb66e839fe", "type": "electric_scooter"}, {"fusion_lat": 0.0, "bike_id": "66c94355cef11f99a61f9ac21dbddc28", "fusion_lon": 0.0, "lon": -77.02763233333333, "lat": 38.934623333333334, "is_reserved": 0, "is_disabled": 0, "rental_uris": {"android": "https://dc.lft.to/lastmile_qr_scan", "ios": "https://dc.lft.to/lastmile_qr_scan"}, "name": "66c94355cef11f99a61f9ac21dbddc28", "type": "electric_scooter"}, {"fusion_lat": 0.0, "bike_id": "782527767edfbd0a63525ca151ffa80b", "fusion_lon": 0.0, "lon": -77.03207216666667, "lat": 38.914249833333336, "is_reserved": 0, "is_disabled": 0, "rental_uris": {"android": "https://dc.lft.to/lastmile_qr_scan", "ios": "https://dc.lft.to/lastmile_qr_scan"}, "name": "782527767edfbd0a63525ca151ffa80b", "type": "electric_scooter"}, {"fusion_lat": 0.0, "bike_id": "e3a87f194dc05ffe21086102bcc5c0a5", "fusion_lon": 0.0, "lon": -77.047538, "lat": 38.903935833333335, "is_reserved": 0, "is_disabled": 0, "rental_uris": {"android": "https://dc.lft.to/lastmile_qr_scan", "ios": "https://dc.lft.to/lastmile_qr_scan"}, "name": "e3a87f194dc05ffe21086102bcc5c0a5", "type": "electric_scooter"}, {"fusion_lat": 0.0, "bike_id": "fb5c121af9e7c8301f9232286e43eb0d", "fusion_lon": 0.0, "lon": -77.027194, "lat": 38.91683116666667, "is_reserved": 0, "is_disabled": 0, "rental_uris": {"android": "https://dc.lft.to/lastmile_qr_scan", "ios": "https://dc.lft.to/lastmile_qr_scan"}, "name": "fb5c121af9e7c8301f9232286e43eb0d", "type": "electric_scooter"}, {"fusion_lat": 0.0, "bike_id": "4f3df86f9e220bc46b5dd5af75f275c0", "fusion_lon": 0.0, "lon": -77.09960983333333, "lat": 38.857921, "is_reserved": 0, "is_disabled": 0, "rental_uris": {"android": "https://dc.lft.to/lastmile_qr_scan", "ios": "https://dc.lft.to/lastmile_qr_scan"}, "name": "4f3df86f9e220bc46b5dd5af75f275c0", "type": "electric_bike"}, {"fusion_lat": 0.0, "bike_id": "296f3db39d6bc5dc6c951ab0586a23b9", "fusion_lon": 0.0, "lon": -77.03269116666667, "lat": 38.93773983333333, "is_reserved": 0, "is_disabled": 0, "rental_uris": {"android": "https://dc.lft.to/lastmile_qr_scan", "ios": "https://dc.lft.to/lastmile_qr_scan"}, "name": "296f3db39d6bc5dc6c951ab0586a23b9", "type": "electric_scooter"}, {"fusion_lat": 0.0, "bike_id": "19c76216ccbfefcf01a1441382c4c828", "fusion_lon": 0.0, "lon": -77.01776916666667, "lat": 38.8863475, "is_reserved": 0, "is_disabled": 0, "rental_uris": {"android": "https://dc.lft.to/lastmile_qr_scan", "ios": "https://dc.lft.to/lastmile_qr_scan"}, "name": "19c76216ccbfefcf01a1441382c4c828", "type": "electric_scooter"}, {"fusion_lat": 0.0, "bike_id": "c49b3ed4b34bc6bd470bcc1534a3af97", "fusion_lon": 0.0, "lon": -77.04677, "lat": 38.89237283333333, "is_reserved": 0, "is_disabled": 0, "rental_uris": {"android": "https://dc.lft.to/lastmile_qr_scan", "ios": "https://dc.lft.to/lastmile_qr_scan"}, "name": "c49b3ed4b34bc6bd470bcc1534a3af97", "type": "electric_scooter"}, {"fusion_lat": 0.0, "bike_id": "6456eb2306df6f80cc4d4937c6b2f540", "fusion_lon": 0.0, "lon": -77.05395116666666, "lat": 38.92775566666667, "is_reserved": 0, "is_disabled": 0, "rental_uris": {"android": "https://dc.lft.to/lastmile_qr_scan", "ios": "https://dc.lft.to/lastmile_qr_scan"}, "name": "6456eb2306df6f80cc4d4937c6b2f540", "type": "electric_scooter"}, {"fusion_lat": 0.0, "bike_id": "51ce772b01d98c33224810e9ce9f24a5", "fusion_lon": 0.0, "lon": -76.9960595, "lat": 38.950769666666666, "is_reserved": 0, "is_disabled": 0, "rental_uris": {"android": "https://dc.lft.to/lastmile_qr_scan", "ios": "https://dc.lft.to/lastmile_qr_scan"}, "name": "51ce772b01d98c33224810e9ce9f24a5", "type": "electric_bike"}, {"fusion_lat": 0.0, "bike_id": "3cdd37fd742b3e7d7cdd1995b86be534", "fusion_lon": 0.0, "lon": -77.0504625, "lat": 38.923634, "is_reserved": 0, "is_disabled": 0, "rental_uris": {"android": "https://dc.lft.to/lastmile_qr_scan", "ios": "https://dc.lft.to/lastmile_qr_scan"}, "name": "3cdd37fd742b3e7d7cdd1995b86be534", "type": "electric_scooter"}, {"fusion_lat": 0.0, "bike_id": "dbf8f8aba35f4492ecd607fb7a161e33", "fusion_lon": 0.0, "lon": -76.94991816666666, "lat": 38.8938395, "is_reserved": 0, "is_disabled": 0, "rental_uris": {"android": "https://dc.lft.to/lastmile_qr_scan", "ios": "https://dc.lft.to/lastmile_qr_scan"}, "name": "dbf8f8aba35f4492ecd607fb7a161e33", "type": "electric_scooter"}, {"fusion_lat": 0.0, "bike_id": "aded57eb343066ae36729d625942d9b8", "fusion_lon": 0.0, "lon": -77.03297816666667, "lat": 38.9104695, "is_reserved": 0, "is_disabled": 0, "rental_uris": {"android": "https://dc.lft.to/lastmile_qr_scan", "ios": "https://dc.lft.to/lastmile_qr_scan"}, "name": "aded57eb343066ae36729d625942d9b8", "type": "electric_scooter"}, {"fusion_lat": 0.0, "bike_id": "bd830178f64b891cdb671fee46f0f276", "fusion_lon": 0.0, "lon": -77.03930733333333, "lat": 38.898971, "is_reserved": 0, "is_disabled": 0, "rental_uris": {"android": "https://dc.lft.to/lastmile_qr_scan", "ios": "https://dc.lft.to/lastmile_qr_scan"}, "name": "bd830178f64b891cdb671fee46f0f276", "type": "electric_scooter"}, {"fusion_lat": 0.0, "bike_id": "12920d7dfdbefd54871198f0f8d088e1", "fusion_lon": 0.0, "lon": -77.04476583333333, "lat": 38.90549816666667, "is_reserved": 0, "is_disabled": 0, "rental_uris": {"android": "https://dc.lft.to/lastmile_qr_scan", "ios": "https://dc.lft.to/lastmile_qr_scan"}, "name": "12920d7dfdbefd54871198f0f8d088e1", "type": "electric_scooter"}, {"fusion_lat": 0.0, "bike_id": "75639affcf216b58a84febb6b1457d9d", "fusion_lon": 0.0, "lon": -77.03557366666666, "lat": 38.933792333333336, "is_reserved": 0, "is_disabled": 0, "rental_uris": {"android": "https://dc.lft.to/lastmile_qr_scan", "ios": "https://dc.lft.to/lastmile_qr_scan"}, "name": "75639affcf216b58a84febb6b1457d9d", "type": "electric_scooter"}, {"fusion_lat": 0.0, "bike_id": "549c57901ad1c56344555ff4f81268ff", "fusion_lon": 0.0, "lon": -77.02087466666667, "lat": 38.92916683333333, "is_reserved": 0, "is_disabled": 0, "rental_uris": {"android": "https://dc.lft.to/lastmile_qr_scan", "ios": "https://dc.lft.to/lastmile_qr_scan"}, "name": "549c57901ad1c56344555ff4f81268ff", "type": "electric_scooter"}, {"fusion_lat": 0.0, "bike_id": "0bef76577bae052f690017b08288f9c4", "fusion_lon": 0.0, "lon": -76.97860183333333, "lat": 38.907255, "is_reserved": 0, "is_disabled": 0, "rental_uris": {"android": "https://dc.lft.to/lastmile_qr_scan", "ios": "https://dc.lft.to/lastmile_qr_scan"}, "name": "0bef76577bae052f690017b08288f9c4", "type": "electric_scooter"}, {"fusion_lat": 0.0, "bike_id": "06a8dbb1bdaab188bb7e014a50c6bc88", "fusion_lon": 0.0, "lon": -77.0344705, "lat": 38.90978416666667, "is_reserved": 0, "is_disabled": 0, "rental_uris": {"android": "https://dc.lft.to/lastmile_qr_scan", "ios": "https://dc.lft.to/lastmile_qr_scan"}, "name": "06a8dbb1bdaab188bb7e014a50c6bc88", "type": "electric_scooter"}, {"fusion_lat": 0.0, "bike_id": "0dad0a4d101761b1ece9c160edd1a849", "fusion_lon": 0.0, "lon": -77.03723083333334, "lat": 38.926538666666666, "is_reserved": 0, "is_disabled": 0, "rental_uris": {"android": "https://dc.lft.to/lastmile_qr_scan", "ios": "https://dc.lft.to/lastmile_qr_scan"}, "name": "0dad0a4d101761b1ece9c160edd1a849", "type": "electric_scooter"}, {"fusion_lat": 0.0, "bike_id": "1214dadfd6f18e6d26f3bbe202ebc1f7", "fusion_lon": 0.0, "lon": -77.01349966666666, "lat": 38.90045033333333, "is_reserved": 0, "is_disabled": 0, "rental_uris": {"android": "https://dc.lft.to/lastmile_qr_scan", "ios": "https://dc.lft.to/lastmile_qr_scan"}, "name": "1214dadfd6f18e6d26f3bbe202ebc1f7", "type": "electric_scooter"}, {"fusion_lat": 0.0, "bike_id": "57ad6b6e7ac9af505aa699e9688dd2a4", "fusion_lon": 0.0, "lon": -77.23341283333333, "lat": 38.87279, "is_reserved": 0, "is_disabled": 0, "rental_uris": {"android": "https://dc.lft.to/lastmile_qr_scan", "ios": "https://dc.lft.to/lastmile_qr_scan"}, "name": "57ad6b6e7ac9af505aa699e9688dd2a4", "type": "electric_bike"}, {"fusion_lat": 0.0, "bike_id": "a108aa6af89e2f2c91157699cfff0bfd", "fusion_lon": 0.0, "lon": -77.03976983333334, "lat": 38.928033666666664, "is_reserved": 0, "is_disabled": 0, "rental_uris": {"android": "https://dc.lft.to/lastmile_qr_scan", "ios": "https://dc.lft.to/lastmile_qr_scan"}, "name": "a108aa6af89e2f2c91157699cfff0bfd", "type": "electric_scooter"}, {"fusion_lat": 0.0, "bike_id": "c6036784ed78aa921601f37765777ee4", "fusion_lon": 0.0, "lon": -77.01226066666666, "lat": 38.91276666666667, "is_reserved": 0, "is_disabled": 0, "rental_uris": {"android": "https://dc.lft.to/lastmile_qr_scan", "ios": "https://dc.lft.to/lastmile_qr_scan"}, "name": "c6036784ed78aa921601f37765777ee4", "type": "electric_bike"}, {"fusion_lat": 0.0, "bike_id": "c8df0db35093b58e3c50e1617cb2c6bc", "fusion_lon": 0.0, "lon": -77.05000983333333, "lat": 38.892304833333334, "is_reserved": 0, "is_disabled": 0, "rental_uris": {"android": "https://dc.lft.to/lastmile_qr_scan", "ios": "https://dc.lft.to/lastmile_qr_scan"}, "name": "c8df0db35093b58e3c50e1617cb2c6bc", "type": "electric_scooter"}, {"fusion_lat": 0.0, "bike_id": "76ef0ba01ec872892f9dcae7f03bfffc", "fusion_lon": 0.0, "lon": -76.94101166666667, "lat": 38.88463016666667, "is_reserved": 0, "is_disabled": 0, "rental_uris": {"android": "https://dc.lft.to/lastmile_qr_scan", "ios": "https://dc.lft.to/lastmile_qr_scan"}, "name": "76ef0ba01ec872892f9dcae7f03bfffc", "type": "electric_scooter"}, {"fusion_lat": 0.0, "bike_id": "4975da4ef0a6be14b73b60d6e6434ea2", "fusion_lon": 0.0, "lon": -77.06777166666667, "lat": 38.905136, "is_reserved": 0, "is_disabled": 0, "rental_uris": {"android": "https://dc.lft.to/lastmile_qr_scan", "ios": "https://dc.lft.to/lastmile_qr_scan"}, "name": "4975da4ef0a6be14b73b60d6e6434ea2", "type": "electric_scooter"}, {"fusion_lat": 0.0, "bike_id": "c7a1e1a282eb822c4000f70ff6454385", "fusion_lon": 0.0, "lon": -77.0113265, "lat": 38.90647516666667, "is_reserved": 0, "is_disabled": 0, "rental_uris": {"android": "https://dc.lft.to/lastmile_qr_scan", "ios": "https://dc.lft.to/lastmile_qr_scan"}, "name": "c7a1e1a282eb822c4000f70ff6454385", "type": "electric_scooter"}, {"fusion_lat": 0.0, "bike_id": "24cc8beb6921535406df6b3cbaa617d9", "fusion_lon": 0.0, "lon": -77.034421, "lat": 38.9043315, "is_reserved": 0, "is_disabled": 0, "rental_uris": {"android": "https://dc.lft.to/lastmile_qr_scan", "ios": "https://dc.lft.to/lastmile_qr_scan"}, "name": "24cc8beb6921535406df6b3cbaa617d9", "type": "electric_scooter"}, {"fusion_lat": 0.0, "bike_id": "1df002ee70c55aa1b98366fb90abd435", "fusion_lon": 0.0, "lon": -77.04704533333333, "lat": 38.905972166666665, "is_reserved": 0, "is_disabled": 0, "rental_uris": {"android": "https://dc.lft.to/lastmile_qr_scan", "ios": "https://dc.lft.to/lastmile_qr_scan"}, "name": "1df002ee70c55aa1b98366fb90abd435", "type": "electric_scooter"}, {"fusion_lat": 0.0, "bike_id": "38eca0ded84da6f7d5251e2c3a311e23", "fusion_lon": 0.0, "lon": -77.00289866666667, "lat": 38.90139883333333, "is_reserved": 0, "is_disabled": 0, "rental_uris": {"android": "https://dc.lft.to/lastmile_qr_scan", "ios": "https://dc.lft.to/lastmile_qr_scan"}, "name": "38eca0ded84da6f7d5251e2c3a311e23", "type": "electric_scooter"}, {"fusion_lat": 0.0, "bike_id": "133960c388f340a02145bc768e5666b3", "fusion_lon": 0.0, "lon": -77.03286683333333, "lat": 38.91213966666667, "is_reserved": 0, "is_disabled": 0, "rental_uris": {"android": "https://dc.lft.to/lastmile_qr_scan", "ios": "https://dc.lft.to/lastmile_qr_scan"}, "name": "133960c388f340a02145bc768e5666b3", "type": "electric_scooter"}, {"fusion_lat": 0.0, "bike_id": "338aecddd83bc8157f6aaa74b4efb934", "fusion_lon": 0.0, "lon": -77.03220933333333, "lat": 38.899738666666664, "is_reserved": 0, "is_disabled": 0, "rental_uris": {"android": "https://dc.lft.to/lastmile_qr_scan", "ios": "https://dc.lft.to/lastmile_qr_scan"}, "name": "338aecddd83bc8157f6aaa74b4efb934", "type": "electric_scooter"}, {"fusion_lat": 0.0, "bike_id": "66c2a33ec1d139da1e4122a06a67cce9", "fusion_lon": 0.0, "lon": -76.9852905, "lat": 38.8668805, "is_reserved": 0, "is_disabled": 0, "rental_uris": {"android": "https://dc.lft.to/lastmile_qr_scan", "ios": "https://dc.lft.to/lastmile_qr_scan"}, "name": "66c2a33ec1d139da1e4122a06a67cce9", "type": "electric_scooter"}, {"fusion_lat": 0.0, "bike_id": "4110c6ad657af05658291600ce5ba152", "fusion_lon": 0.0, "lon": -76.988836, "lat": 38.866586, "is_reserved": 0, "is_disabled": 0, "rental_uris": {"android": "https://dc.lft.to/lastmile_qr_scan", "ios": "https://dc.lft.to/lastmile_qr_scan"}, "name": "4110c6ad657af05658291600ce5ba152", "type": "electric_scooter"}, {"fusion_lat": 0.0, "bike_id": "913e1419b9ab0f1fa75e83363bb5d752", "fusion_lon": 0.0, "lon": -77.04475066666667, "lat": 38.892239000000004, "is_reserved": 0, "is_disabled": 0, "rental_uris": {"android": "https://dc.lft.to/lastmile_qr_scan", "ios": "https://dc.lft.to/lastmile_qr_scan"}, "name": "913e1419b9ab0f1fa75e83363bb5d752", "type": "electric_scooter"}, {"fusion_lat": 0.0, "bike_id": "b4d717a9d4b28b84d085f3ef6053a80e", "fusion_lon": 0.0, "lon": -77.00611083333334, "lat": 38.89479016666667, "is_reserved": 0, "is_disabled": 0, "rental_uris": {"android": "https://dc.lft.to/lastmile_qr_scan", "ios": "https://dc.lft.to/lastmile_qr_scan"}, "name": "b4d717a9d4b28b84d085f3ef6053a80e", "type": "electric_scooter"}, {"fusion_lat": 0.0, "bike_id": "00276368b3cb209a1eeab4694876f8c3", "fusion_lon": 0.0, "lon": -77.031977, "lat": 38.901166333333336, "is_reserved": 0, "is_disabled": 0, "rental_uris": {"android": "https://dc.lft.to/lastmile_qr_scan", "ios": "https://dc.lft.to/lastmile_qr_scan"}, "name": "00276368b3cb209a1eeab4694876f8c3", "type": "electric_scooter"}, {"fusion_lat": 0.0, "bike_id": "dc7e3e21e4ecdb57a8bf270e147134af", "fusion_lon": 0.0, "lon": -77.032015, "lat": 38.92983683333333, "is_reserved": 0, "is_disabled": 0, "rental_uris": {"android": "https://dc.lft.to/lastmile_qr_scan", "ios": "https://dc.lft.to/lastmile_qr_scan"}, "name": "dc7e3e21e4ecdb57a8bf270e147134af", "type": "electric_scooter"}, {"fusion_lat": 0.0, "bike_id": "28947c69f41ae3588a4be34fece16ea1", "fusion_lon": 0.0, "lon": -77.018832, "lat": 38.9112005, "is_reserved": 0, "is_disabled": 0, "rental_uris": {"android": "https://dc.lft.to/lastmile_qr_scan", "ios": "https://dc.lft.to/lastmile_qr_scan"}, "name": "28947c69f41ae3588a4be34fece16ea1", "type": "electric_scooter"}, {"fusion_lat": 0.0, "bike_id": "af627120b018b0a68274863c14d8c01a", "fusion_lon": 0.0, "lon": -77.03216866666666, "lat": 38.91839383333333, "is_reserved": 0, "is_disabled": 0, "rental_uris": {"android": "https://dc.lft.to/lastmile_qr_scan", "ios": "https://dc.lft.to/lastmile_qr_scan"}, "name": "af627120b018b0a68274863c14d8c01a", "type": "electric_scooter"}, {"fusion_lat": 0.0, "bike_id": "a44e0a54d0901443373fdfe01de1d75e", "fusion_lon": 0.0, "lon": -77.01106083333333, "lat": 38.89477433333333, "is_reserved": 0, "is_disabled": 0, "rental_uris": {"android": "https://dc.lft.to/lastmile_qr_scan", "ios": "https://dc.lft.to/lastmile_qr_scan"}, "name": "a44e0a54d0901443373fdfe01de1d75e", "type": "electric_scooter"}, {"fusion_lat": 0.0, "bike_id": "648b6c9e529bcdf58ccf49b31793c837", "fusion_lon": 0.0, "lon": -76.9782895, "lat": 38.8437015, "is_reserved": 0, "is_disabled": 0, "rental_uris": {"android": "https://dc.lft.to/lastmile_qr_scan", "ios": "https://dc.lft.to/lastmile_qr_scan"}, "name": "648b6c9e529bcdf58ccf49b31793c837", "type": "electric_bike"}, {"fusion_lat": 0.0, "bike_id": "7be40a5bb5e8c37da596890eca635801", "fusion_lon": 0.0, "lon": -77.03837883333334, "lat": 38.903956, "is_reserved": 0, "is_disabled": 0, "rental_uris": {"android": "https://dc.lft.to/lastmile_qr_scan", "ios": "https://dc.lft.to/lastmile_qr_scan"}, "name": "7be40a5bb5e8c37da596890eca635801", "type": "electric_scooter"}, {"fusion_lat": 0.0, "bike_id": "b33acb1ed52bafcdb4e1a9d3dfafa8ea", "fusion_lon": 0.0, "lon": -77.08338133333334, "lat": 38.8544465, "is_reserved": 0, "is_disabled": 0, "rental_uris": {"android": "https://dc.lft.to/lastmile_qr_scan", "ios": "https://dc.lft.to/lastmile_qr_scan"}, "name": "b33acb1ed52bafcdb4e1a9d3dfafa8ea", "type": "electric_bike"}, {"fusion_lat": 0.0, "bike_id": "f2488aaf99634870ef38e7369bf4c424", "fusion_lon": 0.0, "lon": -77.0455985, "lat": 38.896154, "is_reserved": 0, "is_disabled": 0, "rental_uris": {"android": "https://dc.lft.to/lastmile_qr_scan", "ios": "https://dc.lft.to/lastmile_qr_scan"}, "name": "f2488aaf99634870ef38e7369bf4c424", "type": "electric_scooter"}, {"fusion_lat": 0.0, "bike_id": "33429b3640b3f84fd59e1b33ad553f4c", "fusion_lon": 0.0, "lon": -77.0325515, "lat": 38.92001233333333, "is_reserved": 0, "is_disabled": 0, "rental_uris": {"android": "https://dc.lft.to/lastmile_qr_scan", "ios": "https://dc.lft.to/lastmile_qr_scan"}, "name": "33429b3640b3f84fd59e1b33ad553f4c", "type": "electric_scooter"}, {"fusion_lat": 0.0, "bike_id": "9efd03f8607fc56b9e197fb0349199a6", "fusion_lon": 0.0, "lon": -77.0358065, "lat": 38.99225233333333, "is_reserved": 0, "is_disabled": 0, "rental_uris": {"android": "https://dc.lft.to/lastmile_qr_scan", "ios": "https://dc.lft.to/lastmile_qr_scan"}, "name": "9efd03f8607fc56b9e197fb0349199a6", "type": "electric_scooter"}, {"fusion_lat": 0.0, "bike_id": "e76edee55bd50bd7581dac144080614b", "fusion_lon": 0.0, "lon": -77.02584466666667, "lat": 38.903564833333334, "is_reserved": 0, "is_disabled": 0, "rental_uris": {"android": "https://dc.lft.to/lastmile_qr_scan", "ios": "https://dc.lft.to/lastmile_qr_scan"}, "name": "e76edee55bd50bd7581dac144080614b", "type": "electric_scooter"}, {"fusion_lat": 0.0, "bike_id": "68a1df8b01e0ed65d7cfb9c1eb18e684", "fusion_lon": 0.0, "lon": -77.02108133333333, "lat": 38.92178333333333, "is_reserved": 0, "is_disabled": 0, "rental_uris": {"android": "https://dc.lft.to/lastmile_qr_scan", "ios": "https://dc.lft.to/lastmile_qr_scan"}, "name": "68a1df8b01e0ed65d7cfb9c1eb18e684", "type": "electric_scooter"}, {"fusion_lat": 0.0, "bike_id": "092d8adf7cd0b644d4564365dfaf7b02", "fusion_lon": 0.0, "lon": -77.03668666666667, "lat": 38.9172235, "is_reserved": 0, "is_disabled": 0, "rental_uris": {"android": "https://dc.lft.to/lastmile_qr_scan", "ios": "https://dc.lft.to/lastmile_qr_scan"}, "name": "092d8adf7cd0b644d4564365dfaf7b02", "type": "electric_scooter"}, {"fusion_lat": 0.0, "bike_id": "912c4af34ed27d8e5841df12a4951da4", "fusion_lon": 0.0, "lon": -77.04595633333334, "lat": 38.9028125, "is_reserved": 0, "is_disabled": 0, "rental_uris": {"android": "https://dc.lft.to/lastmile_qr_scan", "ios": "https://dc.lft.to/lastmile_qr_scan"}, "name": "912c4af34ed27d8e5841df12a4951da4", "type": "electric_scooter"}, {"fusion_lat": 0.0, "bike_id": "4dfcd3c3f74013044d1bc81099164815", "fusion_lon": 0.0, "lon": -77.044289, "lat": 38.91131, "is_reserved": 0, "is_disabled": 0, "rental_uris": {"android": "https://dc.lft.to/lastmile_qr_scan", "ios": "https://dc.lft.to/lastmile_qr_scan"}, "name": "4dfcd3c3f74013044d1bc81099164815", "type": "electric_scooter"}, {"fusion_lat": 0.0, "bike_id": "62a1533fc4abd8f811bb809a7c676451", "fusion_lon": 0.0, "lon": -77.08198266666666, "lat": 38.9351615, "is_reserved": 0, "is_disabled": 0, "rental_uris": {"android": "https://dc.lft.to/lastmile_qr_scan", "ios": "https://dc.lft.to/lastmile_qr_scan"}, "name": "62a1533fc4abd8f811bb809a7c676451", "type": "electric_scooter"}, {"fusion_lat": 0.0, "bike_id": "c230c209bdd36f3469323fe944ccc69e", "fusion_lon": 0.0, "lon": -77.044931, "lat": 38.9054685, "is_reserved": 0, "is_disabled": 0, "rental_uris": {"android": "https://dc.lft.to/lastmile_qr_scan", "ios": "https://dc.lft.to/lastmile_qr_scan"}, "name": "c230c209bdd36f3469323fe944ccc69e", "type": "electric_scooter"}, {"fusion_lat": 0.0, "bike_id": "8daacefc41c6ade9feee012e33061f0b", "fusion_lon": 0.0, "lon": -77.02823466666666, "lat": 38.93173016666667, "is_reserved": 0, "is_disabled": 0, "rental_uris": {"android": "https://dc.lft.to/lastmile_qr_scan", "ios": "https://dc.lft.to/lastmile_qr_scan"}, "name": "8daacefc41c6ade9feee012e33061f0b", "type": "electric_scooter"}, {"fusion_lat": 0.0, "bike_id": "34f642261affbd1d76f7db20315e3a1b", "fusion_lon": 0.0, "lon": -77.02221683333333, "lat": 38.89327566666667, "is_reserved": 0, "is_disabled": 0, "rental_uris": {"android": "https://dc.lft.to/lastmile_qr_scan", "ios": "https://dc.lft.to/lastmile_qr_scan"}, "name": "34f642261affbd1d76f7db20315e3a1b", "type": "electric_scooter"}, {"fusion_lat": 0.0, "bike_id": "1d9af411bb0148da96fd86c071d7eff0", "fusion_lon": 0.0, "lon": -77.01499433333333, "lat": 38.892245333333335, "is_reserved": 0, "is_disabled": 0, "rental_uris": {"android": "https://dc.lft.to/lastmile_qr_scan", "ios": "https://dc.lft.to/lastmile_qr_scan"}, "name": "1d9af411bb0148da96fd86c071d7eff0", "type": "electric_scooter"}, {"fusion_lat": 0.0, "bike_id": "b8aab634a66f9e7a288a57f348cd9e17", "fusion_lon": 0.0, "lon": -77.03935333333334, "lat": 38.915623333333336, "is_reserved": 0, "is_disabled": 0, "rental_uris": {"android": "https://dc.lft.to/lastmile_qr_scan", "ios": "https://dc.lft.to/lastmile_qr_scan"}, "name": "b8aab634a66f9e7a288a57f348cd9e17", "type": "electric_scooter"}, {"fusion_lat": 0.0, "bike_id": "054aa07c5cfcd5c1cfe334ae481a21bf", "fusion_lon": 0.0, "lon": -76.9303615, "lat": 38.90018233333333, "is_reserved": 0, "is_disabled": 0, "rental_uris": {"android": "https://dc.lft.to/lastmile_qr_scan", "ios": "https://dc.lft.to/lastmile_qr_scan"}, "name": "054aa07c5cfcd5c1cfe334ae481a21bf", "type": "electric_scooter"}, {"fusion_lat": 0.0, "bike_id": "5ba332d5f1deb00f4f4cb069c5c76059", "fusion_lon": 0.0, "lon": -77.0627425, "lat": 38.9057945, "is_reserved": 0, "is_disabled": 0, "rental_uris": {"android": "https://dc.lft.to/lastmile_qr_scan", "ios": "https://dc.lft.to/lastmile_qr_scan"}, "name": "5ba332d5f1deb00f4f4cb069c5c76059", "type": "electric_scooter"}, {"fusion_lat": 0.0, "bike_id": "59d56222df40baefc56a345dff6e5840", "fusion_lon": 0.0, "lon": -76.97330383333333, "lat": 38.90486966666667, "is_reserved": 0, "is_disabled": 0, "rental_uris": {"android": "https://dc.lft.to/lastmile_qr_scan", "ios": "https://dc.lft.to/lastmile_qr_scan"}, "name": "59d56222df40baefc56a345dff6e5840", "type": "electric_bike"}, {"fusion_lat": 0.0, "bike_id": "d47049e2a815ee314f78aa086f268b02", "fusion_lon": 0.0, "lon": -76.90083716666666, "lat": 38.887675333333334, "is_reserved": 0, "is_disabled": 0, "rental_uris": {"android": "https://dc.lft.to/lastmile_qr_scan", "ios": "https://dc.lft.to/lastmile_qr_scan"}, "name": "d47049e2a815ee314f78aa086f268b02", "type": "electric_bike"}, {"fusion_lat": 0.0, "bike_id": "b84cec64fa9ff8481cbd77ba80327751", "fusion_lon": 0.0, "lon": -77.03209666666666, "lat": 38.915016666666666, "is_reserved": 0, "is_disabled": 0, "rental_uris": {"android": "https://dc.lft.to/lastmile_qr_scan", "ios": "https://dc.lft.to/lastmile_qr_scan"}, "name": "b84cec64fa9ff8481cbd77ba80327751", "type": "electric_scooter"}, {"fusion_lat": 0.0, "bike_id": "c83bf6d3343a1fa0eea96aed1b2667c5", "fusion_lon": 0.0, "lon": -76.9836825, "lat": 38.91557733333333, "is_reserved": 0, "is_disabled": 0, "rental_uris": {"android": "https://dc.lft.to/lastmile_qr_scan", "ios": "https://dc.lft.to/lastmile_qr_scan"}, "name": "c83bf6d3343a1fa0eea96aed1b2667c5", "type": "electric_scooter"}, {"fusion_lat": 0.0, "bike_id": "d445917f884e99807beee127e0e7a9ac", "fusion_lon": 0.0, "lon": -77.05913566666666, "lat": 38.903072333333334, "is_reserved": 0, "is_disabled": 0, "rental_uris": {"android": "https://dc.lft.to/lastmile_qr_scan", "ios": "https://dc.lft.to/lastmile_qr_scan"}, "name": "d445917f884e99807beee127e0e7a9ac", "type": "electric_scooter"}, {"fusion_lat": 0.0, "bike_id": "e4e42789bb9774b30f6126efd9d07016", "fusion_lon": 0.0, "lon": -77.03115266666667, "lat": 38.91567633333333, "is_reserved": 0, "is_disabled": 0, "rental_uris": {"android": "https://dc.lft.to/lastmile_qr_scan", "ios": "https://dc.lft.to/lastmile_qr_scan"}, "name": "e4e42789bb9774b30f6126efd9d07016", "type": "electric_scooter"}, {"fusion_lat": 0.0, "bike_id": "6cc21864f966612062dd186ab57f8567", "fusion_lon": 0.0, "lon": -76.998867, "lat": 38.920611666666666, "is_reserved": 0, "is_disabled": 0, "rental_uris": {"android": "https://dc.lft.to/lastmile_qr_scan", "ios": "https://dc.lft.to/lastmile_qr_scan"}, "name": "6cc21864f966612062dd186ab57f8567", "type": "electric_scooter"}, {"fusion_lat": 0.0, "bike_id": "f5b8ae4dc2907e5c4d603945bc6d486c", "fusion_lon": 0.0, "lon": -77.02659666666666, "lat": 38.938720833333335, "is_reserved": 0, "is_disabled": 0, "rental_uris": {"android": "https://dc.lft.to/lastmile_qr_scan", "ios": "https://dc.lft.to/lastmile_qr_scan"}, "name": "f5b8ae4dc2907e5c4d603945bc6d486c", "type": "electric_scooter"}, {"fusion_lat": 0.0, "bike_id": "214bcdad7caf3afe4ed9cdfdedc159fb", "fusion_lon": 0.0, "lon": -77.0438205, "lat": 38.920739833333336, "is_reserved": 0, "is_disabled": 0, "rental_uris": {"android": "https://dc.lft.to/lastmile_qr_scan", "ios": "https://dc.lft.to/lastmile_qr_scan"}, "name": "214bcdad7caf3afe4ed9cdfdedc159fb", "type": "electric_scooter"}, {"fusion_lat": 0.0, "bike_id": "f571dd1d57a5eaa68b3e6bcd8882f99c", "fusion_lon": 0.0, "lon": -76.99354483333333, "lat": 38.845094333333336, "is_reserved": 0, "is_disabled": 0, "rental_uris": {"android": "https://dc.lft.to/lastmile_qr_scan", "ios": "https://dc.lft.to/lastmile_qr_scan"}, "name": "f571dd1d57a5eaa68b3e6bcd8882f99c", "type": "electric_bike"}, {"fusion_lat": 0.0, "bike_id": "5e6e1453c7821e5c5f8941f8ed4319ef", "fusion_lon": 0.0, "lon": -76.99900816666667, "lat": 38.907331666666664, "is_reserved": 0, "is_disabled": 0, "rental_uris": {"android": "https://dc.lft.to/lastmile_qr_scan", "ios": "https://dc.lft.to/lastmile_qr_scan"}, "name": "5e6e1453c7821e5c5f8941f8ed4319ef", "type": "electric_scooter"}, {"fusion_lat": 0.0, "bike_id": "15aacc31109e65d69e97bc3a2eb4745e", "fusion_lon": 0.0, "lon": -77.04872, "lat": 38.9009555, "is_reserved": 0, "is_disabled": 0, "rental_uris": {"android": "https://dc.lft.to/lastmile_qr_scan", "ios": "https://dc.lft.to/lastmile_qr_scan"}, "name": "15aacc31109e65d69e97bc3a2eb4745e", "type": "electric_scooter"}, {"fusion_lat": 0.0, "bike_id": "f65425293e4eca0fdb2a9e1214b7db68", "fusion_lon": 0.0, "lon": -77.0467995, "lat": 38.892404666666664, "is_reserved": 0, "is_disabled": 0, "rental_uris": {"android": "https://dc.lft.to/lastmile_qr_scan", "ios": "https://dc.lft.to/lastmile_qr_scan"}, "name": "f65425293e4eca0fdb2a9e1214b7db68", "type": "electric_scooter"}, {"fusion_lat": 0.0, "bike_id": "76645a31125efb97c19d010298bf6b70", "fusion_lon": 0.0, "lon": -77.02559266666667, "lat": 38.9417435, "is_reserved": 0, "is_disabled": 0, "rental_uris": {"android": "https://dc.lft.to/lastmile_qr_scan", "ios": "https://dc.lft.to/lastmile_qr_scan"}, "name": "76645a31125efb97c19d010298bf6b70", "type": "electric_scooter"}, {"fusion_lat": 0.0, "bike_id": "6f2d1a4770310f0c6dd85467498deb10", "fusion_lon": 0.0, "lon": -77.043888, "lat": 38.921192, "is_reserved": 0, "is_disabled": 0, "rental_uris": {"android": "https://dc.lft.to/lastmile_qr_scan", "ios": "https://dc.lft.to/lastmile_qr_scan"}, "name": "6f2d1a4770310f0c6dd85467498deb10", "type": "electric_scooter"}, {"fusion_lat": 0.0, "bike_id": "b8c48a3122f8aebdaab247ad96225f30", "fusion_lon": 0.0, "lon": -77.00683566666666, "lat": 38.94499116666667, "is_reserved": 0, "is_disabled": 0, "rental_uris": {"android": "https://dc.lft.to/lastmile_qr_scan", "ios": "https://dc.lft.to/lastmile_qr_scan"}, "name": "b8c48a3122f8aebdaab247ad96225f30", "type": "electric_bike"}, {"fusion_lat": 0.0, "bike_id": "78641add518726ae0ac01fea249cf503", "fusion_lon": 0.0, "lon": -77.032033, "lat": 38.9174985, "is_reserved": 0, "is_disabled": 0, "rental_uris": {"android": "https://dc.lft.to/lastmile_qr_scan", "ios": "https://dc.lft.to/lastmile_qr_scan"}, "name": "78641add518726ae0ac01fea249cf503", "type": "electric_scooter"}, {"fusion_lat": 0.0, "bike_id": "edf5a5c85144486bfc5b5bde4fd5adf1", "fusion_lon": 0.0, "lon": -77.025141, "lat": 38.92648333333333, "is_reserved": 0, "is_disabled": 0, "rental_uris": {"android": "https://dc.lft.to/lastmile_qr_scan", "ios": "https://dc.lft.to/lastmile_qr_scan"}, "name": "edf5a5c85144486bfc5b5bde4fd5adf1", "type": "electric_scooter"}, {"fusion_lat": 0.0, "bike_id": "6f0bc79d7c2616220764b99b9092723f", "fusion_lon": 0.0, "lon": -77.00596433333334, "lat": 38.871918666666666, "is_reserved": 0, "is_disabled": 0, "rental_uris": {"android": "https://dc.lft.to/lastmile_qr_scan", "ios": "https://dc.lft.to/lastmile_qr_scan"}, "name": "6f0bc79d7c2616220764b99b9092723f", "type": "electric_scooter"}, {"fusion_lat": 0.0, "bike_id": "c655570b185e52e8a37f1ae9c6cb4d4a", "fusion_lon": 0.0, "lon": -77.04004933333333, "lat": 38.90574816666667, "is_reserved": 0, "is_disabled": 0, "rental_uris": {"android": "https://dc.lft.to/lastmile_qr_scan", "ios": "https://dc.lft.to/lastmile_qr_scan"}, "name": "c655570b185e52e8a37f1ae9c6cb4d4a", "type": "electric_scooter"}, {"fusion_lat": 0.0, "bike_id": "2f11381693261951e3895816e8e6f8a6", "fusion_lon": 0.0, "lon": -77.0270895, "lat": 38.90671433333333, "is_reserved": 0, "is_disabled": 0, "rental_uris": {"android": "https://dc.lft.to/lastmile_qr_scan", "ios": "https://dc.lft.to/lastmile_qr_scan"}, "name": "2f11381693261951e3895816e8e6f8a6", "type": "electric_scooter"}, {"fusion_lat": 0.0, "bike_id": "156d9817d9f6b1a5ed22815cbd2ea749", "fusion_lon": 0.0, "lon": -76.8954285, "lat": 38.945575833333336, "is_reserved": 0, "is_disabled": 0, "rental_uris": {"android": "https://dc.lft.to/lastmile_qr_scan", "ios": "https://dc.lft.to/lastmile_qr_scan"}, "name": "156d9817d9f6b1a5ed22815cbd2ea749", "type": "electric_bike"}, {"fusion_lat": 0.0, "bike_id": "92efcefc7ff961df71b79fd526290944", "fusion_lon": 0.0, "lon": -76.99153983333333, "lat": 38.90042566666666, "is_reserved": 0, "is_disabled": 0, "rental_uris": {"android": "https://dc.lft.to/lastmile_qr_scan", "ios": "https://dc.lft.to/lastmile_qr_scan"}, "name": "92efcefc7ff961df71b79fd526290944", "type": "electric_scooter"}, {"fusion_lat": 0.0, "bike_id": "34fe1a2693530977eae4b92db108885c", "fusion_lon": 0.0, "lon": -77.03257433333333, "lat": 38.901361, "is_reserved": 0, "is_disabled": 0, "rental_uris": {"android": "https://dc.lft.to/lastmile_qr_scan", "ios": "https://dc.lft.to/lastmile_qr_scan"}, "name": "34fe1a2693530977eae4b92db108885c", "type": "electric_scooter"}, {"fusion_lat": 0.0, "bike_id": "64344aee236a9b68039eb89f9af304ae", "fusion_lon": 0.0, "lon": -77.0366425, "lat": 38.92981233333333, "is_reserved": 0, "is_disabled": 0, "rental_uris": {"android": "https://dc.lft.to/lastmile_qr_scan", "ios": "https://dc.lft.to/lastmile_qr_scan"}, "name": "64344aee236a9b68039eb89f9af304ae", "type": "electric_scooter"}, {"fusion_lat": 0.0, "bike_id": "bad3ae9882a15ae0bef65b17125fbf10", "fusion_lon": 0.0, "lon": -77.02574533333333, "lat": 38.914888166666664, "is_reserved": 0, "is_disabled": 0, "rental_uris": {"android": "https://dc.lft.to/lastmile_qr_scan", "ios": "https://dc.lft.to/lastmile_qr_scan"}, "name": "bad3ae9882a15ae0bef65b17125fbf10", "type": "electric_scooter"}, {"fusion_lat": 0.0, "bike_id": "ca807465101868bdec2a3990d597c0db", "fusion_lon": 0.0, "lon": -76.97808066666667, "lat": 38.906678666666664, "is_reserved": 0, "is_disabled": 0, "rental_uris": {"android": "https://dc.lft.to/lastmile_qr_scan", "ios": "https://dc.lft.to/lastmile_qr_scan"}, "name": "ca807465101868bdec2a3990d597c0db", "type": "electric_scooter"}, {"fusion_lat": 0.0, "bike_id": "87b801a9b12e97bc45230e13c5ebee78", "fusion_lon": 0.0, "lon": -77.04253466666667, "lat": 38.92274666666667, "is_reserved": 0, "is_disabled": 0, "rental_uris": {"android": "https://dc.lft.to/lastmile_qr_scan", "ios": "https://dc.lft.to/lastmile_qr_scan"}, "name": "87b801a9b12e97bc45230e13c5ebee78", "type": "electric_scooter"}, {"fusion_lat": 0.0, "bike_id": "8f90aad82bc640fd185159d352bf39ed", "fusion_lon": 0.0, "lon": -77.03225866666666, "lat": 38.908780166666666, "is_reserved": 0, "is_disabled": 0, "rental_uris": {"android": "https://dc.lft.to/lastmile_qr_scan", "ios": "https://dc.lft.to/lastmile_qr_scan"}, "name": "8f90aad82bc640fd185159d352bf39ed", "type": "electric_scooter"}, {"fusion_lat": 0.0, "bike_id": "ffe1b8599b48ce78239b1c940c68f6f7", "fusion_lon": 0.0, "lon": -77.05242183333333, "lat": 38.925529, "is_reserved": 0, "is_disabled": 0, "rental_uris": {"android": "https://dc.lft.to/lastmile_qr_scan", "ios": "https://dc.lft.to/lastmile_qr_scan"}, "name": "ffe1b8599b48ce78239b1c940c68f6f7", "type": "electric_scooter"}, {"fusion_lat": 0.0, "bike_id": "c7bb41cb9d8491915d6056bf257f7b7c", "fusion_lon": 0.0, "lon": -77.0318105, "lat": 38.9183425, "is_reserved": 0, "is_disabled": 0, "rental_uris": {"android": "https://dc.lft.to/lastmile_qr_scan", "ios": "https://dc.lft.to/lastmile_qr_scan"}, "name": "c7bb41cb9d8491915d6056bf257f7b7c", "type": "electric_scooter"}, {"fusion_lat": 0.0, "bike_id": "1b1d7f6b72393baa12f7d4b08b7a3674", "fusion_lon": 0.0, "lon": -77.07122933333333, "lat": 38.919781, "is_reserved": 0, "is_disabled": 0, "rental_uris": {"android": "https://dc.lft.to/lastmile_qr_scan", "ios": "https://dc.lft.to/lastmile_qr_scan"}, "name": "1b1d7f6b72393baa12f7d4b08b7a3674", "type": "electric_scooter"}, {"fusion_lat": 0.0, "bike_id": "1fe57f123ad8bc501f1c3d3c590ca500", "fusion_lon": 0.0, "lon": -77.032003, "lat": 38.91648683333333, "is_reserved": 0, "is_disabled": 0, "rental_uris": {"android": "https://dc.lft.to/lastmile_qr_scan", "ios": "https://dc.lft.to/lastmile_qr_scan"}, "name": "1fe57f123ad8bc501f1c3d3c590ca500", "type": "electric_scooter"}, {"fusion_lat": 0.0, "bike_id": "0ef39cbb2b1401b65014865398970c3c", "fusion_lon": 0.0, "lon": -77.0318285, "lat": 38.89223633333334, "is_reserved": 0, "is_disabled": 0, "rental_uris": {"android": "https://dc.lft.to/lastmile_qr_scan", "ios": "https://dc.lft.to/lastmile_qr_scan"}, "name": "0ef39cbb2b1401b65014865398970c3c", "type": "electric_scooter"}, {"fusion_lat": 0.0, "bike_id": "c5904c5e65033065c902db379db55260", "fusion_lon": 0.0, "lon": -77.04896616666667, "lat": 38.89227266666666, "is_reserved": 0, "is_disabled": 0, "rental_uris": {"android": "https://dc.lft.to/lastmile_qr_scan", "ios": "https://dc.lft.to/lastmile_qr_scan"}, "name": "c5904c5e65033065c902db379db55260", "type": "electric_scooter"}, {"fusion_lat": 0.0, "bike_id": "868bbd6337334f6b10c4b8bce6384e80", "fusion_lon": 0.0, "lon": -77.022229, "lat": 38.892232666666665, "is_reserved": 0, "is_disabled": 0, "rental_uris": {"android": "https://dc.lft.to/lastmile_qr_scan", "ios": "https://dc.lft.to/lastmile_qr_scan"}, "name": "868bbd6337334f6b10c4b8bce6384e80", "type": "electric_scooter"}, {"fusion_lat": 0.0, "bike_id": "b9cb97bcb742d0e127d2990ac6141e71", "fusion_lon": 0.0, "lon": -77.03181716666667, "lat": 38.89632666666667, "is_reserved": 0, "is_disabled": 0, "rental_uris": {"android": "https://dc.lft.to/lastmile_qr_scan", "ios": "https://dc.lft.to/lastmile_qr_scan"}, "name": "b9cb97bcb742d0e127d2990ac6141e71", "type": "electric_scooter"}, {"fusion_lat": 0.0, "bike_id": "7d48087e03f8dbb5688381ba370b386d", "fusion_lon": 0.0, "lon": -76.98600616666667, "lat": 38.866899333333336, "is_reserved": 0, "is_disabled": 0, "rental_uris": {"android": "https://dc.lft.to/lastmile_qr_scan", "ios": "https://dc.lft.to/lastmile_qr_scan"}, "name": "7d48087e03f8dbb5688381ba370b386d", "type": "electric_scooter"}, {"fusion_lat": 0.0, "bike_id": "a4e69f77492af47caf12add09a22e02f", "fusion_lon": 0.0, "lon": -77.02553916666666, "lat": 38.9009835, "is_reserved": 0, "is_disabled": 0, "rental_uris": {"android": "https://dc.lft.to/lastmile_qr_scan", "ios": "https://dc.lft.to/lastmile_qr_scan"}, "name": "a4e69f77492af47caf12add09a22e02f", "type": "electric_scooter"}, {"fusion_lat": 0.0, "bike_id": "0c6680cf9c7ca0aa7fa768cb8784621c", "fusion_lon": 0.0, "lon": -77.02658833333334, "lat": 38.899813, "is_reserved": 0, "is_disabled": 0, "rental_uris": {"android": "https://dc.lft.to/lastmile_qr_scan", "ios": "https://dc.lft.to/lastmile_qr_scan"}, "name": "0c6680cf9c7ca0aa7fa768cb8784621c", "type": "electric_scooter"}, {"fusion_lat": 0.0, "bike_id": "b5f02abd02b2dd169c8621b9dc6e3354", "fusion_lon": 0.0, "lon": -77.02622466666666, "lat": 38.892216, "is_reserved": 0, "is_disabled": 0, "rental_uris": {"android": "https://dc.lft.to/lastmile_qr_scan", "ios": "https://dc.lft.to/lastmile_qr_scan"}, "name": "b5f02abd02b2dd169c8621b9dc6e3354", "type": "electric_scooter"}, {"fusion_lat": 0.0, "bike_id": "a1ab87843edadf244f486b3c4a10b84d", "fusion_lon": 0.0, "lon": -77.02396416666667, "lat": 38.91685916666667, "is_reserved": 0, "is_disabled": 0, "rental_uris": {"android": "https://dc.lft.to/lastmile_qr_scan", "ios": "https://dc.lft.to/lastmile_qr_scan"}, "name": "a1ab87843edadf244f486b3c4a10b84d", "type": "electric_scooter"}, {"fusion_lat": 0.0, "bike_id": "58f264f65a850be4f455da8512a9244d", "fusion_lon": 0.0, "lon": -76.92997316666667, "lat": 38.901914833333336, "is_reserved": 0, "is_disabled": 0, "rental_uris": {"android": "https://dc.lft.to/lastmile_qr_scan", "ios": "https://dc.lft.to/lastmile_qr_scan"}, "name": "58f264f65a850be4f455da8512a9244d", "type": "electric_scooter"}, {"fusion_lat": 0.0, "bike_id": "d9e017cc1582d296db60a7d3c6de443e", "fusion_lon": 0.0, "lon": -77.01208266666667, "lat": 38.87085316666667, "is_reserved": 0, "is_disabled": 0, "rental_uris": {"android": "https://dc.lft.to/lastmile_qr_scan", "ios": "https://dc.lft.to/lastmile_qr_scan"}, "name": "d9e017cc1582d296db60a7d3c6de443e", "type": "electric_bike"}, {"fusion_lat": 0.0, "bike_id": "6f1474328f10b3da6f43f98725396f9d", "fusion_lon": 0.0, "lon": -77.05406966666666, "lat": 38.927735166666665, "is_reserved": 0, "is_disabled": 0, "rental_uris": {"android": "https://dc.lft.to/lastmile_qr_scan", "ios": "https://dc.lft.to/lastmile_qr_scan"}, "name": "6f1474328f10b3da6f43f98725396f9d", "type": "electric_scooter"},