{"data": {"bikes": [{"lon": -77.0274105, "bike_id": "50a1b120195093ef3893fea633aeb2bf", "lat": 38.89988683333333, "fusion_lon": 0.0, "fusion_lat": 0.0, "type": "electric_scooter", "name": "50a1b120195093ef3893fea633aeb2bf", "is_disabled": 0, "rental_uris": {"ios": "https://dc.lft.to/lastmile_qr_scan", "android": "https://dc.lft.to/lastmile_qr_scan"}, "is_reserved": 0}, {"lon": -77.009533, "bike_id": "5ad259c085a031ba59d50ce903d132b7", "lat": 38.897422666666664, "fusion_lon": 0.0, "fusion_lat": 0.0, "type": "electric_scooter", "name": "5ad259c085a031ba59d50ce903d132b7", "is_disabled": 0, "rental_uris": {"ios": "https://dc.lft.to/lastmile_qr_scan", "android": "https://dc.lft.to/lastmile_qr_scan"}, "is_reserved": 0}, {"lon": -77.0524535, "bike_id": "aec0f0d5e7ca13aa681b22f789586575", "lat": 38.900106666666666, "fusion_lon": 0.0, "fusion_lat": 0.0, "type": "electric_scooter", "name": "aec0f0d5e7ca13aa681b22f789586575", "is_disabled": 0, "rental_uris": {"ios": "https://dc.lft.to/lastmile_qr_scan", "android": "https://dc.lft.to/lastmile_qr_scan"}, "is_reserved": 0}, {"lon": -77.04336683333334, "bike_id": "01fbca6b94e5411959c7df4d341f7662", "lat": 38.922203333333336, "fusion_lon": 0.0, "fusion_lat": 0.0, "type": "electric_scooter", "name": "01fbca6b94e5411959c7df4d341f7662", "is_disabled": 0, "rental_uris": {"ios": "https://dc.lft.to/lastmile_qr_scan", "android": "https://dc.lft.to/lastmile_qr_scan"}, "is_reserved": 0}, {"lon": -77.04045116666667, "bike_id": "bfee8175ca82945aef38d74602fae800", "lat": 38.9242235, "fusion_lon": 0.0, "fusion_lat": 0.0, "type": "electric_scooter", "name": "bfee8175ca82945aef38d74602fae800", "is_disabled": 0, "rental_uris": {"ios": "https://dc.lft.to/lastmile_qr_scan", "android": "https://dc.lft.to/lastmile_qr_scan"}, "is_reserved": 0}, {"lon": -77.00292516666667, "bike_id": "43dd2dd22655e96ef98cfa1aa3b9a03c", "lat": 38.95695283333333, "fusion_lon": 0.0, "fusion_lat": 0.0, "type": "electric_bike", "name": "43dd2dd22655e96ef98cfa1aa3b9a03c", "is_disabled": 0, "rental_uris": {"ios": "https://dc.lft.to/lastmile_qr_scan", "android": "https://dc.lft.to/lastmile_qr_scan"}, "is_reserved": 0}, {"lon": -77.022285, "bike_id": "d8901efcb3f2403cffd99ec6ebe0f154", "lat": 38.8931855, "fusion_lon": 0.0, "fusion_lat": 0.0, "type": "electric_scooter", "name": "d8901efcb3f2403cffd99ec6ebe0f154", "is_disabled": 0, "rental_uris": {"ios": "https://dc.lft.to/lastmile_qr_scan", "android": "https://dc.lft.to/lastmile_qr_scan"}, "is_reserved": 0}, {"lon": -77.02444816666667, "bike_id": "848fd9a6a9e695b08fb583591c018c7c", "lat": 38.89721516666667, "fusion_lon": 0.0, "fusion_lat": 0.0, "type": "electric_scooter", "name": "848fd9a6a9e695b08fb583591c018c7c", "is_disabled": 0, "rental_uris": {"ios": "https://dc.lft.to/lastmile_qr_scan", "android": "https://dc.lft.to/lastmile_qr_scan"}, "is_reserved": 0}, {"lon": -76.9952315, "bike_id": "20f84d658460d47d284f40aeff380eae", "lat": 38.877593166666664, "fusion_lon": 0.0, "fusion_lat": 0.0, "type": "electric_scooter", "name": "20f84d658460d47d284f40aeff380eae", "is_disabled": 0, "rental_uris": {"ios": "https://dc.lft.to/lastmile_qr_scan", "android": "https://dc.lft.to/lastmile_qr_scan"}, "is_reserved": 0}, {"lon": -77.06531133333333, "bike_id": "cea2e3f6be12f35558d7c9ffe09918da", "lat": 38.94742183333334, "fusion_lon": 0.0, "fusion_lat": 0.0, "type": "electric_scooter", "name": "cea2e3f6be12f35558d7c9ffe09918da", "is_disabled": 0, "rental_uris": {"ios": "https://dc.lft.to/lastmile_qr_scan", "android": "https://dc.lft.to/lastmile_qr_scan"}, "is_reserved": 0}, {"lon": -76.99778983333333, "bike_id": "f1c7b5abd9a33c9470a1f976acf4ee19", "lat": 38.8443175, "fusion_lon": 0.0, "fusion_lat": 0.0, "type": "electric_scooter", "name": "f1c7b5abd9a33c9470a1f976acf4ee19", "is_disabled": 0, "rental_uris": {"ios": "https://dc.lft.to/lastmile_qr_scan", "android": "https://dc.lft.to/lastmile_qr_scan"}, "is_reserved": 0}, {"lon": -77.06327866666666, "bike_id": "840bef30e45061ea4f211f6927f60c99", "lat": 38.907641, "fusion_lon": 0.0, "fusion_lat": 0.0, "type": "electric_scooter", "name": "840bef30e45061ea4f211f6927f60c99", "is_disabled": 0, "rental_uris": {"ios": "https://dc.lft.to/lastmile_qr_scan", "android": "https://dc.lft.to/lastmile_qr_scan"}, "is_reserved": 0}, {"lon": -77.00368933333333, "bike_id": "b6780b68e593ca895e895050581977a9", "lat": 38.90765733333333, "fusion_lon": 0.0, "fusion_lat": 0.0, "type": "electric_scooter", "name": "b6780b68e593ca895e895050581977a9", "is_disabled": 0, "rental_uris": {"ios": "https://dc.lft.to/lastmile_qr_scan", "android": "https://dc.lft.to/lastmile_qr_scan"}, "is_reserved": 0}, {"lon": -76.99886783333334, "bike_id": "251cea35451d75fc438db835928df00f", "lat": 38.920534833333335, "fusion_lon": 0.0, "fusion_lat": 0.0, "type": "electric_scooter", "name": "251cea35451d75fc438db835928df00f", "is_disabled": 0, "rental_uris": {"ios": "https://dc.lft.to/lastmile_qr_scan", "android": "https://dc.lft.to/lastmile_qr_scan"}, "is_reserved": 0}, {"lon": -77.03263566666666, "bike_id": "2740b0f09a4e7ddecf4f6dc2160590e4", "lat": 38.93559466666667, "fusion_lon": 0.0, "fusion_lat": 0.0, "type": "electric_scooter", "name": "2740b0f09a4e7ddecf4f6dc2160590e4", "is_disabled": 0, "rental_uris": {"ios": "https://dc.lft.to/lastmile_qr_scan", "android": "https://dc.lft.to/lastmile_qr_scan"}, "is_reserved": 0}, {"lon": -77.0743605, "bike_id": "2de7f641d47c176611a592493dd35db6", "lat": 38.99944133333333, "fusion_lon": 0.0, "fusion_lat": 0.0, "type": "electric_bike", "name": "2de7f641d47c176611a592493dd35db6", "is_disabled": 0, "rental_uris": {"ios": "https://dc.lft.to/lastmile_qr_scan", "android": "https://dc.lft.to/lastmile_qr_scan"}, "is_reserved": 0}, {"lon": -77.02391833333333, "bike_id": "eefeb1b9746555440b8fad737f28fc88", "lat": 38.919196166666666, "fusion_lon": 0.0, "fusion_lat": 0.0, "type": "electric_scooter", "name": "eefeb1b9746555440b8fad737f28fc88", "is_disabled": 0, "rental_uris": {"ios": "https://dc.lft.to/lastmile_qr_scan", "android": "https://dc.lft.to/lastmile_qr_scan"}, "is_reserved": 0}, {"lon": -77.00061316666667, "bike_id": "25f41c2e63268bf80ca30294a750519c", "lat": 38.89925566666667, "fusion_lon": 0.0, "fusion_lat": 0.0, "type": "electric_scooter", "name": "25f41c2e63268bf80ca30294a750519c", "is_disabled": 0, "rental_uris": {"ios": "https://dc.lft.to/lastmile_qr_scan", "android": "https://dc.lft.to/lastmile_qr_scan"}, "is_reserved": 0}, {"lon": -77.03223783333334, "bike_id": "19ebe79b759402c0589f72ab4a7c5e48", "lat": 38.914021, "fusion_lon": 0.0, "fusion_lat": 0.0, "type": "electric_scooter", "name": "19ebe79b759402c0589f72ab4a7c5e48", "is_disabled": 0, "rental_uris": {"ios": "https://dc.lft.to/lastmile_qr_scan", "android": "https://dc.lft.to/lastmile_qr_scan"}, "is_reserved": 0}, {"lon": -76.98719016666666, "bike_id": "19d7f2f566af5c89bf0b5667d1b8be9c", "lat": 38.866228666666665, "fusion_lon": 0.0, "fusion_lat": 0.0, "type": "electric_scooter", "name": "19d7f2f566af5c89bf0b5667d1b8be9c", "is_disabled": 0, "rental_uris": {"ios": "https://dc.lft.to/lastmile_qr_scan", "android": "https://dc.lft.to/lastmile_qr_scan"}, "is_reserved": 0}, {"lon": -77.0243015, "bike_id": "8b24d8e6761af6e17498f4cabd90bd63", "lat": 38.914, "fusion_lon": 0.0, "fusion_lat": 0.0, "type": "electric_scooter", "name": "8b24d8e6761af6e17498f4cabd90bd63", "is_disabled": 0, "rental_uris": {"ios": "https://dc.lft.to/lastmile_qr_scan", "android": "https://dc.lft.to/lastmile_qr_scan"}, "is_reserved": 0}, {"lon": -77.03983816666667, "bike_id": "145b4acf5e2ad8c9163baa18ef7814a5", "lat": 38.905590333333336, "fusion_lon": 0.0, "fusion_lat": 0.0, "type": "electric_scooter", "name": "145b4acf5e2ad8c9163baa18ef7814a5", "is_disabled": 0, "rental_uris": {"ios": "https://dc.lft.to/lastmile_qr_scan", "android": "https://dc.lft.to/lastmile_qr_scan"}, "is_reserved": 0}, {"lon": -77.0074085, "bike_id": "bef7c2ae2c776a89e1e8b8268915aeeb", "lat": 38.916247, "fusion_lon": 0.0, "fusion_lat": 0.0, "type": "electric_scooter", "name": "bef7c2ae2c776a89e1e8b8268915aeeb", "is_disabled": 0, "rental_uris": {"ios": "https://dc.lft.to/lastmile_qr_scan", "android": "https://dc.lft.to/lastmile_qr_scan"}, "is_reserved": 0}, {"lon": -76.991583, "bike_id": "1f309336efcfb1aa15880e94b3b5cf57", "lat": 38.8876695, "fusion_lon": 0.0, "fusion_lat": 0.0, "type": "electric_bike", "name": "1f309336efcfb1aa15880e94b3b5cf57", "is_disabled": 0, "rental_uris": {"ios": "https://dc.lft.to/lastmile_qr_scan", "android": "https://dc.lft.to/lastmile_qr_scan"}, "is_reserved": 0}, {"lon": -77.03191683333333, "bike_id": "6edd38edf975dc3c1a9ea4bb2534bb28", "lat": 38.917437166666666, "fusion_lon": 0.0, "fusion_lat": 0.0, "type": "electric_scooter", "name": "6edd38edf975dc3c1a9ea4bb2534bb28", "is_disabled": 0, "rental_uris": {"ios": "https://dc.lft.to/lastmile_qr_scan", "android": "https://dc.lft.to/lastmile_qr_scan"}, "is_reserved": 0}, {"lon": -77.0449865, "bike_id": "02b85bfa5e712e5b1a20ccb52a3de171", "lat": 38.9184805, "fusion_lon": 0.0, "fusion_lat": 0.0, "type": "electric_scooter", "name": "02b85bfa5e712e5b1a20ccb52a3de171", "is_disabled": 0, "rental_uris": {"ios": "https://dc.lft.to/lastmile_qr_scan", "android": "https://dc.lft.to/lastmile_qr_scan"}, "is_reserved": 0}, {"lon": -77.031965, "bike_id": "636e89e32960d6616bd78731bc611491", "lat": 38.917335666666666, "fusion_lon": 0.0, "fusion_lat": 0.0, "type": "electric_scooter", "name": "636e89e32960d6616bd78731bc611491", "is_disabled": 0, "rental_uris": {"ios": "https://dc.lft.to/lastmile_qr_scan", "android": "https://dc.lft.to/lastmile_qr_scan"}, "is_reserved": 0}, {"lon": -77.04477616666667, "bike_id": "da2fa766f177ff2726f3e02522398a4d", "lat": 38.915637833333335, "fusion_lon": 0.0, "fusion_lat": 0.0, "type": "electric_scooter", "name": "da2fa766f177ff2726f3e02522398a4d", "is_disabled": 0, "rental_uris": {"ios": "https://dc.lft.to/lastmile_qr_scan", "android": "https://dc.lft.to/lastmile_qr_scan"}, "is_reserved": 0}, {"lon": -77.01216616666666, "bike_id": "09e74972633440a9cc92695f9d7d4b30", "lat": 38.871797, "fusion_lon": 0.0, "fusion_lat": 0.0, "type": "electric_scooter", "name": "09e74972633440a9cc92695f9d7d4b30", "is_disabled": 0, "rental_uris": {"ios": "https://dc.lft.to/lastmile_qr_scan", "android": "https://dc.lft.to/lastmile_qr_scan"}, "is_reserved": 0}, {"lon": -77.11162733333333, "bike_id": "791a3e690e3699827da0436b2b2e387b", "lat": 38.85514033333333, "fusion_lon": 0.0, "fusion_lat": 0.0, "type": "electric_bike", "name": "791a3e690e3699827da0436b2b2e387b", "is_disabled": 0, "rental_uris": {"ios": "https://dc.lft.to/lastmile_qr_scan", "android": "https://dc.lft.to/lastmile_qr_scan"}, "is_reserved": 0}, {"lon": -77.046934, "bike_id": "281d9a2cebd50672e8f7784c8eefe080", "lat": 39.02391716666666, "fusion_lon": 0.0, "fusion_lat": 0.0, "type": "electric_bike", "name": "281d9a2cebd50672e8f7784c8eefe080", "is_disabled": 0, "rental_uris": {"ios": "https://dc.lft.to/lastmile_qr_scan", "android": "https://dc.lft.to/lastmile_qr_scan"}, "is_reserved": 0}, {"lon": -76.98372866666666, "bike_id": "9b6160775ba8ccfc36500086b98d1ab6", "lat": 38.914921666666665, "fusion_lon": 0.0, "fusion_lat": 0.0, "type": "electric_scooter", "name": "9b6160775ba8ccfc36500086b98d1ab6", "is_disabled": 0, "rental_uris": {"ios": "https://dc.lft.to/lastmile_qr_scan", "android": "https://dc.lft.to/lastmile_qr_scan"}, "is_reserved": 0}, {"lon": -77.02786233333333, "bike_id": "5aef4128c2292429eb3f49a2198cab95", "lat": 38.94189516666667, "fusion_lon": 0.0, "fusion_lat": 0.0, "type": "electric_scooter", "name": "5aef4128c2292429eb3f49a2198cab95", "is_disabled": 0, "rental_uris": {"ios": "https://dc.lft.to/lastmile_qr_scan", "android": "https://dc.lft.to/lastmile_qr_scan"}, "is_reserved": 0}, {"lon": -77.0426975, "bike_id": "b001a6a70bbca313e6de795fabaf5004", "lat": 38.923108, "fusion_lon": 0.0, "fusion_lat": 0.0, "type": "electric_scooter", "name": "b001a6a70bbca313e6de795fabaf5004", "is_disabled": 0, "rental_uris": {"ios": "https://dc.lft.to/lastmile_qr_scan", "android": "https://dc.lft.to/lastmile_qr_scan"}, "is_reserved": 0}, {"lon": -77.03436783333333, "bike_id": "7296c0e906fc46e23eb2fc467a605282", "lat": 38.91807216666667, "fusion_lon": 0.0, "fusion_lat": 0.0, "type": "electric_scooter", "name": "7296c0e906fc46e23eb2fc467a605282", "is_disabled": 0, "rental_uris": {"ios": "https://dc.lft.to/lastmile_qr_scan", "android": "https://dc.lft.to/lastmile_qr_scan"}, "is_reserved": 0}, {"lon": -77.0309705, "bike_id": "d6e12c9abe0ac19415305c48d01bef7b", "lat": 38.928586833333334, "fusion_lon": 0.0, "fusion_lat": 0.0, "type": "electric_scooter", "name": "d6e12c9abe0ac19415305c48d01bef7b", "is_disabled": 0, "rental_uris": {"ios": "https://dc.lft.to/lastmile_qr_scan", "android": "https://dc.lft.to/lastmile_qr_scan"}, "is_reserved": 0}, {"lon": -76.97306116666667, "bike_id": "e11dbbb3519590b825d1530052ce093c", "lat": 38.86565933333333, "fusion_lon": 0.0, "fusion_lat": 0.0, "type": "electric_scooter", "name": "e11dbbb3519590b825d1530052ce093c", "is_disabled": 0, "rental_uris": {"ios": "https://dc.lft.to/lastmile_qr_scan", "android": "https://dc.lft.to/lastmile_qr_scan"}, "is_reserved": 0}, {"lon": -77.16631066666666, "bike_id": "7bcbc098fd75ce3b7ecd7c651ccfb307", "lat": 38.888358833333335, "fusion_lon": 0.0, "fusion_lat": 0.0, "type": "electric_bike", "name": "7bcbc098fd75ce3b7ecd7c651ccfb307", "is_disabled": 0, "rental_uris": {"ios": "https://dc.lft.to/lastmile_qr_scan", "android": "https://dc.lft.to/lastmile_qr_scan"}, "is_reserved": 0}, {"lon": -76.98230633333333, "bike_id": "5df53f45b26a70e0cc23b27c19bd8785", "lat": 38.8864685, "fusion_lon": 0.0, "fusion_lat": 0.0, "type": "electric_scooter", "name": "5df53f45b26a70e0cc23b27c19bd8785", "is_disabled": 0, "rental_uris": {"ios": "https://dc.lft.to/lastmile_qr_scan", "android": "https://dc.lft.to/lastmile_qr_scan"}, "is_reserved": 0}, {"lon": -77.00049566666667, "bike_id": "0ffac435b1cbd5a0900480459ae1bd98", "lat": 38.876611833333335, "fusion_lon": 0.0, "fusion_lat": 0.0, "type": "electric_scooter", "name": "0ffac435b1cbd5a0900480459ae1bd98", "is_disabled": 0, "rental_uris": {"ios": "https://dc.lft.to/lastmile_qr_scan", "android": "https://dc.lft.to/lastmile_qr_scan"}, "is_reserved": 0}, {"lon": -77.034861, "bike_id": "286dd1b2e5bbe35fd089ab566161b134", "lat": 38.92482066666667, "fusion_lon": 0.0, "fusion_lat": 0.0, "type": "electric_scooter", "name": "286dd1b2e5bbe35fd089ab566161b134", "is_disabled": 0, "rental_uris": {"ios": "https://dc.lft.to/lastmile_qr_scan", "android": "https://dc.lft.to/lastmile_qr_scan"}, "is_reserved": 0}, {"lon": -77.0285105, "bike_id": "5b961313284541dfd967e14c136b7995", "lat": 38.88750533333334, "fusion_lon": 0.0, "fusion_lat": 0.0, "type": "electric_scooter", "name": "5b961313284541dfd967e14c136b7995", "is_disabled": 0, "rental_uris": {"ios": "https://dc.lft.to/lastmile_qr_scan", "android": "https://dc.lft.to/lastmile_qr_scan"}, "is_reserved": 0}, {"lon": -77.015869, "bike_id": "aa80654500c5c03a28ed2be0263f8a2b", "lat": 38.88613216666667, "fusion_lon": 0.0, "fusion_lat": 0.0, "type": "electric_scooter", "name": "aa80654500c5c03a28ed2be0263f8a2b", "is_disabled": 0, "rental_uris": {"ios": "https://dc.lft.to/lastmile_qr_scan", "android": "https://dc.lft.to/lastmile_qr_scan"}, "is_reserved": 0}, {"lon": -77.025881, "bike_id": "2f77875759c21e330190d9f3ed7b3999", "lat": 38.918140666666666, "fusion_lon": 0.0, "fusion_lat": 0.0, "type": "electric_scooter", "name": "2f77875759c21e330190d9f3ed7b3999", "is_disabled": 0, "rental_uris": {"ios": "https://dc.lft.to/lastmile_qr_scan", "android": "https://dc.lft.to/lastmile_qr_scan"}, "is_reserved": 0}, {"lon": -77.04620633333333, "bike_id": "99c1321439da45b02a21d7631bcb31a8", "lat": 38.90220133333333, "fusion_lon": 0.0, "fusion_lat": 0.0, "type": "electric_scooter", "name": "99c1321439da45b02a21d7631bcb31a8", "is_disabled": 0, "rental_uris": {"ios": "https://dc.lft.to/lastmile_qr_scan", "android": "https://dc.lft.to/lastmile_qr_scan"}, "is_reserved": 0}, {"lon": -77.00624283333333, "bike_id": "1c2d8c79a9dd10557e8786c9ebe40520", "lat": 38.908496166666666, "fusion_lon": 0.0, "fusion_lat": 0.0, "type": "electric_scooter", "name": "1c2d8c79a9dd10557e8786c9ebe40520", "is_disabled": 0, "rental_uris": {"ios": "https://dc.lft.to/lastmile_qr_scan", "android": "https://dc.lft.to/lastmile_qr_scan"}, "is_reserved": 0}, {"lon": -77.04151916666666, "bike_id": "e9a5507824a0c56a98b23c91daa528e5", "lat": 38.91695966666666, "fusion_lon": 0.0, "fusion_lat": 0.0, "type": "electric_scooter", "name": "e9a5507824a0c56a98b23c91daa528e5", "is_disabled": 0, "rental_uris": {"ios": "https://dc.lft.to/lastmile_qr_scan", "android": "https://dc.lft.to/lastmile_qr_scan"}, "is_reserved": 0}, {"lon": -77.032151, "bike_id": "750c7a09f1d981b0f91346113e2cd031", "lat": 38.89642, "fusion_lon": 0.0, "fusion_lat": 0.0, "type": "electric_scooter", "name": "750c7a09f1d981b0f91346113e2cd031", "is_disabled": 0, "rental_uris": {"ios": "https://dc.lft.to/lastmile_qr_scan", "android": "https://dc.lft.to/lastmile_qr_scan"}, "is_reserved": 0}, {"lon": -77.03473333333334, "bike_id": "cb3ce0d520eb6a881f412c51742520ea", "lat": 38.92063866666667, "fusion_lon": 0.0, "fusion_lat": 0.0, "type": "electric_scooter", "name": "cb3ce0d520eb6a881f412c51742520ea", "is_disabled": 0, "rental_uris": {"ios": "https://dc.lft.to/lastmile_qr_scan", "android": "https://dc.lft.to/lastmile_qr_scan"}, "is_reserved": 0}, {"lon": -77.0020125, "bike_id": "af56de8501d5604d83f150c556362d84", "lat": 38.90240333333333, "fusion_lon": 0.0, "fusion_lat": 0.0, "type": "electric_scooter", "name": "af56de8501d5604d83f150c556362d84", "is_disabled": 0, "rental_uris": {"ios": "https://dc.lft.to/lastmile_qr_scan", "android": "https://dc.lft.to/lastmile_qr_scan"}, "is_reserved": 0}, {"lon": -77.0350995, "bike_id": "eaa89770abece2922d623388b941108b", "lat": 38.9067745, "fusion_lon": 0.0, "fusion_lat": 0.0, "type": "electric_scooter", "name": "eaa89770abece2922d623388b941108b", "is_disabled": 0, "rental_uris": {"ios": "https://dc.lft.to/lastmile_qr_scan", "android": "https://dc.lft.to/lastmile_qr_scan"}, "is_reserved": 0}, {"lon": -77.04470416666666, "bike_id": "860ae84221e6e15191ad782012821d8f", "lat": 38.910209333333334, "fusion_lon": 0.0, "fusion_lat": 0.0, "type": "electric_scooter", "name": "860ae84221e6e15191ad782012821d8f", "is_disabled": 0, "rental_uris": {"ios": "https://dc.lft.to/lastmile_qr_scan", "android": "https://dc.lft.to/lastmile_qr_scan"}, "is_reserved": 0}, {"lon": -76.97611416666666, "bike_id": "75937b536d5225c58a61664deb3ab724", "lat": 38.91297083333333, "fusion_lon": 0.0, "fusion_lat": 0.0, "type": "electric_scooter", "name": "75937b536d5225c58a61664deb3ab724", "is_disabled": 0, "rental_uris": {"ios": "https://dc.lft.to/lastmile_qr_scan", "android": "https://dc.lft.to/lastmile_qr_scan"}, "is_reserved": 0}, {"lon": -77.03448633333333, "bike_id": "e0397672488a3a78eb95149e70c5ad6f", "lat": 38.90241266666666, "fusion_lon": 0.0, "fusion_lat": 0.0, "type": "electric_scooter", "name": "e0397672488a3a78eb95149e70c5ad6f", "is_disabled": 0, "rental_uris": {"ios": "https://dc.lft.to/lastmile_qr_scan", "android": "https://dc.lft.to/lastmile_qr_scan"}, "is_reserved": 0}, {"lon": -77.03848916666666, "bike_id": "3a7bbf57bf75ad615807b8eb77dc7c46", "lat": 38.9098415, "fusion_lon": 0.0, "fusion_lat": 0.0, "type": "electric_scooter", "name": "3a7bbf57bf75ad615807b8eb77dc7c46", "is_disabled": 0, "rental_uris": {"ios": "https://dc.lft.to/lastmile_qr_scan", "android": "https://dc.lft.to/lastmile_qr_scan"}, "is_reserved": 0}, {"lon": -77.032587, "bike_id": "2a22391cc7ca199a0160546ebbaafb8b", "lat": 38.939701166666666, "fusion_lon": 0.0, "fusion_lat": 0.0, "type": "electric_scooter", "name": "2a22391cc7ca199a0160546ebbaafb8b", "is_disabled": 0, "rental_uris": {"ios": "https://dc.lft.to/lastmile_qr_scan", "android": "https://dc.lft.to/lastmile_qr_scan"}, "is_reserved": 0}, {"lon": -77.009142, "bike_id": "10fe00faa3dc8d21ab9702e7427f3d23", "lat": 38.896435833333335, "fusion_lon": 0.0, "fusion_lat": 0.0, "type": "electric_scooter", "name": "10fe00faa3dc8d21ab9702e7427f3d23", "is_disabled": 0, "rental_uris": {"ios": "https://dc.lft.to/lastmile_qr_scan", "android": "https://dc.lft.to/lastmile_qr_scan"}, "is_reserved": 0}, {"lon": -77.03939183333334, "bike_id": "7eeadab492bcf679bfb30ddca9af0ed5", "lat": 38.9056935, "fusion_lon": 0.0, "fusion_lat": 0.0, "type": "electric_scooter", "name": "7eeadab492bcf679bfb30ddca9af0ed5", "is_disabled": 0, "rental_uris": {"ios": "https://dc.lft.to/lastmile_qr_scan", "android": "https://dc.lft.to/lastmile_qr_scan"}, "is_reserved": 0}, {"lon": -77.02726283333334, "bike_id": "65be1b91a9bfebf6ae232ca04217cf12", "lat": 38.932474666666664, "fusion_lon": 0.0, "fusion_lat": 0.0, "type": "electric_scooter", "name": "65be1b91a9bfebf6ae232ca04217cf12", "is_disabled": 0, "rental_uris": {"ios": "https://dc.lft.to/lastmile_qr_scan", "android": "https://dc.lft.to/lastmile_qr_scan"}, "is_reserved": 0}, {"lon": -77.00348833333334, "bike_id": "8e2c347c293b68b4b594c50f2f5c39e4", "lat": 38.90363333333333, "fusion_lon": 0.0, "fusion_lat": 0.0, "type": "electric_scooter", "name": "8e2c347c293b68b4b594c50f2f5c39e4", "is_disabled": 0, "rental_uris": {"ios": "https://dc.lft.to/lastmile_qr_scan", "android": "https://dc.lft.to/lastmile_qr_scan"}, "is_reserved": 0}, {"lon": -76.9705635, "bike_id": "4532709ae19a6c1f1827dbfe35e1dfad", "lat": 38.897718166666664, "fusion_lon": 0.0, "fusion_lat": 0.0, "type": "electric_scooter", "name": "4532709ae19a6c1f1827dbfe35e1dfad", "is_disabled": 0, "rental_uris": {"ios": "https://dc.lft.to/lastmile_qr_scan", "android": "https://dc.lft.to/lastmile_qr_scan"}, "is_reserved": 0}, {"lon": -77.03695083333334, "bike_id": "1676967218ded7a52f5eeb298c7e253b", "lat": 38.91816716666666, "fusion_lon": 0.0, "fusion_lat": 0.0, "type": "electric_scooter", "name": "1676967218ded7a52f5eeb298c7e253b", "is_disabled": 0, "rental_uris": {"ios": "https://dc.lft.to/lastmile_qr_scan", "android": "https://dc.lft.to/lastmile_qr_scan"}, "is_reserved": 0}, {"lon": -77.0416615, "bike_id": "c2a7b2ef69dad0b45f061f13a9fb0b3a", "lat": 38.906583833333336, "fusion_lon": 0.0, "fusion_lat": 0.0, "type": "electric_scooter", "name": "c2a7b2ef69dad0b45f061f13a9fb0b3a", "is_disabled": 0, "rental_uris": {"ios": "https://dc.lft.to/lastmile_qr_scan", "android": "https://dc.lft.to/lastmile_qr_scan"}, "is_reserved": 0}, {"lon": -77.0261495, "bike_id": "1875d71e3763409f39ae1394337eba23", "lat": 38.91415883333333, "fusion_lon": 0.0, "fusion_lat": 0.0, "type": "electric_scooter", "name": "1875d71e3763409f39ae1394337eba23", "is_disabled": 0, "rental_uris": {"ios": "https://dc.lft.to/lastmile_qr_scan", "android": "https://dc.lft.to/lastmile_qr_scan"}, "is_reserved": 0}, {"lon": -76.99840183333333, "bike_id": "df8e42de1f57a5e44983caf5b091c695", "lat": 38.9021565, "fusion_lon": 0.0, "fusion_lat": 0.0, "type": "electric_scooter", "name": "df8e42de1f57a5e44983caf5b091c695", "is_disabled": 0, "rental_uris": {"ios": "https://dc.lft.to/lastmile_qr_scan", "android": "https://dc.lft.to/lastmile_qr_scan"}, "is_reserved": 0}, {"lon": -77.00588766666667, "bike_id": "ee07c0b9d17733218ec5fb7ad7760935", "lat": 38.884389666666664, "fusion_lon": 0.0, "fusion_lat": 0.0, "type": "electric_scooter", "name": "ee07c0b9d17733218ec5fb7ad7760935", "is_disabled": 0, "rental_uris": {"ios": "https://dc.lft.to/lastmile_qr_scan", "android": "https://dc.lft.to/lastmile_qr_scan"}, "is_reserved": 0}, {"lon": -77.03868766666666, "bike_id": "c52625322f030adc007eb4658d9b66a2", "lat": 38.9450125, "fusion_lon": 0.0, "fusion_lat": 0.0, "type": "electric_scooter", "name": "c52625322f030adc007eb4658d9b66a2", "is_disabled": 0, "rental_uris": {"ios": "https://dc.lft.to/lastmile_qr_scan", "android": "https://dc.lft.to/lastmile_qr_scan"}, "is_reserved": 0}, {"lon": -76.98725533333334, "bike_id": "3fc519c0ccb8da90cabe1f408be2c9ed", "lat": 38.8668175, "fusion_lon": 0.0, "fusion_lat": 0.0, "type": "electric_scooter", "name": "3fc519c0ccb8da90cabe1f408be2c9ed", "is_disabled": 0, "rental_uris": {"ios": "https://dc.lft.to/lastmile_qr_scan", "android": "https://dc.lft.to/lastmile_qr_scan"}, "is_reserved": 0}, {"lon": -77.0327695, "bike_id": "d11743c7951a4eb7ed8b5e7d9ba60af7", "lat": 38.937197833333336, "fusion_lon": 0.0, "fusion_lat": 0.0, "type": "electric_scooter", "name": "d11743c7951a4eb7ed8b5e7d9ba60af7", "is_disabled": 0, "rental_uris": {"ios": "https://dc.lft.to/lastmile_qr_scan", "android": "https://dc.lft.to/lastmile_qr_scan"}, "is_reserved": 0}, {"lon": -77.03898516666666, "bike_id": "d4d609428787decd2b717000e7e76726", "lat": 38.9099755, "fusion_lon": 0.0, "fusion_lat": 0.0, "type": "electric_scooter", "name": "d4d609428787decd2b717000e7e76726", "is_disabled": 0, "rental_uris": {"ios": "https://dc.lft.to/lastmile_qr_scan", "android": "https://dc.lft.to/lastmile_qr_scan"}, "is_reserved": 0}, {"lon": -77.04490033333333, "bike_id": "ec910c476f04d74d8e045159b51a407b", "lat": 38.92236916666667, "fusion_lon": 0.0, "fusion_lat": 0.0, "type": "electric_scooter", "name": "ec910c476f04d74d8e045159b51a407b", "is_disabled": 0, "rental_uris": {"ios": "https://dc.lft.to/lastmile_qr_scan", "android": "https://dc.lft.to/lastmile_qr_scan"}, "is_reserved": 0}, {"lon": -76.96155433333334, "bike_id": "0920cbd451f7c4870e3f0932cbf9161b", "lat": 38.883562166666664, "fusion_lon": 0.0, "fusion_lat": 0.0, "type": "electric_scooter", "name": "0920cbd451f7c4870e3f0932cbf9161b", "is_disabled": 0, "rental_uris": {"ios": "https://dc.lft.to/lastmile_qr_scan", "android": "https://dc.lft.to/lastmile_qr_scan"}, "is_reserved": 0}, {"lon": -76.967797, "bike_id": "b2b1461f7f53fa3485a5dc0c6b174111", "lat": 38.86849266666667, "fusion_lon": 0.0, "fusion_lat": 0.0, "type": "electric_scooter", "name": "b2b1461f7f53fa3485a5dc0c6b174111", "is_disabled": 0, "rental_uris": {"ios": "https://dc.lft.to/lastmile_qr_scan", "android": "https://dc.lft.to/lastmile_qr_scan"}, "is_reserved": 0}, {"lon": -76.95373, "bike_id": "b2ffe433347e8b081fb869403ed22e0b", "lat": 38.89203083333334, "fusion_lon": 0.0, "fusion_lat": 0.0, "type": "electric_scooter", "name": "b2ffe433347e8b081fb869403ed22e0b", "is_disabled": 0, "rental_uris": {"ios": "https://dc.lft.to/lastmile_qr_scan", "android": "https://dc.lft.to/lastmile_qr_scan"}, "is_reserved": 0}, {"lon": -77.03690566666667, "bike_id": "953a2f1a5309da8db144fd9fe867dc9d", "lat": 38.927897333333334, "fusion_lon": 0.0, "fusion_lat": 0.0, "type": "electric_scooter", "name": "953a2f1a5309da8db144fd9fe867dc9d", "is_disabled": 0, "rental_uris": {"ios": "https://dc.lft.to/lastmile_qr_scan", "android": "https://dc.lft.to/lastmile_qr_scan"}, "is_reserved": 0}, {"lon": -77.04607, "bike_id": "ec4e637ee6fd69f9067fc473bce0b800", "lat": 38.915326666666665, "fusion_lon": 0.0, "fusion_lat": 0.0, "type": "electric_scooter", "name": "ec4e637ee6fd69f9067fc473bce0b800", "is_disabled": 0, "rental_uris": {"ios": "https://dc.lft.to/lastmile_qr_scan", "android": "https://dc.lft.to/lastmile_qr_scan"}, "is_reserved": 0}, {"lon": -77.00671566666666, "bike_id": "36b06e7cd30ea9e96d84be19a41cf998", "lat": 38.900182, "fusion_lon": 0.0, "fusion_lat": 0.0, "type": "electric_scooter", "name": "36b06e7cd30ea9e96d84be19a41cf998", "is_disabled": 0, "rental_uris": {"ios": "https://dc.lft.to/lastmile_qr_scan", "android": "https://dc.lft.to/lastmile_qr_scan"}, "is_reserved": 0}, {"lon": -77.02961366666666, "bike_id": "be29ffa4925bd8a7080aed65cba0f86e", "lat": 38.9176955, "fusion_lon": 0.0, "fusion_lat": 0.0, "type": "electric_scooter", "name": "be29ffa4925bd8a7080aed65cba0f86e", "is_disabled": 0, "rental_uris": {"ios": "https://dc.lft.to/lastmile_qr_scan", "android": "https://dc.lft.to/lastmile_qr_scan"}, "is_reserved": 0}, {"lon": -77.115935, "bike_id": "27287f85df3b3726fd969af669b90565", "lat": 39.0749345, "fusion_lon": 0.0, "fusion_lat": 0.0, "type": "electric_bike", "name": "27287f85df3b3726fd969af669b90565", "is_disabled": 0, "rental_uris": {"ios": "https://dc.lft.to/lastmile_qr_scan", "android": "https://dc.lft.to/lastmile_qr_scan"}, "is_reserved": 0}, {"lon": -77.0217005, "bike_id": "47c2fd5d86d04d3b6dafcf8913009b5f", "lat": 38.92491916666667, "fusion_lon": 0.0, "fusion_lat": 0.0, "type": "electric_scooter", "name": "47c2fd5d86d04d3b6dafcf8913009b5f", "is_disabled": 0, "rental_uris": {"ios": "https://dc.lft.to/lastmile_qr_scan", "android": "https://dc.lft.to/lastmile_qr_scan"}, "is_reserved": 0}, {"lon": -77.02206083333333, "bike_id": "98c6dfce184d415391602ca31814b30e", "lat": 38.9141985, "fusion_lon": 0.0, "fusion_lat": 0.0, "type": "electric_scooter", "name": "98c6dfce184d415391602ca31814b30e", "is_disabled": 0, "rental_uris": {"ios": "https://dc.lft.to/lastmile_qr_scan", "android": "https://dc.lft.to/lastmile_qr_scan"}, "is_reserved": 0}, {"lon": -77.02966433333333, "bike_id": "d5ad098946d8a8efbd0aa8d0c05c0c32", "lat": 38.921608666666664, "fusion_lon": 0.0, "fusion_lat": 0.0, "type": "electric_scooter", "name": "d5ad098946d8a8efbd0aa8d0c05c0c32", "is_disabled": 0, "rental_uris": {"ios": "https://dc.lft.to/lastmile_qr_scan", "android": "https://dc.lft.to/lastmile_qr_scan"}, "is_reserved": 0}, {"lon": -77.0005885, "bike_id": "5c2cd2e1dbdd60aa973a53bfe576ee47", "lat": 38.9173095, "fusion_lon": 0.0, "fusion_lat": 0.0, "type": "electric_scooter", "name": "5c2cd2e1dbdd60aa973a53bfe576ee47", "is_disabled": 0, "rental_uris": {"ios": "https://dc.lft.to/lastmile_qr_scan", "android": "https://dc.lft.to/lastmile_qr_scan"}, "is_reserved": 0}, {"lon": -77.02358533333333, "bike_id": "ba6de23e68e7e8e9cd2d17298d85ec54", "lat": 38.899837166666664, "fusion_lon": 0.0, "fusion_lat": 0.0, "type": "electric_scooter", "name": "ba6de23e68e7e8e9cd2d17298d85ec54", "is_disabled": 0, "rental_uris": {"ios": "https://dc.lft.to/lastmile_qr_scan", "android": "https://dc.lft.to/lastmile_qr_scan"}, "is_reserved": 0}, {"lon": -77.03622533333333, "bike_id": "f78dfabe5af26ee734d43c00e254cc52", "lat": 38.91725916666667, "fusion_lon": 0.0, "fusion_lat": 0.0, "type": "electric_scooter", "name": "f78dfabe5af26ee734d43c00e254cc52", "is_disabled": 0, "rental_uris": {"ios": "https://dc.lft.to/lastmile_qr_scan", "android": "https://dc.lft.to/lastmile_qr_scan"}, "is_reserved": 0}, {"lon": -77.032392, "bike_id": "6a1d4b70610a0aa3acadc09efd708c29", "lat": 38.928661, "fusion_lon": 0.0, "fusion_lat": 0.0, "type": "electric_scooter", "name": "6a1d4b70610a0aa3acadc09efd708c29", "is_disabled": 0, "rental_uris": {"ios": "https://dc.lft.to/lastmile_qr_scan", "android": "https://dc.lft.to/lastmile_qr_scan"}, "is_reserved": 0}, {"lon": -77.02923633333333, "bike_id": "4d59ad5d9a91e75e21127a750b3c071a", "lat": 38.90001316666667, "fusion_lon": 0.0, "fusion_lat": 0.0, "type": "electric_scooter", "name": "4d59ad5d9a91e75e21127a750b3c071a", "is_disabled": 0, "rental_uris": {"ios": "https://dc.lft.to/lastmile_qr_scan", "android": "https://dc.lft.to/lastmile_qr_scan"}, "is_reserved": 0}, {"lon": -77.07792266666667, "bike_id": "c5d7237d13949e2e8c23a9147fb09df1", "lat": 38.9960375, "fusion_lon": 0.0, "fusion_lat": 0.0, "type": "electric_bike", "name": "c5d7237d13949e2e8c23a9147fb09df1", "is_disabled": 0, "rental_uris": {"ios": "https://dc.lft.to/lastmile_qr_scan", "android": "https://dc.lft.to/lastmile_qr_scan"}, "is_reserved": 0}, {"lon": -77.04407316666666, "bike_id": "1e04ec01d7e7ddf4b11c076150bd1766", "lat": 38.922853, "fusion_lon": 0.0, "fusion_lat": 0.0, "type": "electric_scooter", "name": "1e04ec01d7e7ddf4b11c076150bd1766", "is_disabled": 0, "rental_uris": {"ios": "https://dc.lft.to/lastmile_qr_scan", "android": "https://dc.lft.to/lastmile_qr_scan"}, "is_reserved": 0}, {"lon": -77.024248, "bike_id": "bf4265cc85278d150a137cfff720c0d6", "lat": 38.9222995, "fusion_lon": 0.0, "fusion_lat": 0.0, "type": "electric_bike", "name": "bf4265cc85278d150a137cfff720c0d6", "is_disabled": 0, "rental_uris": {"ios": "https://dc.lft.to/lastmile_qr_scan", "android": "https://dc.lft.to/lastmile_qr_scan"}, "is_reserved": 0}, {"lon": -77.03872033333333, "bike_id": "9ba6592dbbc59823571e6a1337e900a0", "lat": 38.9126525, "fusion_lon": 0.0, "fusion_lat": 0.0, "type": "electric_scooter", "name": "9ba6592dbbc59823571e6a1337e900a0", "is_disabled": 0, "rental_uris": {"ios": "https://dc.lft.to/lastmile_qr_scan", "android": "https://dc.lft.to/lastmile_qr_scan"}, "is_reserved": 0}, {"lon": -76.9957005, "bike_id": "b19eaeb3c7badf0ba3876b5b11d8a21a", "lat": 38.86215716666667, "fusion_lon": 0.0, "fusion_lat": 0.0, "type": "electric_scooter", "name": "b19eaeb3c7badf0ba3876b5b11d8a21a", "is_disabled": 0, "rental_uris": {"ios": "https://dc.lft.to/lastmile_qr_scan", "android": "https://dc.lft.to/lastmile_qr_scan"}, "is_reserved": 0}, {"lon": -76.99793033333333, "bike_id": "a2905b749e96f2fee087262319206b48", "lat": 38.910582, "fusion_lon": 0.0, "fusion_lat": 0.0, "type": "electric_scooter", "name": "a2905b749e96f2fee087262319206b48", "is_disabled": 0, "rental_uris": {"ios": "https://dc.lft.to/lastmile_qr_scan", "android": "https://dc.lft.to/lastmile_qr_scan"}, "is_reserved": 0}, {"lon": -77.0093485, "bike_id": "faa170256896b68c3702ac8124c9ea86", "lat": 38.9180075, "fusion_lon": 0.0, "fusion_lat": 0.0, "type": "electric_scooter", "name": "faa170256896b68c3702ac8124c9ea86", "is_disabled": 0, "rental_uris": {"ios": "https://dc.lft.to/lastmile_qr_scan", "android": "https://dc.lft.to/lastmile_qr_scan"}, "is_reserved": 0}, {"lon": -76.92919616666667, "bike_id": "55409ce516f9c0fb0fdeb7bb03a78fbd", "lat": 38.89293833333333, "fusion_lon": 0.0, "fusion_lat": 0.0, "type": "electric_scooter", "name": "55409ce516f9c0fb0fdeb7bb03a78fbd", "is_disabled": 0, "rental_uris": {"ios": "https://dc.lft.to/lastmile_qr_scan", "android": "https://dc.lft.to/lastmile_qr_scan"}, "is_reserved": 0}, {"lon": -77.00731366666666, "bike_id": "746ac0b50ca1a6304b8949774e868591", "lat": 38.88491666666667, "fusion_lon": 0.0, "fusion_lat": 0.0, "type": "electric_scooter", "name": "746ac0b50ca1a6304b8949774e868591", "is_disabled": 0, "rental_uris": {"ios": "https://dc.lft.to/lastmile_qr_scan", "android": "https://dc.lft.to/lastmile_qr_scan"}, "is_reserved": 0}, {"lon": -77.022949, "bike_id": "e6f33756c6cf79ff094e3ad43157224a", "lat": 38.92323533333333, "fusion_lon": 0.0, "fusion_lat": 0.0, "type": "electric_bike", "name": "e6f33756c6cf79ff094e3ad43157224a", "is_disabled": 0, "rental_uris": {"ios": "https://dc.lft.to/lastmile_qr_scan", "android": "https://dc.lft.to/lastmile_qr_scan"}, "is_reserved": 0}, {"lon": -77.03647016666666, "bike_id": "6536bd4c7a2dc40a74b55eb04cdc5eb4", "lat": 38.90371233333333, "fusion_lon": 0.0, "fusion_lat": 0.0, "type": "electric_scooter", "name": "6536bd4c7a2dc40a74b55eb04cdc5eb4", "is_disabled": 0, "rental_uris": {"ios": "https://dc.lft.to/lastmile_qr_scan", "android": "https://dc.lft.to/lastmile_qr_scan"}, "is_reserved": 0}, {"lon": -77.05344533333333, "bike_id": "fde1d1bcf9ed02891eebc9e5af7d4da7", "lat": 38.927047, "fusion_lon": 0.0, "fusion_lat": 0.0, "type": "electric_scooter", "name": "fde1d1bcf9ed02891eebc9e5af7d4da7", "is_disabled": 0, "rental_uris": {"ios": "https://dc.lft.to/lastmile_qr_scan", "android": "https://dc.lft.to/lastmile_qr_scan"}, "is_reserved": 0}, {"lon": -77.01196933333334, "bike_id": "c2f7d75387e541316cac1bebfb176486", "lat": 38.893177333333334, "fusion_lon": 0.0, "fusion_lat": 0.0, "type": "electric_scooter", "name": "c2f7d75387e541316cac1bebfb176486", "is_disabled": 0, "rental_uris": {"ios": "https://dc.lft.to/lastmile_qr_scan", "android": "https://dc.lft.to/lastmile_qr_scan"}, "is_reserved": 0}, {"lon": -77.02307883333333, "bike_id": "e2aa7bb34bd22db9a4b261d436ed4c14", "lat": 38.92706033333333, "fusion_lon": 0.0, "fusion_lat": 0.0, "type": "electric_scooter", "name": "e2aa7bb34bd22db9a4b261d436ed4c14", "is_disabled": 0, "rental_uris": {"ios": "https://dc.lft.to/lastmile_qr_scan", "android": "https://dc.lft.to/lastmile_qr_scan"}, "is_reserved": 0}, {"lon": -76.99140533333333, "bike_id": "af00f9ee0a0615c48175979d21a0ca4c", "lat": 38.90024533333333, "fusion_lon": 0.0, "fusion_lat": 0.0, "type": "electric_scooter", "name": "af00f9ee0a0615c48175979d21a0ca4c", "is_disabled": 0, "rental_uris": {"ios": "https://dc.lft.to/lastmile_qr_scan", "android": "https://dc.lft.to/lastmile_qr_scan"}, "is_reserved": 0}, {"lon": -77.06113766666667, "bike_id": "55cba1737b23aafba0196fb035a98623", "lat": 38.90440516666666, "fusion_lon": 0.0, "fusion_lat": 0.0, "type": "electric_scooter", "name": "55cba1737b23aafba0196fb035a98623", "is_disabled": 0, "rental_uris": {"ios": "https://dc.lft.to/lastmile_qr_scan", "android": "https://dc.lft.to/lastmile_qr_scan"}, "is_reserved": 0}, {"lon": -77.032164, "bike_id": "a04528f8a1563b7c6d519f5b992edf82", "lat": 38.90771616666667, "fusion_lon": 0.0, "fusion_lat": 0.0, "type": "electric_scooter", "name": "a04528f8a1563b7c6d519f5b992edf82", "is_disabled": 0, "rental_uris": {"ios": "https://dc.lft.to/lastmile_qr_scan", "android": "https://dc.lft.to/lastmile_qr_scan"}, "is_reserved": 0}, {"lon": -76.997691, "bike_id": "bbca12e9b0132ffe2798ae18f1bcbf65", "lat": 38.924474833333335, "fusion_lon": 0.0, "fusion_lat": 0.0, "type": "electric_scooter", "name": "bbca12e9b0132ffe2798ae18f1bcbf65", "is_disabled": 0, "rental_uris": {"ios": "https://dc.lft.to/lastmile_qr_scan", "android": "https://dc.lft.to/lastmile_qr_scan"}, "is_reserved": 0}, {"lon": -76.97756233333334, "bike_id": "1124b38fb198bd09364d94b920ee6caf", "lat": 38.864572333333335, "fusion_lon": 0.0, "fusion_lat": 0.0, "type": "electric_bike", "name": "1124b38fb198bd09364d94b920ee6caf", "is_disabled": 0, "rental_uris": {"ios": "https://dc.lft.to/lastmile_qr_scan", "android": "https://dc.lft.to/lastmile_qr_scan"}, "is_reserved": 0}, {"lon": -77.03265516666667, "bike_id": "2cf37b297bade9386e4bd6789ab4523f", "lat": 38.938865666666665, "fusion_lon": 0.0, "fusion_lat": 0.0, "type": "electric_scooter", "name": "2cf37b297bade9386e4bd6789ab4523f", "is_disabled": 0, "rental_uris": {"ios": "https://dc.lft.to/lastmile_qr_scan", "android": "https://dc.lft.to/lastmile_qr_scan"}, "is_reserved": 0}, {"lon": -77.03714483333333, "bike_id": "2f76922f2f7bfa3b522aad9fd8b55e5a", "lat": 38.926316166666666, "fusion_lon": 0.0, "fusion_lat": 0.0, "type": "electric_scooter", "name": "2f76922f2f7bfa3b522aad9fd8b55e5a", "is_disabled": 0, "rental_uris": {"ios": "https://dc.lft.to/lastmile_qr_scan", "android": "https://dc.lft.to/lastmile_qr_scan"}, "is_reserved": 0}, {"lon": -77.029904, "bike_id": "e677e7472ac3eda6b0dcf403bb435c2d", "lat": 38.97439966666666, "fusion_lon": 0.0, "fusion_lat": 0.0, "type": "electric_bike", "name": "e677e7472ac3eda6b0dcf403bb435c2d", "is_disabled": 0, "rental_uris": {"ios": "https://dc.lft.to/lastmile_qr_scan", "android": "https://dc.lft.to/lastmile_qr_scan"}, "is_reserved": 0}, {"lon": -77.03077266666666, "bike_id": "46b02fc43d05ec16bab24b55d854406f", "lat": 38.885844166666665, "fusion_lon": 0.0, "fusion_lat": 0.0, "type": "electric_scooter", "name": "46b02fc43d05ec16bab24b55d854406f", "is_disabled": 0, "rental_uris": {"ios": "https://dc.lft.to/lastmile_qr_scan", "android": "https://dc.lft.to/lastmile_qr_scan"}, "is_reserved": 0}, {"lon": -77.03776033333334, "bike_id": "7461d1fd8840e13b5496c214af759815", "lat": 38.91688933333333, "fusion_lon": 0.0, "fusion_lat": 0.0, "type": "electric_scooter", "name": "7461d1fd8840e13b5496c214af759815", "is_disabled": 0, "rental_uris": {"ios": "https://dc.lft.to/lastmile_qr_scan", "android": "https://dc.lft.to/lastmile_qr_scan"}, "is_reserved": 0}, {"lon": -77.04109966666667, "bike_id": "8c04dd0a19031533141d623f19f6fc09", "lat": 38.9178585, "fusion_lon": 0.0, "fusion_lat": 0.0, "type": "electric_scooter", "name": "8c04dd0a19031533141d623f19f6fc09", "is_disabled": 0, "rental_uris": {"ios": "https://dc.lft.to/lastmile_qr_scan", "android": "https://dc.lft.to/lastmile_qr_scan"}, "is_reserved": 0}, {"lon": -77.00343533333333, "bike_id": "fd7ed637cdb9677c466dda755656af88", "lat": 38.89523466666667, "fusion_lon": 0.0, "fusion_lat": 0.0, "type": "electric_scooter", "name": "fd7ed637cdb9677c466dda755656af88", "is_disabled": 0, "rental_uris": {"ios": "https://dc.lft.to/lastmile_qr_scan", "android": "https://dc.lft.to/lastmile_qr_scan"}, "is_reserved": 0}, {"lon": -77.022582, "bike_id": "68ac596a928a89a1e6648dfb231d7c29", "lat": 38.923605333333334, "fusion_lon": 0.0, "fusion_lat": 0.0, "type": "electric_scooter", "name": "68ac596a928a89a1e6648dfb231d7c29", "is_disabled": 0, "rental_uris": {"ios": "https://dc.lft.to/lastmile_qr_scan", "android": "https://dc.lft.to/lastmile_qr_scan"}, "is_reserved": 0}, {"lon": -77.047346, "bike_id": "5d4e697c8d4a343fa080d3662cff523d", "lat": 38.909554666666665, "fusion_lon": 0.0, "fusion_lat": 0.0, "type": "electric_scooter", "name": "5d4e697c8d4a343fa080d3662cff523d", "is_disabled": 0, "rental_uris": {"ios": "https://dc.lft.to/lastmile_qr_scan", "android": "https://dc.lft.to/lastmile_qr_scan"}, "is_reserved": 0}, {"lon": -77.02222483333334, "bike_id": "22166dfaad1b6c5336f627ce80df2900", "lat": 38.89216966666667, "fusion_lon": 0.0, "fusion_lat": 0.0, "type": "electric_scooter", "name": "22166dfaad1b6c5336f627ce80df2900", "is_disabled": 0, "rental_uris": {"ios": "https://dc.lft.to/lastmile_qr_scan", "android": "https://dc.lft.to/lastmile_qr_scan"}, "is_reserved": 0}, {"lon": -77.033093, "bike_id": "ae520220784137422635ba629c4749fa", "lat": 38.90720366666667, "fusion_lon": 0.0, "fusion_lat": 0.0, "type": "electric_scooter", "name": "ae520220784137422635ba629c4749fa", "is_disabled": 0, "rental_uris": {"ios": "https://dc.lft.to/lastmile_qr_scan", "android": "https://dc.lft.to/lastmile_qr_scan"}, "is_reserved": 0}, {"lon": -77.02614416666667, "bike_id": "89df1ed963343363a6e951f27baa265f", "lat": 38.914158, "fusion_lon": 0.0, "fusion_lat": 0.0, "type": "electric_scooter", "name": "89df1ed963343363a6e951f27baa265f", "is_disabled": 0, "rental_uris": {"ios": "https://dc.lft.to/lastmile_qr_scan", "android": "https://dc.lft.to/lastmile_qr_scan"}, "is_reserved": 0}, {"lon": -77.02671316666667, "bike_id": "5427953cbe180d33e900b1b988f576ba", "lat": 38.91807883333333, "fusion_lon": 0.0, "fusion_lat": 0.0, "type": "electric_scooter", "name": "5427953cbe180d33e900b1b988f576ba", "is_disabled": 0, "rental_uris": {"ios": "https://dc.lft.to/lastmile_qr_scan", "android": "https://dc.lft.to/lastmile_qr_scan"}, "is_reserved": 0}, {"lon": -77.02154533333334, "bike_id": "916522683519bd9d7afcb9713ec4ba90", "lat": 38.92439866666667, "fusion_lon": 0.0, "fusion_lat": 0.0, "type": "electric_scooter", "name": "916522683519bd9d7afcb9713ec4ba90", "is_disabled": 0, "rental_uris": {"ios": "https://dc.lft.to/lastmile_qr_scan", "android": "https://dc.lft.to/lastmile_qr_scan"}, "is_reserved": 0}, {"lon": -77.02904266666667, "bike_id": "efd7d01a2421aa23aa0f2c291206ddee", "lat": 38.928157, "fusion_lon": 0.0, "fusion_lat": 0.0, "type": "electric_scooter", "name": "efd7d01a2421aa23aa0f2c291206ddee", "is_disabled": 0, "rental_uris": {"ios": "https://dc.lft.to/lastmile_qr_scan", "android": "https://dc.lft.to/lastmile_qr_scan"}, "is_reserved": 0}, {"lon": -77.08038783333333, "bike_id": "a1fc03550635ae1dd7966289b7fca0d7", "lat": 38.92386483333333, "fusion_lon": 0.0, "fusion_lat": 0.0, "type": "electric_scooter", "name": "a1fc03550635ae1dd7966289b7fca0d7", "is_disabled": 0, "rental_uris": {"ios": "https://dc.lft.to/lastmile_qr_scan", "android": "https://dc.lft.to/lastmile_qr_scan"}, "is_reserved": 0}, {"lon": -76.998819, "bike_id": "a21bd8d7a8a7525e9cf2e6aea629913a", "lat": 38.9012665, "fusion_lon": 0.0, "fusion_lat": 0.0, "type": "electric_scooter", "name": "a21bd8d7a8a7525e9cf2e6aea629913a", "is_disabled": 0, "rental_uris": {"ios": "https://dc.lft.to/lastmile_qr_scan", "android": "https://dc.lft.to/lastmile_qr_scan"}, "is_reserved": 0}, {"lon": -77.04362883333333, "bike_id": "89d5b7966660cf74857e0958ab1b2905", "lat": 38.9216895, "fusion_lon": 0.0, "fusion_lat": 0.0, "type": "electric_scooter", "name": "89d5b7966660cf74857e0958ab1b2905", "is_disabled": 0, "rental_uris": {"ios": "https://dc.lft.to/lastmile_qr_scan", "android": "https://dc.lft.to/lastmile_qr_scan"}, "is_reserved": 0}, {"lon": -76.9802125, "bike_id": "f3bff98fe515c2a102331ef975960240", "lat": 38.90289466666667, "fusion_lon": 0.0, "fusion_lat": 0.0, "type": "electric_scooter", "name": "f3bff98fe515c2a102331ef975960240", "is_disabled": 0, "rental_uris": {"ios": "https://dc.lft.to/lastmile_qr_scan", "android": "https://dc.lft.to/lastmile_qr_scan"}, "is_reserved": 0}, {"lon": -77.03482316666667, "bike_id": "5a30af3f292af00ee7615f8007fd0b40", "lat": 38.93533516666667, "fusion_lon": 0.0, "fusion_lat": 0.0, "type": "electric_scooter", "name": "5a30af3f292af00ee7615f8007fd0b40", "is_disabled": 0, "rental_uris": {"ios": "https://dc.lft.to/lastmile_qr_scan", "android": "https://dc.lft.to/lastmile_qr_scan"}, "is_reserved": 0}, {"lon": -77.00204133333334, "bike_id": "8326bb96b51d870e9022318c227d6839", "lat": 38.9023645, "fusion_lon": 0.0, "fusion_lat": 0.0, "type": "electric_scooter", "name": "8326bb96b51d870e9022318c227d6839", "is_disabled": 0, "rental_uris": {"ios": "https://dc.lft.to/lastmile_qr_scan", "android": "https://dc.lft.to/lastmile_qr_scan"}, "is_reserved": 0}, {"lon": -77.0230445, "bike_id": "b73b0316ca32964d941a58a9ceb31a77", "lat": 38.926675, "fusion_lon": 0.0, "fusion_lat": 0.0, "type": "electric_scooter", "name": "b73b0316ca32964d941a58a9ceb31a77", "is_disabled": 0, "rental_uris": {"ios": "https://dc.lft.to/lastmile_qr_scan", "android": "https://dc.lft.to/lastmile_qr_scan"}, "is_reserved": 0}, {"lon": -76.98695533333333, "bike_id": "f507e010c7c7751d385dccc3f469a51c", "lat": 38.862533666666664, "fusion_lon": 0.0, "fusion_lat": 0.0, "type": "electric_scooter", "name": "f507e010c7c7751d385dccc3f469a51c", "is_disabled": 0, "rental_uris": {"ios": "https://dc.lft.to/lastmile_qr_scan", "android": "https://dc.lft.to/lastmile_qr_scan"}, "is_reserved": 0}, {"lon": -77.02208566666667, "bike_id": "9a2e93b7ac83410a3a063833b9f21da5", "lat": 38.9128865, "fusion_lon": 0.0, "fusion_lat": 0.0, "type": "electric_scooter", "name": "9a2e93b7ac83410a3a063833b9f21da5", "is_disabled": 0, "rental_uris": {"ios": "https://dc.lft.to/lastmile_qr_scan", "android": "https://dc.lft.to/lastmile_qr_scan"}, "is_reserved": 0}, {"lon": -77.00535033333334, "bike_id": "38350928a92f3b6450f0a1b3172828c8", "lat": 38.9297755, "fusion_lon": 0.0, "fusion_lat": 0.0, "type": "electric_scooter", "name": "38350928a92f3b6450f0a1b3172828c8", "is_disabled": 0, "rental_uris": {"ios": "https://dc.lft.to/lastmile_qr_scan", "android": "https://dc.lft.to/lastmile_qr_scan"}, "is_reserved": 0}, {"lon": -77.00294283333334, "bike_id": "74f2e7c6a56adfbadd58cef54f971b4b", "lat": 38.89494166666667, "fusion_lon": 0.0, "fusion_lat": 0.0, "type": "electric_scooter", "name": "74f2e7c6a56adfbadd58cef54f971b4b", "is_disabled": 0, "rental_uris": {"ios": "https://dc.lft.to/lastmile_qr_scan", "android": "https://dc.lft.to/lastmile_qr_scan"}, "is_reserved": 0}, {"lon": -77.00203383333333, "bike_id": "8c44165d9e88c6852fa9d21b04511d2c", "lat": 38.90789266666667, "fusion_lon": 0.0, "fusion_lat": 0.0, "type": "electric_scooter", "name": "8c44165d9e88c6852fa9d21b04511d2c", "is_disabled": 0, "rental_uris": {"ios": "https://dc.lft.to/lastmile_qr_scan", "android": "https://dc.lft.to/lastmile_qr_scan"}, "is_reserved": 0}, {"lon": -77.001146, "bike_id": "857a0158c717e3dc13cd899f2d5e8a70", "lat": 38.90002233333333, "fusion_lon": 0.0, "fusion_lat": 0.0, "type": "electric_scooter", "name": "857a0158c717e3dc13cd899f2d5e8a70", "is_disabled": 0, "rental_uris": {"ios": "https://dc.lft.to/lastmile_qr_scan", "android": "https://dc.lft.to/lastmile_qr_scan"}, "is_reserved": 0}, {"lon": -77.038941, "bike_id": "05a0d144c29fe6855c6d9af1ffa80ffc", "lat": 38.9064645, "fusion_lon": 0.0, "fusion_lat": 0.0, "type": "electric_scooter", "name": "05a0d144c29fe6855c6d9af1ffa80ffc", "is_disabled": 0, "rental_uris": {"ios": "https://dc.lft.to/lastmile_qr_scan", "android": "https://dc.lft.to/lastmile_qr_scan"}, "is_reserved": 0}, {"lon": -77.04652583333333, "bike_id": "3c8d8fa391bf53f5b62ea2b313d447cf", "lat": 38.909667166666665, "fusion_lon": 0.0, "fusion_lat": 0.0, "type": "electric_scooter", "name": "3c8d8fa391bf53f5b62ea2b313d447cf", "is_disabled": 0, "rental_uris": {"ios": "https://dc.lft.to/lastmile_qr_scan", "android": "https://dc.lft.to/lastmile_qr_scan"}, "is_reserved": 0}, {"lon": -77.0326675, "bike_id": "d66b349cc4edbe067459e62fa5745d0a", "lat": 38.90276683333333, "fusion_lon": 0.0, "fusion_lat": 0.0, "type": "electric_scooter", "name": "d66b349cc4edbe067459e62fa5745d0a", "is_disabled": 0, "rental_uris": {"ios": "https://dc.lft.to/lastmile_qr_scan", "android": "https://dc.lft.to/lastmile_qr_scan"}, "is_reserved": 0}, {"lon": -77.00752816666666, "bike_id": "c7b5cd55c245d49ff319b94cd6e9fe91", "lat": 38.89725266666667, "fusion_lon": 0.0, "fusion_lat": 0.0, "type": "electric_scooter", "name": "c7b5cd55c245d49ff319b94cd6e9fe91", "is_disabled": 0, "rental_uris": {"ios": "https://dc.lft.to/lastmile_qr_scan", "android": "https://dc.lft.to/lastmile_qr_scan"}, "is_reserved": 0}, {"lon": -77.0588685, "bike_id": "ae757c17ed8e45b9998fd76c96e43e0c", "lat": 38.936355, "fusion_lon": 0.0, "fusion_lat": 0.0, "type": "electric_scooter", "name": "ae757c17ed8e45b9998fd76c96e43e0c", "is_disabled": 0, "rental_uris": {"ios": "https://dc.lft.to/lastmile_qr_scan", "android": "https://dc.lft.to/lastmile_qr_scan"}, "is_reserved": 0}, {"lon": -76.9936785, "bike_id": "575129d90f5322ec010d4f5859f54921", "lat": 38.92836716666667, "fusion_lon": 0.0, "fusion_lat": 0.0, "type": "electric_scooter", "name": "575129d90f5322ec010d4f5859f54921", "is_disabled": 0, "rental_uris": {"ios": "https://dc.lft.to/lastmile_qr_scan", "android": "https://dc.lft.to/lastmile_qr_scan"}, "is_reserved": 0}, {"lon": -77.02546816666667, "bike_id": "57c02a6a6b0dbe23102649d13b59a514", "lat": 38.914871833333336, "fusion_lon": 0.0, "fusion_lat": 0.0, "type": "electric_scooter", "name": "57c02a6a6b0dbe23102649d13b59a514", "is_disabled": 0, "rental_uris": {"ios": "https://dc.lft.to/lastmile_qr_scan", "android": "https://dc.lft.to/lastmile_qr_scan"}, "is_reserved": 0}, {"lon": -77.002129, "bike_id": "04acdf2678527cb3eb1a721371e346df", "lat": 38.8954, "fusion_lon": 0.0, "fusion_lat": 0.0, "type": "electric_scooter", "name": "04acdf2678527cb3eb1a721371e346df", "is_disabled": 0, "rental_uris": {"ios": "https://dc.lft.to/lastmile_qr_scan", "android": "https://dc.lft.to/lastmile_qr_scan"}, "is_reserved": 0}, {"lon": -77.028506, "bike_id": "180db7d28fe1f6b889e21b4baee9356e", "lat": 38.88743016666667, "fusion_lon": 0.0, "fusion_lat": 0.0, "type": "electric_scooter", "name": "180db7d28fe1f6b889e21b4baee9356e", "is_disabled": 0, "rental_uris": {"ios": "https://dc.lft.to/lastmile_qr_scan", "android": "https://dc.lft.to/lastmile_qr_scan"}, "is_reserved": 0}, {"lon": -77.0448565, "bike_id": "fbec40a88049fd361dae71d090778976", "lat": 38.910655, "fusion_lon": 0.0, "fusion_lat": 0.0, "type": "electric_scooter", "name": "fbec40a88049fd361dae71d090778976", "is_disabled": 0, "rental_uris": {"ios": "https://dc.lft.to/lastmile_qr_scan", "android": "https://dc.lft.to/lastmile_qr_scan"}, "is_reserved": 0}, {"lon": -77.04157833333333, "bike_id": "3241b2a30bf159ea048a247198291807", "lat": 38.91864266666666, "fusion_lon": 0.0, "fusion_lat": 0.0, "type": "electric_scooter", "name": "3241b2a30bf159ea048a247198291807", "is_disabled": 0, "rental_uris": {"ios": "https://dc.lft.to/lastmile_qr_scan", "android": "https://dc.lft.to/lastmile_qr_scan"}, "is_reserved": 0}, {"lon": -77.01754716666666, "bike_id": "52cf6ffcbbcc5829e6c9239dfd34eae1", "lat": 38.8831545, "fusion_lon": 0.0, "fusion_lat": 0.0, "type": "electric_scooter", "name": "52cf6ffcbbcc5829e6c9239dfd34eae1", "is_disabled": 0, "rental_uris": {"ios": "https://dc.lft.to/lastmile_qr_scan", "android": "https://dc.lft.to/lastmile_qr_scan"}, "is_reserved": 0}, {"lon": -77.03080483333333, "bike_id": "fdb097d8afe195e37fb772c5a7038d04", "lat": 38.9237725, "fusion_lon": 0.0, "fusion_lat": 0.0, "type": "electric_scooter", "name": "fdb097d8afe195e37fb772c5a7038d04", "is_disabled": 0, "rental_uris": {"ios": "https://dc.lft.to/lastmile_qr_scan", "android": "https://dc.lft.to/lastmile_qr_scan"}, "is_reserved": 0}, {"lon": -77.045778, "bike_id": "72708f9108f54ed6d601db662da629c5", "lat": 38.92134716666666, "fusion_lon": 0.0, "fusion_lat": 0.0, "type": "electric_scooter", "name": "72708f9108f54ed6d601db662da629c5", "is_disabled": 0, "rental_uris": {"ios": "https://dc.lft.to/lastmile_qr_scan", "android": "https://dc.lft.to/lastmile_qr_scan"}, "is_reserved": 0}, {"lon": -77.0131945, "bike_id": "72635cbeb76cccf4704a50cb1656b195", "lat": 38.871589, "fusion_lon": 0.0, "fusion_lat": 0.0, "type": "electric_scooter", "name": "72635cbeb76cccf4704a50cb1656b195", "is_disabled": 0, "rental_uris": {"ios": "https://dc.lft.to/lastmile_qr_scan", "android": "https://dc.lft.to/lastmile_qr_scan"}, "is_reserved": 0}, {"lon": -76.9945435, "bike_id": "dac187d8af4941b880738add53b6ce46", "lat": 38.96617666666667, "fusion_lon": 0.0, "fusion_lat": 0.0, "type": "electric_bike", "name": "dac187d8af4941b880738add53b6ce46", "is_disabled": 0, "rental_uris": {"ios": "https://dc.lft.to/lastmile_qr_scan", "android": "https://dc.lft.to/lastmile_qr_scan"}, "is_reserved": 0}, {"lon": -77.04305133333334, "bike_id": "7245775eeddd49d08ab4968a28c326af", "lat": 38.9233075, "fusion_lon": 0.0, "fusion_lat": 0.0, "type": "electric_scooter", "name": "7245775eeddd49d08ab4968a28c326af", "is_disabled": 0, "rental_uris": {"ios": "https://dc.lft.to/lastmile_qr_scan", "android": "https://dc.lft.to/lastmile_qr_scan"}, "is_reserved": 0}, {"lon": -77.04671616666667, "bike_id": "c50b6556d5442fba1a93f81325a8092f", "lat": 38.9095145, "fusion_lon": 0.0, "fusion_lat": 0.0, "type": "electric_scooter", "name": "c50b6556d5442fba1a93f81325a8092f", "is_disabled": 0, "rental_uris": {"ios": "https://dc.lft.to/lastmile_qr_scan", "android": "https://dc.lft.to/lastmile_qr_scan"}, "is_reserved": 0}, {"lon": -77.01970566666667, "bike_id": "8a5951cc59ac71fe0af38b02381d572d", "lat": 38.87633866666667, "fusion_lon": 0.0, "fusion_lat": 0.0, "type": "electric_scooter", "name": "8a5951cc59ac71fe0af38b02381d572d", "is_disabled": 0, "rental_uris": {"ios": "https://dc.lft.to/lastmile_qr_scan", "android": "https://dc.lft.to/lastmile_qr_scan"}, "is_reserved": 0}, {"lon": -77.02195383333333, "bike_id": "a1650fcb86ab935932661113a0a9b669", "lat": 38.921241333333334, "fusion_lon": 0.0, "fusion_lat": 0.0, "type": "electric_scooter", "name": "a1650fcb86ab935932661113a0a9b669", "is_disabled": 0, "rental_uris": {"ios": "https://dc.lft.to/lastmile_qr_scan", "android": "https://dc.lft.to/lastmile_qr_scan"}, "is_reserved": 0}, {"lon": -77.00068516666667, "bike_id": "715f9681d0a0c38d4155680c526baf27", "lat": 38.89635666666667, "fusion_lon": 0.0, "fusion_lat": 0.0, "type": "electric_scooter", "name": "715f9681d0a0c38d4155680c526baf27", "is_disabled": 0, "rental_uris": {"ios": "https://dc.lft.to/lastmile_qr_scan", "android": "https://dc.lft.to/lastmile_qr_scan"}, "is_reserved": 0}, {"lon": -77.02441733333333, "bike_id": "b33c200c22feee823f639b0c7da0d371", "lat": 38.89986316666667, "fusion_lon": 0.0, "fusion_lat": 0.0, "type": "electric_scooter", "name": "b33c200c22feee823f639b0c7da0d371", "is_disabled": 0, "rental_uris": {"ios": "https://dc.lft.to/lastmile_qr_scan", "android": "https://dc.lft.to/lastmile_qr_scan"}, "is_reserved": 0}, {"lon": -76.995488, "bike_id": "0a29636032f31d7e7d349a58ff2c807d", "lat": 38.8625415, "fusion_lon": 0.0, "fusion_lat": 0.0, "type": "electric_scooter", "name": "0a29636032f31d7e7d349a58ff2c807d", "is_disabled": 0, "rental_uris": {"ios": "https://dc.lft.to/lastmile_qr_scan", "android": "https://dc.lft.to/lastmile_qr_scan"}, "is_reserved": 0}, {"lon": -77.03552783333333, "bike_id": "5d8487cd23a369d1e14bf96d50fce397", "lat": 38.917094166666665, "fusion_lon": 0.0, "fusion_lat": 0.0, "type": "electric_scooter", "name": "5d8487cd23a369d1e14bf96d50fce397", "is_disabled": 0, "rental_uris": {"ios": "https://dc.lft.to/lastmile_qr_scan", "android": "https://dc.lft.to/lastmile_qr_scan"}, "is_reserved": 0}, {"lon": -77.00861166666667, "bike_id": "21b33c812068124f301f86d86186e0e3", "lat": 38.9062475, "fusion_lon": 0.0, "fusion_lat": 0.0, "type": "electric_scooter", "name": "21b33c812068124f301f86d86186e0e3", "is_disabled": 0, "rental_uris": {"ios": "https://dc.lft.to/lastmile_qr_scan", "android": "https://dc.lft.to/lastmile_qr_scan"}, "is_reserved": 0}, {"lon": -77.05025866666666, "bike_id": "c117a13fd63af7a0a058d1a9f2b1ce37", "lat": 38.896784333333336, "fusion_lon": 0.0, "fusion_lat": 0.0, "type": "electric_scooter", "name": "c117a13fd63af7a0a058d1a9f2b1ce37", "is_disabled": 0, "rental_uris": {"ios": "https://dc.lft.to/lastmile_qr_scan", "android": "https://dc.lft.to/lastmile_qr_scan"}, "is_reserved": 0}, {"lon": -77.00376233333333, "bike_id": "33bc1fb33c3843c9b317997ea2482f30", "lat": 38.89729616666666, "fusion_lon": 0.0, "fusion_lat": 0.0, "type": "electric_scooter", "name": "33bc1fb33c3843c9b317997ea2482f30", "is_disabled": 0, "rental_uris": {"ios": "https://dc.lft.to/lastmile_qr_scan", "android": "https://dc.lft.to/lastmile_qr_scan"}, "is_reserved": 0}, {"lon": -77.00721583333333, "bike_id": "6f5e74f6453e757ea8c10581c862420f", "lat": 38.898306, "fusion_lon": 0.0, "fusion_lat": 0.0, "type": "electric_scooter", "name": "6f5e74f6453e757ea8c10581c862420f", "is_disabled": 0, "rental_uris": {"ios": "https://dc.lft.to/lastmile_qr_scan", "android": "https://dc.lft.to/lastmile_qr_scan"}, "is_reserved": 0}, {"lon": -77.0260495, "bike_id": "d4d1f7770d1ecee1513f4345b0732a1e", "lat": 38.8984215, "fusion_lon": 0.0, "fusion_lat": 0.0, "type": "electric_scooter", "name": "d4d1f7770d1ecee1513f4345b0732a1e", "is_disabled": 0, "rental_uris": {"ios": "https://dc.lft.to/lastmile_qr_scan", "android": "https://dc.lft.to/lastmile_qr_scan"}, "is_reserved": 0}, {"lon": -77.019921, "bike_id": "8a434020d3612aff18b60bf711f2207d", "lat": 38.901977333333335, "fusion_lon": 0.0, "fusion_lat": 0.0, "type": "electric_scooter", "name": "8a434020d3612aff18b60bf711f2207d", "is_disabled": 0, "rental_uris": {"ios": "https://dc.lft.to/lastmile_qr_scan", "android": "https://dc.lft.to/lastmile_qr_scan"}, "is_reserved": 0}, {"lon": -77.02013966666667, "bike_id": "4d63c5d016d52d63ebe120a171578ae4", "lat": 38.89448216666667, "fusion_lon": 0.0, "fusion_lat": 0.0, "type": "electric_scooter", "name": "4d63c5d016d52d63ebe120a171578ae4", "is_disabled": 0, "rental_uris": {"ios": "https://dc.lft.to/lastmile_qr_scan", "android": "https://dc.lft.to/lastmile_qr_scan"}, "is_reserved": 0}, {"lon": -77.11708916666667, "bike_id": "8aa0446147ace6c3fdb0c60cfa6c169d", "lat": 38.86745, "fusion_lon": 0.0, "fusion_lat": 0.0, "type": "electric_bike", "name": "8aa0446147ace6c3fdb0c60cfa6c169d", "is_disabled": 0, "rental_uris": {"ios": "https://dc.lft.to/lastmile_qr_scan", "android": "https://dc.lft.to/lastmile_qr_scan"}, "is_reserved": 0}, {"lon": -77.02302183333333, "bike_id": "acdfd425b711fef46b9ab9d25b5874bb", "lat": 38.896186666666665, "fusion_lon": 0.0, "fusion_lat": 0.0, "type": "electric_scooter", "name": "acdfd425b711fef46b9ab9d25b5874bb", "is_disabled": 0, "rental_uris": {"ios": "https://dc.lft.to/lastmile_qr_scan", "android": "https://dc.lft.to/lastmile_qr_scan"}, "is_reserved": 0}, {"lon": -77.03861633333334, "bike_id": "d3381fb33e41d974a5fb5a6fb1041b45", "lat": 38.9035675, "fusion_lon": 0.0, "fusion_lat": 0.0, "type": "electric_scooter", "name": "d3381fb33e41d974a5fb5a6fb1041b45", "is_disabled": 0, "rental_uris": {"ios": "https://dc.lft.to/lastmile_qr_scan", "android": "https://dc.lft.to/lastmile_qr_scan"}, "is_reserved": 0}, {"lon": -77.00117033333333, "bike_id": "b0e3752cde1dbeef4f4aea2cf78f0d0c", "lat": 38.874880166666664, "fusion_lon": 0.0, "fusion_lat": 0.0, "type": "electric_scooter", "name": "b0e3752cde1dbeef4f4aea2cf78f0d0c", "is_disabled": 0, "rental_uris": {"ios": "https://dc.lft.to/lastmile_qr_scan", "android": "https://dc.lft.to/lastmile_qr_scan"}, "is_reserved": 0}, {"lon": -77.06157583333334, "bike_id": "9c5b8da973ed1783d5b8f46eef555966", "lat": 38.90275183333333, "fusion_lon": 0.0, "fusion_lat": 0.0, "type": "electric_scooter", "name": "9c5b8da973ed1783d5b8f46eef555966", "is_disabled": 0, "rental_uris": {"ios": "https://dc.lft.to/lastmile_qr_scan", "android": "https://dc.lft.to/lastmile_qr_scan"}, "is_reserved": 0}, {"lon": -77.04026733333333, "bike_id": "06a7e339e8551e381cd7b513f0263d05", "lat": 38.91826983333333, "fusion_lon": 0.0, "fusion_lat": 0.0, "type": "electric_scooter", "name": "06a7e339e8551e381cd7b513f0263d05", "is_disabled": 0, "rental_uris": {"ios": "https://dc.lft.to/lastmile_qr_scan", "android": "https://dc.lft.to/lastmile_qr_scan"}, "is_reserved": 0}, {"lon": -76.9854345, "bike_id": "ad86a5251d137b5240879c9c33633d22", "lat": 38.9045265, "fusion_lon": 0.0, "fusion_lat": 0.0, "type": "electric_scooter", "name": "ad86a5251d137b5240879c9c33633d22", "is_disabled": 0, "rental_uris": {"ios": "https://dc.lft.to/lastmile_qr_scan", "android": "https://dc.lft.to/lastmile_qr_scan"}, "is_reserved": 0}, {"lon": -77.11255616666666, "bike_id": "e2f415d4bcee70c44879702855b2aa64", "lat": 38.8564895, "fusion_lon": 0.0, "fusion_lat": 0.0, "type": "electric_bike", "name": "e2f415d4bcee70c44879702855b2aa64", "is_disabled": 0, "rental_uris": {"ios": "https://dc.lft.to/lastmile_qr_scan", "android": "https://dc.lft.to/lastmile_qr_scan"}, "is_reserved": 0}, {"lon": -77.0327625, "bike_id": "a2bb5205b7b643b5c6d0aec2bb848891", "lat": 38.9283745, "fusion_lon": 0.0, "fusion_lat": 0.0, "type": "electric_scooter", "name": "a2bb5205b7b643b5c6d0aec2bb848891", "is_disabled": 0, "rental_uris": {"ios": "https://dc.lft.to/lastmile_qr_scan", "android": "https://dc.lft.to/lastmile_qr_scan"}, "is_reserved": 0}, {"lon": -77.032568, "bike_id": "79b8e75098d49ab34fd85d04eede88e2", "lat": 38.92843633333333, "fusion_lon": 0.0, "fusion_lat": 0.0, "type": "electric_scooter", "name": "79b8e75098d49ab34fd85d04eede88e2", "is_disabled": 0, "rental_uris": {"ios": "https://dc.lft.to/lastmile_qr_scan", "android": "https://dc.lft.to/lastmile_qr_scan"}, "is_reserved": 0}, {"lon": -77.02422566666667, "bike_id": "47eebed658c8fdd8e2dab28bc259f21e", "lat": 38.92036483333333, "fusion_lon": 0.0, "fusion_lat": 0.0, "type": "electric_scooter", "name": "47eebed658c8fdd8e2dab28bc259f21e", "is_disabled": 0, "rental_uris": {"ios": "https://dc.lft.to/lastmile_qr_scan", "android": "https://dc.lft.to/lastmile_qr_scan"}, "is_reserved": 0}, {"lon": -77.06180083333334, "bike_id": "da62cc7595204c174445093d24eb1893", "lat": 38.943077833333334, "fusion_lon": 0.0, "fusion_lat": 0.0, "type": "electric_scooter", "name": "da62cc7595204c174445093d24eb1893", "is_disabled": 0, "rental_uris": {"ios": "https://dc.lft.to/lastmile_qr_scan", "android": "https://dc.lft.to/lastmile_qr_scan"}, "is_reserved": 0}, {"lon": -77.0504405, "bike_id": "6168cd3daf78a4ed4c612c6253ec5bc0", "lat": 38.923624, "fusion_lon": 0.0, "fusion_lat": 0.0, "type": "electric_scooter", "name": "6168cd3daf78a4ed4c612c6253ec5bc0", "is_disabled": 0, "rental_uris": {"ios": "https://dc.lft.to/lastmile_qr_scan", "android": "https://dc.lft.to/lastmile_qr_scan"}, "is_reserved": 0}, {"lon": -76.98497166666667, "bike_id": "91329a3c9b2bd7f412fb34f53c61df43", "lat": 38.87933366666667, "fusion_lon": 0.0, "fusion_lat": 0.0, "type": "electric_bike", "name": "91329a3c9b2bd7f412fb34f53c61df43", "is_disabled": 0, "rental_uris": {"ios": "https://dc.lft.to/lastmile_qr_scan", "android": "https://dc.lft.to/lastmile_qr_scan"}, "is_reserved": 0}, {"lon": -76.95758583333334, "bike_id": "50da93c530df7afadb316dd7b4ea48f9", "lat": 38.88427816666667, "fusion_lon": 0.0, "fusion_lat": 0.0, "type": "electric_scooter", "name": "50da93c530df7afadb316dd7b4ea48f9", "is_disabled": 0, "rental_uris": {"ios": "https://dc.lft.to/lastmile_qr_scan", "android": "https://dc.lft.to/lastmile_qr_scan"}, "is_reserved": 0}, {"lon": -77.04125683333334, "bike_id": "c9c652f23054af74548f5f0c16a3767b", "lat": 38.911851, "fusion_lon": 0.0, "fusion_lat": 0.0, "type": "electric_scooter", "name": "c9c652f23054af74548f5f0c16a3767b", "is_disabled": 0, "rental_uris": {"ios": "https://dc.lft.to/lastmile_qr_scan", "android": "https://dc.lft.to/lastmile_qr_scan"}, "is_reserved": 0}, {"lon": -77.00193433333334, "bike_id": "10334754fedfc2496cf9d50c0faf4985", "lat": 38.90378916666667, "fusion_lon": 0.0, "fusion_lat": 0.0, "type": "electric_scooter", "name": "10334754fedfc2496cf9d50c0faf4985", "is_disabled": 0, "rental_uris": {"ios": "https://dc.lft.to/lastmile_qr_scan", "android": "https://dc.lft.to/lastmile_qr_scan"}, "is_reserved": 0}, {"lon": -77.02971266666667, "bike_id": "eab6f643cc04ede9c7a46e0537ff8532", "lat": 38.916767166666666, "fusion_lon": 0.0, "fusion_lat": 0.0, "type": "electric_scooter", "name": "eab6f643cc04ede9c7a46e0537ff8532", "is_disabled": 0, "rental_uris": {"ios": "https://dc.lft.to/lastmile_qr_scan", "android": "https://dc.lft.to/lastmile_qr_scan"}, "is_reserved": 0}, {"lon": -77.0102705, "bike_id": "22695e83227d5ddb351e9b64eae74b75", "lat": 38.9170475, "fusion_lon": 0.0, "fusion_lat": 0.0, "type": "electric_scooter", "name": "22695e83227d5ddb351e9b64eae74b75", "is_disabled": 0, "rental_uris": {"ios": "https://dc.lft.to/lastmile_qr_scan", "android": "https://dc.lft.to/lastmile_qr_scan"}, "is_reserved": 0}, {"lon": -77.03496366666667, "bike_id": "f825ad1f76bfc2046e2274101a802bd1", "lat": 38.91692416666667, "fusion_lon": 0.0, "fusion_lat": 0.0, "type": "electric_scooter", "name": "f825ad1f76bfc2046e2274101a802bd1", "is_disabled": 0, "rental_uris": {"ios": "https://dc.lft.to/lastmile_qr_scan", "android": "https://dc.lft.to/lastmile_qr_scan"}, "is_reserved": 0}, {"lon": -76.94954783333333, "bike_id": "e539f050b7f583ac1fc87f51e77df558", "lat": 38.90488883333333, "fusion_lon": 0.0, "fusion_lat": 0.0, "type": "electric_scooter", "name": "e539f050b7f583ac1fc87f51e77df558", "is_disabled": 0, "rental_uris": {"ios": "https://dc.lft.to/lastmile_qr_scan", "android": "https://dc.lft.to/lastmile_qr_scan"}, "is_reserved": 0}, {"lon": -77.031272, "bike_id": "b17f853d1d2ad4f3ad9e41a081c4df13", "lat": 38.91494, "fusion_lon": 0.0, "fusion_lat": 0.0, "type": "electric_scooter", "name": "b17f853d1d2ad4f3ad9e41a081c4df13", "is_disabled": 0, "rental_uris": {"ios": "https://dc.lft.to/lastmile_qr_scan", "android": "https://dc.lft.to/lastmile_qr_scan"}, "is_reserved": 0}, {"lon": -77.06461833333333, "bike_id": "8364502899d28b334819c0b10ce175b7", "lat": 38.910473833333334, "fusion_lon": 0.0, "fusion_lat": 0.0, "type": "electric_scooter", "name": "8364502899d28b334819c0b10ce175b7", "is_disabled": 0, "rental_uris": {"ios": "https://dc.lft.to/lastmile_qr_scan", "android": "https://dc.lft.to/lastmile_qr_scan"}, "is_reserved": 0}, {"lon": -77.03643866666667, "bike_id": "19e8e6c4dc2804ce3c0293eb87e33818", "lat": 38.9226585, "fusion_lon": 0.0, "fusion_lat": 0.0, "type": "electric_scooter", "name": "19e8e6c4dc2804ce3c0293eb87e33818", "is_disabled": 0, "rental_uris": {"ios": "https://dc.lft.to/lastmile_qr_scan", "android": "https://dc.lft.to/lastmile_qr_scan"}, "is_reserved": 0}, {"lon": -77.02389266666667, "bike_id": "46d0e92ab485df56e4e477232e4754f8", "lat": 38.909585, "fusion_lon": 0.0, "fusion_lat": 0.0, "type": "electric_scooter", "name": "46d0e92ab485df56e4e477232e4754f8", "is_disabled": 0, "rental_uris": {"ios": "https://dc.lft.to/lastmile_qr_scan", "android": "https://dc.lft.to/lastmile_qr_scan"}, "is_reserved": 0}, {"lon": -77.0073825, "bike_id": "1855b8685c788b4a1d91ab3815d80f59", "lat": 38.92543933333333, "fusion_lon": 0.0, "fusion_lat": 0.0, "type": "electric_scooter", "name": "1855b8685c788b4a1d91ab3815d80f59", "is_disabled": 0, "rental_uris": {"ios": "https://dc.lft.to/lastmile_qr_scan", "android": "https://dc.lft.to/lastmile_qr_scan"}, "is_reserved": 0}, {"lon": -77.028726, "bike_id": "f20b50cba16f331172aba02dc12727c1", "lat": 38.9282075, "fusion_lon": 0.0, "fusion_lat": 0.0, "type": "electric_scooter", "name": "f20b50cba16f331172aba02dc12727c1", "is_disabled": 0, "rental_uris": {"ios": "https://dc.lft.to/lastmile_qr_scan", "android": "https://dc.lft.to/lastmile_qr_scan"}, "is_reserved": 0}, {"lon": -77.06285083333333, "bike_id": "11325754676922ebd0a097aaea592aef", "lat": 38.905841333333335, "fusion_lon": 0.0, "fusion_lat": 0.0, "type": "electric_scooter", "name": "11325754676922ebd0a097aaea592aef", "is_disabled": 0, "rental_uris": {"ios": "https://dc.lft.to/lastmile_qr_scan", "android": "https://dc.lft.to/lastmile_qr_scan"}, "is_reserved": 0}, {"lon": -77.00769383333333, "bike_id": "af865b6cc740c0a863e3da1ae59b586d", "lat": 38.98385016666667, "fusion_lon": 0.0, "fusion_lat": 0.0, "type": "electric_bike", "name": "af865b6cc740c0a863e3da1ae59b586d", "is_disabled": 0, "rental_uris": {"ios": "https://dc.lft.to/lastmile_qr_scan", "android": "https://dc.lft.to/lastmile_qr_scan"}, "is_reserved": 0}, {"lon": -77.02707066666666, "bike_id": "49f53eeeaed4f3a51b0415364a56edd3", "lat": 38.92663, "fusion_lon": 0.0, "fusion_lat": 0.0, "type": "electric_scooter", "name": "49f53eeeaed4f3a51b0415364a56edd3", "is_disabled": 0, "rental_uris": {"ios": "https://dc.lft.to/lastmile_qr_scan", "android": "https://dc.lft.to/lastmile_qr_scan"}, "is_reserved": 0}, {"lon": -77.035624, "bike_id": "8e62e39cc04a743907dfee92f6312f63", "lat": 38.92709083333333, "fusion_lon": 0.0, "fusion_lat": 0.0, "type": "electric_scooter", "name": "8e62e39cc04a743907dfee92f6312f63", "is_disabled": 0, "rental_uris": {"ios": "https://dc.lft.to/lastmile_qr_scan", "android": "https://dc.lft.to/lastmile_qr_scan"}, "is_reserved": 0}, {"lon": -77.009261, "bike_id": "4c52bd11fa499f35895cb68fbbf3f412", "lat": 38.89604, "fusion_lon": 0.0, "fusion_lat": 0.0, "type": "electric_scooter", "name": "4c52bd11fa499f35895cb68fbbf3f412", "is_disabled": 0, "rental_uris": {"ios": "https://dc.lft.to/lastmile_qr_scan", "android": "https://dc.lft.to/lastmile_qr_scan"}, "is_reserved": 0}, {"lon": -77.02188716666667, "bike_id": "30324330a5eabc766162aa4dee60be15", "lat": 38.91213333333334, "fusion_lon": 0.0, "fusion_lat": 0.0, "type": "electric_scooter", "name": "30324330a5eabc766162aa4dee60be15", "is_disabled": 0, "rental_uris": {"ios": "https://dc.lft.to/lastmile_qr_scan", "android": "https://dc.lft.to/lastmile_qr_scan"}, "is_reserved": 0}, {"lon": -77.03282766666666, "bike_id": "b9b221817bded4daf304d1b946e33f20", "lat": 38.93640083333333, "fusion_lon": 0.0, "fusion_lat": 0.0, "type": "electric_scooter", "name": "b9b221817bded4daf304d1b946e33f20", "is_disabled": 0, "rental_uris": {"ios": "https://dc.lft.to/lastmile_qr_scan", "android": "https://dc.lft.to/lastmile_qr_scan"}, "is_reserved": 0}, {"lon": -76.99456016666667, "bike_id": "231549d0c5bb95f520b5ce77203123a7", "lat": 38.862196, "fusion_lon": 0.0, "fusion_lat": 0.0, "type": "electric_scooter", "name": "231549d0c5bb95f520b5ce77203123a7", "is_disabled": 0, "rental_uris": {"ios": "https://dc.lft.to/lastmile_qr_scan", "android": "https://dc.lft.to/lastmile_qr_scan"}, "is_reserved": 0}, {"lon": -77.02494316666667, "bike_id": "fe27db5330532eb76c052cc51b765366", "lat": 38.94183366666667, "fusion_lon": 0.0, "fusion_lat": 0.0, "type": "electric_scooter", "name": "fe27db5330532eb76c052cc51b765366", "is_disabled": 0, "rental_uris": {"ios": "https://dc.lft.to/lastmile_qr_scan", "android": "https://dc.lft.to/lastmile_qr_scan"}, "is_reserved": 0}, {"lon": -77.0415975, "bike_id": "1cc1cf3309d10fdd6ce99a227ed3802f", "lat": 38.91867333333333, "fusion_lon": 0.0, "fusion_lat": 0.0, "type": "electric_scooter", "name": "1cc1cf3309d10fdd6ce99a227ed3802f", "is_disabled": 0, "rental_uris": {"ios": "https://dc.lft.to/lastmile_qr_scan", "android": "https://dc.lft.to/lastmile_qr_scan"}, "is_reserved": 0}, {"lon": -77.01728583333333, "bike_id": "06adf9c4926e23bac1c811305535dae0", "lat": 38.915011, "fusion_lon": 0.0, "fusion_lat": 0.0, "type": "electric_scooter", "name": "06adf9c4926e23bac1c811305535dae0", "is_disabled": 0, "rental_uris": {"ios": "https://dc.lft.to/lastmile_qr_scan", "android": "https://dc.lft.to/lastmile_qr_scan"}, "is_reserved": 0}, {"lon": -76.9497465, "bike_id": "fb3c3d36eb39cc6f251aaedd76b661a6", "lat": 38.894551666666665, "fusion_lon": 0.0, "fusion_lat": 0.0, "type": "electric_scooter", "name": "fb3c3d36eb39cc6f251aaedd76b661a6", "is_disabled": 0, "rental_uris": {"ios": "https://dc.lft.to/lastmile_qr_scan", "android": "https://dc.lft.to/lastmile_qr_scan"}, "is_reserved": 0}, {"lon": -77.02513883333333, "bike_id": "dffea8067c9a1d7bbdc3ae3daf00462b", "lat": 38.91762583333333, "fusion_lon": 0.0, "fusion_lat": 0.0, "type": "electric_scooter", "name": "dffea8067c9a1d7bbdc3ae3daf00462b", "is_disabled": 0, "rental_uris": {"ios": "https://dc.lft.to/lastmile_qr_scan", "android": "https://dc.lft.to/lastmile_qr_scan"}, "is_reserved": 0}, {"lon": -77.02401416666666, "bike_id": "d67e89acacdb20043d6a025eb1f0359f", "lat": 38.9182545, "fusion_lon": 0.0, "fusion_lat": 0.0, "type": "electric_scooter", "name": "d67e89acacdb20043d6a025eb1f0359f", "is_disabled": 0, "rental_uris": {"ios": "https://dc.lft.to/lastmile_qr_scan", "android": "https://dc.lft.to/lastmile_qr_scan"}, "is_reserved": 0}, {"lon": -77.0471185, "bike_id": "66cd537f119589a61fcbdafdcb869d62", "lat": 38.9222495, "fusion_lon": 0.0, "fusion_lat": 0.0, "type": "electric_scooter", "name": "66cd537f119589a61fcbdafdcb869d62", "is_disabled": 0, "rental_uris": {"ios": "https://dc.lft.to/lastmile_qr_scan", "android": "https://dc.lft.to/lastmile_qr_scan"}, "is_reserved": 0}, {"lon": -77.027594, "bike_id": "e371d2d14e6149fb6372ebb9f477a3f5", "lat": 38.8972565, "fusion_lon": 0.0, "fusion_lat": 0.0, "type": "electric_scooter", "name": "e371d2d14e6149fb6372ebb9f477a3f5", "is_disabled": 0, "rental_uris": {"ios": "https://dc.lft.to/lastmile_qr_scan", "android": "https://dc.lft.to/lastmile_qr_scan"}, "is_reserved": 0}, {"lon": -77.0410705, "bike_id": "2256f007708c42615d972bfb97d9e453", "lat": 38.918522333333335, "fusion_lon": 0.0, "fusion_lat": 0.0, "type": "electric_scooter", "name": "2256f007708c42615d972bfb97d9e453", "is_disabled": 0, "rental_uris": {"ios": "https://dc.lft.to/lastmile_qr_scan", "android": "https://dc.lft.to/lastmile_qr_scan"}, "is_reserved": 0}, {"lon": -76.99372333333334, "bike_id": "18324d5f4711341e2e7791b4cb4d3b29", "lat": 38.88341066666667, "fusion_lon": 0.0, "fusion_lat": 0.0, "type": "electric_scooter", "name": "18324d5f4711341e2e7791b4cb4d3b29", "is_disabled": 0, "rental_uris": {"ios": "https://dc.lft.to/lastmile_qr_scan", "android": "https://dc.lft.to/lastmile_qr_scan"}, "is_reserved": 0}, {"lon": -77.04202316666667, "bike_id": "d5f255ecf6c77bba7ff6f851f6fe85f5", "lat": 38.926148833333336, "fusion_lon": 0.0, "fusion_lat": 0.0, "type": "electric_scooter", "name": "d5f255ecf6c77bba7ff6f851f6fe85f5", "is_disabled": 0, "rental_uris": {"ios": "https://dc.lft.to/lastmile_qr_scan", "android": "https://dc.lft.to/lastmile_qr_scan"}, "is_reserved": 0}, {"lon": -76.99843033333333, "bike_id": "70c6e44f166f9ff2b9d1c51420ef13d5", "lat": 38.902364666666664, "fusion_lon": 0.0, "fusion_lat": 0.0, "type": "electric_scooter", "name": "70c6e44f166f9ff2b9d1c51420ef13d5", "is_disabled": 0, "rental_uris": {"ios": "https://dc.lft.to/lastmile_qr_scan", "android": "https://dc.lft.to/lastmile_qr_scan"}, "is_reserved": 0}, {"lon": -76.933695, "bike_id": "8ec92076c976c08c20bc85318c394316", "lat": 38.8991375, "fusion_lon": 0.0, "fusion_lat": 0.0, "type": "electric_scooter", "name": "8ec92076c976c08c20bc85318c394316", "is_disabled": 0, "rental_uris": {"ios": "https://dc.lft.to/lastmile_qr_scan", "android": "https://dc.lft.to/lastmile_qr_scan"}, "is_reserved": 0}, {"lon": -76.9519635, "bike_id": "b0b70a69bf03eeb8d54bae54bcd458dc", "lat": 38.9000115, "fusion_lon": 0.0, "fusion_lat": 0.0, "type": "electric_scooter", "name": "b0b70a69bf03eeb8d54bae54bcd458dc", "is_disabled": 0, "rental_uris": {"ios": "https://dc.lft.to/lastmile_qr_scan", "android": "https://dc.lft.to/lastmile_qr_scan"}, "is_reserved": 0}, {"lon": -77.03277483333333, "bike_id": "7c738c08c4d654909db9cf86a8c28287", "lat": 38.92906933333333, "fusion_lon": 0.0, "fusion_lat": 0.0, "type": "electric_scooter", "name": "7c738c08c4d654909db9cf86a8c28287", "is_disabled": 0, "rental_uris": {"ios": "https://dc.lft.to/lastmile_qr_scan", "android": "https://dc.lft.to/lastmile_qr_scan"}, "is_reserved": 0}, {"lon": -76.994748, "bike_id": "bfe918df3262224d5573915a7047d2e4", "lat": 38.862125, "fusion_lon": 0.0, "fusion_lat": 0.0, "type": "electric_scooter", "name": "bfe918df3262224d5573915a7047d2e4", "is_disabled": 0, "rental_uris": {"ios": "https://dc.lft.to/lastmile_qr_scan", "android": "https://dc.lft.to/lastmile_qr_scan"}, "is_reserved": 0}, {"lon": -76.98093983333334, "bike_id": "496128676ee963a5a443c65ea81b856b", "lat": 38.881331333333335, "fusion_lon": 0.0, "fusion_lat": 0.0, "type": "electric_bike", "name": "496128676ee963a5a443c65ea81b856b", "is_disabled": 0, "rental_uris": {"ios": "https://dc.lft.to/lastmile_qr_scan", "android": "https://dc.lft.to/lastmile_qr_scan"}, "is_reserved": 0}, {"lon": -77.022016, "bike_id": "ae9fb9610682cd938e53e216a65a74b6", "lat": 38.89511016666667, "fusion_lon": 0.0, "fusion_lat": 0.0, "type": "electric_scooter", "name": "ae9fb9610682cd938e53e216a65a74b6", "is_disabled": 0, "rental_uris": {"ios": "https://dc.lft.to/lastmile_qr_scan", "android": "https://dc.lft.to/lastmile_qr_scan"}, "is_reserved": 0}, {"lon": -77.02389416666666, "bike_id": "d34662f3d2728b4e8bb872a7d43c7dd6", "lat": 38.909527833333335, "fusion_lon": 0.0, "fusion_lat": 0.0, "type": "electric_scooter", "name": "d34662f3d2728b4e8bb872a7d43c7dd6", "is_disabled": 0, "rental_uris": {"ios": "https://dc.lft.to/lastmile_qr_scan", "android": "https://dc.lft.to/lastmile_qr_scan"}, "is_reserved": 0}, {"lon": -77.03646516666667, "bike_id": "bcaafe548fa680be0dc05510e7d679a7", "lat": 38.902817166666665, "fusion_lon": 0.0, "fusion_lat": 0.0, "type": "electric_scooter", "name": "bcaafe548fa680be0dc05510e7d679a7", "is_disabled": 0, "rental_uris": {"ios": "https://dc.lft.to/lastmile_qr_scan", "android": "https://dc.lft.to/lastmile_qr_scan"}, "is_reserved": 0}, {"lon": -77.044106, "bike_id": "2c9c1b9aa72657a5b9c3bd9b178f2e6d", "lat": 38.91961833333333, "fusion_lon": 0.0, "fusion_lat": 0.0, "type": "electric_scooter", "name": "2c9c1b9aa72657a5b9c3bd9b178f2e6d", "is_disabled": 0, "rental_uris": {"ios": "https://dc.lft.to/lastmile_qr_scan", "android": "https://dc.lft.to/lastmile_qr_scan"}, "is_reserved": 0}, {"lon": -77.0342815, "bike_id": "a696f46719d64e46d09ab14e01a35509", "lat": 38.9095925, "fusion_lon": 0.0, "fusion_lat": 0.0, "type": "electric_scooter", "name": "a696f46719d64e46d09ab14e01a35509", "is_disabled": 0, "rental_uris": {"ios": "https://dc.lft.to/lastmile_qr_scan", "android": "https://dc.lft.to/lastmile_qr_scan"}, "is_reserved": 0}, {"lon": -77.06490766666667, "bike_id": "9f824874bed0ffd8b0ead1d17df9a460", "lat": 38.90977133333333, "fusion_lon": 0.0, "fusion_lat": 0.0, "type": "electric_scooter", "name": "9f824874bed0ffd8b0ead1d17df9a460", "is_disabled": 0, "rental_uris": {"ios": "https://dc.lft.to/lastmile_qr_scan", "android": "https://dc.lft.to/lastmile_qr_scan"}, "is_reserved": 0}, {"lon": -77.044375, "bike_id": "d28dbb794b91f62e3946fdafefeafad3", "lat": 38.90587166666667, "fusion_lon": 0.0, "fusion_lat": 0.0, "type": "electric_scooter", "name": "d28dbb794b91f62e3946fdafefeafad3", "is_disabled": 0, "rental_uris": {"ios": "https://dc.lft.to/lastmile_qr_scan", "android": "https://dc.lft.to/lastmile_qr_scan"}, "is_reserved": 0}, {"lon": -77.01619466666666, "bike_id": "bfa49e44d9d37c16cbe4e3c984697767", "lat": 38.894990166666666, "fusion_lon": 0.0, "fusion_lat": 0.0, "type": "electric_scooter", "name": "bfa49e44d9d37c16cbe4e3c984697767", "is_disabled": 0, "rental_uris": {"ios": "https://dc.lft.to/lastmile_qr_scan", "android": "https://dc.lft.to/lastmile_qr_scan"}, "is_reserved": 0}, {"lon": -76.99087683333333, "bike_id": "b8739329b7973f2fb6325f970759b452", "lat": 38.862373833333336, "fusion_lon": 0.0, "fusion_lat": 0.0, "type": "electric_bike", "name": "b8739329b7973f2fb6325f970759b452", "is_disabled": 0, "rental_uris": {"ios": "https://dc.lft.to/lastmile_qr_scan", "android": "https://dc.lft.to/lastmile_qr_scan"}, "is_reserved": 0}, {"lon": -77.06836433333334, "bike_id": "2031cf68591b569bfffe75a9ef23096d", "lat": 38.80564666666667, "fusion_lon": 0.0, "fusion_lat": 0.0, "type": "electric_bike", "name": "2031cf68591b569bfffe75a9ef23096d", "is_disabled": 0, "rental_uris": {"ios": "https://dc.lft.to/lastmile_qr_scan", "android": "https://dc.lft.to/lastmile_qr_scan"}, "is_reserved": 0}, {"lon": -77.02969166666666, "bike_id": "87a2b4dadb4c13abf29cff8a4d2f15e3", "lat": 38.896213, "fusion_lon": 0.0, "fusion_lat": 0.0, "type": "electric_scooter", "name": "87a2b4dadb4c13abf29cff8a4d2f15e3", "is_disabled": 0, "rental_uris": {"ios": "https://dc.lft.to/lastmile_qr_scan", "android": "https://dc.lft.to/lastmile_qr_scan"}, "is_reserved": 0}, {"lon": -76.980859, "bike_id": "643108ff74b9a32c2b3b7ce9e8cdc1a5", "lat": 38.9070555, "fusion_lon": 0.0, "fusion_lat": 0.0, "type": "electric_scooter", "name": "643108ff74b9a32c2b3b7ce9e8cdc1a5", "is_disabled": 0, "rental_uris": {"ios": "https://dc.lft.to/lastmile_qr_scan", "android": "https://dc.lft.to/lastmile_qr_scan"}, "is_reserved": 0}, {"lon": -77.03309733333333, "bike_id": "726ec2d2ed06ae3e93681a26d12b8174", "lat": 38.95636566666667, "fusion_lon": 0.0, "fusion_lat": 0.0, "type": "electric_scooter", "name": "726ec2d2ed06ae3e93681a26d12b8174", "is_disabled": 0, "rental_uris": {"ios": "https://dc.lft.to/lastmile_qr_scan", "android": "https://dc.lft.to/lastmile_qr_scan"}, "is_reserved": 0}, {"lon": -77.03257716666667, "bike_id": "62197e39652ae3300b3ac7d5b2189e14", "lat": 38.93727416666667, "fusion_lon": 0.0, "fusion_lat": 0.0, "type": "electric_scooter", "name": "62197e39652ae3300b3ac7d5b2189e14", "is_disabled": 0, "rental_uris": {"ios": "https://dc.lft.to/lastmile_qr_scan", "android": "https://dc.lft.to/lastmile_qr_scan"}, "is_reserved": 0}, {"lon": -77.03560783333333, "bike_id": "5cc2c75ecec237a59e41227a31310f55", "lat": 38.92707016666667, "fusion_lon": 0.0, "fusion_lat": 0.0, "type": "electric_scooter", "name": "5cc2c75ecec237a59e41227a31310f55", "is_disabled": 0, "rental_uris": {"ios": "https://dc.lft.to/lastmile_qr_scan", "android": "https://dc.lft.to/lastmile_qr_scan"}, "is_reserved": 0}, {"lon": -77.02772933333334, "bike_id": "9ddbffd3b44981099d0f4caaec6285fa", "lat": 38.9542305, "fusion_lon": 0.0, "fusion_lat": 0.0, "type": "electric_scooter", "name": "9ddbffd3b44981099d0f4caaec6285fa", "is_disabled": 0, "rental_uris": {"ios": "https://dc.lft.to/lastmile_qr_scan", "android": "https://dc.lft.to/lastmile_qr_scan"}, "is_reserved": 0}, {"lon": -77.03447033333333, "bike_id": "f0ef9735cd732d6583a65e93edea30b3", "lat": 38.90339616666667, "fusion_lon": 0.0, "fusion_lat": 0.0, "type": "electric_scooter", "name": "f0ef9735cd732d6583a65e93edea30b3", "is_disabled": 0, "rental_uris": {"ios": "https://dc.lft.to/lastmile_qr_scan", "android": "https://dc.lft.to/lastmile_qr_scan"}, "is_reserved": 0}, {"lon": -77.087756, "bike_id": "bd70add0b016ced59b3612e56332ca10", "lat": 38.838991, "fusion_lon": 0.0, "fusion_lat": 0.0, "type": "electric_bike", "name": "bd70add0b016ced59b3612e56332ca10", "is_disabled": 0, "rental_uris": {"ios": "https://dc.lft.to/lastmile_qr_scan", "android": "https://dc.lft.to/lastmile_qr_scan"}, "is_reserved": 0}, {"lon": -77.03588433333333, "bike_id": "421fa0aacd510784371226201654d80d", "lat": 38.91685916666667, "fusion_lon": 0.0, "fusion_lat": 0.0, "type": "electric_scooter", "name": "421fa0aacd510784371226201654d80d", "is_disabled": 0, "rental_uris": {"ios": "https://dc.lft.to/lastmile_qr_scan", "android": "https://dc.lft.to/lastmile_qr_scan"}, "is_reserved": 0}, {"lon": -76.99949566666666, "bike_id": "afef0bcfabb6f55b443de6284f0c02dd", "lat": 38.908655333333336, "fusion_lon": 0.0, "fusion_lat": 0.0, "type": "electric_scooter", "name": "afef0bcfabb6f55b443de6284f0c02dd", "is_disabled": 0, "rental_uris": {"ios": "https://dc.lft.to/lastmile_qr_scan", "android": "https://dc.lft.to/lastmile_qr_scan"}, "is_reserved": 0}, {"lon": -76.98377016666667, "bike_id": "ac8c340d3c566c7fc4706deb9d339829", "lat": 38.86112516666667, "fusion_lon": 0.0, "fusion_lat": 0.0, "type": "electric_scooter", "name": "ac8c340d3c566c7fc4706deb9d339829", "is_disabled": 0, "rental_uris": {"ios": "https://dc.lft.to/lastmile_qr_scan", "android": "https://dc.lft.to/lastmile_qr_scan"}, "is_reserved": 0}, {"lon": -77.04117866666667, "bike_id": "1169141372eaf675265317af383093a8", "lat": 38.934641166666665, "fusion_lon": 0.0, "fusion_lat": 0.0, "type": "electric_scooter", "name": "1169141372eaf675265317af383093a8", "is_disabled": 0, "rental_uris": {"ios": "https://dc.lft.to/lastmile_qr_scan", "android": "https://dc.lft.to/lastmile_qr_scan"}, "is_reserved": 0}, {"lon": -77.00057966666667, "bike_id": "9236a5c398381e37d0b5ac5227622b21", "lat": 38.900038333333335, "fusion_lon": 0.0, "fusion_lat": 0.0, "type": "electric_scooter", "name": "9236a5c398381e37d0b5ac5227622b21", "is_disabled": 0, "rental_uris": {"ios": "https://dc.lft.to/lastmile_qr_scan", "android": "https://dc.lft.to/lastmile_qr_scan"}, "is_reserved": 0}, {"lon": -77.03252433333333, "bike_id": "dfc43b762d36be8fa8b8146964c4711b", "lat": 38.92839416666666, "fusion_lon": 0.0, "fusion_lat": 0.0, "type": "electric_scooter", "name": "dfc43b762d36be8fa8b8146964c4711b", "is_disabled": 0, "rental_uris": {"ios": "https://dc.lft.to/lastmile_qr_scan", "android": "https://dc.lft.to/lastmile_qr_scan"}, "is_reserved": 0}, {"lon": -76.99842866666667, "bike_id": "9e4375f86bb0bffff4be745b67be1284", "lat": 38.900459833333336, "fusion_lon": 0.0, "fusion_lat": 0.0, "type": "electric_scooter", "name": "9e4375f86bb0bffff4be745b67be1284", "is_disabled": 0, "rental_uris": {"ios": "https://dc.lft.to/lastmile_qr_scan", "android": "https://dc.lft.to/lastmile_qr_scan"}, "is_reserved": 0}, {"lon": -76.97872583333333, "bike_id": "6e4a425be2ae784098443b56cbf36723", "lat": 38.88303366666667, "fusion_lon": 0.0, "fusion_lat": 0.0, "type": "electric_scooter", "name": "6e4a425be2ae784098443b56cbf36723", "is_disabled": 0, "rental_uris": {"ios": "https://dc.lft.to/lastmile_qr_scan", "android": "https://dc.lft.to/lastmile_qr_scan"}, "is_reserved": 0}, {"lon": -76.97621566666666, "bike_id": "b157b27c4d89cd78bee3a96b82a2646b", "lat": 38.89958516666667, "fusion_lon": 0.0, "fusion_lat": 0.0, "type": "electric_scooter", "name": "b157b27c4d89cd78bee3a96b82a2646b", "is_disabled": 0, "rental_uris": {"ios": "https://dc.lft.to/lastmile_qr_scan", "android": "https://dc.lft.to/lastmile_qr_scan"}, "is_reserved": 0}, {"lon": -76.977113, "bike_id": "fc3c0be06752549914c4a8438b9aff4f", "lat": 38.8877495, "fusion_lon": 0.0, "fusion_lat": 0.0, "type": "electric_scooter", "name": "fc3c0be06752549914c4a8438b9aff4f", "is_disabled": 0, "rental_uris": {"ios": "https://dc.lft.to/lastmile_qr_scan", "android": "https://dc.lft.to/lastmile_qr_scan"}, "is_reserved": 0}, {"lon": -77.0326355, "bike_id": "06f4f380707ddc33c81e9fdb30e785ec", "lat": 38.93522733333333, "fusion_lon": 0.0, "fusion_lat": 0.0, "type": "electric_scooter", "name": "06f4f380707ddc33c81e9fdb30e785ec", "is_disabled": 0, "rental_uris": {"ios": "https://dc.lft.to/lastmile_qr_scan", "android": "https://dc.lft.to/lastmile_qr_scan"}, "is_reserved": 0}, {"lon": -77.01887216666667, "bike_id": "9a858463129049f00e9e12194d8361fe", "lat": 38.89740916666667, "fusion_lon": 0.0, "fusion_lat": 0.0, "type": "electric_scooter", "name": "9a858463129049f00e9e12194d8361fe", "is_disabled": 0, "rental_uris": {"ios": "https://dc.lft.to/lastmile_qr_scan", "android": "https://dc.lft.to/lastmile_qr_scan"}, "is_reserved": 0}, {"lon": -77.00797383333334, "bike_id": "50175229d1dcb5d903d99645906050dd", "lat": 38.896444833333334, "fusion_lon": 0.0, "fusion_lat": 0.0, "type": "electric_scooter", "name": "50175229d1dcb5d903d99645906050dd", "is_disabled": 0, "rental_uris": {"ios": "https://dc.lft.to/lastmile_qr_scan", "android": "https://dc.lft.to/lastmile_qr_scan"}, "is_reserved": 0}, {"lon": -76.96775233333334, "bike_id": "30eaae384936f08e795f47c7eb0c4587", "lat": 38.85924633333333, "fusion_lon": 0.0, "fusion_lat": 0.0, "type": "electric_scooter", "name": "30eaae384936f08e795f47c7eb0c4587", "is_disabled": 0, "rental_uris": {"ios": "https://dc.lft.to/lastmile_qr_scan", "android": "https://dc.lft.to/lastmile_qr_scan"}, "is_reserved": 0}, {"lon": -77.0272935, "bike_id": "6ad81221eced6eac60a866d869c6c624", "lat": 38.897284666666664, "fusion_lon": 0.0, "fusion_lat": 0.0, "type": "electric_scooter", "name": "6ad81221eced6eac60a866d869c6c624", "is_disabled": 0, "rental_uris": {"ios": "https://dc.lft.to/lastmile_qr_scan", "android": "https://dc.lft.to/lastmile_qr_scan"}, "is_reserved": 0}, {"lon": -77.026528, "bike_id": "e8a0e41cfcd72be00250596e151d3c26", "lat": 38.97814966666667, "fusion_lon": 0.0, "fusion_lat": 0.0, "type": "electric_scooter", "name": "e8a0e41cfcd72be00250596e151d3c26", "is_disabled": 0, "rental_uris": {"ios": "https://dc.lft.to/lastmile_qr_scan", "android": "https://dc.lft.to/lastmile_qr_scan"}, "is_reserved": 0}, {"lon": -77.0488715, "bike_id": "259e375638c6278cf92dcc982af81358", "lat": 38.90104383333333, "fusion_lon": 0.0, "fusion_lat": 0.0, "type": "electric_scooter", "name": "259e375638c6278cf92dcc982af81358", "is_disabled": 0, "rental_uris": {"ios": "https://dc.lft.to/lastmile_qr_scan", "android": "https://dc.lft.to/lastmile_qr_scan"}, "is_reserved": 0}, {"lon": -77.02534383333334, "bike_id": "99d16465718fa5c42c0825a1aa83509f", "lat": 38.903330833333335, "fusion_lon": 0.0, "fusion_lat": 0.0, "type": "electric_scooter", "name": "99d16465718fa5c42c0825a1aa83509f", "is_disabled": 0, "rental_uris": {"ios": "https://dc.lft.to/lastmile_qr_scan", "android": "https://dc.lft.to/lastmile_qr_scan"}, "is_reserved": 0}, {"lon": -77.0241365, "bike_id": "c778241e5fa93ada5a090d5179c08592", "lat": 38.907014, "fusion_lon": 0.0, "fusion_lat": 0.0, "type": "electric_scooter", "name": "c778241e5fa93ada5a090d5179c08592", "is_disabled": 0, "rental_uris": {"ios": "https://dc.lft.to/lastmile_qr_scan", "android": "https://dc.lft.to/lastmile_qr_scan"}, "is_reserved": 0}, {"lon": -76.9197125, "bike_id": "fc9f1e90e60b06c47cd996e6e9b0a48d", "lat": 38.900276, "fusion_lon": 0.0, "fusion_lat": 0.0, "type": "electric_scooter", "name": "fc9f1e90e60b06c47cd996e6e9b0a48d", "is_disabled": 0, "rental_uris": {"ios": "https://dc.lft.to/lastmile_qr_scan", "android": "https://dc.lft.to/lastmile_qr_scan"}, "is_reserved": 0}, {"lon": -77.07583883333334, "bike_id": "15c83ec75dbdd5fa0267df94cdd4ed67", "lat": 38.9126385, "fusion_lon": 0.0, "fusion_lat": 0.0, "type": "electric_scooter", "name": "15c83ec75dbdd5fa0267df94cdd4ed67", "is_disabled": 0, "rental_uris": {"ios": "https://dc.lft.to/lastmile_qr_scan", "android": "https://dc.lft.to/lastmile_qr_scan"}, "is_reserved": 0}, {"lon": -77.03907633333333, "bike_id": "cdd4b9bca0175c94047f9eb3b3661e22", "lat": 38.92408833333333, "fusion_lon": 0.0, "fusion_lat": 0.0, "type": "electric_scooter", "name": "cdd4b9bca0175c94047f9eb3b3661e22", "is_disabled": 0, "rental_uris": {"ios": "https://dc.lft.to/lastmile_qr_scan", "android": "https://dc.lft.to/lastmile_qr_scan"}, "is_reserved": 0}, {"lon": -77.028196, "bike_id": "cebbfb042d6b4838e9b1e6934442dcb6", "lat": 38.89829433333333, "fusion_lon": 0.0, "fusion_lat": 0.0, "type": "electric_scooter", "name": "cebbfb042d6b4838e9b1e6934442dcb6", "is_disabled": 0, "rental_uris": {"ios": "https://dc.lft.to/lastmile_qr_scan", "android": "https://dc.lft.to/lastmile_qr_scan"}, "is_reserved": 0}, {"lon": -77.02300416666667, "bike_id": "2a465c4c0f7b1b3b369535fcabb37a27", "lat": 38.916078, "fusion_lon": 0.0, "fusion_lat": 0.0, "type": "electric_scooter", "name": "2a465c4c0f7b1b3b369535fcabb37a27", "is_disabled": 0, "rental_uris": {"ios": "https://dc.lft.to/lastmile_qr_scan", "android": "https://dc.lft.to/lastmile_qr_scan"}, "is_reserved": 0}, {"lon": -77.04656083333333, "bike_id": "ae75c43270cd5d803897829792ad4f64", "lat": 38.892322666666665, "fusion_lon": 0.0, "fusion_lat": 0.0, "type": "electric_scooter", "name": "ae75c43270cd5d803897829792ad4f64", "is_disabled": 0, "rental_uris": {"ios": "https://dc.lft.to/lastmile_qr_scan", "android": "https://dc.lft.to/lastmile_qr_scan"}, "is_reserved": 0}, {"lon": -77.02800316666666, "bike_id": "3dab3211f2102d7de0bd909b88867252", "lat": 38.91219233333333, "fusion_lon": 0.0, "fusion_lat": 0.0, "type": "electric_scooter", "name": "3dab3211f2102d7de0bd909b88867252", "is_disabled": 0, "rental_uris": {"ios": "https://dc.lft.to/lastmile_qr_scan", "android": "https://dc.lft.to/lastmile_qr_scan"}, "is_reserved": 0}, {"lon": -77.03470666666666, "bike_id": "205c9fd596ac397066762461e0be2900", "lat": 38.90676933333334, "fusion_lon": 0.0, "fusion_lat": 0.0, "type": "electric_scooter", "name": "205c9fd596ac397066762461e0be2900", "is_disabled": 0, "rental_uris": {"ios": "https://dc.lft.to/lastmile_qr_scan", "android": "https://dc.lft.to/lastmile_qr_scan"}, "is_reserved": 0}, {"lon": -76.9968655, "bike_id": "74ea267bd394410e3ed0c393aba30fa2", "lat": 38.881191, "fusion_lon": 0.0, "fusion_lat": 0.0, "type": "electric_scooter", "name": "74ea267bd394410e3ed0c393aba30fa2", "is_disabled": 0, "rental_uris": {"ios": "https://dc.lft.to/lastmile_qr_scan", "android": "https://dc.lft.to/lastmile_qr_scan"}, "is_reserved": 0}, {"lon": -77.03776316666666, "bike_id": "470ad0047547b42634d3b4f675ac2aa2", "lat": 38.9168505, "fusion_lon": 0.0, "fusion_lat": 0.0, "type": "electric_scooter", "name": "470ad0047547b42634d3b4f675ac2aa2", "is_disabled": 0, "rental_uris": {"ios": "https://dc.lft.to/lastmile_qr_scan", "android": "https://dc.lft.to/lastmile_qr_scan"}, "is_reserved": 0}, {"lon": -77.032007, "bike_id": "f007cf024fd56bdb3f2204be10101c3e", "lat": 38.909365, "fusion_lon": 0.0, "fusion_lat": 0.0, "type": "electric_scooter", "name": "f007cf024fd56bdb3f2204be10101c3e", "is_disabled": 0, "rental_uris": {"ios": "https://dc.lft.to/lastmile_qr_scan", "android": "https://dc.lft.to/lastmile_qr_scan"}, "is_reserved": 0}, {"lon": -77.0263135, "bike_id": "2c53e8592c5546dd33de6269fbf34a5d", "lat": 38.902581, "fusion_lon": 0.0, "fusion_lat": 0.0, "type": "electric_scooter", "name": "2c53e8592c5546dd33de6269fbf34a5d", "is_disabled": 0, "rental_uris": {"ios": "https://dc.lft.to/lastmile_qr_scan", "android": "https://dc.lft.to/lastmile_qr_scan"}, "is_reserved": 0}, {"lon": -77.03452183333333, "bike_id": "8df0cff8149506a3831554b2ea34b80f", "lat": 38.9057385, "fusion_lon": 0.0, "fusion_lat": 0.0, "type": "electric_scooter", "name": "8df0cff8149506a3831554b2ea34b80f", "is_disabled": 0, "rental_uris": {"ios": "https://dc.lft.to/lastmile_qr_scan", "android": "https://dc.lft.to/lastmile_qr_scan"}, "is_reserved": 0}, {"lon": -77.03125483333334, "bike_id": "ce0bfed6d48f7cb27460c760d2f7ed18", "lat": 38.91330883333333, "fusion_lon": 0.0, "fusion_lat": 0.0, "type": "electric_scooter", "name": "ce0bfed6d48f7cb27460c760d2f7ed18", "is_disabled": 0, "rental_uris": {"ios": "https://dc.lft.to/lastmile_qr_scan", "android": "https://dc.lft.to/lastmile_qr_scan"}, "is_reserved": 0}, {"lon": -76.98572983333334, "bike_id": "14f1f37d37e72243f95249fb4b4831ff", "lat": 38.90638383333334, "fusion_lon": 0.0, "fusion_lat": 0.0, "type": "electric_scooter", "name": "14f1f37d37e72243f95249fb4b4831ff", "is_disabled": 0, "rental_uris": {"ios": "https://dc.lft.to/lastmile_qr_scan", "android": "https://dc.lft.to/lastmile_qr_scan"}, "is_reserved": 0}, {"lon": -77.04107666666667, "bike_id": "56e76f3565af10eaa4fe159324fe6592", "lat": 38.917789, "fusion_lon": 0.0, "fusion_lat": 0.0, "type": "electric_scooter", "name": "56e76f3565af10eaa4fe159324fe6592", "is_disabled": 0, "rental_uris": {"ios": "https://dc.lft.to/lastmile_qr_scan", "android": "https://dc.lft.to/lastmile_qr_scan"}, "is_reserved": 0}, {"lon": -77.015599, "bike_id": "c690dbc37eeec88524d415b8ffb15d3f", "lat": 38.892191833333335, "fusion_lon": 0.0, "fusion_lat": 0.0, "type": "electric_scooter", "name": "c690dbc37eeec88524d415b8ffb15d3f", "is_disabled": 0, "rental_uris": {"ios": "https://dc.lft.to/lastmile_qr_scan", "android": "https://dc.lft.to/lastmile_qr_scan"}, "is_reserved": 0}, {"lon": -77.04357616666667, "bike_id": "0cb8b043b60163dc3861a926c7fc40ac", "lat": 38.907475833333336, "fusion_lon": 0.0, "fusion_lat": 0.0, "type": "electric_scooter", "name": "0cb8b043b60163dc3861a926c7fc40ac", "is_disabled": 0, "rental_uris": {"ios": "https://dc.lft.to/lastmile_qr_scan", "android": "https://dc.lft.to/lastmile_qr_scan"}, "is_reserved": 0}, {"lon": -77.02913783333334, "bike_id": "f09c502d97f7e857a49f3086728827f6", "lat": 38.9404065, "fusion_lon": 0.0, "fusion_lat": 0.0, "type": "electric_scooter", "name": "f09c502d97f7e857a49f3086728827f6", "is_disabled": 0, "rental_uris": {"ios": "https://dc.lft.to/lastmile_qr_scan", "android": "https://dc.lft.to/lastmile_qr_scan"}, "is_reserved": 0}, {"lon": -76.97861033333334, "bike_id": "ed3923a9e921e8c099d2cf9aee169fdd", "lat": 38.870696333333335, "fusion_lon": 0.0, "fusion_lat": 0.0, "type": "electric_scooter", "name": "ed3923a9e921e8c099d2cf9aee169fdd", "is_disabled": 0, "rental_uris": {"ios": "https://dc.lft.to/lastmile_qr_scan", "android": "https://dc.lft.to/lastmile_qr_scan"}, "is_reserved": 0}, {"lon": -77.0677695, "bike_id": "04df13899ab1dc1e4b44fdf3a8190be2", "lat": 38.903972333333336, "fusion_lon": 0.0, "fusion_lat": 0.0, "type": "electric_scooter", "name": "04df13899ab1dc1e4b44fdf3a8190be2", "is_disabled": 0, "rental_uris": {"ios": "https://dc.lft.to/lastmile_qr_scan", "android": "https://dc.lft.to/lastmile_qr_scan"}, "is_reserved": 0}, {"lon": -77.03467533333334, "bike_id": "5aad3c46252802e94e7e962f346d9cf6", "lat": 38.91867283333333, "fusion_lon": 0.0, "fusion_lat": 0.0, "type": "electric_scooter", "name": "5aad3c46252802e94e7e962f346d9cf6", "is_disabled": 0, "rental_uris": {"ios": "https://dc.lft.to/lastmile_qr_scan", "android": "https://dc.lft.to/lastmile_qr_scan"}, "is_reserved": 0}, {"lon": -77.0350485, "bike_id": "bf552b4403947ef1328346e93f34cf4a", "lat": 38.9187335, "fusion_lon": 0.0, "fusion_lat": 0.0, "type": "electric_scooter", "name": "bf552b4403947ef1328346e93f34cf4a", "is_disabled": 0, "rental_uris": {"ios": "https://dc.lft.to/lastmile_qr_scan", "android": "https://dc.lft.to/lastmile_qr_scan"}, "is_reserved": 0}, {"lon": -77.03257066666667, "bike_id": "db87c1fb051e5271c06c35975ca11f24", "lat": 38.904644166666664, "fusion_lon": 0.0, "fusion_lat": 0.0, "type": "electric_scooter", "name": "db87c1fb051e5271c06c35975ca11f24", "is_disabled": 0, "rental_uris": {"ios": "https://dc.lft.to/lastmile_qr_scan", "android": "https://dc.lft.to/lastmile_qr_scan"}, "is_reserved": 0}, {"lon": -77.05058766666667, "bike_id": "2bc89990d68e5e10538a66c593f25a6f", "lat": 38.9240795, "fusion_lon": 0.0, "fusion_lat": 0.0, "type": "electric_scooter", "name": "2bc89990d68e5e10538a66c593f25a6f", "is_disabled": 0, "rental_uris": {"ios": "https://dc.lft.to/lastmile_qr_scan", "android": "https://dc.lft.to/lastmile_qr_scan"}, "is_reserved": 0}, {"lon": -77.05310166666666, "bike_id": "82f9b8ed5d05a3475ed29f12c597338b", "lat": 38.898496, "fusion_lon": 0.0, "fusion_lat": 0.0, "type": "electric_scooter", "name": "82f9b8ed5d05a3475ed29f12c597338b", "is_disabled": 0, "rental_uris": {"ios": "https://dc.lft.to/lastmile_qr_scan", "android": "https://dc.lft.to/lastmile_qr_scan"}, "is_reserved": 0}, {"lon": -76.97311666666667, "bike_id": "c238cb98a1970052d71f155e4c023e3b", "lat": 38.91981466666667, "fusion_lon": 0.0, "fusion_lat": 0.0, "type": "electric_scooter", "name": "c238cb98a1970052d71f155e4c023e3b", "is_disabled": 0, "rental_uris": {"ios": "https://dc.lft.to/lastmile_qr_scan", "android": "https://dc.lft.to/lastmile_qr_scan"}, "is_reserved": 0}, {"lon": -77.064103, "bike_id": "8e7650e822a365e66ada53796e88d04f", "lat": 38.8405165, "fusion_lon": 0.0, "fusion_lat": 0.0, "type": "electric_bike", "name": "8e7650e822a365e66ada53796e88d04f", "is_disabled": 0, "rental_uris": {"ios": "https://dc.lft.to/lastmile_qr_scan", "android": "https://dc.lft.to/lastmile_qr_scan"}, "is_reserved": 0},