{"data": {"bikes": [{"fusion_lon": 0.0, "lat": 38.928628, "lon": -77.03359033333334, "bike_id": "7721a79754fa55d1506ab6b214784b16", "rental_uris": {"android": "https://dc.lft.to/lastmile_qr_scan", "ios": "https://dc.lft.to/lastmile_qr_scan"}, "fusion_lat": 0.0, "name": "7721a79754fa55d1506ab6b214784b16", "is_reserved": 0, "is_disabled": 0, "type": "electric_scooter"}, {"fusion_lon": 0.0, "lat": 38.91686583333333, "lon": -77.031133, "bike_id": "45e1d2ee41fc9e147c9aff20326e329a", "rental_uris": {"android": "https://dc.lft.to/lastmile_qr_scan", "ios": "https://dc.lft.to/lastmile_qr_scan"}, "fusion_lat": 0.0, "name": "45e1d2ee41fc9e147c9aff20326e329a", "is_reserved": 0, "is_disabled": 0, "type": "electric_scooter"}, {"fusion_lon": 0.0, "lat": 38.90387783333333, "lon": -76.98099333333333, "bike_id": "4e8716286ec95eab86a8fb1748f00114", "rental_uris": {"android": "https://dc.lft.to/lastmile_qr_scan", "ios": "https://dc.lft.to/lastmile_qr_scan"}, "fusion_lat": 0.0, "name": "4e8716286ec95eab86a8fb1748f00114", "is_reserved": 0, "is_disabled": 0, "type": "electric_scooter"}, {"fusion_lon": 0.0, "lat": 38.924143666666666, "lon": -77.05073266666666, "bike_id": "94f5040082603394dfc4ba0295841bd4", "rental_uris": {"android": "https://dc.lft.to/lastmile_qr_scan", "ios": "https://dc.lft.to/lastmile_qr_scan"}, "fusion_lat": 0.0, "name": "94f5040082603394dfc4ba0295841bd4", "is_reserved": 0, "is_disabled": 0, "type": "electric_scooter"}, {"fusion_lon": 0.0, "lat": 38.9095335, "lon": -77.023822, "bike_id": "ad10a7d44e4c46035072856084445dae", "rental_uris": {"android": "https://dc.lft.to/lastmile_qr_scan", "ios": "https://dc.lft.to/lastmile_qr_scan"}, "fusion_lat": 0.0, "name": "ad10a7d44e4c46035072856084445dae", "is_reserved": 0, "is_disabled": 0, "type": "electric_scooter"}, {"fusion_lon": 0.0, "lat": 38.90856566666667, "lon": -76.996786, "bike_id": "5c1bdaafda38b3d75bf319864ccd1d65", "rental_uris": {"android": "https://dc.lft.to/lastmile_qr_scan", "ios": "https://dc.lft.to/lastmile_qr_scan"}, "fusion_lat": 0.0, "name": "5c1bdaafda38b3d75bf319864ccd1d65", "is_reserved": 0, "is_disabled": 0, "type": "electric_scooter"}, {"fusion_lon": 0.0, "lat": 38.91105833333334, "lon": -77.038333, "bike_id": "ea91b4feb0de42b90d8f284742172ddf", "rental_uris": {"android": "https://dc.lft.to/lastmile_qr_scan", "ios": "https://dc.lft.to/lastmile_qr_scan"}, "fusion_lat": 0.0, "name": "ea91b4feb0de42b90d8f284742172ddf", "is_reserved": 0, "is_disabled": 0, "type": "electric_scooter"}, {"fusion_lon": 0.0, "lat": 38.8949275, "lon": -77.00210966666667, "bike_id": "e3e6163267c22172134e55ee31de30ab", "rental_uris": {"android": "https://dc.lft.to/lastmile_qr_scan", "ios": "https://dc.lft.to/lastmile_qr_scan"}, "fusion_lat": 0.0, "name": "e3e6163267c22172134e55ee31de30ab", "is_reserved": 0, "is_disabled": 0, "type": "electric_scooter"}, {"fusion_lon": 0.0, "lat": 38.875945333333334, "lon": -77.00578516666667, "bike_id": "83bb567384667e9847b539955e82c6b7", "rental_uris": {"android": "https://dc.lft.to/lastmile_qr_scan", "ios": "https://dc.lft.to/lastmile_qr_scan"}, "fusion_lat": 0.0, "name": "83bb567384667e9847b539955e82c6b7", "is_reserved": 0, "is_disabled": 0, "type": "electric_scooter"}, {"fusion_lon": 0.0, "lat": 38.92235133333333, "lon": -77.04377583333333, "bike_id": "b09e06c61651631b13c85c233cbe89ab", "rental_uris": {"android": "https://dc.lft.to/lastmile_qr_scan", "ios": "https://dc.lft.to/lastmile_qr_scan"}, "fusion_lat": 0.0, "name": "b09e06c61651631b13c85c233cbe89ab", "is_reserved": 0, "is_disabled": 0, "type": "electric_scooter"}, {"fusion_lon": 0.0, "lat": 38.8900605, "lon": -76.9375065, "bike_id": "51fd50e4b97b6e73ee1c19673a7b6707", "rental_uris": {"android": "https://dc.lft.to/lastmile_qr_scan", "ios": "https://dc.lft.to/lastmile_qr_scan"}, "fusion_lat": 0.0, "name": "51fd50e4b97b6e73ee1c19673a7b6707", "is_reserved": 0, "is_disabled": 0, "type": "electric_scooter"}, {"fusion_lon": 0.0, "lat": 38.89221416666667, "lon": -77.0034795, "bike_id": "bb5f3e39fe2a601790e338022416e723", "rental_uris": {"android": "https://dc.lft.to/lastmile_qr_scan", "ios": "https://dc.lft.to/lastmile_qr_scan"}, "fusion_lat": 0.0, "name": "bb5f3e39fe2a601790e338022416e723", "is_reserved": 0, "is_disabled": 0, "type": "electric_scooter"}, {"fusion_lon": 0.0, "lat": 38.886992, "lon": -77.02185766666666, "bike_id": "6f53c328d849b4dc0f86ea5785279872", "rental_uris": {"android": "https://dc.lft.to/lastmile_qr_scan", "ios": "https://dc.lft.to/lastmile_qr_scan"}, "fusion_lat": 0.0, "name": "6f53c328d849b4dc0f86ea5785279872", "is_reserved": 0, "is_disabled": 0, "type": "electric_scooter"}, {"fusion_lon": 0.0, "lat": 38.8987895, "lon": -76.98840483333333, "bike_id": "1deaa51a3a06d2dcafd1d7e1ca09e3fb", "rental_uris": {"android": "https://dc.lft.to/lastmile_qr_scan", "ios": "https://dc.lft.to/lastmile_qr_scan"}, "fusion_lat": 0.0, "name": "1deaa51a3a06d2dcafd1d7e1ca09e3fb", "is_reserved": 0, "is_disabled": 0, "type": "electric_scooter"}, {"fusion_lon": 0.0, "lat": 38.918522333333335, "lon": -77.03171233333333, "bike_id": "fc09351da042a5ac67ce072c4c3c2af0", "rental_uris": {"android": "https://dc.lft.to/lastmile_qr_scan", "ios": "https://dc.lft.to/lastmile_qr_scan"}, "fusion_lat": 0.0, "name": "fc09351da042a5ac67ce072c4c3c2af0", "is_reserved": 0, "is_disabled": 0, "type": "electric_scooter"}, {"fusion_lon": 0.0, "lat": 38.9324475, "lon": -77.02961116666667, "bike_id": "0e5a974e97014567106a5589b5592a95", "rental_uris": {"android": "https://dc.lft.to/lastmile_qr_scan", "ios": "https://dc.lft.to/lastmile_qr_scan"}, "fusion_lat": 0.0, "name": "0e5a974e97014567106a5589b5592a95", "is_reserved": 0, "is_disabled": 0, "type": "electric_scooter"}, {"fusion_lon": 0.0, "lat": 38.926096, "lon": -77.021651, "bike_id": "4ec124a8f05d954f35815696e0b25027", "rental_uris": {"android": "https://dc.lft.to/lastmile_qr_scan", "ios": "https://dc.lft.to/lastmile_qr_scan"}, "fusion_lat": 0.0, "name": "4ec124a8f05d954f35815696e0b25027", "is_reserved": 0, "is_disabled": 0, "type": "electric_scooter"}, {"fusion_lon": 0.0, "lat": 38.90030466666666, "lon": -76.98706933333334, "bike_id": "b3efb7a13c51e5d28da4db54fc93c4eb", "rental_uris": {"android": "https://dc.lft.to/lastmile_qr_scan", "ios": "https://dc.lft.to/lastmile_qr_scan"}, "fusion_lat": 0.0, "name": "b3efb7a13c51e5d28da4db54fc93c4eb", "is_reserved": 0, "is_disabled": 0, "type": "electric_scooter"}, {"fusion_lon": 0.0, "lat": 38.88820066666667, "lon": -76.97711416666667, "bike_id": "c2d3bb64cbb4cce1ec787f2081e0fa52", "rental_uris": {"android": "https://dc.lft.to/lastmile_qr_scan", "ios": "https://dc.lft.to/lastmile_qr_scan"}, "fusion_lat": 0.0, "name": "c2d3bb64cbb4cce1ec787f2081e0fa52", "is_reserved": 0, "is_disabled": 0, "type": "electric_scooter"}, {"fusion_lon": 0.0, "lat": 38.900104, "lon": -76.93027033333334, "bike_id": "aab1c3463942e11ad3b26ea5b9c4a140", "rental_uris": {"android": "https://dc.lft.to/lastmile_qr_scan", "ios": "https://dc.lft.to/lastmile_qr_scan"}, "fusion_lat": 0.0, "name": "aab1c3463942e11ad3b26ea5b9c4a140", "is_reserved": 0, "is_disabled": 0, "type": "electric_scooter"}, {"fusion_lon": 0.0, "lat": 38.91292, "lon": -76.9854505, "bike_id": "647c724c53b8719c6345fc91ad928eca", "rental_uris": {"android": "https://dc.lft.to/lastmile_qr_scan", "ios": "https://dc.lft.to/lastmile_qr_scan"}, "fusion_lat": 0.0, "name": "647c724c53b8719c6345fc91ad928eca", "is_reserved": 0, "is_disabled": 0, "type": "electric_scooter"}, {"fusion_lon": 0.0, "lat": 38.925506166666665, "lon": -77.0214335, "bike_id": "c8e2c9e73d636d5a9c7571fba815f45c", "rental_uris": {"android": "https://dc.lft.to/lastmile_qr_scan", "ios": "https://dc.lft.to/lastmile_qr_scan"}, "fusion_lat": 0.0, "name": "c8e2c9e73d636d5a9c7571fba815f45c", "is_reserved": 0, "is_disabled": 0, "type": "electric_scooter"}, {"fusion_lon": 0.0, "lat": 38.887024, "lon": -77.02831383333333, "bike_id": "ef9238ce2fc742bd567d38419db28c57", "rental_uris": {"android": "https://dc.lft.to/lastmile_qr_scan", "ios": "https://dc.lft.to/lastmile_qr_scan"}, "fusion_lat": 0.0, "name": "ef9238ce2fc742bd567d38419db28c57", "is_reserved": 0, "is_disabled": 0, "type": "electric_scooter"}, {"fusion_lon": 0.0, "lat": 38.89370566666667, "lon": -77.00364316666666, "bike_id": "1c2de06ced939195e030f05607540d12", "rental_uris": {"android": "https://dc.lft.to/lastmile_qr_scan", "ios": "https://dc.lft.to/lastmile_qr_scan"}, "fusion_lat": 0.0, "name": "1c2de06ced939195e030f05607540d12", "is_reserved": 0, "is_disabled": 0, "type": "electric_scooter"}, {"fusion_lon": 0.0, "lat": 38.903854833333334, "lon": -77.0386545, "bike_id": "504b77d80078ccd6bb17b42eac77cf40", "rental_uris": {"android": "https://dc.lft.to/lastmile_qr_scan", "ios": "https://dc.lft.to/lastmile_qr_scan"}, "fusion_lat": 0.0, "name": "504b77d80078ccd6bb17b42eac77cf40", "is_reserved": 0, "is_disabled": 0, "type": "electric_scooter"}, {"fusion_lon": 0.0, "lat": 38.9247175, "lon": -77.02192833333334, "bike_id": "44e73c838bfdd2ea6a97ed681161735b", "rental_uris": {"android": "https://dc.lft.to/lastmile_qr_scan", "ios": "https://dc.lft.to/lastmile_qr_scan"}, "fusion_lat": 0.0, "name": "44e73c838bfdd2ea6a97ed681161735b", "is_reserved": 0, "is_disabled": 0, "type": "electric_scooter"}, {"fusion_lon": 0.0, "lat": 38.95575066666667, "lon": -77.07013216666667, "bike_id": "39dbb653d2df142190e8475b3ebf2cad", "rental_uris": {"android": "https://dc.lft.to/lastmile_qr_scan", "ios": "https://dc.lft.to/lastmile_qr_scan"}, "fusion_lat": 0.0, "name": "39dbb653d2df142190e8475b3ebf2cad", "is_reserved": 0, "is_disabled": 0, "type": "electric_scooter"}, {"fusion_lon": 0.0, "lat": 38.922527333333335, "lon": -77.01951766666667, "bike_id": "19b094078db7172fc0b051009ac38e7a", "rental_uris": {"android": "https://dc.lft.to/lastmile_qr_scan", "ios": "https://dc.lft.to/lastmile_qr_scan"}, "fusion_lat": 0.0, "name": "19b094078db7172fc0b051009ac38e7a", "is_reserved": 0, "is_disabled": 0, "type": "electric_scooter"}, {"fusion_lon": 0.0, "lat": 38.944054, "lon": -77.06335016666667, "bike_id": "d7988320eedba5406087fd76cb9a04c5", "rental_uris": {"android": "https://dc.lft.to/lastmile_qr_scan", "ios": "https://dc.lft.to/lastmile_qr_scan"}, "fusion_lat": 0.0, "name": "d7988320eedba5406087fd76cb9a04c5", "is_reserved": 0, "is_disabled": 0, "type": "electric_scooter"}, {"fusion_lon": 0.0, "lat": 38.906620333333336, "lon": -77.02700816666666, "bike_id": "4e8a27e814f8124431a8bc6b64a55083", "rental_uris": {"android": "https://dc.lft.to/lastmile_qr_scan", "ios": "https://dc.lft.to/lastmile_qr_scan"}, "fusion_lat": 0.0, "name": "4e8a27e814f8124431a8bc6b64a55083", "is_reserved": 0, "is_disabled": 0, "type": "electric_scooter"}, {"fusion_lon": 0.0, "lat": 38.896641833333334, "lon": -76.98102916666667, "bike_id": "83256cb559baa73d1ea7bd965dd49d37", "rental_uris": {"android": "https://dc.lft.to/lastmile_qr_scan", "ios": "https://dc.lft.to/lastmile_qr_scan"}, "fusion_lat": 0.0, "name": "83256cb559baa73d1ea7bd965dd49d37", "is_reserved": 0, "is_disabled": 0, "type": "electric_scooter"}, {"fusion_lon": 0.0, "lat": 38.942584333333336, "lon": -77.028461, "bike_id": "07e6f5cd1fe458d653f5a97e9ec81635", "rental_uris": {"android": "https://dc.lft.to/lastmile_qr_scan", "ios": "https://dc.lft.to/lastmile_qr_scan"}, "fusion_lat": 0.0, "name": "07e6f5cd1fe458d653f5a97e9ec81635", "is_reserved": 0, "is_disabled": 0, "type": "electric_scooter"}, {"fusion_lon": 0.0, "lat": 38.897087666666664, "lon": -76.99121716666667, "bike_id": "d364ee14ea8fd5d1917b2c95bf040fb0", "rental_uris": {"android": "https://dc.lft.to/lastmile_qr_scan", "ios": "https://dc.lft.to/lastmile_qr_scan"}, "fusion_lat": 0.0, "name": "d364ee14ea8fd5d1917b2c95bf040fb0", "is_reserved": 0, "is_disabled": 0, "type": "electric_scooter"}, {"fusion_lon": 0.0, "lat": 38.915254833333336, "lon": -77.0443205, "bike_id": "108f17cddcf3ce6c194b1be9b5055b76", "rental_uris": {"android": "https://dc.lft.to/lastmile_qr_scan", "ios": "https://dc.lft.to/lastmile_qr_scan"}, "fusion_lat": 0.0, "name": "108f17cddcf3ce6c194b1be9b5055b76", "is_reserved": 0, "is_disabled": 0, "type": "electric_scooter"}, {"fusion_lon": 0.0, "lat": 38.934901333333336, "lon": -76.98200066666666, "bike_id": "f54863cbb3df48802e17da8a03571479", "rental_uris": {"android": "https://dc.lft.to/lastmile_qr_scan", "ios": "https://dc.lft.to/lastmile_qr_scan"}, "fusion_lat": 0.0, "name": "f54863cbb3df48802e17da8a03571479", "is_reserved": 0, "is_disabled": 0, "type": "electric_scooter"}, {"fusion_lon": 0.0, "lat": 38.912627666666666, "lon": -77.04465366666666, "bike_id": "898af3deec487d73e381ee52207ec4a1", "rental_uris": {"android": "https://dc.lft.to/lastmile_qr_scan", "ios": "https://dc.lft.to/lastmile_qr_scan"}, "fusion_lat": 0.0, "name": "898af3deec487d73e381ee52207ec4a1", "is_reserved": 0, "is_disabled": 0, "type": "electric_scooter"}, {"fusion_lon": 0.0, "lat": 38.932631666666666, "lon": -76.99634983333334, "bike_id": "5498a3a0fa8d8a3c05d7477e042d64cb", "rental_uris": {"android": "https://dc.lft.to/lastmile_qr_scan", "ios": "https://dc.lft.to/lastmile_qr_scan"}, "fusion_lat": 0.0, "name": "5498a3a0fa8d8a3c05d7477e042d64cb", "is_reserved": 0, "is_disabled": 0, "type": "electric_scooter"}, {"fusion_lon": 0.0, "lat": 38.8991935, "lon": -77.0330565, "bike_id": "d3c156c152bb4a9f1ab86be440cf68b0", "rental_uris": {"android": "https://dc.lft.to/lastmile_qr_scan", "ios": "https://dc.lft.to/lastmile_qr_scan"}, "fusion_lat": 0.0, "name": "d3c156c152bb4a9f1ab86be440cf68b0", "is_reserved": 0, "is_disabled": 0, "type": "electric_scooter"}, {"fusion_lon": 0.0, "lat": 38.89574733333333, "lon": -77.03185383333333, "bike_id": "ae694d3b506c4e0755fd13a016769731", "rental_uris": {"android": "https://dc.lft.to/lastmile_qr_scan", "ios": "https://dc.lft.to/lastmile_qr_scan"}, "fusion_lat": 0.0, "name": "ae694d3b506c4e0755fd13a016769731", "is_reserved": 0, "is_disabled": 0, "type": "electric_scooter"}, {"fusion_lon": 0.0, "lat": 38.90222516666667, "lon": -77.04615783333334, "bike_id": "c8c51cb8be24e45ab7b8d7bd5799de8e", "rental_uris": {"android": "https://dc.lft.to/lastmile_qr_scan", "ios": "https://dc.lft.to/lastmile_qr_scan"}, "fusion_lat": 0.0, "name": "c8c51cb8be24e45ab7b8d7bd5799de8e", "is_reserved": 0, "is_disabled": 0, "type": "electric_scooter"}, {"fusion_lon": 0.0, "lat": 38.92597466666667, "lon": -77.02154933333334, "bike_id": "13f837e36cf32beebc15a7a330c1d0a7", "rental_uris": {"android": "https://dc.lft.to/lastmile_qr_scan", "ios": "https://dc.lft.to/lastmile_qr_scan"}, "fusion_lat": 0.0, "name": "13f837e36cf32beebc15a7a330c1d0a7", "is_reserved": 0, "is_disabled": 0, "type": "electric_scooter"}, {"fusion_lon": 0.0, "lat": 38.919267833333336, "lon": -77.03480183333333, "bike_id": "024bffd55f000c8fcf0ac669adce1311", "rental_uris": {"android": "https://dc.lft.to/lastmile_qr_scan", "ios": "https://dc.lft.to/lastmile_qr_scan"}, "fusion_lat": 0.0, "name": "024bffd55f000c8fcf0ac669adce1311", "is_reserved": 0, "is_disabled": 0, "type": "electric_scooter"}, {"fusion_lon": 0.0, "lat": 38.92681866666667, "lon": -77.01500433333334, "bike_id": "ce7abf3a9c031596b8e4ad4a88ffd37c", "rental_uris": {"android": "https://dc.lft.to/lastmile_qr_scan", "ios": "https://dc.lft.to/lastmile_qr_scan"}, "fusion_lat": 0.0, "name": "ce7abf3a9c031596b8e4ad4a88ffd37c", "is_reserved": 0, "is_disabled": 0, "type": "electric_scooter"}, {"fusion_lon": 0.0, "lat": 38.9011995, "lon": -77.04375683333333, "bike_id": "41a011ae3e3c48581296d8ab16b831f6", "rental_uris": {"android": "https://dc.lft.to/lastmile_qr_scan", "ios": "https://dc.lft.to/lastmile_qr_scan"}, "fusion_lat": 0.0, "name": "41a011ae3e3c48581296d8ab16b831f6", "is_reserved": 0, "is_disabled": 0, "type": "electric_scooter"}, {"fusion_lon": 0.0, "lat": 38.9011785, "lon": -77.02196, "bike_id": "a7ecbe34155cac25dfa41cff511ae6f4", "rental_uris": {"android": "https://dc.lft.to/lastmile_qr_scan", "ios": "https://dc.lft.to/lastmile_qr_scan"}, "fusion_lat": 0.0, "name": "a7ecbe34155cac25dfa41cff511ae6f4", "is_reserved": 0, "is_disabled": 0, "type": "electric_scooter"}, {"fusion_lon": 0.0, "lat": 38.9047335, "lon": -77.00585433333333, "bike_id": "f3445a71b1ac5fbfd39d7ff37ebeb806", "rental_uris": {"android": "https://dc.lft.to/lastmile_qr_scan", "ios": "https://dc.lft.to/lastmile_qr_scan"}, "fusion_lat": 0.0, "name": "f3445a71b1ac5fbfd39d7ff37ebeb806", "is_reserved": 0, "is_disabled": 0, "type": "electric_scooter"}, {"fusion_lon": 0.0, "lat": 38.90235283333333, "lon": -77.05927216666667, "bike_id": "b84a31eee78f2d5d220a7ca33489efde", "rental_uris": {"android": "https://dc.lft.to/lastmile_qr_scan", "ios": "https://dc.lft.to/lastmile_qr_scan"}, "fusion_lat": 0.0, "name": "b84a31eee78f2d5d220a7ca33489efde", "is_reserved": 0, "is_disabled": 0, "type": "electric_scooter"}, {"fusion_lon": 0.0, "lat": 38.905737, "lon": -77.03435033333334, "bike_id": "6c6fb37f238874037d2f5ee031996bf9", "rental_uris": {"android": "https://dc.lft.to/lastmile_qr_scan", "ios": "https://dc.lft.to/lastmile_qr_scan"}, "fusion_lat": 0.0, "name": "6c6fb37f238874037d2f5ee031996bf9", "is_reserved": 0, "is_disabled": 0, "type": "electric_scooter"}, {"fusion_lon": 0.0, "lat": 38.941962, "lon": -77.0248125, "bike_id": "afeee6b530a5515b5500a2eb0283c07f", "rental_uris": {"android": "https://dc.lft.to/lastmile_qr_scan", "ios": "https://dc.lft.to/lastmile_qr_scan"}, "fusion_lat": 0.0, "name": "afeee6b530a5515b5500a2eb0283c07f", "is_reserved": 0, "is_disabled": 0, "type": "electric_scooter"}, {"fusion_lon": 0.0, "lat": 38.91491633333333, "lon": -77.0185855, "bike_id": "8b9730bb8cccf6cab6a350354ad5cab5", "rental_uris": {"android": "https://dc.lft.to/lastmile_qr_scan", "ios": "https://dc.lft.to/lastmile_qr_scan"}, "fusion_lat": 0.0, "name": "8b9730bb8cccf6cab6a350354ad5cab5", "is_reserved": 0, "is_disabled": 0, "type": "electric_scooter"}, {"fusion_lon": 0.0, "lat": 38.92174966666666, "lon": -77.04236616666667, "bike_id": "06d5edbe30a6de1b0b0316735f1f3d1c", "rental_uris": {"android": "https://dc.lft.to/lastmile_qr_scan", "ios": "https://dc.lft.to/lastmile_qr_scan"}, "fusion_lat": 0.0, "name": "06d5edbe30a6de1b0b0316735f1f3d1c", "is_reserved": 0, "is_disabled": 0, "type": "electric_scooter"}, {"fusion_lon": 0.0, "lat": 38.92407683333333, "lon": -77.02712883333334, "bike_id": "6109cca2f4f7034b1907f53661a638df", "rental_uris": {"android": "https://dc.lft.to/lastmile_qr_scan", "ios": "https://dc.lft.to/lastmile_qr_scan"}, "fusion_lat": 0.0, "name": "6109cca2f4f7034b1907f53661a638df", "is_reserved": 0, "is_disabled": 0, "type": "electric_scooter"}, {"fusion_lon": 0.0, "lat": 38.90419416666667, "lon": -77.025712, "bike_id": "fe0b6581032b2230ed67457d7faf406d", "rental_uris": {"android": "https://dc.lft.to/lastmile_qr_scan", "ios": "https://dc.lft.to/lastmile_qr_scan"}, "fusion_lat": 0.0, "name": "fe0b6581032b2230ed67457d7faf406d", "is_reserved": 0, "is_disabled": 0, "type": "electric_scooter"}, {"fusion_lon": 0.0, "lat": 38.934434833333334, "lon": -77.08967366666667, "bike_id": "f9f9a2eda7c31eff138f7be9cb35a01d", "rental_uris": {"android": "https://dc.lft.to/lastmile_qr_scan", "ios": "https://dc.lft.to/lastmile_qr_scan"}, "fusion_lat": 0.0, "name": "f9f9a2eda7c31eff138f7be9cb35a01d", "is_reserved": 0, "is_disabled": 0, "type": "electric_scooter"}, {"fusion_lon": 0.0, "lat": 38.918468, "lon": -77.031812, "bike_id": "094f276c1b065926df5226bd4c53b8e6", "rental_uris": {"android": "https://dc.lft.to/lastmile_qr_scan", "ios": "https://dc.lft.to/lastmile_qr_scan"}, "fusion_lat": 0.0, "name": "094f276c1b065926df5226bd4c53b8e6", "is_reserved": 0, "is_disabled": 0, "type": "electric_scooter"}, {"fusion_lon": 0.0, "lat": 38.92406666666667, "lon": -77.02013933333333, "bike_id": "a57f36dba601aa37d83de22ca8aa99cf", "rental_uris": {"android": "https://dc.lft.to/lastmile_qr_scan", "ios": "https://dc.lft.to/lastmile_qr_scan"}, "fusion_lat": 0.0, "name": "a57f36dba601aa37d83de22ca8aa99cf", "is_reserved": 0, "is_disabled": 0, "type": "electric_scooter"}, {"fusion_lon": 0.0, "lat": 38.97319066666667, "lon": -77.027039, "bike_id": "2c33349c96d87c8df457488e6b1b88bb", "rental_uris": {"android": "https://dc.lft.to/lastmile_qr_scan", "ios": "https://dc.lft.to/lastmile_qr_scan"}, "fusion_lat": 0.0, "name": "2c33349c96d87c8df457488e6b1b88bb", "is_reserved": 0, "is_disabled": 0, "type": "electric_scooter"}, {"fusion_lon": 0.0, "lat": 38.924640833333335, "lon": -77.04207033333333, "bike_id": "80fc1ee1c7fb0b1ed3e6e852667dfe88", "rental_uris": {"android": "https://dc.lft.to/lastmile_qr_scan", "ios": "https://dc.lft.to/lastmile_qr_scan"}, "fusion_lat": 0.0, "name": "80fc1ee1c7fb0b1ed3e6e852667dfe88", "is_reserved": 0, "is_disabled": 0, "type": "electric_scooter"}, {"fusion_lon": 0.0, "lat": 38.923399333333336, "lon": -77.01908, "bike_id": "68a4d621cf38f0f22edc93da21f6a06e", "rental_uris": {"android": "https://dc.lft.to/lastmile_qr_scan", "ios": "https://dc.lft.to/lastmile_qr_scan"}, "fusion_lat": 0.0, "name": "68a4d621cf38f0f22edc93da21f6a06e", "is_reserved": 0, "is_disabled": 0, "type": "electric_scooter"}, {"fusion_lon": 0.0, "lat": 38.9271115, "lon": -77.02097216666667, "bike_id": "ea0dac9d5dbcec89c7d4a8e23fb7d892", "rental_uris": {"android": "https://dc.lft.to/lastmile_qr_scan", "ios": "https://dc.lft.to/lastmile_qr_scan"}, "fusion_lat": 0.0, "name": "ea0dac9d5dbcec89c7d4a8e23fb7d892", "is_reserved": 0, "is_disabled": 0, "type": "electric_scooter"}, {"fusion_lon": 0.0, "lat": 38.93283383333333, "lon": -77.028643, "bike_id": "71a3cd7e410f8b7fb6394f9682590fc6", "rental_uris": {"android": "https://dc.lft.to/lastmile_qr_scan", "ios": "https://dc.lft.to/lastmile_qr_scan"}, "fusion_lat": 0.0, "name": "71a3cd7e410f8b7fb6394f9682590fc6", "is_reserved": 0, "is_disabled": 0, "type": "electric_scooter"}, {"fusion_lon": 0.0, "lat": 38.9039285, "lon": -77.02482083333334, "bike_id": "b48e45d5c6030205cb8d144e01bda118", "rental_uris": {"android": "https://dc.lft.to/lastmile_qr_scan", "ios": "https://dc.lft.to/lastmile_qr_scan"}, "fusion_lat": 0.0, "name": "b48e45d5c6030205cb8d144e01bda118", "is_reserved": 0, "is_disabled": 0, "type": "electric_scooter"}, {"fusion_lon": 0.0, "lat": 38.925183, "lon": -77.04368616666666, "bike_id": "8e8cb705b3b27d92d9e8696a53d15e5f", "rental_uris": {"android": "https://dc.lft.to/lastmile_qr_scan", "ios": "https://dc.lft.to/lastmile_qr_scan"}, "fusion_lat": 0.0, "name": "8e8cb705b3b27d92d9e8696a53d15e5f", "is_reserved": 0, "is_disabled": 0, "type": "electric_scooter"}, {"fusion_lon": 0.0, "lat": 38.92641916666667, "lon": -77.02508566666667, "bike_id": "cfa0b83bb62b1599218adeec6b74c77b", "rental_uris": {"android": "https://dc.lft.to/lastmile_qr_scan", "ios": "https://dc.lft.to/lastmile_qr_scan"}, "fusion_lat": 0.0, "name": "cfa0b83bb62b1599218adeec6b74c77b", "is_reserved": 0, "is_disabled": 0, "type": "electric_scooter"}, {"fusion_lon": 0.0, "lat": 38.93244933333333, "lon": -77.03283933333333, "bike_id": "ce672ef984d564f5f0022c8edf88ef5e", "rental_uris": {"android": "https://dc.lft.to/lastmile_qr_scan", "ios": "https://dc.lft.to/lastmile_qr_scan"}, "fusion_lat": 0.0, "name": "ce672ef984d564f5f0022c8edf88ef5e", "is_reserved": 0, "is_disabled": 0, "type": "electric_scooter"}, {"fusion_lon": 0.0, "lat": 38.89879116666667, "lon": -76.98839133333334, "bike_id": "e7253564df3f2b5e7733b074da4f34c9", "rental_uris": {"android": "https://dc.lft.to/lastmile_qr_scan", "ios": "https://dc.lft.to/lastmile_qr_scan"}, "fusion_lat": 0.0, "name": "e7253564df3f2b5e7733b074da4f34c9", "is_reserved": 0, "is_disabled": 0, "type": "electric_scooter"}, {"fusion_lon": 0.0, "lat": 38.904225833333335, "lon": -77.02558783333333, "bike_id": "1cfc0e1d8ef685398fb7e60f517a8066", "rental_uris": {"android": "https://dc.lft.to/lastmile_qr_scan", "ios": "https://dc.lft.to/lastmile_qr_scan"}, "fusion_lat": 0.0, "name": "1cfc0e1d8ef685398fb7e60f517a8066", "is_reserved": 0, "is_disabled": 0, "type": "electric_scooter"}, {"fusion_lon": 0.0, "lat": 38.892181666666666, "lon": -77.03143433333334, "bike_id": "ff7609abf341b1bff5d606ff8a3f302d", "rental_uris": {"android": "https://dc.lft.to/lastmile_qr_scan", "ios": "https://dc.lft.to/lastmile_qr_scan"}, "fusion_lat": 0.0, "name": "ff7609abf341b1bff5d606ff8a3f302d", "is_reserved": 0, "is_disabled": 0, "type": "electric_scooter"}, {"fusion_lon": 0.0, "lat": 38.89707216666667, "lon": -76.99117966666667, "bike_id": "372e517cc571c8babb464e4cf7ec7251", "rental_uris": {"android": "https://dc.lft.to/lastmile_qr_scan", "ios": "https://dc.lft.to/lastmile_qr_scan"}, "fusion_lat": 0.0, "name": "372e517cc571c8babb464e4cf7ec7251", "is_reserved": 0, "is_disabled": 0, "type": "electric_scooter"}, {"fusion_lon": 0.0, "lat": 38.90113, "lon": -77.044899, "bike_id": "88416181a9884e8d71ae2e9e287b51b4", "rental_uris": {"android": "https://dc.lft.to/lastmile_qr_scan", "ios": "https://dc.lft.to/lastmile_qr_scan"}, "fusion_lat": 0.0, "name": "88416181a9884e8d71ae2e9e287b51b4", "is_reserved": 0, "is_disabled": 0, "type": "electric_scooter"}, {"fusion_lon": 0.0, "lat": 38.89888633333333, "lon": -77.03182833333334, "bike_id": "4f6b713f04a1436bbc635fc2e396312e", "rental_uris": {"android": "https://dc.lft.to/lastmile_qr_scan", "ios": "https://dc.lft.to/lastmile_qr_scan"}, "fusion_lat": 0.0, "name": "4f6b713f04a1436bbc635fc2e396312e", "is_reserved": 0, "is_disabled": 0, "type": "electric_scooter"}, {"fusion_lon": 0.0, "lat": 38.92464916666667, "lon": -77.027135, "bike_id": "702b531efc1222b1804f587da161db1d", "rental_uris": {"android": "https://dc.lft.to/lastmile_qr_scan", "ios": "https://dc.lft.to/lastmile_qr_scan"}, "fusion_lat": 0.0, "name": "702b531efc1222b1804f587da161db1d", "is_reserved": 0, "is_disabled": 0, "type": "electric_scooter"}, {"fusion_lon": 0.0, "lat": 38.92309066666667, "lon": -77.019592, "bike_id": "f68a99e34a69333d885ad30ee771dfd4", "rental_uris": {"android": "https://dc.lft.to/lastmile_qr_scan", "ios": "https://dc.lft.to/lastmile_qr_scan"}, "fusion_lat": 0.0, "name": "f68a99e34a69333d885ad30ee771dfd4", "is_reserved": 0, "is_disabled": 0, "type": "electric_scooter"}, {"fusion_lon": 0.0, "lat": 38.93487566666667, "lon": -77.07272733333333, "bike_id": "a7ccc191e9a15163f0ee2c8f0d575e18", "rental_uris": {"android": "https://dc.lft.to/lastmile_qr_scan", "ios": "https://dc.lft.to/lastmile_qr_scan"}, "fusion_lat": 0.0, "name": "a7ccc191e9a15163f0ee2c8f0d575e18", "is_reserved": 0, "is_disabled": 0, "type": "electric_scooter"}, {"fusion_lon": 0.0, "lat": 38.93700916666667, "lon": -77.03290533333333, "bike_id": "b07ea832bbacc2a492d265939c9856ba", "rental_uris": {"android": "https://dc.lft.to/lastmile_qr_scan", "ios": "https://dc.lft.to/lastmile_qr_scan"}, "fusion_lat": 0.0, "name": "b07ea832bbacc2a492d265939c9856ba", "is_reserved": 0, "is_disabled": 0, "type": "electric_scooter"}, {"fusion_lon": 0.0, "lat": 38.922655, "lon": -76.9974735, "bike_id": "f0b5c6208e209acaecbf5e56e90e5294", "rental_uris": {"android": "https://dc.lft.to/lastmile_qr_scan", "ios": "https://dc.lft.to/lastmile_qr_scan"}, "fusion_lat": 0.0, "name": "f0b5c6208e209acaecbf5e56e90e5294", "is_reserved": 0, "is_disabled": 0, "type": "electric_scooter"}, {"fusion_lon": 0.0, "lat": 38.934901833333335, "lon": -77.0727225, "bike_id": "8499075cb06f23241912f77e4744080c", "rental_uris": {"android": "https://dc.lft.to/lastmile_qr_scan", "ios": "https://dc.lft.to/lastmile_qr_scan"}, "fusion_lat": 0.0, "name": "8499075cb06f23241912f77e4744080c", "is_reserved": 0, "is_disabled": 0, "type": "electric_scooter"}, {"fusion_lon": 0.0, "lat": 38.900949, "lon": -77.01868916666666, "bike_id": "5f458dc7da54f1906c9dccb199b621aa", "rental_uris": {"android": "https://dc.lft.to/lastmile_qr_scan", "ios": "https://dc.lft.to/lastmile_qr_scan"}, "fusion_lat": 0.0, "name": "5f458dc7da54f1906c9dccb199b621aa", "is_reserved": 0, "is_disabled": 0, "type": "electric_scooter"}, {"fusion_lon": 0.0, "lat": 38.92459366666667, "lon": -76.99915166666666, "bike_id": "23965cb5b31aa628138aff6ddf714d26", "rental_uris": {"android": "https://dc.lft.to/lastmile_qr_scan", "ios": "https://dc.lft.to/lastmile_qr_scan"}, "fusion_lat": 0.0, "name": "23965cb5b31aa628138aff6ddf714d26", "is_reserved": 0, "is_disabled": 0, "type": "electric_scooter"}, {"fusion_lon": 0.0, "lat": 38.898567666666665, "lon": -77.02796466666666, "bike_id": "13e972eaf5d8e60abca01b7d4be388c2", "rental_uris": {"android": "https://dc.lft.to/lastmile_qr_scan", "ios": "https://dc.lft.to/lastmile_qr_scan"}, "fusion_lat": 0.0, "name": "13e972eaf5d8e60abca01b7d4be388c2", "is_reserved": 0, "is_disabled": 0, "type": "electric_scooter"}, {"fusion_lon": 0.0, "lat": 38.908369, "lon": -77.02702016666667, "bike_id": "f498a2b732e12ee49a3363a1fa76c208", "rental_uris": {"android": "https://dc.lft.to/lastmile_qr_scan", "ios": "https://dc.lft.to/lastmile_qr_scan"}, "fusion_lat": 0.0, "name": "f498a2b732e12ee49a3363a1fa76c208", "is_reserved": 0, "is_disabled": 0, "type": "electric_scooter"}, {"fusion_lon": 0.0, "lat": 38.864830833333336, "lon": -76.97745283333333, "bike_id": "f2f4cd76aebb6d8c6dd70f45b740353e", "rental_uris": {"android": "https://dc.lft.to/lastmile_qr_scan", "ios": "https://dc.lft.to/lastmile_qr_scan"}, "fusion_lat": 0.0, "name": "f2f4cd76aebb6d8c6dd70f45b740353e", "is_reserved": 0, "is_disabled": 0, "type": "electric_bike"}, {"fusion_lon": 0.0, "lat": 38.926715, "lon": -77.0543735, "bike_id": "e95d267c2ba2c1fbb642c26bcb0d8af7", "rental_uris": {"android": "https://dc.lft.to/lastmile_qr_scan", "ios": "https://dc.lft.to/lastmile_qr_scan"}, "fusion_lat": 0.0, "name": "e95d267c2ba2c1fbb642c26bcb0d8af7", "is_reserved": 0, "is_disabled": 0, "type": "electric_scooter"}, {"fusion_lon": 0.0, "lat": 38.92340183333334, "lon": -77.02150633333333, "bike_id": "d31c23ee7005787e6c3c29fe22a268b5", "rental_uris": {"android": "https://dc.lft.to/lastmile_qr_scan", "ios": "https://dc.lft.to/lastmile_qr_scan"}, "fusion_lat": 0.0, "name": "d31c23ee7005787e6c3c29fe22a268b5", "is_reserved": 0, "is_disabled": 0, "type": "electric_scooter"}, {"fusion_lon": 0.0, "lat": 38.9164165, "lon": -77.06947083333333, "bike_id": "1cb54ed707156f1796bd8f016159804d", "rental_uris": {"android": "https://dc.lft.to/lastmile_qr_scan", "ios": "https://dc.lft.to/lastmile_qr_scan"}, "fusion_lat": 0.0, "name": "1cb54ed707156f1796bd8f016159804d", "is_reserved": 0, "is_disabled": 0, "type": "electric_scooter"}, {"fusion_lon": 0.0, "lat": 38.918090666666664, "lon": -77.035767, "bike_id": "3515ca50d5b1eb7aa19d1a2eee325077", "rental_uris": {"android": "https://dc.lft.to/lastmile_qr_scan", "ios": "https://dc.lft.to/lastmile_qr_scan"}, "fusion_lat": 0.0, "name": "3515ca50d5b1eb7aa19d1a2eee325077", "is_reserved": 0, "is_disabled": 0, "type": "electric_scooter"}, {"fusion_lon": 0.0, "lat": 38.92144016666666, "lon": -77.02102, "bike_id": "eb0e90e1502958a399832abe02c11e69", "rental_uris": {"android": "https://dc.lft.to/lastmile_qr_scan", "ios": "https://dc.lft.to/lastmile_qr_scan"}, "fusion_lat": 0.0, "name": "eb0e90e1502958a399832abe02c11e69", "is_reserved": 0, "is_disabled": 0, "type": "electric_scooter"}, {"fusion_lon": 0.0, "lat": 38.898862666666666, "lon": -76.9800385, "bike_id": "004829a07fbbe4157667ade3a4f9f2f8", "rental_uris": {"android": "https://dc.lft.to/lastmile_qr_scan", "ios": "https://dc.lft.to/lastmile_qr_scan"}, "fusion_lat": 0.0, "name": "004829a07fbbe4157667ade3a4f9f2f8", "is_reserved": 0, "is_disabled": 0, "type": "electric_scooter"}, {"fusion_lon": 0.0, "lat": 38.906619, "lon": -77.02697933333333, "bike_id": "6e990c2ef6332b6d4bc3c7e5000ace59", "rental_uris": {"android": "https://dc.lft.to/lastmile_qr_scan", "ios": "https://dc.lft.to/lastmile_qr_scan"}, "fusion_lat": 0.0, "name": "6e990c2ef6332b6d4bc3c7e5000ace59", "is_reserved": 0, "is_disabled": 0, "type": "electric_scooter"}, {"fusion_lon": 0.0, "lat": 38.897541, "lon": -77.02704883333334, "bike_id": "4e7575f13b258fa31491f82fcb01b7b7", "rental_uris": {"android": "https://dc.lft.to/lastmile_qr_scan", "ios": "https://dc.lft.to/lastmile_qr_scan"}, "fusion_lat": 0.0, "name": "4e7575f13b258fa31491f82fcb01b7b7", "is_reserved": 0, "is_disabled": 0, "type": "electric_scooter"}, {"fusion_lon": 0.0, "lat": 38.89625633333333, "lon": -77.040195, "bike_id": "0370cd2f9a10a7a52da2c75e187a263c", "rental_uris": {"android": "https://dc.lft.to/lastmile_qr_scan", "ios": "https://dc.lft.to/lastmile_qr_scan"}, "fusion_lat": 0.0, "name": "0370cd2f9a10a7a52da2c75e187a263c", "is_reserved": 0, "is_disabled": 0, "type": "electric_scooter"}, {"fusion_lon": 0.0, "lat": 38.9168615, "lon": -77.03821883333333, "bike_id": "dbe38e100302e1cf6c98481f2d6dcb6e", "rental_uris": {"android": "https://dc.lft.to/lastmile_qr_scan", "ios": "https://dc.lft.to/lastmile_qr_scan"}, "fusion_lat": 0.0, "name": "dbe38e100302e1cf6c98481f2d6dcb6e", "is_reserved": 0, "is_disabled": 0, "type": "electric_scooter"}, {"fusion_lon": 0.0, "lat": 38.896047333333335, "lon": -77.05443083333333, "bike_id": "b6b9972b8daa0d6f9240f90217d5cfa5", "rental_uris": {"android": "https://dc.lft.to/lastmile_qr_scan", "ios": "https://dc.lft.to/lastmile_qr_scan"}, "fusion_lat": 0.0, "name": "b6b9972b8daa0d6f9240f90217d5cfa5", "is_reserved": 0, "is_disabled": 0, "type": "electric_scooter"}, {"fusion_lon": 0.0, "lat": 38.88679716666667, "lon": -77.021893, "bike_id": "fa8694628b7189a0a22710c2699e4234", "rental_uris": {"android": "https://dc.lft.to/lastmile_qr_scan", "ios": "https://dc.lft.to/lastmile_qr_scan"}, "fusion_lat": 0.0, "name": "fa8694628b7189a0a22710c2699e4234", "is_reserved": 0, "is_disabled": 0, "type": "electric_scooter"}, {"fusion_lon": 0.0, "lat": 38.88615133333333, "lon": -77.031982, "bike_id": "92d9992e4768b8bb1e270dd93480cec1", "rental_uris": {"android": "https://dc.lft.to/lastmile_qr_scan", "ios": "https://dc.lft.to/lastmile_qr_scan"}, "fusion_lat": 0.0, "name": "92d9992e4768b8bb1e270dd93480cec1", "is_reserved": 0, "is_disabled": 0, "type": "electric_scooter"}, {"fusion_lon": 0.0, "lat": 38.92315216666667, "lon": -77.0195385, "bike_id": "29ba2a0664e4fca92ee344f96599ea4e", "rental_uris": {"android": "https://dc.lft.to/lastmile_qr_scan", "ios": "https://dc.lft.to/lastmile_qr_scan"}, "fusion_lat": 0.0, "name": "29ba2a0664e4fca92ee344f96599ea4e", "is_reserved": 0, "is_disabled": 0, "type": "electric_scooter"}, {"fusion_lon": 0.0, "lat": 38.944817666666665, "lon": -77.0639135, "bike_id": "de5a97aa03840a23a46f0ccd277357b2", "rental_uris": {"android": "https://dc.lft.to/lastmile_qr_scan", "ios": "https://dc.lft.to/lastmile_qr_scan"}, "fusion_lat": 0.0, "name": "de5a97aa03840a23a46f0ccd277357b2", "is_reserved": 0, "is_disabled": 0, "type": "electric_scooter"}, {"fusion_lon": 0.0, "lat": 38.893296666666664, "lon": -76.93932233333334, "bike_id": "a0671b174b8bfef403020a4e4db2c339", "rental_uris": {"android": "https://dc.lft.to/lastmile_qr_scan", "ios": "https://dc.lft.to/lastmile_qr_scan"}, "fusion_lat": 0.0, "name": "a0671b174b8bfef403020a4e4db2c339", "is_reserved": 0, "is_disabled": 0, "type": "electric_scooter"}, {"fusion_lon": 0.0, "lat": 38.928086, "lon": -77.029216, "bike_id": "e141f646c83c24535d32aefe203239b0", "rental_uris": {"android": "https://dc.lft.to/lastmile_qr_scan", "ios": "https://dc.lft.to/lastmile_qr_scan"}, "fusion_lat": 0.0, "name": "e141f646c83c24535d32aefe203239b0", "is_reserved": 0, "is_disabled": 0, "type": "electric_scooter"}, {"fusion_lon": 0.0, "lat": 38.900519833333334, "lon": -76.9849855, "bike_id": "4329113489bf5cef52a033bc297e8227", "rental_uris": {"android": "https://dc.lft.to/lastmile_qr_scan", "ios": "https://dc.lft.to/lastmile_qr_scan"}, "fusion_lat": 0.0, "name": "4329113489bf5cef52a033bc297e8227", "is_reserved": 0, "is_disabled": 0, "type": "electric_scooter"}, {"fusion_lon": 0.0, "lat": 38.78307083333333, "lon": -77.11411483333333, "bike_id": "a05d84ed5aa7416b3b642f7f2b22d891", "rental_uris": {"android": "https://dc.lft.to/lastmile_qr_scan", "ios": "https://dc.lft.to/lastmile_qr_scan"}, "fusion_lat": 0.0, "name": "a05d84ed5aa7416b3b642f7f2b22d891", "is_reserved": 0, "is_disabled": 0, "type": "electric_bike"}, {"fusion_lon": 0.0, "lat": 38.909267166666666, "lon": -76.98470683333333, "bike_id": "ec7e87faa44dfc71eb2751e1b13bba57", "rental_uris": {"android": "https://dc.lft.to/lastmile_qr_scan", "ios": "https://dc.lft.to/lastmile_qr_scan"}, "fusion_lat": 0.0, "name": "ec7e87faa44dfc71eb2751e1b13bba57", "is_reserved": 0, "is_disabled": 0, "type": "electric_scooter"}, {"fusion_lon": 0.0, "lat": 38.8831765, "lon": -77.00952733333334, "bike_id": "0c77b78e407cb947444973f2b950b089", "rental_uris": {"android": "https://dc.lft.to/lastmile_qr_scan", "ios": "https://dc.lft.to/lastmile_qr_scan"}, "fusion_lat": 0.0, "name": "0c77b78e407cb947444973f2b950b089", "is_reserved": 0, "is_disabled": 0, "type": "electric_scooter"}, {"fusion_lon": 0.0, "lat": 38.923269, "lon": -77.05688616666667, "bike_id": "887806c0787382e58035f143d2058b58", "rental_uris": {"android": "https://dc.lft.to/lastmile_qr_scan", "ios": "https://dc.lft.to/lastmile_qr_scan"}, "fusion_lat": 0.0, "name": "887806c0787382e58035f143d2058b58", "is_reserved": 0, "is_disabled": 0, "type": "electric_scooter"}, {"fusion_lon": 0.0, "lat": 38.89746183333333, "lon": -77.01901966666667, "bike_id": "cfed5ca630c385e758e38d074c941d47", "rental_uris": {"android": "https://dc.lft.to/lastmile_qr_scan", "ios": "https://dc.lft.to/lastmile_qr_scan"}, "fusion_lat": 0.0, "name": "cfed5ca630c385e758e38d074c941d47", "is_reserved": 0, "is_disabled": 0, "type": "electric_scooter"}, {"fusion_lon": 0.0, "lat": 38.901721, "lon": -77.001294, "bike_id": "d30b16d0f848d851733adc01dbebc7b0", "rental_uris": {"android": "https://dc.lft.to/lastmile_qr_scan", "ios": "https://dc.lft.to/lastmile_qr_scan"}, "fusion_lat": 0.0, "name": "d30b16d0f848d851733adc01dbebc7b0", "is_reserved": 0, "is_disabled": 0, "type": "electric_scooter"}, {"fusion_lon": 0.0, "lat": 38.9883685, "lon": -77.02651666666667, "bike_id": "2dc1e48c7d7cad35fefe9385bf1a74ca", "rental_uris": {"android": "https://dc.lft.to/lastmile_qr_scan", "ios": "https://dc.lft.to/lastmile_qr_scan"}, "fusion_lat": 0.0, "name": "2dc1e48c7d7cad35fefe9385bf1a74ca", "is_reserved": 0, "is_disabled": 0, "type": "electric_bike"}, {"fusion_lon": 0.0, "lat": 38.866962, "lon": -76.98600183333333, "bike_id": "8503d92091ca85a96b08dacbf499f00e", "rental_uris": {"android": "https://dc.lft.to/lastmile_qr_scan", "ios": "https://dc.lft.to/lastmile_qr_scan"}, "fusion_lat": 0.0, "name": "8503d92091ca85a96b08dacbf499f00e", "is_reserved": 0, "is_disabled": 0, "type": "electric_scooter"}, {"fusion_lon": 0.0, "lat": 38.93058883333333, "lon": -77.02331533333333, "bike_id": "93f1e1138286e427678a0088a577258c", "rental_uris": {"android": "https://dc.lft.to/lastmile_qr_scan", "ios": "https://dc.lft.to/lastmile_qr_scan"}, "fusion_lat": 0.0, "name": "93f1e1138286e427678a0088a577258c", "is_reserved": 0, "is_disabled": 0, "type": "electric_scooter"}, {"fusion_lon": 0.0, "lat": 38.914000333333334, "lon": -77.04889283333333, "bike_id": "26cb7b87f45d95d34725e4040b4a7614", "rental_uris": {"android": "https://dc.lft.to/lastmile_qr_scan", "ios": "https://dc.lft.to/lastmile_qr_scan"}, "fusion_lat": 0.0, "name": "26cb7b87f45d95d34725e4040b4a7614", "is_reserved": 0, "is_disabled": 0, "type": "electric_scooter"}, {"fusion_lon": 0.0, "lat": 38.911077166666665, "lon": -77.0222995, "bike_id": "fe149a002f3a21674fb44a20bec1d1fd", "rental_uris": {"android": "https://dc.lft.to/lastmile_qr_scan", "ios": "https://dc.lft.to/lastmile_qr_scan"}, "fusion_lat": 0.0, "name": "fe149a002f3a21674fb44a20bec1d1fd", "is_reserved": 0, "is_disabled": 0, "type": "electric_scooter"}, {"fusion_lon": 0.0, "lat": 38.8765855, "lon": -77.004349, "bike_id": "6ed1e34a1f5c6063f12a1c542f77b726", "rental_uris": {"android": "https://dc.lft.to/lastmile_qr_scan", "ios": "https://dc.lft.to/lastmile_qr_scan"}, "fusion_lat": 0.0, "name": "6ed1e34a1f5c6063f12a1c542f77b726", "is_reserved": 0, "is_disabled": 0, "type": "electric_scooter"}, {"fusion_lon": 0.0, "lat": 38.909792833333334, "lon": -77.034269, "bike_id": "9ae17849089bed14de845eb9d307099e", "rental_uris": {"android": "https://dc.lft.to/lastmile_qr_scan", "ios": "https://dc.lft.to/lastmile_qr_scan"}, "fusion_lat": 0.0, "name": "9ae17849089bed14de845eb9d307099e", "is_reserved": 0, "is_disabled": 0, "type": "electric_scooter"}, {"fusion_lon": 0.0, "lat": 38.925687, "lon": -76.99958483333333, "bike_id": "7021c232ef419c1b69959c39960e0b8c", "rental_uris": {"android": "https://dc.lft.to/lastmile_qr_scan", "ios": "https://dc.lft.to/lastmile_qr_scan"}, "fusion_lat": 0.0, "name": "7021c232ef419c1b69959c39960e0b8c", "is_reserved": 0, "is_disabled": 0, "type": "electric_scooter"}, {"fusion_lon": 0.0, "lat": 38.935203333333334, "lon": -77.03488066666667, "bike_id": "5be45c0946f03dc315faefb3963ac4fc", "rental_uris": {"android": "https://dc.lft.to/lastmile_qr_scan", "ios": "https://dc.lft.to/lastmile_qr_scan"}, "fusion_lat": 0.0, "name": "5be45c0946f03dc315faefb3963ac4fc", "is_reserved": 0, "is_disabled": 0, "type": "electric_scooter"}, {"fusion_lon": 0.0, "lat": 38.91753466666667, "lon": -77.02115633333334, "bike_id": "284e2ef9da90a9b54d2a2a1a7ed1b042", "rental_uris": {"android": "https://dc.lft.to/lastmile_qr_scan", "ios": "https://dc.lft.to/lastmile_qr_scan"}, "fusion_lat": 0.0, "name": "284e2ef9da90a9b54d2a2a1a7ed1b042", "is_reserved": 0, "is_disabled": 0, "type": "electric_scooter"}, {"fusion_lon": 0.0, "lat": 38.89922816666667, "lon": -77.04071133333333, "bike_id": "b6f9d06d08f98959b88dabcab162683a", "rental_uris": {"android": "https://dc.lft.to/lastmile_qr_scan", "ios": "https://dc.lft.to/lastmile_qr_scan"}, "fusion_lat": 0.0, "name": "b6f9d06d08f98959b88dabcab162683a", "is_reserved": 0, "is_disabled": 0, "type": "electric_scooter"}, {"fusion_lon": 0.0, "lat": 38.87181316666667, "lon": -77.0064205, "bike_id": "db20f188ec612a016538d3d7149ca04a", "rental_uris": {"android": "https://dc.lft.to/lastmile_qr_scan", "ios": "https://dc.lft.to/lastmile_qr_scan"}, "fusion_lat": 0.0, "name": "db20f188ec612a016538d3d7149ca04a", "is_reserved": 0, "is_disabled": 0, "type": "electric_scooter"}, {"fusion_lon": 0.0, "lat": 38.90063116666666, "lon": -77.0367195, "bike_id": "c62497a5c9628a870dba7a0cdf474914", "rental_uris": {"android": "https://dc.lft.to/lastmile_qr_scan", "ios": "https://dc.lft.to/lastmile_qr_scan"}, "fusion_lat": 0.0, "name": "c62497a5c9628a870dba7a0cdf474914", "is_reserved": 0, "is_disabled": 0, "type": "electric_scooter"}, {"fusion_lon": 0.0, "lat": 38.91983183333333, "lon": -77.04188433333333, "bike_id": "132b2b0e455ccf231fc93d6422d52220", "rental_uris": {"android": "https://dc.lft.to/lastmile_qr_scan", "ios": "https://dc.lft.to/lastmile_qr_scan"}, "fusion_lat": 0.0, "name": "132b2b0e455ccf231fc93d6422d52220", "is_reserved": 0, "is_disabled": 0, "type": "electric_scooter"}, {"fusion_lon": 0.0, "lat": 38.897331, "lon": -76.97578216666666, "bike_id": "48a0679fceaa9d002ee7328b36af19f3", "rental_uris": {"android": "https://dc.lft.to/lastmile_qr_scan", "ios": "https://dc.lft.to/lastmile_qr_scan"}, "fusion_lat": 0.0, "name": "48a0679fceaa9d002ee7328b36af19f3", "is_reserved": 0, "is_disabled": 0, "type": "electric_scooter"}, {"fusion_lon": 0.0, "lat": 39.015331833333335, "lon": -77.04363666666667, "bike_id": "afebaaaa31bc33a7da9279712a689b21", "rental_uris": {"android": "https://dc.lft.to/lastmile_qr_scan", "ios": "https://dc.lft.to/lastmile_qr_scan"}, "fusion_lat": 0.0, "name": "afebaaaa31bc33a7da9279712a689b21", "is_reserved": 0, "is_disabled": 0, "type": "electric_bike"}, {"fusion_lon": 0.0, "lat": 38.92325983333333, "lon": -77.0367395, "bike_id": "1bad89f1650c614d93422078441416bd", "rental_uris": {"android": "https://dc.lft.to/lastmile_qr_scan", "ios": "https://dc.lft.to/lastmile_qr_scan"}, "fusion_lat": 0.0, "name": "1bad89f1650c614d93422078441416bd", "is_reserved": 0, "is_disabled": 0, "type": "electric_scooter"}, {"fusion_lon": 0.0, "lat": 38.895014833333335, "lon": -77.0463745, "bike_id": "d13def945607c3788f7ab0f1a8c03079", "rental_uris": {"android": "https://dc.lft.to/lastmile_qr_scan", "ios": "https://dc.lft.to/lastmile_qr_scan"}, "fusion_lat": 0.0, "name": "d13def945607c3788f7ab0f1a8c03079", "is_reserved": 0, "is_disabled": 0, "type": "electric_scooter"}, {"fusion_lon": 0.0, "lat": 38.891891666666666, "lon": -77.00299, "bike_id": "23af0169e493e121615146861d4adf59", "rental_uris": {"android": "https://dc.lft.to/lastmile_qr_scan", "ios": "https://dc.lft.to/lastmile_qr_scan"}, "fusion_lat": 0.0, "name": "23af0169e493e121615146861d4adf59", "is_reserved": 0, "is_disabled": 0, "type": "electric_scooter"}, {"fusion_lon": 0.0, "lat": 38.92148733333333, "lon": -77.0353325, "bike_id": "ec8f424a6375c7d8032405d21bf37db5", "rental_uris": {"android": "https://dc.lft.to/lastmile_qr_scan", "ios": "https://dc.lft.to/lastmile_qr_scan"}, "fusion_lat": 0.0, "name": "ec8f424a6375c7d8032405d21bf37db5", "is_reserved": 0, "is_disabled": 0, "type": "electric_scooter"}, {"fusion_lon": 0.0, "lat": 38.920571833333334, "lon": -77.04257383333334, "bike_id": "c7ff839952f35aaafb8922e9f284ebd2", "rental_uris": {"android": "https://dc.lft.to/lastmile_qr_scan", "ios": "https://dc.lft.to/lastmile_qr_scan"}, "fusion_lat": 0.0, "name": "c7ff839952f35aaafb8922e9f284ebd2", "is_reserved": 0, "is_disabled": 0, "type": "electric_scooter"}, {"fusion_lon": 0.0, "lat": 38.909034, "lon": -77.03404566666667, "bike_id": "c4e9cc2d045c4d239f84ab310b5a6e54", "rental_uris": {"android": "https://dc.lft.to/lastmile_qr_scan", "ios": "https://dc.lft.to/lastmile_qr_scan"}, "fusion_lat": 0.0, "name": "c4e9cc2d045c4d239f84ab310b5a6e54", "is_reserved": 0, "is_disabled": 0, "type": "electric_scooter"}, {"fusion_lon": 0.0, "lat": 38.918945666666666, "lon": -77.02077916666667, "bike_id": "e0a23d9753cfd42ca9ac33fee27919e5", "rental_uris": {"android": "https://dc.lft.to/lastmile_qr_scan", "ios": "https://dc.lft.to/lastmile_qr_scan"}, "fusion_lat": 0.0, "name": "e0a23d9753cfd42ca9ac33fee27919e5", "is_reserved": 0, "is_disabled": 0, "type": "electric_scooter"}, {"fusion_lon": 0.0, "lat": 38.92815, "lon": -77.01417383333333, "bike_id": "959a44100ffe339f9b16caa17264db92", "rental_uris": {"android": "https://dc.lft.to/lastmile_qr_scan", "ios": "https://dc.lft.to/lastmile_qr_scan"}, "fusion_lat": 0.0, "name": "959a44100ffe339f9b16caa17264db92", "is_reserved": 0, "is_disabled": 0, "type": "electric_scooter"}, {"fusion_lon": 0.0, "lat": 38.935313, "lon": -77.02353966666666, "bike_id": "6420d46f5f391684f64fb8ddb4c5f6c8", "rental_uris": {"android": "https://dc.lft.to/lastmile_qr_scan", "ios": "https://dc.lft.to/lastmile_qr_scan"}, "fusion_lat": 0.0, "name": "6420d46f5f391684f64fb8ddb4c5f6c8", "is_reserved": 0, "is_disabled": 0, "type": "electric_scooter"}, {"fusion_lon": 0.0, "lat": 38.9205595, "lon": -76.98435283333333, "bike_id": "efc22e9b7b00dca5e2688e1c0eaf7e9c", "rental_uris": {"android": "https://dc.lft.to/lastmile_qr_scan", "ios": "https://dc.lft.to/lastmile_qr_scan"}, "fusion_lat": 0.0, "name": "efc22e9b7b00dca5e2688e1c0eaf7e9c", "is_reserved": 0, "is_disabled": 0, "type": "electric_scooter"}, {"fusion_lon": 0.0, "lat": 38.87797183333333, "lon": -77.01758516666666, "bike_id": "896f092b234621e9fd4cc8e4c8ac6222", "rental_uris": {"android": "https://dc.lft.to/lastmile_qr_scan", "ios": "https://dc.lft.to/lastmile_qr_scan"}, "fusion_lat": 0.0, "name": "896f092b234621e9fd4cc8e4c8ac6222", "is_reserved": 0, "is_disabled": 0, "type": "electric_scooter"}, {"fusion_lon": 0.0, "lat": 38.91346133333333, "lon": -77.02057516666666, "bike_id": "a66c3d49487ba03b5044c88e237bf711", "rental_uris": {"android": "https://dc.lft.to/lastmile_qr_scan", "ios": "https://dc.lft.to/lastmile_qr_scan"}, "fusion_lat": 0.0, "name": "a66c3d49487ba03b5044c88e237bf711", "is_reserved": 0, "is_disabled": 0, "type": "electric_scooter"}, {"fusion_lon": 0.0, "lat": 38.90372583333333, "lon": -77.019229, "bike_id": "d21ce2a75d7ebf7a10ff08d6a890f8fe", "rental_uris": {"android": "https://dc.lft.to/lastmile_qr_scan", "ios": "https://dc.lft.to/lastmile_qr_scan"}, "fusion_lat": 0.0, "name": "d21ce2a75d7ebf7a10ff08d6a890f8fe", "is_reserved": 0, "is_disabled": 0, "type": "electric_scooter"}, {"fusion_lon": 0.0, "lat": 38.858719, "lon": -76.9894485, "bike_id": "8ec669342054dd2588c4e9ff7ca89300", "rental_uris": {"android": "https://dc.lft.to/lastmile_qr_scan", "ios": "https://dc.lft.to/lastmile_qr_scan"}, "fusion_lat": 0.0, "name": "8ec669342054dd2588c4e9ff7ca89300", "is_reserved": 0, "is_disabled": 0, "type": "electric_scooter"}, {"fusion_lon": 0.0, "lat": 38.90052716666667, "lon": -76.984978, "bike_id": "40ffda9b338e7aa9af740db586fb4757", "rental_uris": {"android": "https://dc.lft.to/lastmile_qr_scan", "ios": "https://dc.lft.to/lastmile_qr_scan"}, "fusion_lat": 0.0, "name": "40ffda9b338e7aa9af740db586fb4757", "is_reserved": 0, "is_disabled": 0, "type": "electric_scooter"}, {"fusion_lon": 0.0, "lat": 38.913248, "lon": -77.04558216666666, "bike_id": "d0f05b9f8bd2da81ce37629c3a373c38", "rental_uris": {"android": "https://dc.lft.to/lastmile_qr_scan", "ios": "https://dc.lft.to/lastmile_qr_scan"}, "fusion_lat": 0.0, "name": "d0f05b9f8bd2da81ce37629c3a373c38", "is_reserved": 0, "is_disabled": 0, "type": "electric_scooter"}, {"fusion_lon": 0.0, "lat": 38.909802166666665, "lon": -77.0338145, "bike_id": "7997f5c66c779c96766bccb1378f27a8", "rental_uris": {"android": "https://dc.lft.to/lastmile_qr_scan", "ios": "https://dc.lft.to/lastmile_qr_scan"}, "fusion_lat": 0.0, "name": "7997f5c66c779c96766bccb1378f27a8", "is_reserved": 0, "is_disabled": 0, "type": "electric_scooter"}, {"fusion_lon": 0.0, "lat": 38.92966333333333, "lon": -77.04114466666667, "bike_id": "48084569ef95ae4a9b95cf6997dd624f", "rental_uris": {"android": "https://dc.lft.to/lastmile_qr_scan", "ios": "https://dc.lft.to/lastmile_qr_scan"}, "fusion_lat": 0.0, "name": "48084569ef95ae4a9b95cf6997dd624f", "is_reserved": 0, "is_disabled": 0, "type": "electric_scooter"}, {"fusion_lon": 0.0, "lat": 38.898299, "lon": -77.02495566666667, "bike_id": "dd7d8f4cf43ba402a98af77a9056b82e", "rental_uris": {"android": "https://dc.lft.to/lastmile_qr_scan", "ios": "https://dc.lft.to/lastmile_qr_scan"}, "fusion_lat": 0.0, "name": "dd7d8f4cf43ba402a98af77a9056b82e", "is_reserved": 0, "is_disabled": 0, "type": "electric_scooter"}, {"fusion_lon": 0.0, "lat": 39.042343, "lon": -76.997386, "bike_id": "2ef4e824b9d8da939146b0e30b78faec", "rental_uris": {"android": "https://dc.lft.to/lastmile_qr_scan", "ios": "https://dc.lft.to/lastmile_qr_scan"}, "fusion_lat": 0.0, "name": "2ef4e824b9d8da939146b0e30b78faec", "is_reserved": 0, "is_disabled": 0, "type": "electric_bike"}, {"fusion_lon": 0.0, "lat": 38.9049525, "lon": -77.05487183333334, "bike_id": "6d1af7865b2ce10951dd8adb400d2586", "rental_uris": {"android": "https://dc.lft.to/lastmile_qr_scan", "ios": "https://dc.lft.to/lastmile_qr_scan"}, "fusion_lat": 0.0, "name": "6d1af7865b2ce10951dd8adb400d2586", "is_reserved": 0, "is_disabled": 0, "type": "electric_scooter"}, {"fusion_lon": 0.0, "lat": 38.92108233333333, "lon": -77.0206935, "bike_id": "b7ad0282d63bc652fd5710d074a0af8a", "rental_uris": {"android": "https://dc.lft.to/lastmile_qr_scan", "ios": "https://dc.lft.to/lastmile_qr_scan"}, "fusion_lat": 0.0, "name": "b7ad0282d63bc652fd5710d074a0af8a", "is_reserved": 0, "is_disabled": 0, "type": "electric_scooter"}, {"fusion_lon": 0.0, "lat": 38.90058966666667, "lon": -77.05008166666667, "bike_id": "13e825ea996f52f8e454598294088e7a", "rental_uris": {"android": "https://dc.lft.to/lastmile_qr_scan", "ios": "https://dc.lft.to/lastmile_qr_scan"}, "fusion_lat": 0.0, "name": "13e825ea996f52f8e454598294088e7a", "is_reserved": 0, "is_disabled": 0, "type": "electric_scooter"}, {"fusion_lon": 0.0, "lat": 38.9282995, "lon": -76.99585966666666, "bike_id": "ae49fc02ab429f820fb1061f1e56fe8e", "rental_uris": {"android": "https://dc.lft.to/lastmile_qr_scan", "ios": "https://dc.lft.to/lastmile_qr_scan"}, "fusion_lat": 0.0, "name": "ae49fc02ab429f820fb1061f1e56fe8e", "is_reserved": 0, "is_disabled": 0, "type": "electric_scooter"}, {"fusion_lon": 0.0, "lat": 38.89258866666667, "lon": -77.00223366666667, "bike_id": "07ead53345af55d57edb3eb2cc190af5", "rental_uris": {"android": "https://dc.lft.to/lastmile_qr_scan", "ios": "https://dc.lft.to/lastmile_qr_scan"}, "fusion_lat": 0.0, "name": "07ead53345af55d57edb3eb2cc190af5", "is_reserved": 0, "is_disabled": 0, "type": "electric_scooter"}, {"fusion_lon": 0.0, "lat": 38.87860716666667, "lon": -76.99163866666666, "bike_id": "a00b85ea4b21f04fb6940f83d2d51bd6", "rental_uris": {"android": "https://dc.lft.to/lastmile_qr_scan", "ios": "https://dc.lft.to/lastmile_qr_scan"}, "fusion_lat": 0.0, "name": "a00b85ea4b21f04fb6940f83d2d51bd6", "is_reserved": 0, "is_disabled": 0, "type": "electric_scooter"}, {"fusion_lon": 0.0, "lat": 38.881259166666666, "lon": -76.992993, "bike_id": "55600073088762b1ae72d4e7a1bc629d", "rental_uris": {"android": "https://dc.lft.to/lastmile_qr_scan", "ios": "https://dc.lft.to/lastmile_qr_scan"}, "fusion_lat": 0.0, "name": "55600073088762b1ae72d4e7a1bc629d", "is_reserved": 0, "is_disabled": 0, "type": "electric_scooter"}, {"fusion_lon": 0.0, "lat": 38.90055133333333, "lon": -77.0259395, "bike_id": "649fa9c7b21d82f9836a858c2df9f12a", "rental_uris": {"android": "https://dc.lft.to/lastmile_qr_scan", "ios": "https://dc.lft.to/lastmile_qr_scan"}, "fusion_lat": 0.0, "name": "649fa9c7b21d82f9836a858c2df9f12a", "is_reserved": 0, "is_disabled": 0, "type": "electric_scooter"}, {"fusion_lon": 0.0, "lat": 38.9111825, "lon": -77.0437425, "bike_id": "3e604c550661fd6464226682fa9bb357", "rental_uris": {"android": "https://dc.lft.to/lastmile_qr_scan", "ios": "https://dc.lft.to/lastmile_qr_scan"}, "fusion_lat": 0.0, "name": "3e604c550661fd6464226682fa9bb357", "is_reserved": 0, "is_disabled": 0, "type": "electric_scooter"}, {"fusion_lon": 0.0, "lat": 38.932394333333335, "lon": -77.0294285, "bike_id": "e678348293069022589822e3a76255d4", "rental_uris": {"android": "https://dc.lft.to/lastmile_qr_scan", "ios": "https://dc.lft.to/lastmile_qr_scan"}, "fusion_lat": 0.0, "name": "e678348293069022589822e3a76255d4", "is_reserved": 0, "is_disabled": 0, "type": "electric_scooter"}, {"fusion_lon": 0.0, "lat": 38.8988675, "lon": -77.032789, "bike_id": "0015cb4b8bc227508b84309871b287d5", "rental_uris": {"android": "https://dc.lft.to/lastmile_qr_scan", "ios": "https://dc.lft.to/lastmile_qr_scan"}, "fusion_lat": 0.0, "name": "0015cb4b8bc227508b84309871b287d5", "is_reserved": 0, "is_disabled": 0, "type": "electric_scooter"}, {"fusion_lon": 0.0, "lat": 38.90062916666667, "lon": -76.9274695, "bike_id": "afb335e28ac09b7d52e58f77cc64492f", "rental_uris": {"android": "https://dc.lft.to/lastmile_qr_scan", "ios": "https://dc.lft.to/lastmile_qr_scan"}, "fusion_lat": 0.0, "name": "afb335e28ac09b7d52e58f77cc64492f", "is_reserved": 0, "is_disabled": 0, "type": "electric_scooter"}, {"fusion_lon": 0.0, "lat": 38.907301, "lon": -77.01096866666667, "bike_id": "bbc301f33807edf7a4d8169d4a031769", "rental_uris": {"android": "https://dc.lft.to/lastmile_qr_scan", "ios": "https://dc.lft.to/lastmile_qr_scan"}, "fusion_lat": 0.0, "name": "bbc301f33807edf7a4d8169d4a031769", "is_reserved": 0, "is_disabled": 0, "type": "electric_scooter"}, {"fusion_lon": 0.0, "lat": 38.93154766666667, "lon": -77.0365955, "bike_id": "bc38e4b109dc61cee243584200f3abff", "rental_uris": {"android": "https://dc.lft.to/lastmile_qr_scan", "ios": "https://dc.lft.to/lastmile_qr_scan"}, "fusion_lat": 0.0, "name": "bc38e4b109dc61cee243584200f3abff", "is_reserved": 0, "is_disabled": 0, "type": "electric_scooter"}, {"fusion_lon": 0.0, "lat": 38.924302, "lon": -77.05208583333334, "bike_id": "0442a51f6da9db07cedc9cfa430b47f9", "rental_uris": {"android": "https://dc.lft.to/lastmile_qr_scan", "ios": "https://dc.lft.to/lastmile_qr_scan"}, "fusion_lat": 0.0, "name": "0442a51f6da9db07cedc9cfa430b47f9", "is_reserved": 0, "is_disabled": 0, "type": "electric_scooter"}, {"fusion_lon": 0.0, "lat": 38.901824, "lon": -77.05072583333333, "bike_id": "a76d55b72324f00f6db2d7d723bc83a4", "rental_uris": {"android": "https://dc.lft.to/lastmile_qr_scan", "ios": "https://dc.lft.to/lastmile_qr_scan"}, "fusion_lat": 0.0, "name": "a76d55b72324f00f6db2d7d723bc83a4", "is_reserved": 0, "is_disabled": 0, "type": "electric_scooter"}, {"fusion_lon": 0.0, "lat": 38.92328766666667, "lon": -77.03504183333334, "bike_id": "9108e98d31670baa5956bb670d6b757a", "rental_uris": {"android": "https://dc.lft.to/lastmile_qr_scan", "ios": "https://dc.lft.to/lastmile_qr_scan"}, "fusion_lat": 0.0, "name": "9108e98d31670baa5956bb670d6b757a", "is_reserved": 0, "is_disabled": 0, "type": "electric_scooter"}, {"fusion_lon": 0.0, "lat": 38.924756333333335, "lon": -77.051042, "bike_id": "154a88de138d8c91618e8534b7bfc110", "rental_uris": {"android": "https://dc.lft.to/lastmile_qr_scan", "ios": "https://dc.lft.to/lastmile_qr_scan"}, "fusion_lat": 0.0, "name": "154a88de138d8c91618e8534b7bfc110", "is_reserved": 0, "is_disabled": 0, "type": "electric_scooter"}, {"fusion_lon": 0.0, "lat": 38.92313, "lon": -77.04045016666667, "bike_id": "babc8d04d4ecada10ed158a2da884288", "rental_uris": {"android": "https://dc.lft.to/lastmile_qr_scan", "ios": "https://dc.lft.to/lastmile_qr_scan"}, "fusion_lat": 0.0, "name": "babc8d04d4ecada10ed158a2da884288", "is_reserved": 0, "is_disabled": 0, "type": "electric_scooter"}, {"fusion_lon": 0.0, "lat": 38.894893333333336, "lon": -77.02301116666666, "bike_id": "da9b118924f9b552c17944d3a36b7c1b", "rental_uris": {"android": "https://dc.lft.to/lastmile_qr_scan", "ios": "https://dc.lft.to/lastmile_qr_scan"}, "fusion_lat": 0.0, "name": "da9b118924f9b552c17944d3a36b7c1b", "is_reserved": 0, "is_disabled": 0, "type": "electric_scooter"}, {"fusion_lon": 0.0, "lat": 38.877044, "lon": -77.01766366666666, "bike_id": "d507dd68ac397f6a15867693db90cffa", "rental_uris": {"android": "https://dc.lft.to/lastmile_qr_scan", "ios": "https://dc.lft.to/lastmile_qr_scan"}, "fusion_lat": 0.0, "name": "d507dd68ac397f6a15867693db90cffa", "is_reserved": 0, "is_disabled": 0, "type": "electric_scooter"}, {"fusion_lon": 0.0, "lat": 38.9097265, "lon": -77.06490283333333, "bike_id": "d8c30585a6f215d309711c282f8cd2ae", "rental_uris": {"android": "https://dc.lft.to/lastmile_qr_scan", "ios": "https://dc.lft.to/lastmile_qr_scan"}, "fusion_lat": 0.0, "name": "d8c30585a6f215d309711c282f8cd2ae", "is_reserved": 0, "is_disabled": 0, "type": "electric_bike"}, {"fusion_lon": 0.0, "lat": 38.9009835, "lon": -76.98105766666667, "bike_id": "094d331005bb633456c62e6ff879d489", "rental_uris": {"android": "https://dc.lft.to/lastmile_qr_scan", "ios": "https://dc.lft.to/lastmile_qr_scan"}, "fusion_lat": 0.0, "name": "094d331005bb633456c62e6ff879d489", "is_reserved": 0, "is_disabled": 0, "type": "electric_scooter"}, {"fusion_lon": 0.0, "lat": 38.92463433333333, "lon": -77.038311, "bike_id": "bf5a0d006c786ef89f9f58dc2ed258dc", "rental_uris": {"android": "https://dc.lft.to/lastmile_qr_scan", "ios": "https://dc.lft.to/lastmile_qr_scan"}, "fusion_lat": 0.0, "name": "bf5a0d006c786ef89f9f58dc2ed258dc", "is_reserved": 0, "is_disabled": 0, "type": "electric_scooter"}, {"fusion_lon": 0.0, "lat": 38.89878983333333, "lon": -76.9884115, "bike_id": "aa8ddb92a979f443401ef543085304de", "rental_uris": {"android": "https://dc.lft.to/lastmile_qr_scan", "ios": "https://dc.lft.to/lastmile_qr_scan"}, "fusion_lat": 0.0, "name": "aa8ddb92a979f443401ef543085304de", "is_reserved": 0, "is_disabled": 0, "type": "electric_scooter"}, {"fusion_lon": 0.0, "lat": 38.892220333333334, "lon": -77.04133766666666, "bike_id": "d8eb2b4dbe009801b838e340068fb7d1", "rental_uris": {"android": "https://dc.lft.to/lastmile_qr_scan", "ios": "https://dc.lft.to/lastmile_qr_scan"}, "fusion_lat": 0.0, "name": "d8eb2b4dbe009801b838e340068fb7d1", "is_reserved": 0, "is_disabled": 0, "type": "electric_scooter"}, {"fusion_lon": 0.0, "lat": 38.9094145, "lon": -77.02393766666667, "bike_id": "6343867a8ad1018ae263babdcdfb3e59", "rental_uris": {"android": "https://dc.lft.to/lastmile_qr_scan", "ios": "https://dc.lft.to/lastmile_qr_scan"}, "fusion_lat": 0.0, "name": "6343867a8ad1018ae263babdcdfb3e59", "is_reserved": 0, "is_disabled": 0, "type": "electric_scooter"}, {"fusion_lon": 0.0, "lat": 38.9016995, "lon": -77.03648583333333, "bike_id": "e5fb79f89569873b23761bf90d71d4cd", "rental_uris": {"android": "https://dc.lft.to/lastmile_qr_scan", "ios": "https://dc.lft.to/lastmile_qr_scan"}, "fusion_lat": 0.0, "name": "e5fb79f89569873b23761bf90d71d4cd", "is_reserved": 0, "is_disabled": 0, "type": "electric_scooter"}, {"fusion_lon": 0.0, "lat": 38.900439666666664, "lon": -77.0440935, "bike_id": "5a582644e1afc3753659d307d7b2f587", "rental_uris": {"android": "https://dc.lft.to/lastmile_qr_scan", "ios": "https://dc.lft.to/lastmile_qr_scan"}, "fusion_lat": 0.0, "name": "5a582644e1afc3753659d307d7b2f587", "is_reserved": 0, "is_disabled": 0, "type": "electric_scooter"}, {"fusion_lon": 0.0, "lat": 38.919748166666665, "lon": -77.027646, "bike_id": "fb47cc8086c46dea5eebac4807a4b453", "rental_uris": {"android": "https://dc.lft.to/lastmile_qr_scan", "ios": "https://dc.lft.to/lastmile_qr_scan"}, "fusion_lat": 0.0, "name": "fb47cc8086c46dea5eebac4807a4b453", "is_reserved": 0, "is_disabled": 0, "type": "electric_scooter"}, {"fusion_lon": 0.0, "lat": 38.89969716666667, "lon": -77.04222433333334, "bike_id": "958209a05f4b7923d9f0e896f70189b7", "rental_uris": {"android": "https://dc.lft.to/lastmile_qr_scan", "ios": "https://dc.lft.to/lastmile_qr_scan"}, "fusion_lat": 0.0, "name": "958209a05f4b7923d9f0e896f70189b7", "is_reserved": 0, "is_disabled": 0, "type": "electric_scooter"}, {"fusion_lon": 0.0, "lat": 38.92309433333333, "lon": -77.044109, "bike_id": "13a76f91e9a45b42a6c65076d88cea41", "rental_uris": {"android": "https://dc.lft.to/lastmile_qr_scan", "ios": "https://dc.lft.to/lastmile_qr_scan"}, "fusion_lat": 0.0, "name": "13a76f91e9a45b42a6c65076d88cea41", "is_reserved": 0, "is_disabled": 0, "type": "electric_scooter"}, {"fusion_lon": 0.0, "lat": 38.88763616666667, "lon": -77.00213783333334, "bike_id": "3b62a7c4113bcc497dd44757f2450785", "rental_uris": {"android": "https://dc.lft.to/lastmile_qr_scan", "ios": "https://dc.lft.to/lastmile_qr_scan"}, "fusion_lat": 0.0, "name": "3b62a7c4113bcc497dd44757f2450785", "is_reserved": 0, "is_disabled": 0, "type": "electric_scooter"}, {"fusion_lon": 0.0, "lat": 38.89906933333333, "lon": -76.98823716666666, "bike_id": "247e745d0ba141e5227c14d65e453b5f", "rental_uris": {"android": "https://dc.lft.to/lastmile_qr_scan", "ios": "https://dc.lft.to/lastmile_qr_scan"}, "fusion_lat": 0.0, "name": "247e745d0ba141e5227c14d65e453b5f", "is_reserved": 0, "is_disabled": 0, "type": "electric_scooter"}, {"fusion_lon": 0.0, "lat": 38.90776283333334, "lon": -77.01081433333333, "bike_id": "19619052be06df1a21653192c6d508f6", "rental_uris": {"android": "https://dc.lft.to/lastmile_qr_scan", "ios": "https://dc.lft.to/lastmile_qr_scan"}, "fusion_lat": 0.0, "name": "19619052be06df1a21653192c6d508f6", "is_reserved": 0, "is_disabled": 0, "type": "electric_scooter"}, {"fusion_lon": 0.0, "lat": 38.912367833333334, "lon": -77.00117483333334, "bike_id": "8838832ce26cd6534b20f5bcc4aa48e1", "rental_uris": {"android": "https://dc.lft.to/lastmile_qr_scan", "ios": "https://dc.lft.to/lastmile_qr_scan"}, "fusion_lat": 0.0, "name": "8838832ce26cd6534b20f5bcc4aa48e1", "is_reserved": 0, "is_disabled": 0, "type": "electric_scooter"}, {"fusion_lon": 0.0, "lat": 38.89219216666667, "lon": -77.04272383333333, "bike_id": "c2c0e03b1e07e3a2949ecb747fd5715b", "rental_uris": {"android": "https://dc.lft.to/lastmile_qr_scan", "ios": "https://dc.lft.to/lastmile_qr_scan"}, "fusion_lat": 0.0, "name": "c2c0e03b1e07e3a2949ecb747fd5715b", "is_reserved": 0, "is_disabled": 0, "type": "electric_scooter"}, {"fusion_lon": 0.0, "lat": 38.92237, "lon": -77.03667483333334, "bike_id": "8b080a5293b13a7f2c5c17e7f496ebbd", "rental_uris": {"android": "https://dc.lft.to/lastmile_qr_scan", "ios": "https://dc.lft.to/lastmile_qr_scan"}, "fusion_lat": 0.0, "name": "8b080a5293b13a7f2c5c17e7f496ebbd", "is_reserved": 0, "is_disabled": 0, "type": "electric_scooter"}, {"fusion_lon": 0.0, "lat": 38.920916, "lon": -77.02551633333333, "bike_id": "c55d24b7fd5ff4f5a64425fae11362d3", "rental_uris": {"android": "https://dc.lft.to/lastmile_qr_scan", "ios": "https://dc.lft.to/lastmile_qr_scan"}, "fusion_lat": 0.0, "name": "c55d24b7fd5ff4f5a64425fae11362d3", "is_reserved": 0, "is_disabled": 0, "type": "electric_scooter"}, {"fusion_lon": 0.0, "lat": 38.9168345, "lon": -77.038267, "bike_id": "837ccc7067b13109b3a0096eced46dac", "rental_uris": {"android": "https://dc.lft.to/lastmile_qr_scan", "ios": "https://dc.lft.to/lastmile_qr_scan"}, "fusion_lat": 0.0, "name": "837ccc7067b13109b3a0096eced46dac", "is_reserved": 0, "is_disabled": 0, "type": "electric_scooter"}, {"fusion_lon": 0.0, "lat": 38.92339833333333, "lon": -77.03497916666667, "bike_id": "1e1e24df0b62dceb282da5903f73588d", "rental_uris": {"android": "https://dc.lft.to/lastmile_qr_scan", "ios": "https://dc.lft.to/lastmile_qr_scan"}, "fusion_lat": 0.0, "name": "1e1e24df0b62dceb282da5903f73588d", "is_reserved": 0, "is_disabled": 0, "type": "electric_scooter"}, {"fusion_lon": 0.0, "lat": 38.83811866666667, "lon": -77.09523683333333, "bike_id": "6d20f3af9a4f1e17521ddc2000fd47c5", "rental_uris": {"android": "https://dc.lft.to/lastmile_qr_scan", "ios": "https://dc.lft.to/lastmile_qr_scan"}, "fusion_lat": 0.0, "name": "6d20f3af9a4f1e17521ddc2000fd47c5", "is_reserved": 0, "is_disabled": 0, "type": "electric_bike"}, {"fusion_lon": 0.0, "lat": 38.9528715, "lon": -77.0135945, "bike_id": "262faa3b04a6d5690beeacb8183606e8", "rental_uris": {"android": "https://dc.lft.to/lastmile_qr_scan", "ios": "https://dc.lft.to/lastmile_qr_scan"}, "fusion_lat": 0.0, "name": "262faa3b04a6d5690beeacb8183606e8", "is_reserved": 0, "is_disabled": 0, "type": "electric_scooter"}, {"fusion_lon": 0.0, "lat": 38.89685383333333, "lon": -76.92795783333334, "bike_id": "3214b704035f15f2bde208174abdb8cd", "rental_uris": {"android": "https://dc.lft.to/lastmile_qr_scan", "ios": "https://dc.lft.to/lastmile_qr_scan"}, "fusion_lat": 0.0, "name": "3214b704035f15f2bde208174abdb8cd", "is_reserved": 0, "is_disabled": 0, "type": "electric_scooter"}, {"fusion_lon": 0.0, "lat": 38.90081983333334, "lon": -77.043582, "bike_id": "ed472163dc67827d4a5c5f153e6755a0", "rental_uris": {"android": "https://dc.lft.to/lastmile_qr_scan", "ios": "https://dc.lft.to/lastmile_qr_scan"}, "fusion_lat": 0.0, "name": "ed472163dc67827d4a5c5f153e6755a0", "is_reserved": 0, "is_disabled": 0, "type": "electric_scooter"}, {"fusion_lon": 0.0, "lat": 38.924945666666666, "lon": -77.039327, "bike_id": "a21efb9c4e67e741ae12f19af9ea24ec", "rental_uris": {"android": "https://dc.lft.to/lastmile_qr_scan", "ios": "https://dc.lft.to/lastmile_qr_scan"}, "fusion_lat": 0.0, "name": "a21efb9c4e67e741ae12f19af9ea24ec", "is_reserved": 0, "is_disabled": 0, "type": "electric_scooter"}, {"fusion_lon": 0.0, "lat": 38.90802733333334, "lon": -77.03197583333333, "bike_id": "0bd038d677247c0384fee872f199b6b1", "rental_uris": {"android": "https://dc.lft.to/lastmile_qr_scan", "ios": "https://dc.lft.to/lastmile_qr_scan"}, "fusion_lat": 0.0, "name": "0bd038d677247c0384fee872f199b6b1", "is_reserved": 0, "is_disabled": 0, "type": "electric_scooter"}, {"fusion_lon": 0.0, "lat": 38.88669483333334, "lon": -77.03200833333334, "bike_id": "e8503619e6d3a3c4efff0e782c787909", "rental_uris": {"android": "https://dc.lft.to/lastmile_qr_scan", "ios": "https://dc.lft.to/lastmile_qr_scan"}, "fusion_lat": 0.0, "name": "e8503619e6d3a3c4efff0e782c787909", "is_reserved": 0, "is_disabled": 0, "type": "electric_scooter"}, {"fusion_lon": 0.0, "lat": 38.89962766666667, "lon": -77.02721166666667, "bike_id": "fb7cb56aa1a761410aa462e5eaf744ba", "rental_uris": {"android": "https://dc.lft.to/lastmile_qr_scan", "ios": "https://dc.lft.to/lastmile_qr_scan"}, "fusion_lat": 0.0, "name": "fb7cb56aa1a761410aa462e5eaf744ba", "is_reserved": 0, "is_disabled": 0, "type": "electric_scooter"}, {"fusion_lon": 0.0, "lat": 38.9263535, "lon": -77.03708116666667, "bike_id": "849f060d68abf17496b691037f375b47", "rental_uris": {"android": "https://dc.lft.to/lastmile_qr_scan", "ios": "https://dc.lft.to/lastmile_qr_scan"}, "fusion_lat": 0.0, "name": "849f060d68abf17496b691037f375b47", "is_reserved": 0, "is_disabled": 0, "type": "electric_scooter"}, {"fusion_lon": 0.0, "lat": 38.90405616666666, "lon": -76.97345366666667, "bike_id": "49817870968f067b429c44964d5a16c3", "rental_uris": {"android": "https://dc.lft.to/lastmile_qr_scan", "ios": "https://dc.lft.to/lastmile_qr_scan"}, "fusion_lat": 0.0, "name": "49817870968f067b429c44964d5a16c3", "is_reserved": 0, "is_disabled": 0, "type": "electric_scooter"}, {"fusion_lon": 0.0, "lat": 38.9206855, "lon": -77.042546, "bike_id": "795196e6595beff87d8986b6d89bb1c7", "rental_uris": {"android": "https://dc.lft.to/lastmile_qr_scan", "ios": "https://dc.lft.to/lastmile_qr_scan"}, "fusion_lat": 0.0, "name": "795196e6595beff87d8986b6d89bb1c7", "is_reserved": 0, "is_disabled": 0, "type": "electric_scooter"}, {"fusion_lon": 0.0, "lat": 38.93537516666667, "lon": -77.0730275, "bike_id": "3976af55080594d23f76bb980b5d483e", "rental_uris": {"android": "https://dc.lft.to/lastmile_qr_scan", "ios": "https://dc.lft.to/lastmile_qr_scan"}, "fusion_lat": 0.0, "name": "3976af55080594d23f76bb980b5d483e", "is_reserved": 0, "is_disabled": 0, "type": "electric_scooter"}, {"fusion_lon": 0.0, "lat": 38.90386316666667, "lon": -76.98083516666667, "bike_id": "d99c55fc343ff5c8e931e46a04ac56c4", "rental_uris": {"android": "https://dc.lft.to/lastmile_qr_scan", "ios": "https://dc.lft.to/lastmile_qr_scan"}, "fusion_lat": 0.0, "name": "d99c55fc343ff5c8e931e46a04ac56c4", "is_reserved": 0, "is_disabled": 0, "type": "electric_scooter"}, {"fusion_lon": 0.0, "lat": 38.9244, "lon": -77.0403415, "bike_id": "1d782ce91f898be8e130c434cd0b4db5", "rental_uris": {"android": "https://dc.lft.to/lastmile_qr_scan", "ios": "https://dc.lft.to/lastmile_qr_scan"}, "fusion_lat": 0.0, "name": "1d782ce91f898be8e130c434cd0b4db5", "is_reserved": 0, "is_disabled": 0, "type": "electric_scooter"}, {"fusion_lon": 0.0, "lat": 38.88788983333333, "lon": -76.9533635, "bike_id": "aeebceb1c7c515cb948b4f0d07c6ce53", "rental_uris": {"android": "https://dc.lft.to/lastmile_qr_scan", "ios": "https://dc.lft.to/lastmile_qr_scan"}, "fusion_lat": 0.0, "name": "aeebceb1c7c515cb948b4f0d07c6ce53", "is_reserved": 0, "is_disabled": 0, "type": "electric_scooter"}, {"fusion_lon": 0.0, "lat": 38.92506083333333, "lon": -77.02575666666667, "bike_id": "99d052e3ce54b2354482537a4ddccb31", "rental_uris": {"android": "https://dc.lft.to/lastmile_qr_scan", "ios": "https://dc.lft.to/lastmile_qr_scan"}, "fusion_lat": 0.0, "name": "99d052e3ce54b2354482537a4ddccb31", "is_reserved": 0, "is_disabled": 0, "type": "electric_scooter"}, {"fusion_lon": 0.0, "lat": 38.91251033333333, "lon": -77.03866683333334, "bike_id": "4d9c92cb926cde8f338bad51b7e7b6a7", "rental_uris": {"android": "https://dc.lft.to/lastmile_qr_scan", "ios": "https://dc.lft.to/lastmile_qr_scan"}, "fusion_lat": 0.0, "name": "4d9c92cb926cde8f338bad51b7e7b6a7", "is_reserved": 0, "is_disabled": 0, "type": "electric_scooter"}, {"fusion_lon": 0.0, "lat": 38.89732133333333, "lon": -77.02502633333333, "bike_id": "4f6258b91c25ee6eb7407a009cdf03fa", "rental_uris": {"android": "https://dc.lft.to/lastmile_qr_scan", "ios": "https://dc.lft.to/lastmile_qr_scan"}, "fusion_lat": 0.0, "name": "4f6258b91c25ee6eb7407a009cdf03fa", "is_reserved": 0, "is_disabled": 0, "type": "electric_scooter"}, {"fusion_lon": 0.0, "lat": 38.87996783333333, "lon": -76.98546916666666, "bike_id": "422b59abec2f52f3754218f8982976a0", "rental_uris": {"android": "https://dc.lft.to/lastmile_qr_scan", "ios": "https://dc.lft.to/lastmile_qr_scan"}, "fusion_lat": 0.0, "name": "422b59abec2f52f3754218f8982976a0", "is_reserved": 0, "is_disabled": 0, "type": "electric_scooter"}, {"fusion_lon": 0.0, "lat": 38.905294833333336, "lon": -77.06094866666666, "bike_id": "fae2585f84f8d32a6b22e1908dbcaac7", "rental_uris": {"android": "https://dc.lft.to/lastmile_qr_scan", "ios": "https://dc.lft.to/lastmile_qr_scan"}, "fusion_lat": 0.0, "name": "fae2585f84f8d32a6b22e1908dbcaac7", "is_reserved": 0, "is_disabled": 0, "type": "electric_scooter"}, {"fusion_lon": 0.0, "lat": 38.90907966666666, "lon": -77.02299266666667, "bike_id": "52e8bc0bd275d3444854edc05ce5d4b7", "rental_uris": {"android": "https://dc.lft.to/lastmile_qr_scan", "ios": "https://dc.lft.to/lastmile_qr_scan"}, "fusion_lat": 0.0, "name": "52e8bc0bd275d3444854edc05ce5d4b7", "is_reserved": 0, "is_disabled": 0, "type": "electric_scooter"}, {"fusion_lon": 0.0, "lat": 38.9000635, "lon": -76.99173533333334, "bike_id": "3a424732e6d400e479d6515bfa15acd4", "rental_uris": {"android": "https://dc.lft.to/lastmile_qr_scan", "ios": "https://dc.lft.to/lastmile_qr_scan"}, "fusion_lat": 0.0, "name": "3a424732e6d400e479d6515bfa15acd4", "is_reserved": 0, "is_disabled": 0, "type": "electric_scooter"}, {"fusion_lon": 0.0, "lat": 38.955981333333334, "lon": -76.9647905, "bike_id": "9cfd2248228b7ce37a1d3755b00dc694", "rental_uris": {"android": "https://dc.lft.to/lastmile_qr_scan", "ios": "https://dc.lft.to/lastmile_qr_scan"}, "fusion_lat": 0.0, "name": "9cfd2248228b7ce37a1d3755b00dc694", "is_reserved": 0, "is_disabled": 0, "type": "electric_bike"}, {"fusion_lon": 0.0, "lat": 38.901373, "lon": -76.98966016666667, "bike_id": "7fb9a15e845a2f3e0b289c620ab24d2d", "rental_uris": {"android": "https://dc.lft.to/lastmile_qr_scan", "ios": "https://dc.lft.to/lastmile_qr_scan"}, "fusion_lat": 0.0, "name": "7fb9a15e845a2f3e0b289c620ab24d2d", "is_reserved": 0, "is_disabled": 0, "type": "electric_scooter"}, {"fusion_lon": 0.0, "lat": 38.89220316666667, "lon": -77.0322515, "bike_id": "ccdbb45d2a0d8ef8abbcb515b666c40c", "rental_uris": {"android": "https://dc.lft.to/lastmile_qr_scan", "ios": "https://dc.lft.to/lastmile_qr_scan"}, "fusion_lat": 0.0, "name": "ccdbb45d2a0d8ef8abbcb515b666c40c", "is_reserved": 0, "is_disabled": 0, "type": "electric_scooter"}, {"fusion_lon": 0.0, "lat": 38.89937716666667, "lon": -77.02966566666667, "bike_id": "d01fe52744fd375f470dc7b493e0a18f", "rental_uris": {"android": "https://dc.lft.to/lastmile_qr_scan", "ios": "https://dc.lft.to/lastmile_qr_scan"}, "fusion_lat": 0.0, "name": "d01fe52744fd375f470dc7b493e0a18f", "is_reserved": 0, "is_disabled": 0, "type": "electric_scooter"}, {"fusion_lon": 0.0, "lat": 38.871105666666665, "lon": -77.00632383333334, "bike_id": "ef33cd2842f9004bd3113255929194cf", "rental_uris": {"android": "https://dc.lft.to/lastmile_qr_scan", "ios": "https://dc.lft.to/lastmile_qr_scan"}, "fusion_lat": 0.0, "name": "ef33cd2842f9004bd3113255929194cf", "is_reserved": 0, "is_disabled": 0, "type": "electric_scooter"}, {"fusion_lon": 0.0, "lat": 38.892216, "lon": -77.044712, "bike_id": "ff2e3af9e236c244595ebda662a5bf62", "rental_uris": {"android": "https://dc.lft.to/lastmile_qr_scan", "ios": "https://dc.lft.to/lastmile_qr_scan"}, "fusion_lat": 0.0, "name": "ff2e3af9e236c244595ebda662a5bf62", "is_reserved": 0, "is_disabled": 0, "type": "electric_scooter"}, {"fusion_lon": 0.0, "lat": 38.962205833333336, "lon": -77.01356266666667, "bike_id": "fea2b1b3da24cdeb4fa453b3f7ec0e6a", "rental_uris": {"android": "https://dc.lft.to/lastmile_qr_scan", "ios": "https://dc.lft.to/lastmile_qr_scan"}, "fusion_lat": 0.0, "name": "fea2b1b3da24cdeb4fa453b3f7ec0e6a", "is_reserved": 0, "is_disabled": 0, "type": "electric_scooter"}, {"fusion_lon": 0.0, "lat": 38.902427833333334, "lon": -77.045945, "bike_id": "ec2f90c15d75726eabe14432b6accaf6", "rental_uris": {"android": "https://dc.lft.to/lastmile_qr_scan", "ios": "https://dc.lft.to/lastmile_qr_scan"}, "fusion_lat": 0.0, "name": "ec2f90c15d75726eabe14432b6accaf6", "is_reserved": 0, "is_disabled": 0, "type": "electric_scooter"}, {"fusion_lon": 0.0, "lat": 38.929606, "lon": -77.01150366666667, "bike_id": "787379df626889ab2578e3b40430a35d", "rental_uris": {"android": "https://dc.lft.to/lastmile_qr_scan", "ios": "https://dc.lft.to/lastmile_qr_scan"}, "fusion_lat": 0.0, "name": "787379df626889ab2578e3b40430a35d", "is_reserved": 0, "is_disabled": 0, "type": "electric_scooter"}, {"fusion_lon": 0.0, "lat": 38.892211833333334, "lon": -77.04684616666667, "bike_id": "0394d410b902b1f62a7e8d0dceb6ff7f", "rental_uris": {"android": "https://dc.lft.to/lastmile_qr_scan", "ios": "https://dc.lft.to/lastmile_qr_scan"}, "fusion_lat": 0.0, "name": "0394d410b902b1f62a7e8d0dceb6ff7f", "is_reserved": 0, "is_disabled": 0, "type": "electric_scooter"}, {"fusion_lon": 0.0, "lat": 38.919736666666665, "lon": -77.02178816666667, "bike_id": "a79ab488e705e0dff28ecb4e78edbd43", "rental_uris": {"android": "https://dc.lft.to/lastmile_qr_scan", "ios": "https://dc.lft.to/lastmile_qr_scan"}, "fusion_lat": 0.0, "name": "a79ab488e705e0dff28ecb4e78edbd43", "is_reserved": 0, "is_disabled": 0, "type": "electric_scooter"}, {"fusion_lon": 0.0, "lat": 38.900378333333336, "lon": -77.04342433333333, "bike_id": "0c85086f324c255a913d0e185758ec70", "rental_uris": {"android": "https://dc.lft.to/lastmile_qr_scan", "ios": "https://dc.lft.to/lastmile_qr_scan"}, "fusion_lat": 0.0, "name": "0c85086f324c255a913d0e185758ec70", "is_reserved": 0, "is_disabled": 0, "type": "electric_scooter"}, {"fusion_lon": 0.0, "lat": 38.78459316666667, "lon": -77.0544145, "bike_id": "69f4a80ea932015e19411508035024a8", "rental_uris": {"android": "https://dc.lft.to/lastmile_qr_scan", "ios": "https://dc.lft.to/lastmile_qr_scan"}, "fusion_lat": 0.0, "name": "69f4a80ea932015e19411508035024a8", "is_reserved": 0, "is_disabled": 0, "type": "electric_bike"}, {"fusion_lon": 0.0, "lat": 38.92790683333333, "lon": -77.0155175, "bike_id": "c3f0d4dcc779b31d40b5972480815687", "rental_uris": {"android": "https://dc.lft.to/lastmile_qr_scan", "ios": "https://dc.lft.to/lastmile_qr_scan"}, "fusion_lat": 0.0, "name": "c3f0d4dcc779b31d40b5972480815687", "is_reserved": 0, "is_disabled": 0, "type": "electric_scooter"}, {"fusion_lon": 0.0, "lat": 38.884928333333335, "lon": -77.0071495, "bike_id": "63139ab22635c0044abd4cd315a395b3", "rental_uris": {"android": "https://dc.lft.to/lastmile_qr_scan", "ios": "https://dc.lft.to/lastmile_qr_scan"}, "fusion_lat": 0.0, "name": "63139ab22635c0044abd4cd315a395b3", "is_reserved": 0, "is_disabled": 0, "type": "electric_scooter"}, {"fusion_lon": 0.0, "lat": 38.911104333333334, "lon": -77.04521433333333, "bike_id": "f3fcbf4d51681876a301b67ac7e631ad", "rental_uris": {"android": "https://dc.lft.to/lastmile_qr_scan", "ios": "https://dc.lft.to/lastmile_qr_scan"}, "fusion_lat": 0.0, "name": "f3fcbf4d51681876a301b67ac7e631ad", "is_reserved": 0, "is_disabled": 0, "type": "electric_scooter"}, {"fusion_lon": 0.0, "lat": 38.90389666666667, "lon": -77.06851616666667, "bike_id": "ed76e35ad8fe783116b6306317527590", "rental_uris": {"android": "https://dc.lft.to/lastmile_qr_scan", "ios": "https://dc.lft.to/lastmile_qr_scan"}, "fusion_lat": 0.0, "name": "ed76e35ad8fe783116b6306317527590", "is_reserved": 0, "is_disabled": 0, "type": "electric_scooter"}, {"fusion_lon": 0.0, "lat": 38.904192, "lon": -77.03451233333334, "bike_id": "e6c619ff544c8607bb2d31e1f57960e4", "rental_uris": {"android": "https://dc.lft.to/lastmile_qr_scan", "ios": "https://dc.lft.to/lastmile_qr_scan"}, "fusion_lat": 0.0, "name": "e6c619ff544c8607bb2d31e1f57960e4", "is_reserved": 0, "is_disabled": 0, "type": "electric_scooter"}, {"fusion_lon": 0.0, "lat": 38.89231483333333, "lon": -77.03210633333333, "bike_id": "f33dad4bd87155130a2e88eb21441c28", "rental_uris": {"android": "https://dc.lft.to/lastmile_qr_scan", "ios": "https://dc.lft.to/lastmile_qr_scan"}, "fusion_lat": 0.0, "name": "f33dad4bd87155130a2e88eb21441c28", "is_reserved": 0, "is_disabled": 0, "type": "electric_scooter"}, {"fusion_lon": 0.0, "lat": 38.92757966666667, "lon": -77.03212216666667, "bike_id": "5891feb18e23e41ccdff7700b484f6de", "rental_uris": {"android": "https://dc.lft.to/lastmile_qr_scan", "ios": "https://dc.lft.to/lastmile_qr_scan"}, "fusion_lat": 0.0, "name": "5891feb18e23e41ccdff7700b484f6de", "is_reserved": 0, "is_disabled": 0, "type": "electric_scooter"}, {"fusion_lon": 0.0, "lat": 38.899561166666665, "lon": -77.03354116666667, "bike_id": "7823544ee91b66f36e4732165631aeee", "rental_uris": {"android": "https://dc.lft.to/lastmile_qr_scan", "ios": "https://dc.lft.to/lastmile_qr_scan"}, "fusion_lat": 0.0, "name": "7823544ee91b66f36e4732165631aeee", "is_reserved": 0, "is_disabled": 0, "type": "electric_scooter"}, {"fusion_lon": 0.0, "lat": 38.90334983333333, "lon": -76.98281416666667, "bike_id": "855c7d88957b9902363c08da7c948327", "rental_uris": {"android": "https://dc.lft.to/lastmile_qr_scan", "ios": "https://dc.lft.to/lastmile_qr_scan"}, "fusion_lat": 0.0, "name": "855c7d88957b9902363c08da7c948327", "is_reserved": 0, "is_disabled": 0, "type": "electric_scooter"}, {"fusion_lon": 0.0, "lat": 38.87818083333333, "lon": -77.01970383333334, "bike_id": "b4a1abf32e9ee67ec1f7d49671eb7d66", "rental_uris": {"android": "https://dc.lft.to/lastmile_qr_scan", "ios": "https://dc.lft.to/lastmile_qr_scan"}, "fusion_lat": 0.0, "name": "b4a1abf32e9ee67ec1f7d49671eb7d66", "is_reserved": 0, "is_disabled": 0, "type": "electric_bike"}, {"fusion_lon": 0.0, "lat": 38.88703133333333, "lon": -77.02826033333334, "bike_id": "0a6ebba346e4a9114e53b4c8dbbfc98a", "rental_uris": {"android": "https://dc.lft.to/lastmile_qr_scan", "ios": "https://dc.lft.to/lastmile_qr_scan"}, "fusion_lat": 0.0, "name": "0a6ebba346e4a9114e53b4c8dbbfc98a", "is_reserved": 0, "is_disabled": 0, "type": "electric_scooter"}, {"fusion_lon": 0.0, "lat": 38.92857166666667, "lon": -77.033516, "bike_id": "72538c9ee38914586259baca0baa1afe", "rental_uris": {"android": "https://dc.lft.to/lastmile_qr_scan", "ios": "https://dc.lft.to/lastmile_qr_scan"}, "fusion_lat": 0.0, "name": "72538c9ee38914586259baca0baa1afe", "is_reserved": 0, "is_disabled": 0, "type": "electric_scooter"}, {"fusion_lon": 0.0, "lat": 38.88741183333333, "lon": -77.02576866666666, "bike_id": "3f8733b696e521140feeb3e6f81f04c3", "rental_uris": {"android": "https://dc.lft.to/lastmile_qr_scan", "ios": "https://dc.lft.to/lastmile_qr_scan"}, "fusion_lat": 0.0, "name": "3f8733b696e521140feeb3e6f81f04c3", "is_reserved": 0, "is_disabled": 0, "type": "electric_scooter"}, {"fusion_lon": 0.0, "lat": 38.89257583333333, "lon": -77.0021855, "bike_id": "055fc13c0044a34f9c53c42194541b8b", "rental_uris": {"android": "https://dc.lft.to/lastmile_qr_scan", "ios": "https://dc.lft.to/lastmile_qr_scan"}, "fusion_lat": 0.0, "name": "055fc13c0044a34f9c53c42194541b8b", "is_reserved": 0, "is_disabled": 0, "type": "electric_scooter"}, {"fusion_lon": 0.0, "lat": 38.89219383333333, "lon": -77.04358, "bike_id": "ee716b9db395d0ab44d422a80616b95d", "rental_uris": {"android": "https://dc.lft.to/lastmile_qr_scan", "ios": "https://dc.lft.to/lastmile_qr_scan"}, "fusion_lat": 0.0, "name": "ee716b9db395d0ab44d422a80616b95d", "is_reserved": 0, "is_disabled": 0, "type": "electric_scooter"}, {"fusion_lon": 0.0, "lat": 38.90034166666667, "lon": -77.04351683333333, "bike_id": "092ee407c035666e6733c818d5d001e4", "rental_uris": {"android": "https://dc.lft.to/lastmile_qr_scan", "ios": "https://dc.lft.to/lastmile_qr_scan"}, "fusion_lat": 0.0, "name": "092ee407c035666e6733c818d5d001e4", "is_reserved": 0, "is_disabled": 0, "type": "electric_scooter"}, {"fusion_lon": 0.0, "lat": 38.938117, "lon": -77.05998666666666, "bike_id": "9b98f3c54b9303af66c628d6b1aaa5a9", "rental_uris": {"android": "https://dc.lft.to/lastmile_qr_scan", "ios": "https://dc.lft.to/lastmile_qr_scan"}, "fusion_lat": 0.0, "name": "9b98f3c54b9303af66c628d6b1aaa5a9", "is_reserved": 0, "is_disabled": 0, "type": "electric_scooter"}, {"fusion_lon": 0.0, "lat": 38.900536, "lon": -77.05008333333333, "bike_id": "982343d4bd818d1960d9aad00c03d48e", "rental_uris": {"android": "https://dc.lft.to/lastmile_qr_scan", "ios": "https://dc.lft.to/lastmile_qr_scan"}, "fusion_lat": 0.0, "name": "982343d4bd818d1960d9aad00c03d48e", "is_reserved": 0, "is_disabled": 0, "type": "electric_scooter"}, {"fusion_lon": 0.0, "lat": 38.925173, "lon": -77.05239666666667, "bike_id": "37d6a52823e96456e4754c01cb3a6fcb", "rental_uris": {"android": "https://dc.lft.to/lastmile_qr_scan", "ios": "https://dc.lft.to/lastmile_qr_scan"}, "fusion_lat": 0.0, "name": "37d6a52823e96456e4754c01cb3a6fcb", "is_reserved": 0, "is_disabled": 0, "type": "electric_scooter"}, {"fusion_lon": 0.0, "lat": 38.918075333333334, "lon": -77.0344255, "bike_id": "53eaee1d7e4e0d1c43b8ec972f930215", "rental_uris": {"android": "https://dc.lft.to/lastmile_qr_scan", "ios": "https://dc.lft.to/lastmile_qr_scan"}, "fusion_lat": 0.0, "name": "53eaee1d7e4e0d1c43b8ec972f930215", "is_reserved": 0, "is_disabled": 0, "type": "electric_scooter"}, {"fusion_lon": 0.0, "lat": 38.899033833333334, "lon": -77.03276783333334, "bike_id": "e027063ed98874746eba061a9fb8d309", "rental_uris": {"android": "https://dc.lft.to/lastmile_qr_scan", "ios": "https://dc.lft.to/lastmile_qr_scan"}, "fusion_lat": 0.0, "name": "e027063ed98874746eba061a9fb8d309", "is_reserved": 0, "is_disabled": 0, "type": "electric_scooter"}, {"fusion_lon": 0.0, "lat": 38.90385633333333, "lon": -77.04400483333333, "bike_id": "53e510063ccde454305c73e79e441dec", "rental_uris": {"android": "https://dc.lft.to/lastmile_qr_scan", "ios": "https://dc.lft.to/lastmile_qr_scan"}, "fusion_lat": 0.0, "name": "53e510063ccde454305c73e79e441dec", "is_reserved": 0, "is_disabled": 0, "type": "electric_scooter"}, {"fusion_lon": 0.0, "lat": 38.92493866666667, "lon": -77.02403283333334, "bike_id": "9632272c291a8d91f476e7bc7c043460", "rental_uris": {"android": "https://dc.lft.to/lastmile_qr_scan", "ios": "https://dc.lft.to/lastmile_qr_scan"}, "fusion_lat": 0.0, "name": "9632272c291a8d91f476e7bc7c043460", "is_reserved": 0, "is_disabled": 0, "type": "electric_scooter"}, {"fusion_lon": 0.0, "lat": 38.92118816666667, "lon": -77.041227, "bike_id": "47de64414ae19c2faf720b57600410fd", "rental_uris": {"android": "https://dc.lft.to/lastmile_qr_scan", "ios": "https://dc.lft.to/lastmile_qr_scan"}, "fusion_lat": 0.0, "name": "47de64414ae19c2faf720b57600410fd", "is_reserved": 0, "is_disabled": 0, "type": "electric_scooter"}, {"fusion_lon": 0.0, "lat": 38.94177916666666, "lon": -77.03154216666667, "bike_id": "7d9bed0b6f33dcbbdfd88b41e2e456c2", "rental_uris": {"android": "https://dc.lft.to/lastmile_qr_scan", "ios": "https://dc.lft.to/lastmile_qr_scan"}, "fusion_lat": 0.0, "name": "7d9bed0b6f33dcbbdfd88b41e2e456c2", "is_reserved": 0, "is_disabled": 0, "type": "electric_scooter"}, {"fusion_lon": 0.0, "lat": 38.90136716666667, "lon": -77.03381766666666, "bike_id": "f81fc576cca36947f15b82fb4c10b39b", "rental_uris": {"android": "https://dc.lft.to/lastmile_qr_scan", "ios": "https://dc.lft.to/lastmile_qr_scan"}, "fusion_lat": 0.0, "name": "f81fc576cca36947f15b82fb4c10b39b", "is_reserved": 0, "is_disabled": 0, "type": "electric_scooter"}, {"fusion_lon": 0.0, "lat": 38.92790016666667, "lon": -77.03723133333334, "bike_id": "0c1a47298f5ffc9d4bc69089b568977f", "rental_uris": {"android": "https://dc.lft.to/lastmile_qr_scan", "ios": "https://dc.lft.to/lastmile_qr_scan"}, "fusion_lat": 0.0, "name": "0c1a47298f5ffc9d4bc69089b568977f", "is_reserved": 0, "is_disabled": 0, "type": "electric_scooter"}, {"fusion_lon": 0.0, "lat": 38.88706833333333, "lon": -76.983382, "bike_id": "8283c28ee2ac750b6ee0977a8873b265", "rental_uris": {"android": "https://dc.lft.to/lastmile_qr_scan", "ios": "https://dc.lft.to/lastmile_qr_scan"}, "fusion_lat": 0.0, "name": "8283c28ee2ac750b6ee0977a8873b265", "is_reserved": 0, "is_disabled": 0, "type": "electric_scooter"}, {"fusion_lon": 0.0, "lat": 38.89359533333333, "lon": -77.0034855, "bike_id": "be36ddb601c94439c01ea3fa3789e639", "rental_uris": {"android": "https://dc.lft.to/lastmile_qr_scan", "ios": "https://dc.lft.to/lastmile_qr_scan"}, "fusion_lat": 0.0, "name": "be36ddb601c94439c01ea3fa3789e639", "is_reserved": 0, "is_disabled": 0, "type": "electric_scooter"}, {"fusion_lon": 0.0, "lat": 38.99406783333333, "lon": -77.01805433333334, "bike_id": "2cdaa6fb208da41bddcfdd0bcf63dcca", "rental_uris": {"android": "https://dc.lft.to/lastmile_qr_scan", "ios": "https://dc.lft.to/lastmile_qr_scan"}, "fusion_lat": 0.0, "name": "2cdaa6fb208da41bddcfdd0bcf63dcca", "is_reserved": 0, "is_disabled": 0, "type": "electric_bike"}, {"fusion_lon": 0.0, "lat": 38.944646166666665, "lon": -76.986951, "bike_id": "5acf15b045743ae4bcbe7031522573e1", "rental_uris": {"android": "https://dc.lft.to/lastmile_qr_scan", "ios": "https://dc.lft.to/lastmile_qr_scan"}, "fusion_lat": 0.0, "name": "5acf15b045743ae4bcbe7031522573e1", "is_reserved": 0, "is_disabled": 0, "type": "electric_bike"}, {"fusion_lon": 0.0, "lat": 38.929575, "lon": -77.01147683333333, "bike_id": "da094e6c721746778a4c784c7195e52c", "rental_uris": {"android": "https://dc.lft.to/lastmile_qr_scan", "ios": "https://dc.lft.to/lastmile_qr_scan"}, "fusion_lat": 0.0, "name": "da094e6c721746778a4c784c7195e52c", "is_reserved": 0, "is_disabled": 0, "type": "electric_scooter"}, {"fusion_lon": 0.0, "lat": 38.902177333333334, "lon": -77.04586416666666, "bike_id": "46663819610e49851b8828a16782efa4", "rental_uris": {"android": "https://dc.lft.to/lastmile_qr_scan", "ios": "https://dc.lft.to/lastmile_qr_scan"}, "fusion_lat": 0.0, "name": "46663819610e49851b8828a16782efa4", "is_reserved": 0, "is_disabled": 0, "type": "electric_scooter"}, {"fusion_lon": 0.0, "lat": 38.951101, "lon": -77.01314783333333, "bike_id": "ff18d8d6f24357e314028a876f0cb6df", "rental_uris": {"android": "https://dc.lft.to/lastmile_qr_scan", "ios": "https://dc.lft.to/lastmile_qr_scan"}, "fusion_lat": 0.0, "name": "ff18d8d6f24357e314028a876f0cb6df", "is_reserved": 0, "is_disabled": 0, "type": "electric_scooter"}, {"fusion_lon": 0.0, "lat": 38.884896166666664, "lon": -77.01522183333333, "bike_id": "f95c91d2d74e2d2bb9f3f8e0cfb9e201", "rental_uris": {"android": "https://dc.lft.to/lastmile_qr_scan", "ios": "https://dc.lft.to/lastmile_qr_scan"}, "fusion_lat": 0.0, "name": "f95c91d2d74e2d2bb9f3f8e0cfb9e201", "is_reserved": 0, "is_disabled": 0, "type": "electric_scooter"}, {"fusion_lon": 0.0, "lat": 38.9233005, "lon": -77.03500416666667, "bike_id": "fbff1916867ae692147ec360cbb8f05a", "rental_uris": {"android": "https://dc.lft.to/lastmile_qr_scan", "ios": "https://dc.lft.to/lastmile_qr_scan"}, "fusion_lat": 0.0, "name": "fbff1916867ae692147ec360cbb8f05a", "is_reserved": 0, "is_disabled": 0, "type": "electric_scooter"}, {"fusion_lon": 0.0, "lat": 38.9324465, "lon": -77.032658, "bike_id": "92af9d60f66d91d153bda526f5e2623a", "rental_uris": {"android": "https://dc.lft.to/lastmile_qr_scan", "ios": "https://dc.lft.to/lastmile_qr_scan"}, "fusion_lat": 0.0, "name": "92af9d60f66d91d153bda526f5e2623a", "is_reserved": 0, "is_disabled": 0, "type": "electric_scooter"}, {"fusion_lon": 0.0, "lat": 38.89237383333333, "lon": -77.03200866666667, "bike_id": "a88c8744ea094adebc3b7af7001a0cc0", "rental_uris": {"android": "https://dc.lft.to/lastmile_qr_scan", "ios": "https://dc.lft.to/lastmile_qr_scan"}, "fusion_lat": 0.0, "name": "a88c8744ea094adebc3b7af7001a0cc0", "is_reserved": 0, "is_disabled": 0, "type": "electric_scooter"}, {"fusion_lon": 0.0, "lat": 38.932212666666665, "lon": -77.02694566666666, "bike_id": "d8d0c7d7705f0ecebbb74fc9fd79826d", "rental_uris": {"android": "https://dc.lft.to/lastmile_qr_scan", "ios": "https://dc.lft.to/lastmile_qr_scan"}, "fusion_lat": 0.0, "name": "d8d0c7d7705f0ecebbb74fc9fd79826d", "is_reserved": 0, "is_disabled": 0, "type": "electric_scooter"}, {"fusion_lon": 0.0, "lat": 38.92461316666667, "lon": -77.02715966666666, "bike_id": "e83b28b8f6be8886e8084528f4fbcaf2", "rental_uris": {"android": "https://dc.lft.to/lastmile_qr_scan", "ios": "https://dc.lft.to/lastmile_qr_scan"}, "fusion_lat": 0.0, "name": "e83b28b8f6be8886e8084528f4fbcaf2", "is_reserved": 0, "is_disabled": 0, "type": "electric_scooter"}, {"fusion_lon": 0.0, "lat": 38.96095366666667, "lon": -77.06761283333333, "bike_id": "f8316323c2e70806b23687562a49a207", "rental_uris": {"android": "https://dc.lft.to/lastmile_qr_scan", "ios": "https://dc.lft.to/lastmile_qr_scan"}, "fusion_lat": 0.0, "name": "f8316323c2e70806b23687562a49a207", "is_reserved": 0, "is_disabled": 0, "type": "electric_scooter"}, {"fusion_lon": 0.0, "lat": 38.90410583333333, "lon": -77.02515983333333, "bike_id": "9f4e6be956da7255383b3ca5852222bd", "rental_uris": {"android": "https://dc.lft.to/lastmile_qr_scan", "ios": "https://dc.lft.to/lastmile_qr_scan"}, "fusion_lat": 0.0, "name": "9f4e6be956da7255383b3ca5852222bd", "is_reserved": 0, "is_disabled": 0, "type": "electric_scooter"}, {"fusion_lon": 0.0, "lat": 38.943267666666664, "lon": -77.01312283333333, "bike_id": "a69ccb09011066a9a925867d20c0d094", "rental_uris": {"android": "https://dc.lft.to/lastmile_qr_scan", "ios": "https://dc.lft.to/lastmile_qr_scan"}, "fusion_lat": 0.0, "name": "a69ccb09011066a9a925867d20c0d094", "is_reserved": 0, "is_disabled": 0, "type": "electric_scooter"}, {"fusion_lon": 0.0, "lat": 38.92464783333333, "lon": -77.05239316666666, "bike_id": "3e567caedf1b7c67ea34a3a5621cb40c", "rental_uris": {"android": "https://dc.lft.to/lastmile_qr_scan", "ios": "https://dc.lft.to/lastmile_qr_scan"}, "fusion_lat": 0.0, "name": "3e567caedf1b7c67ea34a3a5621cb40c", "is_reserved": 0, "is_disabled": 0, "type": "electric_scooter"}, {"fusion_lon": 0.0, "lat": 38.93002333333333, "lon": -77.021284, "bike_id": "ba805737368680abade37bc2ad61d5f3", "rental_uris": {"android": "https://dc.lft.to/lastmile_qr_scan", "ios": "https://dc.lft.to/lastmile_qr_scan"}, "fusion_lat": 0.0, "name": "ba805737368680abade37bc2ad61d5f3", "is_reserved": 0, "is_disabled": 0, "type": "electric_scooter"}, {"fusion_lon": 0.0, "lat": 38.908090333333334, "lon": -77.03379366666667, "bike_id": "17d4baba028ffd8c5322f12605ad9f44", "rental_uris": {"android": "https://dc.lft.to/lastmile_qr_scan", "ios": "https://dc.lft.to/lastmile_qr_scan"}, "fusion_lat": 0.0, "name": "17d4baba028ffd8c5322f12605ad9f44", "is_reserved": 0, "is_disabled": 0, "type": "electric_scooter"}, {"fusion_lon": 0.0, "lat": 38.888171666666665, "lon": -76.97713216666666, "bike_id": "384055900472adf8a0c4168e614b4dfd", "rental_uris": {"android": "https://dc.lft.to/lastmile_qr_scan", "ios": "https://dc.lft.to/lastmile_qr_scan"}, "fusion_lat": 0.0, "name": "384055900472adf8a0c4168e614b4dfd", "is_reserved": 0, "is_disabled": 0, "type": "electric_scooter"}, {"fusion_lon": 0.0, "lat": 38.901581666666665, "lon": -76.980656, "bike_id": "61f6fbcdc93c576ba0b54e73fe488be8", "rental_uris": {"android": "https://dc.lft.to/lastmile_qr_scan", "ios": "https://dc.lft.to/lastmile_qr_scan"}, "fusion_lat": 0.0, "name": "61f6fbcdc93c576ba0b54e73fe488be8", "is_reserved": 0, "is_disabled": 0, "type": "electric_scooter"}, {"fusion_lon": 0.0, "lat": 39.0292255, "lon": -77.013638, "bike_id": "7c2a64d3d61871d03d76f00ec1b1e4e9", "rental_uris": {"android": "https://dc.lft.to/lastmile_qr_scan", "ios": "https://dc.lft.to/lastmile_qr_scan"}, "fusion_lat": 0.0, "name": "7c2a64d3d61871d03d76f00ec1b1e4e9", "is_reserved": 0, "is_disabled": 0, "type": "electric_bike"}, {"fusion_lon": 0.0, "lat": 38.9267095, "lon": -77.0275085, "bike_id": "fad657fc4a155bb4460052a13b01ce4c", "rental_uris": {"android": "https://dc.lft.to/lastmile_qr_scan", "ios": "https://dc.lft.to/lastmile_qr_scan"}, "fusion_lat": 0.0, "name": "fad657fc4a155bb4460052a13b01ce4c", "is_reserved": 0, "is_disabled": 0, "type": "electric_scooter"}, {"fusion_lon": 0.0, "lat": 38.906949166666664, "lon": -77.00979733333334, "bike_id": "3d8815d6175321f8cd955af8f91b1b60", "rental_uris": {"android": "https://dc.lft.to/lastmile_qr_scan", "ios": "https://dc.lft.to/lastmile_qr_scan"}, "fusion_lat": 0.0, "name": "3d8815d6175321f8cd955af8f91b1b60", "is_reserved": 0, "is_disabled": 0, "type": "electric_scooter"}, {"fusion_lon": 0.0, "lat": 38.91709916666667, "lon": -77.037271, "bike_id": "0844fb9d99c6c9d6f4ffbe19e42eec40", "rental_uris": {"android": "https://dc.lft.to/lastmile_qr_scan", "ios": "https://dc.lft.to/lastmile_qr_scan"}, "fusion_lat": 0.0, "name": "0844fb9d99c6c9d6f4ffbe19e42eec40", "is_reserved": 0, "is_disabled": 0, "type": "electric_scooter"}, {"fusion_lon": 0.0, "lat": 38.9167685, "lon": -77.015929, "bike_id": "29fae554b182434221f71f1691317eaf", "rental_uris": {"android": "https://dc.lft.to/lastmile_qr_scan", "ios": "https://dc.lft.to/lastmile_qr_scan"}, "fusion_lat": 0.0, "name": "29fae554b182434221f71f1691317eaf", "is_reserved": 0, "is_disabled": 0, "type": "electric_scooter"}, {"fusion_lon": 0.0, "lat": 38.899816, "lon": -77.01705833333334, "bike_id": "b5087438fa560f2d576cc2c3b19c0d36", "rental_uris": {"android": "https://dc.lft.to/lastmile_qr_scan", "ios": "https://dc.lft.to/lastmile_qr_scan"}, "fusion_lat": 0.0, "name": "b5087438fa560f2d576cc2c3b19c0d36", "is_reserved": 0, "is_disabled": 0, "type": "electric_scooter"}, {"fusion_lon": 0.0, "lat": 38.90909116666667, "lon": -76.98986816666667, "bike_id": "e3b290c5f65ce113e0be6f7013da5598", "rental_uris": {"android": "https://dc.lft.to/lastmile_qr_scan", "ios": "https://dc.lft.to/lastmile_qr_scan"}, "fusion_lat": 0.0, "name": "e3b290c5f65ce113e0be6f7013da5598", "is_reserved": 0, "is_disabled": 0, "type": "electric_scooter"}, {"fusion_lon": 0.0, "lat": 38.8870725, "lon": -76.98333633333333, "bike_id": "7abf384bde7ec19332a97d2539ec1a11", "rental_uris": {"android": "https://dc.lft.to/lastmile_qr_scan", "ios": "https://dc.lft.to/lastmile_qr_scan"}, "fusion_lat": 0.0, "name": "7abf384bde7ec19332a97d2539ec1a11", "is_reserved": 0, "is_disabled": 0, "type": "electric_scooter"}, {"fusion_lon": 0.0, "lat": 38.88042383333333, "lon": -77.005347, "bike_id": "d902c3620d672228672b5933f1458d49", "rental_uris": {"android": "https://dc.lft.to/lastmile_qr_scan", "ios": "https://dc.lft.to/lastmile_qr_scan"}, "fusion_lat": 0.0, "name": "d902c3620d672228672b5933f1458d49", "is_reserved": 0, "is_disabled": 0, "type": "electric_scooter"}, {"fusion_lon": 0.0, "lat": 38.89961733333333, "lon": -77.04618266666667, "bike_id": "b04b91fdc592baaef9542b80ec56214b", "rental_uris": {"android": "https://dc.lft.to/lastmile_qr_scan", "ios": "https://dc.lft.to/lastmile_qr_scan"}, "fusion_lat": 0.0, "name": "b04b91fdc592baaef9542b80ec56214b", "is_reserved": 0, "is_disabled": 0, "type": "electric_scooter"}, {"fusion_lon": 0.0, "lat": 38.885010333333334, "lon": -77.00570416666666, "bike_id": "c301dc38a60ff6e8f246186df7442fb6", "rental_uris": {"android": "https://dc.lft.to/lastmile_qr_scan", "ios": "https://dc.lft.to/lastmile_qr_scan"}, "fusion_lat": 0.0, "name": "c301dc38a60ff6e8f246186df7442fb6", "is_reserved": 0, "is_disabled": 0, "type": "electric_scooter"}, {"fusion_lon": 0.0, "lat": 38.900678166666665, "lon": -77.04963216666667, "bike_id": "7b9fdd577587a969046c331fbf6f7b91", "rental_uris": {"android": "https://dc.lft.to/lastmile_qr_scan", "ios": "https://dc.lft.to/lastmile_qr_scan"}, "fusion_lat": 0.0, "name": "7b9fdd577587a969046c331fbf6f7b91", "is_reserved": 0, "is_disabled": 0, "type": "electric_scooter"}, {"fusion_lon": 0.0, "lat": 38.84877066666667, "lon": -77.077751, "bike_id": "821d2d4ec2e9dbb8064503b2cc29527c", "rental_uris": {"android": "https://dc.lft.to/lastmile_qr_scan", "ios": "https://dc.lft.to/lastmile_qr_scan"}, "fusion_lat": 0.0, "name": "821d2d4ec2e9dbb8064503b2cc29527c", "is_reserved": 0, "is_disabled": 0, "type": "electric_bike"}, {"fusion_lon": 0.0, "lat": 38.902919833333335, "lon": -77.046906, "bike_id": "094886c210935b3530c4eee73486cf3b", "rental_uris": {"android": "https://dc.lft.to/lastmile_qr_scan", "ios": "https://dc.lft.to/lastmile_qr_scan"}, "fusion_lat": 0.0, "name": "094886c210935b3530c4eee73486cf3b", "is_reserved": 0, "is_disabled": 0, "type": "electric_scooter"}, {"fusion_lon": 0.0, "lat": 38.91564016666667, "lon": -77.00700983333333, "bike_id": "d3c4828a0011a10bda375bb5cb272505", "rental_uris": {"android": "https://dc.lft.to/lastmile_qr_scan", "ios": "https://dc.lft.to/lastmile_qr_scan"}, "fusion_lat": 0.0, "name": "d3c4828a0011a10bda375bb5cb272505", "is_reserved": 0, "is_disabled": 0, "type": "electric_scooter"}, {"fusion_lon": 0.0, "lat": 38.92504483333333, "lon": -77.02283666666666, "bike_id": "0e016dd4e7dd66336c1eb0a24e594713", "rental_uris": {"android": "https://dc.lft.to/lastmile_qr_scan", "ios": "https://dc.lft.to/lastmile_qr_scan"}, "fusion_lat": 0.0, "name": "0e016dd4e7dd66336c1eb0a24e594713", "is_reserved": 0, "is_disabled": 0, "type": "electric_scooter"},