{"data": {"bikes": [{"lat": 38.906357666666665, "is_disabled": 0, "type": "electric_scooter", "lon": -77.00834583333334, "bike_id": "03932247630e23b3fe88d33dc15790a1", "fusion_lat": 0.0, "name": "03932247630e23b3fe88d33dc15790a1", "is_reserved": 0, "rental_uris": {"android": "https://dc.lft.to/lastmile_qr_scan", "ios": "https://dc.lft.to/lastmile_qr_scan"}, "fusion_lon": 0.0}, {"lat": 38.89752083333333, "is_disabled": 0, "type": "electric_scooter", "lon": -77.00011683333334, "bike_id": "60baa7cb79e5d6f9cf809c43cfe0f53d", "fusion_lat": 0.0, "name": "60baa7cb79e5d6f9cf809c43cfe0f53d", "is_reserved": 0, "rental_uris": {"android": "https://dc.lft.to/lastmile_qr_scan", "ios": "https://dc.lft.to/lastmile_qr_scan"}, "fusion_lon": 0.0}, {"lat": 38.866568, "is_disabled": 0, "type": "electric_scooter", "lon": -76.98904516666667, "bike_id": "ac5da1f3d8b4dfa3c1fb19cfad5f05ee", "fusion_lat": 0.0, "name": "ac5da1f3d8b4dfa3c1fb19cfad5f05ee", "is_reserved": 0, "rental_uris": {"android": "https://dc.lft.to/lastmile_qr_scan", "ios": "https://dc.lft.to/lastmile_qr_scan"}, "fusion_lon": 0.0}, {"lat": 38.90965766666667, "is_disabled": 0, "type": "electric_scooter", "lon": -77.05268466666666, "bike_id": "f767a40e40f30b334351d3783b34c20b", "fusion_lat": 0.0, "name": "f767a40e40f30b334351d3783b34c20b", "is_reserved": 0, "rental_uris": {"android": "https://dc.lft.to/lastmile_qr_scan", "ios": "https://dc.lft.to/lastmile_qr_scan"}, "fusion_lon": 0.0}, {"lat": 38.929715333333334, "is_disabled": 0, "type": "electric_scooter", "lon": -77.03172533333333, "bike_id": "a69f9dc3101a1941569396fa8336b632", "fusion_lat": 0.0, "name": "a69f9dc3101a1941569396fa8336b632", "is_reserved": 0, "rental_uris": {"android": "https://dc.lft.to/lastmile_qr_scan", "ios": "https://dc.lft.to/lastmile_qr_scan"}, "fusion_lon": 0.0}, {"lat": 38.92135733333333, "is_disabled": 0, "type": "electric_scooter", "lon": -77.03663983333334, "bike_id": "b51f0bca017f95374dbbc50464481ab2", "fusion_lat": 0.0, "name": "b51f0bca017f95374dbbc50464481ab2", "is_reserved": 0, "rental_uris": {"android": "https://dc.lft.to/lastmile_qr_scan", "ios": "https://dc.lft.to/lastmile_qr_scan"}, "fusion_lon": 0.0}, {"lat": 38.89633716666667, "is_disabled": 0, "type": "electric_scooter", "lon": -77.046753, "bike_id": "689398ce5dfe911665a7aed1ce02837b", "fusion_lat": 0.0, "name": "689398ce5dfe911665a7aed1ce02837b", "is_reserved": 0, "rental_uris": {"android": "https://dc.lft.to/lastmile_qr_scan", "ios": "https://dc.lft.to/lastmile_qr_scan"}, "fusion_lon": 0.0}, {"lat": 38.9100935, "is_disabled": 0, "type": "electric_scooter", "lon": -77.03020783333334, "bike_id": "6c1f68ef82d0f75358b3c10c086535f3", "fusion_lat": 0.0, "name": "6c1f68ef82d0f75358b3c10c086535f3", "is_reserved": 0, "rental_uris": {"android": "https://dc.lft.to/lastmile_qr_scan", "ios": "https://dc.lft.to/lastmile_qr_scan"}, "fusion_lon": 0.0}, {"lat": 38.928396666666664, "is_disabled": 0, "type": "electric_scooter", "lon": -77.05427283333333, "bike_id": "a039e54d2557943e3d9ac00155e8844e", "fusion_lat": 0.0, "name": "a039e54d2557943e3d9ac00155e8844e", "is_reserved": 0, "rental_uris": {"android": "https://dc.lft.to/lastmile_qr_scan", "ios": "https://dc.lft.to/lastmile_qr_scan"}, "fusion_lon": 0.0}, {"lat": 38.938457666666665, "is_disabled": 0, "type": "electric_scooter", "lon": -77.03385883333333, "bike_id": "abaaaae09482e4011c62e2648f4a17f5", "fusion_lat": 0.0, "name": "abaaaae09482e4011c62e2648f4a17f5", "is_reserved": 0, "rental_uris": {"android": "https://dc.lft.to/lastmile_qr_scan", "ios": "https://dc.lft.to/lastmile_qr_scan"}, "fusion_lon": 0.0}, {"lat": 38.916834333333334, "is_disabled": 0, "type": "electric_scooter", "lon": -77.03035916666667, "bike_id": "bbe4dc6292cc2adbd83b72f45800fb3a", "fusion_lat": 0.0, "name": "bbe4dc6292cc2adbd83b72f45800fb3a", "is_reserved": 0, "rental_uris": {"android": "https://dc.lft.to/lastmile_qr_scan", "ios": "https://dc.lft.to/lastmile_qr_scan"}, "fusion_lon": 0.0}, {"lat": 38.93251633333333, "is_disabled": 0, "type": "electric_scooter", "lon": -77.04008266666666, "bike_id": "71bdb6e1f2f2a842d7ee33661663a07b", "fusion_lat": 0.0, "name": "71bdb6e1f2f2a842d7ee33661663a07b", "is_reserved": 0, "rental_uris": {"android": "https://dc.lft.to/lastmile_qr_scan", "ios": "https://dc.lft.to/lastmile_qr_scan"}, "fusion_lon": 0.0}, {"lat": 38.91045233333333, "is_disabled": 0, "type": "electric_scooter", "lon": -77.04125133333334, "bike_id": "08521747035fd29003a087fe3bb388c6", "fusion_lat": 0.0, "name": "08521747035fd29003a087fe3bb388c6", "is_reserved": 0, "rental_uris": {"android": "https://dc.lft.to/lastmile_qr_scan", "ios": "https://dc.lft.to/lastmile_qr_scan"}, "fusion_lon": 0.0}, {"lat": 38.936089333333335, "is_disabled": 0, "type": "electric_scooter", "lon": -77.056353, "bike_id": "2ca8f255c58bbf1eba429b519c93f834", "fusion_lat": 0.0, "name": "2ca8f255c58bbf1eba429b519c93f834", "is_reserved": 0, "rental_uris": {"android": "https://dc.lft.to/lastmile_qr_scan", "ios": "https://dc.lft.to/lastmile_qr_scan"}, "fusion_lon": 0.0}, {"lat": 38.90504516666667, "is_disabled": 0, "type": "electric_scooter", "lon": -77.04468, "bike_id": "6787212b7bf9a128767c42232fcb8034", "fusion_lat": 0.0, "name": "6787212b7bf9a128767c42232fcb8034", "is_reserved": 0, "rental_uris": {"android": "https://dc.lft.to/lastmile_qr_scan", "ios": "https://dc.lft.to/lastmile_qr_scan"}, "fusion_lon": 0.0}, {"lat": 38.91064683333333, "is_disabled": 0, "type": "electric_scooter", "lon": -77.02920383333333, "bike_id": "a5a19a19778e9f7a6f96d062693f54e7", "fusion_lat": 0.0, "name": "a5a19a19778e9f7a6f96d062693f54e7", "is_reserved": 0, "rental_uris": {"android": "https://dc.lft.to/lastmile_qr_scan", "ios": "https://dc.lft.to/lastmile_qr_scan"}, "fusion_lon": 0.0}, {"lat": 38.90445733333333, "is_disabled": 0, "type": "electric_scooter", "lon": -77.04162733333334, "bike_id": "048d74abba6ee8382779a3ebcaf4ef79", "fusion_lat": 0.0, "name": "048d74abba6ee8382779a3ebcaf4ef79", "is_reserved": 0, "rental_uris": {"android": "https://dc.lft.to/lastmile_qr_scan", "ios": "https://dc.lft.to/lastmile_qr_scan"}, "fusion_lon": 0.0}, {"lat": 38.91701916666667, "is_disabled": 0, "type": "electric_scooter", "lon": -77.04027066666667, "bike_id": "c4dde33bafded8cbd1dc9c7d3323ce7c", "fusion_lat": 0.0, "name": "c4dde33bafded8cbd1dc9c7d3323ce7c", "is_reserved": 0, "rental_uris": {"android": "https://dc.lft.to/lastmile_qr_scan", "ios": "https://dc.lft.to/lastmile_qr_scan"}, "fusion_lon": 0.0}, {"lat": 38.91910883333333, "is_disabled": 0, "type": "electric_scooter", "lon": -77.031851, "bike_id": "32676a11701f854bc9658eafe3db249c", "fusion_lat": 0.0, "name": "32676a11701f854bc9658eafe3db249c", "is_reserved": 0, "rental_uris": {"android": "https://dc.lft.to/lastmile_qr_scan", "ios": "https://dc.lft.to/lastmile_qr_scan"}, "fusion_lon": 0.0}, {"lat": 38.907327333333335, "is_disabled": 0, "type": "electric_scooter", "lon": -77.02378183333333, "bike_id": "4e11392bd7850073432d516cb283044b", "fusion_lat": 0.0, "name": "4e11392bd7850073432d516cb283044b", "is_reserved": 0, "rental_uris": {"android": "https://dc.lft.to/lastmile_qr_scan", "ios": "https://dc.lft.to/lastmile_qr_scan"}, "fusion_lon": 0.0}, {"lat": 38.933266, "is_disabled": 0, "type": "electric_scooter", "lon": -77.05706583333334, "bike_id": "5993a2cf031c10e0f67ab222b3b9ad6e", "fusion_lat": 0.0, "name": "5993a2cf031c10e0f67ab222b3b9ad6e", "is_reserved": 0, "rental_uris": {"android": "https://dc.lft.to/lastmile_qr_scan", "ios": "https://dc.lft.to/lastmile_qr_scan"}, "fusion_lon": 0.0}, {"lat": 38.91177833333333, "is_disabled": 0, "type": "electric_scooter", "lon": -77.038689, "bike_id": "68389ddd3bd0070b36d2338e9881802c", "fusion_lat": 0.0, "name": "68389ddd3bd0070b36d2338e9881802c", "is_reserved": 0, "rental_uris": {"android": "https://dc.lft.to/lastmile_qr_scan", "ios": "https://dc.lft.to/lastmile_qr_scan"}, "fusion_lon": 0.0}, {"lat": 38.9212855, "is_disabled": 0, "type": "electric_scooter", "lon": -77.040098, "bike_id": "4910e7d3800b1858f1060c8bd3768dd7", "fusion_lat": 0.0, "name": "4910e7d3800b1858f1060c8bd3768dd7", "is_reserved": 0, "rental_uris": {"android": "https://dc.lft.to/lastmile_qr_scan", "ios": "https://dc.lft.to/lastmile_qr_scan"}, "fusion_lon": 0.0}, {"lat": 38.856463, "is_disabled": 0, "type": "electric_bike", "lon": -77.11240883333333, "bike_id": "dc895867abbaea148a0ce51213c87d12", "fusion_lat": 0.0, "name": "dc895867abbaea148a0ce51213c87d12", "is_reserved": 0, "rental_uris": {"android": "https://dc.lft.to/lastmile_qr_scan", "ios": "https://dc.lft.to/lastmile_qr_scan"}, "fusion_lon": 0.0}, {"lat": 38.87693466666666, "is_disabled": 0, "type": "electric_scooter", "lon": -77.01690783333333, "bike_id": "537a7b3e887db8629aa6610b17df01d8", "fusion_lat": 0.0, "name": "537a7b3e887db8629aa6610b17df01d8", "is_reserved": 0, "rental_uris": {"android": "https://dc.lft.to/lastmile_qr_scan", "ios": "https://dc.lft.to/lastmile_qr_scan"}, "fusion_lon": 0.0}, {"lat": 38.88421833333334, "is_disabled": 0, "type": "electric_scooter", "lon": -77.02476483333334, "bike_id": "5858c338941864316d4ace696860b38d", "fusion_lat": 0.0, "name": "5858c338941864316d4ace696860b38d", "is_reserved": 0, "rental_uris": {"android": "https://dc.lft.to/lastmile_qr_scan", "ios": "https://dc.lft.to/lastmile_qr_scan"}, "fusion_lon": 0.0}, {"lat": 38.929894833333336, "is_disabled": 0, "type": "electric_scooter", "lon": -77.038356, "bike_id": "c3490da9c3840675aa95174e5b809a90", "fusion_lat": 0.0, "name": "c3490da9c3840675aa95174e5b809a90", "is_reserved": 0, "rental_uris": {"android": "https://dc.lft.to/lastmile_qr_scan", "ios": "https://dc.lft.to/lastmile_qr_scan"}, "fusion_lon": 0.0}, {"lat": 38.88272216666667, "is_disabled": 0, "type": "electric_scooter", "lon": -76.98828516666667, "bike_id": "5f4184aecafc840593b916371a939efd", "fusion_lat": 0.0, "name": "5f4184aecafc840593b916371a939efd", "is_reserved": 0, "rental_uris": {"android": "https://dc.lft.to/lastmile_qr_scan", "ios": "https://dc.lft.to/lastmile_qr_scan"}, "fusion_lon": 0.0}, {"lat": 38.87732966666667, "is_disabled": 0, "type": "electric_bike", "lon": -77.118434, "bike_id": "fdbdd84f55c80852d50b9bc8f5edf854", "fusion_lat": 0.0, "name": "fdbdd84f55c80852d50b9bc8f5edf854", "is_reserved": 0, "rental_uris": {"android": "https://dc.lft.to/lastmile_qr_scan", "ios": "https://dc.lft.to/lastmile_qr_scan"}, "fusion_lon": 0.0}, {"lat": 38.870911, "is_disabled": 0, "type": "electric_scooter", "lon": -77.01190483333333, "bike_id": "08aae9152e9cf13e2099d8eac03a6fb6", "fusion_lat": 0.0, "name": "08aae9152e9cf13e2099d8eac03a6fb6", "is_reserved": 0, "rental_uris": {"android": "https://dc.lft.to/lastmile_qr_scan", "ios": "https://dc.lft.to/lastmile_qr_scan"}, "fusion_lon": 0.0}, {"lat": 38.88300383333333, "is_disabled": 0, "type": "electric_scooter", "lon": -76.982174, "bike_id": "19fb5fbe7c9689f8f87499a9259054ab", "fusion_lat": 0.0, "name": "19fb5fbe7c9689f8f87499a9259054ab", "is_reserved": 0, "rental_uris": {"android": "https://dc.lft.to/lastmile_qr_scan", "ios": "https://dc.lft.to/lastmile_qr_scan"}, "fusion_lon": 0.0}, {"lat": 38.93937966666667, "is_disabled": 0, "type": "electric_scooter", "lon": -77.022242, "bike_id": "901c5b884520cf46b391aea7085fd406", "fusion_lat": 0.0, "name": "901c5b884520cf46b391aea7085fd406", "is_reserved": 0, "rental_uris": {"android": "https://dc.lft.to/lastmile_qr_scan", "ios": "https://dc.lft.to/lastmile_qr_scan"}, "fusion_lon": 0.0}, {"lat": 38.90737333333333, "is_disabled": 0, "type": "electric_scooter", "lon": -77.03441866666667, "bike_id": "bb346b9a5fbe0dec3f0e1c21558f6429", "fusion_lat": 0.0, "name": "bb346b9a5fbe0dec3f0e1c21558f6429", "is_reserved": 0, "rental_uris": {"android": "https://dc.lft.to/lastmile_qr_scan", "ios": "https://dc.lft.to/lastmile_qr_scan"}, "fusion_lon": 0.0}, {"lat": 38.93980116666667, "is_disabled": 0, "type": "electric_scooter", "lon": -77.03263116666666, "bike_id": "cbaee03f29d75265ddbb47b9f1ce38c6", "fusion_lat": 0.0, "name": "cbaee03f29d75265ddbb47b9f1ce38c6", "is_reserved": 0, "rental_uris": {"android": "https://dc.lft.to/lastmile_qr_scan", "ios": "https://dc.lft.to/lastmile_qr_scan"}, "fusion_lon": 0.0}, {"lat": 38.928897666666664, "is_disabled": 0, "type": "electric_scooter", "lon": -77.025744, "bike_id": "e9b232482ec0d4511d2b4b73a8a77dee", "fusion_lat": 0.0, "name": "e9b232482ec0d4511d2b4b73a8a77dee", "is_reserved": 0, "rental_uris": {"android": "https://dc.lft.to/lastmile_qr_scan", "ios": "https://dc.lft.to/lastmile_qr_scan"}, "fusion_lon": 0.0}, {"lat": 38.951886333333334, "is_disabled": 0, "type": "electric_bike", "lon": -76.93543883333334, "bike_id": "2ae2b1d7202f9f10462ac474ac8a83e1", "fusion_lat": 0.0, "name": "2ae2b1d7202f9f10462ac474ac8a83e1", "is_reserved": 0, "rental_uris": {"android": "https://dc.lft.to/lastmile_qr_scan", "ios": "https://dc.lft.to/lastmile_qr_scan"}, "fusion_lon": 0.0}, {"lat": 38.8637645, "is_disabled": 0, "type": "electric_scooter", "lon": -76.99048283333333, "bike_id": "dc1ff662b56bef886496dd0e5071a356", "fusion_lat": 0.0, "name": "dc1ff662b56bef886496dd0e5071a356", "is_reserved": 0, "rental_uris": {"android": "https://dc.lft.to/lastmile_qr_scan", "ios": "https://dc.lft.to/lastmile_qr_scan"}, "fusion_lon": 0.0}, {"lat": 38.9263335, "is_disabled": 0, "type": "electric_scooter", "lon": -77.03790083333334, "bike_id": "d2827154e5283cf17cdf8349fb411395", "fusion_lat": 0.0, "name": "d2827154e5283cf17cdf8349fb411395", "is_reserved": 0, "rental_uris": {"android": "https://dc.lft.to/lastmile_qr_scan", "ios": "https://dc.lft.to/lastmile_qr_scan"}, "fusion_lon": 0.0}, {"lat": 38.906949166666664, "is_disabled": 0, "type": "electric_scooter", "lon": -76.99964633333333, "bike_id": "5de240424eede72c9c8f4d9a4ebe5bad", "fusion_lat": 0.0, "name": "5de240424eede72c9c8f4d9a4ebe5bad", "is_reserved": 0, "rental_uris": {"android": "https://dc.lft.to/lastmile_qr_scan", "ios": "https://dc.lft.to/lastmile_qr_scan"}, "fusion_lon": 0.0}, {"lat": 38.91926983333333, "is_disabled": 0, "type": "electric_scooter", "lon": -77.03397483333333, "bike_id": "6a5518f447f7dfd6de174e1d11f458c6", "fusion_lat": 0.0, "name": "6a5518f447f7dfd6de174e1d11f458c6", "is_reserved": 0, "rental_uris": {"android": "https://dc.lft.to/lastmile_qr_scan", "ios": "https://dc.lft.to/lastmile_qr_scan"}, "fusion_lon": 0.0}, {"lat": 38.9028875, "is_disabled": 0, "type": "electric_scooter", "lon": -77.0530985, "bike_id": "974b434a3c565989ae4e99cb44284079", "fusion_lat": 0.0, "name": "974b434a3c565989ae4e99cb44284079", "is_reserved": 0, "rental_uris": {"android": "https://dc.lft.to/lastmile_qr_scan", "ios": "https://dc.lft.to/lastmile_qr_scan"}, "fusion_lon": 0.0}, {"lat": 38.94605033333333, "is_disabled": 0, "type": "electric_scooter", "lon": -77.02981583333333, "bike_id": "7b3e6b44875c8be40fe8fdd0d36ed85b", "fusion_lat": 0.0, "name": "7b3e6b44875c8be40fe8fdd0d36ed85b", "is_reserved": 0, "rental_uris": {"android": "https://dc.lft.to/lastmile_qr_scan", "ios": "https://dc.lft.to/lastmile_qr_scan"}, "fusion_lon": 0.0}, {"lat": 38.910532833333335, "is_disabled": 0, "type": "electric_scooter", "lon": -77.01515433333333, "bike_id": "5e8d52d2700442adef71ffbf108884a2", "fusion_lat": 0.0, "name": "5e8d52d2700442adef71ffbf108884a2", "is_reserved": 0, "rental_uris": {"android": "https://dc.lft.to/lastmile_qr_scan", "ios": "https://dc.lft.to/lastmile_qr_scan"}, "fusion_lon": 0.0}, {"lat": 38.899794, "is_disabled": 0, "type": "electric_scooter", "lon": -77.05175766666666, "bike_id": "b59e8a51312c02ba6df2e915c051f049", "fusion_lat": 0.0, "name": "b59e8a51312c02ba6df2e915c051f049", "is_reserved": 0, "rental_uris": {"android": "https://dc.lft.to/lastmile_qr_scan", "ios": "https://dc.lft.to/lastmile_qr_scan"}, "fusion_lon": 0.0}, {"lat": 38.92408733333333, "is_disabled": 0, "type": "electric_scooter", "lon": -77.04439166666667, "bike_id": "e155deaff4b89e1b7b94839b6ec76c99", "fusion_lat": 0.0, "name": "e155deaff4b89e1b7b94839b6ec76c99", "is_reserved": 0, "rental_uris": {"android": "https://dc.lft.to/lastmile_qr_scan", "ios": "https://dc.lft.to/lastmile_qr_scan"}, "fusion_lon": 0.0}, {"lat": 38.86487, "is_disabled": 0, "type": "electric_scooter", "lon": -76.97468816666667, "bike_id": "427f8d47763674a1d848188ea0a046ce", "fusion_lat": 0.0, "name": "427f8d47763674a1d848188ea0a046ce", "is_reserved": 0, "rental_uris": {"android": "https://dc.lft.to/lastmile_qr_scan", "ios": "https://dc.lft.to/lastmile_qr_scan"}, "fusion_lon": 0.0}, {"lat": 38.87478216666667, "is_disabled": 0, "type": "electric_scooter", "lon": -77.01072216666667, "bike_id": "2e0abd1c63e02c1825094cdb73ecb572", "fusion_lat": 0.0, "name": "2e0abd1c63e02c1825094cdb73ecb572", "is_reserved": 0, "rental_uris": {"android": "https://dc.lft.to/lastmile_qr_scan", "ios": "https://dc.lft.to/lastmile_qr_scan"}, "fusion_lon": 0.0}, {"lat": 38.902682666666664, "is_disabled": 0, "type": "electric_scooter", "lon": -77.02827283333333, "bike_id": "1394fcc46c04a84d1a942b9966a20756", "fusion_lat": 0.0, "name": "1394fcc46c04a84d1a942b9966a20756", "is_reserved": 0, "rental_uris": {"android": "https://dc.lft.to/lastmile_qr_scan", "ios": "https://dc.lft.to/lastmile_qr_scan"}, "fusion_lon": 0.0}, {"lat": 38.90000916666666, "is_disabled": 0, "type": "electric_scooter", "lon": -77.05094633333333, "bike_id": "d9d4b54dc16170eea1f0b13ac8cd2925", "fusion_lat": 0.0, "name": "d9d4b54dc16170eea1f0b13ac8cd2925", "is_reserved": 0, "rental_uris": {"android": "https://dc.lft.to/lastmile_qr_scan", "ios": "https://dc.lft.to/lastmile_qr_scan"}, "fusion_lon": 0.0}, {"lat": 38.89752466666667, "is_disabled": 0, "type": "electric_scooter", "lon": -77.04682033333333, "bike_id": "1327862d8fbe3469ae802a905ed18585", "fusion_lat": 0.0, "name": "1327862d8fbe3469ae802a905ed18585", "is_reserved": 0, "rental_uris": {"android": "https://dc.lft.to/lastmile_qr_scan", "ios": "https://dc.lft.to/lastmile_qr_scan"}, "fusion_lon": 0.0}, {"lat": 38.9125765, "is_disabled": 0, "type": "electric_scooter", "lon": -77.03864616666667, "bike_id": "11c9c57776054daefdb558423a8a2c0e", "fusion_lat": 0.0, "name": "11c9c57776054daefdb558423a8a2c0e", "is_reserved": 0, "rental_uris": {"android": "https://dc.lft.to/lastmile_qr_scan", "ios": "https://dc.lft.to/lastmile_qr_scan"}, "fusion_lon": 0.0}, {"lat": 38.892169833333334, "is_disabled": 0, "type": "electric_scooter", "lon": -77.02643733333333, "bike_id": "991df45d1e04fc97bedbb462cfa0fee2", "fusion_lat": 0.0, "name": "991df45d1e04fc97bedbb462cfa0fee2", "is_reserved": 0, "rental_uris": {"android": "https://dc.lft.to/lastmile_qr_scan", "ios": "https://dc.lft.to/lastmile_qr_scan"}, "fusion_lon": 0.0}, {"lat": 38.8768265, "is_disabled": 0, "type": "electric_scooter", "lon": -77.01789383333333, "bike_id": "97f0f41af59200e56a5498af1a1b4e98", "fusion_lat": 0.0, "name": "97f0f41af59200e56a5498af1a1b4e98", "is_reserved": 0, "rental_uris": {"android": "https://dc.lft.to/lastmile_qr_scan", "ios": "https://dc.lft.to/lastmile_qr_scan"}, "fusion_lon": 0.0}, {"lat": 38.937694, "is_disabled": 0, "type": "electric_scooter", "lon": -77.02373533333333, "bike_id": "1892625f75fb0284d3db5d1d33d6d67c", "fusion_lat": 0.0, "name": "1892625f75fb0284d3db5d1d33d6d67c", "is_reserved": 0, "rental_uris": {"android": "https://dc.lft.to/lastmile_qr_scan", "ios": "https://dc.lft.to/lastmile_qr_scan"}, "fusion_lon": 0.0}, {"lat": 38.90744633333333, "is_disabled": 0, "type": "electric_scooter", "lon": -77.04787433333334, "bike_id": "27fd3cb19e7ccd06438068401fa542e4", "fusion_lat": 0.0, "name": "27fd3cb19e7ccd06438068401fa542e4", "is_reserved": 0, "rental_uris": {"android": "https://dc.lft.to/lastmile_qr_scan", "ios": "https://dc.lft.to/lastmile_qr_scan"}, "fusion_lon": 0.0}, {"lat": 38.9079305, "is_disabled": 0, "type": "electric_scooter", "lon": -77.034678, "bike_id": "0a3b165fac603c1f6e705ba8852562f5", "fusion_lat": 0.0, "name": "0a3b165fac603c1f6e705ba8852562f5", "is_reserved": 0, "rental_uris": {"android": "https://dc.lft.to/lastmile_qr_scan", "ios": "https://dc.lft.to/lastmile_qr_scan"}, "fusion_lon": 0.0}, {"lat": 38.901927666666666, "is_disabled": 0, "type": "electric_scooter", "lon": -77.0217395, "bike_id": "4a9799a78091b75b6dd50fdc66121bbd", "fusion_lat": 0.0, "name": "4a9799a78091b75b6dd50fdc66121bbd", "is_reserved": 0, "rental_uris": {"android": "https://dc.lft.to/lastmile_qr_scan", "ios": "https://dc.lft.to/lastmile_qr_scan"}, "fusion_lon": 0.0}, {"lat": 38.89622716666667, "is_disabled": 0, "type": "electric_scooter", "lon": -77.04490383333334, "bike_id": "9d9c3e662a1c496e6ce1319939cf3fb6", "fusion_lat": 0.0, "name": "9d9c3e662a1c496e6ce1319939cf3fb6", "is_reserved": 0, "rental_uris": {"android": "https://dc.lft.to/lastmile_qr_scan", "ios": "https://dc.lft.to/lastmile_qr_scan"}, "fusion_lon": 0.0}, {"lat": 38.9409585, "is_disabled": 0, "type": "electric_scooter", "lon": -77.03277116666666, "bike_id": "1a9be0fd2bde262745fee084a493d4cd", "fusion_lat": 0.0, "name": "1a9be0fd2bde262745fee084a493d4cd", "is_reserved": 0, "rental_uris": {"android": "https://dc.lft.to/lastmile_qr_scan", "ios": "https://dc.lft.to/lastmile_qr_scan"}, "fusion_lon": 0.0}, {"lat": 38.84294216666667, "is_disabled": 0, "type": "electric_scooter", "lon": -76.99945516666666, "bike_id": "30d29024f8d4498a6e191ac7caa33e4c", "fusion_lat": 0.0, "name": "30d29024f8d4498a6e191ac7caa33e4c", "is_reserved": 0, "rental_uris": {"android": "https://dc.lft.to/lastmile_qr_scan", "ios": "https://dc.lft.to/lastmile_qr_scan"}, "fusion_lon": 0.0}, {"lat": 38.8984255, "is_disabled": 0, "type": "electric_scooter", "lon": -77.0241875, "bike_id": "c02335c10e9336a2799e1042d6dc48f7", "fusion_lat": 0.0, "name": "c02335c10e9336a2799e1042d6dc48f7", "is_reserved": 0, "rental_uris": {"android": "https://dc.lft.to/lastmile_qr_scan", "ios": "https://dc.lft.to/lastmile_qr_scan"}, "fusion_lon": 0.0}, {"lat": 38.912190833333334, "is_disabled": 0, "type": "electric_scooter", "lon": -77.03440283333333, "bike_id": "af5efa5d60700df0e2b6758baadab457", "fusion_lat": 0.0, "name": "af5efa5d60700df0e2b6758baadab457", "is_reserved": 0, "rental_uris": {"android": "https://dc.lft.to/lastmile_qr_scan", "ios": "https://dc.lft.to/lastmile_qr_scan"}, "fusion_lon": 0.0}, {"lat": 38.8600015, "is_disabled": 0, "type": "electric_scooter", "lon": -76.98549616666666, "bike_id": "10c4f15599a9a7a1ae99e65bc8f032ab", "fusion_lat": 0.0, "name": "10c4f15599a9a7a1ae99e65bc8f032ab", "is_reserved": 0, "rental_uris": {"android": "https://dc.lft.to/lastmile_qr_scan", "ios": "https://dc.lft.to/lastmile_qr_scan"}, "fusion_lon": 0.0}, {"lat": 38.9002815, "is_disabled": 0, "type": "electric_scooter", "lon": -77.001989, "bike_id": "31b4a2e53663444d876fc5d21fc7817d", "fusion_lat": 0.0, "name": "31b4a2e53663444d876fc5d21fc7817d", "is_reserved": 0, "rental_uris": {"android": "https://dc.lft.to/lastmile_qr_scan", "ios": "https://dc.lft.to/lastmile_qr_scan"}, "fusion_lon": 0.0}, {"lat": 38.95068066666666, "is_disabled": 0, "type": "electric_scooter", "lon": -77.06656666666666, "bike_id": "f5ba9e43d4efef0016b26cd7230f5902", "fusion_lat": 0.0, "name": "f5ba9e43d4efef0016b26cd7230f5902", "is_reserved": 0, "rental_uris": {"android": "https://dc.lft.to/lastmile_qr_scan", "ios": "https://dc.lft.to/lastmile_qr_scan"}, "fusion_lon": 0.0}, {"lat": 38.901470333333336, "is_disabled": 0, "type": "electric_scooter", "lon": -77.01813716666666, "bike_id": "5ff0a3916adc3f63c81452d6c516a916", "fusion_lat": 0.0, "name": "5ff0a3916adc3f63c81452d6c516a916", "is_reserved": 0, "rental_uris": {"android": "https://dc.lft.to/lastmile_qr_scan", "ios": "https://dc.lft.to/lastmile_qr_scan"}, "fusion_lon": 0.0}, {"lat": 38.9057685, "is_disabled": 0, "type": "electric_scooter", "lon": -77.02209866666666, "bike_id": "f63effadcebe4818927342770b94894e", "fusion_lat": 0.0, "name": "f63effadcebe4818927342770b94894e", "is_reserved": 0, "rental_uris": {"android": "https://dc.lft.to/lastmile_qr_scan", "ios": "https://dc.lft.to/lastmile_qr_scan"}, "fusion_lon": 0.0}, {"lat": 38.87631183333333, "is_disabled": 0, "type": "electric_scooter", "lon": -76.96526633333333, "bike_id": "7280707e84a17715a098f2f805c54260", "fusion_lat": 0.0, "name": "7280707e84a17715a098f2f805c54260", "is_reserved": 0, "rental_uris": {"android": "https://dc.lft.to/lastmile_qr_scan", "ios": "https://dc.lft.to/lastmile_qr_scan"}, "fusion_lon": 0.0}, {"lat": 38.910919, "is_disabled": 0, "type": "electric_scooter", "lon": -77.05474983333333, "bike_id": "a7db474b63f1befa47d66f9d806045d2", "fusion_lat": 0.0, "name": "a7db474b63f1befa47d66f9d806045d2", "is_reserved": 0, "rental_uris": {"android": "https://dc.lft.to/lastmile_qr_scan", "ios": "https://dc.lft.to/lastmile_qr_scan"}, "fusion_lon": 0.0}, {"lat": 38.910832666666664, "is_disabled": 0, "type": "electric_scooter", "lon": -77.0764405, "bike_id": "477a4a5062813955324f06d94037f70a", "fusion_lat": 0.0, "name": "477a4a5062813955324f06d94037f70a", "is_reserved": 0, "rental_uris": {"android": "https://dc.lft.to/lastmile_qr_scan", "ios": "https://dc.lft.to/lastmile_qr_scan"}, "fusion_lon": 0.0}, {"lat": 38.891223, "is_disabled": 0, "type": "electric_scooter", "lon": -76.94092666666667, "bike_id": "69193d033673f1db4a9c72e014cb3690", "fusion_lat": 0.0, "name": "69193d033673f1db4a9c72e014cb3690", "is_reserved": 0, "rental_uris": {"android": "https://dc.lft.to/lastmile_qr_scan", "ios": "https://dc.lft.to/lastmile_qr_scan"}, "fusion_lon": 0.0}, {"lat": 38.9480485, "is_disabled": 0, "type": "electric_scooter", "lon": -77.07907116666667, "bike_id": "118cddf552f90ad96ef59eabb51db96d", "fusion_lat": 0.0, "name": "118cddf552f90ad96ef59eabb51db96d", "is_reserved": 0, "rental_uris": {"android": "https://dc.lft.to/lastmile_qr_scan", "ios": "https://dc.lft.to/lastmile_qr_scan"}, "fusion_lon": 0.0}, {"lat": 38.900094833333334, "is_disabled": 0, "type": "electric_scooter", "lon": -76.998513, "bike_id": "85d1c18665d5b6445cc2fdf3ad29b241", "fusion_lat": 0.0, "name": "85d1c18665d5b6445cc2fdf3ad29b241", "is_reserved": 0, "rental_uris": {"android": "https://dc.lft.to/lastmile_qr_scan", "ios": "https://dc.lft.to/lastmile_qr_scan"}, "fusion_lon": 0.0}, {"lat": 38.9051405, "is_disabled": 0, "type": "electric_scooter", "lon": -77.0688305, "bike_id": "778616aa887ed869c256645f4a24071d", "fusion_lat": 0.0, "name": "778616aa887ed869c256645f4a24071d", "is_reserved": 0, "rental_uris": {"android": "https://dc.lft.to/lastmile_qr_scan", "ios": "https://dc.lft.to/lastmile_qr_scan"}, "fusion_lon": 0.0}, {"lat": 38.933384833333335, "is_disabled": 0, "type": "electric_scooter", "lon": -77.05691283333333, "bike_id": "0b863648e406a69e985dc442b94d97c8", "fusion_lat": 0.0, "name": "0b863648e406a69e985dc442b94d97c8", "is_reserved": 0, "rental_uris": {"android": "https://dc.lft.to/lastmile_qr_scan", "ios": "https://dc.lft.to/lastmile_qr_scan"}, "fusion_lon": 0.0}, {"lat": 38.935357333333336, "is_disabled": 0, "type": "electric_scooter", "lon": -77.03417616666667, "bike_id": "a664e8b35b4d6fd3297dffcfc8d0b38c", "fusion_lat": 0.0, "name": "a664e8b35b4d6fd3297dffcfc8d0b38c", "is_reserved": 0, "rental_uris": {"android": "https://dc.lft.to/lastmile_qr_scan", "ios": "https://dc.lft.to/lastmile_qr_scan"}, "fusion_lon": 0.0}, {"lat": 38.9047205, "is_disabled": 0, "type": "electric_scooter", "lon": -77.03229933333333, "bike_id": "541739bec508f20e936a45f65e20239f", "fusion_lat": 0.0, "name": "541739bec508f20e936a45f65e20239f", "is_reserved": 0, "rental_uris": {"android": "https://dc.lft.to/lastmile_qr_scan", "ios": "https://dc.lft.to/lastmile_qr_scan"}, "fusion_lon": 0.0}, {"lat": 39.015941166666664, "is_disabled": 0, "type": "electric_bike", "lon": -77.04429683333333, "bike_id": "ac066d1037730f5ce254db97c8220fb0", "fusion_lat": 0.0, "name": "ac066d1037730f5ce254db97c8220fb0", "is_reserved": 0, "rental_uris": {"android": "https://dc.lft.to/lastmile_qr_scan", "ios": "https://dc.lft.to/lastmile_qr_scan"}, "fusion_lon": 0.0}, {"lat": 38.91678183333333, "is_disabled": 0, "type": "electric_scooter", "lon": -77.02285233333333, "bike_id": "b9e63bf5c026cabc0960e530c264e4c6", "fusion_lat": 0.0, "name": "b9e63bf5c026cabc0960e530c264e4c6", "is_reserved": 0, "rental_uris": {"android": "https://dc.lft.to/lastmile_qr_scan", "ios": "https://dc.lft.to/lastmile_qr_scan"}, "fusion_lon": 0.0}, {"lat": 38.90134666666667, "is_disabled": 0, "type": "electric_scooter", "lon": -77.01816133333334, "bike_id": "96dacd8db35f9fb63ab84dc9b4ab9cee", "fusion_lat": 0.0, "name": "96dacd8db35f9fb63ab84dc9b4ab9cee", "is_reserved": 0, "rental_uris": {"android": "https://dc.lft.to/lastmile_qr_scan", "ios": "https://dc.lft.to/lastmile_qr_scan"}, "fusion_lon": 0.0}, {"lat": 38.884337, "is_disabled": 0, "type": "electric_scooter", "lon": -77.03048066666666, "bike_id": "6a604c30d7d0c2629f384d408daac362", "fusion_lat": 0.0, "name": "6a604c30d7d0c2629f384d408daac362", "is_reserved": 0, "rental_uris": {"android": "https://dc.lft.to/lastmile_qr_scan", "ios": "https://dc.lft.to/lastmile_qr_scan"}, "fusion_lon": 0.0}, {"lat": 38.91966033333333, "is_disabled": 0, "type": "electric_scooter", "lon": -77.0432395, "bike_id": "a8b175f125a1c8c1fd976c9ec92893e4", "fusion_lat": 0.0, "name": "a8b175f125a1c8c1fd976c9ec92893e4", "is_reserved": 0, "rental_uris": {"android": "https://dc.lft.to/lastmile_qr_scan", "ios": "https://dc.lft.to/lastmile_qr_scan"}, "fusion_lon": 0.0}, {"lat": 38.91772383333333, "is_disabled": 0, "type": "electric_bike", "lon": -77.04762533333333, "bike_id": "370207326f759cb2682cf779a218c57d", "fusion_lat": 0.0, "name": "370207326f759cb2682cf779a218c57d", "is_reserved": 0, "rental_uris": {"android": "https://dc.lft.to/lastmile_qr_scan", "ios": "https://dc.lft.to/lastmile_qr_scan"}, "fusion_lon": 0.0}, {"lat": 38.89624233333333, "is_disabled": 0, "type": "electric_scooter", "lon": -77.0448735, "bike_id": "ff61045b2ab2ad9284e1673109f0efc6", "fusion_lat": 0.0, "name": "ff61045b2ab2ad9284e1673109f0efc6", "is_reserved": 0, "rental_uris": {"android": "https://dc.lft.to/lastmile_qr_scan", "ios": "https://dc.lft.to/lastmile_qr_scan"}, "fusion_lon": 0.0}, {"lat": 38.924549166666665, "is_disabled": 0, "type": "electric_bike", "lon": -76.97556383333334, "bike_id": "2fc6090134ccee45ef0fec6fdcad481d", "fusion_lat": 0.0, "name": "2fc6090134ccee45ef0fec6fdcad481d", "is_reserved": 0, "rental_uris": {"android": "https://dc.lft.to/lastmile_qr_scan", "ios": "https://dc.lft.to/lastmile_qr_scan"}, "fusion_lon": 0.0}, {"lat": 38.872302833333336, "is_disabled": 0, "type": "electric_bike", "lon": -77.01182616666667, "bike_id": "cac9f5f7178959f08b58724620da55a4", "fusion_lat": 0.0, "name": "cac9f5f7178959f08b58724620da55a4", "is_reserved": 0, "rental_uris": {"android": "https://dc.lft.to/lastmile_qr_scan", "ios": "https://dc.lft.to/lastmile_qr_scan"}, "fusion_lon": 0.0}, {"lat": 38.896928, "is_disabled": 0, "type": "electric_scooter", "lon": -77.024128, "bike_id": "4b81f9ef196f200405777cfa36dcea5f", "fusion_lat": 0.0, "name": "4b81f9ef196f200405777cfa36dcea5f", "is_reserved": 0, "rental_uris": {"android": "https://dc.lft.to/lastmile_qr_scan", "ios": "https://dc.lft.to/lastmile_qr_scan"}, "fusion_lon": 0.0}, {"lat": 38.86173333333333, "is_disabled": 0, "type": "electric_bike", "lon": -77.13144016666666, "bike_id": "ea95658a2f8ff920b588d9aea232ced4", "fusion_lat": 0.0, "name": "ea95658a2f8ff920b588d9aea232ced4", "is_reserved": 0, "rental_uris": {"android": "https://dc.lft.to/lastmile_qr_scan", "ios": "https://dc.lft.to/lastmile_qr_scan"}, "fusion_lon": 0.0}, {"lat": 38.92179183333333, "is_disabled": 0, "type": "electric_scooter", "lon": -77.03393866666667, "bike_id": "b046ca0f53c1654f31079d6fc6a48d4d", "fusion_lat": 0.0, "name": "b046ca0f53c1654f31079d6fc6a48d4d", "is_reserved": 0, "rental_uris": {"android": "https://dc.lft.to/lastmile_qr_scan", "ios": "https://dc.lft.to/lastmile_qr_scan"}, "fusion_lon": 0.0}, {"lat": 38.950968833333334, "is_disabled": 0, "type": "electric_scooter", "lon": -77.02336416666667, "bike_id": "8763b306d938204c611f5b12d0e6954b", "fusion_lat": 0.0, "name": "8763b306d938204c611f5b12d0e6954b", "is_reserved": 0, "rental_uris": {"android": "https://dc.lft.to/lastmile_qr_scan", "ios": "https://dc.lft.to/lastmile_qr_scan"}, "fusion_lon": 0.0}, {"lat": 38.9009585, "is_disabled": 0, "type": "electric_scooter", "lon": -77.00328733333333, "bike_id": "d7341066f24d4f5ed5b2521fc0231188", "fusion_lat": 0.0, "name": "d7341066f24d4f5ed5b2521fc0231188", "is_reserved": 0, "rental_uris": {"android": "https://dc.lft.to/lastmile_qr_scan", "ios": "https://dc.lft.to/lastmile_qr_scan"}, "fusion_lon": 0.0}, {"lat": 38.90310983333333, "is_disabled": 0, "type": "electric_scooter", "lon": -76.977986, "bike_id": "a3215f6850520f7f6035a5cbed7c7abd", "fusion_lat": 0.0, "name": "a3215f6850520f7f6035a5cbed7c7abd", "is_reserved": 0, "rental_uris": {"android": "https://dc.lft.to/lastmile_qr_scan", "ios": "https://dc.lft.to/lastmile_qr_scan"}, "fusion_lon": 0.0}, {"lat": 38.899837166666664, "is_disabled": 0, "type": "electric_scooter", "lon": -77.02932783333334, "bike_id": "48ab954d5bd284a8b3df872d74983066", "fusion_lat": 0.0, "name": "48ab954d5bd284a8b3df872d74983066", "is_reserved": 0, "rental_uris": {"android": "https://dc.lft.to/lastmile_qr_scan", "ios": "https://dc.lft.to/lastmile_qr_scan"}, "fusion_lon": 0.0}, {"lat": 38.91013066666667, "is_disabled": 0, "type": "electric_scooter", "lon": -77.0889795, "bike_id": "4e9a793a5f186ab5f11013f8d2ff88eb", "fusion_lat": 0.0, "name": "4e9a793a5f186ab5f11013f8d2ff88eb", "is_reserved": 0, "rental_uris": {"android": "https://dc.lft.to/lastmile_qr_scan", "ios": "https://dc.lft.to/lastmile_qr_scan"}, "fusion_lon": 0.0}, {"lat": 39.0519625, "is_disabled": 0, "type": "electric_bike", "lon": -77.10922816666667, "bike_id": "07df7a1681c4c8fe0294ebbcfe20478a", "fusion_lat": 0.0, "name": "07df7a1681c4c8fe0294ebbcfe20478a", "is_reserved": 0, "rental_uris": {"android": "https://dc.lft.to/lastmile_qr_scan", "ios": "https://dc.lft.to/lastmile_qr_scan"}, "fusion_lon": 0.0}, {"lat": 38.915782666666665, "is_disabled": 0, "type": "electric_scooter", "lon": -77.03250483333333, "bike_id": "636ae074f6ea09733d649143e97bce1a", "fusion_lat": 0.0, "name": "636ae074f6ea09733d649143e97bce1a", "is_reserved": 0, "rental_uris": {"android": "https://dc.lft.to/lastmile_qr_scan", "ios": "https://dc.lft.to/lastmile_qr_scan"}, "fusion_lon": 0.0}, {"lat": 38.9006245, "is_disabled": 0, "type": "electric_scooter", "lon": -77.02584016666667, "bike_id": "a949e05d10cb7ea5e2d1dc974c5c0763", "fusion_lat": 0.0, "name": "a949e05d10cb7ea5e2d1dc974c5c0763", "is_reserved": 0, "rental_uris": {"android": "https://dc.lft.to/lastmile_qr_scan", "ios": "https://dc.lft.to/lastmile_qr_scan"}, "fusion_lon": 0.0}, {"lat": 38.9178505, "is_disabled": 0, "type": "electric_scooter", "lon": -77.02311933333333, "bike_id": "d6b3b99f5dae8fa2b0ce91607e2af19a", "fusion_lat": 0.0, "name": "d6b3b99f5dae8fa2b0ce91607e2af19a", "is_reserved": 0, "rental_uris": {"android": "https://dc.lft.to/lastmile_qr_scan", "ios": "https://dc.lft.to/lastmile_qr_scan"}, "fusion_lon": 0.0}, {"lat": 38.919768833333336, "is_disabled": 0, "type": "electric_scooter", "lon": -77.01345916666666, "bike_id": "d45f735a3a9844b6dbfb88899d5f0ed2", "fusion_lat": 0.0, "name": "d45f735a3a9844b6dbfb88899d5f0ed2", "is_reserved": 0, "rental_uris": {"android": "https://dc.lft.to/lastmile_qr_scan", "ios": "https://dc.lft.to/lastmile_qr_scan"}, "fusion_lon": 0.0}, {"lat": 38.9174895, "is_disabled": 0, "type": "electric_scooter", "lon": -77.03663583333334, "bike_id": "2b89f488f022d8c106bd2f327c1fb2dd", "fusion_lat": 0.0, "name": "2b89f488f022d8c106bd2f327c1fb2dd", "is_reserved": 0, "rental_uris": {"android": "https://dc.lft.to/lastmile_qr_scan", "ios": "https://dc.lft.to/lastmile_qr_scan"}, "fusion_lon": 0.0}, {"lat": 38.892224, "is_disabled": 0, "type": "electric_scooter", "lon": -77.04365583333333, "bike_id": "ab22ec8ae5ca4b3746151a146961a517", "fusion_lat": 0.0, "name": "ab22ec8ae5ca4b3746151a146961a517", "is_reserved": 0, "rental_uris": {"android": "https://dc.lft.to/lastmile_qr_scan", "ios": "https://dc.lft.to/lastmile_qr_scan"}, "fusion_lon": 0.0}, {"lat": 38.92957616666666, "is_disabled": 0, "type": "electric_scooter", "lon": -77.01895816666666, "bike_id": "6ae2a22b56f60ac2351cff71d6e665d2", "fusion_lat": 0.0, "name": "6ae2a22b56f60ac2351cff71d6e665d2", "is_reserved": 0, "rental_uris": {"android": "https://dc.lft.to/lastmile_qr_scan", "ios": "https://dc.lft.to/lastmile_qr_scan"}, "fusion_lon": 0.0}, {"lat": 38.90721216666667, "is_disabled": 0, "type": "electric_scooter", "lon": -77.03435483333334, "bike_id": "720028b60f9a386376f1dcddc3de4c39", "fusion_lat": 0.0, "name": "720028b60f9a386376f1dcddc3de4c39", "is_reserved": 0, "rental_uris": {"android": "https://dc.lft.to/lastmile_qr_scan", "ios": "https://dc.lft.to/lastmile_qr_scan"}, "fusion_lon": 0.0}, {"lat": 38.909590333333334, "is_disabled": 0, "type": "electric_scooter", "lon": -77.04789533333333, "bike_id": "c58e72684b6e95408c28d27e515301dd", "fusion_lat": 0.0, "name": "c58e72684b6e95408c28d27e515301dd", "is_reserved": 0, "rental_uris": {"android": "https://dc.lft.to/lastmile_qr_scan", "ios": "https://dc.lft.to/lastmile_qr_scan"}, "fusion_lon": 0.0}, {"lat": 38.90388933333333, "is_disabled": 0, "type": "electric_scooter", "lon": -77.0538405, "bike_id": "4236ae214a3bfa45a0122706c4358115", "fusion_lat": 0.0, "name": "4236ae214a3bfa45a0122706c4358115", "is_reserved": 0, "rental_uris": {"android": "https://dc.lft.to/lastmile_qr_scan", "ios": "https://dc.lft.to/lastmile_qr_scan"}, "fusion_lon": 0.0}, {"lat": 38.909099833333336, "is_disabled": 0, "type": "electric_scooter", "lon": -77.0364685, "bike_id": "3985334c81944fd46f74f4a03cebe53f", "fusion_lat": 0.0, "name": "3985334c81944fd46f74f4a03cebe53f", "is_reserved": 0, "rental_uris": {"android": "https://dc.lft.to/lastmile_qr_scan", "ios": "https://dc.lft.to/lastmile_qr_scan"}, "fusion_lon": 0.0}, {"lat": 38.905573833333335, "is_disabled": 0, "type": "electric_scooter", "lon": -77.02796633333334, "bike_id": "b61435062987e81a1bbd19a66eb4e4bd", "fusion_lat": 0.0, "name": "b61435062987e81a1bbd19a66eb4e4bd", "is_reserved": 0, "rental_uris": {"android": "https://dc.lft.to/lastmile_qr_scan", "ios": "https://dc.lft.to/lastmile_qr_scan"}, "fusion_lon": 0.0}, {"lat": 38.866518166666665, "is_disabled": 0, "type": "electric_scooter", "lon": -76.98085266666666, "bike_id": "0f311b83a3ca0073d172f45db9d069e5", "fusion_lat": 0.0, "name": "0f311b83a3ca0073d172f45db9d069e5", "is_reserved": 0, "rental_uris": {"android": "https://dc.lft.to/lastmile_qr_scan", "ios": "https://dc.lft.to/lastmile_qr_scan"}, "fusion_lon": 0.0}, {"lat": 38.906372833333336, "is_disabled": 0, "type": "electric_scooter", "lon": -77.06284483333333, "bike_id": "8bd20db170fc57feb08483c6ff7057e0", "fusion_lat": 0.0, "name": "8bd20db170fc57feb08483c6ff7057e0", "is_reserved": 0, "rental_uris": {"android": "https://dc.lft.to/lastmile_qr_scan", "ios": "https://dc.lft.to/lastmile_qr_scan"}, "fusion_lon": 0.0}, {"lat": 38.92894833333333, "is_disabled": 0, "type": "electric_scooter", "lon": -77.03281333333334, "bike_id": "9f852a24f5e9e9c024b4b9a108bf9f22", "fusion_lat": 0.0, "name": "9f852a24f5e9e9c024b4b9a108bf9f22", "is_reserved": 0, "rental_uris": {"android": "https://dc.lft.to/lastmile_qr_scan", "ios": "https://dc.lft.to/lastmile_qr_scan"}, "fusion_lon": 0.0}, {"lat": 38.9257135, "is_disabled": 0, "type": "electric_scooter", "lon": -77.02840783333333, "bike_id": "d727a3cf961da55674752896fd07b42f", "fusion_lat": 0.0, "name": "d727a3cf961da55674752896fd07b42f", "is_reserved": 0, "rental_uris": {"android": "https://dc.lft.to/lastmile_qr_scan", "ios": "https://dc.lft.to/lastmile_qr_scan"}, "fusion_lon": 0.0}, {"lat": 38.91452066666667, "is_disabled": 0, "type": "electric_scooter", "lon": -77.04588283333334, "bike_id": "6fb294649a9343f0a422ffd713bc4a27", "fusion_lat": 0.0, "name": "6fb294649a9343f0a422ffd713bc4a27", "is_reserved": 0, "rental_uris": {"android": "https://dc.lft.to/lastmile_qr_scan", "ios": "https://dc.lft.to/lastmile_qr_scan"}, "fusion_lon": 0.0}, {"lat": 38.91411466666667, "is_disabled": 0, "type": "electric_scooter", "lon": -77.0222675, "bike_id": "63196d71fe1d95cbc31b46e2dd373f38", "fusion_lat": 0.0, "name": "63196d71fe1d95cbc31b46e2dd373f38", "is_reserved": 0, "rental_uris": {"android": "https://dc.lft.to/lastmile_qr_scan", "ios": "https://dc.lft.to/lastmile_qr_scan"}, "fusion_lon": 0.0}, {"lat": 38.905725833333335, "is_disabled": 0, "type": "electric_scooter", "lon": -77.02491466666666, "bike_id": "df6445f9da58ab2066741fb45447efcb", "fusion_lat": 0.0, "name": "df6445f9da58ab2066741fb45447efcb", "is_reserved": 0, "rental_uris": {"android": "https://dc.lft.to/lastmile_qr_scan", "ios": "https://dc.lft.to/lastmile_qr_scan"}, "fusion_lon": 0.0}, {"lat": 38.94201616666667, "is_disabled": 0, "type": "electric_scooter", "lon": -77.018305, "bike_id": "7c5fff030fc6659f90aa7668e9c91e28", "fusion_lat": 0.0, "name": "7c5fff030fc6659f90aa7668e9c91e28", "is_reserved": 0, "rental_uris": {"android": "https://dc.lft.to/lastmile_qr_scan", "ios": "https://dc.lft.to/lastmile_qr_scan"}, "fusion_lon": 0.0}, {"lat": 38.9097205, "is_disabled": 0, "type": "electric_scooter", "lon": -77.03427166666667, "bike_id": "339d13a9bff84c33265c9aa90bc3ce94", "fusion_lat": 0.0, "name": "339d13a9bff84c33265c9aa90bc3ce94", "is_reserved": 0, "rental_uris": {"android": "https://dc.lft.to/lastmile_qr_scan", "ios": "https://dc.lft.to/lastmile_qr_scan"}, "fusion_lon": 0.0}, {"lat": 38.9670425, "is_disabled": 0, "type": "electric_bike", "lon": -77.10221316666667, "bike_id": "4657d05b495917f88094a6579cbea8a5", "fusion_lat": 0.0, "name": "4657d05b495917f88094a6579cbea8a5", "is_reserved": 0, "rental_uris": {"android": "https://dc.lft.to/lastmile_qr_scan", "ios": "https://dc.lft.to/lastmile_qr_scan"}, "fusion_lon": 0.0}, {"lat": 38.88730416666667, "is_disabled": 0, "type": "electric_scooter", "lon": -77.01384133333333, "bike_id": "23738a3e39897cf218453304d5b8b394", "fusion_lat": 0.0, "name": "23738a3e39897cf218453304d5b8b394", "is_reserved": 0, "rental_uris": {"android": "https://dc.lft.to/lastmile_qr_scan", "ios": "https://dc.lft.to/lastmile_qr_scan"}, "fusion_lon": 0.0}, {"lat": 38.8616175, "is_disabled": 0, "type": "electric_bike", "lon": -77.13093933333333, "bike_id": "9f0f813a20fcd7c6e08343486cee423b", "fusion_lat": 0.0, "name": "9f0f813a20fcd7c6e08343486cee423b", "is_reserved": 0, "rental_uris": {"android": "https://dc.lft.to/lastmile_qr_scan", "ios": "https://dc.lft.to/lastmile_qr_scan"}, "fusion_lon": 0.0}, {"lat": 38.920593333333336, "is_disabled": 0, "type": "electric_scooter", "lon": -77.03294983333333, "bike_id": "a6eaee29ca9f6cbc19bbea43837c5d2e", "fusion_lat": 0.0, "name": "a6eaee29ca9f6cbc19bbea43837c5d2e", "is_reserved": 0, "rental_uris": {"android": "https://dc.lft.to/lastmile_qr_scan", "ios": "https://dc.lft.to/lastmile_qr_scan"}, "fusion_lon": 0.0}, {"lat": 38.8892815, "is_disabled": 0, "type": "electric_scooter", "lon": -76.97374733333334, "bike_id": "f2bef085925dfbeef0d1603ec074413e", "fusion_lat": 0.0, "name": "f2bef085925dfbeef0d1603ec074413e", "is_reserved": 0, "rental_uris": {"android": "https://dc.lft.to/lastmile_qr_scan", "ios": "https://dc.lft.to/lastmile_qr_scan"}, "fusion_lon": 0.0}, {"lat": 38.92089633333333, "is_disabled": 0, "type": "electric_scooter", "lon": -77.03910666666667, "bike_id": "d2c288b3652e61df80a4e72c150ee411", "fusion_lat": 0.0, "name": "d2c288b3652e61df80a4e72c150ee411", "is_reserved": 0, "rental_uris": {"android": "https://dc.lft.to/lastmile_qr_scan", "ios": "https://dc.lft.to/lastmile_qr_scan"}, "fusion_lon": 0.0}, {"lat": 38.920368, "is_disabled": 0, "type": "electric_scooter", "lon": -77.0385425, "bike_id": "3579ca08527a307e3df18ed36efc54a8", "fusion_lat": 0.0, "name": "3579ca08527a307e3df18ed36efc54a8", "is_reserved": 0, "rental_uris": {"android": "https://dc.lft.to/lastmile_qr_scan", "ios": "https://dc.lft.to/lastmile_qr_scan"}, "fusion_lon": 0.0}, {"lat": 38.9324025, "is_disabled": 0, "type": "electric_scooter", "lon": -77.03262416666666, "bike_id": "7222cdbd6bf32433b9e67d505b6950d4", "fusion_lat": 0.0, "name": "7222cdbd6bf32433b9e67d505b6950d4", "is_reserved": 0, "rental_uris": {"android": "https://dc.lft.to/lastmile_qr_scan", "ios": "https://dc.lft.to/lastmile_qr_scan"}, "fusion_lon": 0.0}, {"lat": 38.91916583333333, "is_disabled": 0, "type": "electric_scooter", "lon": -77.03390883333333, "bike_id": "d763814fadf3fba320fd8aed3bea8819", "fusion_lat": 0.0, "name": "d763814fadf3fba320fd8aed3bea8819", "is_reserved": 0, "rental_uris": {"android": "https://dc.lft.to/lastmile_qr_scan", "ios": "https://dc.lft.to/lastmile_qr_scan"}, "fusion_lon": 0.0}, {"lat": 38.905226, "is_disabled": 0, "type": "electric_scooter", "lon": -76.98619183333334, "bike_id": "1969ea4fc51b6a255063745c2ccd9cde", "fusion_lat": 0.0, "name": "1969ea4fc51b6a255063745c2ccd9cde", "is_reserved": 0, "rental_uris": {"android": "https://dc.lft.to/lastmile_qr_scan", "ios": "https://dc.lft.to/lastmile_qr_scan"}, "fusion_lon": 0.0}, {"lat": 38.86786766666667, "is_disabled": 0, "type": "electric_scooter", "lon": -76.96562916666667, "bike_id": "0cc9aaca33bf201fd0ca4dcbd05f5150", "fusion_lat": 0.0, "name": "0cc9aaca33bf201fd0ca4dcbd05f5150", "is_reserved": 0, "rental_uris": {"android": "https://dc.lft.to/lastmile_qr_scan", "ios": "https://dc.lft.to/lastmile_qr_scan"}, "fusion_lon": 0.0}, {"lat": 38.903723666666664, "is_disabled": 0, "type": "electric_scooter", "lon": -77.0027125, "bike_id": "19cce01b30b64adbbab843ad569f2943", "fusion_lat": 0.0, "name": "19cce01b30b64adbbab843ad569f2943", "is_reserved": 0, "rental_uris": {"android": "https://dc.lft.to/lastmile_qr_scan", "ios": "https://dc.lft.to/lastmile_qr_scan"}, "fusion_lon": 0.0}, {"lat": 38.90024316666667, "is_disabled": 0, "type": "electric_scooter", "lon": -77.0020895, "bike_id": "db744f43207fe19c135b9700c3355bd7", "fusion_lat": 0.0, "name": "db744f43207fe19c135b9700c3355bd7", "is_reserved": 0, "rental_uris": {"android": "https://dc.lft.to/lastmile_qr_scan", "ios": "https://dc.lft.to/lastmile_qr_scan"}, "fusion_lon": 0.0}, {"lat": 38.89748633333333, "is_disabled": 0, "type": "electric_scooter", "lon": -77.01863016666667, "bike_id": "97741b8d437e6414829b49db139961e6", "fusion_lat": 0.0, "name": "97741b8d437e6414829b49db139961e6", "is_reserved": 0, "rental_uris": {"android": "https://dc.lft.to/lastmile_qr_scan", "ios": "https://dc.lft.to/lastmile_qr_scan"}, "fusion_lon": 0.0}, {"lat": 38.9155425, "is_disabled": 0, "type": "electric_scooter", "lon": -76.999825, "bike_id": "4e49583ba46dd929e155c95e819dc8a3", "fusion_lat": 0.0, "name": "4e49583ba46dd929e155c95e819dc8a3", "is_reserved": 0, "rental_uris": {"android": "https://dc.lft.to/lastmile_qr_scan", "ios": "https://dc.lft.to/lastmile_qr_scan"}, "fusion_lon": 0.0}, {"lat": 38.93260466666667, "is_disabled": 0, "type": "electric_scooter", "lon": -77.03262766666667, "bike_id": "090de3926d613152df6fb58df61a732f", "fusion_lat": 0.0, "name": "090de3926d613152df6fb58df61a732f", "is_reserved": 0, "rental_uris": {"android": "https://dc.lft.to/lastmile_qr_scan", "ios": "https://dc.lft.to/lastmile_qr_scan"}, "fusion_lon": 0.0}, {"lat": 38.90685033333333, "is_disabled": 0, "type": "electric_scooter", "lon": -77.06266316666667, "bike_id": "59d183fec046f0cddd379053eead3422", "fusion_lat": 0.0, "name": "59d183fec046f0cddd379053eead3422", "is_reserved": 0, "rental_uris": {"android": "https://dc.lft.to/lastmile_qr_scan", "ios": "https://dc.lft.to/lastmile_qr_scan"}, "fusion_lon": 0.0}, {"lat": 38.923024166666664, "is_disabled": 0, "type": "electric_scooter", "lon": -77.0414465, "bike_id": "756181dbf16976f45641338d1fdb080f", "fusion_lat": 0.0, "name": "756181dbf16976f45641338d1fdb080f", "is_reserved": 0, "rental_uris": {"android": "https://dc.lft.to/lastmile_qr_scan", "ios": "https://dc.lft.to/lastmile_qr_scan"}, "fusion_lon": 0.0}, {"lat": 38.86653866666666, "is_disabled": 0, "type": "electric_scooter", "lon": -76.9888245, "bike_id": "a4096a36eaba34a1a87d0247d22bc55a", "fusion_lat": 0.0, "name": "a4096a36eaba34a1a87d0247d22bc55a", "is_reserved": 0, "rental_uris": {"android": "https://dc.lft.to/lastmile_qr_scan", "ios": "https://dc.lft.to/lastmile_qr_scan"}, "fusion_lon": 0.0}, {"lat": 38.921846333333335, "is_disabled": 0, "type": "electric_scooter", "lon": -77.04713316666667, "bike_id": "b685cab9a9bd7db6deb6ae7e0e47f94f", "fusion_lat": 0.0, "name": "b685cab9a9bd7db6deb6ae7e0e47f94f", "is_reserved": 0, "rental_uris": {"android": "https://dc.lft.to/lastmile_qr_scan", "ios": "https://dc.lft.to/lastmile_qr_scan"}, "fusion_lon": 0.0}, {"lat": 38.96492716666667, "is_disabled": 0, "type": "electric_scooter", "lon": -77.02781683333333, "bike_id": "63989e268ac8d31e00959e9fc6a025e6", "fusion_lat": 0.0, "name": "63989e268ac8d31e00959e9fc6a025e6", "is_reserved": 0, "rental_uris": {"android": "https://dc.lft.to/lastmile_qr_scan", "ios": "https://dc.lft.to/lastmile_qr_scan"}, "fusion_lon": 0.0}, {"lat": 38.88083433333333, "is_disabled": 0, "type": "electric_scooter", "lon": -76.98535266666667, "bike_id": "2a00d08ba3916df57030a07e49f54a3f", "fusion_lat": 0.0, "name": "2a00d08ba3916df57030a07e49f54a3f", "is_reserved": 0, "rental_uris": {"android": "https://dc.lft.to/lastmile_qr_scan", "ios": "https://dc.lft.to/lastmile_qr_scan"}, "fusion_lon": 0.0}, {"lat": 38.950756, "is_disabled": 0, "type": "electric_scooter", "lon": -77.00879983333333, "bike_id": "50720d6a3a2e3b237fab304aa647df76", "fusion_lat": 0.0, "name": "50720d6a3a2e3b237fab304aa647df76", "is_reserved": 0, "rental_uris": {"android": "https://dc.lft.to/lastmile_qr_scan", "ios": "https://dc.lft.to/lastmile_qr_scan"}, "fusion_lon": 0.0}, {"lat": 38.960239, "is_disabled": 0, "type": "electric_bike", "lon": -77.0172775, "bike_id": "a3ae9adf604d48769702bd72d2dc0694", "fusion_lat": 0.0, "name": "a3ae9adf604d48769702bd72d2dc0694", "is_reserved": 0, "rental_uris": {"android": "https://dc.lft.to/lastmile_qr_scan", "ios": "https://dc.lft.to/lastmile_qr_scan"}, "fusion_lon": 0.0}, {"lat": 39.02928166666667, "is_disabled": 0, "type": "electric_bike", "lon": -77.0492755, "bike_id": "97907b9a3299d39c18828f8af015d4f8", "fusion_lat": 0.0, "name": "97907b9a3299d39c18828f8af015d4f8", "is_reserved": 0, "rental_uris": {"android": "https://dc.lft.to/lastmile_qr_scan", "ios": "https://dc.lft.to/lastmile_qr_scan"}, "fusion_lon": 0.0}, {"lat": 38.89990983333333, "is_disabled": 0, "type": "electric_scooter", "lon": -77.0227955, "bike_id": "c6e764de68b2eca8154b07ed6b081fb1", "fusion_lat": 0.0, "name": "c6e764de68b2eca8154b07ed6b081fb1", "is_reserved": 0, "rental_uris": {"android": "https://dc.lft.to/lastmile_qr_scan", "ios": "https://dc.lft.to/lastmile_qr_scan"}, "fusion_lon": 0.0}, {"lat": 38.9540685, "is_disabled": 0, "type": "electric_scooter", "lon": -77.02752883333334, "bike_id": "72403c57dcfc500db5bb73226f5c2631", "fusion_lat": 0.0, "name": "72403c57dcfc500db5bb73226f5c2631", "is_reserved": 0, "rental_uris": {"android": "https://dc.lft.to/lastmile_qr_scan", "ios": "https://dc.lft.to/lastmile_qr_scan"}, "fusion_lon": 0.0}, {"lat": 38.876514666666665, "is_disabled": 0, "type": "electric_scooter", "lon": -77.00419583333333, "bike_id": "d80560eb3347c8b57a7c6b4a5eb18575", "fusion_lat": 0.0, "name": "d80560eb3347c8b57a7c6b4a5eb18575", "is_reserved": 0, "rental_uris": {"android": "https://dc.lft.to/lastmile_qr_scan", "ios": "https://dc.lft.to/lastmile_qr_scan"}, "fusion_lon": 0.0}, {"lat": 38.959252166666666, "is_disabled": 0, "type": "electric_bike", "lon": -77.03125983333334, "bike_id": "af0e5809a5c99016ac039ba46a1776eb", "fusion_lat": 0.0, "name": "af0e5809a5c99016ac039ba46a1776eb", "is_reserved": 0, "rental_uris": {"android": "https://dc.lft.to/lastmile_qr_scan", "ios": "https://dc.lft.to/lastmile_qr_scan"}, "fusion_lon": 0.0}, {"lat": 38.908669833333335, "is_disabled": 0, "type": "electric_bike", "lon": -77.08080016666666, "bike_id": "22349c36bc08a1858208f57570f77ceb", "fusion_lat": 0.0, "name": "22349c36bc08a1858208f57570f77ceb", "is_reserved": 0, "rental_uris": {"android": "https://dc.lft.to/lastmile_qr_scan", "ios": "https://dc.lft.to/lastmile_qr_scan"}, "fusion_lon": 0.0}, {"lat": 38.917244333333336, "is_disabled": 0, "type": "electric_scooter", "lon": -77.0410395, "bike_id": "e76625ed964f3eda2bbc285bc6df4fde", "fusion_lat": 0.0, "name": "e76625ed964f3eda2bbc285bc6df4fde", "is_reserved": 0, "rental_uris": {"android": "https://dc.lft.to/lastmile_qr_scan", "ios": "https://dc.lft.to/lastmile_qr_scan"}, "fusion_lon": 0.0}, {"lat": 38.923492833333334, "is_disabled": 0, "type": "electric_scooter", "lon": -77.03360033333334, "bike_id": "7fb8c19b50067938f1a01ad179255163", "fusion_lat": 0.0, "name": "7fb8c19b50067938f1a01ad179255163", "is_reserved": 0, "rental_uris": {"android": "https://dc.lft.to/lastmile_qr_scan", "ios": "https://dc.lft.to/lastmile_qr_scan"}, "fusion_lon": 0.0}, {"lat": 38.919926333333336, "is_disabled": 0, "type": "electric_scooter", "lon": -76.97315866666666, "bike_id": "c7801502ccc90d305b5af07ab1392655", "fusion_lat": 0.0, "name": "c7801502ccc90d305b5af07ab1392655", "is_reserved": 0, "rental_uris": {"android": "https://dc.lft.to/lastmile_qr_scan", "ios": "https://dc.lft.to/lastmile_qr_scan"}, "fusion_lon": 0.0}, {"lat": 38.8847065, "is_disabled": 0, "type": "electric_scooter", "lon": -76.992551, "bike_id": "c34763e2f1359667a3ed8eda12946fcf", "fusion_lat": 0.0, "name": "c34763e2f1359667a3ed8eda12946fcf", "is_reserved": 0, "rental_uris": {"android": "https://dc.lft.to/lastmile_qr_scan", "ios": "https://dc.lft.to/lastmile_qr_scan"}, "fusion_lon": 0.0}, {"lat": 38.885044, "is_disabled": 0, "type": "electric_scooter", "lon": -77.01555783333333, "bike_id": "bc43a7031a15747ca81e56f065a2da59", "fusion_lat": 0.0, "name": "bc43a7031a15747ca81e56f065a2da59", "is_reserved": 0, "rental_uris": {"android": "https://dc.lft.to/lastmile_qr_scan", "ios": "https://dc.lft.to/lastmile_qr_scan"}, "fusion_lon": 0.0}, {"lat": 38.913248833333334, "is_disabled": 0, "type": "electric_scooter", "lon": -77.03117266666666, "bike_id": "40ff159acc39f21fc49fba3dca4076e0", "fusion_lat": 0.0, "name": "40ff159acc39f21fc49fba3dca4076e0", "is_reserved": 0, "rental_uris": {"android": "https://dc.lft.to/lastmile_qr_scan", "ios": "https://dc.lft.to/lastmile_qr_scan"}, "fusion_lon": 0.0}, {"lat": 38.894605, "is_disabled": 0, "type": "electric_scooter", "lon": -77.02141033333334, "bike_id": "80dabb68e08d8cb64e43cbf472e9aeb1", "fusion_lat": 0.0, "name": "80dabb68e08d8cb64e43cbf472e9aeb1", "is_reserved": 0, "rental_uris": {"android": "https://dc.lft.to/lastmile_qr_scan", "ios": "https://dc.lft.to/lastmile_qr_scan"}, "fusion_lon": 0.0}, {"lat": 38.92590883333333, "is_disabled": 0, "type": "electric_scooter", "lon": -77.0048295, "bike_id": "644c96b4f2df0baba3656427dca08281", "fusion_lat": 0.0, "name": "644c96b4f2df0baba3656427dca08281", "is_reserved": 0, "rental_uris": {"android": "https://dc.lft.to/lastmile_qr_scan", "ios": "https://dc.lft.to/lastmile_qr_scan"}, "fusion_lon": 0.0}, {"lat": 38.9254575, "is_disabled": 0, "type": "electric_scooter", "lon": -77.03299733333333, "bike_id": "862bf62df392bea1ccf490836cec58a3", "fusion_lat": 0.0, "name": "862bf62df392bea1ccf490836cec58a3", "is_reserved": 0, "rental_uris": {"android": "https://dc.lft.to/lastmile_qr_scan", "ios": "https://dc.lft.to/lastmile_qr_scan"}, "fusion_lon": 0.0}, {"lat": 38.89876783333333, "is_disabled": 0, "type": "electric_scooter", "lon": -76.931836, "bike_id": "8b6bf1c185d344fb4f0f133bc75ed17d", "fusion_lat": 0.0, "name": "8b6bf1c185d344fb4f0f133bc75ed17d", "is_reserved": 0, "rental_uris": {"android": "https://dc.lft.to/lastmile_qr_scan", "ios": "https://dc.lft.to/lastmile_qr_scan"}, "fusion_lon": 0.0}, {"lat": 38.9188675, "is_disabled": 0, "type": "electric_scooter", "lon": -77.047359, "bike_id": "7c935465c165a3d48d79aa7489b67ad5", "fusion_lat": 0.0, "name": "7c935465c165a3d48d79aa7489b67ad5", "is_reserved": 0, "rental_uris": {"android": "https://dc.lft.to/lastmile_qr_scan", "ios": "https://dc.lft.to/lastmile_qr_scan"}, "fusion_lon": 0.0}, {"lat": 38.95141916666667, "is_disabled": 0, "type": "electric_scooter", "lon": -77.01334566666667, "bike_id": "b133ab8f035ecc02e89339feace99be7", "fusion_lat": 0.0, "name": "b133ab8f035ecc02e89339feace99be7", "is_reserved": 0, "rental_uris": {"android": "https://dc.lft.to/lastmile_qr_scan", "ios": "https://dc.lft.to/lastmile_qr_scan"}, "fusion_lon": 0.0}, {"lat": 38.9179225, "is_disabled": 0, "type": "electric_scooter", "lon": -77.04074133333333, "bike_id": "0eb3100218b0f6621d20326e4fffb345", "fusion_lat": 0.0, "name": "0eb3100218b0f6621d20326e4fffb345", "is_reserved": 0, "rental_uris": {"android": "https://dc.lft.to/lastmile_qr_scan", "ios": "https://dc.lft.to/lastmile_qr_scan"}, "fusion_lon": 0.0}, {"lat": 38.901251333333335, "is_disabled": 0, "type": "electric_scooter", "lon": -76.9974525, "bike_id": "fe5c862972d5c1ccad3ba50b6d45bc26", "fusion_lat": 0.0, "name": "fe5c862972d5c1ccad3ba50b6d45bc26", "is_reserved": 0, "rental_uris": {"android": "https://dc.lft.to/lastmile_qr_scan", "ios": "https://dc.lft.to/lastmile_qr_scan"}, "fusion_lon": 0.0}, {"lat": 38.915559, "is_disabled": 0, "type": "electric_scooter", "lon": -77.04876366666667, "bike_id": "ce4508c4dec586f7fd440d5bf34f27ae", "fusion_lat": 0.0, "name": "ce4508c4dec586f7fd440d5bf34f27ae", "is_reserved": 0, "rental_uris": {"android": "https://dc.lft.to/lastmile_qr_scan", "ios": "https://dc.lft.to/lastmile_qr_scan"}, "fusion_lon": 0.0}, {"lat": 38.970813, "is_disabled": 0, "type": "electric_bike", "lon": -77.06960816666667, "bike_id": "e45cb99d0a9ac6f387083e68f6c99d9d", "fusion_lat": 0.0, "name": "e45cb99d0a9ac6f387083e68f6c99d9d", "is_reserved": 0, "rental_uris": {"android": "https://dc.lft.to/lastmile_qr_scan", "ios": "https://dc.lft.to/lastmile_qr_scan"}, "fusion_lon": 0.0}, {"lat": 38.90731783333333, "is_disabled": 0, "type": "electric_scooter", "lon": -77.04755033333333, "bike_id": "1d4460105c85b259ea9a963082d9520a", "fusion_lat": 0.0, "name": "1d4460105c85b259ea9a963082d9520a", "is_reserved": 0, "rental_uris": {"android": "https://dc.lft.to/lastmile_qr_scan", "ios": "https://dc.lft.to/lastmile_qr_scan"}, "fusion_lon": 0.0}, {"lat": 38.903126666666665, "is_disabled": 0, "type": "electric_scooter", "lon": -76.97799616666667, "bike_id": "015664057d4e9513c587380347578ca4", "fusion_lat": 0.0, "name": "015664057d4e9513c587380347578ca4", "is_reserved": 0, "rental_uris": {"android": "https://dc.lft.to/lastmile_qr_scan", "ios": "https://dc.lft.to/lastmile_qr_scan"}, "fusion_lon": 0.0}, {"lat": 38.9066015, "is_disabled": 0, "type": "electric_scooter", "lon": -77.02509633333334, "bike_id": "9625cad429b716646f4ba6577ad150b4", "fusion_lat": 0.0, "name": "9625cad429b716646f4ba6577ad150b4", "is_reserved": 0, "rental_uris": {"android": "https://dc.lft.to/lastmile_qr_scan", "ios": "https://dc.lft.to/lastmile_qr_scan"}, "fusion_lon": 0.0}, {"lat": 38.9019855, "is_disabled": 0, "type": "electric_scooter", "lon": -77.02176866666667, "bike_id": "600c9fb1fe626adee8fe3190d89e4259", "fusion_lat": 0.0, "name": "600c9fb1fe626adee8fe3190d89e4259", "is_reserved": 0, "rental_uris": {"android": "https://dc.lft.to/lastmile_qr_scan", "ios": "https://dc.lft.to/lastmile_qr_scan"}, "fusion_lon": 0.0}, {"lat": 38.9964285, "is_disabled": 0, "type": "electric_scooter", "lon": -77.03181016666667, "bike_id": "deda8078e660b6e4e5d76def966a84cd", "fusion_lat": 0.0, "name": "deda8078e660b6e4e5d76def966a84cd", "is_reserved": 0, "rental_uris": {"android": "https://dc.lft.to/lastmile_qr_scan", "ios": "https://dc.lft.to/lastmile_qr_scan"}, "fusion_lon": 0.0}, {"lat": 38.90743716666667, "is_disabled": 0, "type": "electric_scooter", "lon": -76.9981895, "bike_id": "1bf49f90e3b15b3566a93f483b3e5b6b", "fusion_lat": 0.0, "name": "1bf49f90e3b15b3566a93f483b3e5b6b", "is_reserved": 0, "rental_uris": {"android": "https://dc.lft.to/lastmile_qr_scan", "ios": "https://dc.lft.to/lastmile_qr_scan"}, "fusion_lon": 0.0}, {"lat": 38.93310666666667, "is_disabled": 0, "type": "electric_scooter", "lon": -77.03446616666666, "bike_id": "5e9549fd19e1e661f4e09a2300f66a59", "fusion_lat": 0.0, "name": "5e9549fd19e1e661f4e09a2300f66a59", "is_reserved": 0, "rental_uris": {"android": "https://dc.lft.to/lastmile_qr_scan", "ios": "https://dc.lft.to/lastmile_qr_scan"}, "fusion_lon": 0.0}, {"lat": 38.894031166666664, "is_disabled": 0, "type": "electric_scooter", "lon": -76.95659916666666, "bike_id": "1e251327b32f2333fe8ff75213d53884", "fusion_lat": 0.0, "name": "1e251327b32f2333fe8ff75213d53884", "is_reserved": 0, "rental_uris": {"android": "https://dc.lft.to/lastmile_qr_scan", "ios": "https://dc.lft.to/lastmile_qr_scan"}, "fusion_lon": 0.0}, {"lat": 38.913280666666665, "is_disabled": 0, "type": "electric_scooter", "lon": -77.04809783333333, "bike_id": "10c698491476aa5708a30bfca7ef451b", "fusion_lat": 0.0, "name": "10c698491476aa5708a30bfca7ef451b", "is_reserved": 0, "rental_uris": {"android": "https://dc.lft.to/lastmile_qr_scan", "ios": "https://dc.lft.to/lastmile_qr_scan"}, "fusion_lon": 0.0}, {"lat": 38.908385833333334, "is_disabled": 0, "type": "electric_scooter", "lon": -76.99977016666666, "bike_id": "4305271a450593293b0813c3e24e9fa8", "fusion_lat": 0.0, "name": "4305271a450593293b0813c3e24e9fa8", "is_reserved": 0, "rental_uris": {"android": "https://dc.lft.to/lastmile_qr_scan", "ios": "https://dc.lft.to/lastmile_qr_scan"}, "fusion_lon": 0.0}, {"lat": 38.906696333333336, "is_disabled": 0, "type": "electric_scooter", "lon": -77.03859916666667, "bike_id": "a643213e132044a18a8416c735622353", "fusion_lat": 0.0, "name": "a643213e132044a18a8416c735622353", "is_reserved": 0, "rental_uris": {"android": "https://dc.lft.to/lastmile_qr_scan", "ios": "https://dc.lft.to/lastmile_qr_scan"}, "fusion_lon": 0.0}, {"lat": 38.9029275, "is_disabled": 0, "type": "electric_scooter", "lon": -77.04628266666667, "bike_id": "bc09dbf50e36df405812c8f9f97756dd", "fusion_lat": 0.0, "name": "bc09dbf50e36df405812c8f9f97756dd", "is_reserved": 0, "rental_uris": {"android": "https://dc.lft.to/lastmile_qr_scan", "ios": "https://dc.lft.to/lastmile_qr_scan"}, "fusion_lon": 0.0}, {"lat": 38.90967166666667, "is_disabled": 0, "type": "electric_scooter", "lon": -77.04516933333333, "bike_id": "0bbeefaa4e74776ea1b0588b84cc13ee", "fusion_lat": 0.0, "name": "0bbeefaa4e74776ea1b0588b84cc13ee", "is_reserved": 0, "rental_uris": {"android": "https://dc.lft.to/lastmile_qr_scan", "ios": "https://dc.lft.to/lastmile_qr_scan"}, "fusion_lon": 0.0}, {"lat": 38.864043333333335, "is_disabled": 0, "type": "electric_bike", "lon": -76.97434116666666, "bike_id": "156a8b8cb9e0a6f62e23c4c99babbc34", "fusion_lat": 0.0, "name": "156a8b8cb9e0a6f62e23c4c99babbc34", "is_reserved": 0, "rental_uris": {"android": "https://dc.lft.to/lastmile_qr_scan", "ios": "https://dc.lft.to/lastmile_qr_scan"}, "fusion_lon": 0.0}, {"lat": 38.905576833333335, "is_disabled": 0, "type": "electric_scooter", "lon": -77.0570545, "bike_id": "ffe03de1f6c4b40c2158388b4138c45e", "fusion_lat": 0.0, "name": "ffe03de1f6c4b40c2158388b4138c45e", "is_reserved": 0, "rental_uris": {"android": "https://dc.lft.to/lastmile_qr_scan", "ios": "https://dc.lft.to/lastmile_qr_scan"}, "fusion_lon": 0.0}, {"lat": 38.894854, "is_disabled": 0, "type": "electric_scooter", "lon": -76.94952416666666, "bike_id": "80f29d3cf6c8fb0fb4441fdd01b8b755", "fusion_lat": 0.0, "name": "80f29d3cf6c8fb0fb4441fdd01b8b755", "is_reserved": 0, "rental_uris": {"android": "https://dc.lft.to/lastmile_qr_scan", "ios": "https://dc.lft.to/lastmile_qr_scan"}, "fusion_lon": 0.0}, {"lat": 38.935745833333335, "is_disabled": 0, "type": "electric_scooter", "lon": -77.037296, "bike_id": "4d46647aa1517ee8241c946817338914", "fusion_lat": 0.0, "name": "4d46647aa1517ee8241c946817338914", "is_reserved": 0, "rental_uris": {"android": "https://dc.lft.to/lastmile_qr_scan", "ios": "https://dc.lft.to/lastmile_qr_scan"}, "fusion_lon": 0.0}, {"lat": 38.862241, "is_disabled": 0, "type": "electric_scooter", "lon": -76.98367766666667, "bike_id": "4bc62230d11268a372f48da94ebadb36", "fusion_lat": 0.0, "name": "4bc62230d11268a372f48da94ebadb36", "is_reserved": 0, "rental_uris": {"android": "https://dc.lft.to/lastmile_qr_scan", "ios": "https://dc.lft.to/lastmile_qr_scan"}, "fusion_lon": 0.0}, {"lat": 38.91692483333333, "is_disabled": 0, "type": "electric_scooter", "lon": -77.029776, "bike_id": "51db0fb736bc5fd2b30b0ec6941c435b", "fusion_lat": 0.0, "name": "51db0fb736bc5fd2b30b0ec6941c435b", "is_reserved": 0, "rental_uris": {"android": "https://dc.lft.to/lastmile_qr_scan", "ios": "https://dc.lft.to/lastmile_qr_scan"}, "fusion_lon": 0.0}, {"lat": 38.96166383333333, "is_disabled": 0, "type": "electric_scooter", "lon": -77.027846, "bike_id": "584aa7d71b1ebe5f344419050ef7acdb", "fusion_lat": 0.0, "name": "584aa7d71b1ebe5f344419050ef7acdb", "is_reserved": 0, "rental_uris": {"android": "https://dc.lft.to/lastmile_qr_scan", "ios": "https://dc.lft.to/lastmile_qr_scan"}, "fusion_lon": 0.0}, {"lat": 38.866177, "is_disabled": 0, "type": "electric_scooter", "lon": -76.98659633333334, "bike_id": "3159d28f731a704001b87a28496cb20f", "fusion_lat": 0.0, "name": "3159d28f731a704001b87a28496cb20f", "is_reserved": 0, "rental_uris": {"android": "https://dc.lft.to/lastmile_qr_scan", "ios": "https://dc.lft.to/lastmile_qr_scan"}, "fusion_lon": 0.0}, {"lat": 38.88274216666667, "is_disabled": 0, "type": "electric_bike", "lon": -76.93229366666667, "bike_id": "d8127909b9358efbb34d36ecd0c837e3", "fusion_lat": 0.0, "name": "d8127909b9358efbb34d36ecd0c837e3", "is_reserved": 0, "rental_uris": {"android": "https://dc.lft.to/lastmile_qr_scan", "ios": "https://dc.lft.to/lastmile_qr_scan"}, "fusion_lon": 0.0}, {"lat": 38.90336816666667, "is_disabled": 0, "type": "electric_scooter", "lon": -76.97053533333333, "bike_id": "96ecee1435abca93a87a36d1936b6a5e", "fusion_lat": 0.0, "name": "96ecee1435abca93a87a36d1936b6a5e", "is_reserved": 0, "rental_uris": {"android": "https://dc.lft.to/lastmile_qr_scan", "ios": "https://dc.lft.to/lastmile_qr_scan"}, "fusion_lon": 0.0}, {"lat": 38.91973516666667, "is_disabled": 0, "type": "electric_scooter", "lon": -77.02362716666667, "bike_id": "9f85a67ae61dab8a746c0e608de2ac78", "fusion_lat": 0.0, "name": "9f85a67ae61dab8a746c0e608de2ac78", "is_reserved": 0, "rental_uris": {"android": "https://dc.lft.to/lastmile_qr_scan", "ios": "https://dc.lft.to/lastmile_qr_scan"}, "fusion_lon": 0.0}, {"lat": 38.87939183333334, "is_disabled": 0, "type": "electric_scooter", "lon": -77.00742216666667, "bike_id": "0df97070b30af82d1fbb0b5846e1f119", "fusion_lat": 0.0, "name": "0df97070b30af82d1fbb0b5846e1f119", "is_reserved": 0, "rental_uris": {"android": "https://dc.lft.to/lastmile_qr_scan", "ios": "https://dc.lft.to/lastmile_qr_scan"}, "fusion_lon": 0.0}, {"lat": 38.91563, "is_disabled": 0, "type": "electric_scooter", "lon": -77.0097455, "bike_id": "b1efae7c1e3102aa50b15f9279bec791", "fusion_lat": 0.0, "name": "b1efae7c1e3102aa50b15f9279bec791", "is_reserved": 0, "rental_uris": {"android": "https://dc.lft.to/lastmile_qr_scan", "ios": "https://dc.lft.to/lastmile_qr_scan"}, "fusion_lon": 0.0}, {"lat": 38.89223283333333, "is_disabled": 0, "type": "electric_scooter", "lon": -77.04866483333333, "bike_id": "c3c0190e6a1973cf4dffe4acfb59deef", "fusion_lat": 0.0, "name": "c3c0190e6a1973cf4dffe4acfb59deef", "is_reserved": 0, "rental_uris": {"android": "https://dc.lft.to/lastmile_qr_scan", "ios": "https://dc.lft.to/lastmile_qr_scan"}, "fusion_lon": 0.0}, {"lat": 38.898963333333334, "is_disabled": 0, "type": "electric_scooter", "lon": -77.02946066666667, "bike_id": "f20a24bd4deabd45da1111ee25859791", "fusion_lat": 0.0, "name": "f20a24bd4deabd45da1111ee25859791", "is_reserved": 0, "rental_uris": {"android": "https://dc.lft.to/lastmile_qr_scan", "ios": "https://dc.lft.to/lastmile_qr_scan"}, "fusion_lon": 0.0}, {"lat": 38.908721666666665, "is_disabled": 0, "type": "electric_scooter", "lon": -77.03638733333334, "bike_id": "c874801e0d0455343459908cb00c6d1e", "fusion_lat": 0.0, "name": "c874801e0d0455343459908cb00c6d1e", "is_reserved": 0, "rental_uris": {"android": "https://dc.lft.to/lastmile_qr_scan", "ios": "https://dc.lft.to/lastmile_qr_scan"}, "fusion_lon": 0.0}, {"lat": 38.94915566666667, "is_disabled": 0, "type": "electric_bike", "lon": -77.00792583333333, "bike_id": "ce8064a461eca00425e89867c2603606", "fusion_lat": 0.0, "name": "ce8064a461eca00425e89867c2603606", "is_reserved": 0, "rental_uris": {"android": "https://dc.lft.to/lastmile_qr_scan", "ios": "https://dc.lft.to/lastmile_qr_scan"}, "fusion_lon": 0.0}, {"lat": 38.961462833333336, "is_disabled": 0, "type": "electric_bike", "lon": -77.03231233333334, "bike_id": "2fbbec9d10e7c24b2c9a1dc761c4901f", "fusion_lat": 0.0, "name": "2fbbec9d10e7c24b2c9a1dc761c4901f", "is_reserved": 0, "rental_uris": {"android": "https://dc.lft.to/lastmile_qr_scan", "ios": "https://dc.lft.to/lastmile_qr_scan"}, "fusion_lon": 0.0}, {"lat": 38.91681966666667, "is_disabled": 0, "type": "electric_scooter", "lon": -77.02943216666667, "bike_id": "be6f71c9a0c0479ca86b768ba1015e33", "fusion_lat": 0.0, "name": "be6f71c9a0c0479ca86b768ba1015e33", "is_reserved": 0, "rental_uris": {"android": "https://dc.lft.to/lastmile_qr_scan", "ios": "https://dc.lft.to/lastmile_qr_scan"}, "fusion_lon": 0.0}, {"lat": 38.92243216666667, "is_disabled": 0, "type": "electric_scooter", "lon": -77.02914566666666, "bike_id": "088172b06dea5bec83453beb363e2aa5", "fusion_lat": 0.0, "name": "088172b06dea5bec83453beb363e2aa5", "is_reserved": 0, "rental_uris": {"android": "https://dc.lft.to/lastmile_qr_scan", "ios": "https://dc.lft.to/lastmile_qr_scan"}, "fusion_lon": 0.0}, {"lat": 38.9151785, "is_disabled": 0, "type": "electric_scooter", "lon": -77.03845116666666, "bike_id": "2eb1778793078fed77ea037fa718f5ea", "fusion_lat": 0.0, "name": "2eb1778793078fed77ea037fa718f5ea", "is_reserved": 0, "rental_uris": {"android": "https://dc.lft.to/lastmile_qr_scan", "ios": "https://dc.lft.to/lastmile_qr_scan"}, "fusion_lon": 0.0}, {"lat": 38.908623, "is_disabled": 0, "type": "electric_scooter", "lon": -77.04667366666666, "bike_id": "88468d91c272d79e4a59d53a79943211", "fusion_lat": 0.0, "name": "88468d91c272d79e4a59d53a79943211", "is_reserved": 0, "rental_uris": {"android": "https://dc.lft.to/lastmile_qr_scan", "ios": "https://dc.lft.to/lastmile_qr_scan"}, "fusion_lon": 0.0}, {"lat": 38.9003415, "is_disabled": 0, "type": "electric_scooter", "lon": -76.99679216666667, "bike_id": "ba6fb37dea80164c1f3a580e6a29dd23", "fusion_lat": 0.0, "name": "ba6fb37dea80164c1f3a580e6a29dd23", "is_reserved": 0, "rental_uris": {"android": "https://dc.lft.to/lastmile_qr_scan", "ios": "https://dc.lft.to/lastmile_qr_scan"}, "fusion_lon": 0.0}, {"lat": 38.916704, "is_disabled": 0, "type": "electric_bike", "lon": -77.04735316666667, "bike_id": "ba7aef1981035b07618ba49d70821960", "fusion_lat": 0.0, "name": "ba7aef1981035b07618ba49d70821960", "is_reserved": 0, "rental_uris": {"android": "https://dc.lft.to/lastmile_qr_scan", "ios": "https://dc.lft.to/lastmile_qr_scan"}, "fusion_lon": 0.0}, {"lat": 38.924043833333336, "is_disabled": 0, "type": "electric_scooter", "lon": -77.02540616666667, "bike_id": "e85482ee42fa6d1da9d9e6df17b66b3d", "fusion_lat": 0.0, "name": "e85482ee42fa6d1da9d9e6df17b66b3d", "is_reserved": 0, "rental_uris": {"android": "https://dc.lft.to/lastmile_qr_scan", "ios": "https://dc.lft.to/lastmile_qr_scan"}, "fusion_lon": 0.0}, {"lat": 38.9357965, "is_disabled": 0, "type": "electric_scooter", "lon": -77.05883583333333, "bike_id": "381dad8c432489a1423c3d53ae4c404e", "fusion_lat": 0.0, "name": "381dad8c432489a1423c3d53ae4c404e", "is_reserved": 0, "rental_uris": {"android": "https://dc.lft.to/lastmile_qr_scan", "ios": "https://dc.lft.to/lastmile_qr_scan"}, "fusion_lon": 0.0}, {"lat": 38.9086515, "is_disabled": 0, "type": "electric_bike", "lon": -76.94007816666667, "bike_id": "33645e2b80cb83bd0461f8e6ec9c809e", "fusion_lat": 0.0, "name": "33645e2b80cb83bd0461f8e6ec9c809e", "is_reserved": 0, "rental_uris": {"android": "https://dc.lft.to/lastmile_qr_scan", "ios": "https://dc.lft.to/lastmile_qr_scan"}, "fusion_lon": 0.0}, {"lat": 38.921782, "is_disabled": 0, "type": "electric_scooter", "lon": -77.0336665, "bike_id": "3117db676bff97000114a544ef9036ef", "fusion_lat": 0.0, "name": "3117db676bff97000114a544ef9036ef", "is_reserved": 0, "rental_uris": {"android": "https://dc.lft.to/lastmile_qr_scan", "ios": "https://dc.lft.to/lastmile_qr_scan"}, "fusion_lon": 0.0}, {"lat": 38.92206016666667, "is_disabled": 0, "type": "electric_scooter", "lon": -77.04021633333333, "bike_id": "a1f3bec0912e941c3bcd7e23a06b7cc1", "fusion_lat": 0.0, "name": "a1f3bec0912e941c3bcd7e23a06b7cc1", "is_reserved": 0, "rental_uris": {"android": "https://dc.lft.to/lastmile_qr_scan", "ios": "https://dc.lft.to/lastmile_qr_scan"}, "fusion_lon": 0.0}, {"lat": 38.86706383333333, "is_disabled": 0, "type": "electric_scooter", "lon": -76.98726333333333, "bike_id": "0609011ecd25d948628cce45eb34a76e", "fusion_lat": 0.0, "name": "0609011ecd25d948628cce45eb34a76e", "is_reserved": 0, "rental_uris": {"android": "https://dc.lft.to/lastmile_qr_scan", "ios": "https://dc.lft.to/lastmile_qr_scan"}, "fusion_lon": 0.0}, {"lat": 38.89607733333333, "is_disabled": 0, "type": "electric_scooter", "lon": -77.01224483333333, "bike_id": "1b71be8dd79d601a0cfc73983b063747", "fusion_lat": 0.0, "name": "1b71be8dd79d601a0cfc73983b063747", "is_reserved": 0, "rental_uris": {"android": "https://dc.lft.to/lastmile_qr_scan", "ios": "https://dc.lft.to/lastmile_qr_scan"}, "fusion_lon": 0.0}, {"lat": 38.87139916666667, "is_disabled": 0, "type": "electric_bike", "lon": -76.93695666666666, "bike_id": "1370e934bf250bc96ab5929ad4ce1d37", "fusion_lat": 0.0, "name": "1370e934bf250bc96ab5929ad4ce1d37", "is_reserved": 0, "rental_uris": {"android": "https://dc.lft.to/lastmile_qr_scan", "ios": "https://dc.lft.to/lastmile_qr_scan"}, "fusion_lon": 0.0}, {"lat": 38.916211, "is_disabled": 0, "type": "electric_scooter", "lon": -77.03272233333334, "bike_id": "b76a98cd0f5bf721efd846ad436ed5a1", "fusion_lat": 0.0, "name": "b76a98cd0f5bf721efd846ad436ed5a1", "is_reserved": 0, "rental_uris": {"android": "https://dc.lft.to/lastmile_qr_scan", "ios": "https://dc.lft.to/lastmile_qr_scan"}, "fusion_lon": 0.0}, {"lat": 38.88432133333333, "is_disabled": 0, "type": "electric_bike", "lon": -76.95759533333333, "bike_id": "6a4f4b78b600c36efd83dcc7ceecf305", "fusion_lat": 0.0, "name": "6a4f4b78b600c36efd83dcc7ceecf305", "is_reserved": 0, "rental_uris": {"android": "https://dc.lft.to/lastmile_qr_scan", "ios": "https://dc.lft.to/lastmile_qr_scan"}, "fusion_lon": 0.0}, {"lat": 38.93105166666667, "is_disabled": 0, "type": "electric_scooter", "lon": -77.034691, "bike_id": "2df166155086611345349defb9072eb8", "fusion_lat": 0.0, "name": "2df166155086611345349defb9072eb8", "is_reserved": 0, "rental_uris": {"android": "https://dc.lft.to/lastmile_qr_scan", "ios": "https://dc.lft.to/lastmile_qr_scan"}, "fusion_lon": 0.0}, {"lat": 38.901713, "is_disabled": 0, "type": "electric_scooter", "lon": -76.98067783333333, "bike_id": "059b11fc589426dbb18fbff4c4200424", "fusion_lat": 0.0, "name": "059b11fc589426dbb18fbff4c4200424", "is_reserved": 0, "rental_uris": {"android": "https://dc.lft.to/lastmile_qr_scan", "ios": "https://dc.lft.to/lastmile_qr_scan"}, "fusion_lon": 0.0}, {"lat": 38.9309645, "is_disabled": 0, "type": "electric_scooter", "lon": -77.02519733333334, "bike_id": "74e65bade8644b34532e24be26ba2252", "fusion_lat": 0.0, "name": "74e65bade8644b34532e24be26ba2252", "is_reserved": 0, "rental_uris": {"android": "https://dc.lft.to/lastmile_qr_scan", "ios": "https://dc.lft.to/lastmile_qr_scan"}, "fusion_lon": 0.0}, {"lat": 38.87147683333333, "is_disabled": 0, "type": "electric_scooter", "lon": -77.01323666666667, "bike_id": "0e5612a83189ce027075ceffdeb1b808", "fusion_lat": 0.0, "name": "0e5612a83189ce027075ceffdeb1b808", "is_reserved": 0, "rental_uris": {"android": "https://dc.lft.to/lastmile_qr_scan", "ios": "https://dc.lft.to/lastmile_qr_scan"}, "fusion_lon": 0.0}, {"lat": 38.845749166666664, "is_disabled": 0, "type": "electric_bike", "lon": -77.09625816666667, "bike_id": "caea35f5b2845ae940fcced6aed14bf9", "fusion_lat": 0.0, "name": "caea35f5b2845ae940fcced6aed14bf9", "is_reserved": 0, "rental_uris": {"android": "https://dc.lft.to/lastmile_qr_scan", "ios": "https://dc.lft.to/lastmile_qr_scan"}, "fusion_lon": 0.0}, {"lat": 38.920717333333336, "is_disabled": 0, "type": "electric_scooter", "lon": -77.0242415, "bike_id": "b4d40a3ee0c1af09f4fa3fbc5aa904f2", "fusion_lat": 0.0, "name": "b4d40a3ee0c1af09f4fa3fbc5aa904f2", "is_reserved": 0, "rental_uris": {"android": "https://dc.lft.to/lastmile_qr_scan", "ios": "https://dc.lft.to/lastmile_qr_scan"}, "fusion_lon": 0.0}, {"lat": 38.902386166666666, "is_disabled": 0, "type": "electric_scooter", "lon": -77.05321266666667, "bike_id": "4ff4192aaaec93dc1eb8e421aac7f13b", "fusion_lat": 0.0, "name": "4ff4192aaaec93dc1eb8e421aac7f13b", "is_reserved": 0, "rental_uris": {"android": "https://dc.lft.to/lastmile_qr_scan", "ios": "https://dc.lft.to/lastmile_qr_scan"}, "fusion_lon": 0.0}, {"lat": 38.83686766666667, "is_disabled": 0, "type": "electric_scooter", "lon": -77.10307433333334, "bike_id": "0b7f301b4e984ca7550d29f7779ef563", "fusion_lat": 0.0, "name": "0b7f301b4e984ca7550d29f7779ef563", "is_reserved": 0, "rental_uris": {"android": "https://dc.lft.to/lastmile_qr_scan", "ios": "https://dc.lft.to/lastmile_qr_scan"}, "fusion_lon": 0.0}, {"lat": 38.867127833333335, "is_disabled": 0, "type": "electric_scooter", "lon": -76.9872595, "bike_id": "d799138ce16d9439bea9d2c4ca8c89a5", "fusion_lat": 0.0, "name": "d799138ce16d9439bea9d2c4ca8c89a5", "is_reserved": 0, "rental_uris": {"android": "https://dc.lft.to/lastmile_qr_scan", "ios": "https://dc.lft.to/lastmile_qr_scan"}, "fusion_lon": 0.0}, {"lat": 38.904749, "is_disabled": 0, "type": "electric_scooter", "lon": -77.0073515, "bike_id": "c2b5b2105fdc775464df5d79e1d6c723", "fusion_lat": 0.0, "name": "c2b5b2105fdc775464df5d79e1d6c723", "is_reserved": 0, "rental_uris": {"android": "https://dc.lft.to/lastmile_qr_scan", "ios": "https://dc.lft.to/lastmile_qr_scan"}, "fusion_lon": 0.0}, {"lat": 38.911642666666665, "is_disabled": 0, "type": "electric_bike", "lon": -77.003055, "bike_id": "88a27d9bfeceac22704b7ca440522f06", "fusion_lat": 0.0, "name": "88a27d9bfeceac22704b7ca440522f06", "is_reserved": 0, "rental_uris": {"android": "https://dc.lft.to/lastmile_qr_scan", "ios": "https://dc.lft.to/lastmile_qr_scan"}, "fusion_lon": 0.0}, {"lat": 38.900067666666665, "is_disabled": 0, "type": "electric_scooter", "lon": -76.98791933333334, "bike_id": "97b9f89d3573cb0c509a5a4f123e838d", "fusion_lat": 0.0, "name": "97b9f89d3573cb0c509a5a4f123e838d", "is_reserved": 0, "rental_uris": {"android": "https://dc.lft.to/lastmile_qr_scan", "ios": "https://dc.lft.to/lastmile_qr_scan"}, "fusion_lon": 0.0}, {"lat": 38.915594666666664, "is_disabled": 0, "type": "electric_scooter", "lon": -77.00978766666667, "bike_id": "1cc7c21f412d5c230583dbbb86336261", "fusion_lat": 0.0, "name": "1cc7c21f412d5c230583dbbb86336261", "is_reserved": 0, "rental_uris": {"android": "https://dc.lft.to/lastmile_qr_scan", "ios": "https://dc.lft.to/lastmile_qr_scan"}, "fusion_lon": 0.0}, {"lat": 38.854227, "is_disabled": 0, "type": "electric_bike", "lon": -76.90971266666666, "bike_id": "a47fb99c90409ddeddf47cd3279ff07d", "fusion_lat": 0.0, "name": "a47fb99c90409ddeddf47cd3279ff07d", "is_reserved": 0, "rental_uris": {"android": "https://dc.lft.to/lastmile_qr_scan", "ios": "https://dc.lft.to/lastmile_qr_scan"}, "fusion_lon": 0.0}, {"lat": 38.91880916666667, "is_disabled": 0, "type": "electric_scooter", "lon": -77.035099, "bike_id": "d6f4d1c3511afad752c3ef0c7a9b98eb", "fusion_lat": 0.0, "name": "d6f4d1c3511afad752c3ef0c7a9b98eb", "is_reserved": 0, "rental_uris": {"android": "https://dc.lft.to/lastmile_qr_scan", "ios": "https://dc.lft.to/lastmile_qr_scan"}, "fusion_lon": 0.0}, {"lat": 38.923848666666665, "is_disabled": 0, "type": "electric_scooter", "lon": -77.0275505, "bike_id": "6c94b686af9a67cf0d532e268054e580", "fusion_lat": 0.0, "name": "6c94b686af9a67cf0d532e268054e580", "is_reserved": 0, "rental_uris": {"android": "https://dc.lft.to/lastmile_qr_scan", "ios": "https://dc.lft.to/lastmile_qr_scan"}, "fusion_lon": 0.0}, {"lat": 38.9048985, "is_disabled": 0, "type": "electric_scooter", "lon": -76.995281, "bike_id": "8b77d25cc969bc8111639cafeaeb750f", "fusion_lat": 0.0, "name": "8b77d25cc969bc8111639cafeaeb750f", "is_reserved": 0, "rental_uris": {"android": "https://dc.lft.to/lastmile_qr_scan", "ios": "https://dc.lft.to/lastmile_qr_scan"}, "fusion_lon": 0.0}, {"lat": 38.84427183333333, "is_disabled": 0, "type": "electric_scooter", "lon": -76.99777283333333, "bike_id": "ad8776a5588a652f1397b56b38137314", "fusion_lat": 0.0, "name": "ad8776a5588a652f1397b56b38137314", "is_reserved": 0, "rental_uris": {"android": "https://dc.lft.to/lastmile_qr_scan", "ios": "https://dc.lft.to/lastmile_qr_scan"}, "fusion_lon": 0.0}, {"lat": 38.810469, "is_disabled": 0, "type": "electric_bike", "lon": -77.0851165, "bike_id": "420016d58056697757eb7fd9fd581d5c", "fusion_lat": 0.0, "name": "420016d58056697757eb7fd9fd581d5c", "is_reserved": 0, "rental_uris": {"android": "https://dc.lft.to/lastmile_qr_scan", "ios": "https://dc.lft.to/lastmile_qr_scan"}, "fusion_lon": 0.0}, {"lat": 38.92616133333333, "is_disabled": 0, "type": "electric_scooter", "lon": -77.05694383333334, "bike_id": "1892738ae19aec8600ff7819b3ad6a82", "fusion_lat": 0.0, "name": "1892738ae19aec8600ff7819b3ad6a82", "is_reserved": 0, "rental_uris": {"android": "https://dc.lft.to/lastmile_qr_scan", "ios": "https://dc.lft.to/lastmile_qr_scan"}, "fusion_lon": 0.0}, {"lat": 38.9459505, "is_disabled": 0, "type": "electric_scooter", "lon": -77.07025966666667, "bike_id": "df4069cc19264b46a78f09a600209182", "fusion_lat": 0.0, "name": "df4069cc19264b46a78f09a600209182", "is_reserved": 0, "rental_uris": {"android": "https://dc.lft.to/lastmile_qr_scan", "ios": "https://dc.lft.to/lastmile_qr_scan"}, "fusion_lon": 0.0}, {"lat": 38.90377316666667, "is_disabled": 0, "type": "electric_scooter", "lon": -77.05313983333333, "bike_id": "6b5fdd2befb5a5b2e662c2993b3e1a3f", "fusion_lat": 0.0, "name": "6b5fdd2befb5a5b2e662c2993b3e1a3f", "is_reserved": 0, "rental_uris": {"android": "https://dc.lft.to/lastmile_qr_scan", "ios": "https://dc.lft.to/lastmile_qr_scan"}, "fusion_lon": 0.0}, {"lat": 38.8829135, "is_disabled": 0, "type": "electric_bike", "lon": -76.98790833333334, "bike_id": "3a754d35dcfbdfc4c28a9c70d026c572", "fusion_lat": 0.0, "name": "3a754d35dcfbdfc4c28a9c70d026c572", "is_reserved": 0, "rental_uris": {"android": "https://dc.lft.to/lastmile_qr_scan", "ios": "https://dc.lft.to/lastmile_qr_scan"}, "fusion_lon": 0.0}, {"lat": 38.893742833333334, "is_disabled": 0, "type": "electric_scooter", "lon": -76.99114716666666, "bike_id": "ffce5d252bde1e79adb77415ece9d9c0", "fusion_lat": 0.0, "name": "ffce5d252bde1e79adb77415ece9d9c0", "is_reserved": 0, "rental_uris": {"android": "https://dc.lft.to/lastmile_qr_scan", "ios": "https://dc.lft.to/lastmile_qr_scan"}, "fusion_lon": 0.0}, {"lat": 38.92109, "is_disabled": 0, "type": "electric_scooter", "lon": -77.0420935, "bike_id": "be0abcd61fa761c7b894ab524c38693b", "fusion_lat": 0.0, "name": "be0abcd61fa761c7b894ab524c38693b", "is_reserved": 0, "rental_uris": {"android": "https://dc.lft.to/lastmile_qr_scan", "ios": "https://dc.lft.to/lastmile_qr_scan"}, "fusion_lon": 0.0}, {"lat": 38.87993016666667, "is_disabled": 0, "type": "electric_scooter", "lon": -77.0059225, "bike_id": "bfebda9da8500854915c60eb02a568b7", "fusion_lat": 0.0, "name": "bfebda9da8500854915c60eb02a568b7", "is_reserved": 0, "rental_uris": {"android": "https://dc.lft.to/lastmile_qr_scan", "ios": "https://dc.lft.to/lastmile_qr_scan"}, "fusion_lon": 0.0}, {"lat": 38.93113366666667, "is_disabled": 0, "type": "electric_scooter", "lon": -77.03032466666667, "bike_id": "e4aa1f96da6f549b27a1a2d6a37165cf", "fusion_lat": 0.0, "name": "e4aa1f96da6f549b27a1a2d6a37165cf", "is_reserved": 0, "rental_uris": {"android": "https://dc.lft.to/lastmile_qr_scan", "ios": "https://dc.lft.to/lastmile_qr_scan"}, "fusion_lon": 0.0}, {"lat": 38.919756166666666, "is_disabled": 0, "type": "electric_scooter", "lon": -77.0001485, "bike_id": "1d05f42ee973176893c2e8f05c524a51", "fusion_lat": 0.0, "name": "1d05f42ee973176893c2e8f05c524a51", "is_reserved": 0, "rental_uris": {"android": "https://dc.lft.to/lastmile_qr_scan", "ios": "https://dc.lft.to/lastmile_qr_scan"}, "fusion_lon": 0.0}, {"lat": 38.93414466666667, "is_disabled": 0, "type": "electric_bike", "lon": -77.02506766666667, "bike_id": "c6566aba60469bb770efdf9ccbaefaa5", "fusion_lat": 0.0, "name": "c6566aba60469bb770efdf9ccbaefaa5", "is_reserved": 0, "rental_uris": {"android": "https://dc.lft.to/lastmile_qr_scan", "ios": "https://dc.lft.to/lastmile_qr_scan"}, "fusion_lon": 0.0}, {"lat": 38.942328333333336, "is_disabled": 0, "type": "electric_scooter", "lon": -77.01388, "bike_id": "e01f325287500caf34e9dbe01519729d", "fusion_lat": 0.0, "name": "e01f325287500caf34e9dbe01519729d", "is_reserved": 0, "rental_uris": {"android": "https://dc.lft.to/lastmile_qr_scan", "ios": "https://dc.lft.to/lastmile_qr_scan"}, "fusion_lon": 0.0}, {"lat": 38.8461175, "is_disabled": 0, "type": "electric_bike", "lon": -76.96904483333333, "bike_id": "5dd2e8d1a11212b43c73b0de894e6c62", "fusion_lat": 0.0, "name": "5dd2e8d1a11212b43c73b0de894e6c62", "is_reserved": 0, "rental_uris": {"android": "https://dc.lft.to/lastmile_qr_scan", "ios": "https://dc.lft.to/lastmile_qr_scan"}, "fusion_lon": 0.0}, {"lat": 38.903618333333334, "is_disabled": 0, "type": "electric_scooter", "lon": -77.06271666666666, "bike_id": "fa3006707cfd808b704b216fafc63475", "fusion_lat": 0.0, "name": "fa3006707cfd808b704b216fafc63475", "is_reserved": 0, "rental_uris": {"android": "https://dc.lft.to/lastmile_qr_scan", "ios": "https://dc.lft.to/lastmile_qr_scan"}, "fusion_lon": 0.0}, {"lat": 38.904168166666665, "is_disabled": 0, "type": "electric_scooter", "lon": -76.99072483333333, "bike_id": "c3f4155dcee6760a7dca985b4b239384", "fusion_lat": 0.0, "name": "c3f4155dcee6760a7dca985b4b239384", "is_reserved": 0, "rental_uris": {"android": "https://dc.lft.to/lastmile_qr_scan", "ios": "https://dc.lft.to/lastmile_qr_scan"}, "fusion_lon": 0.0}, {"lat": 38.913551166666664, "is_disabled": 0, "type": "electric_scooter", "lon": -77.01523666666667, "bike_id": "1b28f520ca1b7f54db77a65d5132da45", "fusion_lat": 0.0, "name": "1b28f520ca1b7f54db77a65d5132da45", "is_reserved": 0, "rental_uris": {"android": "https://dc.lft.to/lastmile_qr_scan", "ios": "https://dc.lft.to/lastmile_qr_scan"}, "fusion_lon": 0.0}, {"lat": 38.9126755, "is_disabled": 0, "type": "electric_scooter", "lon": -77.0048775, "bike_id": "6a02b1361d3ba23e5d31376339513775", "fusion_lat": 0.0, "name": "6a02b1361d3ba23e5d31376339513775", "is_reserved": 0, "rental_uris": {"android": "https://dc.lft.to/lastmile_qr_scan", "ios": "https://dc.lft.to/lastmile_qr_scan"}, "fusion_lon": 0.0}, {"lat": 38.904643166666666, "is_disabled": 0, "type": "electric_scooter", "lon": -77.00719816666667, "bike_id": "9b2cb3df42469d36cec048d7978a84b6", "fusion_lat": 0.0, "name": "9b2cb3df42469d36cec048d7978a84b6", "is_reserved": 0, "rental_uris": {"android": "https://dc.lft.to/lastmile_qr_scan", "ios": "https://dc.lft.to/lastmile_qr_scan"}, "fusion_lon": 0.0}, {"lat": 38.926947166666665, "is_disabled": 0, "type": "electric_scooter", "lon": -77.066528, "bike_id": "09a84568b9886e130eaaee2e1d917eea", "fusion_lat": 0.0, "name": "09a84568b9886e130eaaee2e1d917eea", "is_reserved": 0, "rental_uris": {"android": "https://dc.lft.to/lastmile_qr_scan", "ios": "https://dc.lft.to/lastmile_qr_scan"}, "fusion_lon": 0.0}, {"lat": 38.90843116666667, "is_disabled": 0, "type": "electric_scooter", "lon": -77.0385445, "bike_id": "4bf03470eff7f357511425833505397a", "fusion_lat": 0.0, "name": "4bf03470eff7f357511425833505397a", "is_reserved": 0, "rental_uris": {"android": "https://dc.lft.to/lastmile_qr_scan", "ios": "https://dc.lft.to/lastmile_qr_scan"}, "fusion_lon": 0.0}, {"lat": 38.909612333333335, "is_disabled": 0, "type": "electric_scooter", "lon": -77.02685616666666, "bike_id": "34216cdd18d584814e8c46197d8b3137", "fusion_lat": 0.0, "name": "34216cdd18d584814e8c46197d8b3137", "is_reserved": 0, "rental_uris": {"android": "https://dc.lft.to/lastmile_qr_scan", "ios": "https://dc.lft.to/lastmile_qr_scan"}, "fusion_lon": 0.0}, {"lat": 38.9178575, "is_disabled": 0, "type": "electric_scooter", "lon": -77.0231025, "bike_id": "d5f5922cd737dc38e488697cc1cf52e0", "fusion_lat": 0.0, "name": "d5f5922cd737dc38e488697cc1cf52e0", "is_reserved": 0, "rental_uris": {"android": "https://dc.lft.to/lastmile_qr_scan", "ios": "https://dc.lft.to/lastmile_qr_scan"}, "fusion_lon": 0.0}, {"lat": 38.919835666666664, "is_disabled": 0, "type": "electric_scooter", "lon": -77.00022083333333, "bike_id": "69c29453e69fcd60081da8b72b865bf8", "fusion_lat": 0.0, "name": "69c29453e69fcd60081da8b72b865bf8", "is_reserved": 0, "rental_uris": {"android": "https://dc.lft.to/lastmile_qr_scan", "ios": "https://dc.lft.to/lastmile_qr_scan"}, "fusion_lon": 0.0}, {"lat": 38.92627383333333, "is_disabled": 0, "type": "electric_scooter", "lon": -77.03615933333333, "bike_id": "aa6fa38b1adc7b0e5808947b34fd4de4", "fusion_lat": 0.0, "name": "aa6fa38b1adc7b0e5808947b34fd4de4", "is_reserved": 0, "rental_uris": {"android": "https://dc.lft.to/lastmile_qr_scan", "ios": "https://dc.lft.to/lastmile_qr_scan"}, "fusion_lon": 0.0}, {"lat": 38.901408, "is_disabled": 0, "type": "electric_scooter", "lon": -76.98056266666667, "bike_id": "72f79444c69234637361b9a63d5e6b9e", "fusion_lat": 0.0, "name": "72f79444c69234637361b9a63d5e6b9e", "is_reserved": 0, "rental_uris": {"android": "https://dc.lft.to/lastmile_qr_scan", "ios": "https://dc.lft.to/lastmile_qr_scan"}, "fusion_lon": 0.0}, {"lat": 38.876602, "is_disabled": 0, "type": "electric_scooter", "lon": -77.004079, "bike_id": "bdcf58464dd817e096ed849a3ad56e04", "fusion_lat": 0.0, "name": "bdcf58464dd817e096ed849a3ad56e04", "is_reserved": 0, "rental_uris": {"android": "https://dc.lft.to/lastmile_qr_scan", "ios": "https://dc.lft.to/lastmile_qr_scan"}, "fusion_lon": 0.0}, {"lat": 38.932000333333335, "is_disabled": 0, "type": "electric_bike", "lon": -77.0387655, "bike_id": "2f5bd7f5155e48407fb81f53075bef2f", "fusion_lat": 0.0, "name": "2f5bd7f5155e48407fb81f53075bef2f", "is_reserved": 0, "rental_uris": {"android": "https://dc.lft.to/lastmile_qr_scan", "ios": "https://dc.lft.to/lastmile_qr_scan"}, "fusion_lon": 0.0}, {"lat": 38.866195833333336, "is_disabled": 0, "type": "electric_scooter", "lon": -76.98670433333334, "bike_id": "4e8146f2c51fa8f873b593783446a1bb", "fusion_lat": 0.0, "name": "4e8146f2c51fa8f873b593783446a1bb", "is_reserved": 0, "rental_uris": {"android": "https://dc.lft.to/lastmile_qr_scan", "ios": "https://dc.lft.to/lastmile_qr_scan"}, "fusion_lon": 0.0}, {"lat": 38.880068333333334, "is_disabled": 0, "type": "electric_scooter", "lon": -77.00563716666667, "bike_id": "0be4bbee5c4b5e494b1ef0dd4abde6cb", "fusion_lat": 0.0, "name": "0be4bbee5c4b5e494b1ef0dd4abde6cb", "is_reserved": 0, "rental_uris": {"android": "https://dc.lft.to/lastmile_qr_scan", "ios": "https://dc.lft.to/lastmile_qr_scan"}, "fusion_lon": 0.0}, {"lat": 38.845916333333335, "is_disabled": 0, "type": "electric_bike", "lon": -77.07679233333333, "bike_id": "1f6399a05ddce226764e534a15fabede", "fusion_lat": 0.0, "name": "1f6399a05ddce226764e534a15fabede", "is_reserved": 0, "rental_uris": {"android": "https://dc.lft.to/lastmile_qr_scan", "ios": "https://dc.lft.to/lastmile_qr_scan"}, "fusion_lon": 0.0}, {"lat": 38.908205833333334, "is_disabled": 0, "type": "electric_scooter", "lon": -77.029631, "bike_id": "2f578f1c47c6904d2842d6606d72a86b", "fusion_lat": 0.0, "name": "2f578f1c47c6904d2842d6606d72a86b", "is_reserved": 0, "rental_uris": {"android": "https://dc.lft.to/lastmile_qr_scan", "ios": "https://dc.lft.to/lastmile_qr_scan"}, "fusion_lon": 0.0}, {"lat": 38.940424666666665, "is_disabled": 0, "type": "electric_scooter", "lon": -77.02901333333334, "bike_id": "05635ff3a8f27c39baefa2ff11c92fff", "fusion_lat": 0.0, "name": "05635ff3a8f27c39baefa2ff11c92fff", "is_reserved": 0, "rental_uris": {"android": "https://dc.lft.to/lastmile_qr_scan", "ios": "https://dc.lft.to/lastmile_qr_scan"}, "fusion_lon": 0.0}, {"lat": 38.9063615, "is_disabled": 0, "type": "electric_scooter", "lon": -77.01376266666666, "bike_id": "cc77b873592dc6768ad1017fe894b9ff", "fusion_lat": 0.0, "name": "cc77b873592dc6768ad1017fe894b9ff", "is_reserved": 0, "rental_uris": {"android": "https://dc.lft.to/lastmile_qr_scan", "ios": "https://dc.lft.to/lastmile_qr_scan"}, "fusion_lon": 0.0}, {"lat": 38.81223416666667, "is_disabled": 0, "type": "electric_bike", "lon": -77.10984116666667, "bike_id": "5b185d5fbfd20af8a4672a75a8b7d4d6", "fusion_lat": 0.0, "name": "5b185d5fbfd20af8a4672a75a8b7d4d6", "is_reserved": 0, "rental_uris": {"android": "https://dc.lft.to/lastmile_qr_scan", "ios": "https://dc.lft.to/lastmile_qr_scan"}, "fusion_lon": 0.0}, {"lat": 38.90762333333333, "is_disabled": 0, "type": "electric_scooter", "lon": -77.00126066666667, "bike_id": "5d5804bca7fbd26cf76dbd50021656a6", "fusion_lat": 0.0, "name": "5d5804bca7fbd26cf76dbd50021656a6", "is_reserved": 0, "rental_uris": {"android": "https://dc.lft.to/lastmile_qr_scan", "ios": "https://dc.lft.to/lastmile_qr_scan"}, "fusion_lon": 0.0}, {"lat": 38.842943, "is_disabled": 0, "type": "electric_scooter", "lon": -76.99948466666666, "bike_id": "4b180fb7103cd9aff8b1738beb352891", "fusion_lat": 0.0, "name": "4b180fb7103cd9aff8b1738beb352891", "is_reserved": 0, "rental_uris": {"android": "https://dc.lft.to/lastmile_qr_scan", "ios": "https://dc.lft.to/lastmile_qr_scan"}, "fusion_lon": 0.0}, {"lat": 38.916756166666666, "is_disabled": 0, "type": "electric_scooter", "lon": -77.00672733333333, "bike_id": "163a4e6e184d9b83652eac25873f1728", "fusion_lat": 0.0, "name": "163a4e6e184d9b83652eac25873f1728", "is_reserved": 0, "rental_uris": {"android": "https://dc.lft.to/lastmile_qr_scan", "ios": "https://dc.lft.to/lastmile_qr_scan"}, "fusion_lon": 0.0}, {"lat": 38.909099, "is_disabled": 0, "type": "electric_scooter", "lon": -77.0466045, "bike_id": "652eb6b7116898e2d4892183930e25a9", "fusion_lat": 0.0, "name": "652eb6b7116898e2d4892183930e25a9", "is_reserved": 0, "rental_uris": {"android": "https://dc.lft.to/lastmile_qr_scan", "ios": "https://dc.lft.to/lastmile_qr_scan"}, "fusion_lon": 0.0}, {"lat": 38.925363, "is_disabled": 0, "type": "electric_scooter", "lon": -77.00761383333334, "bike_id": "48c82ddd884558c6593f9ab35c851af3", "fusion_lat": 0.0, "name": "48c82ddd884558c6593f9ab35c851af3", "is_reserved": 0, "rental_uris": {"android": "https://dc.lft.to/lastmile_qr_scan", "ios": "https://dc.lft.to/lastmile_qr_scan"}, "fusion_lon": 0.0}, {"lat": 38.922627, "is_disabled": 0, "type": "electric_scooter", "lon": -77.01867733333333, "bike_id": "e003587083a6becb35fb3d490aac7f1e", "fusion_lat": 0.0, "name": "e003587083a6becb35fb3d490aac7f1e", "is_reserved": 0, "rental_uris": {"android": "https://dc.lft.to/lastmile_qr_scan", "ios": "https://dc.lft.to/lastmile_qr_scan"}, "fusion_lon": 0.0}, {"lat": 38.920223666666665, "is_disabled": 0, "type": "electric_bike", "lon": -77.03865583333334, "bike_id": "a28edfb375e92c4e5cbf6557d5db0965", "fusion_lat": 0.0, "name": "a28edfb375e92c4e5cbf6557d5db0965", "is_reserved": 0, "rental_uris": {"android": "https://dc.lft.to/lastmile_qr_scan", "ios": "https://dc.lft.to/lastmile_qr_scan"}, "fusion_lon": 0.0}, {"lat": 38.902582, "is_disabled": 0, "type": "electric_scooter", "lon": -77.0176085, "bike_id": "da7e7d0ea9469eaaaa2b08d76ca4ab01", "fusion_lat": 0.0, "name": "da7e7d0ea9469eaaaa2b08d76ca4ab01", "is_reserved": 0, "rental_uris": {"android": "https://dc.lft.to/lastmile_qr_scan", "ios": "https://dc.lft.to/lastmile_qr_scan"}, "fusion_lon": 0.0}, {"lat": 38.911749, "is_disabled": 0, "type": "electric_scooter", "lon": -77.00181183333333, "bike_id": "90683652c963c31ff555b09a96e9a088", "fusion_lat": 0.0, "name": "90683652c963c31ff555b09a96e9a088", "is_reserved": 0, "rental_uris": {"android": "https://dc.lft.to/lastmile_qr_scan", "ios": "https://dc.lft.to/lastmile_qr_scan"}, "fusion_lon": 0.0}, {"lat": 38.9167425, "is_disabled": 0, "type": "electric_scooter", "lon": -77.02280433333334, "bike_id": "1373ed8ed8c9bc0ea263c494f5e65a1d", "fusion_lat": 0.0, "name": "1373ed8ed8c9bc0ea263c494f5e65a1d", "is_reserved": 0, "rental_uris": {"android": "https://dc.lft.to/lastmile_qr_scan", "ios": "https://dc.lft.to/lastmile_qr_scan"}, "fusion_lon": 0.0}, {"lat": 38.901646, "is_disabled": 0, "type": "electric_scooter", "lon": -76.98030383333334, "bike_id": "35e87e4d08330e3f4c53ce3312051712", "fusion_lat": 0.0, "name": "35e87e4d08330e3f4c53ce3312051712", "is_reserved": 0, "rental_uris": {"android": "https://dc.lft.to/lastmile_qr_scan", "ios": "https://dc.lft.to/lastmile_qr_scan"}, "fusion_lon": 0.0}, {"lat": 38.9198325, "is_disabled": 0, "type": "electric_scooter", "lon": -77.03973183333333, "bike_id": "42ab9f14733ae92123c72e5954457b7b", "fusion_lat": 0.0, "name": "42ab9f14733ae92123c72e5954457b7b", "is_reserved": 0, "rental_uris": {"android": "https://dc.lft.to/lastmile_qr_scan", "ios": "https://dc.lft.to/lastmile_qr_scan"}, "fusion_lon": 0.0}, {"lat": 38.876615, "is_disabled": 0, "type": "electric_scooter", "lon": -77.00413966666666, "bike_id": "5728faf05498963121acfd2042891421", "fusion_lat": 0.0, "name": "5728faf05498963121acfd2042891421", "is_reserved": 0, "rental_uris": {"android": "https://dc.lft.to/lastmile_qr_scan", "ios": "https://dc.lft.to/lastmile_qr_scan"}, "fusion_lon": 0.0}, {"lat": 38.91785816666667, "is_disabled": 0, "type": "electric_scooter", "lon": -77.02314933333334, "bike_id": "52923e748d11d5dcfde7f3d41f6127b5", "fusion_lat": 0.0, "name": "52923e748d11d5dcfde7f3d41f6127b5", "is_reserved": 0, "rental_uris": {"android": "https://dc.lft.to/lastmile_qr_scan", "ios": "https://dc.lft.to/lastmile_qr_scan"}, "fusion_lon": 0.0}, {"lat": 38.915621333333334, "is_disabled": 0, "type": "electric_scooter", "lon": -77.04668116666667, "bike_id": "7ba290da6a5a9694f60e1ed62396b7be", "fusion_lat": 0.0, "name": "7ba290da6a5a9694f60e1ed62396b7be", "is_reserved": 0, "rental_uris": {"android": "https://dc.lft.to/lastmile_qr_scan", "ios": "https://dc.lft.to/lastmile_qr_scan"}, "fusion_lon": 0.0}, {"lat": 38.955362666666666, "is_disabled": 0, "type": "electric_bike", "lon": -77.01785066666666, "bike_id": "3e514c2c6ee1601bf5d75375eb17838b", "fusion_lat": 0.0, "name": "3e514c2c6ee1601bf5d75375eb17838b", "is_reserved": 0, "rental_uris": {"android": "https://dc.lft.to/lastmile_qr_scan", "ios": "https://dc.lft.to/lastmile_qr_scan"}, "fusion_lon": 0.0}, {"lat": 38.911081833333334, "is_disabled": 0, "type": "electric_scooter", "lon": -77.0356035, "bike_id": "b5c244ca6633f2029993bb26143e53fb", "fusion_lat": 0.0, "name": "b5c244ca6633f2029993bb26143e53fb", "is_reserved": 0, "rental_uris": {"android": "https://dc.lft.to/lastmile_qr_scan", "ios": "https://dc.lft.to/lastmile_qr_scan"}, "fusion_lon": 0.0}, {"lat": 38.9233795, "is_disabled": 0, "type": "electric_bike", "lon": -77.05684633333334, "bike_id": "cf466bbe8f6fc0ecfced6c30c335b65f", "fusion_lat": 0.0, "name": "cf466bbe8f6fc0ecfced6c30c335b65f", "is_reserved": 0, "rental_uris": {"android": "https://dc.lft.to/lastmile_qr_scan", "ios": "https://dc.lft.to/lastmile_qr_scan"}, "fusion_lon": 0.0}, {"lat": 38.913009833333334, "is_disabled": 0, "type": "electric_scooter", "lon": -77.03621566666666, "bike_id": "5daf070c4f8fa98436a369799fa466b9", "fusion_lat": 0.0, "name": "5daf070c4f8fa98436a369799fa466b9", "is_reserved": 0, "rental_uris": {"android": "https://dc.lft.to/lastmile_qr_scan", "ios": "https://dc.lft.to/lastmile_qr_scan"}, "fusion_lon": 0.0}, {"lat": 38.949430666666665, "is_disabled": 0, "type": "electric_scooter", "lon": -77.01618316666666, "bike_id": "5ac2931faa814aea5fe74b56a5398c97", "fusion_lat": 0.0, "name": "5ac2931faa814aea5fe74b56a5398c97", "is_reserved": 0, "rental_uris": {"android": "https://dc.lft.to/lastmile_qr_scan", "ios": "https://dc.lft.to/lastmile_qr_scan"}, "fusion_lon": 0.0}, {"lat": 38.93006333333334, "is_disabled": 0, "type": "electric_bike", "lon": -77.21657283333333, "bike_id": "53e470c39a720aa8f758fada123a55fe", "fusion_lat": 0.0, "name": "53e470c39a720aa8f758fada123a55fe", "is_reserved": 0, "rental_uris": {"android": "https://dc.lft.to/lastmile_qr_scan", "ios": "https://dc.lft.to/lastmile_qr_scan"}, "fusion_lon": 0.0},