{"data": {"bikes": [{"lon": -77.02768483333334, "bike_id": "490b21bd813f6b8d72b2ada9cb52cfd6", "lat": 38.904163, "fusion_lon": 0.0, "fusion_lat": 0.0, "type": "electric_bike", "name": "490b21bd813f6b8d72b2ada9cb52cfd6", "is_disabled": 0, "rental_uris": {"ios": "https://dc.lft.to/lastmile_qr_scan", "android": "https://dc.lft.to/lastmile_qr_scan"}, "is_reserved": 0}, {"lon": -77.01724216666666, "bike_id": "ff2053c0e7a35c522b03099fec865a1f", "lat": 38.87297516666667, "fusion_lon": 0.0, "fusion_lat": 0.0, "type": "electric_scooter", "name": "ff2053c0e7a35c522b03099fec865a1f", "is_disabled": 0, "rental_uris": {"ios": "https://dc.lft.to/lastmile_qr_scan", "android": "https://dc.lft.to/lastmile_qr_scan"}, "is_reserved": 0}, {"lon": -77.028334, "bike_id": "4ca649b49624b6cdbf01c0dbf30a2513", "lat": 38.934603, "fusion_lon": 0.0, "fusion_lat": 0.0, "type": "electric_scooter", "name": "4ca649b49624b6cdbf01c0dbf30a2513", "is_disabled": 0, "rental_uris": {"ios": "https://dc.lft.to/lastmile_qr_scan", "android": "https://dc.lft.to/lastmile_qr_scan"}, "is_reserved": 0}, {"lon": -77.02841083333334, "bike_id": "5f9f13783af5d39ba60f5c4939600ae5", "lat": 38.925776166666665, "fusion_lon": 0.0, "fusion_lat": 0.0, "type": "electric_scooter", "name": "5f9f13783af5d39ba60f5c4939600ae5", "is_disabled": 0, "rental_uris": {"ios": "https://dc.lft.to/lastmile_qr_scan", "android": "https://dc.lft.to/lastmile_qr_scan"}, "is_reserved": 0}, {"lon": -77.02804033333334, "bike_id": "e58d7e459d4182944b6cdd5f6b550bfd", "lat": 38.91102983333333, "fusion_lon": 0.0, "fusion_lat": 0.0, "type": "electric_scooter", "name": "e58d7e459d4182944b6cdd5f6b550bfd", "is_disabled": 0, "rental_uris": {"ios": "https://dc.lft.to/lastmile_qr_scan", "android": "https://dc.lft.to/lastmile_qr_scan"}, "is_reserved": 0}, {"lon": -76.95761416666667, "bike_id": "d6011e77f099cd0e3dca7c382ffb255b", "lat": 38.884348333333335, "fusion_lon": 0.0, "fusion_lat": 0.0, "type": "electric_scooter", "name": "d6011e77f099cd0e3dca7c382ffb255b", "is_disabled": 0, "rental_uris": {"ios": "https://dc.lft.to/lastmile_qr_scan", "android": "https://dc.lft.to/lastmile_qr_scan"}, "is_reserved": 0}, {"lon": -77.02498533333333, "bike_id": "ca6f0a6a3d38dd2977414f5f9881e736", "lat": 38.92079733333333, "fusion_lon": 0.0, "fusion_lat": 0.0, "type": "electric_scooter", "name": "ca6f0a6a3d38dd2977414f5f9881e736", "is_disabled": 0, "rental_uris": {"ios": "https://dc.lft.to/lastmile_qr_scan", "android": "https://dc.lft.to/lastmile_qr_scan"}, "is_reserved": 0}, {"lon": -77.048661, "bike_id": "9125ac3bf7e8a876e4eda0a399b561f5", "lat": 38.909593, "fusion_lon": 0.0, "fusion_lat": 0.0, "type": "electric_scooter", "name": "9125ac3bf7e8a876e4eda0a399b561f5", "is_disabled": 0, "rental_uris": {"ios": "https://dc.lft.to/lastmile_qr_scan", "android": "https://dc.lft.to/lastmile_qr_scan"}, "is_reserved": 0}, {"lon": -77.00924566666667, "bike_id": "863405ffcadd82cb38def9f673b9f0ee", "lat": 38.911016833333335, "fusion_lon": 0.0, "fusion_lat": 0.0, "type": "electric_scooter", "name": "863405ffcadd82cb38def9f673b9f0ee", "is_disabled": 0, "rental_uris": {"ios": "https://dc.lft.to/lastmile_qr_scan", "android": "https://dc.lft.to/lastmile_qr_scan"}, "is_reserved": 0}, {"lon": -77.03126666666667, "bike_id": "c13f50d07d7c9e5b5e99815c846f4116", "lat": 38.914851, "fusion_lon": 0.0, "fusion_lat": 0.0, "type": "electric_scooter", "name": "c13f50d07d7c9e5b5e99815c846f4116", "is_disabled": 0, "rental_uris": {"ios": "https://dc.lft.to/lastmile_qr_scan", "android": "https://dc.lft.to/lastmile_qr_scan"}, "is_reserved": 0}, {"lon": -77.019211, "bike_id": "d25a5162d84437f362db08f6d46a090c", "lat": 38.931987666666664, "fusion_lon": 0.0, "fusion_lat": 0.0, "type": "electric_scooter", "name": "d25a5162d84437f362db08f6d46a090c", "is_disabled": 0, "rental_uris": {"ios": "https://dc.lft.to/lastmile_qr_scan", "android": "https://dc.lft.to/lastmile_qr_scan"}, "is_reserved": 0}, {"lon": -77.0173055, "bike_id": "c823d28b6f79928e94a3c223fe7f4327", "lat": 38.90567083333333, "fusion_lon": 0.0, "fusion_lat": 0.0, "type": "electric_scooter", "name": "c823d28b6f79928e94a3c223fe7f4327", "is_disabled": 0, "rental_uris": {"ios": "https://dc.lft.to/lastmile_qr_scan", "android": "https://dc.lft.to/lastmile_qr_scan"}, "is_reserved": 0}, {"lon": -77.035854, "bike_id": "22f449cabdaa6bf40cae912982117d22", "lat": 38.99222866666667, "fusion_lon": 0.0, "fusion_lat": 0.0, "type": "electric_scooter", "name": "22f449cabdaa6bf40cae912982117d22", "is_disabled": 0, "rental_uris": {"ios": "https://dc.lft.to/lastmile_qr_scan", "android": "https://dc.lft.to/lastmile_qr_scan"}, "is_reserved": 0}, {"lon": -77.035231, "bike_id": "d5aca10dcec691602d2d0bebc5203451", "lat": 38.927384333333336, "fusion_lon": 0.0, "fusion_lat": 0.0, "type": "electric_scooter", "name": "d5aca10dcec691602d2d0bebc5203451", "is_disabled": 0, "rental_uris": {"ios": "https://dc.lft.to/lastmile_qr_scan", "android": "https://dc.lft.to/lastmile_qr_scan"}, "is_reserved": 0}, {"lon": -77.02980683333334, "bike_id": "c04cd27e901d37b315aacaa44c8bc405", "lat": 38.934958, "fusion_lon": 0.0, "fusion_lat": 0.0, "type": "electric_scooter", "name": "c04cd27e901d37b315aacaa44c8bc405", "is_disabled": 0, "rental_uris": {"ios": "https://dc.lft.to/lastmile_qr_scan", "android": "https://dc.lft.to/lastmile_qr_scan"}, "is_reserved": 0}, {"lon": -77.02307516666667, "bike_id": "c1ad03a527781509f3eb28734acf9fde", "lat": 38.9087695, "fusion_lon": 0.0, "fusion_lat": 0.0, "type": "electric_scooter", "name": "c1ad03a527781509f3eb28734acf9fde", "is_disabled": 0, "rental_uris": {"ios": "https://dc.lft.to/lastmile_qr_scan", "android": "https://dc.lft.to/lastmile_qr_scan"}, "is_reserved": 0}, {"lon": -76.978304, "bike_id": "78391114addd7adf59b9b1ee80566626", "lat": 38.84370666666667, "fusion_lon": 0.0, "fusion_lat": 0.0, "type": "electric_bike", "name": "78391114addd7adf59b9b1ee80566626", "is_disabled": 0, "rental_uris": {"ios": "https://dc.lft.to/lastmile_qr_scan", "android": "https://dc.lft.to/lastmile_qr_scan"}, "is_reserved": 0}, {"lon": -77.02503333333334, "bike_id": "10ec5ed2a53526734e5306dc7c6083a2", "lat": 38.904181666666666, "fusion_lon": 0.0, "fusion_lat": 0.0, "type": "electric_scooter", "name": "10ec5ed2a53526734e5306dc7c6083a2", "is_disabled": 0, "rental_uris": {"ios": "https://dc.lft.to/lastmile_qr_scan", "android": "https://dc.lft.to/lastmile_qr_scan"}, "is_reserved": 0}, {"lon": -77.08336016666667, "bike_id": "01a2a47a5de3c4d4b840d65c645d6ba7", "lat": 38.8544205, "fusion_lon": 0.0, "fusion_lat": 0.0, "type": "electric_bike", "name": "01a2a47a5de3c4d4b840d65c645d6ba7", "is_disabled": 0, "rental_uris": {"ios": "https://dc.lft.to/lastmile_qr_scan", "android": "https://dc.lft.to/lastmile_qr_scan"}, "is_reserved": 0}, {"lon": -77.009124, "bike_id": "0865fb1e67904fbe1b2418b45e751051", "lat": 38.900023833333336, "fusion_lon": 0.0, "fusion_lat": 0.0, "type": "electric_scooter", "name": "0865fb1e67904fbe1b2418b45e751051", "is_disabled": 0, "rental_uris": {"ios": "https://dc.lft.to/lastmile_qr_scan", "android": "https://dc.lft.to/lastmile_qr_scan"}, "is_reserved": 0}, {"lon": -77.02608, "bike_id": "b8083d1793544dca549df23746fc732f", "lat": 38.925905, "fusion_lon": 0.0, "fusion_lat": 0.0, "type": "electric_scooter", "name": "b8083d1793544dca549df23746fc732f", "is_disabled": 0, "rental_uris": {"ios": "https://dc.lft.to/lastmile_qr_scan", "android": "https://dc.lft.to/lastmile_qr_scan"}, "is_reserved": 0}, {"lon": -77.02980683333334, "bike_id": "d983b2f55b8e24079418ad95bca91979", "lat": 38.929009, "fusion_lon": 0.0, "fusion_lat": 0.0, "type": "electric_scooter", "name": "d983b2f55b8e24079418ad95bca91979", "is_disabled": 0, "rental_uris": {"ios": "https://dc.lft.to/lastmile_qr_scan", "android": "https://dc.lft.to/lastmile_qr_scan"}, "is_reserved": 0}, {"lon": -77.01821316666667, "bike_id": "079818441422bb29d16519fb17386d07", "lat": 38.90100916666667, "fusion_lon": 0.0, "fusion_lat": 0.0, "type": "electric_scooter", "name": "079818441422bb29d16519fb17386d07", "is_disabled": 0, "rental_uris": {"ios": "https://dc.lft.to/lastmile_qr_scan", "android": "https://dc.lft.to/lastmile_qr_scan"}, "is_reserved": 0}, {"lon": -77.10026433333333, "bike_id": "7c1de2ef8bf8282e06ad7737dc85febb", "lat": 38.871337833333335, "fusion_lon": 0.0, "fusion_lat": 0.0, "type": "electric_bike", "name": "7c1de2ef8bf8282e06ad7737dc85febb", "is_disabled": 0, "rental_uris": {"ios": "https://dc.lft.to/lastmile_qr_scan", "android": "https://dc.lft.to/lastmile_qr_scan"}, "is_reserved": 0}, {"lon": -77.03761133333333, "bike_id": "4aa90218ba1bae5262aacade6d5c719c", "lat": 38.90764816666667, "fusion_lon": 0.0, "fusion_lat": 0.0, "type": "electric_scooter", "name": "4aa90218ba1bae5262aacade6d5c719c", "is_disabled": 0, "rental_uris": {"ios": "https://dc.lft.to/lastmile_qr_scan", "android": "https://dc.lft.to/lastmile_qr_scan"}, "is_reserved": 0}, {"lon": -77.028797, "bike_id": "f11abcbe6388fef8a32c0feba692897d", "lat": 38.91699283333333, "fusion_lon": 0.0, "fusion_lat": 0.0, "type": "electric_scooter", "name": "f11abcbe6388fef8a32c0feba692897d", "is_disabled": 0, "rental_uris": {"ios": "https://dc.lft.to/lastmile_qr_scan", "android": "https://dc.lft.to/lastmile_qr_scan"}, "is_reserved": 0}, {"lon": -77.01345383333333, "bike_id": "3d3f6310d41b45b786d42218cfcc810f", "lat": 38.87811333333333, "fusion_lon": 0.0, "fusion_lat": 0.0, "type": "electric_scooter", "name": "3d3f6310d41b45b786d42218cfcc810f", "is_disabled": 0, "rental_uris": {"ios": "https://dc.lft.to/lastmile_qr_scan", "android": "https://dc.lft.to/lastmile_qr_scan"}, "is_reserved": 0}, {"lon": -77.02083416666666, "bike_id": "8fd75a6cbd9dd1c43cb34a4434ee152c", "lat": 38.881843, "fusion_lon": 0.0, "fusion_lat": 0.0, "type": "electric_scooter", "name": "8fd75a6cbd9dd1c43cb34a4434ee152c", "is_disabled": 0, "rental_uris": {"ios": "https://dc.lft.to/lastmile_qr_scan", "android": "https://dc.lft.to/lastmile_qr_scan"}, "is_reserved": 0}, {"lon": -77.0252765, "bike_id": "8b5cc81e3777451b4fa887280059636f", "lat": 38.9289815, "fusion_lon": 0.0, "fusion_lat": 0.0, "type": "electric_scooter", "name": "8b5cc81e3777451b4fa887280059636f", "is_disabled": 0, "rental_uris": {"ios": "https://dc.lft.to/lastmile_qr_scan", "android": "https://dc.lft.to/lastmile_qr_scan"}, "is_reserved": 0}, {"lon": -76.96524433333333, "bike_id": "326fb0d0fe62a2bc9780b91026fa16c5", "lat": 38.87624066666667, "fusion_lon": 0.0, "fusion_lat": 0.0, "type": "electric_scooter", "name": "326fb0d0fe62a2bc9780b91026fa16c5", "is_disabled": 0, "rental_uris": {"ios": "https://dc.lft.to/lastmile_qr_scan", "android": "https://dc.lft.to/lastmile_qr_scan"}, "is_reserved": 0}, {"lon": -77.005838, "bike_id": "b5f4e90ca45d85828122acb5af41834a", "lat": 38.905721166666666, "fusion_lon": 0.0, "fusion_lat": 0.0, "type": "electric_scooter", "name": "b5f4e90ca45d85828122acb5af41834a", "is_disabled": 0, "rental_uris": {"ios": "https://dc.lft.to/lastmile_qr_scan", "android": "https://dc.lft.to/lastmile_qr_scan"}, "is_reserved": 0}, {"lon": -76.983399, "bike_id": "c8c6eb637ba8c575b05705f152b78708", "lat": 38.86642033333333, "fusion_lon": 0.0, "fusion_lat": 0.0, "type": "electric_scooter", "name": "c8c6eb637ba8c575b05705f152b78708", "is_disabled": 0, "rental_uris": {"ios": "https://dc.lft.to/lastmile_qr_scan", "android": "https://dc.lft.to/lastmile_qr_scan"}, "is_reserved": 0}, {"lon": -76.98572983333334, "bike_id": "a6a529f63706450c75722db832150a92", "lat": 38.898869166666664, "fusion_lon": 0.0, "fusion_lat": 0.0, "type": "electric_scooter", "name": "a6a529f63706450c75722db832150a92", "is_disabled": 0, "rental_uris": {"ios": "https://dc.lft.to/lastmile_qr_scan", "android": "https://dc.lft.to/lastmile_qr_scan"}, "is_reserved": 0}, {"lon": -76.931902, "bike_id": "76915c14d7bdf71e15399a8b2de32052", "lat": 38.898778, "fusion_lon": 0.0, "fusion_lat": 0.0, "type": "electric_scooter", "name": "76915c14d7bdf71e15399a8b2de32052", "is_disabled": 0, "rental_uris": {"ios": "https://dc.lft.to/lastmile_qr_scan", "android": "https://dc.lft.to/lastmile_qr_scan"}, "is_reserved": 0}, {"lon": -77.00373966666666, "bike_id": "7061f04f14d8b75a1752e5f94c0f742c", "lat": 38.897329666666664, "fusion_lon": 0.0, "fusion_lat": 0.0, "type": "electric_scooter", "name": "7061f04f14d8b75a1752e5f94c0f742c", "is_disabled": 0, "rental_uris": {"ios": "https://dc.lft.to/lastmile_qr_scan", "android": "https://dc.lft.to/lastmile_qr_scan"}, "is_reserved": 0}, {"lon": -77.07749483333333, "bike_id": "a519d55ff12718b70395928a4b5ae573", "lat": 38.841907, "fusion_lon": 0.0, "fusion_lat": 0.0, "type": "electric_bike", "name": "a519d55ff12718b70395928a4b5ae573", "is_disabled": 0, "rental_uris": {"ios": "https://dc.lft.to/lastmile_qr_scan", "android": "https://dc.lft.to/lastmile_qr_scan"}, "is_reserved": 0}, {"lon": -76.9218625, "bike_id": "b65d778925d5a7517689c3c680936d9b", "lat": 38.89501933333333, "fusion_lon": 0.0, "fusion_lat": 0.0, "type": "electric_bike", "name": "b65d778925d5a7517689c3c680936d9b", "is_disabled": 0, "rental_uris": {"ios": "https://dc.lft.to/lastmile_qr_scan", "android": "https://dc.lft.to/lastmile_qr_scan"}, "is_reserved": 0}, {"lon": -77.0166815, "bike_id": "5f857708a774f2b7f51f7082a1386d02", "lat": 38.90005416666666, "fusion_lon": 0.0, "fusion_lat": 0.0, "type": "electric_scooter", "name": "5f857708a774f2b7f51f7082a1386d02", "is_disabled": 0, "rental_uris": {"ios": "https://dc.lft.to/lastmile_qr_scan", "android": "https://dc.lft.to/lastmile_qr_scan"}, "is_reserved": 0}, {"lon": -76.98633716666667, "bike_id": "e15f9e51f3b33e7978253d0d7fb3fefd", "lat": 38.88042333333333, "fusion_lon": 0.0, "fusion_lat": 0.0, "type": "electric_scooter", "name": "e15f9e51f3b33e7978253d0d7fb3fefd", "is_disabled": 0, "rental_uris": {"ios": "https://dc.lft.to/lastmile_qr_scan", "android": "https://dc.lft.to/lastmile_qr_scan"}, "is_reserved": 0}, {"lon": -77.03354483333334, "bike_id": "6f8605fe45c66cb0f6153a2b2d37ea9e", "lat": 38.9234055, "fusion_lon": 0.0, "fusion_lat": 0.0, "type": "electric_scooter", "name": "6f8605fe45c66cb0f6153a2b2d37ea9e", "is_disabled": 0, "rental_uris": {"ios": "https://dc.lft.to/lastmile_qr_scan", "android": "https://dc.lft.to/lastmile_qr_scan"}, "is_reserved": 0}, {"lon": -77.080041, "bike_id": "9254045d8d05be337515c052bed4cab6", "lat": 38.964893333333336, "fusion_lon": 0.0, "fusion_lat": 0.0, "type": "electric_scooter", "name": "9254045d8d05be337515c052bed4cab6", "is_disabled": 0, "rental_uris": {"ios": "https://dc.lft.to/lastmile_qr_scan", "android": "https://dc.lft.to/lastmile_qr_scan"}, "is_reserved": 0}, {"lon": -77.03637833333333, "bike_id": "d69e0cd767371c7b108e7a6993f60730", "lat": 38.9274445, "fusion_lon": 0.0, "fusion_lat": 0.0, "type": "electric_scooter", "name": "d69e0cd767371c7b108e7a6993f60730", "is_disabled": 0, "rental_uris": {"ios": "https://dc.lft.to/lastmile_qr_scan", "android": "https://dc.lft.to/lastmile_qr_scan"}, "is_reserved": 0}, {"lon": -77.002072, "bike_id": "005d6e4237c3f4255c020465c3c81fb4", "lat": 38.90241416666667, "fusion_lon": 0.0, "fusion_lat": 0.0, "type": "electric_scooter", "name": "005d6e4237c3f4255c020465c3c81fb4", "is_disabled": 0, "rental_uris": {"ios": "https://dc.lft.to/lastmile_qr_scan", "android": "https://dc.lft.to/lastmile_qr_scan"}, "is_reserved": 0}, {"lon": -77.02572416666666, "bike_id": "3ad97aa4e8a40ba205a68cd47282d1f5", "lat": 38.914079, "fusion_lon": 0.0, "fusion_lat": 0.0, "type": "electric_scooter", "name": "3ad97aa4e8a40ba205a68cd47282d1f5", "is_disabled": 0, "rental_uris": {"ios": "https://dc.lft.to/lastmile_qr_scan", "android": "https://dc.lft.to/lastmile_qr_scan"}, "is_reserved": 0}, {"lon": -77.03437116666667, "bike_id": "04e99e92d156383e905d2c3788e45f5b", "lat": 38.9101435, "fusion_lon": 0.0, "fusion_lat": 0.0, "type": "electric_scooter", "name": "04e99e92d156383e905d2c3788e45f5b", "is_disabled": 0, "rental_uris": {"ios": "https://dc.lft.to/lastmile_qr_scan", "android": "https://dc.lft.to/lastmile_qr_scan"}, "is_reserved": 0}, {"lon": -77.03862166666667, "bike_id": "3db2c6c14c2ababe7a50f38d4a334c5e", "lat": 38.903499333333336, "fusion_lon": 0.0, "fusion_lat": 0.0, "type": "electric_scooter", "name": "3db2c6c14c2ababe7a50f38d4a334c5e", "is_disabled": 0, "rental_uris": {"ios": "https://dc.lft.to/lastmile_qr_scan", "android": "https://dc.lft.to/lastmile_qr_scan"}, "is_reserved": 0}, {"lon": -76.99891933333333, "bike_id": "9e81e0e5496e81b854e305c3cc9f007b", "lat": 38.909424333333334, "fusion_lon": 0.0, "fusion_lat": 0.0, "type": "electric_scooter", "name": "9e81e0e5496e81b854e305c3cc9f007b", "is_disabled": 0, "rental_uris": {"ios": "https://dc.lft.to/lastmile_qr_scan", "android": "https://dc.lft.to/lastmile_qr_scan"}, "is_reserved": 0}, {"lon": -76.99228516666666, "bike_id": "168ab0a3a4e593cad6ddb372a5f27931", "lat": 38.92215433333333, "fusion_lon": 0.0, "fusion_lat": 0.0, "type": "electric_scooter", "name": "168ab0a3a4e593cad6ddb372a5f27931", "is_disabled": 0, "rental_uris": {"ios": "https://dc.lft.to/lastmile_qr_scan", "android": "https://dc.lft.to/lastmile_qr_scan"}, "is_reserved": 0}, {"lon": -77.04873216666667, "bike_id": "4541fda01fe75aa1146c2a5f370a66d4", "lat": 38.8923175, "fusion_lon": 0.0, "fusion_lat": 0.0, "type": "electric_scooter", "name": "4541fda01fe75aa1146c2a5f370a66d4", "is_disabled": 0, "rental_uris": {"ios": "https://dc.lft.to/lastmile_qr_scan", "android": "https://dc.lft.to/lastmile_qr_scan"}, "is_reserved": 0}, {"lon": -76.98234116666667, "bike_id": "eaeb304a6df35cb159ef27b436cbc7b0", "lat": 38.91647866666667, "fusion_lon": 0.0, "fusion_lat": 0.0, "type": "electric_scooter", "name": "eaeb304a6df35cb159ef27b436cbc7b0", "is_disabled": 0, "rental_uris": {"ios": "https://dc.lft.to/lastmile_qr_scan", "android": "https://dc.lft.to/lastmile_qr_scan"}, "is_reserved": 0}, {"lon": -77.02234966666667, "bike_id": "47aa093acd857834e691ff88cb8e0e2d", "lat": 38.9620695, "fusion_lon": 0.0, "fusion_lat": 0.0, "type": "electric_scooter", "name": "47aa093acd857834e691ff88cb8e0e2d", "is_disabled": 0, "rental_uris": {"ios": "https://dc.lft.to/lastmile_qr_scan", "android": "https://dc.lft.to/lastmile_qr_scan"}, "is_reserved": 0}, {"lon": -77.0296195, "bike_id": "251b4cc44428eb6312128c7d87ff9d6c", "lat": 38.906419, "fusion_lon": 0.0, "fusion_lat": 0.0, "type": "electric_scooter", "name": "251b4cc44428eb6312128c7d87ff9d6c", "is_disabled": 0, "rental_uris": {"ios": "https://dc.lft.to/lastmile_qr_scan", "android": "https://dc.lft.to/lastmile_qr_scan"}, "is_reserved": 0}, {"lon": -77.028211, "bike_id": "04867824a85f305b858511b1ed224ef0", "lat": 38.895362, "fusion_lon": 0.0, "fusion_lat": 0.0, "type": "electric_scooter", "name": "04867824a85f305b858511b1ed224ef0", "is_disabled": 0, "rental_uris": {"ios": "https://dc.lft.to/lastmile_qr_scan", "android": "https://dc.lft.to/lastmile_qr_scan"}, "is_reserved": 0}, {"lon": -77.03221033333334, "bike_id": "fcee35f30227758e95d229dca5b4c887", "lat": 38.90723916666666, "fusion_lon": 0.0, "fusion_lat": 0.0, "type": "electric_scooter", "name": "fcee35f30227758e95d229dca5b4c887", "is_disabled": 0, "rental_uris": {"ios": "https://dc.lft.to/lastmile_qr_scan", "android": "https://dc.lft.to/lastmile_qr_scan"}, "is_reserved": 0}, {"lon": -77.02180016666667, "bike_id": "e56729cd799458b62f7009ab139abc26", "lat": 38.90946, "fusion_lon": 0.0, "fusion_lat": 0.0, "type": "electric_scooter", "name": "e56729cd799458b62f7009ab139abc26", "is_disabled": 0, "rental_uris": {"ios": "https://dc.lft.to/lastmile_qr_scan", "android": "https://dc.lft.to/lastmile_qr_scan"}, "is_reserved": 0}, {"lon": -77.02408933333334, "bike_id": "e2905ef9ddd7a3d9229f549ff7829681", "lat": 38.882878833333336, "fusion_lon": 0.0, "fusion_lat": 0.0, "type": "electric_scooter", "name": "e2905ef9ddd7a3d9229f549ff7829681", "is_disabled": 0, "rental_uris": {"ios": "https://dc.lft.to/lastmile_qr_scan", "android": "https://dc.lft.to/lastmile_qr_scan"}, "is_reserved": 0}, {"lon": -77.03667483333334, "bike_id": "a6a3434aed4afb246eb35c59d6aeb749", "lat": 38.9180835, "fusion_lon": 0.0, "fusion_lat": 0.0, "type": "electric_scooter", "name": "a6a3434aed4afb246eb35c59d6aeb749", "is_disabled": 0, "rental_uris": {"ios": "https://dc.lft.to/lastmile_qr_scan", "android": "https://dc.lft.to/lastmile_qr_scan"}, "is_reserved": 0}, {"lon": -77.037799, "bike_id": "b9eb71bfa8bce092cac4d132b3a169ae", "lat": 38.93595833333333, "fusion_lon": 0.0, "fusion_lat": 0.0, "type": "electric_scooter", "name": "b9eb71bfa8bce092cac4d132b3a169ae", "is_disabled": 0, "rental_uris": {"ios": "https://dc.lft.to/lastmile_qr_scan", "android": "https://dc.lft.to/lastmile_qr_scan"}, "is_reserved": 0}, {"lon": -77.01034383333334, "bike_id": "dd1793bcec89fc93570aea41e184b484", "lat": 38.92133283333333, "fusion_lon": 0.0, "fusion_lat": 0.0, "type": "electric_scooter", "name": "dd1793bcec89fc93570aea41e184b484", "is_disabled": 0, "rental_uris": {"ios": "https://dc.lft.to/lastmile_qr_scan", "android": "https://dc.lft.to/lastmile_qr_scan"}, "is_reserved": 0}, {"lon": -77.03637016666667, "bike_id": "0bc79e35302a3915b88f039c86c8b908", "lat": 38.90833666666666, "fusion_lon": 0.0, "fusion_lat": 0.0, "type": "electric_scooter", "name": "0bc79e35302a3915b88f039c86c8b908", "is_disabled": 0, "rental_uris": {"ios": "https://dc.lft.to/lastmile_qr_scan", "android": "https://dc.lft.to/lastmile_qr_scan"}, "is_reserved": 0}, {"lon": -76.966022, "bike_id": "46ebc72710a7e64b3c6f20cc10e6d5da", "lat": 38.87116066666667, "fusion_lon": 0.0, "fusion_lat": 0.0, "type": "electric_scooter", "name": "46ebc72710a7e64b3c6f20cc10e6d5da", "is_disabled": 0, "rental_uris": {"ios": "https://dc.lft.to/lastmile_qr_scan", "android": "https://dc.lft.to/lastmile_qr_scan"}, "is_reserved": 0}, {"lon": -77.0466705, "bike_id": "27c341921f8704aeb6045b273711d393", "lat": 38.905527, "fusion_lon": 0.0, "fusion_lat": 0.0, "type": "electric_scooter", "name": "27c341921f8704aeb6045b273711d393", "is_disabled": 0, "rental_uris": {"ios": "https://dc.lft.to/lastmile_qr_scan", "android": "https://dc.lft.to/lastmile_qr_scan"}, "is_reserved": 0}, {"lon": -77.02165316666667, "bike_id": "7eb306931896bb1f18bee6bde8e8703b", "lat": 38.897406833333335, "fusion_lon": 0.0, "fusion_lat": 0.0, "type": "electric_scooter", "name": "7eb306931896bb1f18bee6bde8e8703b", "is_disabled": 0, "rental_uris": {"ios": "https://dc.lft.to/lastmile_qr_scan", "android": "https://dc.lft.to/lastmile_qr_scan"}, "is_reserved": 0}, {"lon": -77.03824516666667, "bike_id": "45a2b807aa542b59ea45864011b7c599", "lat": 38.906814833333335, "fusion_lon": 0.0, "fusion_lat": 0.0, "type": "electric_scooter", "name": "45a2b807aa542b59ea45864011b7c599", "is_disabled": 0, "rental_uris": {"ios": "https://dc.lft.to/lastmile_qr_scan", "android": "https://dc.lft.to/lastmile_qr_scan"}, "is_reserved": 0}, {"lon": -77.03521583333334, "bike_id": "9fa1fee0952a73ee3f46d79d8d647373", "lat": 38.923427333333336, "fusion_lon": 0.0, "fusion_lat": 0.0, "type": "electric_scooter", "name": "9fa1fee0952a73ee3f46d79d8d647373", "is_disabled": 0, "rental_uris": {"ios": "https://dc.lft.to/lastmile_qr_scan", "android": "https://dc.lft.to/lastmile_qr_scan"}, "is_reserved": 0}, {"lon": -77.03186616666666, "bike_id": "c13792cb4017102ef6c8b945a08e8f47", "lat": 38.91905883333333, "fusion_lon": 0.0, "fusion_lat": 0.0, "type": "electric_scooter", "name": "c13792cb4017102ef6c8b945a08e8f47", "is_disabled": 0, "rental_uris": {"ios": "https://dc.lft.to/lastmile_qr_scan", "android": "https://dc.lft.to/lastmile_qr_scan"}, "is_reserved": 0}, {"lon": -76.98897266666667, "bike_id": "fc746fa17a1b475335a3dfe6c0aa8f1c", "lat": 38.91344766666667, "fusion_lon": 0.0, "fusion_lat": 0.0, "type": "electric_scooter", "name": "fc746fa17a1b475335a3dfe6c0aa8f1c", "is_disabled": 0, "rental_uris": {"ios": "https://dc.lft.to/lastmile_qr_scan", "android": "https://dc.lft.to/lastmile_qr_scan"}, "is_reserved": 0}, {"lon": -77.00844433333333, "bike_id": "80c79d13fc990649c52e264e2c01d86e", "lat": 38.91625116666667, "fusion_lon": 0.0, "fusion_lat": 0.0, "type": "electric_scooter", "name": "80c79d13fc990649c52e264e2c01d86e", "is_disabled": 0, "rental_uris": {"ios": "https://dc.lft.to/lastmile_qr_scan", "android": "https://dc.lft.to/lastmile_qr_scan"}, "is_reserved": 0}, {"lon": -77.02706633333334, "bike_id": "37b32dfba46b3ded6241d07b27ab11bf", "lat": 38.912157, "fusion_lon": 0.0, "fusion_lat": 0.0, "type": "electric_scooter", "name": "37b32dfba46b3ded6241d07b27ab11bf", "is_disabled": 0, "rental_uris": {"ios": "https://dc.lft.to/lastmile_qr_scan", "android": "https://dc.lft.to/lastmile_qr_scan"}, "is_reserved": 0}, {"lon": -77.053245, "bike_id": "a67d59efec710ef80e5ec05decf06770", "lat": 38.901938666666666, "fusion_lon": 0.0, "fusion_lat": 0.0, "type": "electric_scooter", "name": "a67d59efec710ef80e5ec05decf06770", "is_disabled": 0, "rental_uris": {"ios": "https://dc.lft.to/lastmile_qr_scan", "android": "https://dc.lft.to/lastmile_qr_scan"}, "is_reserved": 0}, {"lon": -77.00123666666667, "bike_id": "614fa05a805e8254402e03017e3337d5", "lat": 38.90504283333333, "fusion_lon": 0.0, "fusion_lat": 0.0, "type": "electric_scooter", "name": "614fa05a805e8254402e03017e3337d5", "is_disabled": 0, "rental_uris": {"ios": "https://dc.lft.to/lastmile_qr_scan", "android": "https://dc.lft.to/lastmile_qr_scan"}, "is_reserved": 0}, {"lon": -77.03855066666667, "bike_id": "a73fc0c5f172d38f344c738677235de6", "lat": 38.91661666666667, "fusion_lon": 0.0, "fusion_lat": 0.0, "type": "electric_scooter", "name": "a73fc0c5f172d38f344c738677235de6", "is_disabled": 0, "rental_uris": {"ios": "https://dc.lft.to/lastmile_qr_scan", "android": "https://dc.lft.to/lastmile_qr_scan"}, "is_reserved": 0}, {"lon": -77.032593, "bike_id": "1844c92cc7c39952c9444c6d428dff9b", "lat": 38.91989016666667, "fusion_lon": 0.0, "fusion_lat": 0.0, "type": "electric_scooter", "name": "1844c92cc7c39952c9444c6d428dff9b", "is_disabled": 0, "rental_uris": {"ios": "https://dc.lft.to/lastmile_qr_scan", "android": "https://dc.lft.to/lastmile_qr_scan"}, "is_reserved": 0}, {"lon": -77.05923433333334, "bike_id": "9e1a0e63cc757fb33c0ebe3a5431bfa5", "lat": 38.862466166666664, "fusion_lon": 0.0, "fusion_lat": 0.0, "type": "electric_scooter", "name": "9e1a0e63cc757fb33c0ebe3a5431bfa5", "is_disabled": 0, "rental_uris": {"ios": "https://dc.lft.to/lastmile_qr_scan", "android": "https://dc.lft.to/lastmile_qr_scan"}, "is_reserved": 0}, {"lon": -77.03431, "bike_id": "ea6139c0aae37ad073ce59ad81c6f419", "lat": 38.919306, "fusion_lon": 0.0, "fusion_lat": 0.0, "type": "electric_scooter", "name": "ea6139c0aae37ad073ce59ad81c6f419", "is_disabled": 0, "rental_uris": {"ios": "https://dc.lft.to/lastmile_qr_scan", "android": "https://dc.lft.to/lastmile_qr_scan"}, "is_reserved": 0}, {"lon": -77.02529733333333, "bike_id": "cca06b69734c6ebb178cf1d6992f7b3d", "lat": 38.927470166666666, "fusion_lon": 0.0, "fusion_lat": 0.0, "type": "electric_scooter", "name": "cca06b69734c6ebb178cf1d6992f7b3d", "is_disabled": 0, "rental_uris": {"ios": "https://dc.lft.to/lastmile_qr_scan", "android": "https://dc.lft.to/lastmile_qr_scan"}, "is_reserved": 0}, {"lon": -77.0101695, "bike_id": "03a80c986f3bbd7f5b85042bb714c9bd", "lat": 38.89474233333333, "fusion_lon": 0.0, "fusion_lat": 0.0, "type": "electric_scooter", "name": "03a80c986f3bbd7f5b85042bb714c9bd", "is_disabled": 0, "rental_uris": {"ios": "https://dc.lft.to/lastmile_qr_scan", "android": "https://dc.lft.to/lastmile_qr_scan"}, "is_reserved": 0}, {"lon": -77.0422955, "bike_id": "0c57fbf274021d31a1222be14f6fabad", "lat": 38.91712366666667, "fusion_lon": 0.0, "fusion_lat": 0.0, "type": "electric_scooter", "name": "0c57fbf274021d31a1222be14f6fabad", "is_disabled": 0, "rental_uris": {"ios": "https://dc.lft.to/lastmile_qr_scan", "android": "https://dc.lft.to/lastmile_qr_scan"}, "is_reserved": 0}, {"lon": -77.01926333333333, "bike_id": "3b615d60076e81b24808baf249122dd4", "lat": 38.88625316666667, "fusion_lon": 0.0, "fusion_lat": 0.0, "type": "electric_scooter", "name": "3b615d60076e81b24808baf249122dd4", "is_disabled": 0, "rental_uris": {"ios": "https://dc.lft.to/lastmile_qr_scan", "android": "https://dc.lft.to/lastmile_qr_scan"}, "is_reserved": 0}, {"lon": -76.99531366666666, "bike_id": "f05aea81801b71d4ecd0837f448e10d6", "lat": 38.883698333333335, "fusion_lon": 0.0, "fusion_lat": 0.0, "type": "electric_scooter", "name": "f05aea81801b71d4ecd0837f448e10d6", "is_disabled": 0, "rental_uris": {"ios": "https://dc.lft.to/lastmile_qr_scan", "android": "https://dc.lft.to/lastmile_qr_scan"}, "is_reserved": 0}, {"lon": -77.026311, "bike_id": "ccfb65f38746e63430c73ee01b8d92bd", "lat": 38.9622455, "fusion_lon": 0.0, "fusion_lat": 0.0, "type": "electric_bike", "name": "ccfb65f38746e63430c73ee01b8d92bd", "is_disabled": 0, "rental_uris": {"ios": "https://dc.lft.to/lastmile_qr_scan", "android": "https://dc.lft.to/lastmile_qr_scan"}, "is_reserved": 0}, {"lon": -76.954807, "bike_id": "d843952497333ebc9b8c1836d9157bf5", "lat": 38.884625666666665, "fusion_lon": 0.0, "fusion_lat": 0.0, "type": "electric_scooter", "name": "d843952497333ebc9b8c1836d9157bf5", "is_disabled": 0, "rental_uris": {"ios": "https://dc.lft.to/lastmile_qr_scan", "android": "https://dc.lft.to/lastmile_qr_scan"}, "is_reserved": 0}, {"lon": -76.98596766666667, "bike_id": "d9904ed690b685bed233dda94ddd084b", "lat": 38.9081605, "fusion_lon": 0.0, "fusion_lat": 0.0, "type": "electric_scooter", "name": "d9904ed690b685bed233dda94ddd084b", "is_disabled": 0, "rental_uris": {"ios": "https://dc.lft.to/lastmile_qr_scan", "android": "https://dc.lft.to/lastmile_qr_scan"}, "is_reserved": 0}, {"lon": -77.00214216666667, "bike_id": "8fc61ee64782b1981da2b11fe3f67337", "lat": 38.900375, "fusion_lon": 0.0, "fusion_lat": 0.0, "type": "electric_scooter", "name": "8fc61ee64782b1981da2b11fe3f67337", "is_disabled": 0, "rental_uris": {"ios": "https://dc.lft.to/lastmile_qr_scan", "android": "https://dc.lft.to/lastmile_qr_scan"}, "is_reserved": 0}, {"lon": -76.98263483333334, "bike_id": "6dc60e1af699552312884d838e04788a", "lat": 38.908560333333334, "fusion_lon": 0.0, "fusion_lat": 0.0, "type": "electric_scooter", "name": "6dc60e1af699552312884d838e04788a", "is_disabled": 0, "rental_uris": {"ios": "https://dc.lft.to/lastmile_qr_scan", "android": "https://dc.lft.to/lastmile_qr_scan"}, "is_reserved": 0}, {"lon": -76.99484116666666, "bike_id": "1b80b85fa8c9d8a7569d356887800f7c", "lat": 38.915700666666666, "fusion_lon": 0.0, "fusion_lat": 0.0, "type": "electric_scooter", "name": "1b80b85fa8c9d8a7569d356887800f7c", "is_disabled": 0, "rental_uris": {"ios": "https://dc.lft.to/lastmile_qr_scan", "android": "https://dc.lft.to/lastmile_qr_scan"}, "is_reserved": 0}, {"lon": -77.064728, "bike_id": "e421b11b4cfc77073549fec24669377c", "lat": 38.94653816666667, "fusion_lon": 0.0, "fusion_lat": 0.0, "type": "electric_scooter", "name": "e421b11b4cfc77073549fec24669377c", "is_disabled": 0, "rental_uris": {"ios": "https://dc.lft.to/lastmile_qr_scan", "android": "https://dc.lft.to/lastmile_qr_scan"}, "is_reserved": 0}, {"lon": -76.93366133333333, "bike_id": "2dfac5075e0def07233feddbe144c3d9", "lat": 38.899128166666664, "fusion_lon": 0.0, "fusion_lat": 0.0, "type": "electric_scooter", "name": "2dfac5075e0def07233feddbe144c3d9", "is_disabled": 0, "rental_uris": {"ios": "https://dc.lft.to/lastmile_qr_scan", "android": "https://dc.lft.to/lastmile_qr_scan"}, "is_reserved": 0}, {"lon": -77.04100783333334, "bike_id": "e5a76aa0f165c6fec72594fd5da0ac99", "lat": 38.920366333333334, "fusion_lon": 0.0, "fusion_lat": 0.0, "type": "electric_scooter", "name": "e5a76aa0f165c6fec72594fd5da0ac99", "is_disabled": 0, "rental_uris": {"ios": "https://dc.lft.to/lastmile_qr_scan", "android": "https://dc.lft.to/lastmile_qr_scan"}, "is_reserved": 0}, {"lon": -77.10091133333333, "bike_id": "8fe42fa08ac0272bc5e21c608a1789ab", "lat": 38.9595435, "fusion_lon": 0.0, "fusion_lat": 0.0, "type": "electric_bike", "name": "8fe42fa08ac0272bc5e21c608a1789ab", "is_disabled": 0, "rental_uris": {"ios": "https://dc.lft.to/lastmile_qr_scan", "android": "https://dc.lft.to/lastmile_qr_scan"}, "is_reserved": 0}, {"lon": -77.0365705, "bike_id": "a6c3c1581b706ffe38d10aa423d6106c", "lat": 38.9418015, "fusion_lon": 0.0, "fusion_lat": 0.0, "type": "electric_scooter", "name": "a6c3c1581b706ffe38d10aa423d6106c", "is_disabled": 0, "rental_uris": {"ios": "https://dc.lft.to/lastmile_qr_scan", "android": "https://dc.lft.to/lastmile_qr_scan"}, "is_reserved": 0}, {"lon": -76.98199733333334, "bike_id": "a1d497ba9bd66c666189e11623653174", "lat": 38.92616866666667, "fusion_lon": 0.0, "fusion_lat": 0.0, "type": "electric_scooter", "name": "a1d497ba9bd66c666189e11623653174", "is_disabled": 0, "rental_uris": {"ios": "https://dc.lft.to/lastmile_qr_scan", "android": "https://dc.lft.to/lastmile_qr_scan"}, "is_reserved": 0}, {"lon": -76.94290983333333, "bike_id": "7796c072226442636acfefb3499e2c8f", "lat": 38.9386725, "fusion_lon": 0.0, "fusion_lat": 0.0, "type": "electric_bike", "name": "7796c072226442636acfefb3499e2c8f", "is_disabled": 0, "rental_uris": {"ios": "https://dc.lft.to/lastmile_qr_scan", "android": "https://dc.lft.to/lastmile_qr_scan"}, "is_reserved": 0}, {"lon": -76.9888245, "bike_id": "89a5e163111e953c349a615ac415519f", "lat": 38.866506333333334, "fusion_lon": 0.0, "fusion_lat": 0.0, "type": "electric_scooter", "name": "89a5e163111e953c349a615ac415519f", "is_disabled": 0, "rental_uris": {"ios": "https://dc.lft.to/lastmile_qr_scan", "android": "https://dc.lft.to/lastmile_qr_scan"}, "is_reserved": 0}, {"lon": -77.02623966666667, "bike_id": "60a09376034c4d3dcd78fa7c9afc93f3", "lat": 38.962171833333336, "fusion_lon": 0.0, "fusion_lat": 0.0, "type": "electric_bike", "name": "60a09376034c4d3dcd78fa7c9afc93f3", "is_disabled": 0, "rental_uris": {"ios": "https://dc.lft.to/lastmile_qr_scan", "android": "https://dc.lft.to/lastmile_qr_scan"}, "is_reserved": 0}, {"lon": -77.00718133333334, "bike_id": "b82573328b28a3631ecf1b8eccf2ce30", "lat": 38.87935616666667, "fusion_lon": 0.0, "fusion_lat": 0.0, "type": "electric_scooter", "name": "b82573328b28a3631ecf1b8eccf2ce30", "is_disabled": 0, "rental_uris": {"ios": "https://dc.lft.to/lastmile_qr_scan", "android": "https://dc.lft.to/lastmile_qr_scan"}, "is_reserved": 0}, {"lon": -76.98892966666666, "bike_id": "e34b7cbd2702318d627163146584315e", "lat": 38.913395333333334, "fusion_lon": 0.0, "fusion_lat": 0.0, "type": "electric_scooter", "name": "e34b7cbd2702318d627163146584315e", "is_disabled": 0, "rental_uris": {"ios": "https://dc.lft.to/lastmile_qr_scan", "android": "https://dc.lft.to/lastmile_qr_scan"}, "is_reserved": 0}, {"lon": -77.01170466666666, "bike_id": "0a9e1037c53d71e267604514fb64d870", "lat": 38.8723865, "fusion_lon": 0.0, "fusion_lat": 0.0, "type": "electric_bike", "name": "0a9e1037c53d71e267604514fb64d870", "is_disabled": 0, "rental_uris": {"ios": "https://dc.lft.to/lastmile_qr_scan", "android": "https://dc.lft.to/lastmile_qr_scan"}, "is_reserved": 0}, {"lon": -77.04060733333333, "bike_id": "c511c49d9d0243f742c01871a6a11452", "lat": 38.91486316666666, "fusion_lon": 0.0, "fusion_lat": 0.0, "type": "electric_scooter", "name": "c511c49d9d0243f742c01871a6a11452", "is_disabled": 0, "rental_uris": {"ios": "https://dc.lft.to/lastmile_qr_scan", "android": "https://dc.lft.to/lastmile_qr_scan"}, "is_reserved": 0}, {"lon": -76.9775975, "bike_id": "4dd0495e5b1c17b3a670668003838a1d", "lat": 38.864464166666664, "fusion_lon": 0.0, "fusion_lat": 0.0, "type": "electric_scooter", "name": "4dd0495e5b1c17b3a670668003838a1d", "is_disabled": 0, "rental_uris": {"ios": "https://dc.lft.to/lastmile_qr_scan", "android": "https://dc.lft.to/lastmile_qr_scan"}, "is_reserved": 0}, {"lon": -77.04356583333333, "bike_id": "5df1fbbe8e5ade6932f277e65f23ae58", "lat": 38.92149366666666, "fusion_lon": 0.0, "fusion_lat": 0.0, "type": "electric_scooter", "name": "5df1fbbe8e5ade6932f277e65f23ae58", "is_disabled": 0, "rental_uris": {"ios": "https://dc.lft.to/lastmile_qr_scan", "android": "https://dc.lft.to/lastmile_qr_scan"}, "is_reserved": 0}, {"lon": -77.01527316666666, "bike_id": "825001e2f84043012add7ddf57d53edb", "lat": 38.90966216666666, "fusion_lon": 0.0, "fusion_lat": 0.0, "type": "electric_bike", "name": "825001e2f84043012add7ddf57d53edb", "is_disabled": 0, "rental_uris": {"ios": "https://dc.lft.to/lastmile_qr_scan", "android": "https://dc.lft.to/lastmile_qr_scan"}, "is_reserved": 0}, {"lon": -77.014634, "bike_id": "9ef0baa642b89c46d2316eb0cebdfafe", "lat": 38.905171833333334, "fusion_lon": 0.0, "fusion_lat": 0.0, "type": "electric_scooter", "name": "9ef0baa642b89c46d2316eb0cebdfafe", "is_disabled": 0, "rental_uris": {"ios": "https://dc.lft.to/lastmile_qr_scan", "android": "https://dc.lft.to/lastmile_qr_scan"}, "is_reserved": 0}, {"lon": -77.01151766666666, "bike_id": "27ea6bb84b7c1d4a97709235a6b17688", "lat": 38.895919666666664, "fusion_lon": 0.0, "fusion_lat": 0.0, "type": "electric_scooter", "name": "27ea6bb84b7c1d4a97709235a6b17688", "is_disabled": 0, "rental_uris": {"ios": "https://dc.lft.to/lastmile_qr_scan", "android": "https://dc.lft.to/lastmile_qr_scan"}, "is_reserved": 0}, {"lon": -76.98844666666666, "bike_id": "cb2895ecb916d51388fa55fb4ae5c3e4", "lat": 38.90127183333333, "fusion_lon": 0.0, "fusion_lat": 0.0, "type": "electric_scooter", "name": "cb2895ecb916d51388fa55fb4ae5c3e4", "is_disabled": 0, "rental_uris": {"ios": "https://dc.lft.to/lastmile_qr_scan", "android": "https://dc.lft.to/lastmile_qr_scan"}, "is_reserved": 0}, {"lon": -77.12225833333333, "bike_id": "114154eed63bdcabd70525d75085ed35", "lat": 38.85304216666667, "fusion_lon": 0.0, "fusion_lat": 0.0, "type": "electric_bike", "name": "114154eed63bdcabd70525d75085ed35", "is_disabled": 0, "rental_uris": {"ios": "https://dc.lft.to/lastmile_qr_scan", "android": "https://dc.lft.to/lastmile_qr_scan"}, "is_reserved": 0}, {"lon": -77.03216116666667, "bike_id": "b879d166966560f4976324e38e0e7de1", "lat": 38.89224033333333, "fusion_lon": 0.0, "fusion_lat": 0.0, "type": "electric_scooter", "name": "b879d166966560f4976324e38e0e7de1", "is_disabled": 0, "rental_uris": {"ios": "https://dc.lft.to/lastmile_qr_scan", "android": "https://dc.lft.to/lastmile_qr_scan"}, "is_reserved": 0}, {"lon": -77.03491016666666, "bike_id": "3cc22c60c2cd5bc5fc47db3e6592180a", "lat": 38.90020483333333, "fusion_lon": 0.0, "fusion_lat": 0.0, "type": "electric_scooter", "name": "3cc22c60c2cd5bc5fc47db3e6592180a", "is_disabled": 0, "rental_uris": {"ios": "https://dc.lft.to/lastmile_qr_scan", "android": "https://dc.lft.to/lastmile_qr_scan"}, "is_reserved": 0}, {"lon": -77.0859485, "bike_id": "170b9e7fe321503463b13c4f2d88a2ae", "lat": 38.9087405, "fusion_lon": 0.0, "fusion_lat": 0.0, "type": "electric_scooter", "name": "170b9e7fe321503463b13c4f2d88a2ae", "is_disabled": 0, "rental_uris": {"ios": "https://dc.lft.to/lastmile_qr_scan", "android": "https://dc.lft.to/lastmile_qr_scan"}, "is_reserved": 0}, {"lon": -77.01748416666666, "bike_id": "1e085dfdfc3145838d758955ef2914fb", "lat": 38.881179833333334, "fusion_lon": 0.0, "fusion_lat": 0.0, "type": "electric_scooter", "name": "1e085dfdfc3145838d758955ef2914fb", "is_disabled": 0, "rental_uris": {"ios": "https://dc.lft.to/lastmile_qr_scan", "android": "https://dc.lft.to/lastmile_qr_scan"}, "is_reserved": 0}, {"lon": -76.99062383333333, "bike_id": "6848400c8411e3621ca42e6c4f1f73ed", "lat": 38.90028233333334, "fusion_lon": 0.0, "fusion_lat": 0.0, "type": "electric_scooter", "name": "6848400c8411e3621ca42e6c4f1f73ed", "is_disabled": 0, "rental_uris": {"ios": "https://dc.lft.to/lastmile_qr_scan", "android": "https://dc.lft.to/lastmile_qr_scan"}, "is_reserved": 0}, {"lon": -77.00924583333334, "bike_id": "180e58fa6bb26b9f62ab8aec336d48f1", "lat": 38.91099666666667, "fusion_lon": 0.0, "fusion_lat": 0.0, "type": "electric_scooter", "name": "180e58fa6bb26b9f62ab8aec336d48f1", "is_disabled": 0, "rental_uris": {"ios": "https://dc.lft.to/lastmile_qr_scan", "android": "https://dc.lft.to/lastmile_qr_scan"}, "is_reserved": 0}, {"lon": -76.98965683333333, "bike_id": "193c94a1df32630d56d4b2b01b22cd72", "lat": 38.90132716666667, "fusion_lon": 0.0, "fusion_lat": 0.0, "type": "electric_scooter", "name": "193c94a1df32630d56d4b2b01b22cd72", "is_disabled": 0, "rental_uris": {"ios": "https://dc.lft.to/lastmile_qr_scan", "android": "https://dc.lft.to/lastmile_qr_scan"}, "is_reserved": 0}, {"lon": -77.01369383333333, "bike_id": "0ac81c82ade2ec7b3bec9652fb3dd3ef", "lat": 38.906127, "fusion_lon": 0.0, "fusion_lat": 0.0, "type": "electric_scooter", "name": "0ac81c82ade2ec7b3bec9652fb3dd3ef", "is_disabled": 0, "rental_uris": {"ios": "https://dc.lft.to/lastmile_qr_scan", "android": "https://dc.lft.to/lastmile_qr_scan"}, "is_reserved": 0}, {"lon": -77.01753683333334, "bike_id": "5cf91cc3304e4ce9cb51a94467292ae1", "lat": 38.88057333333333, "fusion_lon": 0.0, "fusion_lat": 0.0, "type": "electric_scooter", "name": "5cf91cc3304e4ce9cb51a94467292ae1", "is_disabled": 0, "rental_uris": {"ios": "https://dc.lft.to/lastmile_qr_scan", "android": "https://dc.lft.to/lastmile_qr_scan"}, "is_reserved": 0}, {"lon": -77.0356625, "bike_id": "d3f00359629bb8e097ca09aacf41add6", "lat": 38.90465316666667, "fusion_lon": 0.0, "fusion_lat": 0.0, "type": "electric_scooter", "name": "d3f00359629bb8e097ca09aacf41add6", "is_disabled": 0, "rental_uris": {"ios": "https://dc.lft.to/lastmile_qr_scan", "android": "https://dc.lft.to/lastmile_qr_scan"}, "is_reserved": 0}, {"lon": -76.981724, "bike_id": "60f160e0496d1c4881613574ca43dfb3", "lat": 38.91674183333333, "fusion_lon": 0.0, "fusion_lat": 0.0, "type": "electric_scooter", "name": "60f160e0496d1c4881613574ca43dfb3", "is_disabled": 0, "rental_uris": {"ios": "https://dc.lft.to/lastmile_qr_scan", "android": "https://dc.lft.to/lastmile_qr_scan"}, "is_reserved": 0}, {"lon": -76.92993633333333, "bike_id": "8dde37c31caf19a53f353a2f021449fd", "lat": 38.90191033333333, "fusion_lon": 0.0, "fusion_lat": 0.0, "type": "electric_scooter", "name": "8dde37c31caf19a53f353a2f021449fd", "is_disabled": 0, "rental_uris": {"ios": "https://dc.lft.to/lastmile_qr_scan", "android": "https://dc.lft.to/lastmile_qr_scan"}, "is_reserved": 0}, {"lon": -77.03581683333333, "bike_id": "7ef9ea9b8af4d6042839dcce7330bffe", "lat": 38.91764583333333, "fusion_lon": 0.0, "fusion_lat": 0.0, "type": "electric_scooter", "name": "7ef9ea9b8af4d6042839dcce7330bffe", "is_disabled": 0, "rental_uris": {"ios": "https://dc.lft.to/lastmile_qr_scan", "android": "https://dc.lft.to/lastmile_qr_scan"}, "is_reserved": 0}, {"lon": -77.04327133333334, "bike_id": "fcb875467356b00caaa499fd5584d724", "lat": 38.907366, "fusion_lon": 0.0, "fusion_lat": 0.0, "type": "electric_scooter", "name": "fcb875467356b00caaa499fd5584d724", "is_disabled": 0, "rental_uris": {"ios": "https://dc.lft.to/lastmile_qr_scan", "android": "https://dc.lft.to/lastmile_qr_scan"}, "is_reserved": 0}, {"lon": -77.04019633333333, "bike_id": "c500fbb030a673cfe17a251558416c28", "lat": 38.91113466666667, "fusion_lon": 0.0, "fusion_lat": 0.0, "type": "electric_scooter", "name": "c500fbb030a673cfe17a251558416c28", "is_disabled": 0, "rental_uris": {"ios": "https://dc.lft.to/lastmile_qr_scan", "android": "https://dc.lft.to/lastmile_qr_scan"}, "is_reserved": 0}, {"lon": -77.0141105, "bike_id": "2b4a9e30a3f2ea951e34073725e3a0f2", "lat": 38.9282965, "fusion_lon": 0.0, "fusion_lat": 0.0, "type": "electric_scooter", "name": "2b4a9e30a3f2ea951e34073725e3a0f2", "is_disabled": 0, "rental_uris": {"ios": "https://dc.lft.to/lastmile_qr_scan", "android": "https://dc.lft.to/lastmile_qr_scan"}, "is_reserved": 0}, {"lon": -77.10912066666667, "bike_id": "062c911013944ff4db1805759617dc3e", "lat": 39.05205133333333, "fusion_lon": 0.0, "fusion_lat": 0.0, "type": "electric_bike", "name": "062c911013944ff4db1805759617dc3e", "is_disabled": 0, "rental_uris": {"ios": "https://dc.lft.to/lastmile_qr_scan", "android": "https://dc.lft.to/lastmile_qr_scan"}, "is_reserved": 0}, {"lon": -77.04515183333334, "bike_id": "d132ff980f751a5f677b72ffc5ba7e68", "lat": 38.8860235, "fusion_lon": 0.0, "fusion_lat": 0.0, "type": "electric_scooter", "name": "d132ff980f751a5f677b72ffc5ba7e68", "is_disabled": 0, "rental_uris": {"ios": "https://dc.lft.to/lastmile_qr_scan", "android": "https://dc.lft.to/lastmile_qr_scan"}, "is_reserved": 0}, {"lon": -77.0212045, "bike_id": "4c1a2312b22fd4e84d56fb24bbbb8d6f", "lat": 38.95302483333333, "fusion_lon": 0.0, "fusion_lat": 0.0, "type": "electric_bike", "name": "4c1a2312b22fd4e84d56fb24bbbb8d6f", "is_disabled": 0, "rental_uris": {"ios": "https://dc.lft.to/lastmile_qr_scan", "android": "https://dc.lft.to/lastmile_qr_scan"}, "is_reserved": 0}, {"lon": -77.03235633333334, "bike_id": "1475694b3c640c276753625178dbce5d", "lat": 38.89647216666667, "fusion_lon": 0.0, "fusion_lat": 0.0, "type": "electric_scooter", "name": "1475694b3c640c276753625178dbce5d", "is_disabled": 0, "rental_uris": {"ios": "https://dc.lft.to/lastmile_qr_scan", "android": "https://dc.lft.to/lastmile_qr_scan"}, "is_reserved": 0}, {"lon": -77.02295133333334, "bike_id": "650863db9695fc79e7610754db65bded", "lat": 38.91679716666667, "fusion_lon": 0.0, "fusion_lat": 0.0, "type": "electric_scooter", "name": "650863db9695fc79e7610754db65bded", "is_disabled": 0, "rental_uris": {"ios": "https://dc.lft.to/lastmile_qr_scan", "android": "https://dc.lft.to/lastmile_qr_scan"}, "is_reserved": 0}, {"lon": -77.03877933333334, "bike_id": "f88e552f25440efc558794e4678fd787", "lat": 38.9200575, "fusion_lon": 0.0, "fusion_lat": 0.0, "type": "electric_scooter", "name": "f88e552f25440efc558794e4678fd787", "is_disabled": 0, "rental_uris": {"ios": "https://dc.lft.to/lastmile_qr_scan", "android": "https://dc.lft.to/lastmile_qr_scan"}, "is_reserved": 0}, {"lon": -77.0271635, "bike_id": "16aafd8cc72f61521899a9d745d7f188", "lat": 38.927704, "fusion_lon": 0.0, "fusion_lat": 0.0, "type": "electric_scooter", "name": "16aafd8cc72f61521899a9d745d7f188", "is_disabled": 0, "rental_uris": {"ios": "https://dc.lft.to/lastmile_qr_scan", "android": "https://dc.lft.to/lastmile_qr_scan"}, "is_reserved": 0}, {"lon": -77.03445633333334, "bike_id": "c4eac5d91886da79c7c71aa198ae7244", "lat": 38.9101515, "fusion_lon": 0.0, "fusion_lat": 0.0, "type": "electric_scooter", "name": "c4eac5d91886da79c7c71aa198ae7244", "is_disabled": 0, "rental_uris": {"ios": "https://dc.lft.to/lastmile_qr_scan", "android": "https://dc.lft.to/lastmile_qr_scan"}, "is_reserved": 0}, {"lon": -77.0113305, "bike_id": "543b1af582a9e60f6bda1eb0a77e3a7e", "lat": 38.90730583333333, "fusion_lon": 0.0, "fusion_lat": 0.0, "type": "electric_scooter", "name": "543b1af582a9e60f6bda1eb0a77e3a7e", "is_disabled": 0, "rental_uris": {"ios": "https://dc.lft.to/lastmile_qr_scan", "android": "https://dc.lft.to/lastmile_qr_scan"}, "is_reserved": 0}, {"lon": -77.02162883333334, "bike_id": "d40b2ef6b4658ee964f1f0b076fee410", "lat": 38.922458166666665, "fusion_lon": 0.0, "fusion_lat": 0.0, "type": "electric_scooter", "name": "d40b2ef6b4658ee964f1f0b076fee410", "is_disabled": 0, "rental_uris": {"ios": "https://dc.lft.to/lastmile_qr_scan", "android": "https://dc.lft.to/lastmile_qr_scan"}, "is_reserved": 0}, {"lon": -77.023756, "bike_id": "1c51a3e3a7753bc10fb8a6904158760c", "lat": 38.90202633333333, "fusion_lon": 0.0, "fusion_lat": 0.0, "type": "electric_scooter", "name": "1c51a3e3a7753bc10fb8a6904158760c", "is_disabled": 0, "rental_uris": {"ios": "https://dc.lft.to/lastmile_qr_scan", "android": "https://dc.lft.to/lastmile_qr_scan"}, "is_reserved": 0}, {"lon": -76.9276995, "bike_id": "32c38a48b5d6804af92b0ff4e454c4de", "lat": 38.90087716666667, "fusion_lon": 0.0, "fusion_lat": 0.0, "type": "electric_scooter", "name": "32c38a48b5d6804af92b0ff4e454c4de", "is_disabled": 0, "rental_uris": {"ios": "https://dc.lft.to/lastmile_qr_scan", "android": "https://dc.lft.to/lastmile_qr_scan"}, "is_reserved": 0}, {"lon": -77.0519395, "bike_id": "4b69de12a9dd42cf98498dfeb4007202", "lat": 38.92454583333333, "fusion_lon": 0.0, "fusion_lat": 0.0, "type": "electric_scooter", "name": "4b69de12a9dd42cf98498dfeb4007202", "is_disabled": 0, "rental_uris": {"ios": "https://dc.lft.to/lastmile_qr_scan", "android": "https://dc.lft.to/lastmile_qr_scan"}, "is_reserved": 0}, {"lon": -76.98885283333334, "bike_id": "493635a66439a2214e23895f860758ba", "lat": 38.866497, "fusion_lon": 0.0, "fusion_lat": 0.0, "type": "electric_scooter", "name": "493635a66439a2214e23895f860758ba", "is_disabled": 0, "rental_uris": {"ios": "https://dc.lft.to/lastmile_qr_scan", "android": "https://dc.lft.to/lastmile_qr_scan"}, "is_reserved": 0}, {"lon": -76.98710733333333, "bike_id": "dac97800fe680dc8c7c9710de7ac930d", "lat": 38.86624666666667, "fusion_lon": 0.0, "fusion_lat": 0.0, "type": "electric_scooter", "name": "dac97800fe680dc8c7c9710de7ac930d", "is_disabled": 0, "rental_uris": {"ios": "https://dc.lft.to/lastmile_qr_scan", "android": "https://dc.lft.to/lastmile_qr_scan"}, "is_reserved": 0}, {"lon": -77.04374516666667, "bike_id": "82c8a948357d8b2e32556f5efad7ee62", "lat": 38.886454666666666, "fusion_lon": 0.0, "fusion_lat": 0.0, "type": "electric_scooter", "name": "82c8a948357d8b2e32556f5efad7ee62", "is_disabled": 0, "rental_uris": {"ios": "https://dc.lft.to/lastmile_qr_scan", "android": "https://dc.lft.to/lastmile_qr_scan"}, "is_reserved": 0}, {"lon": -76.9949565, "bike_id": "515ccb5a628459ce69ecfb5e83138a9a", "lat": 38.8624415, "fusion_lon": 0.0, "fusion_lat": 0.0, "type": "electric_scooter", "name": "515ccb5a628459ce69ecfb5e83138a9a", "is_disabled": 0, "rental_uris": {"ios": "https://dc.lft.to/lastmile_qr_scan", "android": "https://dc.lft.to/lastmile_qr_scan"}, "is_reserved": 0}, {"lon": -77.00198166666667, "bike_id": "a94c6f95e5ed22ef145bf5917ee31465", "lat": 38.90018833333333, "fusion_lon": 0.0, "fusion_lat": 0.0, "type": "electric_scooter", "name": "a94c6f95e5ed22ef145bf5917ee31465", "is_disabled": 0, "rental_uris": {"ios": "https://dc.lft.to/lastmile_qr_scan", "android": "https://dc.lft.to/lastmile_qr_scan"}, "is_reserved": 0}, {"lon": -76.9605975, "bike_id": "5acbd8dd5c3caf443f42cb51f5de75bc", "lat": 38.8840255, "fusion_lon": 0.0, "fusion_lat": 0.0, "type": "electric_bike", "name": "5acbd8dd5c3caf443f42cb51f5de75bc", "is_disabled": 0, "rental_uris": {"ios": "https://dc.lft.to/lastmile_qr_scan", "android": "https://dc.lft.to/lastmile_qr_scan"}, "is_reserved": 0}, {"lon": -77.04487666666667, "bike_id": "23c79ea6904c8ec4002c8f46f8f45f5e", "lat": 38.919358833333334, "fusion_lon": 0.0, "fusion_lat": 0.0, "type": "electric_scooter", "name": "23c79ea6904c8ec4002c8f46f8f45f5e", "is_disabled": 0, "rental_uris": {"ios": "https://dc.lft.to/lastmile_qr_scan", "android": "https://dc.lft.to/lastmile_qr_scan"}, "is_reserved": 0}, {"lon": -77.02408016666666, "bike_id": "ec030b0be2d4f6c87a94e3953ebfa56b", "lat": 38.921554666666665, "fusion_lon": 0.0, "fusion_lat": 0.0, "type": "electric_scooter", "name": "ec030b0be2d4f6c87a94e3953ebfa56b", "is_disabled": 0, "rental_uris": {"ios": "https://dc.lft.to/lastmile_qr_scan", "android": "https://dc.lft.to/lastmile_qr_scan"}, "is_reserved": 0}, {"lon": -77.0278465, "bike_id": "741540c42db5fb40f2eecb3d95ecefac", "lat": 38.92761683333333, "fusion_lon": 0.0, "fusion_lat": 0.0, "type": "electric_scooter", "name": "741540c42db5fb40f2eecb3d95ecefac", "is_disabled": 0, "rental_uris": {"ios": "https://dc.lft.to/lastmile_qr_scan", "android": "https://dc.lft.to/lastmile_qr_scan"}, "is_reserved": 0}, {"lon": -76.98659416666666, "bike_id": "b7372ac2890b4a96f2e30f552703d524", "lat": 38.91247033333333, "fusion_lon": 0.0, "fusion_lat": 0.0, "type": "electric_scooter", "name": "b7372ac2890b4a96f2e30f552703d524", "is_disabled": 0, "rental_uris": {"ios": "https://dc.lft.to/lastmile_qr_scan", "android": "https://dc.lft.to/lastmile_qr_scan"}, "is_reserved": 0}, {"lon": -77.0365205, "bike_id": "10ad943c92bb3449b1a19f1bea54a427", "lat": 38.90351583333333, "fusion_lon": 0.0, "fusion_lat": 0.0, "type": "electric_scooter", "name": "10ad943c92bb3449b1a19f1bea54a427", "is_disabled": 0, "rental_uris": {"ios": "https://dc.lft.to/lastmile_qr_scan", "android": "https://dc.lft.to/lastmile_qr_scan"}, "is_reserved": 0}, {"lon": -76.988431, "bike_id": "d854bd5f3230f34b275db9521a61a3d8", "lat": 38.90127283333333, "fusion_lon": 0.0, "fusion_lat": 0.0, "type": "electric_scooter", "name": "d854bd5f3230f34b275db9521a61a3d8", "is_disabled": 0, "rental_uris": {"ios": "https://dc.lft.to/lastmile_qr_scan", "android": "https://dc.lft.to/lastmile_qr_scan"}, "is_reserved": 0}, {"lon": -77.0487745, "bike_id": "903712ae5c29805cc4f046a86130dafe", "lat": 38.8923335, "fusion_lon": 0.0, "fusion_lat": 0.0, "type": "electric_scooter", "name": "903712ae5c29805cc4f046a86130dafe", "is_disabled": 0, "rental_uris": {"ios": "https://dc.lft.to/lastmile_qr_scan", "android": "https://dc.lft.to/lastmile_qr_scan"}, "is_reserved": 0}, {"lon": -77.032075, "bike_id": "dc20660375da8b954ce4ace0eeb5e902", "lat": 38.93056516666667, "fusion_lon": 0.0, "fusion_lat": 0.0, "type": "electric_scooter", "name": "dc20660375da8b954ce4ace0eeb5e902", "is_disabled": 0, "rental_uris": {"ios": "https://dc.lft.to/lastmile_qr_scan", "android": "https://dc.lft.to/lastmile_qr_scan"}, "is_reserved": 0}, {"lon": -77.02385083333333, "bike_id": "49333332aea28012cb72849533195679", "lat": 38.90788533333333, "fusion_lon": 0.0, "fusion_lat": 0.0, "type": "electric_scooter", "name": "49333332aea28012cb72849533195679", "is_disabled": 0, "rental_uris": {"ios": "https://dc.lft.to/lastmile_qr_scan", "android": "https://dc.lft.to/lastmile_qr_scan"}, "is_reserved": 0}, {"lon": -77.05509016666667, "bike_id": "5f5199fd825b7e99d4439f218bc4a6a5", "lat": 38.89987766666667, "fusion_lon": 0.0, "fusion_lat": 0.0, "type": "electric_scooter", "name": "5f5199fd825b7e99d4439f218bc4a6a5", "is_disabled": 0, "rental_uris": {"ios": "https://dc.lft.to/lastmile_qr_scan", "android": "https://dc.lft.to/lastmile_qr_scan"}, "is_reserved": 0}, {"lon": -77.0382305, "bike_id": "17eed996d89534a8064466222cc7c06c", "lat": 38.909647666666665, "fusion_lon": 0.0, "fusion_lat": 0.0, "type": "electric_scooter", "name": "17eed996d89534a8064466222cc7c06c", "is_disabled": 0, "rental_uris": {"ios": "https://dc.lft.to/lastmile_qr_scan", "android": "https://dc.lft.to/lastmile_qr_scan"}, "is_reserved": 0}, {"lon": -77.04464833333333, "bike_id": "19ee403e144f060ee8f9360de4e0a7be", "lat": 38.92436433333334, "fusion_lon": 0.0, "fusion_lat": 0.0, "type": "electric_scooter", "name": "19ee403e144f060ee8f9360de4e0a7be", "is_disabled": 0, "rental_uris": {"ios": "https://dc.lft.to/lastmile_qr_scan", "android": "https://dc.lft.to/lastmile_qr_scan"}, "is_reserved": 0}, {"lon": -77.07472833333334, "bike_id": "ca132646766971cae8c510a2c56c24a7", "lat": 38.92065, "fusion_lon": 0.0, "fusion_lat": 0.0, "type": "electric_bike", "name": "ca132646766971cae8c510a2c56c24a7", "is_disabled": 0, "rental_uris": {"ios": "https://dc.lft.to/lastmile_qr_scan", "android": "https://dc.lft.to/lastmile_qr_scan"}, "is_reserved": 0}, {"lon": -77.03426733333333, "bike_id": "27515864e1dc6c9194ea31b848490a3a", "lat": 38.9192915, "fusion_lon": 0.0, "fusion_lat": 0.0, "type": "electric_scooter", "name": "27515864e1dc6c9194ea31b848490a3a", "is_disabled": 0, "rental_uris": {"ios": "https://dc.lft.to/lastmile_qr_scan", "android": "https://dc.lft.to/lastmile_qr_scan"}, "is_reserved": 0}, {"lon": -77.0848865, "bike_id": "cd6a16b6c6a537935381719e9eb5e940", "lat": 38.848384333333335, "fusion_lon": 0.0, "fusion_lat": 0.0, "type": "electric_bike", "name": "cd6a16b6c6a537935381719e9eb5e940", "is_disabled": 0, "rental_uris": {"ios": "https://dc.lft.to/lastmile_qr_scan", "android": "https://dc.lft.to/lastmile_qr_scan"}, "is_reserved": 0}, {"lon": -77.0166205, "bike_id": "909090189a08aafe972d42fc2288387d", "lat": 38.91429083333333, "fusion_lon": 0.0, "fusion_lat": 0.0, "type": "electric_scooter", "name": "909090189a08aafe972d42fc2288387d", "is_disabled": 0, "rental_uris": {"ios": "https://dc.lft.to/lastmile_qr_scan", "android": "https://dc.lft.to/lastmile_qr_scan"}, "is_reserved": 0}, {"lon": -77.03659466666667, "bike_id": "946680ee543cfb080edb344b5c320c49", "lat": 38.917556, "fusion_lon": 0.0, "fusion_lat": 0.0, "type": "electric_scooter", "name": "946680ee543cfb080edb344b5c320c49", "is_disabled": 0, "rental_uris": {"ios": "https://dc.lft.to/lastmile_qr_scan", "android": "https://dc.lft.to/lastmile_qr_scan"}, "is_reserved": 0}, {"lon": -77.074122, "bike_id": "02a120569db50f1f44dc86b89dc4a4a2", "lat": 38.92886516666667, "fusion_lon": 0.0, "fusion_lat": 0.0, "type": "electric_scooter", "name": "02a120569db50f1f44dc86b89dc4a4a2", "is_disabled": 0, "rental_uris": {"ios": "https://dc.lft.to/lastmile_qr_scan", "android": "https://dc.lft.to/lastmile_qr_scan"}, "is_reserved": 0}, {"lon": -77.0269655, "bike_id": "a8da3c40d899c14abe84d8541e80ff82", "lat": 38.904111666666665, "fusion_lon": 0.0, "fusion_lat": 0.0, "type": "electric_scooter", "name": "a8da3c40d899c14abe84d8541e80ff82", "is_disabled": 0, "rental_uris": {"ios": "https://dc.lft.to/lastmile_qr_scan", "android": "https://dc.lft.to/lastmile_qr_scan"}, "is_reserved": 0}, {"lon": -77.02175166666666, "bike_id": "09ba22ffdb185037bf5f62a505073fc7", "lat": 38.897335166666664, "fusion_lon": 0.0, "fusion_lat": 0.0, "type": "electric_scooter", "name": "09ba22ffdb185037bf5f62a505073fc7", "is_disabled": 0, "rental_uris": {"ios": "https://dc.lft.to/lastmile_qr_scan", "android": "https://dc.lft.to/lastmile_qr_scan"}, "is_reserved": 0}, {"lon": -76.9319, "bike_id": "aa01368e6bb60c221007d038a7eb3884", "lat": 38.898752333333334, "fusion_lon": 0.0, "fusion_lat": 0.0, "type": "electric_scooter", "name": "aa01368e6bb60c221007d038a7eb3884", "is_disabled": 0, "rental_uris": {"ios": "https://dc.lft.to/lastmile_qr_scan", "android": "https://dc.lft.to/lastmile_qr_scan"}, "is_reserved": 0}, {"lon": -77.0307715, "bike_id": "1f6666e3efb48ba3f439ba3f47ec5fbc", "lat": 38.932716166666665, "fusion_lon": 0.0, "fusion_lat": 0.0, "type": "electric_bike", "name": "1f6666e3efb48ba3f439ba3f47ec5fbc", "is_disabled": 0, "rental_uris": {"ios": "https://dc.lft.to/lastmile_qr_scan", "android": "https://dc.lft.to/lastmile_qr_scan"}, "is_reserved": 0}, {"lon": -76.94589466666666, "bike_id": "a50b75a81f704a7030b876b03a7eee4a", "lat": 38.901441, "fusion_lon": 0.0, "fusion_lat": 0.0, "type": "electric_scooter", "name": "a50b75a81f704a7030b876b03a7eee4a", "is_disabled": 0, "rental_uris": {"ios": "https://dc.lft.to/lastmile_qr_scan", "android": "https://dc.lft.to/lastmile_qr_scan"}, "is_reserved": 0}, {"lon": -77.0373845, "bike_id": "80b161f33b72a421b61d31d25763655a", "lat": 38.92588633333333, "fusion_lon": 0.0, "fusion_lat": 0.0, "type": "electric_scooter", "name": "80b161f33b72a421b61d31d25763655a", "is_disabled": 0, "rental_uris": {"ios": "https://dc.lft.to/lastmile_qr_scan", "android": "https://dc.lft.to/lastmile_qr_scan"}, "is_reserved": 0}, {"lon": -77.03346133333334, "bike_id": "873918777f98468a2a431efed7446e3c", "lat": 38.92055, "fusion_lon": 0.0, "fusion_lat": 0.0, "type": "electric_scooter", "name": "873918777f98468a2a431efed7446e3c", "is_disabled": 0, "rental_uris": {"ios": "https://dc.lft.to/lastmile_qr_scan", "android": "https://dc.lft.to/lastmile_qr_scan"}, "is_reserved": 0}, {"lon": -76.97398516666667, "bike_id": "916533d7959020da41ecd3990a6ed3bb", "lat": 38.90298966666667, "fusion_lon": 0.0, "fusion_lat": 0.0, "type": "electric_scooter", "name": "916533d7959020da41ecd3990a6ed3bb", "is_disabled": 0, "rental_uris": {"ios": "https://dc.lft.to/lastmile_qr_scan", "android": "https://dc.lft.to/lastmile_qr_scan"}, "is_reserved": 0}, {"lon": -77.0303425, "bike_id": "692d174c36cc658aa87ec33996d957f4", "lat": 38.9371445, "fusion_lon": 0.0, "fusion_lat": 0.0, "type": "electric_scooter", "name": "692d174c36cc658aa87ec33996d957f4", "is_disabled": 0, "rental_uris": {"ios": "https://dc.lft.to/lastmile_qr_scan", "android": "https://dc.lft.to/lastmile_qr_scan"}, "is_reserved": 0}, {"lon": -77.04, "bike_id": "4ea8c57ce21f82d233022c1674ec846c", "lat": 38.93433483333333, "fusion_lon": 0.0, "fusion_lat": 0.0, "type": "electric_scooter", "name": "4ea8c57ce21f82d233022c1674ec846c", "is_disabled": 0, "rental_uris": {"ios": "https://dc.lft.to/lastmile_qr_scan", "android": "https://dc.lft.to/lastmile_qr_scan"}, "is_reserved": 0}, {"lon": -77.02715633333334, "bike_id": "5745cbdb9ff0bc280bbd4ca350cd56c3", "lat": 38.9246385, "fusion_lon": 0.0, "fusion_lat": 0.0, "type": "electric_scooter", "name": "5745cbdb9ff0bc280bbd4ca350cd56c3", "is_disabled": 0, "rental_uris": {"ios": "https://dc.lft.to/lastmile_qr_scan", "android": "https://dc.lft.to/lastmile_qr_scan"}, "is_reserved": 0}, {"lon": -76.989131, "bike_id": "8f2888388bffb5762791f696b98bb55d", "lat": 38.8649405, "fusion_lon": 0.0, "fusion_lat": 0.0, "type": "electric_scooter", "name": "8f2888388bffb5762791f696b98bb55d", "is_disabled": 0, "rental_uris": {"ios": "https://dc.lft.to/lastmile_qr_scan", "android": "https://dc.lft.to/lastmile_qr_scan"}, "is_reserved": 0}, {"lon": -77.02711033333334, "bike_id": "0673616ca005d2d916e9db61e616a4b4", "lat": 38.922834, "fusion_lon": 0.0, "fusion_lat": 0.0, "type": "electric_scooter", "name": "0673616ca005d2d916e9db61e616a4b4", "is_disabled": 0, "rental_uris": {"ios": "https://dc.lft.to/lastmile_qr_scan", "android": "https://dc.lft.to/lastmile_qr_scan"}, "is_reserved": 0}, {"lon": -77.04724933333334, "bike_id": "25b80be35e8bcfbb6cb27a46b49ff319", "lat": 38.903104666666664, "fusion_lon": 0.0, "fusion_lat": 0.0, "type": "electric_scooter", "name": "25b80be35e8bcfbb6cb27a46b49ff319", "is_disabled": 0, "rental_uris": {"ios": "https://dc.lft.to/lastmile_qr_scan", "android": "https://dc.lft.to/lastmile_qr_scan"}, "is_reserved": 0}, {"lon": -77.0282105, "bike_id": "8ba108cbadb9e169072c158cc27a43f3", "lat": 38.895318833333334, "fusion_lon": 0.0, "fusion_lat": 0.0, "type": "electric_scooter", "name": "8ba108cbadb9e169072c158cc27a43f3", "is_disabled": 0, "rental_uris": {"ios": "https://dc.lft.to/lastmile_qr_scan", "android": "https://dc.lft.to/lastmile_qr_scan"}, "is_reserved": 0}, {"lon": -77.033228, "bike_id": "e2ce5d47c8d20b6b725ad76906c99daf", "lat": 38.900855666666665, "fusion_lon": 0.0, "fusion_lat": 0.0, "type": "electric_scooter", "name": "e2ce5d47c8d20b6b725ad76906c99daf", "is_disabled": 0, "rental_uris": {"ios": "https://dc.lft.to/lastmile_qr_scan", "android": "https://dc.lft.to/lastmile_qr_scan"}, "is_reserved": 0}, {"lon": -77.01533566666667, "bike_id": "463f72ccbd92ca14b635472cad869107", "lat": 38.8873895, "fusion_lon": 0.0, "fusion_lat": 0.0, "type": "electric_scooter", "name": "463f72ccbd92ca14b635472cad869107", "is_disabled": 0, "rental_uris": {"ios": "https://dc.lft.to/lastmile_qr_scan", "android": "https://dc.lft.to/lastmile_qr_scan"}, "is_reserved": 0}, {"lon": -77.01060716666667, "bike_id": "6a51e1adef86276d3b36d6720767fb57", "lat": 38.878679, "fusion_lon": 0.0, "fusion_lat": 0.0, "type": "electric_scooter", "name": "6a51e1adef86276d3b36d6720767fb57", "is_disabled": 0, "rental_uris": {"ios": "https://dc.lft.to/lastmile_qr_scan", "android": "https://dc.lft.to/lastmile_qr_scan"}, "is_reserved": 0}, {"lon": -77.05059933333334, "bike_id": "7650f01ea5ea522b0146783ca4b61ebb", "lat": 38.9242035, "fusion_lon": 0.0, "fusion_lat": 0.0, "type": "electric_bike", "name": "7650f01ea5ea522b0146783ca4b61ebb", "is_disabled": 0, "rental_uris": {"ios": "https://dc.lft.to/lastmile_qr_scan", "android": "https://dc.lft.to/lastmile_qr_scan"}, "is_reserved": 0}, {"lon": -77.00592733333333, "bike_id": "7d05fb029f06fda9476e12999680f6a1", "lat": 38.905522500000004, "fusion_lon": 0.0, "fusion_lat": 0.0, "type": "electric_scooter", "name": "7d05fb029f06fda9476e12999680f6a1", "is_disabled": 0, "rental_uris": {"ios": "https://dc.lft.to/lastmile_qr_scan", "android": "https://dc.lft.to/lastmile_qr_scan"}, "is_reserved": 0}, {"lon": -77.05233516666667, "bike_id": "cd39fce424e9b2b3d18a906ebcd98367", "lat": 38.92455283333334, "fusion_lon": 0.0, "fusion_lat": 0.0, "type": "electric_scooter", "name": "cd39fce424e9b2b3d18a906ebcd98367", "is_disabled": 0, "rental_uris": {"ios": "https://dc.lft.to/lastmile_qr_scan", "android": "https://dc.lft.to/lastmile_qr_scan"}, "is_reserved": 0}, {"lon": -76.97301433333334, "bike_id": "7010e3550a37f6be719a7737960827b9", "lat": 38.916453833333335, "fusion_lon": 0.0, "fusion_lat": 0.0, "type": "electric_scooter", "name": "7010e3550a37f6be719a7737960827b9", "is_disabled": 0, "rental_uris": {"ios": "https://dc.lft.to/lastmile_qr_scan", "android": "https://dc.lft.to/lastmile_qr_scan"}, "is_reserved": 0}, {"lon": -76.99352, "bike_id": "6eeb0e088ad54d960b9ed351d67e1ee4", "lat": 38.84502116666667, "fusion_lon": 0.0, "fusion_lat": 0.0, "type": "electric_bike", "name": "6eeb0e088ad54d960b9ed351d67e1ee4", "is_disabled": 0, "rental_uris": {"ios": "https://dc.lft.to/lastmile_qr_scan", "android": "https://dc.lft.to/lastmile_qr_scan"}, "is_reserved": 0}, {"lon": -76.9988485, "bike_id": "b81e918629c41bc6b2d148acef0d58d4", "lat": 38.9205875, "fusion_lon": 0.0, "fusion_lat": 0.0, "type": "electric_scooter", "name": "b81e918629c41bc6b2d148acef0d58d4", "is_disabled": 0, "rental_uris": {"ios": "https://dc.lft.to/lastmile_qr_scan", "android": "https://dc.lft.to/lastmile_qr_scan"}, "is_reserved": 0}, {"lon": -77.02284, "bike_id": "0fd94a653b710be55c270c71e8814688", "lat": 38.912177666666665, "fusion_lon": 0.0, "fusion_lat": 0.0, "type": "electric_scooter", "name": "0fd94a653b710be55c270c71e8814688", "is_disabled": 0, "rental_uris": {"ios": "https://dc.lft.to/lastmile_qr_scan", "android": "https://dc.lft.to/lastmile_qr_scan"}, "is_reserved": 0}, {"lon": -76.9801905, "bike_id": "7a8bf115637d07224be1c460ec41555d", "lat": 38.853247, "fusion_lon": 0.0, "fusion_lat": 0.0, "type": "electric_bike", "name": "7a8bf115637d07224be1c460ec41555d", "is_disabled": 0, "rental_uris": {"ios": "https://dc.lft.to/lastmile_qr_scan", "android": "https://dc.lft.to/lastmile_qr_scan"}, "is_reserved": 0}, {"lon": -77.03509666666666, "bike_id": "2c71a967bf1bc4ba018765af07e17a2d", "lat": 38.92151033333333, "fusion_lon": 0.0, "fusion_lat": 0.0, "type": "electric_scooter", "name": "2c71a967bf1bc4ba018765af07e17a2d", "is_disabled": 0, "rental_uris": {"ios": "https://dc.lft.to/lastmile_qr_scan", "android": "https://dc.lft.to/lastmile_qr_scan"}, "is_reserved": 0}, {"lon": -77.02340633333333, "bike_id": "bb54fd47ca9a912e31bb05489f811b54", "lat": 38.919462833333334, "fusion_lon": 0.0, "fusion_lat": 0.0, "type": "electric_scooter", "name": "bb54fd47ca9a912e31bb05489f811b54", "is_disabled": 0, "rental_uris": {"ios": "https://dc.lft.to/lastmile_qr_scan", "android": "https://dc.lft.to/lastmile_qr_scan"}, "is_reserved": 0}, {"lon": -76.989926, "bike_id": "c80acde41e9cbbfcfc56540ee6ff4e37", "lat": 38.933556833333334, "fusion_lon": 0.0, "fusion_lat": 0.0, "type": "electric_scooter", "name": "c80acde41e9cbbfcfc56540ee6ff4e37", "is_disabled": 0, "rental_uris": {"ios": "https://dc.lft.to/lastmile_qr_scan", "android": "https://dc.lft.to/lastmile_qr_scan"}, "is_reserved": 0}, {"lon": -77.0200595, "bike_id": "43ec9e9719ac62d54b08c2517dd4e058", "lat": 38.92405516666667, "fusion_lon": 0.0, "fusion_lat": 0.0, "type": "electric_scooter", "name": "43ec9e9719ac62d54b08c2517dd4e058", "is_disabled": 0, "rental_uris": {"ios": "https://dc.lft.to/lastmile_qr_scan", "android": "https://dc.lft.to/lastmile_qr_scan"}, "is_reserved": 0}, {"lon": -77.06738483333334, "bike_id": "b8f674b1d6d8aeeb338dae91da2f0431", "lat": 38.903777833333336, "fusion_lon": 0.0, "fusion_lat": 0.0, "type": "electric_bike", "name": "b8f674b1d6d8aeeb338dae91da2f0431", "is_disabled": 0, "rental_uris": {"ios": "https://dc.lft.to/lastmile_qr_scan", "android": "https://dc.lft.to/lastmile_qr_scan"}, "is_reserved": 0}, {"lon": -77.03447883333334, "bike_id": "f8c00e54f4d317abd00ea153eed04dda", "lat": 38.908418833333336, "fusion_lon": 0.0, "fusion_lat": 0.0, "type": "electric_scooter", "name": "f8c00e54f4d317abd00ea153eed04dda", "is_disabled": 0, "rental_uris": {"ios": "https://dc.lft.to/lastmile_qr_scan", "android": "https://dc.lft.to/lastmile_qr_scan"}, "is_reserved": 0}, {"lon": -77.0323895, "bike_id": "0ef00f9417531c071e8e892a486d3cf7", "lat": 38.921648, "fusion_lon": 0.0, "fusion_lat": 0.0, "type": "electric_scooter", "name": "0ef00f9417531c071e8e892a486d3cf7", "is_disabled": 0, "rental_uris": {"ios": "https://dc.lft.to/lastmile_qr_scan", "android": "https://dc.lft.to/lastmile_qr_scan"}, "is_reserved": 0}, {"lon": -77.021578, "bike_id": "f5ce19b1c52b3bd0a3b1d448b44e8ff8", "lat": 38.95077083333334, "fusion_lon": 0.0, "fusion_lat": 0.0, "type": "electric_scooter", "name": "f5ce19b1c52b3bd0a3b1d448b44e8ff8", "is_disabled": 0, "rental_uris": {"ios": "https://dc.lft.to/lastmile_qr_scan", "android": "https://dc.lft.to/lastmile_qr_scan"}, "is_reserved": 0}, {"lon": -76.99520716666666, "bike_id": "864622aa3e651bb9d7d1cb520b882c83", "lat": 38.862585, "fusion_lon": 0.0, "fusion_lat": 0.0, "type": "electric_scooter", "name": "864622aa3e651bb9d7d1cb520b882c83", "is_disabled": 0, "rental_uris": {"ios": "https://dc.lft.to/lastmile_qr_scan", "android": "https://dc.lft.to/lastmile_qr_scan"}, "is_reserved": 0}, {"lon": -77.0523755, "bike_id": "861568787fcb1d1d4263bba999e3cace", "lat": 38.924660333333335, "fusion_lon": 0.0, "fusion_lat": 0.0, "type": "electric_scooter", "name": "861568787fcb1d1d4263bba999e3cace", "is_disabled": 0, "rental_uris": {"ios": "https://dc.lft.to/lastmile_qr_scan", "android": "https://dc.lft.to/lastmile_qr_scan"}, "is_reserved": 0}, {"lon": -77.034357, "bike_id": "9a59579b2ece5714f4822e4cb551558e", "lat": 38.902362833333335, "fusion_lon": 0.0, "fusion_lat": 0.0, "type": "electric_scooter", "name": "9a59579b2ece5714f4822e4cb551558e", "is_disabled": 0, "rental_uris": {"ios": "https://dc.lft.to/lastmile_qr_scan", "android": "https://dc.lft.to/lastmile_qr_scan"}, "is_reserved": 0}, {"lon": -77.01630816666666, "bike_id": "70cb836875bf89f4e3b555f5a4c2506e", "lat": 38.903621, "fusion_lon": 0.0, "fusion_lat": 0.0, "type": "electric_scooter", "name": "70cb836875bf89f4e3b555f5a4c2506e", "is_disabled": 0, "rental_uris": {"ios": "https://dc.lft.to/lastmile_qr_scan", "android": "https://dc.lft.to/lastmile_qr_scan"}, "is_reserved": 0}, {"lon": -76.990864, "bike_id": "eabecadaf019a4ffdc3bc1f01c5348e4", "lat": 38.898155833333334, "fusion_lon": 0.0, "fusion_lat": 0.0, "type": "electric_bike", "name": "eabecadaf019a4ffdc3bc1f01c5348e4", "is_disabled": 0, "rental_uris": {"ios": "https://dc.lft.to/lastmile_qr_scan", "android": "https://dc.lft.to/lastmile_qr_scan"}, "is_reserved": 0}, {"lon": -77.058835, "bike_id": "d211493f8577e7da8baf622f510fb998", "lat": 38.862863833333336, "fusion_lon": 0.0, "fusion_lat": 0.0, "type": "electric_bike", "name": "d211493f8577e7da8baf622f510fb998", "is_disabled": 0, "rental_uris": {"ios": "https://dc.lft.to/lastmile_qr_scan", "android": "https://dc.lft.to/lastmile_qr_scan"}, "is_reserved": 0}, {"lon": -76.99263916666666, "bike_id": "bfab0c00ad16c7a40e962dd285b46afd", "lat": 38.903902333333335, "fusion_lon": 0.0, "fusion_lat": 0.0, "type": "electric_scooter", "name": "bfab0c00ad16c7a40e962dd285b46afd", "is_disabled": 0, "rental_uris": {"ios": "https://dc.lft.to/lastmile_qr_scan", "android": "https://dc.lft.to/lastmile_qr_scan"}, "is_reserved": 0}, {"lon": -76.98141416666667, "bike_id": "83c114a276d6221038c3af42a05e8f2e", "lat": 38.90565083333333, "fusion_lon": 0.0, "fusion_lat": 0.0, "type": "electric_scooter", "name": "83c114a276d6221038c3af42a05e8f2e", "is_disabled": 0, "rental_uris": {"ios": "https://dc.lft.to/lastmile_qr_scan", "android": "https://dc.lft.to/lastmile_qr_scan"}, "is_reserved": 0}, {"lon": -77.027133, "bike_id": "085c7fd00ff2892a413d3a62a6d3900b", "lat": 38.90672416666666, "fusion_lon": 0.0, "fusion_lat": 0.0, "type": "electric_scooter", "name": "085c7fd00ff2892a413d3a62a6d3900b", "is_disabled": 0, "rental_uris": {"ios": "https://dc.lft.to/lastmile_qr_scan", "android": "https://dc.lft.to/lastmile_qr_scan"}, "is_reserved": 0}, {"lon": -77.07816783333334, "bike_id": "7d44a37f5e346a76dd4c8646a343000d", "lat": 38.923668666666664, "fusion_lon": 0.0, "fusion_lat": 0.0, "type": "electric_scooter", "name": "7d44a37f5e346a76dd4c8646a343000d", "is_disabled": 0, "rental_uris": {"ios": "https://dc.lft.to/lastmile_qr_scan", "android": "https://dc.lft.to/lastmile_qr_scan"}, "is_reserved": 0}, {"lon": -77.0343475, "bike_id": "abd492a18e4bdf5704412c30edbec97c", "lat": 38.905879166666665, "fusion_lon": 0.0, "fusion_lat": 0.0, "type": "electric_scooter", "name": "abd492a18e4bdf5704412c30edbec97c", "is_disabled": 0, "rental_uris": {"ios": "https://dc.lft.to/lastmile_qr_scan", "android": "https://dc.lft.to/lastmile_qr_scan"}, "is_reserved": 0}, {"lon": -77.05924716666667, "bike_id": "9febc989e32f5411a26ebca3e15464fc", "lat": 38.906235333333335, "fusion_lon": 0.0, "fusion_lat": 0.0, "type": "electric_scooter", "name": "9febc989e32f5411a26ebca3e15464fc", "is_disabled": 0, "rental_uris": {"ios": "https://dc.lft.to/lastmile_qr_scan", "android": "https://dc.lft.to/lastmile_qr_scan"}, "is_reserved": 0}, {"lon": -77.0323275, "bike_id": "952550affc51b56281a4a2284315240a", "lat": 38.92991466666667, "fusion_lon": 0.0, "fusion_lat": 0.0, "type": "electric_scooter", "name": "952550affc51b56281a4a2284315240a", "is_disabled": 0, "rental_uris": {"ios": "https://dc.lft.to/lastmile_qr_scan", "android": "https://dc.lft.to/lastmile_qr_scan"}, "is_reserved": 0}, {"lon": -77.03341416666666, "bike_id": "4cc96ea61fe3f1548de59e909b5b4360", "lat": 38.90553383333334, "fusion_lon": 0.0, "fusion_lat": 0.0, "type": "electric_scooter", "name": "4cc96ea61fe3f1548de59e909b5b4360", "is_disabled": 0, "rental_uris": {"ios": "https://dc.lft.to/lastmile_qr_scan", "android": "https://dc.lft.to/lastmile_qr_scan"}, "is_reserved": 0}, {"lon": -77.05569833333334, "bike_id": "02eaade3ec519ef0d93c1931b4079715", "lat": 38.930482, "fusion_lon": 0.0, "fusion_lat": 0.0, "type": "electric_scooter", "name": "02eaade3ec519ef0d93c1931b4079715", "is_disabled": 0, "rental_uris": {"ios": "https://dc.lft.to/lastmile_qr_scan", "android": "https://dc.lft.to/lastmile_qr_scan"}, "is_reserved": 0}, {"lon": -77.0367185, "bike_id": "8b7f50c17dd04fbf03e8efd55cf6f661", "lat": 38.91807333333333, "fusion_lon": 0.0, "fusion_lat": 0.0, "type": "electric_scooter", "name": "8b7f50c17dd04fbf03e8efd55cf6f661", "is_disabled": 0, "rental_uris": {"ios": "https://dc.lft.to/lastmile_qr_scan", "android": "https://dc.lft.to/lastmile_qr_scan"}, "is_reserved": 0}, {"lon": -77.00579433333333, "bike_id": "eb99755ec3b444db16a48ae761058a74", "lat": 38.829973833333334, "fusion_lon": 0.0, "fusion_lat": 0.0, "type": "electric_scooter", "name": "eb99755ec3b444db16a48ae761058a74", "is_disabled": 0, "rental_uris": {"ios": "https://dc.lft.to/lastmile_qr_scan", "android": "https://dc.lft.to/lastmile_qr_scan"}, "is_reserved": 0}, {"lon": -76.991959, "bike_id": "c5b6efc1591f2bf60781b9a866605601", "lat": 38.88268216666667, "fusion_lon": 0.0, "fusion_lat": 0.0, "type": "electric_scooter", "name": "c5b6efc1591f2bf60781b9a866605601", "is_disabled": 0, "rental_uris": {"ios": "https://dc.lft.to/lastmile_qr_scan", "android": "https://dc.lft.to/lastmile_qr_scan"}, "is_reserved": 0}, {"lon": -77.02792033333333, "bike_id": "06dce6b490348b8fad6d728015ed539e", "lat": 38.9229135, "fusion_lon": 0.0, "fusion_lat": 0.0, "type": "electric_scooter", "name": "06dce6b490348b8fad6d728015ed539e", "is_disabled": 0, "rental_uris": {"ios": "https://dc.lft.to/lastmile_qr_scan", "android": "https://dc.lft.to/lastmile_qr_scan"}, "is_reserved": 0}, {"lon": -77.10525116666666, "bike_id": "456018a81d29940974f01ba682d12c4b", "lat": 38.8737485, "fusion_lon": 0.0, "fusion_lat": 0.0, "type": "electric_bike", "name": "456018a81d29940974f01ba682d12c4b", "is_disabled": 0, "rental_uris": {"ios": "https://dc.lft.to/lastmile_qr_scan", "android": "https://dc.lft.to/lastmile_qr_scan"}, "is_reserved": 0}, {"lon": -76.98800766666666, "bike_id": "158d42f7ef7ee8f47a932da9c9707a0c", "lat": 38.892402833333335, "fusion_lon": 0.0, "fusion_lat": 0.0, "type": "electric_scooter", "name": "158d42f7ef7ee8f47a932da9c9707a0c", "is_disabled": 0, "rental_uris": {"ios": "https://dc.lft.to/lastmile_qr_scan", "android": "https://dc.lft.to/lastmile_qr_scan"}, "is_reserved": 0}, {"lon": -77.02292233333333, "bike_id": "f952391c20c3305dfdbb21d41782353c", "lat": 38.932948833333334, "fusion_lon": 0.0, "fusion_lat": 0.0, "type": "electric_scooter", "name": "f952391c20c3305dfdbb21d41782353c", "is_disabled": 0, "rental_uris": {"ios": "https://dc.lft.to/lastmile_qr_scan", "android": "https://dc.lft.to/lastmile_qr_scan"}, "is_reserved": 0}, {"lon": -77.018838, "bike_id": "a76906bd503cc8effa4e0a70b8cbb45b", "lat": 38.906113, "fusion_lon": 0.0, "fusion_lat": 0.0, "type": "electric_scooter", "name": "a76906bd503cc8effa4e0a70b8cbb45b", "is_disabled": 0, "rental_uris": {"ios": "https://dc.lft.to/lastmile_qr_scan", "android": "https://dc.lft.to/lastmile_qr_scan"}, "is_reserved": 0}, {"lon": -77.04108966666666, "bike_id": "3253b43f194a370fbb4e5bd96b9912c1", "lat": 38.915526, "fusion_lon": 0.0, "fusion_lat": 0.0, "type": "electric_scooter", "name": "3253b43f194a370fbb4e5bd96b9912c1", "is_disabled": 0, "rental_uris": {"ios": "https://dc.lft.to/lastmile_qr_scan", "android": "https://dc.lft.to/lastmile_qr_scan"}, "is_reserved": 0}, {"lon": -77.032201, "bike_id": "8a9a4e1921fcec59bb0bbe324fcd2e6c", "lat": 38.907241, "fusion_lon": 0.0, "fusion_lat": 0.0, "type": "electric_scooter", "name": "8a9a4e1921fcec59bb0bbe324fcd2e6c", "is_disabled": 0, "rental_uris": {"ios": "https://dc.lft.to/lastmile_qr_scan", "android": "https://dc.lft.to/lastmile_qr_scan"}, "is_reserved": 0}, {"lon": -77.02355333333334, "bike_id": "73f3ec4c88c117c990b0446f527c0097", "lat": 38.896204833333336, "fusion_lon": 0.0, "fusion_lat": 0.0, "type": "electric_scooter", "name": "73f3ec4c88c117c990b0446f527c0097", "is_disabled": 0, "rental_uris": {"ios": "https://dc.lft.to/lastmile_qr_scan", "android": "https://dc.lft.to/lastmile_qr_scan"}, "is_reserved": 0}, {"lon": -76.98305416666666, "bike_id": "6496f4d7c2d1f19c604f5d325612a54b", "lat": 38.89965866666667, "fusion_lon": 0.0, "fusion_lat": 0.0, "type": "electric_scooter", "name": "6496f4d7c2d1f19c604f5d325612a54b", "is_disabled": 0, "rental_uris": {"ios": "https://dc.lft.to/lastmile_qr_scan", "android": "https://dc.lft.to/lastmile_qr_scan"}, "is_reserved": 0}, {"lon": -77.01787633333333, "bike_id": "49483626832492401f7c09e3755c3f0e", "lat": 38.90390216666667, "fusion_lon": 0.0, "fusion_lat": 0.0, "type": "electric_scooter", "name": "49483626832492401f7c09e3755c3f0e", "is_disabled": 0, "rental_uris": {"ios": "https://dc.lft.to/lastmile_qr_scan", "android": "https://dc.lft.to/lastmile_qr_scan"}, "is_reserved": 0}, {"lon": -77.03631383333334, "bike_id": "cd414335c18b07193003eb1bd2a815b2", "lat": 38.915584833333334, "fusion_lon": 0.0, "fusion_lat": 0.0, "type": "electric_scooter", "name": "cd414335c18b07193003eb1bd2a815b2", "is_disabled": 0, "rental_uris": {"ios": "https://dc.lft.to/lastmile_qr_scan", "android": "https://dc.lft.to/lastmile_qr_scan"}, "is_reserved": 0}, {"lon": -77.073558, "bike_id": "889eb2f52e053d79ecb8902b71b7abb9", "lat": 38.9335355, "fusion_lon": 0.0, "fusion_lat": 0.0, "type": "electric_scooter", "name": "889eb2f52e053d79ecb8902b71b7abb9", "is_disabled": 0, "rental_uris": {"ios": "https://dc.lft.to/lastmile_qr_scan", "android": "https://dc.lft.to/lastmile_qr_scan"}, "is_reserved": 0}, {"lon": -77.005407, "bike_id": "4448f07e606c6c5bcddc84b7eb1991f0", "lat": 38.87548533333333, "fusion_lon": 0.0, "fusion_lat": 0.0, "type": "electric_scooter", "name": "4448f07e606c6c5bcddc84b7eb1991f0", "is_disabled": 0, "rental_uris": {"ios": "https://dc.lft.to/lastmile_qr_scan", "android": "https://dc.lft.to/lastmile_qr_scan"}, "is_reserved": 0}, {"lon": -77.00125983333334, "bike_id": "6d14c5b6acc793f08a7eaf276e144abc", "lat": 38.8782285, "fusion_lon": 0.0, "fusion_lat": 0.0, "type": "electric_scooter", "name": "6d14c5b6acc793f08a7eaf276e144abc", "is_disabled": 0, "rental_uris": {"ios": "https://dc.lft.to/lastmile_qr_scan", "android": "https://dc.lft.to/lastmile_qr_scan"}, "is_reserved": 0}, {"lon": -77.04501566666667, "bike_id": "02abfbae61b676f1e95d23e686279af7", "lat": 38.911078, "fusion_lon": 0.0, "fusion_lat": 0.0, "type": "electric_scooter", "name": "02abfbae61b676f1e95d23e686279af7", "is_disabled": 0, "rental_uris": {"ios": "https://dc.lft.to/lastmile_qr_scan", "android": "https://dc.lft.to/lastmile_qr_scan"}, "is_reserved": 0}, {"lon": -77.02379566666667, "bike_id": "a7f8e987354705d6fdf6674fbbcf91eb", "lat": 38.90626316666667, "fusion_lon": 0.0, "fusion_lat": 0.0, "type": "electric_scooter", "name": "a7f8e987354705d6fdf6674fbbcf91eb", "is_disabled": 0, "rental_uris": {"ios": "https://dc.lft.to/lastmile_qr_scan", "android": "https://dc.lft.to/lastmile_qr_scan"}, "is_reserved": 0}, {"lon": -77.04698433333333, "bike_id": "591b0f47145fa854ab3ca3ccaa756302", "lat": 38.916596166666665, "fusion_lon": 0.0, "fusion_lat": 0.0, "type": "electric_bike", "name": "591b0f47145fa854ab3ca3ccaa756302", "is_disabled": 0, "rental_uris": {"ios": "https://dc.lft.to/lastmile_qr_scan", "android": "https://dc.lft.to/lastmile_qr_scan"}, "is_reserved": 0}, {"lon": -77.03502133333333, "bike_id": "4bd7f73bbdcc7b15d761114b1ae92e6b", "lat": 38.9119065, "fusion_lon": 0.0, "fusion_lat": 0.0, "type": "electric_scooter", "name": "4bd7f73bbdcc7b15d761114b1ae92e6b", "is_disabled": 0, "rental_uris": {"ios": "https://dc.lft.to/lastmile_qr_scan", "android": "https://dc.lft.to/lastmile_qr_scan"}, "is_reserved": 0}, {"lon": -77.0166645, "bike_id": "d1f6c687ac3e2975042ef9fe3819021b", "lat": 38.90000416666667, "fusion_lon": 0.0, "fusion_lat": 0.0, "type": "electric_scooter", "name": "d1f6c687ac3e2975042ef9fe3819021b", "is_disabled": 0, "rental_uris": {"ios": "https://dc.lft.to/lastmile_qr_scan", "android": "https://dc.lft.to/lastmile_qr_scan"}, "is_reserved": 0}, {"lon": -77.02094116666666, "bike_id": "c889009bceb4e5deebed37e73fa08056", "lat": 38.929261833333335, "fusion_lon": 0.0, "fusion_lat": 0.0, "type": "electric_scooter", "name": "c889009bceb4e5deebed37e73fa08056", "is_disabled": 0, "rental_uris": {"ios": "https://dc.lft.to/lastmile_qr_scan", "android": "https://dc.lft.to/lastmile_qr_scan"}, "is_reserved": 0}, {"lon": -77.03210316666667, "bike_id": "4fcf6ceae02a4afe004a1ea0f4fc763b", "lat": 38.93616683333333, "fusion_lon": 0.0, "fusion_lat": 0.0, "type": "electric_scooter", "name": "4fcf6ceae02a4afe004a1ea0f4fc763b", "is_disabled": 0, "rental_uris": {"ios": "https://dc.lft.to/lastmile_qr_scan", "android": "https://dc.lft.to/lastmile_qr_scan"}, "is_reserved": 0}, {"lon": -76.9328145, "bike_id": "82affe52521b5d2e6b8b149ec77cc470", "lat": 38.954216333333335, "fusion_lon": 0.0, "fusion_lat": 0.0, "type": "electric_bike", "name": "82affe52521b5d2e6b8b149ec77cc470", "is_disabled": 0, "rental_uris": {"ios": "https://dc.lft.to/lastmile_qr_scan", "android": "https://dc.lft.to/lastmile_qr_scan"}, "is_reserved": 0}, {"lon": -77.05597966666667, "bike_id": "f2f06fc3ad173d64c465a00dfbe5f969", "lat": 38.937007, "fusion_lon": 0.0, "fusion_lat": 0.0, "type": "electric_scooter", "name": "f2f06fc3ad173d64c465a00dfbe5f969", "is_disabled": 0, "rental_uris": {"ios": "https://dc.lft.to/lastmile_qr_scan", "android": "https://dc.lft.to/lastmile_qr_scan"}, "is_reserved": 0}, {"lon": -77.01930583333333, "bike_id": "347a7efb45004c37cfb42e97a1fc45fd", "lat": 38.92220533333333, "fusion_lon": 0.0, "fusion_lat": 0.0, "type": "electric_scooter", "name": "347a7efb45004c37cfb42e97a1fc45fd", "is_disabled": 0, "rental_uris": {"ios": "https://dc.lft.to/lastmile_qr_scan", "android": "https://dc.lft.to/lastmile_qr_scan"}, "is_reserved": 0}, {"lon": -77.03470016666667, "bike_id": "30ac276258aac4a976ebdb79448d0705", "lat": 38.92153666666667, "fusion_lon": 0.0, "fusion_lat": 0.0, "type": "electric_scooter", "name": "30ac276258aac4a976ebdb79448d0705", "is_disabled": 0, "rental_uris": {"ios": "https://dc.lft.to/lastmile_qr_scan", "android": "https://dc.lft.to/lastmile_qr_scan"}, "is_reserved": 0}, {"lon": -77.02068633333333, "bike_id": "0077e3f99842e25bc1eb21c4c5681e86", "lat": 38.9326405, "fusion_lon": 0.0, "fusion_lat": 0.0, "type": "electric_bike", "name": "0077e3f99842e25bc1eb21c4c5681e86", "is_disabled": 0, "rental_uris": {"ios": "https://dc.lft.to/lastmile_qr_scan", "android": "https://dc.lft.to/lastmile_qr_scan"}, "is_reserved": 0}, {"lon": -77.13102083333334, "bike_id": "00fc3cc8cb7c275d6d56ed8a48868373", "lat": 39.024334, "fusion_lon": 0.0, "fusion_lat": 0.0, "type": "electric_bike", "name": "00fc3cc8cb7c275d6d56ed8a48868373", "is_disabled": 0, "rental_uris": {"ios": "https://dc.lft.to/lastmile_qr_scan", "android": "https://dc.lft.to/lastmile_qr_scan"}, "is_reserved": 0}, {"lon": -77.003607, "bike_id": "01c2028d2b500bb35733b7796e67db34", "lat": 38.887144666666664, "fusion_lon": 0.0, "fusion_lat": 0.0, "type": "electric_scooter", "name": "01c2028d2b500bb35733b7796e67db34", "is_disabled": 0, "rental_uris": {"ios": "https://dc.lft.to/lastmile_qr_scan", "android": "https://dc.lft.to/lastmile_qr_scan"}, "is_reserved": 0}, {"lon": -77.05083016666667, "bike_id": "e04101315102cb8b49683b889bbffd5f", "lat": 38.90045633333333, "fusion_lon": 0.0, "fusion_lat": 0.0, "type": "electric_scooter", "name": "e04101315102cb8b49683b889bbffd5f", "is_disabled": 0, "rental_uris": {"ios": "https://dc.lft.to/lastmile_qr_scan", "android": "https://dc.lft.to/lastmile_qr_scan"}, "is_reserved": 0}, {"lon": -77.03291333333334, "bike_id": "8eae8aa5db5539891f408bd739894240", "lat": 38.90972216666667, "fusion_lon": 0.0, "fusion_lat": 0.0, "type": "electric_scooter", "name": "8eae8aa5db5539891f408bd739894240", "is_disabled": 0, "rental_uris": {"ios": "https://dc.lft.to/lastmile_qr_scan", "android": "https://dc.lft.to/lastmile_qr_scan"}, "is_reserved": 0}, {"lon": -77.0037005, "bike_id": "b9ccd7577f14a32bc708f3195c895feb", "lat": 38.89727533333333, "fusion_lon": 0.0, "fusion_lat": 0.0, "type": "electric_scooter", "name": "b9ccd7577f14a32bc708f3195c895feb", "is_disabled": 0, "rental_uris": {"ios": "https://dc.lft.to/lastmile_qr_scan", "android": "https://dc.lft.to/lastmile_qr_scan"}, "is_reserved": 0}, {"lon": -76.9801675, "bike_id": "7fe584ae9321fd9bd635d7ee21775fe5", "lat": 38.903262, "fusion_lon": 0.0, "fusion_lat": 0.0, "type": "electric_scooter", "name": "7fe584ae9321fd9bd635d7ee21775fe5", "is_disabled": 0, "rental_uris": {"ios": "https://dc.lft.to/lastmile_qr_scan", "android": "https://dc.lft.to/lastmile_qr_scan"}, "is_reserved": 0}, {"lon": -77.02121766666667, "bike_id": "892a7784bac53fbe7a03f7be00d084b8", "lat": 38.91421183333333, "fusion_lon": 0.0, "fusion_lat": 0.0, "type": "electric_scooter", "name": "892a7784bac53fbe7a03f7be00d084b8", "is_disabled": 0, "rental_uris": {"ios": "https://dc.lft.to/lastmile_qr_scan", "android": "https://dc.lft.to/lastmile_qr_scan"}, "is_reserved": 0}, {"lon": -77.054221, "bike_id": "4f0328cf2a6af3cf5fbf19dee0a6b6df", "lat": 38.928458, "fusion_lon": 0.0, "fusion_lat": 0.0, "type": "electric_scooter", "name": "4f0328cf2a6af3cf5fbf19dee0a6b6df", "is_disabled": 0, "rental_uris": {"ios": "https://dc.lft.to/lastmile_qr_scan", "android": "https://dc.lft.to/lastmile_qr_scan"}, "is_reserved": 0}, {"lon": -77.032624, "bike_id": "78db565a814b36696dc3ce1b903608d5", "lat": 38.93406816666667, "fusion_lon": 0.0, "fusion_lat": 0.0, "type": "electric_scooter", "name": "78db565a814b36696dc3ce1b903608d5", "is_disabled": 0, "rental_uris": {"ios": "https://dc.lft.to/lastmile_qr_scan", "android": "https://dc.lft.to/lastmile_qr_scan"}, "is_reserved": 0}, {"lon": -77.038507, "bike_id": "ae4bf4767c5b40f2333ce54d04d46a08", "lat": 38.916564, "fusion_lon": 0.0, "fusion_lat": 0.0, "type": "electric_scooter", "name": "ae4bf4767c5b40f2333ce54d04d46a08", "is_disabled": 0, "rental_uris": {"ios": "https://dc.lft.to/lastmile_qr_scan", "android": "https://dc.lft.to/lastmile_qr_scan"}, "is_reserved": 0}, {"lon": -77.026842, "bike_id": "921f9d3d5e2c4e71974abb756f9b12bb", "lat": 38.897056166666665, "fusion_lon": 0.0, "fusion_lat": 0.0, "type": "electric_scooter", "name": "921f9d3d5e2c4e71974abb756f9b12bb", "is_disabled": 0, "rental_uris": {"ios": "https://dc.lft.to/lastmile_qr_scan", "android": "https://dc.lft.to/lastmile_qr_scan"}, "is_reserved": 0}, {"lon": -77.03903083333333, "bike_id": "36df3f4935ba31bbf80921ea51d3161c", "lat": 38.923611, "fusion_lon": 0.0, "fusion_lat": 0.0, "type": "electric_scooter", "name": "36df3f4935ba31bbf80921ea51d3161c", "is_disabled": 0, "rental_uris": {"ios": "https://dc.lft.to/lastmile_qr_scan", "android": "https://dc.lft.to/lastmile_qr_scan"}, "is_reserved": 0}, {"lon": -77.03502583333334, "bike_id": "c4e08176b123f0885605e2d8dd5435ea", "lat": 38.93757, "fusion_lon": 0.0, "fusion_lat": 0.0, "type": "electric_scooter", "name": "c4e08176b123f0885605e2d8dd5435ea", "is_disabled": 0, "rental_uris": {"ios": "https://dc.lft.to/lastmile_qr_scan", "android": "https://dc.lft.to/lastmile_qr_scan"}, "is_reserved": 0}, {"lon": -77.06342816666667, "bike_id": "78c5d44e9db5d54928fed6adc668a173", "lat": 38.906859833333336, "fusion_lon": 0.0, "fusion_lat": 0.0, "type": "electric_scooter", "name": "78c5d44e9db5d54928fed6adc668a173", "is_disabled": 0, "rental_uris": {"ios": "https://dc.lft.to/lastmile_qr_scan", "android": "https://dc.lft.to/lastmile_qr_scan"}, "is_reserved": 0}, {"lon": -76.98077233333333, "bike_id": "284a00a55d2dae00983d6b24f5dde29b", "lat": 38.9016775, "fusion_lon": 0.0, "fusion_lat": 0.0, "type": "electric_scooter", "name": "284a00a55d2dae00983d6b24f5dde29b", "is_disabled": 0, "rental_uris": {"ios": "https://dc.lft.to/lastmile_qr_scan", "android": "https://dc.lft.to/lastmile_qr_scan"}, "is_reserved": 0}, {"lon": -77.055329, "bike_id": "5c8c47f5bc7a0b47f49d689c8b5a6c61", "lat": 38.934269666666665, "fusion_lon": 0.0, "fusion_lat": 0.0, "type": "electric_scooter", "name": "5c8c47f5bc7a0b47f49d689c8b5a6c61", "is_disabled": 0, "rental_uris": {"ios": "https://dc.lft.to/lastmile_qr_scan", "android": "https://dc.lft.to/lastmile_qr_scan"}, "is_reserved": 0}, {"lon": -77.08461416666667, "bike_id": "e46f366f66e2e73339523068eb2a0ef4", "lat": 38.84818816666667, "fusion_lon": 0.0, "fusion_lat": 0.0, "type": "electric_bike", "name": "e46f366f66e2e73339523068eb2a0ef4", "is_disabled": 0, "rental_uris": {"ios": "https://dc.lft.to/lastmile_qr_scan", "android": "https://dc.lft.to/lastmile_qr_scan"}, "is_reserved": 0}, {"lon": -77.0351695, "bike_id": "16b1a6201f0c9ab8edc48347c2cbaea3", "lat": 38.92480616666667, "fusion_lon": 0.0, "fusion_lat": 0.0, "type": "electric_scooter", "name": "16b1a6201f0c9ab8edc48347c2cbaea3", "is_disabled": 0, "rental_uris": {"ios": "https://dc.lft.to/lastmile_qr_scan", "android": "https://dc.lft.to/lastmile_qr_scan"}, "is_reserved": 0}, {"lon": -77.00354566666667, "bike_id": "4e0dbc555c6341833e5201014a7eafce", "lat": 38.89932133333333, "fusion_lon": 0.0, "fusion_lat": 0.0, "type": "electric_scooter", "name": "4e0dbc555c6341833e5201014a7eafce", "is_disabled": 0, "rental_uris": {"ios": "https://dc.lft.to/lastmile_qr_scan", "android": "https://dc.lft.to/lastmile_qr_scan"}, "is_reserved": 0}, {"lon": -76.973931, "bike_id": "067a9842a0ec57230dcdc005c8c1f914", "lat": 38.905604333333336, "fusion_lon": 0.0, "fusion_lat": 0.0, "type": "electric_scooter", "name": "067a9842a0ec57230dcdc005c8c1f914", "is_disabled": 0, "rental_uris": {"ios": "https://dc.lft.to/lastmile_qr_scan", "android": "https://dc.lft.to/lastmile_qr_scan"}, "is_reserved": 0}, {"lon": -77.03166133333333, "bike_id": "0836cc7652680305d64cbb30bffe9ee5", "lat": 38.90345333333333, "fusion_lon": 0.0, "fusion_lat": 0.0, "type": "electric_scooter", "name": "0836cc7652680305d64cbb30bffe9ee5", "is_disabled": 0, "rental_uris": {"ios": "https://dc.lft.to/lastmile_qr_scan", "android": "https://dc.lft.to/lastmile_qr_scan"}, "is_reserved": 0}, {"lon": -77.0366035, "bike_id": "065d210d647fd11eaa5413e2b87f245b", "lat": 38.922538833333334, "fusion_lon": 0.0, "fusion_lat": 0.0, "type": "electric_scooter", "name": "065d210d647fd11eaa5413e2b87f245b", "is_disabled": 0, "rental_uris": {"ios": "https://dc.lft.to/lastmile_qr_scan", "android": "https://dc.lft.to/lastmile_qr_scan"}, "is_reserved": 0}, {"lon": -77.0341195, "bike_id": "12ac9bf536c102fc4c51a7b99d54635d", "lat": 38.92232933333333, "fusion_lon": 0.0, "fusion_lat": 0.0, "type": "electric_scooter", "name": "12ac9bf536c102fc4c51a7b99d54635d", "is_disabled": 0, "rental_uris": {"ios": "https://dc.lft.to/lastmile_qr_scan", "android": "https://dc.lft.to/lastmile_qr_scan"}, "is_reserved": 0}, {"lon": -77.0152115, "bike_id": "9ca93fc16e499adaf8010e5a4031ae06", "lat": 38.88485166666667, "fusion_lon": 0.0, "fusion_lat": 0.0, "type": "electric_scooter", "name": "9ca93fc16e499adaf8010e5a4031ae06", "is_disabled": 0, "rental_uris": {"ios": "https://dc.lft.to/lastmile_qr_scan", "android": "https://dc.lft.to/lastmile_qr_scan"}, "is_reserved": 0}, {"lon": -77.035119, "bike_id": "a82f2a24c0aefd41ec7a8538ada5270c", "lat": 38.921484, "fusion_lon": 0.0, "fusion_lat": 0.0, "type": "electric_scooter", "name": "a82f2a24c0aefd41ec7a8538ada5270c", "is_disabled": 0, "rental_uris": {"ios": "https://dc.lft.to/lastmile_qr_scan", "android": "https://dc.lft.to/lastmile_qr_scan"}, "is_reserved": 0}, {"lon": -77.04158883333334, "bike_id": "60bdd7881d8d2f26356864285595e928", "lat": 38.905347166666665, "fusion_lon": 0.0, "fusion_lat": 0.0, "type": "electric_scooter", "name": "60bdd7881d8d2f26356864285595e928", "is_disabled": 0, "rental_uris": {"ios": "https://dc.lft.to/lastmile_qr_scan", "android": "https://dc.lft.to/lastmile_qr_scan"}, "is_reserved": 0}, {"lon": -77.024069, "bike_id": "5ffe1417c6a960d4aae9d448121c7bb4", "lat": 38.920864333333334, "fusion_lon": 0.0, "fusion_lat": 0.0, "type": "electric_scooter", "name": "5ffe1417c6a960d4aae9d448121c7bb4", "is_disabled": 0, "rental_uris": {"ios": "https://dc.lft.to/lastmile_qr_scan", "android": "https://dc.lft.to/lastmile_qr_scan"}, "is_reserved": 0}, {"lon": -77.0456465, "bike_id": "a716048a001b1784284298cdc545769a", "lat": 38.913532000000004, "fusion_lon": 0.0, "fusion_lat": 0.0, "type": "electric_scooter", "name": "a716048a001b1784284298cdc545769a", "is_disabled": 0, "rental_uris": {"ios": "https://dc.lft.to/lastmile_qr_scan", "android": "https://dc.lft.to/lastmile_qr_scan"}, "is_reserved": 0}, {"lon": -77.00581333333334, "bike_id": "535629d2cffdd3354f0827f684351aa1", "lat": 38.90553666666667, "fusion_lon": 0.0, "fusion_lat": 0.0, "type": "electric_scooter", "name": "535629d2cffdd3354f0827f684351aa1", "is_disabled": 0, "rental_uris": {"ios": "https://dc.lft.to/lastmile_qr_scan", "android": "https://dc.lft.to/lastmile_qr_scan"}, "is_reserved": 0}, {"lon": -77.02180916666667, "bike_id": "3ae03895cca8a0103c35b1dbc74adbd1", "lat": 38.893576833333334, "fusion_lon": 0.0, "fusion_lat": 0.0, "type": "electric_scooter", "name": "3ae03895cca8a0103c35b1dbc74adbd1", "is_disabled": 0, "rental_uris": {"ios": "https://dc.lft.to/lastmile_qr_scan", "android": "https://dc.lft.to/lastmile_qr_scan"}, "is_reserved": 0}, {"lon": -77.01199716666666, "bike_id": "c502f746831465626ae3f9aec4fe40c5", "lat": 38.87095333333333, "fusion_lon": 0.0, "fusion_lat": 0.0, "type": "electric_bike", "name": "c502f746831465626ae3f9aec4fe40c5", "is_disabled": 0, "rental_uris": {"ios": "https://dc.lft.to/lastmile_qr_scan", "android": "https://dc.lft.to/lastmile_qr_scan"}, "is_reserved": 0}, {"lon": -77.108061, "bike_id": "dc906f534a8d697884afe0bd43ae8d81", "lat": 38.8120375, "fusion_lon": 0.0, "fusion_lat": 0.0, "type": "electric_bike", "name": "dc906f534a8d697884afe0bd43ae8d81", "is_disabled": 0, "rental_uris": {"ios": "https://dc.lft.to/lastmile_qr_scan", "android": "https://dc.lft.to/lastmile_qr_scan"}, "is_reserved": 0}, {"lon": -77.00006733333333, "bike_id": "7e17bcc9d58c914605a5189ad5ebaf17", "lat": 38.89743566666667, "fusion_lon": 0.0, "fusion_lat": 0.0, "type": "electric_scooter", "name": "7e17bcc9d58c914605a5189ad5ebaf17", "is_disabled": 0, "rental_uris": {"ios": "https://dc.lft.to/lastmile_qr_scan", "android": "https://dc.lft.to/lastmile_qr_scan"}, "is_reserved": 0}, {"lon": -76.97419166666667, "bike_id": "e267bce48ca90d5d182b746e3febec3d", "lat": 38.90393783333333, "fusion_lon": 0.0, "fusion_lat": 0.0, "type": "electric_scooter", "name": "e267bce48ca90d5d182b746e3febec3d", "is_disabled": 0, "rental_uris": {"ios": "https://dc.lft.to/lastmile_qr_scan", "android": "https://dc.lft.to/lastmile_qr_scan"}, "is_reserved": 0}, {"lon": -77.03344666666666, "bike_id": "91a04ad5a931f8c87c2e2b8c8c727a76", "lat": 38.9072185, "fusion_lon": 0.0, "fusion_lat": 0.0, "type": "electric_scooter", "name": "91a04ad5a931f8c87c2e2b8c8c727a76", "is_disabled": 0, "rental_uris": {"ios": "https://dc.lft.to/lastmile_qr_scan", "android": "https://dc.lft.to/lastmile_qr_scan"}, "is_reserved": 0}, {"lon": -77.054085, "bike_id": "ff58469623739dbf63be5b84add44fcd", "lat": 38.92852883333333, "fusion_lon": 0.0, "fusion_lat": 0.0, "type": "electric_bike", "name": "ff58469623739dbf63be5b84add44fcd", "is_disabled": 0, "rental_uris": {"ios": "https://dc.lft.to/lastmile_qr_scan", "android": "https://dc.lft.to/lastmile_qr_scan"}, "is_reserved": 0}, {"lon": -77.03169116666666, "bike_id": "c84be8c5e5e0d4174579b77091e9cfd7", "lat": 38.90296633333333, "fusion_lon": 0.0, "fusion_lat": 0.0, "type": "electric_scooter", "name": "c84be8c5e5e0d4174579b77091e9cfd7", "is_disabled": 0, "rental_uris": {"ios": "https://dc.lft.to/lastmile_qr_scan", "android": "https://dc.lft.to/lastmile_qr_scan"}, "is_reserved": 0}, {"lon": -77.03214433333333, "bike_id": "883fade145ef39076cdc734bec98df13", "lat": 38.892177333333336, "fusion_lon": 0.0, "fusion_lat": 0.0, "type": "electric_scooter", "name": "883fade145ef39076cdc734bec98df13", "is_disabled": 0, "rental_uris": {"ios": "https://dc.lft.to/lastmile_qr_scan", "android": "https://dc.lft.to/lastmile_qr_scan"}, "is_reserved": 0}, {"lon": -76.99928683333333, "bike_id": "4e15299d4adcbafa9904278401294cdb", "lat": 38.84314083333334, "fusion_lon": 0.0, "fusion_lat": 0.0, "type": "electric_scooter", "name": "4e15299d4adcbafa9904278401294cdb", "is_disabled": 0, "rental_uris": {"ios": "https://dc.lft.to/lastmile_qr_scan", "android": "https://dc.lft.to/lastmile_qr_scan"}, "is_reserved": 0}, {"lon": -76.99049866666667, "bike_id": "25405b2abebd3df8db59ac02b5f4311c", "lat": 38.8637355, "fusion_lon": 0.0, "fusion_lat": 0.0, "type": "electric_scooter", "name": "25405b2abebd3df8db59ac02b5f4311c", "is_disabled": 0, "rental_uris": {"ios": "https://dc.lft.to/lastmile_qr_scan", "android": "https://dc.lft.to/lastmile_qr_scan"}, "is_reserved": 0}, {"lon": -77.03653583333333, "bike_id": "ce0d3d9129fc58fe280d3526dea1c258", "lat": 38.9121855, "fusion_lon": 0.0, "fusion_lat": 0.0, "type": "electric_scooter", "name": "ce0d3d9129fc58fe280d3526dea1c258", "is_disabled": 0, "rental_uris": {"ios": "https://dc.lft.to/lastmile_qr_scan", "android": "https://dc.lft.to/lastmile_qr_scan"}, "is_reserved": 0}, {"lon": -76.99073483333333, "bike_id": "8bb6210a56e54cf2a1de6b00ab80e4cb", "lat": 38.927475, "fusion_lon": 0.0, "fusion_lat": 0.0, "type": "electric_scooter", "name": "8bb6210a56e54cf2a1de6b00ab80e4cb", "is_disabled": 0, "rental_uris": {"ios": "https://dc.lft.to/lastmile_qr_scan", "android": "https://dc.lft.to/lastmile_qr_scan"}, "is_reserved": 0}, {"lon": -77.03261533333334, "bike_id": "6f12f2e69340c83f36131938faafebfd", "lat": 38.93203666666667, "fusion_lon": 0.0, "fusion_lat": 0.0, "type": "electric_scooter", "name": "6f12f2e69340c83f36131938faafebfd", "is_disabled": 0, "rental_uris": {"ios": "https://dc.lft.to/lastmile_qr_scan", "android": "https://dc.lft.to/lastmile_qr_scan"}, "is_reserved": 0}, {"lon": -77.03637433333333, "bike_id": "a96eb5bc8b3e3e643d7276c9a87b5577", "lat": 38.9026365, "fusion_lon": 0.0, "fusion_lat": 0.0, "type": "electric_scooter", "name": "a96eb5bc8b3e3e643d7276c9a87b5577", "is_disabled": 0, "rental_uris": {"ios": "https://dc.lft.to/lastmile_qr_scan", "android": "https://dc.lft.to/lastmile_qr_scan"}, "is_reserved": 0}, {"lon": -77.1159225, "bike_id": "32d1363cb7652fceecccb602bf41b93a", "lat": 39.074948, "fusion_lon": 0.0, "fusion_lat": 0.0, "type": "electric_bike", "name": "32d1363cb7652fceecccb602bf41b93a", "is_disabled": 0, "rental_uris": {"ios": "https://dc.lft.to/lastmile_qr_scan", "android": "https://dc.lft.to/lastmile_qr_scan"}, "is_reserved": 0},