{"data": {"bikes": [{"rental_uris": {"android": "https://dc.lft.to/lastmile_qr_scan", "ios": "https://dc.lft.to/lastmile_qr_scan"}, "is_reserved": 0, "is_disabled": 0, "bike_id": "dc7ec5ed2cb704b08939330b6f8aaf6a", "lat": 38.884552, "name": "dc7ec5ed2cb704b08939330b6f8aaf6a", "fusion_lon": 0.0, "fusion_lat": 0.0, "type": "electric_scooter", "lon": -76.950991}, {"rental_uris": {"android": "https://dc.lft.to/lastmile_qr_scan", "ios": "https://dc.lft.to/lastmile_qr_scan"}, "is_reserved": 0, "is_disabled": 0, "bike_id": "12e3f171efaa2c7c4e9e66d798395dab", "lat": 38.90168533333333, "name": "12e3f171efaa2c7c4e9e66d798395dab", "fusion_lon": 0.0, "fusion_lat": 0.0, "type": "electric_scooter", "lon": -76.9302305}, {"rental_uris": {"android": "https://dc.lft.to/lastmile_qr_scan", "ios": "https://dc.lft.to/lastmile_qr_scan"}, "is_reserved": 0, "is_disabled": 0, "bike_id": "65a9bf33c9eb27eb322cbcb24a8dbe18", "lat": 38.95646416666666, "name": "65a9bf33c9eb27eb322cbcb24a8dbe18", "fusion_lon": 0.0, "fusion_lat": 0.0, "type": "electric_scooter", "lon": -77.02258933333333}, {"rental_uris": {"android": "https://dc.lft.to/lastmile_qr_scan", "ios": "https://dc.lft.to/lastmile_qr_scan"}, "is_reserved": 0, "is_disabled": 0, "bike_id": "66a39f92d91cf7173d7389613c58800c", "lat": 38.9194985, "name": "66a39f92d91cf7173d7389613c58800c", "fusion_lon": 0.0, "fusion_lat": 0.0, "type": "electric_scooter", "lon": -76.980783}, {"rental_uris": {"android": "https://dc.lft.to/lastmile_qr_scan", "ios": "https://dc.lft.to/lastmile_qr_scan"}, "is_reserved": 0, "is_disabled": 0, "bike_id": "5aa545741ce00f55274084127a02ea90", "lat": 38.90555066666667, "name": "5aa545741ce00f55274084127a02ea90", "fusion_lon": 0.0, "fusion_lat": 0.0, "type": "electric_scooter", "lon": -77.01991733333334}, {"rental_uris": {"android": "https://dc.lft.to/lastmile_qr_scan", "ios": "https://dc.lft.to/lastmile_qr_scan"}, "is_reserved": 0, "is_disabled": 0, "bike_id": "83863b534adbe02e74a0ed5d9a75cbfa", "lat": 38.8388935, "name": "83863b534adbe02e74a0ed5d9a75cbfa", "fusion_lon": 0.0, "fusion_lat": 0.0, "type": "electric_scooter", "lon": -77.00652866666667}, {"rental_uris": {"android": "https://dc.lft.to/lastmile_qr_scan", "ios": "https://dc.lft.to/lastmile_qr_scan"}, "is_reserved": 0, "is_disabled": 0, "bike_id": "8f56ccf07d7ce7430236f578050331ce", "lat": 38.9415385, "name": "8f56ccf07d7ce7430236f578050331ce", "fusion_lon": 0.0, "fusion_lat": 0.0, "type": "electric_scooter", "lon": -77.091007}, {"rental_uris": {"android": "https://dc.lft.to/lastmile_qr_scan", "ios": "https://dc.lft.to/lastmile_qr_scan"}, "is_reserved": 0, "is_disabled": 0, "bike_id": "48d13288b50c70b43f8d8a9cd1803523", "lat": 38.896576333333336, "name": "48d13288b50c70b43f8d8a9cd1803523", "fusion_lon": 0.0, "fusion_lat": 0.0, "type": "electric_bike", "lon": -76.9301265}, {"rental_uris": {"android": "https://dc.lft.to/lastmile_qr_scan", "ios": "https://dc.lft.to/lastmile_qr_scan"}, "is_reserved": 0, "is_disabled": 0, "bike_id": "30a0b6f4cbfcd1cdf8314d1deeca6249", "lat": 38.938685666666665, "name": "30a0b6f4cbfcd1cdf8314d1deeca6249", "fusion_lon": 0.0, "fusion_lat": 0.0, "type": "electric_scooter", "lon": -77.02562566666667}, {"rental_uris": {"android": "https://dc.lft.to/lastmile_qr_scan", "ios": "https://dc.lft.to/lastmile_qr_scan"}, "is_reserved": 0, "is_disabled": 0, "bike_id": "42c65227eed06bf770fb73a279bacd9f", "lat": 38.941858, "name": "42c65227eed06bf770fb73a279bacd9f", "fusion_lon": 0.0, "fusion_lat": 0.0, "type": "electric_scooter", "lon": -77.024065}, {"rental_uris": {"android": "https://dc.lft.to/lastmile_qr_scan", "ios": "https://dc.lft.to/lastmile_qr_scan"}, "is_reserved": 0, "is_disabled": 0, "bike_id": "5cc563c58567a2d931c4aa7eb5882c49", "lat": 38.923313, "name": "5cc563c58567a2d931c4aa7eb5882c49", "fusion_lon": 0.0, "fusion_lat": 0.0, "type": "electric_scooter", "lon": -77.0357635}, {"rental_uris": {"android": "https://dc.lft.to/lastmile_qr_scan", "ios": "https://dc.lft.to/lastmile_qr_scan"}, "is_reserved": 0, "is_disabled": 0, "bike_id": "2a0fa2ca2e223ff56a1aea71189fb701", "lat": 38.978416833333334, "name": "2a0fa2ca2e223ff56a1aea71189fb701", "fusion_lon": 0.0, "fusion_lat": 0.0, "type": "electric_bike", "lon": -76.92883983333333}, {"rental_uris": {"android": "https://dc.lft.to/lastmile_qr_scan", "ios": "https://dc.lft.to/lastmile_qr_scan"}, "is_reserved": 0, "is_disabled": 0, "bike_id": "00691eceae2401e4631dda3cb7ead96f", "lat": 38.903285333333336, "name": "00691eceae2401e4631dda3cb7ead96f", "fusion_lon": 0.0, "fusion_lat": 0.0, "type": "electric_scooter", "lon": -77.04127116666666}, {"rental_uris": {"android": "https://dc.lft.to/lastmile_qr_scan", "ios": "https://dc.lft.to/lastmile_qr_scan"}, "is_reserved": 0, "is_disabled": 0, "bike_id": "ca1ca87b4f6f93eb1661a4bee3c3e773", "lat": 38.9344665, "name": "ca1ca87b4f6f93eb1661a4bee3c3e773", "fusion_lon": 0.0, "fusion_lat": 0.0, "type": "electric_scooter", "lon": -77.029868}, {"rental_uris": {"android": "https://dc.lft.to/lastmile_qr_scan", "ios": "https://dc.lft.to/lastmile_qr_scan"}, "is_reserved": 0, "is_disabled": 0, "bike_id": "305ce1ebb031220c5cb7c89e472cebbe", "lat": 38.91192783333334, "name": "305ce1ebb031220c5cb7c89e472cebbe", "fusion_lon": 0.0, "fusion_lat": 0.0, "type": "electric_scooter", "lon": -77.038319}, {"rental_uris": {"android": "https://dc.lft.to/lastmile_qr_scan", "ios": "https://dc.lft.to/lastmile_qr_scan"}, "is_reserved": 0, "is_disabled": 0, "bike_id": "64b44c84fe996cdd38aada7acafe218c", "lat": 38.950563, "name": "64b44c84fe996cdd38aada7acafe218c", "fusion_lon": 0.0, "fusion_lat": 0.0, "type": "electric_scooter", "lon": -77.0802305}, {"rental_uris": {"android": "https://dc.lft.to/lastmile_qr_scan", "ios": "https://dc.lft.to/lastmile_qr_scan"}, "is_reserved": 0, "is_disabled": 0, "bike_id": "b3bc127d5f633b43e23506fdd7296776", "lat": 38.99348, "name": "b3bc127d5f633b43e23506fdd7296776", "fusion_lon": 0.0, "fusion_lat": 0.0, "type": "electric_bike", "lon": -77.1157175}, {"rental_uris": {"android": "https://dc.lft.to/lastmile_qr_scan", "ios": "https://dc.lft.to/lastmile_qr_scan"}, "is_reserved": 0, "is_disabled": 0, "bike_id": "7f4f61f984062b4cf9f0a948b78cc813", "lat": 38.866856, "name": "7f4f61f984062b4cf9f0a948b78cc813", "fusion_lon": 0.0, "fusion_lat": 0.0, "type": "electric_scooter", "lon": -76.9853105}, {"rental_uris": {"android": "https://dc.lft.to/lastmile_qr_scan", "ios": "https://dc.lft.to/lastmile_qr_scan"}, "is_reserved": 0, "is_disabled": 0, "bike_id": "cb0e99b7f8912f70c981ce38cb6ac744", "lat": 38.89227116666667, "name": "cb0e99b7f8912f70c981ce38cb6ac744", "fusion_lon": 0.0, "fusion_lat": 0.0, "type": "electric_scooter", "lon": -77.0433625}, {"rental_uris": {"android": "https://dc.lft.to/lastmile_qr_scan", "ios": "https://dc.lft.to/lastmile_qr_scan"}, "is_reserved": 0, "is_disabled": 0, "bike_id": "1901ea211f724311b2b25d3f50d5e589", "lat": 38.923650333333335, "name": "1901ea211f724311b2b25d3f50d5e589", "fusion_lon": 0.0, "fusion_lat": 0.0, "type": "electric_scooter", "lon": -77.05026433333333}, {"rental_uris": {"android": "https://dc.lft.to/lastmile_qr_scan", "ios": "https://dc.lft.to/lastmile_qr_scan"}, "is_reserved": 0, "is_disabled": 0, "bike_id": "fe47997d6a4f25f4af1fa81d1f5d87c1", "lat": 38.926496, "name": "fe47997d6a4f25f4af1fa81d1f5d87c1", "fusion_lon": 0.0, "fusion_lat": 0.0, "type": "electric_scooter", "lon": -77.037182}, {"rental_uris": {"android": "https://dc.lft.to/lastmile_qr_scan", "ios": "https://dc.lft.to/lastmile_qr_scan"}, "is_reserved": 0, "is_disabled": 0, "bike_id": "425e053994401d6911a7420ed1cc9deb", "lat": 38.9118545, "name": "425e053994401d6911a7420ed1cc9deb", "fusion_lon": 0.0, "fusion_lat": 0.0, "type": "electric_scooter", "lon": -77.0200255}, {"rental_uris": {"android": "https://dc.lft.to/lastmile_qr_scan", "ios": "https://dc.lft.to/lastmile_qr_scan"}, "is_reserved": 0, "is_disabled": 0, "bike_id": "b118033a7d7042fc066b250563512883", "lat": 38.92887733333333, "name": "b118033a7d7042fc066b250563512883", "fusion_lon": 0.0, "fusion_lat": 0.0, "type": "electric_scooter", "lon": -77.03725333333334}, {"rental_uris": {"android": "https://dc.lft.to/lastmile_qr_scan", "ios": "https://dc.lft.to/lastmile_qr_scan"}, "is_reserved": 0, "is_disabled": 0, "bike_id": "2b3f693e61706c1475f1398939602aae", "lat": 38.941832833333336, "name": "2b3f693e61706c1475f1398939602aae", "fusion_lon": 0.0, "fusion_lat": 0.0, "type": "electric_scooter", "lon": -77.02798683333333}, {"rental_uris": {"android": "https://dc.lft.to/lastmile_qr_scan", "ios": "https://dc.lft.to/lastmile_qr_scan"}, "is_reserved": 0, "is_disabled": 0, "bike_id": "74414bc5b1248ee03a65956ab148c737", "lat": 38.90148666666666, "name": "74414bc5b1248ee03a65956ab148c737", "fusion_lon": 0.0, "fusion_lat": 0.0, "type": "electric_scooter", "lon": -77.04399633333334}, {"rental_uris": {"android": "https://dc.lft.to/lastmile_qr_scan", "ios": "https://dc.lft.to/lastmile_qr_scan"}, "is_reserved": 0, "is_disabled": 0, "bike_id": "3f5e8765577db491854c141b8f6c4c44", "lat": 38.921611666666664, "name": "3f5e8765577db491854c141b8f6c4c44", "fusion_lon": 0.0, "fusion_lat": 0.0, "type": "electric_scooter", "lon": -77.03383983333333}, {"rental_uris": {"android": "https://dc.lft.to/lastmile_qr_scan", "ios": "https://dc.lft.to/lastmile_qr_scan"}, "is_reserved": 0, "is_disabled": 0, "bike_id": "cbc283aa4bdc1efa859cb233461ab847", "lat": 38.892269166666665, "name": "cbc283aa4bdc1efa859cb233461ab847", "fusion_lon": 0.0, "fusion_lat": 0.0, "type": "electric_scooter", "lon": -77.019782}, {"rental_uris": {"android": "https://dc.lft.to/lastmile_qr_scan", "ios": "https://dc.lft.to/lastmile_qr_scan"}, "is_reserved": 0, "is_disabled": 0, "bike_id": "c07e41714ffdd30186be6f4844dc957d", "lat": 38.9193545, "name": "c07e41714ffdd30186be6f4844dc957d", "fusion_lon": 0.0, "fusion_lat": 0.0, "type": "electric_scooter", "lon": -77.03187683333333}, {"rental_uris": {"android": "https://dc.lft.to/lastmile_qr_scan", "ios": "https://dc.lft.to/lastmile_qr_scan"}, "is_reserved": 0, "is_disabled": 0, "bike_id": "9597139df1d8a0146cb1cb74c7ca7e92", "lat": 38.934805, "name": "9597139df1d8a0146cb1cb74c7ca7e92", "fusion_lon": 0.0, "fusion_lat": 0.0, "type": "electric_scooter", "lon": -77.035843}, {"rental_uris": {"android": "https://dc.lft.to/lastmile_qr_scan", "ios": "https://dc.lft.to/lastmile_qr_scan"}, "is_reserved": 0, "is_disabled": 0, "bike_id": "8a637ff80189b1f6aa0a592f978c4444", "lat": 38.923506833333334, "name": "8a637ff80189b1f6aa0a592f978c4444", "fusion_lon": 0.0, "fusion_lat": 0.0, "type": "electric_scooter", "lon": -77.04305383333333}, {"rental_uris": {"android": "https://dc.lft.to/lastmile_qr_scan", "ios": "https://dc.lft.to/lastmile_qr_scan"}, "is_reserved": 0, "is_disabled": 0, "bike_id": "8ff86ba7804aec1c4c65c9db4cdca475", "lat": 38.86698833333333, "name": "8ff86ba7804aec1c4c65c9db4cdca475", "fusion_lon": 0.0, "fusion_lat": 0.0, "type": "electric_scooter", "lon": -76.98591266666666}, {"rental_uris": {"android": "https://dc.lft.to/lastmile_qr_scan", "ios": "https://dc.lft.to/lastmile_qr_scan"}, "is_reserved": 0, "is_disabled": 0, "bike_id": "c5b5874dfab10bbc88a7802317859712", "lat": 38.8654205, "name": "c5b5874dfab10bbc88a7802317859712", "fusion_lon": 0.0, "fusion_lat": 0.0, "type": "electric_scooter", "lon": -76.98706616666666}, {"rental_uris": {"android": "https://dc.lft.to/lastmile_qr_scan", "ios": "https://dc.lft.to/lastmile_qr_scan"}, "is_reserved": 0, "is_disabled": 0, "bike_id": "d3e6d589c7c9a2be1c94c9a87327922e", "lat": 38.948056666666666, "name": "d3e6d589c7c9a2be1c94c9a87327922e", "fusion_lon": 0.0, "fusion_lat": 0.0, "type": "electric_bike", "lon": -76.95969516666666}, {"rental_uris": {"android": "https://dc.lft.to/lastmile_qr_scan", "ios": "https://dc.lft.to/lastmile_qr_scan"}, "is_reserved": 0, "is_disabled": 0, "bike_id": "dffddb8b067e31daf114e15bc2c64d67", "lat": 38.902890666666664, "name": "dffddb8b067e31daf114e15bc2c64d67", "fusion_lon": 0.0, "fusion_lat": 0.0, "type": "electric_scooter", "lon": -76.99038516666667}, {"rental_uris": {"android": "https://dc.lft.to/lastmile_qr_scan", "ios": "https://dc.lft.to/lastmile_qr_scan"}, "is_reserved": 0, "is_disabled": 0, "bike_id": "350221b988dbcee6d2fee7be61e3a3a3", "lat": 38.9273505, "name": "350221b988dbcee6d2fee7be61e3a3a3", "fusion_lon": 0.0, "fusion_lat": 0.0, "type": "electric_scooter", "lon": -77.0355145}, {"rental_uris": {"android": "https://dc.lft.to/lastmile_qr_scan", "ios": "https://dc.lft.to/lastmile_qr_scan"}, "is_reserved": 0, "is_disabled": 0, "bike_id": "cee431e8be3e1fe0feca63924246d9f4", "lat": 38.872813, "name": "cee431e8be3e1fe0feca63924246d9f4", "fusion_lon": 0.0, "fusion_lat": 0.0, "type": "electric_bike", "lon": -77.233215}, {"rental_uris": {"android": "https://dc.lft.to/lastmile_qr_scan", "ios": "https://dc.lft.to/lastmile_qr_scan"}, "is_reserved": 0, "is_disabled": 0, "bike_id": "bbaa983b883399ebd25caf1c75dc7440", "lat": 38.9231865, "name": "bbaa983b883399ebd25caf1c75dc7440", "fusion_lon": 0.0, "fusion_lat": 0.0, "type": "electric_scooter", "lon": -77.02964116666666}, {"rental_uris": {"android": "https://dc.lft.to/lastmile_qr_scan", "ios": "https://dc.lft.to/lastmile_qr_scan"}, "is_reserved": 0, "is_disabled": 0, "bike_id": "fc963f56076c2a0187589de944802eb3", "lat": 38.91988833333333, "name": "fc963f56076c2a0187589de944802eb3", "fusion_lon": 0.0, "fusion_lat": 0.0, "type": "electric_scooter", "lon": -77.0247625}, {"rental_uris": {"android": "https://dc.lft.to/lastmile_qr_scan", "ios": "https://dc.lft.to/lastmile_qr_scan"}, "is_reserved": 0, "is_disabled": 0, "bike_id": "91105595963bf35c4391bad588e3b5b0", "lat": 38.914050333333336, "name": "91105595963bf35c4391bad588e3b5b0", "fusion_lon": 0.0, "fusion_lat": 0.0, "type": "electric_scooter", "lon": -77.02019566666667}, {"rental_uris": {"android": "https://dc.lft.to/lastmile_qr_scan", "ios": "https://dc.lft.to/lastmile_qr_scan"}, "is_reserved": 0, "is_disabled": 0, "bike_id": "878c734c670dc5ac10bd089d4c977f5e", "lat": 38.88725266666667, "name": "878c734c670dc5ac10bd089d4c977f5e", "fusion_lon": 0.0, "fusion_lat": 0.0, "type": "electric_scooter", "lon": -77.02831533333334}, {"rental_uris": {"android": "https://dc.lft.to/lastmile_qr_scan", "ios": "https://dc.lft.to/lastmile_qr_scan"}, "is_reserved": 0, "is_disabled": 0, "bike_id": "3ff728caa8e4b560bd052f5c248a358c", "lat": 38.9101165, "name": "3ff728caa8e4b560bd052f5c248a358c", "fusion_lon": 0.0, "fusion_lat": 0.0, "type": "electric_bike", "lon": -77.2279445}, {"rental_uris": {"android": "https://dc.lft.to/lastmile_qr_scan", "ios": "https://dc.lft.to/lastmile_qr_scan"}, "is_reserved": 0, "is_disabled": 0, "bike_id": "4eae87d91b4aba11e03f43f9c299c3d2", "lat": 38.915594666666664, "name": "4eae87d91b4aba11e03f43f9c299c3d2", "fusion_lon": 0.0, "fusion_lat": 0.0, "type": "electric_scooter", "lon": -77.03863483333333}, {"rental_uris": {"android": "https://dc.lft.to/lastmile_qr_scan", "ios": "https://dc.lft.to/lastmile_qr_scan"}, "is_reserved": 0, "is_disabled": 0, "bike_id": "78ddfeeceba66e31eefb3292513e77e5", "lat": 38.89219716666667, "name": "78ddfeeceba66e31eefb3292513e77e5", "fusion_lon": 0.0, "fusion_lat": 0.0, "type": "electric_scooter", "lon": -77.02236116666667}, {"rental_uris": {"android": "https://dc.lft.to/lastmile_qr_scan", "ios": "https://dc.lft.to/lastmile_qr_scan"}, "is_reserved": 0, "is_disabled": 0, "bike_id": "0253510d1bfb72f5c4ce217c309c3bd8", "lat": 38.9179145, "name": "0253510d1bfb72f5c4ce217c309c3bd8", "fusion_lon": 0.0, "fusion_lat": 0.0, "type": "electric_scooter", "lon": -77.04566083333333}, {"rental_uris": {"android": "https://dc.lft.to/lastmile_qr_scan", "ios": "https://dc.lft.to/lastmile_qr_scan"}, "is_reserved": 0, "is_disabled": 0, "bike_id": "5bd060f75e3cfe1b999d243724fdb78b", "lat": 38.89222383333333, "name": "5bd060f75e3cfe1b999d243724fdb78b", "fusion_lon": 0.0, "fusion_lat": 0.0, "type": "electric_scooter", "lon": -77.03220233333333}, {"rental_uris": {"android": "https://dc.lft.to/lastmile_qr_scan", "ios": "https://dc.lft.to/lastmile_qr_scan"}, "is_reserved": 0, "is_disabled": 0, "bike_id": "be458fbe100d305fad48401eb76ad860", "lat": 38.8975195, "name": "be458fbe100d305fad48401eb76ad860", "fusion_lon": 0.0, "fusion_lat": 0.0, "type": "electric_scooter", "lon": -77.0273545}, {"rental_uris": {"android": "https://dc.lft.to/lastmile_qr_scan", "ios": "https://dc.lft.to/lastmile_qr_scan"}, "is_reserved": 0, "is_disabled": 0, "bike_id": "3ad9ddd519e652bae1870273188cc8e1", "lat": 38.92068583333333, "name": "3ad9ddd519e652bae1870273188cc8e1", "fusion_lon": 0.0, "fusion_lat": 0.0, "type": "electric_scooter", "lon": -77.041877}, {"rental_uris": {"android": "https://dc.lft.to/lastmile_qr_scan", "ios": "https://dc.lft.to/lastmile_qr_scan"}, "is_reserved": 0, "is_disabled": 0, "bike_id": "5912cd675a2e8fdae956cb4ea7e5393f", "lat": 38.886082333333334, "name": "5912cd675a2e8fdae956cb4ea7e5393f", "fusion_lon": 0.0, "fusion_lat": 0.0, "type": "electric_scooter", "lon": -76.99480983333333}, {"rental_uris": {"android": "https://dc.lft.to/lastmile_qr_scan", "ios": "https://dc.lft.to/lastmile_qr_scan"}, "is_reserved": 0, "is_disabled": 0, "bike_id": "62625d6e6e89464dc3d5f6f2eee1e4e7", "lat": 38.91560833333333, "name": "62625d6e6e89464dc3d5f6f2eee1e4e7", "fusion_lon": 0.0, "fusion_lat": 0.0, "type": "electric_scooter", "lon": -77.03868816666666}, {"rental_uris": {"android": "https://dc.lft.to/lastmile_qr_scan", "ios": "https://dc.lft.to/lastmile_qr_scan"}, "is_reserved": 0, "is_disabled": 0, "bike_id": "8e0c4fad2c8586499afa9b26427f799b", "lat": 38.919331666666665, "name": "8e0c4fad2c8586499afa9b26427f799b", "fusion_lon": 0.0, "fusion_lat": 0.0, "type": "electric_scooter", "lon": -77.0460635}, {"rental_uris": {"android": "https://dc.lft.to/lastmile_qr_scan", "ios": "https://dc.lft.to/lastmile_qr_scan"}, "is_reserved": 0, "is_disabled": 0, "bike_id": "19d224de391658fd3e734dafe0372987", "lat": 38.927494833333334, "name": "19d224de391658fd3e734dafe0372987", "fusion_lon": 0.0, "fusion_lat": 0.0, "type": "electric_scooter", "lon": -77.02539666666667}, {"rental_uris": {"android": "https://dc.lft.to/lastmile_qr_scan", "ios": "https://dc.lft.to/lastmile_qr_scan"}, "is_reserved": 0, "is_disabled": 0, "bike_id": "4031e22fb808b0cb2f789d6bf31d870d", "lat": 38.93048566666667, "name": "4031e22fb808b0cb2f789d6bf31d870d", "fusion_lon": 0.0, "fusion_lat": 0.0, "type": "electric_scooter", "lon": -77.058491}, {"rental_uris": {"android": "https://dc.lft.to/lastmile_qr_scan", "ios": "https://dc.lft.to/lastmile_qr_scan"}, "is_reserved": 0, "is_disabled": 0, "bike_id": "3d727f29142843d71f9f3b7a93541d08", "lat": 38.86689166666667, "name": "3d727f29142843d71f9f3b7a93541d08", "fusion_lon": 0.0, "fusion_lat": 0.0, "type": "electric_scooter", "lon": -76.98600783333333}, {"rental_uris": {"android": "https://dc.lft.to/lastmile_qr_scan", "ios": "https://dc.lft.to/lastmile_qr_scan"}, "is_reserved": 0, "is_disabled": 0, "bike_id": "3f64d65b7e14d61e01b1a622109c3695", "lat": 38.962362666666664, "name": "3f64d65b7e14d61e01b1a622109c3695", "fusion_lon": 0.0, "fusion_lat": 0.0, "type": "electric_bike", "lon": -77.0263705}, {"rental_uris": {"android": "https://dc.lft.to/lastmile_qr_scan", "ios": "https://dc.lft.to/lastmile_qr_scan"}, "is_reserved": 0, "is_disabled": 0, "bike_id": "733810dcfa2677f1a5f20df8bdac5921", "lat": 38.914584166666664, "name": "733810dcfa2677f1a5f20df8bdac5921", "fusion_lon": 0.0, "fusion_lat": 0.0, "type": "electric_scooter", "lon": -77.002031}, {"rental_uris": {"android": "https://dc.lft.to/lastmile_qr_scan", "ios": "https://dc.lft.to/lastmile_qr_scan"}, "is_reserved": 0, "is_disabled": 0, "bike_id": "4377f4d4e290e961a814e19124a303cf", "lat": 38.9161625, "name": "4377f4d4e290e961a814e19124a303cf", "fusion_lon": 0.0, "fusion_lat": 0.0, "type": "electric_scooter", "lon": -77.00920466666666}, {"rental_uris": {"android": "https://dc.lft.to/lastmile_qr_scan", "ios": "https://dc.lft.to/lastmile_qr_scan"}, "is_reserved": 0, "is_disabled": 0, "bike_id": "88ded7968fa1d14ed78624b91ea0c901", "lat": 38.908603, "name": "88ded7968fa1d14ed78624b91ea0c901", "fusion_lon": 0.0, "fusion_lat": 0.0, "type": "electric_scooter", "lon": -77.0427275}, {"rental_uris": {"android": "https://dc.lft.to/lastmile_qr_scan", "ios": "https://dc.lft.to/lastmile_qr_scan"}, "is_reserved": 0, "is_disabled": 0, "bike_id": "00573b3c4125b93b8e40813445f279f5", "lat": 38.90591533333333, "name": "00573b3c4125b93b8e40813445f279f5", "fusion_lon": 0.0, "fusion_lat": 0.0, "type": "electric_scooter", "lon": -77.016157}, {"rental_uris": {"android": "https://dc.lft.to/lastmile_qr_scan", "ios": "https://dc.lft.to/lastmile_qr_scan"}, "is_reserved": 0, "is_disabled": 0, "bike_id": "82321904172a3a8028d642c9a73338cd", "lat": 38.9185955, "name": "82321904172a3a8028d642c9a73338cd", "fusion_lon": 0.0, "fusion_lat": 0.0, "type": "electric_scooter", "lon": -76.96090516666666}, {"rental_uris": {"android": "https://dc.lft.to/lastmile_qr_scan", "ios": "https://dc.lft.to/lastmile_qr_scan"}, "is_reserved": 0, "is_disabled": 0, "bike_id": "03ec4858cb8c95ca610b0dcebb6bb757", "lat": 38.924731666666666, "name": "03ec4858cb8c95ca610b0dcebb6bb757", "fusion_lon": 0.0, "fusion_lat": 0.0, "type": "electric_scooter", "lon": -77.02249566666667}, {"rental_uris": {"android": "https://dc.lft.to/lastmile_qr_scan", "ios": "https://dc.lft.to/lastmile_qr_scan"}, "is_reserved": 0, "is_disabled": 0, "bike_id": "ea08d2b221e4521aeaecc30981c3b03e", "lat": 38.917124666666666, "name": "ea08d2b221e4521aeaecc30981c3b03e", "fusion_lon": 0.0, "fusion_lat": 0.0, "type": "electric_scooter", "lon": -77.03336583333333}, {"rental_uris": {"android": "https://dc.lft.to/lastmile_qr_scan", "ios": "https://dc.lft.to/lastmile_qr_scan"}, "is_reserved": 0, "is_disabled": 0, "bike_id": "dd10ea8699a9df8651d487b971c3e49a", "lat": 38.874553, "name": "dd10ea8699a9df8651d487b971c3e49a", "fusion_lon": 0.0, "fusion_lat": 0.0, "type": "electric_scooter", "lon": -77.0054245}, {"rental_uris": {"android": "https://dc.lft.to/lastmile_qr_scan", "ios": "https://dc.lft.to/lastmile_qr_scan"}, "is_reserved": 0, "is_disabled": 0, "bike_id": "9233cedf7d8b0980e65524240aef635f", "lat": 38.92477266666667, "name": "9233cedf7d8b0980e65524240aef635f", "fusion_lon": 0.0, "fusion_lat": 0.0, "type": "electric_scooter", "lon": -77.03549133333334}, {"rental_uris": {"android": "https://dc.lft.to/lastmile_qr_scan", "ios": "https://dc.lft.to/lastmile_qr_scan"}, "is_reserved": 0, "is_disabled": 0, "bike_id": "0fb72d340ebdea0bdf82607e47eac108", "lat": 38.9125355, "name": "0fb72d340ebdea0bdf82607e47eac108", "fusion_lon": 0.0, "fusion_lat": 0.0, "type": "electric_scooter", "lon": -77.0385405}, {"rental_uris": {"android": "https://dc.lft.to/lastmile_qr_scan", "ios": "https://dc.lft.to/lastmile_qr_scan"}, "is_reserved": 0, "is_disabled": 0, "bike_id": "230804cecb0bad767665648f5ca552a0", "lat": 38.899976833333334, "name": "230804cecb0bad767665648f5ca552a0", "fusion_lon": 0.0, "fusion_lat": 0.0, "type": "electric_bike", "lon": -76.99833066666666}, {"rental_uris": {"android": "https://dc.lft.to/lastmile_qr_scan", "ios": "https://dc.lft.to/lastmile_qr_scan"}, "is_reserved": 0, "is_disabled": 0, "bike_id": "d21d2551aed147d507a1ed7bc9be9369", "lat": 38.90282583333333, "name": "d21d2551aed147d507a1ed7bc9be9369", "fusion_lon": 0.0, "fusion_lat": 0.0, "type": "electric_scooter", "lon": -77.03926133333333}, {"rental_uris": {"android": "https://dc.lft.to/lastmile_qr_scan", "ios": "https://dc.lft.to/lastmile_qr_scan"}, "is_reserved": 0, "is_disabled": 0, "bike_id": "a90ea04a168a701a85523d3ddc9c0123", "lat": 38.9140025, "name": "a90ea04a168a701a85523d3ddc9c0123", "fusion_lon": 0.0, "fusion_lat": 0.0, "type": "electric_scooter", "lon": -77.04450533333333}, {"rental_uris": {"android": "https://dc.lft.to/lastmile_qr_scan", "ios": "https://dc.lft.to/lastmile_qr_scan"}, "is_reserved": 0, "is_disabled": 0, "bike_id": "18133dd545845396853ca8c311fc710b", "lat": 38.86375783333333, "name": "18133dd545845396853ca8c311fc710b", "fusion_lon": 0.0, "fusion_lat": 0.0, "type": "electric_scooter", "lon": -76.99059583333333}, {"rental_uris": {"android": "https://dc.lft.to/lastmile_qr_scan", "ios": "https://dc.lft.to/lastmile_qr_scan"}, "is_reserved": 0, "is_disabled": 0, "bike_id": "bb07258aac31802fba6514ee24a0ba97", "lat": 38.86686666666667, "name": "bb07258aac31802fba6514ee24a0ba97", "fusion_lon": 0.0, "fusion_lat": 0.0, "type": "electric_scooter", "lon": -76.98528166666667}, {"rental_uris": {"android": "https://dc.lft.to/lastmile_qr_scan", "ios": "https://dc.lft.to/lastmile_qr_scan"}, "is_reserved": 0, "is_disabled": 0, "bike_id": "0351d5dd00c59db8c6cbc9f5e15e3335", "lat": 38.9019725, "name": "0351d5dd00c59db8c6cbc9f5e15e3335", "fusion_lon": 0.0, "fusion_lat": 0.0, "type": "electric_scooter", "lon": -77.02402283333333}, {"rental_uris": {"android": "https://dc.lft.to/lastmile_qr_scan", "ios": "https://dc.lft.to/lastmile_qr_scan"}, "is_reserved": 0, "is_disabled": 0, "bike_id": "0c5c9525b85ac8ba1c839249de995ee1", "lat": 38.9184365, "name": "0c5c9525b85ac8ba1c839249de995ee1", "fusion_lon": 0.0, "fusion_lat": 0.0, "type": "electric_scooter", "lon": -77.03919466666666}, {"rental_uris": {"android": "https://dc.lft.to/lastmile_qr_scan", "ios": "https://dc.lft.to/lastmile_qr_scan"}, "is_reserved": 0, "is_disabled": 0, "bike_id": "bf4abe98ed627c35a29e1615d8c255b0", "lat": 38.879271, "name": "bf4abe98ed627c35a29e1615d8c255b0", "fusion_lon": 0.0, "fusion_lat": 0.0, "type": "electric_scooter", "lon": -76.995139}, {"rental_uris": {"android": "https://dc.lft.to/lastmile_qr_scan", "ios": "https://dc.lft.to/lastmile_qr_scan"}, "is_reserved": 0, "is_disabled": 0, "bike_id": "7cb5aa66a5c10e3afbbba5c8703ff676", "lat": 38.91557316666667, "name": "7cb5aa66a5c10e3afbbba5c8703ff676", "fusion_lon": 0.0, "fusion_lat": 0.0, "type": "electric_scooter", "lon": -77.02120016666667}, {"rental_uris": {"android": "https://dc.lft.to/lastmile_qr_scan", "ios": "https://dc.lft.to/lastmile_qr_scan"}, "is_reserved": 0, "is_disabled": 0, "bike_id": "d5f3f30ed3763bb205b4a04efb043e36", "lat": 38.927451, "name": "d5f3f30ed3763bb205b4a04efb043e36", "fusion_lon": 0.0, "fusion_lat": 0.0, "type": "electric_scooter", "lon": -77.03282816666666}, {"rental_uris": {"android": "https://dc.lft.to/lastmile_qr_scan", "ios": "https://dc.lft.to/lastmile_qr_scan"}, "is_reserved": 0, "is_disabled": 0, "bike_id": "5876a7279536b329f8b9b31c7d8f72bb", "lat": 38.915496, "name": "5876a7279536b329f8b9b31c7d8f72bb", "fusion_lon": 0.0, "fusion_lat": 0.0, "type": "electric_scooter", "lon": -77.0385775}, {"rental_uris": {"android": "https://dc.lft.to/lastmile_qr_scan", "ios": "https://dc.lft.to/lastmile_qr_scan"}, "is_reserved": 0, "is_disabled": 0, "bike_id": "e9ca309811243f4ffe99d55731a5a4b4", "lat": 38.90726083333333, "name": "e9ca309811243f4ffe99d55731a5a4b4", "fusion_lon": 0.0, "fusion_lat": 0.0, "type": "electric_scooter", "lon": -77.03218}, {"rental_uris": {"android": "https://dc.lft.to/lastmile_qr_scan", "ios": "https://dc.lft.to/lastmile_qr_scan"}, "is_reserved": 0, "is_disabled": 0, "bike_id": "dcd1f3482d82c7d46faaa9746f5d8b64", "lat": 38.89222516666667, "name": "dcd1f3482d82c7d46faaa9746f5d8b64", "fusion_lon": 0.0, "fusion_lat": 0.0, "type": "electric_scooter", "lon": -77.0322085}, {"rental_uris": {"android": "https://dc.lft.to/lastmile_qr_scan", "ios": "https://dc.lft.to/lastmile_qr_scan"}, "is_reserved": 0, "is_disabled": 0, "bike_id": "2d48d2c0137eb136658f525283146382", "lat": 38.857504166666665, "name": "2d48d2c0137eb136658f525283146382", "fusion_lon": 0.0, "fusion_lat": 0.0, "type": "electric_scooter", "lon": -76.99288783333333}, {"rental_uris": {"android": "https://dc.lft.to/lastmile_qr_scan", "ios": "https://dc.lft.to/lastmile_qr_scan"}, "is_reserved": 0, "is_disabled": 0, "bike_id": "8cc48746640944ff3c679c9f9f47f2b8", "lat": 38.92163133333333, "name": "8cc48746640944ff3c679c9f9f47f2b8", "fusion_lon": 0.0, "fusion_lat": 0.0, "type": "electric_scooter", "lon": -77.03842016666667}, {"rental_uris": {"android": "https://dc.lft.to/lastmile_qr_scan", "ios": "https://dc.lft.to/lastmile_qr_scan"}, "is_reserved": 0, "is_disabled": 0, "bike_id": "d722f58756f3d7af9a6deb31d6727938", "lat": 38.90426583333333, "name": "d722f58756f3d7af9a6deb31d6727938", "fusion_lon": 0.0, "fusion_lat": 0.0, "type": "electric_scooter", "lon": -77.04283366666667}, {"rental_uris": {"android": "https://dc.lft.to/lastmile_qr_scan", "ios": "https://dc.lft.to/lastmile_qr_scan"}, "is_reserved": 0, "is_disabled": 0, "bike_id": "76da20126f0691fdccb582418599a7e1", "lat": 38.885644666666664, "name": "76da20126f0691fdccb582418599a7e1", "fusion_lon": 0.0, "fusion_lat": 0.0, "type": "electric_bike", "lon": -77.16687466666667}, {"rental_uris": {"android": "https://dc.lft.to/lastmile_qr_scan", "ios": "https://dc.lft.to/lastmile_qr_scan"}, "is_reserved": 0, "is_disabled": 0, "bike_id": "4d2ce6a1f2018ac93b3857cecda4b773", "lat": 38.927449, "name": "4d2ce6a1f2018ac93b3857cecda4b773", "fusion_lon": 0.0, "fusion_lat": 0.0, "type": "electric_scooter", "lon": -77.032824}, {"rental_uris": {"android": "https://dc.lft.to/lastmile_qr_scan", "ios": "https://dc.lft.to/lastmile_qr_scan"}, "is_reserved": 0, "is_disabled": 0, "bike_id": "7b3e1c1e51418c6687392e52611cef46", "lat": 38.941015666666665, "name": "7b3e1c1e51418c6687392e52611cef46", "fusion_lon": 0.0, "fusion_lat": 0.0, "type": "electric_scooter", "lon": -77.02537066666666}, {"rental_uris": {"android": "https://dc.lft.to/lastmile_qr_scan", "ios": "https://dc.lft.to/lastmile_qr_scan"}, "is_reserved": 0, "is_disabled": 0, "bike_id": "83e3b4c43a3143c71bbbdac67117d844", "lat": 38.91580016666666, "name": "83e3b4c43a3143c71bbbdac67117d844", "fusion_lon": 0.0, "fusion_lat": 0.0, "type": "electric_scooter", "lon": -77.02053183333334}, {"rental_uris": {"android": "https://dc.lft.to/lastmile_qr_scan", "ios": "https://dc.lft.to/lastmile_qr_scan"}, "is_reserved": 0, "is_disabled": 0, "bike_id": "f4db53e5edbb0df462813e00d121a645", "lat": 38.898819, "name": "f4db53e5edbb0df462813e00d121a645", "fusion_lon": 0.0, "fusion_lat": 0.0, "type": "electric_scooter", "lon": -76.93194916666667}, {"rental_uris": {"android": "https://dc.lft.to/lastmile_qr_scan", "ios": "https://dc.lft.to/lastmile_qr_scan"}, "is_reserved": 0, "is_disabled": 0, "bike_id": "b7caca8e400b0fb4a3b200842c04441c", "lat": 38.936076166666666, "name": "b7caca8e400b0fb4a3b200842c04441c", "fusion_lon": 0.0, "fusion_lat": 0.0, "type": "electric_scooter", "lon": -77.05901033333333}, {"rental_uris": {"android": "https://dc.lft.to/lastmile_qr_scan", "ios": "https://dc.lft.to/lastmile_qr_scan"}, "is_reserved": 0, "is_disabled": 0, "bike_id": "63d9d6ff82cfefbc85ef27d56030d308", "lat": 38.89509866666667, "name": "63d9d6ff82cfefbc85ef27d56030d308", "fusion_lon": 0.0, "fusion_lat": 0.0, "type": "electric_scooter", "lon": -76.9488455}, {"rental_uris": {"android": "https://dc.lft.to/lastmile_qr_scan", "ios": "https://dc.lft.to/lastmile_qr_scan"}, "is_reserved": 0, "is_disabled": 0, "bike_id": "c537ca386339206e9819c974cc86c15d", "lat": 38.918083833333334, "name": "c537ca386339206e9819c974cc86c15d", "fusion_lon": 0.0, "fusion_lat": 0.0, "type": "electric_scooter", "lon": -77.03435866666666}, {"rental_uris": {"android": "https://dc.lft.to/lastmile_qr_scan", "ios": "https://dc.lft.to/lastmile_qr_scan"}, "is_reserved": 0, "is_disabled": 0, "bike_id": "072065e9d16fbf52272d7c56eaca2fc8", "lat": 38.8551315, "name": "072065e9d16fbf52272d7c56eaca2fc8", "fusion_lon": 0.0, "fusion_lat": 0.0, "type": "electric_bike", "lon": -77.11149333333333}, {"rental_uris": {"android": "https://dc.lft.to/lastmile_qr_scan", "ios": "https://dc.lft.to/lastmile_qr_scan"}, "is_reserved": 0, "is_disabled": 0, "bike_id": "7e23a04660733fd514147e4822e922b6", "lat": 38.912451, "name": "7e23a04660733fd514147e4822e922b6", "fusion_lon": 0.0, "fusion_lat": 0.0, "type": "electric_scooter", "lon": -77.00106566666666}, {"rental_uris": {"android": "https://dc.lft.to/lastmile_qr_scan", "ios": "https://dc.lft.to/lastmile_qr_scan"}, "is_reserved": 0, "is_disabled": 0, "bike_id": "86f96a0c8d98113b6be72f80b3aa4c79", "lat": 38.892348, "name": "86f96a0c8d98113b6be72f80b3aa4c79", "fusion_lon": 0.0, "fusion_lat": 0.0, "type": "electric_scooter", "lon": -77.048777}, {"rental_uris": {"android": "https://dc.lft.to/lastmile_qr_scan", "ios": "https://dc.lft.to/lastmile_qr_scan"}, "is_reserved": 0, "is_disabled": 0, "bike_id": "932b836996a19f2c895ab5c64aae6642", "lat": 38.99406466666667, "name": "932b836996a19f2c895ab5c64aae6642", "fusion_lon": 0.0, "fusion_lat": 0.0, "type": "electric_bike", "lon": -77.00126116666667}, {"rental_uris": {"android": "https://dc.lft.to/lastmile_qr_scan", "ios": "https://dc.lft.to/lastmile_qr_scan"}, "is_reserved": 0, "is_disabled": 0, "bike_id": "379abe144b8646f19a42645e1e5a8bfa", "lat": 38.9014745, "name": "379abe144b8646f19a42645e1e5a8bfa", "fusion_lon": 0.0, "fusion_lat": 0.0, "type": "electric_scooter", "lon": -77.03960283333333}, {"rental_uris": {"android": "https://dc.lft.to/lastmile_qr_scan", "ios": "https://dc.lft.to/lastmile_qr_scan"}, "is_reserved": 0, "is_disabled": 0, "bike_id": "5e49f7a32b802ba9a76a4a2e3a835965", "lat": 38.89833616666667, "name": "5e49f7a32b802ba9a76a4a2e3a835965", "fusion_lon": 0.0, "fusion_lat": 0.0, "type": "electric_scooter", "lon": -77.0333245}, {"rental_uris": {"android": "https://dc.lft.to/lastmile_qr_scan", "ios": "https://dc.lft.to/lastmile_qr_scan"}, "is_reserved": 0, "is_disabled": 0, "bike_id": "7a9ae54c7602d7c7c672260dac4b334e", "lat": 38.90705883333333, "name": "7a9ae54c7602d7c7c672260dac4b334e", "fusion_lon": 0.0, "fusion_lat": 0.0, "type": "electric_scooter", "lon": -76.98085733333333}, {"rental_uris": {"android": "https://dc.lft.to/lastmile_qr_scan", "ios": "https://dc.lft.to/lastmile_qr_scan"}, "is_reserved": 0, "is_disabled": 0, "bike_id": "b26acff4915cc99c5ebf33855a02b02e", "lat": 38.89298, "name": "b26acff4915cc99c5ebf33855a02b02e", "fusion_lon": 0.0, "fusion_lat": 0.0, "type": "electric_scooter", "lon": -76.9291755}, {"rental_uris": {"android": "https://dc.lft.to/lastmile_qr_scan", "ios": "https://dc.lft.to/lastmile_qr_scan"}, "is_reserved": 0, "is_disabled": 0, "bike_id": "12fd06a9d255b12c50f1868d82c3b7e0", "lat": 38.8953885, "name": "12fd06a9d255b12c50f1868d82c3b7e0", "fusion_lon": 0.0, "fusion_lat": 0.0, "type": "electric_scooter", "lon": -77.02660933333334}, {"rental_uris": {"android": "https://dc.lft.to/lastmile_qr_scan", "ios": "https://dc.lft.to/lastmile_qr_scan"}, "is_reserved": 0, "is_disabled": 0, "bike_id": "3f440b8b4af1d803df2c8f12beaa94f7", "lat": 38.81203516666667, "name": "3f440b8b4af1d803df2c8f12beaa94f7", "fusion_lon": 0.0, "fusion_lat": 0.0, "type": "electric_bike", "lon": -77.10842933333333}, {"rental_uris": {"android": "https://dc.lft.to/lastmile_qr_scan", "ios": "https://dc.lft.to/lastmile_qr_scan"}, "is_reserved": 0, "is_disabled": 0, "bike_id": "d1def3cac8cdcebb6b1b572f5299690d", "lat": 38.9065825, "name": "d1def3cac8cdcebb6b1b572f5299690d", "fusion_lon": 0.0, "fusion_lat": 0.0, "type": "electric_scooter", "lon": -77.04654183333334}, {"rental_uris": {"android": "https://dc.lft.to/lastmile_qr_scan", "ios": "https://dc.lft.to/lastmile_qr_scan"}, "is_reserved": 0, "is_disabled": 0, "bike_id": "5666ccda049c9e679583771839558167", "lat": 38.901331666666664, "name": "5666ccda049c9e679583771839558167", "fusion_lon": 0.0, "fusion_lat": 0.0, "type": "electric_scooter", "lon": -77.03009266666666}, {"rental_uris": {"android": "https://dc.lft.to/lastmile_qr_scan", "ios": "https://dc.lft.to/lastmile_qr_scan"}, "is_reserved": 0, "is_disabled": 0, "bike_id": "3e0b0445e52217c41a09169ae108e6a9", "lat": 38.909924, "name": "3e0b0445e52217c41a09169ae108e6a9", "fusion_lon": 0.0, "fusion_lat": 0.0, "type": "electric_scooter", "lon": -76.984483}, {"rental_uris": {"android": "https://dc.lft.to/lastmile_qr_scan", "ios": "https://dc.lft.to/lastmile_qr_scan"}, "is_reserved": 0, "is_disabled": 0, "bike_id": "863bcfdee7ff3d51ee2d4318298b2d31", "lat": 38.90390133333333, "name": "863bcfdee7ff3d51ee2d4318298b2d31", "fusion_lon": 0.0, "fusion_lat": 0.0, "type": "electric_scooter", "lon": -77.01768983333334}, {"rental_uris": {"android": "https://dc.lft.to/lastmile_qr_scan", "ios": "https://dc.lft.to/lastmile_qr_scan"}, "is_reserved": 0, "is_disabled": 0, "bike_id": "4a0a35ce7a0f0e84295dc6968e79b0a7", "lat": 38.938825333333334, "name": "4a0a35ce7a0f0e84295dc6968e79b0a7", "fusion_lon": 0.0, "fusion_lat": 0.0, "type": "electric_scooter", "lon": -77.02462683333333}, {"rental_uris": {"android": "https://dc.lft.to/lastmile_qr_scan", "ios": "https://dc.lft.to/lastmile_qr_scan"}, "is_reserved": 0, "is_disabled": 0, "bike_id": "78d6b171fcf4fd4a930756c7209adfb5", "lat": 38.89956466666667, "name": "78d6b171fcf4fd4a930756c7209adfb5", "fusion_lon": 0.0, "fusion_lat": 0.0, "type": "electric_scooter", "lon": -77.04789466666666}, {"rental_uris": {"android": "https://dc.lft.to/lastmile_qr_scan", "ios": "https://dc.lft.to/lastmile_qr_scan"}, "is_reserved": 0, "is_disabled": 0, "bike_id": "0db099fb6f617dff16028cf1a4fe532c", "lat": 38.86505416666667, "name": "0db099fb6f617dff16028cf1a4fe532c", "fusion_lon": 0.0, "fusion_lat": 0.0, "type": "electric_scooter", "lon": -76.990014}, {"rental_uris": {"android": "https://dc.lft.to/lastmile_qr_scan", "ios": "https://dc.lft.to/lastmile_qr_scan"}, "is_reserved": 0, "is_disabled": 0, "bike_id": "0640a59ad03d843bc6223cb7b89cb27f", "lat": 38.8666785, "name": "0640a59ad03d843bc6223cb7b89cb27f", "fusion_lon": 0.0, "fusion_lat": 0.0, "type": "electric_scooter", "lon": -76.98904233333333}, {"rental_uris": {"android": "https://dc.lft.to/lastmile_qr_scan", "ios": "https://dc.lft.to/lastmile_qr_scan"}, "is_reserved": 0, "is_disabled": 0, "bike_id": "8a039573ae6704b7d5d11fd049ed3a7f", "lat": 38.945677333333336, "name": "8a039573ae6704b7d5d11fd049ed3a7f", "fusion_lon": 0.0, "fusion_lat": 0.0, "type": "electric_bike", "lon": -76.96689233333333}, {"rental_uris": {"android": "https://dc.lft.to/lastmile_qr_scan", "ios": "https://dc.lft.to/lastmile_qr_scan"}, "is_reserved": 0, "is_disabled": 0, "bike_id": "3a7779f0d0751dcb4a8bafeddaaacab7", "lat": 38.906931, "name": "3a7779f0d0751dcb4a8bafeddaaacab7", "fusion_lon": 0.0, "fusion_lat": 0.0, "type": "electric_scooter", "lon": -77.03758933333333}, {"rental_uris": {"android": "https://dc.lft.to/lastmile_qr_scan", "ios": "https://dc.lft.to/lastmile_qr_scan"}, "is_reserved": 0, "is_disabled": 0, "bike_id": "54ad79bbfdf0918508be49a2ba50e453", "lat": 38.89903866666667, "name": "54ad79bbfdf0918508be49a2ba50e453", "fusion_lon": 0.0, "fusion_lat": 0.0, "type": "electric_scooter", "lon": -77.00895733333333}, {"rental_uris": {"android": "https://dc.lft.to/lastmile_qr_scan", "ios": "https://dc.lft.to/lastmile_qr_scan"}, "is_reserved": 0, "is_disabled": 0, "bike_id": "392c8c22b4153982c525c57b5437679e", "lat": 38.9281595, "name": "392c8c22b4153982c525c57b5437679e", "fusion_lon": 0.0, "fusion_lat": 0.0, "type": "electric_scooter", "lon": -77.03589316666667}, {"rental_uris": {"android": "https://dc.lft.to/lastmile_qr_scan", "ios": "https://dc.lft.to/lastmile_qr_scan"}, "is_reserved": 0, "is_disabled": 0, "bike_id": "72a1b4e3a8eb8240c3d05f019f72b35f", "lat": 38.8919355, "name": "72a1b4e3a8eb8240c3d05f019f72b35f", "fusion_lon": 0.0, "fusion_lat": 0.0, "type": "electric_scooter", "lon": -76.99382316666667}, {"rental_uris": {"android": "https://dc.lft.to/lastmile_qr_scan", "ios": "https://dc.lft.to/lastmile_qr_scan"}, "is_reserved": 0, "is_disabled": 0, "bike_id": "71858daa9752fdf17bc8faef7374747b", "lat": 38.876639, "name": "71858daa9752fdf17bc8faef7374747b", "fusion_lon": 0.0, "fusion_lat": 0.0, "type": "electric_scooter", "lon": -77.00451916666667}, {"rental_uris": {"android": "https://dc.lft.to/lastmile_qr_scan", "ios": "https://dc.lft.to/lastmile_qr_scan"}, "is_reserved": 0, "is_disabled": 0, "bike_id": "e32ff3a133c78816a6e62d440c9e3e42", "lat": 38.892191, "name": "e32ff3a133c78816a6e62d440c9e3e42", "fusion_lon": 0.0, "fusion_lat": 0.0, "type": "electric_scooter", "lon": -77.02234966666667}, {"rental_uris": {"android": "https://dc.lft.to/lastmile_qr_scan", "ios": "https://dc.lft.to/lastmile_qr_scan"}, "is_reserved": 0, "is_disabled": 0, "bike_id": "a47a963426cc0f1b10f88712bf4c48f6", "lat": 38.904367, "name": "a47a963426cc0f1b10f88712bf4c48f6", "fusion_lon": 0.0, "fusion_lat": 0.0, "type": "electric_scooter", "lon": -77.03415733333334}, {"rental_uris": {"android": "https://dc.lft.to/lastmile_qr_scan", "ios": "https://dc.lft.to/lastmile_qr_scan"}, "is_reserved": 0, "is_disabled": 0, "bike_id": "dd224ccacb0861156ab1299b50d0cb5a", "lat": 38.8951055, "name": "dd224ccacb0861156ab1299b50d0cb5a", "fusion_lon": 0.0, "fusion_lat": 0.0, "type": "electric_scooter", "lon": -76.948896}, {"rental_uris": {"android": "https://dc.lft.to/lastmile_qr_scan", "ios": "https://dc.lft.to/lastmile_qr_scan"}, "is_reserved": 0, "is_disabled": 0, "bike_id": "4422fe6b4445adc757511625ef18b9a1", "lat": 38.87659083333333, "name": "4422fe6b4445adc757511625ef18b9a1", "fusion_lon": 0.0, "fusion_lat": 0.0, "type": "electric_scooter", "lon": -77.00879433333333}, {"rental_uris": {"android": "https://dc.lft.to/lastmile_qr_scan", "ios": "https://dc.lft.to/lastmile_qr_scan"}, "is_reserved": 0, "is_disabled": 0, "bike_id": "1b8e43b290769bb66771bef0e184ff8d", "lat": 38.90628933333333, "name": "1b8e43b290769bb66771bef0e184ff8d", "fusion_lon": 0.0, "fusion_lat": 0.0, "type": "electric_scooter", "lon": -76.99860483333333}, {"rental_uris": {"android": "https://dc.lft.to/lastmile_qr_scan", "ios": "https://dc.lft.to/lastmile_qr_scan"}, "is_reserved": 0, "is_disabled": 0, "bike_id": "e5458a98550d7c1968db770031a88720", "lat": 38.867012833333334, "name": "e5458a98550d7c1968db770031a88720", "fusion_lon": 0.0, "fusion_lat": 0.0, "type": "electric_scooter", "lon": -76.98594216666666}, {"rental_uris": {"android": "https://dc.lft.to/lastmile_qr_scan", "ios": "https://dc.lft.to/lastmile_qr_scan"}, "is_reserved": 0, "is_disabled": 0, "bike_id": "9040019c992cf7300bb47bdd576e6f10", "lat": 38.921889166666666, "name": "9040019c992cf7300bb47bdd576e6f10", "fusion_lon": 0.0, "fusion_lat": 0.0, "type": "electric_scooter", "lon": -77.043243}, {"rental_uris": {"android": "https://dc.lft.to/lastmile_qr_scan", "ios": "https://dc.lft.to/lastmile_qr_scan"}, "is_reserved": 0, "is_disabled": 0, "bike_id": "af9a02bb8c21103d6e701a70ee792875", "lat": 38.892219, "name": "af9a02bb8c21103d6e701a70ee792875", "fusion_lon": 0.0, "fusion_lat": 0.0, "type": "electric_scooter", "lon": -77.01488283333333}, {"rental_uris": {"android": "https://dc.lft.to/lastmile_qr_scan", "ios": "https://dc.lft.to/lastmile_qr_scan"}, "is_reserved": 0, "is_disabled": 0, "bike_id": "a035ed4b92cca72d208338fccafc1383", "lat": 38.896216833333334, "name": "a035ed4b92cca72d208338fccafc1383", "fusion_lon": 0.0, "fusion_lat": 0.0, "type": "electric_scooter", "lon": -77.03172983333333}, {"rental_uris": {"android": "https://dc.lft.to/lastmile_qr_scan", "ios": "https://dc.lft.to/lastmile_qr_scan"}, "is_reserved": 0, "is_disabled": 0, "bike_id": "b17413c5504420863fea1e9f7ebbe838", "lat": 38.92148566666667, "name": "b17413c5504420863fea1e9f7ebbe838", "fusion_lon": 0.0, "fusion_lat": 0.0, "type": "electric_scooter", "lon": -77.03506683333333}, {"rental_uris": {"android": "https://dc.lft.to/lastmile_qr_scan", "ios": "https://dc.lft.to/lastmile_qr_scan"}, "is_reserved": 0, "is_disabled": 0, "bike_id": "b5a0fe518662ce06a2624b3b4efc1093", "lat": 38.928416666666664, "name": "b5a0fe518662ce06a2624b3b4efc1093", "fusion_lon": 0.0, "fusion_lat": 0.0, "type": "electric_scooter", "lon": -77.05426233333333}, {"rental_uris": {"android": "https://dc.lft.to/lastmile_qr_scan", "ios": "https://dc.lft.to/lastmile_qr_scan"}, "is_reserved": 0, "is_disabled": 0, "bike_id": "5e490f03af0cab11cba36af219075c62", "lat": 38.9201785, "name": "5e490f03af0cab11cba36af219075c62", "fusion_lon": 0.0, "fusion_lat": 0.0, "type": "electric_scooter", "lon": -77.03138016666666}, {"rental_uris": {"android": "https://dc.lft.to/lastmile_qr_scan", "ios": "https://dc.lft.to/lastmile_qr_scan"}, "is_reserved": 0, "is_disabled": 0, "bike_id": "ef43eeb5c06491ca06e2067cb631cfd2", "lat": 38.90478183333333, "name": "ef43eeb5c06491ca06e2067cb631cfd2", "fusion_lon": 0.0, "fusion_lat": 0.0, "type": "electric_bike", "lon": -76.9732365}, {"rental_uris": {"android": "https://dc.lft.to/lastmile_qr_scan", "ios": "https://dc.lft.to/lastmile_qr_scan"}, "is_reserved": 0, "is_disabled": 0, "bike_id": "e150334b71ef8b104958e2add85dd13e", "lat": 38.90562216666667, "name": "e150334b71ef8b104958e2add85dd13e", "fusion_lon": 0.0, "fusion_lat": 0.0, "type": "electric_scooter", "lon": -77.00581466666667}, {"rental_uris": {"android": "https://dc.lft.to/lastmile_qr_scan", "ios": "https://dc.lft.to/lastmile_qr_scan"}, "is_reserved": 0, "is_disabled": 0, "bike_id": "6949c0ea77b8024f78284c048f7d4f94", "lat": 38.93176783333333, "name": "6949c0ea77b8024f78284c048f7d4f94", "fusion_lon": 0.0, "fusion_lat": 0.0, "type": "electric_scooter", "lon": -77.02817633333333}, {"rental_uris": {"android": "https://dc.lft.to/lastmile_qr_scan", "ios": "https://dc.lft.to/lastmile_qr_scan"}, "is_reserved": 0, "is_disabled": 0, "bike_id": "0c911998670a7c1e9c602a297e92fdce", "lat": 38.90013866666666, "name": "0c911998670a7c1e9c602a297e92fdce", "fusion_lon": 0.0, "fusion_lat": 0.0, "type": "electric_scooter", "lon": -76.930325}, {"rental_uris": {"android": "https://dc.lft.to/lastmile_qr_scan", "ios": "https://dc.lft.to/lastmile_qr_scan"}, "is_reserved": 0, "is_disabled": 0, "bike_id": "fb26feeff5f8e6809cdacec225949e52", "lat": 38.921593666666666, "name": "fb26feeff5f8e6809cdacec225949e52", "fusion_lon": 0.0, "fusion_lat": 0.0, "type": "electric_scooter", "lon": -77.03507583333334}, {"rental_uris": {"android": "https://dc.lft.to/lastmile_qr_scan", "ios": "https://dc.lft.to/lastmile_qr_scan"}, "is_reserved": 0, "is_disabled": 0, "bike_id": "edeeeaf6e5bbf503ce9f8fb98cdd8186", "lat": 38.90013183333333, "name": "edeeeaf6e5bbf503ce9f8fb98cdd8186", "fusion_lon": 0.0, "fusion_lat": 0.0, "type": "electric_scooter", "lon": -77.012741}, {"rental_uris": {"android": "https://dc.lft.to/lastmile_qr_scan", "ios": "https://dc.lft.to/lastmile_qr_scan"}, "is_reserved": 0, "is_disabled": 0, "bike_id": "60a16306342995b256c87d3b7bcafeeb", "lat": 38.908212166666665, "name": "60a16306342995b256c87d3b7bcafeeb", "fusion_lon": 0.0, "fusion_lat": 0.0, "type": "electric_scooter", "lon": -77.031954}, {"rental_uris": {"android": "https://dc.lft.to/lastmile_qr_scan", "ios": "https://dc.lft.to/lastmile_qr_scan"}, "is_reserved": 0, "is_disabled": 0, "bike_id": "73bf408c5d249cbf58d498a222078157", "lat": 38.91414116666667, "name": "73bf408c5d249cbf58d498a222078157", "fusion_lon": 0.0, "fusion_lat": 0.0, "type": "electric_scooter", "lon": -77.03994166666666}, {"rental_uris": {"android": "https://dc.lft.to/lastmile_qr_scan", "ios": "https://dc.lft.to/lastmile_qr_scan"}, "is_reserved": 0, "is_disabled": 0, "bike_id": "a62bacc0fc305caa33837a15f4fe3cec", "lat": 38.918286333333334, "name": "a62bacc0fc305caa33837a15f4fe3cec", "fusion_lon": 0.0, "fusion_lat": 0.0, "type": "electric_scooter", "lon": -77.02419183333333}, {"rental_uris": {"android": "https://dc.lft.to/lastmile_qr_scan", "ios": "https://dc.lft.to/lastmile_qr_scan"}, "is_reserved": 0, "is_disabled": 0, "bike_id": "10eeb446908226da85275216af13c32d", "lat": 38.89986316666667, "name": "10eeb446908226da85275216af13c32d", "fusion_lon": 0.0, "fusion_lat": 0.0, "type": "electric_scooter", "lon": -77.02726416666667}, {"rental_uris": {"android": "https://dc.lft.to/lastmile_qr_scan", "ios": "https://dc.lft.to/lastmile_qr_scan"}, "is_reserved": 0, "is_disabled": 0, "bike_id": "15ceca06107c0c1f4925938c1cc9839f", "lat": 38.902099, "name": "15ceca06107c0c1f4925938c1cc9839f", "fusion_lon": 0.0, "fusion_lat": 0.0, "type": "electric_scooter", "lon": -76.988466}, {"rental_uris": {"android": "https://dc.lft.to/lastmile_qr_scan", "ios": "https://dc.lft.to/lastmile_qr_scan"}, "is_reserved": 0, "is_disabled": 0, "bike_id": "8d77e5a21dc53ba83b796c110d63a1ba", "lat": 38.90392, "name": "8d77e5a21dc53ba83b796c110d63a1ba", "fusion_lon": 0.0, "fusion_lat": 0.0, "type": "electric_scooter", "lon": -77.04331883333333}, {"rental_uris": {"android": "https://dc.lft.to/lastmile_qr_scan", "ios": "https://dc.lft.to/lastmile_qr_scan"}, "is_reserved": 0, "is_disabled": 0, "bike_id": "b541182f310f2fb681968326a4577890", "lat": 38.911098, "name": "b541182f310f2fb681968326a4577890", "fusion_lon": 0.0, "fusion_lat": 0.0, "type": "electric_scooter", "lon": -77.03307766666667}, {"rental_uris": {"android": "https://dc.lft.to/lastmile_qr_scan", "ios": "https://dc.lft.to/lastmile_qr_scan"}, "is_reserved": 0, "is_disabled": 0, "bike_id": "2ae1605e081b169076a0f949711f2b3e", "lat": 38.886884, "name": "2ae1605e081b169076a0f949711f2b3e", "fusion_lon": 0.0, "fusion_lat": 0.0, "type": "electric_scooter", "lon": -76.954698}, {"rental_uris": {"android": "https://dc.lft.to/lastmile_qr_scan", "ios": "https://dc.lft.to/lastmile_qr_scan"}, "is_reserved": 0, "is_disabled": 0, "bike_id": "914fefaa26cd051c598b424de5a7ce19", "lat": 38.93464433333333, "name": "914fefaa26cd051c598b424de5a7ce19", "fusion_lon": 0.0, "fusion_lat": 0.0, "type": "electric_scooter", "lon": -77.07239966666667}, {"rental_uris": {"android": "https://dc.lft.to/lastmile_qr_scan", "ios": "https://dc.lft.to/lastmile_qr_scan"}, "is_reserved": 0, "is_disabled": 0, "bike_id": "4eca5ae448e12ac4d5691d97b4356494", "lat": 38.93082733333333, "name": "4eca5ae448e12ac4d5691d97b4356494", "fusion_lon": 0.0, "fusion_lat": 0.0, "type": "electric_scooter", "lon": -77.03712283333333}, {"rental_uris": {"android": "https://dc.lft.to/lastmile_qr_scan", "ios": "https://dc.lft.to/lastmile_qr_scan"}, "is_reserved": 0, "is_disabled": 0, "bike_id": "53121ac5bbe6a3c2eec15d66d8bdc6bd", "lat": 38.9014555, "name": "53121ac5bbe6a3c2eec15d66d8bdc6bd", "fusion_lon": 0.0, "fusion_lat": 0.0, "type": "electric_scooter", "lon": -77.0395975}, {"rental_uris": {"android": "https://dc.lft.to/lastmile_qr_scan", "ios": "https://dc.lft.to/lastmile_qr_scan"}, "is_reserved": 0, "is_disabled": 0, "bike_id": "9c128adf90dd815e779ebd74f1f51b88", "lat": 38.918194, "name": "9c128adf90dd815e779ebd74f1f51b88", "fusion_lon": 0.0, "fusion_lat": 0.0, "type": "electric_scooter", "lon": -77.02706883333333}, {"rental_uris": {"android": "https://dc.lft.to/lastmile_qr_scan", "ios": "https://dc.lft.to/lastmile_qr_scan"}, "is_reserved": 0, "is_disabled": 0, "bike_id": "f5ad715b2f1aca4d48f34919ffcea2f8", "lat": 38.934752333333336, "name": "f5ad715b2f1aca4d48f34919ffcea2f8", "fusion_lon": 0.0, "fusion_lat": 0.0, "type": "electric_scooter", "lon": -77.07267516666667}, {"rental_uris": {"android": "https://dc.lft.to/lastmile_qr_scan", "ios": "https://dc.lft.to/lastmile_qr_scan"}, "is_reserved": 0, "is_disabled": 0, "bike_id": "8ffd5b53a10d90d7c8e238f253cadaa9", "lat": 38.9155325, "name": "8ffd5b53a10d90d7c8e238f253cadaa9", "fusion_lon": 0.0, "fusion_lat": 0.0, "type": "electric_scooter", "lon": -77.03855433333334}, {"rental_uris": {"android": "https://dc.lft.to/lastmile_qr_scan", "ios": "https://dc.lft.to/lastmile_qr_scan"}, "is_reserved": 0, "is_disabled": 0, "bike_id": "8e597a8a3df106592f4f157d08870425", "lat": 38.884249833333335, "name": "8e597a8a3df106592f4f157d08870425", "fusion_lon": 0.0, "fusion_lat": 0.0, "type": "electric_scooter", "lon": -77.02919683333333}, {"rental_uris": {"android": "https://dc.lft.to/lastmile_qr_scan", "ios": "https://dc.lft.to/lastmile_qr_scan"}, "is_reserved": 0, "is_disabled": 0, "bike_id": "a495614aa65d5d5fb5bc87e37db15608", "lat": 38.89775, "name": "a495614aa65d5d5fb5bc87e37db15608", "fusion_lon": 0.0, "fusion_lat": 0.0, "type": "electric_scooter", "lon": -77.00946916666666}, {"rental_uris": {"android": "https://dc.lft.to/lastmile_qr_scan", "ios": "https://dc.lft.to/lastmile_qr_scan"}, "is_reserved": 0, "is_disabled": 0, "bike_id": "8b68fa2e55e03b9cfe1026eb8f5e224b", "lat": 38.939691, "name": "8b68fa2e55e03b9cfe1026eb8f5e224b", "fusion_lon": 0.0, "fusion_lat": 0.0, "type": "electric_scooter", "lon": -77.03260833333333}, {"rental_uris": {"android": "https://dc.lft.to/lastmile_qr_scan", "ios": "https://dc.lft.to/lastmile_qr_scan"}, "is_reserved": 0, "is_disabled": 0, "bike_id": "623d987927ff3aee7a65158c505e6a77", "lat": 38.921303333333334, "name": "623d987927ff3aee7a65158c505e6a77", "fusion_lon": 0.0, "fusion_lat": 0.0, "type": "electric_scooter", "lon": -77.04576583333333}, {"rental_uris": {"android": "https://dc.lft.to/lastmile_qr_scan", "ios": "https://dc.lft.to/lastmile_qr_scan"}, "is_reserved": 0, "is_disabled": 0, "bike_id": "5128067b84fd82b47bb088452e1991c5", "lat": 38.9182045, "name": "5128067b84fd82b47bb088452e1991c5", "fusion_lon": 0.0, "fusion_lat": 0.0, "type": "electric_scooter", "lon": -77.02706833333333}, {"rental_uris": {"android": "https://dc.lft.to/lastmile_qr_scan", "ios": "https://dc.lft.to/lastmile_qr_scan"}, "is_reserved": 0, "is_disabled": 0, "bike_id": "fb8aeccea72971ca4ded7aeda1f0dea9", "lat": 38.909699833333335, "name": "fb8aeccea72971ca4ded7aeda1f0dea9", "fusion_lon": 0.0, "fusion_lat": 0.0, "type": "electric_scooter", "lon": -77.03216666666667}, {"rental_uris": {"android": "https://dc.lft.to/lastmile_qr_scan", "ios": "https://dc.lft.to/lastmile_qr_scan"}, "is_reserved": 0, "is_disabled": 0, "bike_id": "48f447eba5a4496d2d1af3305dd8bb1f", "lat": 38.909627, "name": "48f447eba5a4496d2d1af3305dd8bb1f", "fusion_lon": 0.0, "fusion_lat": 0.0, "type": "electric_scooter", "lon": -77.03424283333334}, {"rental_uris": {"android": "https://dc.lft.to/lastmile_qr_scan", "ios": "https://dc.lft.to/lastmile_qr_scan"}, "is_reserved": 0, "is_disabled": 0, "bike_id": "7b847e0739384aadf15e0b268cc793f2", "lat": 38.90685933333334, "name": "7b847e0739384aadf15e0b268cc793f2", "fusion_lon": 0.0, "fusion_lat": 0.0, "type": "electric_scooter", "lon": -77.01013783333333}, {"rental_uris": {"android": "https://dc.lft.to/lastmile_qr_scan", "ios": "https://dc.lft.to/lastmile_qr_scan"}, "is_reserved": 0, "is_disabled": 0, "bike_id": "a5d2547b305fbcc7c7fe0929da79258b", "lat": 38.8719715, "name": "a5d2547b305fbcc7c7fe0929da79258b", "fusion_lon": 0.0, "fusion_lat": 0.0, "type": "electric_scooter", "lon": -76.97864216666666}, {"rental_uris": {"android": "https://dc.lft.to/lastmile_qr_scan", "ios": "https://dc.lft.to/lastmile_qr_scan"}, "is_reserved": 0, "is_disabled": 0, "bike_id": "f737e02d31e47575c18a67682af6018f", "lat": 38.91064733333333, "name": "f737e02d31e47575c18a67682af6018f", "fusion_lon": 0.0, "fusion_lat": 0.0, "type": "electric_scooter", "lon": -77.03087633333334}, {"rental_uris": {"android": "https://dc.lft.to/lastmile_qr_scan", "ios": "https://dc.lft.to/lastmile_qr_scan"}, "is_reserved": 0, "is_disabled": 0, "bike_id": "e5feda639051ddf0c29e0f60bb969e97", "lat": 38.9326525, "name": "e5feda639051ddf0c29e0f60bb969e97", "fusion_lon": 0.0, "fusion_lat": 0.0, "type": "electric_scooter", "lon": -77.02092166666667}, {"rental_uris": {"android": "https://dc.lft.to/lastmile_qr_scan", "ios": "https://dc.lft.to/lastmile_qr_scan"}, "is_reserved": 0, "is_disabled": 0, "bike_id": "e729e757ae908b7a1d21cb7476084a07", "lat": 38.93548833333333, "name": "e729e757ae908b7a1d21cb7476084a07", "fusion_lon": 0.0, "fusion_lat": 0.0, "type": "electric_scooter", "lon": -77.02221833333333}, {"rental_uris": {"android": "https://dc.lft.to/lastmile_qr_scan", "ios": "https://dc.lft.to/lastmile_qr_scan"}, "is_reserved": 0, "is_disabled": 0, "bike_id": "9d2811c7022fbb196f76693a7dc050c5", "lat": 38.894917666666665, "name": "9d2811c7022fbb196f76693a7dc050c5", "fusion_lon": 0.0, "fusion_lat": 0.0, "type": "electric_scooter", "lon": -77.02320683333333}, {"rental_uris": {"android": "https://dc.lft.to/lastmile_qr_scan", "ios": "https://dc.lft.to/lastmile_qr_scan"}, "is_reserved": 0, "is_disabled": 0, "bike_id": "0981c0847b563c2aa50b92bc8508ac39", "lat": 38.82922683333334, "name": "0981c0847b563c2aa50b92bc8508ac39", "fusion_lon": 0.0, "fusion_lat": 0.0, "type": "electric_bike", "lon": -76.99789933333334}, {"rental_uris": {"android": "https://dc.lft.to/lastmile_qr_scan", "ios": "https://dc.lft.to/lastmile_qr_scan"}, "is_reserved": 0, "is_disabled": 0, "bike_id": "856b9132da7788673288c4f3f446ddef", "lat": 38.936855666666666, "name": "856b9132da7788673288c4f3f446ddef", "fusion_lon": 0.0, "fusion_lat": 0.0, "type": "electric_scooter", "lon": -77.036021}, {"rental_uris": {"android": "https://dc.lft.to/lastmile_qr_scan", "ios": "https://dc.lft.to/lastmile_qr_scan"}, "is_reserved": 0, "is_disabled": 0, "bike_id": "ec0ef64339d7e885ddd2c7cb5ce27ca8", "lat": 38.91711816666667, "name": "ec0ef64339d7e885ddd2c7cb5ce27ca8", "fusion_lon": 0.0, "fusion_lat": 0.0, "type": "electric_scooter", "lon": -77.03334083333333}, {"rental_uris": {"android": "https://dc.lft.to/lastmile_qr_scan", "ios": "https://dc.lft.to/lastmile_qr_scan"}, "is_reserved": 0, "is_disabled": 0, "bike_id": "33654e5523f839c9a34ee54a3f26b322", "lat": 38.8859265, "name": "33654e5523f839c9a34ee54a3f26b322", "fusion_lon": 0.0, "fusion_lat": 0.0, "type": "electric_scooter", "lon": -77.02164933333333}, {"rental_uris": {"android": "https://dc.lft.to/lastmile_qr_scan", "ios": "https://dc.lft.to/lastmile_qr_scan"}, "is_reserved": 0, "is_disabled": 0, "bike_id": "fa8b354082dc5c5ea72dfcaa13bb4c4a", "lat": 38.941697833333336, "name": "fa8b354082dc5c5ea72dfcaa13bb4c4a", "fusion_lon": 0.0, "fusion_lat": 0.0, "type": "electric_scooter", "lon": -77.025378}, {"rental_uris": {"android": "https://dc.lft.to/lastmile_qr_scan", "ios": "https://dc.lft.to/lastmile_qr_scan"}, "is_reserved": 0, "is_disabled": 0, "bike_id": "7129d53e4efca9ce35cd54608862ef76", "lat": 38.965779166666664, "name": "7129d53e4efca9ce35cd54608862ef76", "fusion_lon": 0.0, "fusion_lat": 0.0, "type": "electric_bike", "lon": -77.07619833333334}, {"rental_uris": {"android": "https://dc.lft.to/lastmile_qr_scan", "ios": "https://dc.lft.to/lastmile_qr_scan"}, "is_reserved": 0, "is_disabled": 0, "bike_id": "f7a82ded0606911396e713746b2d325f", "lat": 38.92529966666667, "name": "f7a82ded0606911396e713746b2d325f", "fusion_lon": 0.0, "fusion_lat": 0.0, "type": "electric_scooter", "lon": -77.0513505}, {"rental_uris": {"android": "https://dc.lft.to/lastmile_qr_scan", "ios": "https://dc.lft.to/lastmile_qr_scan"}, "is_reserved": 0, "is_disabled": 0, "bike_id": "e5de9ba7985ce426301b7c5284772604", "lat": 38.893707166666665, "name": "e5de9ba7985ce426301b7c5284772604", "fusion_lon": 0.0, "fusion_lat": 0.0, "type": "electric_scooter", "lon": -76.94995216666666}, {"rental_uris": {"android": "https://dc.lft.to/lastmile_qr_scan", "ios": "https://dc.lft.to/lastmile_qr_scan"}, "is_reserved": 0, "is_disabled": 0, "bike_id": "e0ee6bcb043136104c8c433c10e4b1e7", "lat": 38.917354, "name": "e0ee6bcb043136104c8c433c10e4b1e7", "fusion_lon": 0.0, "fusion_lat": 0.0, "type": "electric_scooter", "lon": -77.02402616666667}, {"rental_uris": {"android": "https://dc.lft.to/lastmile_qr_scan", "ios": "https://dc.lft.to/lastmile_qr_scan"}, "is_reserved": 0, "is_disabled": 0, "bike_id": "edff1ca8cee401b87ad5d7cdd7951b38", "lat": 38.92584033333333, "name": "edff1ca8cee401b87ad5d7cdd7951b38", "fusion_lon": 0.0, "fusion_lat": 0.0, "type": "electric_scooter", "lon": -77.03224816666666}, {"rental_uris": {"android": "https://dc.lft.to/lastmile_qr_scan", "ios": "https://dc.lft.to/lastmile_qr_scan"}, "is_reserved": 0, "is_disabled": 0, "bike_id": "7721ff3316acbf19dc77527f006fe959", "lat": 38.867470833333336, "name": "7721ff3316acbf19dc77527f006fe959", "fusion_lon": 0.0, "fusion_lat": 0.0, "type": "electric_bike", "lon": -77.11711266666667}, {"rental_uris": {"android": "https://dc.lft.to/lastmile_qr_scan", "ios": "https://dc.lft.to/lastmile_qr_scan"}, "is_reserved": 0, "is_disabled": 0, "bike_id": "0fe0da2f7f96ddd23517e146b2f2e30c", "lat": 38.922860166666666, "name": "0fe0da2f7f96ddd23517e146b2f2e30c", "fusion_lon": 0.0, "fusion_lat": 0.0, "type": "electric_scooter", "lon": -77.02970433333333}, {"rental_uris": {"android": "https://dc.lft.to/lastmile_qr_scan", "ios": "https://dc.lft.to/lastmile_qr_scan"}, "is_reserved": 0, "is_disabled": 0, "bike_id": "41dbd064fae535fd78f80bbc34bc71b8", "lat": 38.90631333333333, "name": "41dbd064fae535fd78f80bbc34bc71b8", "fusion_lon": 0.0, "fusion_lat": 0.0, "type": "electric_scooter", "lon": -77.00554366666667}, {"rental_uris": {"android": "https://dc.lft.to/lastmile_qr_scan", "ios": "https://dc.lft.to/lastmile_qr_scan"}, "is_reserved": 0, "is_disabled": 0, "bike_id": "1c13fabaa72e252ca0472589f65a4f86", "lat": 38.901408, "name": "1c13fabaa72e252ca0472589f65a4f86", "fusion_lon": 0.0, "fusion_lat": 0.0, "type": "electric_scooter", "lon": -77.04150083333333}, {"rental_uris": {"android": "https://dc.lft.to/lastmile_qr_scan", "ios": "https://dc.lft.to/lastmile_qr_scan"}, "is_reserved": 0, "is_disabled": 0, "bike_id": "7e3f159eedd895be5775dbd4ca6401b3", "lat": 38.89954266666667, "name": "7e3f159eedd895be5775dbd4ca6401b3", "fusion_lon": 0.0, "fusion_lat": 0.0, "type": "electric_scooter", "lon": -77.04502533333333}, {"rental_uris": {"android": "https://dc.lft.to/lastmile_qr_scan", "ios": "https://dc.lft.to/lastmile_qr_scan"}, "is_reserved": 0, "is_disabled": 0, "bike_id": "b029d738ed805bc9701a8cb79d26fdee", "lat": 38.893678666666666, "name": "b029d738ed805bc9701a8cb79d26fdee", "fusion_lon": 0.0, "fusion_lat": 0.0, "type": "electric_scooter", "lon": -76.9482175}, {"rental_uris": {"android": "https://dc.lft.to/lastmile_qr_scan", "ios": "https://dc.lft.to/lastmile_qr_scan"}, "is_reserved": 0, "is_disabled": 0, "bike_id": "f42bf13b55f99542cf81811975408def", "lat": 38.914474166666665, "name": "f42bf13b55f99542cf81811975408def", "fusion_lon": 0.0, "fusion_lat": 0.0, "type": "electric_scooter", "lon": -77.01223433333334}, {"rental_uris": {"android": "https://dc.lft.to/lastmile_qr_scan", "ios": "https://dc.lft.to/lastmile_qr_scan"}, "is_reserved": 0, "is_disabled": 0, "bike_id": "fc2e039e3ee7c4ea85f68481b3d38a43", "lat": 38.905129333333335, "name": "fc2e039e3ee7c4ea85f68481b3d38a43", "fusion_lon": 0.0, "fusion_lat": 0.0, "type": "electric_scooter", "lon": -77.068875}, {"rental_uris": {"android": "https://dc.lft.to/lastmile_qr_scan", "ios": "https://dc.lft.to/lastmile_qr_scan"}, "is_reserved": 0, "is_disabled": 0, "bike_id": "c98b6a78701ee60603d86ec591f468b1", "lat": 38.89728816666667, "name": "c98b6a78701ee60603d86ec591f468b1", "fusion_lon": 0.0, "fusion_lat": 0.0, "type": "electric_scooter", "lon": -77.021523}, {"rental_uris": {"android": "https://dc.lft.to/lastmile_qr_scan", "ios": "https://dc.lft.to/lastmile_qr_scan"}, "is_reserved": 0, "is_disabled": 0, "bike_id": "2aff1ffe17f7fc773d648f31848a4063", "lat": 38.92085, "name": "2aff1ffe17f7fc773d648f31848a4063", "fusion_lon": 0.0, "fusion_lat": 0.0, "type": "electric_scooter", "lon": -77.0314985}, {"rental_uris": {"android": "https://dc.lft.to/lastmile_qr_scan", "ios": "https://dc.lft.to/lastmile_qr_scan"}, "is_reserved": 0, "is_disabled": 0, "bike_id": "4c4df864d3e04ad00db2abfd409e2df7", "lat": 38.928003, "name": "4c4df864d3e04ad00db2abfd409e2df7", "fusion_lon": 0.0, "fusion_lat": 0.0, "type": "electric_scooter", "lon": -77.03975266666667}, {"rental_uris": {"android": "https://dc.lft.to/lastmile_qr_scan", "ios": "https://dc.lft.to/lastmile_qr_scan"}, "is_reserved": 0, "is_disabled": 0, "bike_id": "266b9e46e7bcb162ae84ad1f8e521692", "lat": 38.875349, "name": "266b9e46e7bcb162ae84ad1f8e521692", "fusion_lon": 0.0, "fusion_lat": 0.0, "type": "electric_scooter", "lon": -77.00509133333334}, {"rental_uris": {"android": "https://dc.lft.to/lastmile_qr_scan", "ios": "https://dc.lft.to/lastmile_qr_scan"}, "is_reserved": 0, "is_disabled": 0, "bike_id": "d7fae8987defea14bb7fe6837171721e", "lat": 38.892273333333335, "name": "d7fae8987defea14bb7fe6837171721e", "fusion_lon": 0.0, "fusion_lat": 0.0, "type": "electric_scooter", "lon": -77.05004733333334}, {"rental_uris": {"android": "https://dc.lft.to/lastmile_qr_scan", "ios": "https://dc.lft.to/lastmile_qr_scan"}, "is_reserved": 0, "is_disabled": 0, "bike_id": "6ffbf99a2d6e6ae00c3467ea27b710c8", "lat": 38.91394, "name": "6ffbf99a2d6e6ae00c3467ea27b710c8", "fusion_lon": 0.0, "fusion_lat": 0.0, "type": "electric_scooter", "lon": -77.04335383333333}, {"rental_uris": {"android": "https://dc.lft.to/lastmile_qr_scan", "ios": "https://dc.lft.to/lastmile_qr_scan"}, "is_reserved": 0, "is_disabled": 0, "bike_id": "c09b83b6c5da9f42f8b34d367cec543a", "lat": 38.872742833333334, "name": "c09b83b6c5da9f42f8b34d367cec543a", "fusion_lon": 0.0, "fusion_lat": 0.0, "type": "electric_bike", "lon": -77.2332465}, {"rental_uris": {"android": "https://dc.lft.to/lastmile_qr_scan", "ios": "https://dc.lft.to/lastmile_qr_scan"}, "is_reserved": 0, "is_disabled": 0, "bike_id": "0270663936c57f3a260429f36e9575a9", "lat": 38.866562, "name": "0270663936c57f3a260429f36e9575a9", "fusion_lon": 0.0, "fusion_lat": 0.0, "type": "electric_scooter", "lon": -76.98878666666667}, {"rental_uris": {"android": "https://dc.lft.to/lastmile_qr_scan", "ios": "https://dc.lft.to/lastmile_qr_scan"}, "is_reserved": 0, "is_disabled": 0, "bike_id": "fd9056b907deff77aee8ab36c0a4aedb", "lat": 38.9568695, "name": "fd9056b907deff77aee8ab36c0a4aedb", "fusion_lon": 0.0, "fusion_lat": 0.0, "type": "electric_scooter", "lon": -77.02404733333333}, {"rental_uris": {"android": "https://dc.lft.to/lastmile_qr_scan", "ios": "https://dc.lft.to/lastmile_qr_scan"}, "is_reserved": 0, "is_disabled": 0, "bike_id": "d0b223e267536908f91e78bd6696215e", "lat": 38.8922085, "name": "d0b223e267536908f91e78bd6696215e", "fusion_lon": 0.0, "fusion_lat": 0.0, "type": "electric_scooter", "lon": -77.04470683333334}, {"rental_uris": {"android": "https://dc.lft.to/lastmile_qr_scan", "ios": "https://dc.lft.to/lastmile_qr_scan"}, "is_reserved": 0, "is_disabled": 0, "bike_id": "ca53de71915564a17bf5ef5ab6cc894e", "lat": 38.8873435, "name": "ca53de71915564a17bf5ef5ab6cc894e", "fusion_lon": 0.0, "fusion_lat": 0.0, "type": "electric_scooter", "lon": -77.02587283333334}, {"rental_uris": {"android": "https://dc.lft.to/lastmile_qr_scan", "ios": "https://dc.lft.to/lastmile_qr_scan"}, "is_reserved": 0, "is_disabled": 0, "bike_id": "48f4f7681ac036995ce2e9249945dd51", "lat": 38.910473833333334, "name": "48f4f7681ac036995ce2e9249945dd51", "fusion_lon": 0.0, "fusion_lat": 0.0, "type": "electric_scooter", "lon": -77.05389783333334}, {"rental_uris": {"android": "https://dc.lft.to/lastmile_qr_scan", "ios": "https://dc.lft.to/lastmile_qr_scan"}, "is_reserved": 0, "is_disabled": 0, "bike_id": "db2441122889e3637aa1c41738d62b6f", "lat": 38.931446333333334, "name": "db2441122889e3637aa1c41738d62b6f", "fusion_lon": 0.0, "fusion_lat": 0.0, "type": "electric_scooter", "lon": -77.02827016666667}, {"rental_uris": {"android": "https://dc.lft.to/lastmile_qr_scan", "ios": "https://dc.lft.to/lastmile_qr_scan"}, "is_reserved": 0, "is_disabled": 0, "bike_id": "4c8e250e083765e7adbd5b9934ed6363", "lat": 38.91441416666667, "name": "4c8e250e083765e7adbd5b9934ed6363", "fusion_lon": 0.0, "fusion_lat": 0.0, "type": "electric_scooter", "lon": -77.00461}, {"rental_uris": {"android": "https://dc.lft.to/lastmile_qr_scan", "ios": "https://dc.lft.to/lastmile_qr_scan"}, "is_reserved": 0, "is_disabled": 0, "bike_id": "d2f8a35da8a5cdaae8181f60751c01b8", "lat": 38.922096833333335, "name": "d2f8a35da8a5cdaae8181f60751c01b8", "fusion_lon": 0.0, "fusion_lat": 0.0, "type": "electric_scooter", "lon": -77.01954116666667}, {"rental_uris": {"android": "https://dc.lft.to/lastmile_qr_scan", "ios": "https://dc.lft.to/lastmile_qr_scan"}, "is_reserved": 0, "is_disabled": 0, "bike_id": "74159c4681e9ac28be01297175de5035", "lat": 38.913633, "name": "74159c4681e9ac28be01297175de5035", "fusion_lon": 0.0, "fusion_lat": 0.0, "type": "electric_scooter", "lon": -77.01995416666666}, {"rental_uris": {"android": "https://dc.lft.to/lastmile_qr_scan", "ios": "https://dc.lft.to/lastmile_qr_scan"}, "is_reserved": 0, "is_disabled": 0, "bike_id": "7a3e7b71e1621036cc927466b755bac7", "lat": 38.883664, "name": "7a3e7b71e1621036cc927466b755bac7", "fusion_lon": 0.0, "fusion_lat": 0.0, "type": "electric_scooter", "lon": -76.94156716666667}, {"rental_uris": {"android": "https://dc.lft.to/lastmile_qr_scan", "ios": "https://dc.lft.to/lastmile_qr_scan"}, "is_reserved": 0, "is_disabled": 0, "bike_id": "8aed87cc96deb63a78a2127184d7bc4f", "lat": 38.90731783333333, "name": "8aed87cc96deb63a78a2127184d7bc4f", "fusion_lon": 0.0, "fusion_lat": 0.0, "type": "electric_scooter", "lon": -77.0345205}, {"rental_uris": {"android": "https://dc.lft.to/lastmile_qr_scan", "ios": "https://dc.lft.to/lastmile_qr_scan"}, "is_reserved": 0, "is_disabled": 0, "bike_id": "7f505d8eabc53409c6392e4ce6bc057d", "lat": 38.89945816666667, "name": "7f505d8eabc53409c6392e4ce6bc057d", "fusion_lon": 0.0, "fusion_lat": 0.0, "type": "electric_scooter", "lon": -76.98193666666667}, {"rental_uris": {"android": "https://dc.lft.to/lastmile_qr_scan", "ios": "https://dc.lft.to/lastmile_qr_scan"}, "is_reserved": 0, "is_disabled": 0, "bike_id": "032d99a322e603a87dd2f99964524161", "lat": 38.857923166666666, "name": "032d99a322e603a87dd2f99964524161", "fusion_lon": 0.0, "fusion_lat": 0.0, "type": "electric_bike", "lon": -77.099629}, {"rental_uris": {"android": "https://dc.lft.to/lastmile_qr_scan", "ios": "https://dc.lft.to/lastmile_qr_scan"}, "is_reserved": 0, "is_disabled": 0, "bike_id": "0dea6ef7edb7e56ca6d36355c84a3f53", "lat": 38.911915, "name": "0dea6ef7edb7e56ca6d36355c84a3f53", "fusion_lon": 0.0, "fusion_lat": 0.0, "type": "electric_scooter", "lon": -77.03832116666666}, {"rental_uris": {"android": "https://dc.lft.to/lastmile_qr_scan", "ios": "https://dc.lft.to/lastmile_qr_scan"}, "is_reserved": 0, "is_disabled": 0, "bike_id": "fbfd8304df4a5da6a5a6d023d873656a", "lat": 38.92161133333333, "name": "fbfd8304df4a5da6a5a6d023d873656a", "fusion_lon": 0.0, "fusion_lat": 0.0, "type": "electric_scooter", "lon": -77.0333675}, {"rental_uris": {"android": "https://dc.lft.to/lastmile_qr_scan", "ios": "https://dc.lft.to/lastmile_qr_scan"}, "is_reserved": 0, "is_disabled": 0, "bike_id": "b1aa60c19960dcb4aaca6f1e75b6b4f7", "lat": 38.89976216666667, "name": "b1aa60c19960dcb4aaca6f1e75b6b4f7", "fusion_lon": 0.0, "fusion_lat": 0.0, "type": "electric_bike", "lon": -76.986195}, {"rental_uris": {"android": "https://dc.lft.to/lastmile_qr_scan", "ios": "https://dc.lft.to/lastmile_qr_scan"}, "is_reserved": 0, "is_disabled": 0, "bike_id": "e0c5c34cb000be8b062e42bde7719ff2", "lat": 38.9286565, "name": "e0c5c34cb000be8b062e42bde7719ff2", "fusion_lon": 0.0, "fusion_lat": 0.0, "type": "electric_scooter", "lon": -77.03286216666666}, {"rental_uris": {"android": "https://dc.lft.to/lastmile_qr_scan", "ios": "https://dc.lft.to/lastmile_qr_scan"}, "is_reserved": 0, "is_disabled": 0, "bike_id": "2b1e852b6a442b7c335c6d9367b87cb1", "lat": 38.920226, "name": "2b1e852b6a442b7c335c6d9367b87cb1", "fusion_lon": 0.0, "fusion_lat": 0.0, "type": "electric_scooter", "lon": -77.03727066666667}, {"rental_uris": {"android": "https://dc.lft.to/lastmile_qr_scan", "ios": "https://dc.lft.to/lastmile_qr_scan"}, "is_reserved": 0, "is_disabled": 0, "bike_id": "fc3523417ef616c6d335cd00dfc7c63e", "lat": 38.90366616666667, "name": "fc3523417ef616c6d335cd00dfc7c63e", "fusion_lon": 0.0, "fusion_lat": 0.0, "type": "electric_scooter", "lon": -77.00760633333333}, {"rental_uris": {"android": "https://dc.lft.to/lastmile_qr_scan", "ios": "https://dc.lft.to/lastmile_qr_scan"}, "is_reserved": 0, "is_disabled": 0, "bike_id": "65373446e861622469a61fef556222db", "lat": 38.900471, "name": "65373446e861622469a61fef556222db", "fusion_lon": 0.0, "fusion_lat": 0.0, "type": "electric_scooter", "lon": -77.03324566666667}, {"rental_uris": {"android": "https://dc.lft.to/lastmile_qr_scan", "ios": "https://dc.lft.to/lastmile_qr_scan"}, "is_reserved": 0, "is_disabled": 0, "bike_id": "67c92789ebf077b737d6f58a03328a45", "lat": 38.89230933333333, "name": "67c92789ebf077b737d6f58a03328a45", "fusion_lon": 0.0, "fusion_lat": 0.0, "type": "electric_scooter", "lon": -77.04367666666667}, {"rental_uris": {"android": "https://dc.lft.to/lastmile_qr_scan", "ios": "https://dc.lft.to/lastmile_qr_scan"}, "is_reserved": 0, "is_disabled": 0, "bike_id": "f042a39931d942375425a1c717410283", "lat": 38.93498616666667, "name": "f042a39931d942375425a1c717410283", "fusion_lon": 0.0, "fusion_lat": 0.0, "type": "electric_scooter", "lon": -76.9636565}, {"rental_uris": {"android": "https://dc.lft.to/lastmile_qr_scan", "ios": "https://dc.lft.to/lastmile_qr_scan"}, "is_reserved": 0, "is_disabled": 0, "bike_id": "39fa95324e35c8f96b2e9660b43dcc45", "lat": 38.9217555, "name": "39fa95324e35c8f96b2e9660b43dcc45", "fusion_lon": 0.0, "fusion_lat": 0.0, "type": "electric_scooter", "lon": -77.041223}, {"rental_uris": {"android": "https://dc.lft.to/lastmile_qr_scan", "ios": "https://dc.lft.to/lastmile_qr_scan"}, "is_reserved": 0, "is_disabled": 0, "bike_id": "79479d50cf54eae68c14adaea502266f", "lat": 38.93703633333333, "name": "79479d50cf54eae68c14adaea502266f", "fusion_lon": 0.0, "fusion_lat": 0.0, "type": "electric_scooter", "lon": -77.02412616666666}, {"rental_uris": {"android": "https://dc.lft.to/lastmile_qr_scan", "ios": "https://dc.lft.to/lastmile_qr_scan"}, "is_reserved": 0, "is_disabled": 0, "bike_id": "b408c1e5219cdc024f0f272d7700e1ed", "lat": 38.827884166666664, "name": "b408c1e5219cdc024f0f272d7700e1ed", "fusion_lon": 0.0, "fusion_lat": 0.0, "type": "electric_bike", "lon": -77.009176}, {"rental_uris": {"android": "https://dc.lft.to/lastmile_qr_scan", "ios": "https://dc.lft.to/lastmile_qr_scan"}, "is_reserved": 0, "is_disabled": 0, "bike_id": "6266eb067827d4e712714f22031cbf28", "lat": 38.912822, "name": "6266eb067827d4e712714f22031cbf28", "fusion_lon": 0.0, "fusion_lat": 0.0, "type": "electric_scooter", "lon": -77.0230245}, {"rental_uris": {"android": "https://dc.lft.to/lastmile_qr_scan", "ios": "https://dc.lft.to/lastmile_qr_scan"}, "is_reserved": 0, "is_disabled": 0, "bike_id": "56b41250a9aed57301c53b0ab0e1162b", "lat": 38.908073, "name": "56b41250a9aed57301c53b0ab0e1162b", "fusion_lon": 0.0, "fusion_lat": 0.0, "type": "electric_scooter", "lon": -77.04347616666666}, {"rental_uris": {"android": "https://dc.lft.to/lastmile_qr_scan", "ios": "https://dc.lft.to/lastmile_qr_scan"}, "is_reserved": 0, "is_disabled": 0, "bike_id": "30753820d11749a007687a1a87eeb2bc", "lat": 38.923636333333334, "name": "30753820d11749a007687a1a87eeb2bc", "fusion_lon": 0.0, "fusion_lat": 0.0, "type": "electric_scooter", "lon": -77.05045366666667}, {"rental_uris": {"android": "https://dc.lft.to/lastmile_qr_scan", "ios": "https://dc.lft.to/lastmile_qr_scan"}, "is_reserved": 0, "is_disabled": 0, "bike_id": "6a49ee7262097cc2c1cc67b254e2d76f", "lat": 38.90241066666667, "name": "6a49ee7262097cc2c1cc67b254e2d76f", "fusion_lon": 0.0, "fusion_lat": 0.0, "type": "electric_scooter", "lon": -77.0453925}, {"rental_uris": {"android": "https://dc.lft.to/lastmile_qr_scan", "ios": "https://dc.lft.to/lastmile_qr_scan"}, "is_reserved": 0, "is_disabled": 0, "bike_id": "c0a59e91d636fc0bb1331186b2a2c52d", "lat": 38.92362716666667, "name": "c0a59e91d636fc0bb1331186b2a2c52d", "fusion_lon": 0.0, "fusion_lat": 0.0, "type": "electric_scooter", "lon": -77.05128366666666}, {"rental_uris": {"android": "https://dc.lft.to/lastmile_qr_scan", "ios": "https://dc.lft.to/lastmile_qr_scan"}, "is_reserved": 0, "is_disabled": 0, "bike_id": "db17b317353c347e3a72572f56a45f0c", "lat": 38.935298333333336, "name": "db17b317353c347e3a72572f56a45f0c", "fusion_lon": 0.0, "fusion_lat": 0.0, "type": "electric_scooter", "lon": -77.05486583333334}, {"rental_uris": {"android": "https://dc.lft.to/lastmile_qr_scan", "ios": "https://dc.lft.to/lastmile_qr_scan"}, "is_reserved": 0, "is_disabled": 0, "bike_id": "72dc9385c272ca0a153fd5e5651b9873", "lat": 38.924899333333336, "name": "72dc9385c272ca0a153fd5e5651b9873", "fusion_lon": 0.0, "fusion_lat": 0.0, "type": "electric_scooter", "lon": -77.02273}, {"rental_uris": {"android": "https://dc.lft.to/lastmile_qr_scan", "ios": "https://dc.lft.to/lastmile_qr_scan"}, "is_reserved": 0, "is_disabled": 0, "bike_id": "f6a6a6f6ac0a0bd5f4ed4e38c27100d2", "lat": 38.892218666666665, "name": "f6a6a6f6ac0a0bd5f4ed4e38c27100d2", "fusion_lon": 0.0, "fusion_lat": 0.0, "type": "electric_scooter", "lon": -77.04373883333334}, {"rental_uris": {"android": "https://dc.lft.to/lastmile_qr_scan", "ios": "https://dc.lft.to/lastmile_qr_scan"}, "is_reserved": 0, "is_disabled": 0, "bike_id": "9bdf140236d64524899ab4df3e41b69c", "lat": 38.895554833333335, "name": "9bdf140236d64524899ab4df3e41b69c", "fusion_lon": 0.0, "fusion_lat": 0.0, "type": "electric_scooter", "lon": -77.04674}, {"rental_uris": {"android": "https://dc.lft.to/lastmile_qr_scan", "ios": "https://dc.lft.to/lastmile_qr_scan"}, "is_reserved": 0, "is_disabled": 0, "bike_id": "d1931f515838ccd93df22be7d4ab8f68", "lat": 38.9265125, "name": "d1931f515838ccd93df22be7d4ab8f68", "fusion_lon": 0.0, "fusion_lat": 0.0, "type": "electric_scooter", "lon": -77.00889433333333}, {"rental_uris": {"android": "https://dc.lft.to/lastmile_qr_scan", "ios": "https://dc.lft.to/lastmile_qr_scan"}, "is_reserved": 0, "is_disabled": 0, "bike_id": "7870dbfb396eaf122aa42c934455a5fa", "lat": 38.8689905, "name": "7870dbfb396eaf122aa42c934455a5fa", "fusion_lon": 0.0, "fusion_lat": 0.0, "type": "electric_scooter", "lon": -76.9822885}, {"rental_uris": {"android": "https://dc.lft.to/lastmile_qr_scan", "ios": "https://dc.lft.to/lastmile_qr_scan"}, "is_reserved": 0, "is_disabled": 0, "bike_id": "394ac83205b934bffcab6a369ff74cdd", "lat": 38.935487333333334, "name": "394ac83205b934bffcab6a369ff74cdd", "fusion_lon": 0.0, "fusion_lat": 0.0, "type": "electric_scooter", "lon": -77.02224166666667}, {"rental_uris": {"android": "https://dc.lft.to/lastmile_qr_scan", "ios": "https://dc.lft.to/lastmile_qr_scan"}, "is_reserved": 0, "is_disabled": 0, "bike_id": "de1d68a4fa79962776b7275e7ccb8931", "lat": 38.895077, "name": "de1d68a4fa79962776b7275e7ccb8931", "fusion_lon": 0.0, "fusion_lat": 0.0, "type": "electric_scooter", "lon": -77.02159883333333}, {"rental_uris": {"android": "https://dc.lft.to/lastmile_qr_scan", "ios": "https://dc.lft.to/lastmile_qr_scan"}, "is_reserved": 0, "is_disabled": 0, "bike_id": "d25882064f5d34accdfbe1de94a5bc22", "lat": 38.91325283333333, "name": "d25882064f5d34accdfbe1de94a5bc22", "fusion_lon": 0.0, "fusion_lat": 0.0, "type": "electric_scooter", "lon": -77.045392}, {"rental_uris": {"android": "https://dc.lft.to/lastmile_qr_scan", "ios": "https://dc.lft.to/lastmile_qr_scan"}, "is_reserved": 0, "is_disabled": 0, "bike_id": "597390a5032011f71ddc0cc7fae19a41", "lat": 38.90273783333333, "name": "597390a5032011f71ddc0cc7fae19a41", "fusion_lon": 0.0, "fusion_lat": 0.0, "type": "electric_scooter", "lon": -77.06266366666667}, {"rental_uris": {"android": "https://dc.lft.to/lastmile_qr_scan", "ios": "https://dc.lft.to/lastmile_qr_scan"}, "is_reserved": 0, "is_disabled": 0, "bike_id": "72e54e166f5a5b3415f984d8f5eb75fb", "lat": 38.893715666666665, "name": "72e54e166f5a5b3415f984d8f5eb75fb", "fusion_lon": 0.0, "fusion_lat": 0.0, "type": "electric_scooter", "lon": -76.9499775}, {"rental_uris": {"android": "https://dc.lft.to/lastmile_qr_scan", "ios": "https://dc.lft.to/lastmile_qr_scan"}, "is_reserved": 0, "is_disabled": 0, "bike_id": "9d196eaf9ef96c7ecf96cac4573942ad", "lat": 38.90949033333333, "name": "9d196eaf9ef96c7ecf96cac4573942ad", "fusion_lon": 0.0, "fusion_lat": 0.0, "type": "electric_scooter", "lon": -77.026945}, {"rental_uris": {"android": "https://dc.lft.to/lastmile_qr_scan", "ios": "https://dc.lft.to/lastmile_qr_scan"}, "is_reserved": 0, "is_disabled": 0, "bike_id": "8cecf1063c3b70c60eb116fc66e5f360", "lat": 38.908436333333334, "name": "8cecf1063c3b70c60eb116fc66e5f360", "fusion_lon": 0.0, "fusion_lat": 0.0, "type": "electric_scooter", "lon": -77.026937}, {"rental_uris": {"android": "https://dc.lft.to/lastmile_qr_scan", "ios": "https://dc.lft.to/lastmile_qr_scan"}, "is_reserved": 0, "is_disabled": 0, "bike_id": "a5ed9050cc3ef5ec80fc8c4b0d3cf462", "lat": 38.89222383333333, "name": "a5ed9050cc3ef5ec80fc8c4b0d3cf462", "fusion_lon": 0.0, "fusion_lat": 0.0, "type": "electric_scooter", "lon": -77.043724}, {"rental_uris": {"android": "https://dc.lft.to/lastmile_qr_scan", "ios": "https://dc.lft.to/lastmile_qr_scan"}, "is_reserved": 0, "is_disabled": 0, "bike_id": "444c1a4c3fe6c8feb4cfd66290979b70", "lat": 38.9035155, "name": "444c1a4c3fe6c8feb4cfd66290979b70", "fusion_lon": 0.0, "fusion_lat": 0.0, "type": "electric_scooter", "lon": -77.02794116666666}, {"rental_uris": {"android": "https://dc.lft.to/lastmile_qr_scan", "ios": "https://dc.lft.to/lastmile_qr_scan"}, "is_reserved": 0, "is_disabled": 0, "bike_id": "2a9752fd649639171d6b7db7fa2479f6", "lat": 38.928553666666666, "name": "2a9752fd649639171d6b7db7fa2479f6", "fusion_lon": 0.0, "fusion_lat": 0.0, "type": "electric_scooter", "lon": -77.0140675}, {"rental_uris": {"android": "https://dc.lft.to/lastmile_qr_scan", "ios": "https://dc.lft.to/lastmile_qr_scan"}, "is_reserved": 0, "is_disabled": 0, "bike_id": "834dd9badcf09a780d09b071fd344d1e", "lat": 38.96030716666667, "name": "834dd9badcf09a780d09b071fd344d1e", "fusion_lon": 0.0, "fusion_lat": 0.0, "type": "electric_scooter", "lon": -77.019828}, {"rental_uris": {"android": "https://dc.lft.to/lastmile_qr_scan", "ios": "https://dc.lft.to/lastmile_qr_scan"}, "is_reserved": 0, "is_disabled": 0, "bike_id": "44d7bd8abac4ebc1205e3aff81989674", "lat": 38.96735266666666, "name": "44d7bd8abac4ebc1205e3aff81989674", "fusion_lon": 0.0, "fusion_lat": 0.0, "type": "electric_bike", "lon": -76.9558155}, {"rental_uris": {"android": "https://dc.lft.to/lastmile_qr_scan", "ios": "https://dc.lft.to/lastmile_qr_scan"}, "is_reserved": 0, "is_disabled": 0, "bike_id": "f09a006e86372be5ff6b26446b2b93ed", "lat": 38.86701433333333, "name": "f09a006e86372be5ff6b26446b2b93ed", "fusion_lon": 0.0, "fusion_lat": 0.0, "type": "electric_scooter", "lon": -76.98711016666667}, {"rental_uris": {"android": "https://dc.lft.to/lastmile_qr_scan", "ios": "https://dc.lft.to/lastmile_qr_scan"}, "is_reserved": 0, "is_disabled": 0, "bike_id": "31c0dcbc8d6f0bba43c596cb6e13f2f7", "lat": 38.901931833333336, "name": "31c0dcbc8d6f0bba43c596cb6e13f2f7", "fusion_lon": 0.0, "fusion_lat": 0.0, "type": "electric_scooter", "lon": -77.0239775}, {"rental_uris": {"android": "https://dc.lft.to/lastmile_qr_scan", "ios": "https://dc.lft.to/lastmile_qr_scan"}, "is_reserved": 0, "is_disabled": 0, "bike_id": "cb2d57961239cffe7059c0d125f11c12", "lat": 38.9274705, "name": "cb2d57961239cffe7059c0d125f11c12", "fusion_lon": 0.0, "fusion_lat": 0.0, "type": "electric_scooter", "lon": -77.02497366666667}, {"rental_uris": {"android": "https://dc.lft.to/lastmile_qr_scan", "ios": "https://dc.lft.to/lastmile_qr_scan"}, "is_reserved": 0, "is_disabled": 0, "bike_id": "85b710bcfe3d391e4bf4d32024e70550", "lat": 38.87178483333334, "name": "85b710bcfe3d391e4bf4d32024e70550", "fusion_lon": 0.0, "fusion_lat": 0.0, "type": "electric_scooter", "lon": -77.00604466666667}, {"rental_uris": {"android": "https://dc.lft.to/lastmile_qr_scan", "ios": "https://dc.lft.to/lastmile_qr_scan"}, "is_reserved": 0, "is_disabled": 0, "bike_id": "2f90970f5b3566296a9a4a7b19b4aa95", "lat": 38.932047833333336, "name": "2f90970f5b3566296a9a4a7b19b4aa95", "fusion_lon": 0.0, "fusion_lat": 0.0, "type": "electric_scooter", "lon": -77.032602}, {"rental_uris": {"android": "https://dc.lft.to/lastmile_qr_scan", "ios": "https://dc.lft.to/lastmile_qr_scan"}, "is_reserved": 0, "is_disabled": 0, "bike_id": "7a125821153dce8654f5621993aa74fb", "lat": 38.9064655, "name": "7a125821153dce8654f5621993aa74fb", "fusion_lon": 0.0, "fusion_lat": 0.0, "type": "electric_scooter", "lon": -77.01817783333334}, {"rental_uris": {"android": "https://dc.lft.to/lastmile_qr_scan", "ios": "https://dc.lft.to/lastmile_qr_scan"}, "is_reserved": 0, "is_disabled": 0, "bike_id": "51aae4fd72ea3fe75b4282a04555d062", "lat": 38.93117, "name": "51aae4fd72ea3fe75b4282a04555d062", "fusion_lon": 0.0, "fusion_lat": 0.0, "type": "electric_scooter", "lon": -77.02096333333333}, {"rental_uris": {"android": "https://dc.lft.to/lastmile_qr_scan", "ios": "https://dc.lft.to/lastmile_qr_scan"}, "is_reserved": 0, "is_disabled": 0, "bike_id": "90905d16036381ce031d7b94d9af7c78", "lat": 38.92181733333334, "name": "90905d16036381ce031d7b94d9af7c78", "fusion_lon": 0.0, "fusion_lat": 0.0, "type": "electric_scooter", "lon": -77.0469465}, {"rental_uris": {"android": "https://dc.lft.to/lastmile_qr_scan", "ios": "https://dc.lft.to/lastmile_qr_scan"}, "is_reserved": 0, "is_disabled": 0, "bike_id": "a62b0133d811cb7beef5e0093a55d3ec", "lat": 38.905151833333335, "name": "a62b0133d811cb7beef5e0093a55d3ec", "fusion_lon": 0.0, "fusion_lat": 0.0, "type": "electric_scooter", "lon": -77.04144783333334}, {"rental_uris": {"android": "https://dc.lft.to/lastmile_qr_scan", "ios": "https://dc.lft.to/lastmile_qr_scan"}, "is_reserved": 0, "is_disabled": 0, "bike_id": "9b530a564562e05ad7900da1ccfa22a6", "lat": 38.927349, "name": "9b530a564562e05ad7900da1ccfa22a6", "fusion_lon": 0.0, "fusion_lat": 0.0, "type": "electric_scooter", "lon": -77.034194}, {"rental_uris": {"android": "https://dc.lft.to/lastmile_qr_scan", "ios": "https://dc.lft.to/lastmile_qr_scan"}, "is_reserved": 0, "is_disabled": 0, "bike_id": "615bc4e137090bc0c7889640aa40d84c", "lat": 38.9343855, "name": "615bc4e137090bc0c7889640aa40d84c", "fusion_lon": 0.0, "fusion_lat": 0.0, "type": "electric_scooter", "lon": -77.0348265}, {"rental_uris": {"android": "https://dc.lft.to/lastmile_qr_scan", "ios": "https://dc.lft.to/lastmile_qr_scan"}, "is_reserved": 0, "is_disabled": 0, "bike_id": "36380bd58d5f844de889728cddd20091", "lat": 38.90310266666667, "name": "36380bd58d5f844de889728cddd20091", "fusion_lon": 0.0, "fusion_lat": 0.0, "type": "electric_scooter", "lon": -77.05891333333334}, {"rental_uris": {"android": "https://dc.lft.to/lastmile_qr_scan", "ios": "https://dc.lft.to/lastmile_qr_scan"}, "is_reserved": 0, "is_disabled": 0, "bike_id": "d7e07cccbcacb5614269c3e97b64fc80", "lat": 38.92328666666667, "name": "d7e07cccbcacb5614269c3e97b64fc80", "fusion_lon": 0.0, "fusion_lat": 0.0, "type": "electric_scooter", "lon": -77.0451465}, {"rental_uris": {"android": "https://dc.lft.to/lastmile_qr_scan", "ios": "https://dc.lft.to/lastmile_qr_scan"}, "is_reserved": 0, "is_disabled": 0, "bike_id": "80400b6e7f45192c57f884afff5972fa", "lat": 38.919533666666666, "name": "80400b6e7f45192c57f884afff5972fa", "fusion_lon": 0.0, "fusion_lat": 0.0, "type": "electric_scooter", "lon": -77.0797955}, {"rental_uris": {"android": "https://dc.lft.to/lastmile_qr_scan", "ios": "https://dc.lft.to/lastmile_qr_scan"}, "is_reserved": 0, "is_disabled": 0, "bike_id": "5037de622312d4ba0720c60784d2bfd4", "lat": 38.928806, "name": "5037de622312d4ba0720c60784d2bfd4", "fusion_lon": 0.0, "fusion_lat": 0.0, "type": "electric_scooter", "lon": -77.039239}, {"rental_uris": {"android": "https://dc.lft.to/lastmile_qr_scan", "ios": "https://dc.lft.to/lastmile_qr_scan"}, "is_reserved": 0, "is_disabled": 0, "bike_id": "46ec5d3f9a5aa83af1465d708e8c12b0", "lat": 38.867058166666666, "name": "46ec5d3f9a5aa83af1465d708e8c12b0", "fusion_lon": 0.0, "fusion_lat": 0.0, "type": "electric_scooter", "lon": -76.987095}, {"rental_uris": {"android": "https://dc.lft.to/lastmile_qr_scan", "ios": "https://dc.lft.to/lastmile_qr_scan"}, "is_reserved": 0, "is_disabled": 0, "bike_id": "0aea492c7ef46658ebb097ff6a3fded2", "lat": 38.91334, "name": "0aea492c7ef46658ebb097ff6a3fded2", "fusion_lon": 0.0, "fusion_lat": 0.0, "type": "electric_scooter", "lon": -77.0320195}, {"rental_uris": {"android": "https://dc.lft.to/lastmile_qr_scan", "ios": "https://dc.lft.to/lastmile_qr_scan"}, "is_reserved": 0, "is_disabled": 0, "bike_id": "1a61aacdeef65cce147a89c5e7d31017", "lat": 38.8995825, "name": "1a61aacdeef65cce147a89c5e7d31017", "fusion_lon": 0.0, "fusion_lat": 0.0, "type": "electric_scooter", "lon": -76.97533983333334}, {"rental_uris": {"android": "https://dc.lft.to/lastmile_qr_scan", "ios": "https://dc.lft.to/lastmile_qr_scan"}, "is_reserved": 0, "is_disabled": 0, "bike_id": "11d2d8863451838bab144cebf8a51306", "lat": 38.839386, "name": "11d2d8863451838bab144cebf8a51306", "fusion_lon": 0.0, "fusion_lat": 0.0, "type": "electric_bike", "lon": -77.07902016666667}, {"rental_uris": {"android": "https://dc.lft.to/lastmile_qr_scan", "ios": "https://dc.lft.to/lastmile_qr_scan"}, "is_reserved": 0, "is_disabled": 0, "bike_id": "f9408e35b2bcbe0d23aa50fdefb8fc67", "lat": 38.9366395, "name": "f9408e35b2bcbe0d23aa50fdefb8fc67", "fusion_lon": 0.0, "fusion_lat": 0.0, "type": "electric_scooter", "lon": -77.036547}, {"rental_uris": {"android": "https://dc.lft.to/lastmile_qr_scan", "ios": "https://dc.lft.to/lastmile_qr_scan"}, "is_reserved": 0, "is_disabled": 0, "bike_id": "af8ef979ae7ec78e8ae37341e696e13e", "lat": 38.900049333333335, "name": "af8ef979ae7ec78e8ae37341e696e13e", "fusion_lon": 0.0, "fusion_lat": 0.0, "type": "electric_scooter", "lon": -77.029456}, {"rental_uris": {"android": "https://dc.lft.to/lastmile_qr_scan", "ios": "https://dc.lft.to/lastmile_qr_scan"}, "is_reserved": 0, "is_disabled": 0, "bike_id": "1d1aa56a34324a933d242d67f1a3db76", "lat": 38.93485533333333, "name": "1d1aa56a34324a933d242d67f1a3db76", "fusion_lon": 0.0, "fusion_lat": 0.0, "type": "electric_scooter", "lon": -77.03609016666667}, {"rental_uris": {"android": "https://dc.lft.to/lastmile_qr_scan", "ios": "https://dc.lft.to/lastmile_qr_scan"}, "is_reserved": 0, "is_disabled": 0, "bike_id": "f367d95d36149c9b07c46b1cbd70ba8a", "lat": 38.886958, "name": "f367d95d36149c9b07c46b1cbd70ba8a", "fusion_lon": 0.0, "fusion_lat": 0.0, "type": "electric_scooter", "lon": -76.99684683333334}, {"rental_uris": {"android": "https://dc.lft.to/lastmile_qr_scan", "ios": "https://dc.lft.to/lastmile_qr_scan"}, "is_reserved": 0, "is_disabled": 0, "bike_id": "06a5b480401f78c0576679a99104ee81", "lat": 38.90382683333333, "name": "06a5b480401f78c0576679a99104ee81", "fusion_lon": 0.0, "fusion_lat": 0.0, "type": "electric_scooter", "lon": -77.04836466666667}, {"rental_uris": {"android": "https://dc.lft.to/lastmile_qr_scan", "ios": "https://dc.lft.to/lastmile_qr_scan"}, "is_reserved": 0, "is_disabled": 0, "bike_id": "6a848a3619924d029f218450ec39a9b2", "lat": 38.890993333333334, "name": "6a848a3619924d029f218450ec39a9b2", "fusion_lon": 0.0, "fusion_lat": 0.0, "type": "electric_scooter", "lon": -76.99951683333333}, {"rental_uris": {"android": "https://dc.lft.to/lastmile_qr_scan", "ios": "https://dc.lft.to/lastmile_qr_scan"}, "is_reserved": 0, "is_disabled": 0, "bike_id": "5360f34073a83b485a571aa666d137e4", "lat": 38.892243, "name": "5360f34073a83b485a571aa666d137e4", "fusion_lon": 0.0, "fusion_lat": 0.0, "type": "electric_scooter", "lon": -77.0277625}, {"rental_uris": {"android": "https://dc.lft.to/lastmile_qr_scan", "ios": "https://dc.lft.to/lastmile_qr_scan"}, "is_reserved": 0, "is_disabled": 0, "bike_id": "f3e7adc2f3547ac7b823aca94f4bf1ba", "lat": 38.89504066666667, "name": "f3e7adc2f3547ac7b823aca94f4bf1ba", "fusion_lon": 0.0, "fusion_lat": 0.0, "type": "electric_bike", "lon": -76.922077}, {"rental_uris": {"android": "https://dc.lft.to/lastmile_qr_scan", "ios": "https://dc.lft.to/lastmile_qr_scan"}, "is_reserved": 0, "is_disabled": 0, "bike_id": "ce8b01282d33f4345d5acc4c04cdffae", "lat": 38.918064333333334, "name": "ce8b01282d33f4345d5acc4c04cdffae", "fusion_lon": 0.0, "fusion_lat": 0.0, "type": "electric_scooter", "lon": -77.03439833333333}, {"rental_uris": {"android": "https://dc.lft.to/lastmile_qr_scan", "ios": "https://dc.lft.to/lastmile_qr_scan"}, "is_reserved": 0, "is_disabled": 0, "bike_id": "3a0293404ba907a9b1063d2bc25d5889", "lat": 38.884366166666666, "name": "3a0293404ba907a9b1063d2bc25d5889", "fusion_lon": 0.0, "fusion_lat": 0.0, "type": "electric_scooter", "lon": -76.95759333333334}, {"rental_uris": {"android": "https://dc.lft.to/lastmile_qr_scan", "ios": "https://dc.lft.to/lastmile_qr_scan"}, "is_reserved": 0, "is_disabled": 0, "bike_id": "dfa03ee068846a6b7b0a84b35d7d789c", "lat": 38.91191666666667, "name": "dfa03ee068846a6b7b0a84b35d7d789c", "fusion_lon": 0.0, "fusion_lat": 0.0, "type": "electric_scooter", "lon": -77.038343}, {"rental_uris": {"android": "https://dc.lft.to/lastmile_qr_scan", "ios": "https://dc.lft.to/lastmile_qr_scan"}, "is_reserved": 0, "is_disabled": 0, "bike_id": "95369e1ef65fd7689c6f622ce43b2e33", "lat": 38.9011395, "name": "95369e1ef65fd7689c6f622ce43b2e33", "fusion_lon": 0.0, "fusion_lat": 0.0, "type": "electric_scooter", "lon": -77.04484333333333}, {"rental_uris": {"android": "https://dc.lft.to/lastmile_qr_scan", "ios": "https://dc.lft.to/lastmile_qr_scan"}, "is_reserved": 0, "is_disabled": 0, "bike_id": "60677bdefc301e71065f0094443e4e37", "lat": 38.897537, "name": "60677bdefc301e71065f0094443e4e37", "fusion_lon": 0.0, "fusion_lat": 0.0, "type": "electric_scooter", "lon": -77.05147916666667}, {"rental_uris": {"android": "https://dc.lft.to/lastmile_qr_scan", "ios": "https://dc.lft.to/lastmile_qr_scan"}, "is_reserved": 0, "is_disabled": 0, "bike_id": "6ea24483395b052d69dd27314c153f2e", "lat": 38.91954633333334, "name": "6ea24483395b052d69dd27314c153f2e", "fusion_lon": 0.0, "fusion_lat": 0.0, "type": "electric_scooter", "lon": -77.04490983333334}, {"rental_uris": {"android": "https://dc.lft.to/lastmile_qr_scan", "ios": "https://dc.lft.to/lastmile_qr_scan"}, "is_reserved": 0, "is_disabled": 0, "bike_id": "50a6201935642f496b4d7b5c3081dc2c", "lat": 38.90138783333333, "name": "50a6201935642f496b4d7b5c3081dc2c", "fusion_lon": 0.0, "fusion_lat": 0.0, "type": "electric_scooter", "lon": -76.99129383333333}, {"rental_uris": {"android": "https://dc.lft.to/lastmile_qr_scan", "ios": "https://dc.lft.to/lastmile_qr_scan"}, "is_reserved": 0, "is_disabled": 0, "bike_id": "a29284a42386419cdfadf5e568576feb", "lat": 38.89474366666666, "name": "a29284a42386419cdfadf5e568576feb", "fusion_lon": 0.0, "fusion_lat": 0.0, "type": "electric_scooter", "lon": -77.02185183333333}, {"rental_uris": {"android": "https://dc.lft.to/lastmile_qr_scan", "ios": "https://dc.lft.to/lastmile_qr_scan"}, "is_reserved": 0, "is_disabled": 0, "bike_id": "9071da8d525a7ae12f988e1579b65988", "lat": 38.91485983333333, "name": "9071da8d525a7ae12f988e1579b65988", "fusion_lon": 0.0, "fusion_lat": 0.0, "type": "electric_scooter", "lon": -77.03714866666667}, {"rental_uris": {"android": "https://dc.lft.to/lastmile_qr_scan", "ios": "https://dc.lft.to/lastmile_qr_scan"}, "is_reserved": 0, "is_disabled": 0, "bike_id": "e3899e99bd8ce48af8d66f9b1fc46fe4", "lat": 38.921738500000004, "name": "e3899e99bd8ce48af8d66f9b1fc46fe4", "fusion_lon": 0.0, "fusion_lat": 0.0, "type": "electric_scooter", "lon": -77.04002333333334}, {"rental_uris": {"android": "https://dc.lft.to/lastmile_qr_scan", "ios": "https://dc.lft.to/lastmile_qr_scan"}, "is_reserved": 0, "is_disabled": 0, "bike_id": "bb5aaece9bb98448383056f1f98adb09", "lat": 38.897532, "name": "bb5aaece9bb98448383056f1f98adb09", "fusion_lon": 0.0, "fusion_lat": 0.0, "type": "electric_scooter", "lon": -77.01066366666667}, {"rental_uris": {"android": "https://dc.lft.to/lastmile_qr_scan", "ios": "https://dc.lft.to/lastmile_qr_scan"}, "is_reserved": 0, "is_disabled": 0, "bike_id": "1154e9b05d17124887edeaf6ba5a4e87", "lat": 38.88382633333333, "name": "1154e9b05d17124887edeaf6ba5a4e87", "fusion_lon": 0.0, "fusion_lat": 0.0, "type": "electric_scooter", "lon": -76.9954905}, {"rental_uris": {"android": "https://dc.lft.to/lastmile_qr_scan", "ios": "https://dc.lft.to/lastmile_qr_scan"}, "is_reserved": 0, "is_disabled": 0, "bike_id": "4cc43fd79faf44e29159464dde9f222d", "lat": 38.8689655, "name": "4cc43fd79faf44e29159464dde9f222d", "fusion_lon": 0.0, "fusion_lat": 0.0, "type": "electric_scooter", "lon": -76.9822905}, {"rental_uris": {"android": "https://dc.lft.to/lastmile_qr_scan", "ios": "https://dc.lft.to/lastmile_qr_scan"}, "is_reserved": 0, "is_disabled": 0, "bike_id": "584f53b623a23548628015619c339741", "lat": 38.892257, "name": "584f53b623a23548628015619c339741", "fusion_lon": 0.0, "fusion_lat": 0.0, "type": "electric_scooter", "lon": -77.0433535}, {"rental_uris": {"android": "https://dc.lft.to/lastmile_qr_scan", "ios": "https://dc.lft.to/lastmile_qr_scan"}, "is_reserved": 0, "is_disabled": 0, "bike_id": "4b6fe3c6f7dca82934a73d37fdcaecd6", "lat": 38.90237283333333, "name": "4b6fe3c6f7dca82934a73d37fdcaecd6", "fusion_lon": 0.0, "fusion_lat": 0.0, "type": "electric_scooter", "lon": -77.04110083333333}, {"rental_uris": {"android": "https://dc.lft.to/lastmile_qr_scan", "ios": "https://dc.lft.to/lastmile_qr_scan"}, "is_reserved": 0, "is_disabled": 0, "bike_id": "962a3a4244c2cfea6f1a42d8f7bf5658", "lat": 38.91615133333333, "name": "962a3a4244c2cfea6f1a42d8f7bf5658", "fusion_lon": 0.0, "fusion_lat": 0.0, "type": "electric_scooter", "lon": -77.04837083333334}, {"rental_uris": {"android": "https://dc.lft.to/lastmile_qr_scan", "ios": "https://dc.lft.to/lastmile_qr_scan"}, "is_reserved": 0, "is_disabled": 0, "bike_id": "bc39cf8f3af3c81308fe773c9afc3679", "lat": 38.920427333333336, "name": "bc39cf8f3af3c81308fe773c9afc3679", "fusion_lon": 0.0, "fusion_lat": 0.0, "type": "electric_scooter", "lon": -77.0238455}, {"rental_uris": {"android": "https://dc.lft.to/lastmile_qr_scan", "ios": "https://dc.lft.to/lastmile_qr_scan"}, "is_reserved": 0, "is_disabled": 0, "bike_id": "86bb914a0e2382f67c54021efe6a8343", "lat": 38.9200115, "name": "86bb914a0e2382f67c54021efe6a8343", "fusion_lon": 0.0, "fusion_lat": 0.0, "type": "electric_scooter", "lon": -77.03276666666666}, {"rental_uris": {"android": "https://dc.lft.to/lastmile_qr_scan", "ios": "https://dc.lft.to/lastmile_qr_scan"}, "is_reserved": 0, "is_disabled": 0, "bike_id": "5410d40734ee09808af01db627afc55d", "lat": 38.92660716666666, "name": "5410d40734ee09808af01db627afc55d", "fusion_lon": 0.0, "fusion_lat": 0.0, "type": "electric_scooter", "lon": -77.02325233333333}, {"rental_uris": {"android": "https://dc.lft.to/lastmile_qr_scan", "ios": "https://dc.lft.to/lastmile_qr_scan"}, "is_reserved": 0, "is_disabled": 0, "bike_id": "5364a19aba008add8b5f3f1e4cd27466", "lat": 38.937453, "name": "5364a19aba008add8b5f3f1e4cd27466", "fusion_lon": 0.0, "fusion_lat": 0.0, "type": "electric_scooter", "lon": -77.0243885}, {"rental_uris": {"android": "https://dc.lft.to/lastmile_qr_scan", "ios": "https://dc.lft.to/lastmile_qr_scan"}, "is_reserved": 0, "is_disabled": 0, "bike_id": "46a80ce824c40c565dc8909749eda7e1", "lat": 38.8431285, "name": "46a80ce824c40c565dc8909749eda7e1", "fusion_lon": 0.0, "fusion_lat": 0.0, "type": "electric_scooter", "lon": -76.999352}, {"rental_uris": {"android": "https://dc.lft.to/lastmile_qr_scan", "ios": "https://dc.lft.to/lastmile_qr_scan"}, "is_reserved": 0, "is_disabled": 0, "bike_id": "8dfd0b92bc24c5a267cfdbf6020cb84b", "lat": 38.86700666666667, "name": "8dfd0b92bc24c5a267cfdbf6020cb84b", "fusion_lon": 0.0, "fusion_lat": 0.0, "type": "electric_scooter", "lon": -76.98712433333333}, {"rental_uris": {"android": "https://dc.lft.to/lastmile_qr_scan", "ios": "https://dc.lft.to/lastmile_qr_scan"}, "is_reserved": 0, "is_disabled": 0, "bike_id": "44a1d6f477040f7eb488b05c251ed275", "lat": 38.898559166666665, "name": "44a1d6f477040f7eb488b05c251ed275", "fusion_lon": 0.0, "fusion_lat": 0.0, "type": "electric_scooter", "lon": -76.93061333333333}, {"rental_uris": {"android": "https://dc.lft.to/lastmile_qr_scan", "ios": "https://dc.lft.to/lastmile_qr_scan"}, "is_reserved": 0, "is_disabled": 0, "bike_id": "bd9b4b232c18a2d3d8c31eb44bf3a479", "lat": 38.926634, "name": "bd9b4b232c18a2d3d8c31eb44bf3a479", "fusion_lon": 0.0, "fusion_lat": 0.0, "type": "electric_scooter", "lon": -77.03621366666667}, {"rental_uris": {"android": "https://dc.lft.to/lastmile_qr_scan", "ios": "https://dc.lft.to/lastmile_qr_scan"}, "is_reserved": 0, "is_disabled": 0, "bike_id": "7fceb421f19321d94a514ad00cb97374", "lat": 38.96504483333333, "name": "7fceb421f19321d94a514ad00cb97374", "fusion_lon": 0.0, "fusion_lat": 0.0, "type": "electric_bike", "lon": -77.02821083333333}, {"rental_uris": {"android": "https://dc.lft.to/lastmile_qr_scan", "ios": "https://dc.lft.to/lastmile_qr_scan"},