{"data": {"bikes": [{"fusion_lat": 0.0, "name": "b89ae18402e8d473f4ea1c89a49c1323", "is_disabled": 0, "rental_uris": {"android": "https://dc.lft.to/lastmile_qr_scan", "ios": "https://dc.lft.to/lastmile_qr_scan"}, "fusion_lon": 0.0, "lat": 38.957309, "bike_id": "b89ae18402e8d473f4ea1c89a49c1323", "type": "electric_scooter", "is_reserved": 0, "lon": -77.02402016666667}, {"fusion_lat": 0.0, "name": "238b89776a0b0f071eb6a3c9f9c17c1b", "is_disabled": 0, "rental_uris": {"android": "https://dc.lft.to/lastmile_qr_scan", "ios": "https://dc.lft.to/lastmile_qr_scan"}, "fusion_lon": 0.0, "lat": 38.915913833333335, "bike_id": "238b89776a0b0f071eb6a3c9f9c17c1b", "type": "electric_scooter", "is_reserved": 0, "lon": -77.045502}, {"fusion_lat": 0.0, "name": "8b9205199bf1fba05795bacc9093df2e", "is_disabled": 0, "rental_uris": {"android": "https://dc.lft.to/lastmile_qr_scan", "ios": "https://dc.lft.to/lastmile_qr_scan"}, "fusion_lon": 0.0, "lat": 38.91486966666667, "bike_id": "8b9205199bf1fba05795bacc9093df2e", "type": "electric_scooter", "is_reserved": 0, "lon": -77.04279416666667}, {"fusion_lat": 0.0, "name": "c8ae8da44d94cd22950bbd4e4ed11383", "is_disabled": 0, "rental_uris": {"android": "https://dc.lft.to/lastmile_qr_scan", "ios": "https://dc.lft.to/lastmile_qr_scan"}, "fusion_lon": 0.0, "lat": 38.927878666666665, "bike_id": "c8ae8da44d94cd22950bbd4e4ed11383", "type": "electric_scooter", "is_reserved": 0, "lon": -77.02255616666666}, {"fusion_lat": 0.0, "name": "451c54c2fb1b99de6b237a337966aa8d", "is_disabled": 0, "rental_uris": {"android": "https://dc.lft.to/lastmile_qr_scan", "ios": "https://dc.lft.to/lastmile_qr_scan"}, "fusion_lon": 0.0, "lat": 38.906019666666666, "bike_id": "451c54c2fb1b99de6b237a337966aa8d", "type": "electric_scooter", "is_reserved": 0, "lon": -77.06297366666666}, {"fusion_lat": 0.0, "name": "4d29d88e61d61dae87413546960adef6", "is_disabled": 0, "rental_uris": {"android": "https://dc.lft.to/lastmile_qr_scan", "ios": "https://dc.lft.to/lastmile_qr_scan"}, "fusion_lon": 0.0, "lat": 38.923488166666665, "bike_id": "4d29d88e61d61dae87413546960adef6", "type": "electric_scooter", "is_reserved": 0, "lon": -77.04415366666667}, {"fusion_lat": 0.0, "name": "3b78075db2514b91f5927e0eac83251b", "is_disabled": 0, "rental_uris": {"android": "https://dc.lft.to/lastmile_qr_scan", "ios": "https://dc.lft.to/lastmile_qr_scan"}, "fusion_lon": 0.0, "lat": 38.875343, "bike_id": "3b78075db2514b91f5927e0eac83251b", "type": "electric_scooter", "is_reserved": 0, "lon": -77.00506366666667}, {"fusion_lat": 0.0, "name": "b50ceba84b967bec289322e11514dbe4", "is_disabled": 0, "rental_uris": {"android": "https://dc.lft.to/lastmile_qr_scan", "ios": "https://dc.lft.to/lastmile_qr_scan"}, "fusion_lon": 0.0, "lat": 38.9274775, "bike_id": "b50ceba84b967bec289322e11514dbe4", "type": "electric_scooter", "is_reserved": 0, "lon": -77.02434833333334}, {"fusion_lat": 0.0, "name": "90592521b48f4c410800fe62fab1c181", "is_disabled": 0, "rental_uris": {"android": "https://dc.lft.to/lastmile_qr_scan", "ios": "https://dc.lft.to/lastmile_qr_scan"}, "fusion_lon": 0.0, "lat": 38.90064433333333, "bike_id": "90592521b48f4c410800fe62fab1c181", "type": "electric_scooter", "is_reserved": 0, "lon": -76.92746333333334}, {"fusion_lat": 0.0, "name": "d24eac12a2472f3137ae7dd64a6fabcc", "is_disabled": 0, "rental_uris": {"android": "https://dc.lft.to/lastmile_qr_scan", "ios": "https://dc.lft.to/lastmile_qr_scan"}, "fusion_lon": 0.0, "lat": 38.89657366666667, "bike_id": "d24eac12a2472f3137ae7dd64a6fabcc", "type": "electric_scooter", "is_reserved": 0, "lon": -77.0508265}, {"fusion_lat": 0.0, "name": "e1c1f0f7450a5e5c5f5e641e88d768ab", "is_disabled": 0, "rental_uris": {"android": "https://dc.lft.to/lastmile_qr_scan", "ios": "https://dc.lft.to/lastmile_qr_scan"}, "fusion_lon": 0.0, "lat": 38.876628, "bike_id": "e1c1f0f7450a5e5c5f5e641e88d768ab", "type": "electric_scooter", "is_reserved": 0, "lon": -76.99624816666666}, {"fusion_lat": 0.0, "name": "d84db72c97ac0480007a6734fd5a7021", "is_disabled": 0, "rental_uris": {"android": "https://dc.lft.to/lastmile_qr_scan", "ios": "https://dc.lft.to/lastmile_qr_scan"}, "fusion_lon": 0.0, "lat": 38.89533433333333, "bike_id": "d84db72c97ac0480007a6734fd5a7021", "type": "electric_scooter", "is_reserved": 0, "lon": -76.9496245}, {"fusion_lat": 0.0, "name": "fc9609e7842e49fef94d498fb12c0cd3", "is_disabled": 0, "rental_uris": {"android": "https://dc.lft.to/lastmile_qr_scan", "ios": "https://dc.lft.to/lastmile_qr_scan"}, "fusion_lon": 0.0, "lat": 38.8739095, "bike_id": "fc9609e7842e49fef94d498fb12c0cd3", "type": "electric_scooter", "is_reserved": 0, "lon": -77.0003605}, {"fusion_lat": 0.0, "name": "63873d5d0dd3ba218c92bd9874de75c0", "is_disabled": 0, "rental_uris": {"android": "https://dc.lft.to/lastmile_qr_scan", "ios": "https://dc.lft.to/lastmile_qr_scan"}, "fusion_lon": 0.0, "lat": 38.874856, "bike_id": "63873d5d0dd3ba218c92bd9874de75c0", "type": "electric_scooter", "is_reserved": 0, "lon": -77.0011935}, {"fusion_lat": 0.0, "name": "715a31fb691aeda6d20672176c3a8011", "is_disabled": 0, "rental_uris": {"android": "https://dc.lft.to/lastmile_qr_scan", "ios": "https://dc.lft.to/lastmile_qr_scan"}, "fusion_lon": 0.0, "lat": 38.892945166666664, "bike_id": "715a31fb691aeda6d20672176c3a8011", "type": "electric_scooter", "is_reserved": 0, "lon": -77.0487585}, {"fusion_lat": 0.0, "name": "11464eba8bf8acebadfb3c2dc9b4b473", "is_disabled": 0, "rental_uris": {"android": "https://dc.lft.to/lastmile_qr_scan", "ios": "https://dc.lft.to/lastmile_qr_scan"}, "fusion_lon": 0.0, "lat": 38.9508005, "bike_id": "11464eba8bf8acebadfb3c2dc9b4b473", "type": "electric_bike", "is_reserved": 0, "lon": -77.01193883333333}, {"fusion_lat": 0.0, "name": "89c86bf65115778d8f2ed79cf6e9927d", "is_disabled": 0, "rental_uris": {"android": "https://dc.lft.to/lastmile_qr_scan", "ios": "https://dc.lft.to/lastmile_qr_scan"}, "fusion_lon": 0.0, "lat": 38.889848666666666, "bike_id": "89c86bf65115778d8f2ed79cf6e9927d", "type": "electric_scooter", "is_reserved": 0, "lon": -76.91417083333333}, {"fusion_lat": 0.0, "name": "37587a9a39a94f6035684bf1abfb9b10", "is_disabled": 0, "rental_uris": {"android": "https://dc.lft.to/lastmile_qr_scan", "ios": "https://dc.lft.to/lastmile_qr_scan"}, "fusion_lon": 0.0, "lat": 38.92034133333333, "bike_id": "37587a9a39a94f6035684bf1abfb9b10", "type": "electric_scooter", "is_reserved": 0, "lon": -77.01796816666666}, {"fusion_lat": 0.0, "name": "a0cf99b06c223e0c4cb5a0148b928c84", "is_disabled": 0, "rental_uris": {"android": "https://dc.lft.to/lastmile_qr_scan", "ios": "https://dc.lft.to/lastmile_qr_scan"}, "fusion_lon": 0.0, "lat": 38.95799783333333, "bike_id": "a0cf99b06c223e0c4cb5a0148b928c84", "type": "electric_bike", "is_reserved": 0, "lon": -76.96046366666667}, {"fusion_lat": 0.0, "name": "bad5c10235b9673342c0cd8bb1a4188b", "is_disabled": 0, "rental_uris": {"android": "https://dc.lft.to/lastmile_qr_scan", "ios": "https://dc.lft.to/lastmile_qr_scan"}, "fusion_lon": 0.0, "lat": 38.908432, "bike_id": "bad5c10235b9673342c0cd8bb1a4188b", "type": "electric_scooter", "is_reserved": 0, "lon": -77.04663983333333}, {"fusion_lat": 0.0, "name": "5d289c87d48456b42ea9dbab25db111f", "is_disabled": 0, "rental_uris": {"android": "https://dc.lft.to/lastmile_qr_scan", "ios": "https://dc.lft.to/lastmile_qr_scan"}, "fusion_lon": 0.0, "lat": 38.921981833333334, "bike_id": "5d289c87d48456b42ea9dbab25db111f", "type": "electric_scooter", "is_reserved": 0, "lon": -77.08073733333333}, {"fusion_lat": 0.0, "name": "d7597fb88338d968dd6a03560dc91d31", "is_disabled": 0, "rental_uris": {"android": "https://dc.lft.to/lastmile_qr_scan", "ios": "https://dc.lft.to/lastmile_qr_scan"}, "fusion_lon": 0.0, "lat": 38.915513, "bike_id": "d7597fb88338d968dd6a03560dc91d31", "type": "electric_scooter", "is_reserved": 0, "lon": -77.03125233333333}, {"fusion_lat": 0.0, "name": "78b84dfbb00ef64be128f28e9040bf19", "is_disabled": 0, "rental_uris": {"android": "https://dc.lft.to/lastmile_qr_scan", "ios": "https://dc.lft.to/lastmile_qr_scan"}, "fusion_lon": 0.0, "lat": 38.914455833333335, "bike_id": "78b84dfbb00ef64be128f28e9040bf19", "type": "electric_scooter", "is_reserved": 0, "lon": -77.04496666666667}, {"fusion_lat": 0.0, "name": "ccae35db2d9d74fa81f88e2019fda5b1", "is_disabled": 0, "rental_uris": {"android": "https://dc.lft.to/lastmile_qr_scan", "ios": "https://dc.lft.to/lastmile_qr_scan"}, "fusion_lon": 0.0, "lat": 38.90500816666667, "bike_id": "ccae35db2d9d74fa81f88e2019fda5b1", "type": "electric_scooter", "is_reserved": 0, "lon": -77.04653833333333}, {"fusion_lat": 0.0, "name": "e2b14372282188044eb0a91da8bdad0f", "is_disabled": 0, "rental_uris": {"android": "https://dc.lft.to/lastmile_qr_scan", "ios": "https://dc.lft.to/lastmile_qr_scan"}, "fusion_lon": 0.0, "lat": 38.9144755, "bike_id": "e2b14372282188044eb0a91da8bdad0f", "type": "electric_scooter", "is_reserved": 0, "lon": -77.02180583333333}, {"fusion_lat": 0.0, "name": "f25d77b97f7d42f792939b2bee41bd1e", "is_disabled": 0, "rental_uris": {"android": "https://dc.lft.to/lastmile_qr_scan", "ios": "https://dc.lft.to/lastmile_qr_scan"}, "fusion_lon": 0.0, "lat": 38.90833683333334, "bike_id": "f25d77b97f7d42f792939b2bee41bd1e", "type": "electric_scooter", "is_reserved": 0, "lon": -77.0364485}, {"fusion_lat": 0.0, "name": "6899671e25f00fe38842cd2bd4a31f5f", "is_disabled": 0, "rental_uris": {"android": "https://dc.lft.to/lastmile_qr_scan", "ios": "https://dc.lft.to/lastmile_qr_scan"}, "fusion_lon": 0.0, "lat": 38.897514, "bike_id": "6899671e25f00fe38842cd2bd4a31f5f", "type": "electric_scooter", "is_reserved": 0, "lon": -77.0489105}, {"fusion_lat": 0.0, "name": "5eadbee020e26a150cbb026ee0fa9c8e", "is_disabled": 0, "rental_uris": {"android": "https://dc.lft.to/lastmile_qr_scan", "ios": "https://dc.lft.to/lastmile_qr_scan"}, "fusion_lon": 0.0, "lat": 38.96439866666667, "bike_id": "5eadbee020e26a150cbb026ee0fa9c8e", "type": "electric_bike", "is_reserved": 0, "lon": -77.02069383333334}, {"fusion_lat": 0.0, "name": "f0f40ad89148f61bc99f9aaf4b41f8df", "is_disabled": 0, "rental_uris": {"android": "https://dc.lft.to/lastmile_qr_scan", "ios": "https://dc.lft.to/lastmile_qr_scan"}, "fusion_lon": 0.0, "lat": 38.91841, "bike_id": "f0f40ad89148f61bc99f9aaf4b41f8df", "type": "electric_scooter", "is_reserved": 0, "lon": -77.01611566666666}, {"fusion_lat": 0.0, "name": "cc2ec55706f1c66810c5fff5f39bb149", "is_disabled": 0, "rental_uris": {"android": "https://dc.lft.to/lastmile_qr_scan", "ios": "https://dc.lft.to/lastmile_qr_scan"}, "fusion_lon": 0.0, "lat": 38.920207166666664, "bike_id": "cc2ec55706f1c66810c5fff5f39bb149", "type": "electric_scooter", "is_reserved": 0, "lon": -77.0818965}, {"fusion_lat": 0.0, "name": "a46633709e193da7c91181c1faaef78d", "is_disabled": 0, "rental_uris": {"android": "https://dc.lft.to/lastmile_qr_scan", "ios": "https://dc.lft.to/lastmile_qr_scan"}, "fusion_lon": 0.0, "lat": 38.93645816666667, "bike_id": "a46633709e193da7c91181c1faaef78d", "type": "electric_scooter", "is_reserved": 0, "lon": -77.03667683333333}, {"fusion_lat": 0.0, "name": "aeb00f3321ae4d04f2fb2ad1a84c05cc", "is_disabled": 0, "rental_uris": {"android": "https://dc.lft.to/lastmile_qr_scan", "ios": "https://dc.lft.to/lastmile_qr_scan"}, "fusion_lon": 0.0, "lat": 38.848405166666666, "bike_id": "aeb00f3321ae4d04f2fb2ad1a84c05cc", "type": "electric_bike", "is_reserved": 0, "lon": -77.07915}, {"fusion_lat": 0.0, "name": "aa03bab846cdc8d99e40303b0982d2a3", "is_disabled": 0, "rental_uris": {"android": "https://dc.lft.to/lastmile_qr_scan", "ios": "https://dc.lft.to/lastmile_qr_scan"}, "fusion_lon": 0.0, "lat": 38.923266166666664, "bike_id": "aa03bab846cdc8d99e40303b0982d2a3", "type": "electric_scooter", "is_reserved": 0, "lon": -77.02078066666667}, {"fusion_lat": 0.0, "name": "657e66437d7fbe92851dd58f847505f2", "is_disabled": 0, "rental_uris": {"android": "https://dc.lft.to/lastmile_qr_scan", "ios": "https://dc.lft.to/lastmile_qr_scan"}, "fusion_lon": 0.0, "lat": 38.925211833333336, "bike_id": "657e66437d7fbe92851dd58f847505f2", "type": "electric_scooter", "is_reserved": 0, "lon": -77.02961566666667}, {"fusion_lat": 0.0, "name": "c6dfb1cf2746990bb083eb322c331e86", "is_disabled": 0, "rental_uris": {"android": "https://dc.lft.to/lastmile_qr_scan", "ios": "https://dc.lft.to/lastmile_qr_scan"}, "fusion_lon": 0.0, "lat": 38.940676, "bike_id": "c6dfb1cf2746990bb083eb322c331e86", "type": "electric_bike", "is_reserved": 0, "lon": -76.99458533333333}, {"fusion_lat": 0.0, "name": "30297a2005008bb4277140f9ae79fa3e", "is_disabled": 0, "rental_uris": {"android": "https://dc.lft.to/lastmile_qr_scan", "ios": "https://dc.lft.to/lastmile_qr_scan"}, "fusion_lon": 0.0, "lat": 38.87467383333333, "bike_id": "30297a2005008bb4277140f9ae79fa3e", "type": "electric_scooter", "is_reserved": 0, "lon": -77.00561066666667}, {"fusion_lat": 0.0, "name": "6f96939176cb287356bf8b8a56f77747", "is_disabled": 0, "rental_uris": {"android": "https://dc.lft.to/lastmile_qr_scan", "ios": "https://dc.lft.to/lastmile_qr_scan"}, "fusion_lon": 0.0, "lat": 38.93459333333333, "bike_id": "6f96939176cb287356bf8b8a56f77747", "type": "electric_scooter", "is_reserved": 0, "lon": -77.0411895}, {"fusion_lat": 0.0, "name": "8a0db290b70bbf49cac673b01f25580b", "is_disabled": 0, "rental_uris": {"android": "https://dc.lft.to/lastmile_qr_scan", "ios": "https://dc.lft.to/lastmile_qr_scan"}, "fusion_lon": 0.0, "lat": 38.8873695, "bike_id": "8a0db290b70bbf49cac673b01f25580b", "type": "electric_scooter", "is_reserved": 0, "lon": -77.00344683333333}, {"fusion_lat": 0.0, "name": "cf1f801bc1edc3cf537c75364abf2cc4", "is_disabled": 0, "rental_uris": {"android": "https://dc.lft.to/lastmile_qr_scan", "ios": "https://dc.lft.to/lastmile_qr_scan"}, "fusion_lon": 0.0, "lat": 38.903195, "bike_id": "cf1f801bc1edc3cf537c75364abf2cc4", "type": "electric_scooter", "is_reserved": 0, "lon": -77.01192066666667}, {"fusion_lat": 0.0, "name": "46d96cfa1a65318a1438b7adebf66c26", "is_disabled": 0, "rental_uris": {"android": "https://dc.lft.to/lastmile_qr_scan", "ios": "https://dc.lft.to/lastmile_qr_scan"}, "fusion_lon": 0.0, "lat": 38.916295166666664, "bike_id": "46d96cfa1a65318a1438b7adebf66c26", "type": "electric_scooter", "is_reserved": 0, "lon": -77.01345916666666}, {"fusion_lat": 0.0, "name": "7fa7b9c39977df9e08d79a9e5120a56e", "is_disabled": 0, "rental_uris": {"android": "https://dc.lft.to/lastmile_qr_scan", "ios": "https://dc.lft.to/lastmile_qr_scan"}, "fusion_lon": 0.0, "lat": 38.90731916666667, "bike_id": "7fa7b9c39977df9e08d79a9e5120a56e", "type": "electric_scooter", "is_reserved": 0, "lon": -77.0481045}, {"fusion_lat": 0.0, "name": "6a06858ebbd5d79dfe1329b22e055c9b", "is_disabled": 0, "rental_uris": {"android": "https://dc.lft.to/lastmile_qr_scan", "ios": "https://dc.lft.to/lastmile_qr_scan"}, "fusion_lon": 0.0, "lat": 38.90666316666667, "bike_id": "6a06858ebbd5d79dfe1329b22e055c9b", "type": "electric_scooter", "is_reserved": 0, "lon": -77.03867283333334}, {"fusion_lat": 0.0, "name": "7555987798f9037e3ddbe01aba854f78", "is_disabled": 0, "rental_uris": {"android": "https://dc.lft.to/lastmile_qr_scan", "ios": "https://dc.lft.to/lastmile_qr_scan"}, "fusion_lon": 0.0, "lat": 38.93172966666667, "bike_id": "7555987798f9037e3ddbe01aba854f78", "type": "electric_scooter", "is_reserved": 0, "lon": -77.0785095}, {"fusion_lat": 0.0, "name": "44456581ae21f938e9c001e5f8989006", "is_disabled": 0, "rental_uris": {"android": "https://dc.lft.to/lastmile_qr_scan", "ios": "https://dc.lft.to/lastmile_qr_scan"}, "fusion_lon": 0.0, "lat": 38.9126845, "bike_id": "44456581ae21f938e9c001e5f8989006", "type": "electric_scooter", "is_reserved": 0, "lon": -77.03831283333334}, {"fusion_lat": 0.0, "name": "2a4be709dc6152bada5771d308b2a217", "is_disabled": 0, "rental_uris": {"android": "https://dc.lft.to/lastmile_qr_scan", "ios": "https://dc.lft.to/lastmile_qr_scan"}, "fusion_lon": 0.0, "lat": 38.900619, "bike_id": "2a4be709dc6152bada5771d308b2a217", "type": "electric_scooter", "is_reserved": 0, "lon": -76.93383216666666}, {"fusion_lat": 0.0, "name": "db34deeb54c9f6d19a204965dbf5a7c1", "is_disabled": 0, "rental_uris": {"android": "https://dc.lft.to/lastmile_qr_scan", "ios": "https://dc.lft.to/lastmile_qr_scan"}, "fusion_lon": 0.0, "lat": 38.915545, "bike_id": "db34deeb54c9f6d19a204965dbf5a7c1", "type": "electric_scooter", "is_reserved": 0, "lon": -77.01131566666666}, {"fusion_lat": 0.0, "name": "c152306be9b015dd6185a9726b8e8837", "is_disabled": 0, "rental_uris": {"android": "https://dc.lft.to/lastmile_qr_scan", "ios": "https://dc.lft.to/lastmile_qr_scan"}, "fusion_lon": 0.0, "lat": 38.939995333333336, "bike_id": "c152306be9b015dd6185a9726b8e8837", "type": "electric_scooter", "is_reserved": 0, "lon": -77.08428066666667}, {"fusion_lat": 0.0, "name": "8316c8dd6c50aa7e0e80aec664d4546f", "is_disabled": 0, "rental_uris": {"android": "https://dc.lft.to/lastmile_qr_scan", "ios": "https://dc.lft.to/lastmile_qr_scan"}, "fusion_lon": 0.0, "lat": 38.83515466666667, "bike_id": "8316c8dd6c50aa7e0e80aec664d4546f", "type": "electric_bike", "is_reserved": 0, "lon": -76.98682783333334}, {"fusion_lat": 0.0, "name": "e4b84004fcdf1260a70497da218789a3", "is_disabled": 0, "rental_uris": {"android": "https://dc.lft.to/lastmile_qr_scan", "ios": "https://dc.lft.to/lastmile_qr_scan"}, "fusion_lon": 0.0, "lat": 38.94270866666667, "bike_id": "e4b84004fcdf1260a70497da218789a3", "type": "electric_scooter", "is_reserved": 0, "lon": -77.03253816666667}, {"fusion_lat": 0.0, "name": "07544bddfec5954bd2658ca2cf3aaeb4", "is_disabled": 0, "rental_uris": {"android": "https://dc.lft.to/lastmile_qr_scan", "ios": "https://dc.lft.to/lastmile_qr_scan"}, "fusion_lon": 0.0, "lat": 38.90764866666667, "bike_id": "07544bddfec5954bd2658ca2cf3aaeb4", "type": "electric_scooter", "is_reserved": 0, "lon": -77.05593866666666}, {"fusion_lat": 0.0, "name": "6742f7f0a72647f2b04b5961500ddf1b", "is_disabled": 0, "rental_uris": {"android": "https://dc.lft.to/lastmile_qr_scan", "ios": "https://dc.lft.to/lastmile_qr_scan"}, "fusion_lon": 0.0, "lat": 38.90472666666667, "bike_id": "6742f7f0a72647f2b04b5961500ddf1b", "type": "electric_scooter", "is_reserved": 0, "lon": -77.0322625}, {"fusion_lat": 0.0, "name": "7b42fde4ba424b093de6df929d973f6e", "is_disabled": 0, "rental_uris": {"android": "https://dc.lft.to/lastmile_qr_scan", "ios": "https://dc.lft.to/lastmile_qr_scan"}, "fusion_lon": 0.0, "lat": 38.9143375, "bike_id": "7b42fde4ba424b093de6df929d973f6e", "type": "electric_scooter", "is_reserved": 0, "lon": -77.02200183333333}, {"fusion_lat": 0.0, "name": "e89f81a48c1ab9156e6e8da343f550aa", "is_disabled": 0, "rental_uris": {"android": "https://dc.lft.to/lastmile_qr_scan", "ios": "https://dc.lft.to/lastmile_qr_scan"}, "fusion_lon": 0.0, "lat": 38.90681883333333, "bike_id": "e89f81a48c1ab9156e6e8da343f550aa", "type": "electric_scooter", "is_reserved": 0, "lon": -77.0721365}, {"fusion_lat": 0.0, "name": "ac8ae51441ad6b0d9caca20d7f5f7ba5", "is_disabled": 0, "rental_uris": {"android": "https://dc.lft.to/lastmile_qr_scan", "ios": "https://dc.lft.to/lastmile_qr_scan"}, "fusion_lon": 0.0, "lat": 38.9111885, "bike_id": "ac8ae51441ad6b0d9caca20d7f5f7ba5", "type": "electric_scooter", "is_reserved": 0, "lon": -77.0115655}, {"fusion_lat": 0.0, "name": "726ab166314d5567a0d62f6b9ccaa4ba", "is_disabled": 0, "rental_uris": {"android": "https://dc.lft.to/lastmile_qr_scan", "ios": "https://dc.lft.to/lastmile_qr_scan"}, "fusion_lon": 0.0, "lat": 38.90121116666667, "bike_id": "726ab166314d5567a0d62f6b9ccaa4ba", "type": "electric_scooter", "is_reserved": 0, "lon": -77.041607}, {"fusion_lat": 0.0, "name": "8fb01177ceb635b07a897e0410b1b657", "is_disabled": 0, "rental_uris": {"android": "https://dc.lft.to/lastmile_qr_scan", "ios": "https://dc.lft.to/lastmile_qr_scan"}, "fusion_lon": 0.0, "lat": 38.90440316666667, "bike_id": "8fb01177ceb635b07a897e0410b1b657", "type": "electric_scooter", "is_reserved": 0, "lon": -77.02589316666666}, {"fusion_lat": 0.0, "name": "b9894723bc273ca139289f836d3153ff", "is_disabled": 0, "rental_uris": {"android": "https://dc.lft.to/lastmile_qr_scan", "ios": "https://dc.lft.to/lastmile_qr_scan"}, "fusion_lon": 0.0, "lat": 38.89929216666667, "bike_id": "b9894723bc273ca139289f836d3153ff", "type": "electric_scooter", "is_reserved": 0, "lon": -77.04865216666667}, {"fusion_lat": 0.0, "name": "08e3b10fb792e4e9a7b26606086913f1", "is_disabled": 0, "rental_uris": {"android": "https://dc.lft.to/lastmile_qr_scan", "ios": "https://dc.lft.to/lastmile_qr_scan"}, "fusion_lon": 0.0, "lat": 38.90921383333333, "bike_id": "08e3b10fb792e4e9a7b26606086913f1", "type": "electric_scooter", "is_reserved": 0, "lon": -77.02294666666667}, {"fusion_lat": 0.0, "name": "761408f49689beb2f6aaf69ff2eb712e", "is_disabled": 0, "rental_uris": {"android": "https://dc.lft.to/lastmile_qr_scan", "ios": "https://dc.lft.to/lastmile_qr_scan"}, "fusion_lon": 0.0, "lat": 38.923118333333335, "bike_id": "761408f49689beb2f6aaf69ff2eb712e", "type": "electric_scooter", "is_reserved": 0, "lon": -77.041379}, {"fusion_lat": 0.0, "name": "e31d0c1c8dba8e32458c2ebfa62f5ebd", "is_disabled": 0, "rental_uris": {"android": "https://dc.lft.to/lastmile_qr_scan", "ios": "https://dc.lft.to/lastmile_qr_scan"}, "fusion_lon": 0.0, "lat": 38.919336333333334, "bike_id": "e31d0c1c8dba8e32458c2ebfa62f5ebd", "type": "electric_scooter", "is_reserved": 0, "lon": -77.02431166666666}, {"fusion_lat": 0.0, "name": "021c58d8e80bd82890cad8ea77e80094", "is_disabled": 0, "rental_uris": {"android": "https://dc.lft.to/lastmile_qr_scan", "ios": "https://dc.lft.to/lastmile_qr_scan"}, "fusion_lon": 0.0, "lat": 38.91040066666667, "bike_id": "021c58d8e80bd82890cad8ea77e80094", "type": "electric_scooter", "is_reserved": 0, "lon": -77.034297}, {"fusion_lat": 0.0, "name": "f7cf223b5f6cffbe3f396d6fabde7803", "is_disabled": 0, "rental_uris": {"android": "https://dc.lft.to/lastmile_qr_scan", "ios": "https://dc.lft.to/lastmile_qr_scan"}, "fusion_lon": 0.0, "lat": 38.9050335, "bike_id": "f7cf223b5f6cffbe3f396d6fabde7803", "type": "electric_scooter", "is_reserved": 0, "lon": -77.02950466666667}, {"fusion_lat": 0.0, "name": "ccbbf4f13635391ac0aed0fa70ce0fec", "is_disabled": 0, "rental_uris": {"android": "https://dc.lft.to/lastmile_qr_scan", "ios": "https://dc.lft.to/lastmile_qr_scan"}, "fusion_lon": 0.0, "lat": 38.918211666666664, "bike_id": "ccbbf4f13635391ac0aed0fa70ce0fec", "type": "electric_scooter", "is_reserved": 0, "lon": -77.02707116666667}, {"fusion_lat": 0.0, "name": "3d0cc959ebd50f01b5baf79a8a0ab01e", "is_disabled": 0, "rental_uris": {"android": "https://dc.lft.to/lastmile_qr_scan", "ios": "https://dc.lft.to/lastmile_qr_scan"}, "fusion_lon": 0.0, "lat": 38.927694, "bike_id": "3d0cc959ebd50f01b5baf79a8a0ab01e", "type": "electric_scooter", "is_reserved": 0, "lon": -77.02291016666666}, {"fusion_lat": 0.0, "name": "845adc3667f443a69f817bf161200993", "is_disabled": 0, "rental_uris": {"android": "https://dc.lft.to/lastmile_qr_scan", "ios": "https://dc.lft.to/lastmile_qr_scan"}, "fusion_lon": 0.0, "lat": 38.90721033333333, "bike_id": "845adc3667f443a69f817bf161200993", "type": "electric_scooter", "is_reserved": 0, "lon": -77.0498715}, {"fusion_lat": 0.0, "name": "9f528b990c2d0efb5f581817feb85a9f", "is_disabled": 0, "rental_uris": {"android": "https://dc.lft.to/lastmile_qr_scan", "ios": "https://dc.lft.to/lastmile_qr_scan"}, "fusion_lon": 0.0, "lat": 38.8882305, "bike_id": "9f528b990c2d0efb5f581817feb85a9f", "type": "electric_scooter", "is_reserved": 0, "lon": -76.9866435}, {"fusion_lat": 0.0, "name": "be3a618ad193c8d4848791a3663a2bbb", "is_disabled": 0, "rental_uris": {"android": "https://dc.lft.to/lastmile_qr_scan", "ios": "https://dc.lft.to/lastmile_qr_scan"}, "fusion_lon": 0.0, "lat": 38.9104945, "bike_id": "be3a618ad193c8d4848791a3663a2bbb", "type": "electric_scooter", "is_reserved": 0, "lon": -77.064547}, {"fusion_lat": 0.0, "name": "faa8c7b0ded2eeeeb9b5a1ab7372d1ec", "is_disabled": 0, "rental_uris": {"android": "https://dc.lft.to/lastmile_qr_scan", "ios": "https://dc.lft.to/lastmile_qr_scan"}, "fusion_lon": 0.0, "lat": 38.91819, "bike_id": "faa8c7b0ded2eeeeb9b5a1ab7372d1ec", "type": "electric_scooter", "is_reserved": 0, "lon": -77.03683016666666}, {"fusion_lat": 0.0, "name": "6352b05116f2bb48472729d02b9ca10b", "is_disabled": 0, "rental_uris": {"android": "https://dc.lft.to/lastmile_qr_scan", "ios": "https://dc.lft.to/lastmile_qr_scan"}, "fusion_lon": 0.0, "lat": 38.922461, "bike_id": "6352b05116f2bb48472729d02b9ca10b", "type": "electric_scooter", "is_reserved": 0, "lon": -77.0745155}, {"fusion_lat": 0.0, "name": "e54dcf5e64eedc50124ec633e98c9c30", "is_disabled": 0, "rental_uris": {"android": "https://dc.lft.to/lastmile_qr_scan", "ios": "https://dc.lft.to/lastmile_qr_scan"}, "fusion_lon": 0.0, "lat": 38.9256195, "bike_id": "e54dcf5e64eedc50124ec633e98c9c30", "type": "electric_scooter", "is_reserved": 0, "lon": -77.0438145}, {"fusion_lat": 0.0, "name": "5c386a2a8f1bb0cfc91b0b32af97edb1", "is_disabled": 0, "rental_uris": {"android": "https://dc.lft.to/lastmile_qr_scan", "ios": "https://dc.lft.to/lastmile_qr_scan"}, "fusion_lon": 0.0, "lat": 38.935119666666665, "bike_id": "5c386a2a8f1bb0cfc91b0b32af97edb1", "type": "electric_scooter", "is_reserved": 0, "lon": -77.0329005}, {"fusion_lat": 0.0, "name": "d7580e68af8bddaf9f3f9463aeabb275", "is_disabled": 0, "rental_uris": {"android": "https://dc.lft.to/lastmile_qr_scan", "ios": "https://dc.lft.to/lastmile_qr_scan"}, "fusion_lon": 0.0, "lat": 38.9218065, "bike_id": "d7580e68af8bddaf9f3f9463aeabb275", "type": "electric_scooter", "is_reserved": 0, "lon": -77.02667183333334}, {"fusion_lat": 0.0, "name": "bf5e74b39b5494e2623ac87f479955ae", "is_disabled": 0, "rental_uris": {"android": "https://dc.lft.to/lastmile_qr_scan", "ios": "https://dc.lft.to/lastmile_qr_scan"}, "fusion_lon": 0.0, "lat": 38.89581166666667, "bike_id": "bf5e74b39b5494e2623ac87f479955ae", "type": "electric_scooter", "is_reserved": 0, "lon": -77.03172833333333}, {"fusion_lat": 0.0, "name": "1b0a5af72d93632b207111e149c68276", "is_disabled": 0, "rental_uris": {"android": "https://dc.lft.to/lastmile_qr_scan", "ios": "https://dc.lft.to/lastmile_qr_scan"}, "fusion_lon": 0.0, "lat": 38.907314166666666, "bike_id": "1b0a5af72d93632b207111e149c68276", "type": "electric_scooter", "is_reserved": 0, "lon": -77.02968516666667}, {"fusion_lat": 0.0, "name": "7613965a8f597df3ded1bc0a6b436fb5", "is_disabled": 0, "rental_uris": {"android": "https://dc.lft.to/lastmile_qr_scan", "ios": "https://dc.lft.to/lastmile_qr_scan"}, "fusion_lon": 0.0, "lat": 38.909699333333336, "bike_id": "7613965a8f597df3ded1bc0a6b436fb5", "type": "electric_scooter", "is_reserved": 0, "lon": -77.0215785}, {"fusion_lat": 0.0, "name": "1ca12059c620107052253e98c85fbab5", "is_disabled": 0, "rental_uris": {"android": "https://dc.lft.to/lastmile_qr_scan", "ios": "https://dc.lft.to/lastmile_qr_scan"}, "fusion_lon": 0.0, "lat": 38.90019266666667, "bike_id": "1ca12059c620107052253e98c85fbab5", "type": "electric_scooter", "is_reserved": 0, "lon": -77.02400783333333}, {"fusion_lat": 0.0, "name": "79c981ecb8500bbf0cd7d1b6d21392f6", "is_disabled": 0, "rental_uris": {"android": "https://dc.lft.to/lastmile_qr_scan", "ios": "https://dc.lft.to/lastmile_qr_scan"}, "fusion_lon": 0.0, "lat": 38.899526333333334, "bike_id": "79c981ecb8500bbf0cd7d1b6d21392f6", "type": "electric_scooter", "is_reserved": 0, "lon": -76.98549133333333}, {"fusion_lat": 0.0, "name": "648d938aa10ddd25a95305e029f8dab7", "is_disabled": 0, "rental_uris": {"android": "https://dc.lft.to/lastmile_qr_scan", "ios": "https://dc.lft.to/lastmile_qr_scan"}, "fusion_lon": 0.0, "lat": 38.887949, "bike_id": "648d938aa10ddd25a95305e029f8dab7", "type": "electric_bike", "is_reserved": 0, "lon": -76.929946}, {"fusion_lat": 0.0, "name": "18e20c0075f0862bd6539e30e70629b3", "is_disabled": 0, "rental_uris": {"android": "https://dc.lft.to/lastmile_qr_scan", "ios": "https://dc.lft.to/lastmile_qr_scan"}, "fusion_lon": 0.0, "lat": 38.92987183333334, "bike_id": "18e20c0075f0862bd6539e30e70629b3", "type": "electric_scooter", "is_reserved": 0, "lon": -77.03471633333334}, {"fusion_lat": 0.0, "name": "dd1b291bed8c280cf096a10e0a96cc69", "is_disabled": 0, "rental_uris": {"android": "https://dc.lft.to/lastmile_qr_scan", "ios": "https://dc.lft.to/lastmile_qr_scan"}, "fusion_lon": 0.0, "lat": 38.907949, "bike_id": "dd1b291bed8c280cf096a10e0a96cc69", "type": "electric_scooter", "is_reserved": 0, "lon": -77.04337883333334}, {"fusion_lat": 0.0, "name": "c4aa68a14f15a9a6b57f21231d0480c0", "is_disabled": 0, "rental_uris": {"android": "https://dc.lft.to/lastmile_qr_scan", "ios": "https://dc.lft.to/lastmile_qr_scan"}, "fusion_lon": 0.0, "lat": 38.932008833333335, "bike_id": "c4aa68a14f15a9a6b57f21231d0480c0", "type": "electric_scooter", "is_reserved": 0, "lon": -77.03662866666667}, {"fusion_lat": 0.0, "name": "dac068046d4d8cb468034c916de9f0db", "is_disabled": 0, "rental_uris": {"android": "https://dc.lft.to/lastmile_qr_scan", "ios": "https://dc.lft.to/lastmile_qr_scan"}, "fusion_lon": 0.0, "lat": 38.92114316666667, "bike_id": "dac068046d4d8cb468034c916de9f0db", "type": "electric_scooter", "is_reserved": 0, "lon": -77.04436116666666}, {"fusion_lat": 0.0, "name": "6b30445fa10417c8691dfe07dbf01c00", "is_disabled": 0, "rental_uris": {"android": "https://dc.lft.to/lastmile_qr_scan", "ios": "https://dc.lft.to/lastmile_qr_scan"}, "fusion_lon": 0.0, "lat": 38.82785583333333, "bike_id": "6b30445fa10417c8691dfe07dbf01c00", "type": "electric_bike", "is_reserved": 0, "lon": -77.12485216666667}, {"fusion_lat": 0.0, "name": "d305dd4adcb33031e4a2db3f470a3e46", "is_disabled": 0, "rental_uris": {"android": "https://dc.lft.to/lastmile_qr_scan", "ios": "https://dc.lft.to/lastmile_qr_scan"}, "fusion_lon": 0.0, "lat": 38.8852165, "bike_id": "d305dd4adcb33031e4a2db3f470a3e46", "type": "electric_scooter", "is_reserved": 0, "lon": -76.97710766666667}, {"fusion_lat": 0.0, "name": "cd9d283e91d8ed1347189798300353bd", "is_disabled": 0, "rental_uris": {"android": "https://dc.lft.to/lastmile_qr_scan", "ios": "https://dc.lft.to/lastmile_qr_scan"}, "fusion_lon": 0.0, "lat": 38.93116233333333, "bike_id": "cd9d283e91d8ed1347189798300353bd", "type": "electric_scooter", "is_reserved": 0, "lon": -77.02087366666666}, {"fusion_lat": 0.0, "name": "308531f49f6e21ef251a9659f2207988", "is_disabled": 0, "rental_uris": {"android": "https://dc.lft.to/lastmile_qr_scan", "ios": "https://dc.lft.to/lastmile_qr_scan"}, "fusion_lon": 0.0, "lat": 38.91122683333333, "bike_id": "308531f49f6e21ef251a9659f2207988", "type": "electric_scooter", "is_reserved": 0, "lon": -77.08134866666667}, {"fusion_lat": 0.0, "name": "7af99399e7346d734d543ad5abd98320", "is_disabled": 0, "rental_uris": {"android": "https://dc.lft.to/lastmile_qr_scan", "ios": "https://dc.lft.to/lastmile_qr_scan"}, "fusion_lon": 0.0, "lat": 38.89978716666667, "bike_id": "7af99399e7346d734d543ad5abd98320", "type": "electric_scooter", "is_reserved": 0, "lon": -77.0267195}, {"fusion_lat": 0.0, "name": "df469a3c4e9b3bb0596327003c040e9a", "is_disabled": 0, "rental_uris": {"android": "https://dc.lft.to/lastmile_qr_scan", "ios": "https://dc.lft.to/lastmile_qr_scan"}, "fusion_lon": 0.0, "lat": 38.90970383333333, "bike_id": "df469a3c4e9b3bb0596327003c040e9a", "type": "electric_scooter", "is_reserved": 0, "lon": -77.02160233333333}, {"fusion_lat": 0.0, "name": "5a5461d9d4c749dd3284ec5961bcb297", "is_disabled": 0, "rental_uris": {"android": "https://dc.lft.to/lastmile_qr_scan", "ios": "https://dc.lft.to/lastmile_qr_scan"}, "fusion_lon": 0.0, "lat": 38.893216833333334, "bike_id": "5a5461d9d4c749dd3284ec5961bcb297", "type": "electric_bike", "is_reserved": 0, "lon": -76.95123166666667}, {"fusion_lat": 0.0, "name": "816aaf6d7a58c27f0bc04436aaf090f1", "is_disabled": 0, "rental_uris": {"android": "https://dc.lft.to/lastmile_qr_scan", "ios": "https://dc.lft.to/lastmile_qr_scan"}, "fusion_lon": 0.0, "lat": 38.917507666666666, "bike_id": "816aaf6d7a58c27f0bc04436aaf090f1", "type": "electric_scooter", "is_reserved": 0, "lon": -77.01222116666666}, {"fusion_lat": 0.0, "name": "e0e396bc95349d1e9b83ed9f38471396", "is_disabled": 0, "rental_uris": {"android": "https://dc.lft.to/lastmile_qr_scan", "ios": "https://dc.lft.to/lastmile_qr_scan"}, "fusion_lon": 0.0, "lat": 38.8852165, "bike_id": "e0e396bc95349d1e9b83ed9f38471396", "type": "electric_scooter", "is_reserved": 0, "lon": -77.017426}, {"fusion_lat": 0.0, "name": "18c84d307a9549436c8decd00a8e63e4", "is_disabled": 0, "rental_uris": {"android": "https://dc.lft.to/lastmile_qr_scan", "ios": "https://dc.lft.to/lastmile_qr_scan"}, "fusion_lon": 0.0, "lat": 38.8794905, "bike_id": "18c84d307a9549436c8decd00a8e63e4", "type": "electric_scooter", "is_reserved": 0, "lon": -77.00847066666667}, {"fusion_lat": 0.0, "name": "462541c31523256fea0f11748e93657a", "is_disabled": 0, "rental_uris": {"android": "https://dc.lft.to/lastmile_qr_scan", "ios": "https://dc.lft.to/lastmile_qr_scan"}, "fusion_lon": 0.0, "lat": 38.897521166666664, "bike_id": "462541c31523256fea0f11748e93657a", "type": "electric_scooter", "is_reserved": 0, "lon": -77.02683383333333}, {"fusion_lat": 0.0, "name": "37bd1c71097e2af911848009088fa3cf", "is_disabled": 0, "rental_uris": {"android": "https://dc.lft.to/lastmile_qr_scan", "ios": "https://dc.lft.to/lastmile_qr_scan"}, "fusion_lon": 0.0, "lat": 38.90733783333334, "bike_id": "37bd1c71097e2af911848009088fa3cf", "type": "electric_scooter", "is_reserved": 0, "lon": -77.02955716666666}, {"fusion_lat": 0.0, "name": "21b7ee80132bfc6eaa2db499a6d65102", "is_disabled": 0, "rental_uris": {"android": "https://dc.lft.to/lastmile_qr_scan", "ios": "https://dc.lft.to/lastmile_qr_scan"}, "fusion_lon": 0.0, "lat": 38.939558166666664, "bike_id": "21b7ee80132bfc6eaa2db499a6d65102", "type": "electric_scooter", "is_reserved": 0, "lon": -77.0328035}, {"fusion_lat": 0.0, "name": "ff00ef1cdf4a38c315558a0084fd577a", "is_disabled": 0, "rental_uris": {"android": "https://dc.lft.to/lastmile_qr_scan", "ios": "https://dc.lft.to/lastmile_qr_scan"}, "fusion_lon": 0.0, "lat": 38.876561833333334, "bike_id": "ff00ef1cdf4a38c315558a0084fd577a", "type": "electric_scooter", "is_reserved": 0, "lon": -77.00661233333334}, {"fusion_lat": 0.0, "name": "9a2ad6270100699cca0c8fb477d3910b", "is_disabled": 0, "rental_uris": {"android": "https://dc.lft.to/lastmile_qr_scan", "ios": "https://dc.lft.to/lastmile_qr_scan"}, "fusion_lon": 0.0, "lat": 38.9001205, "bike_id": "9a2ad6270100699cca0c8fb477d3910b", "type": "electric_scooter", "is_reserved": 0, "lon": -77.00218116666667}, {"fusion_lat": 0.0, "name": "0a0847d150f9da6b34d5545dd54c6768", "is_disabled": 0, "rental_uris": {"android": "https://dc.lft.to/lastmile_qr_scan", "ios": "https://dc.lft.to/lastmile_qr_scan"}, "fusion_lon": 0.0, "lat": 38.92225366666667, "bike_id": "0a0847d150f9da6b34d5545dd54c6768", "type": "electric_scooter", "is_reserved": 0, "lon": -77.023679}, {"fusion_lat": 0.0, "name": "fa095c087cb6bc11483cc72bcb8b6309", "is_disabled": 0, "rental_uris": {"android": "https://dc.lft.to/lastmile_qr_scan", "ios": "https://dc.lft.to/lastmile_qr_scan"}, "fusion_lon": 0.0, "lat": 38.84425933333333, "bike_id": "fa095c087cb6bc11483cc72bcb8b6309", "type": "electric_scooter", "is_reserved": 0, "lon": -76.99778116666667}, {"fusion_lat": 0.0, "name": "6eac013fa00495f8dd3b06e2aa65b5c9", "is_disabled": 0, "rental_uris": {"android": "https://dc.lft.to/lastmile_qr_scan", "ios": "https://dc.lft.to/lastmile_qr_scan"}, "fusion_lon": 0.0, "lat": 38.91661366666666, "bike_id": "6eac013fa00495f8dd3b06e2aa65b5c9", "type": "electric_scooter", "is_reserved": 0, "lon": -77.03856383333333}, {"fusion_lat": 0.0, "name": "99f60bd4614d9b841badca272507aa33", "is_disabled": 0, "rental_uris": {"android": "https://dc.lft.to/lastmile_qr_scan", "ios": "https://dc.lft.to/lastmile_qr_scan"}, "fusion_lon": 0.0, "lat": 38.87815966666667, "bike_id": "99f60bd4614d9b841badca272507aa33", "type": "electric_scooter", "is_reserved": 0, "lon": -77.0012445}, {"fusion_lat": 0.0, "name": "8d0229df3f15811fcbf67252b38652a0", "is_disabled": 0, "rental_uris": {"android": "https://dc.lft.to/lastmile_qr_scan", "ios": "https://dc.lft.to/lastmile_qr_scan"}, "fusion_lon": 0.0, "lat": 38.865156166666665, "bike_id": "8d0229df3f15811fcbf67252b38652a0", "type": "electric_bike", "is_reserved": 0, "lon": -76.97328916666666}, {"fusion_lat": 0.0, "name": "6d1a9d6cf4901c0deec0c762158cbfac", "is_disabled": 0, "rental_uris": {"android": "https://dc.lft.to/lastmile_qr_scan", "ios": "https://dc.lft.to/lastmile_qr_scan"}, "fusion_lon": 0.0, "lat": 38.928096, "bike_id": "6d1a9d6cf4901c0deec0c762158cbfac", "type": "electric_scooter", "is_reserved": 0, "lon": -77.04357716666667}, {"fusion_lat": 0.0, "name": "93b28b2768d0a0e19d5e0e386aa764ae", "is_disabled": 0, "rental_uris": {"android": "https://dc.lft.to/lastmile_qr_scan", "ios": "https://dc.lft.to/lastmile_qr_scan"}, "fusion_lon": 0.0, "lat": 38.849117, "bike_id": "93b28b2768d0a0e19d5e0e386aa764ae", "type": "electric_bike", "is_reserved": 0, "lon": -77.09975683333333}, {"fusion_lat": 0.0, "name": "492e928c3e4ae74fa4c33e0b647d01cb", "is_disabled": 0, "rental_uris": {"android": "https://dc.lft.to/lastmile_qr_scan", "ios": "https://dc.lft.to/lastmile_qr_scan"}, "fusion_lon": 0.0, "lat": 38.9066645, "bike_id": "492e928c3e4ae74fa4c33e0b647d01cb", "type": "electric_scooter", "is_reserved": 0, "lon": -77.038642}, {"fusion_lat": 0.0, "name": "7a62149ead9cc0dfa2fd7c88836b4503", "is_disabled": 0, "rental_uris": {"android": "https://dc.lft.to/lastmile_qr_scan", "ios": "https://dc.lft.to/lastmile_qr_scan"}, "fusion_lon": 0.0, "lat": 38.89104066666667, "bike_id": "7a62149ead9cc0dfa2fd7c88836b4503", "type": "electric_scooter", "is_reserved": 0, "lon": -76.98353383333334}, {"fusion_lat": 0.0, "name": "db58a9d0a86cb9d9221d1db8f781a4f5", "is_disabled": 0, "rental_uris": {"android": "https://dc.lft.to/lastmile_qr_scan", "ios": "https://dc.lft.to/lastmile_qr_scan"}, "fusion_lon": 0.0, "lat": 38.93202316666667, "bike_id": "db58a9d0a86cb9d9221d1db8f781a4f5", "type": "electric_scooter", "is_reserved": 0, "lon": -77.03664116666667}, {"fusion_lat": 0.0, "name": "d1d903f8c2b93bbcc120ef6c0ec33858", "is_disabled": 0, "rental_uris": {"android": "https://dc.lft.to/lastmile_qr_scan", "ios": "https://dc.lft.to/lastmile_qr_scan"}, "fusion_lon": 0.0, "lat": 38.901720833333336, "bike_id": "d1d903f8c2b93bbcc120ef6c0ec33858", "type": "electric_scooter", "is_reserved": 0, "lon": -76.99258333333333}, {"fusion_lat": 0.0, "name": "fb4e9dc05685163a6334d653762cb35e", "is_disabled": 0, "rental_uris": {"android": "https://dc.lft.to/lastmile_qr_scan", "ios": "https://dc.lft.to/lastmile_qr_scan"}, "fusion_lon": 0.0, "lat": 38.928489166666665, "bike_id": "fb4e9dc05685163a6334d653762cb35e", "type": "electric_bike", "is_reserved": 0, "lon": -77.0205695}, {"fusion_lat": 0.0, "name": "0c5c71bb556d5f55bdb5ac467443ea52", "is_disabled": 0, "rental_uris": {"android": "https://dc.lft.to/lastmile_qr_scan", "ios": "https://dc.lft.to/lastmile_qr_scan"}, "fusion_lon": 0.0, "lat": 38.90240983333333, "bike_id": "0c5c71bb556d5f55bdb5ac467443ea52", "type": "electric_scooter", "is_reserved": 0, "lon": -77.00202183333333}, {"fusion_lat": 0.0, "name": "201558b8b9fa3f8b43ebdd895d7dc642", "is_disabled": 0, "rental_uris": {"android": "https://dc.lft.to/lastmile_qr_scan", "ios": "https://dc.lft.to/lastmile_qr_scan"}, "fusion_lon": 0.0, "lat": 38.9223495, "bike_id": "201558b8b9fa3f8b43ebdd895d7dc642", "type": "electric_scooter", "is_reserved": 0, "lon": -77.0290595}, {"fusion_lat": 0.0, "name": "8fa7b3199bb6d88d4d671918be6090a5", "is_disabled": 0, "rental_uris": {"android": "https://dc.lft.to/lastmile_qr_scan", "ios": "https://dc.lft.to/lastmile_qr_scan"}, "fusion_lon": 0.0, "lat": 38.89235216666667, "bike_id": "8fa7b3199bb6d88d4d671918be6090a5", "type": "electric_scooter", "is_reserved": 0, "lon": -76.98817916666667}, {"fusion_lat": 0.0, "name": "6474d1d7d1234fdc03bb7dfec569d0e2", "is_disabled": 0, "rental_uris": {"android": "https://dc.lft.to/lastmile_qr_scan", "ios": "https://dc.lft.to/lastmile_qr_scan"}, "fusion_lon": 0.0, "lat": 38.89617916666667, "bike_id": "6474d1d7d1234fdc03bb7dfec569d0e2", "type": "electric_scooter", "is_reserved": 0, "lon": -77.04492133333333}, {"fusion_lat": 0.0, "name": "abb5410cadaf6f30570a825813f375be", "is_disabled": 0, "rental_uris": {"android": "https://dc.lft.to/lastmile_qr_scan", "ios": "https://dc.lft.to/lastmile_qr_scan"}, "fusion_lon": 0.0, "lat": 38.92173866666667, "bike_id": "abb5410cadaf6f30570a825813f375be", "type": "electric_scooter", "is_reserved": 0, "lon": -77.04031816666667}, {"fusion_lat": 0.0, "name": "c9b3b27c1bc741da2cfed211240a1173", "is_disabled": 0, "rental_uris": {"android": "https://dc.lft.to/lastmile_qr_scan", "ios": "https://dc.lft.to/lastmile_qr_scan"}, "fusion_lon": 0.0, "lat": 38.80684983333333, "bike_id": "c9b3b27c1bc741da2cfed211240a1173", "type": "electric_bike", "is_reserved": 0, "lon": -77.06919766666667}, {"fusion_lat": 0.0, "name": "a7b8bc19d2232456ff3d063ba842c282", "is_disabled": 0, "rental_uris": {"android": "https://dc.lft.to/lastmile_qr_scan", "ios": "https://dc.lft.to/lastmile_qr_scan"}, "fusion_lon": 0.0, "lat": 38.8711415, "bike_id": "a7b8bc19d2232456ff3d063ba842c282", "type": "electric_scooter", "is_reserved": 0, "lon": -77.00571666666667}, {"fusion_lat": 0.0, "name": "3fecbeb5f065cd8d46f3ec2e4a6ae4c9", "is_disabled": 0, "rental_uris": {"android": "https://dc.lft.to/lastmile_qr_scan", "ios": "https://dc.lft.to/lastmile_qr_scan"}, "fusion_lon": 0.0, "lat": 38.884515, "bike_id": "3fecbeb5f065cd8d46f3ec2e4a6ae4c9", "type": "electric_scooter", "is_reserved": 0, "lon": -76.99391333333334}, {"fusion_lat": 0.0, "name": "ecc02f7513723c8a65a5b98aad2687b9", "is_disabled": 0, "rental_uris": {"android": "https://dc.lft.to/lastmile_qr_scan", "ios": "https://dc.lft.to/lastmile_qr_scan"}, "fusion_lon": 0.0, "lat": 38.904984666666664, "bike_id": "ecc02f7513723c8a65a5b98aad2687b9", "type": "electric_scooter", "is_reserved": 0, "lon": -77.00915066666667}, {"fusion_lat": 0.0, "name": "fb0f0f4ab4587f1376dd8e38e8ea48b4", "is_disabled": 0, "rental_uris": {"android": "https://dc.lft.to/lastmile_qr_scan", "ios": "https://dc.lft.to/lastmile_qr_scan"}, "fusion_lon": 0.0, "lat": 38.93749583333334, "bike_id": "fb0f0f4ab4587f1376dd8e38e8ea48b4", "type": "electric_scooter", "is_reserved": 0, "lon": -77.0359255}, {"fusion_lat": 0.0, "name": "f5e24f1d9c4c5b8b09d05689c3ab11e3", "is_disabled": 0, "rental_uris": {"android": "https://dc.lft.to/lastmile_qr_scan", "ios": "https://dc.lft.to/lastmile_qr_scan"}, "fusion_lon": 0.0, "lat": 38.90718733333333, "bike_id": "f5e24f1d9c4c5b8b09d05689c3ab11e3", "type": "electric_scooter", "is_reserved": 0, "lon": -77.0505785}, {"fusion_lat": 0.0, "name": "157d07183c257d18e06837a9e5be8c23", "is_disabled": 0, "rental_uris": {"android": "https://dc.lft.to/lastmile_qr_scan", "ios": "https://dc.lft.to/lastmile_qr_scan"}, "fusion_lon": 0.0, "lat": 38.920716666666664, "bike_id": "157d07183c257d18e06837a9e5be8c23", "type": "electric_scooter", "is_reserved": 0, "lon": -77.01471633333334}, {"fusion_lat": 0.0, "name": "8b6e8df4b4cd294306b2bd9877caed8c", "is_disabled": 0, "rental_uris": {"android": "https://dc.lft.to/lastmile_qr_scan", "ios": "https://dc.lft.to/lastmile_qr_scan"}, "fusion_lon": 0.0, "lat": 38.898888166666666, "bike_id": "8b6e8df4b4cd294306b2bd9877caed8c", "type": "electric_scooter", "is_reserved": 0, "lon": -77.0332515}, {"fusion_lat": 0.0, "name": "058a703bb539846c1174eff3e80721a2", "is_disabled": 0, "rental_uris": {"android": "https://dc.lft.to/lastmile_qr_scan", "ios": "https://dc.lft.to/lastmile_qr_scan"}, "fusion_lon": 0.0, "lat": 38.96183633333333, "bike_id": "058a703bb539846c1174eff3e80721a2", "type": "electric_bike", "is_reserved": 0, "lon": -77.052678}, {"fusion_lat": 0.0, "name": "aa230292cae3c1d2d3df6467d93f09c9", "is_disabled": 0, "rental_uris": {"android": "https://dc.lft.to/lastmile_qr_scan", "ios": "https://dc.lft.to/lastmile_qr_scan"}, "fusion_lon": 0.0, "lat": 38.9728765, "bike_id": "aa230292cae3c1d2d3df6467d93f09c9", "type": "electric_scooter", "is_reserved": 0, "lon": -77.01161016666667}, {"fusion_lat": 0.0, "name": "f44a5d07f1dab1648d460731ea895237", "is_disabled": 0, "rental_uris": {"android": "https://dc.lft.to/lastmile_qr_scan", "ios": "https://dc.lft.to/lastmile_qr_scan"}, "fusion_lon": 0.0, "lat": 38.854503333333334, "bike_id": "f44a5d07f1dab1648d460731ea895237", "type": "electric_scooter", "is_reserved": 0, "lon": -76.9857875}, {"fusion_lat": 0.0, "name": "b5ce5817fedbca8d80a35a00ac5bbe24", "is_disabled": 0, "rental_uris": {"android": "https://dc.lft.to/lastmile_qr_scan", "ios": "https://dc.lft.to/lastmile_qr_scan"}, "fusion_lon": 0.0, "lat": 38.91321166666667, "bike_id": "b5ce5817fedbca8d80a35a00ac5bbe24", "type": "electric_scooter", "is_reserved": 0, "lon": -77.03189716666667}, {"fusion_lat": 0.0, "name": "a9e3b226f54b98b00be85cbbcfb739ff", "is_disabled": 0, "rental_uris": {"android": "https://dc.lft.to/lastmile_qr_scan", "ios": "https://dc.lft.to/lastmile_qr_scan"}, "fusion_lon": 0.0, "lat": 38.92043366666667, "bike_id": "a9e3b226f54b98b00be85cbbcfb739ff", "type": "electric_scooter", "is_reserved": 0, "lon": -77.01795166666666}, {"fusion_lat": 0.0, "name": "c8c8796afe1ab3263f168a9d9ed0a4ec", "is_disabled": 0, "rental_uris": {"android": "https://dc.lft.to/lastmile_qr_scan", "ios": "https://dc.lft.to/lastmile_qr_scan"}, "fusion_lon": 0.0, "lat": 38.891181333333336, "bike_id": "c8c8796afe1ab3263f168a9d9ed0a4ec", "type": "electric_scooter", "is_reserved": 0, "lon": -76.94384283333333}, {"fusion_lat": 0.0, "name": "8dcaec5268dae42ce0e0c7d8da5a5782", "is_disabled": 0, "rental_uris": {"android": "https://dc.lft.to/lastmile_qr_scan", "ios": "https://dc.lft.to/lastmile_qr_scan"}, "fusion_lon": 0.0, "lat": 38.8971145, "bike_id": "8dcaec5268dae42ce0e0c7d8da5a5782", "type": "electric_scooter", "is_reserved": 0, "lon": -77.01312766666666}, {"fusion_lat": 0.0, "name": "728446504eeec68d7ccb460adca7183e", "is_disabled": 0, "rental_uris": {"android": "https://dc.lft.to/lastmile_qr_scan", "ios": "https://dc.lft.to/lastmile_qr_scan"}, "fusion_lon": 0.0, "lat": 38.7827235, "bike_id": "728446504eeec68d7ccb460adca7183e", "type": "electric_bike", "is_reserved": 0, "lon": -77.0161075}, {"fusion_lat": 0.0, "name": "362b0577cc6b27bbeab0851bc4c75db8", "is_disabled": 0, "rental_uris": {"android": "https://dc.lft.to/lastmile_qr_scan", "ios": "https://dc.lft.to/lastmile_qr_scan"}, "fusion_lon": 0.0, "lat": 38.902755166666665, "bike_id": "362b0577cc6b27bbeab0851bc4c75db8", "type": "electric_scooter", "is_reserved": 0, "lon": -77.05333416666667}, {"fusion_lat": 0.0, "name": "84ec00709bef9a66b0d36bb78c2a89a2", "is_disabled": 0, "rental_uris": {"android": "https://dc.lft.to/lastmile_qr_scan", "ios": "https://dc.lft.to/lastmile_qr_scan"}, "fusion_lon": 0.0, "lat": 38.907823, "bike_id": "84ec00709bef9a66b0d36bb78c2a89a2", "type": "electric_scooter", "is_reserved": 0, "lon": -77.03841716666666}, {"fusion_lat": 0.0, "name": "d58c6743909eb182f373873f7906876d", "is_disabled": 0, "rental_uris": {"android": "https://dc.lft.to/lastmile_qr_scan", "ios": "https://dc.lft.to/lastmile_qr_scan"}, "fusion_lon": 0.0, "lat": 38.9126775, "bike_id": "d58c6743909eb182f373873f7906876d", "type": "electric_scooter", "is_reserved": 0, "lon": -77.03870583333334}, {"fusion_lat": 0.0, "name": "0105b27d336a84036f88dd3e715ed3bb", "is_disabled": 0, "rental_uris": {"android": "https://dc.lft.to/lastmile_qr_scan", "ios": "https://dc.lft.to/lastmile_qr_scan"}, "fusion_lon": 0.0, "lat": 38.92669, "bike_id": "0105b27d336a84036f88dd3e715ed3bb", "type": "electric_scooter", "is_reserved": 0, "lon": -77.02779033333333}, {"fusion_lat": 0.0, "name": "c89cb1a8aa2e1be53a07cb040ca47d6a", "is_disabled": 0, "rental_uris": {"android": "https://dc.lft.to/lastmile_qr_scan", "ios": "https://dc.lft.to/lastmile_qr_scan"}, "fusion_lon": 0.0, "lat": 38.9242865, "bike_id": "c89cb1a8aa2e1be53a07cb040ca47d6a", "type": "electric_scooter", "is_reserved": 0, "lon": -77.044753}, {"fusion_lat": 0.0, "name": "c84bce08f278519e8f5531d0a13d8c7a", "is_disabled": 0, "rental_uris": {"android": "https://dc.lft.to/lastmile_qr_scan", "ios": "https://dc.lft.to/lastmile_qr_scan"}, "fusion_lon": 0.0, "lat": 38.90514433333333, "bike_id": "c84bce08f278519e8f5531d0a13d8c7a", "type": "electric_scooter", "is_reserved": 0, "lon": -77.03185316666666}, {"fusion_lat": 0.0, "name": "e489fa173cf1cd5d985b52aadb89e1a6", "is_disabled": 0, "rental_uris": {"android": "https://dc.lft.to/lastmile_qr_scan", "ios": "https://dc.lft.to/lastmile_qr_scan"}, "fusion_lon": 0.0, "lat": 38.860205666666666, "bike_id": "e489fa173cf1cd5d985b52aadb89e1a6", "type": "electric_bike", "is_reserved": 0, "lon": -77.128097}, {"fusion_lat": 0.0, "name": "0d2e4369a3540fb78e81e1960966a5a5", "is_disabled": 0, "rental_uris": {"android": "https://dc.lft.to/lastmile_qr_scan", "ios": "https://dc.lft.to/lastmile_qr_scan"}, "fusion_lon": 0.0, "lat": 38.923807, "bike_id": "0d2e4369a3540fb78e81e1960966a5a5", "type": "electric_scooter", "is_reserved": 0, "lon": -77.03183}, {"fusion_lat": 0.0, "name": "2e0e240754cdd823e6c5fbebb1786ab1", "is_disabled": 0, "rental_uris": {"android": "https://dc.lft.to/lastmile_qr_scan", "ios": "https://dc.lft.to/lastmile_qr_scan"}, "fusion_lon": 0.0, "lat": 38.920131, "bike_id": "2e0e240754cdd823e6c5fbebb1786ab1", "type": "electric_scooter", "is_reserved": 0, "lon": -77.0249855}, {"fusion_lat": 0.0, "name": "477c6514a6e599617cb66d449b57b5f2", "is_disabled": 0, "rental_uris": {"android": "https://dc.lft.to/lastmile_qr_scan", "ios": "https://dc.lft.to/lastmile_qr_scan"}, "fusion_lon": 0.0, "lat": 38.87450483333333, "bike_id": "477c6514a6e599617cb66d449b57b5f2", "type": "electric_scooter", "is_reserved": 0, "lon": -77.00279566666667}, {"fusion_lat": 0.0, "name": "7515c7034f8992354de033f53fdf02bb", "is_disabled": 0, "rental_uris": {"android": "https://dc.lft.to/lastmile_qr_scan", "ios": "https://dc.lft.to/lastmile_qr_scan"}, "fusion_lon": 0.0, "lat": 38.932716666666664, "bike_id": "7515c7034f8992354de033f53fdf02bb", "type": "electric_scooter", "is_reserved": 0, "lon": -77.01916233333333}, {"fusion_lat": 0.0, "name": "c4efb0e90b60426a200425fd26c178db", "is_disabled": 0, "rental_uris": {"android": "https://dc.lft.to/lastmile_qr_scan", "ios": "https://dc.lft.to/lastmile_qr_scan"}, "fusion_lon": 0.0, "lat": 38.90603983333333, "bike_id": "c4efb0e90b60426a200425fd26c178db", "type": "electric_scooter", "is_reserved": 0, "lon": -77.02600033333333}, {"fusion_lat": 0.0, "name": "950926f8ab3aba43b2dd4b59b8db50d3", "is_disabled": 0, "rental_uris": {"android": "https://dc.lft.to/lastmile_qr_scan", "ios": "https://dc.lft.to/lastmile_qr_scan"}, "fusion_lon": 0.0, "lat": 38.93597166666667, "bike_id": "950926f8ab3aba43b2dd4b59b8db50d3", "type": "electric_scooter", "is_reserved": 0, "lon": -77.03656016666666}, {"fusion_lat": 0.0, "name": "8fe1843111f13cbc986752a7a07fe389", "is_disabled": 0, "rental_uris": {"android": "https://dc.lft.to/lastmile_qr_scan", "ios": "https://dc.lft.to/lastmile_qr_scan"}, "fusion_lon": 0.0, "lat": 38.940991, "bike_id": "8fe1843111f13cbc986752a7a07fe389", "type": "electric_scooter", "is_reserved": 0, "lon": -77.03279616666667}, {"fusion_lat": 0.0, "name": "86d06ada9a3868f46aee389978e2540f", "is_disabled": 0, "rental_uris": {"android": "https://dc.lft.to/lastmile_qr_scan", "ios": "https://dc.lft.to/lastmile_qr_scan"}, "fusion_lon": 0.0, "lat": 38.9167905, "bike_id": "86d06ada9a3868f46aee389978e2540f", "type": "electric_scooter", "is_reserved": 0, "lon": -77.01580033333333}, {"fusion_lat": 0.0, "name": "fb1c3a90be6c75b69034c8fb12ed4249", "is_disabled": 0, "rental_uris": {"android": "https://dc.lft.to/lastmile_qr_scan", "ios": "https://dc.lft.to/lastmile_qr_scan"}, "fusion_lon": 0.0, "lat": 38.9308355, "bike_id": "fb1c3a90be6c75b69034c8fb12ed4249", "type": "electric_scooter", "is_reserved": 0, "lon": -77.01998883333333}, {"fusion_lat": 0.0, "name": "f991352982134d53cbc5668c4aa0c799", "is_disabled": 0, "rental_uris": {"android": "https://dc.lft.to/lastmile_qr_scan", "ios": "https://dc.lft.to/lastmile_qr_scan"}, "fusion_lon": 0.0, "lat": 38.95756333333333, "bike_id": "f991352982134d53cbc5668c4aa0c799", "type": "electric_bike", "is_reserved": 0, "lon": -77.02054666666666}, {"fusion_lat": 0.0, "name": "b628700249cdd79105f90270f96d10e5", "is_disabled": 0, "rental_uris": {"android": "https://dc.lft.to/lastmile_qr_scan", "ios": "https://dc.lft.to/lastmile_qr_scan"}, "fusion_lon": 0.0, "lat": 38.93076533333333, "bike_id": "b628700249cdd79105f90270f96d10e5", "type": "electric_scooter", "is_reserved": 0, "lon": -77.07760933333333}, {"fusion_lat": 0.0, "name": "480807e9dcf1e4be27475855edc57aa0", "is_disabled": 0, "rental_uris": {"android": "https://dc.lft.to/lastmile_qr_scan", "ios": "https://dc.lft.to/lastmile_qr_scan"}, "fusion_lon": 0.0, "lat": 38.91332083333333, "bike_id": "480807e9dcf1e4be27475855edc57aa0", "type": "electric_scooter", "is_reserved": 0, "lon": -77.03167716666667}, {"fusion_lat": 0.0, "name": "cd57d73f32b262c94d366022cf04b68f", "is_disabled": 0, "rental_uris": {"android": "https://dc.lft.to/lastmile_qr_scan", "ios": "https://dc.lft.to/lastmile_qr_scan"}, "fusion_lon": 0.0, "lat": 38.877106833333336, "bike_id": "cd57d73f32b262c94d366022cf04b68f", "type": "electric_scooter", "is_reserved": 0, "lon": -77.01764916666667}, {"fusion_lat": 0.0, "name": "1fc4c8ead0ceafcc24d031cec76f77ed", "is_disabled": 0, "rental_uris": {"android": "https://dc.lft.to/lastmile_qr_scan", "ios": "https://dc.lft.to/lastmile_qr_scan"}, "fusion_lon": 0.0, "lat": 38.9359855, "bike_id": "1fc4c8ead0ceafcc24d031cec76f77ed", "type": "electric_bike", "is_reserved": 0, "lon": -77.02119966666666}, {"fusion_lat": 0.0, "name": "c5c6611f6ec84dc50397696af4e7ef29", "is_disabled": 0, "rental_uris": {"android": "https://dc.lft.to/lastmile_qr_scan", "ios": "https://dc.lft.to/lastmile_qr_scan"}, "fusion_lon": 0.0, "lat": 38.934153, "bike_id": "c5c6611f6ec84dc50397696af4e7ef29", "type": "electric_scooter", "is_reserved": 0, "lon": -76.9796325}, {"fusion_lat": 0.0, "name": "045348a457547d9772e68f44d95ce8af", "is_disabled": 0, "rental_uris": {"android": "https://dc.lft.to/lastmile_qr_scan", "ios": "https://dc.lft.to/lastmile_qr_scan"}, "fusion_lon": 0.0, "lat": 38.927631, "bike_id": "045348a457547d9772e68f44d95ce8af", "type": "electric_scooter", "is_reserved": 0, "lon": -77.02295316666667}, {"fusion_lat": 0.0, "name": "dc2702e2cd189f0c9a0a72b65a940a9e", "is_disabled": 0, "rental_uris": {"android": "https://dc.lft.to/lastmile_qr_scan", "ios": "https://dc.lft.to/lastmile_qr_scan"}, "fusion_lon": 0.0, "lat": 38.90454416666667, "bike_id": "dc2702e2cd189f0c9a0a72b65a940a9e", "type": "electric_scooter", "is_reserved": 0, "lon": -77.053356}, {"fusion_lat": 0.0, "name": "835a078dfd8597dd0fa0dc1cccef8573", "is_disabled": 0, "rental_uris": {"android": "https://dc.lft.to/lastmile_qr_scan", "ios": "https://dc.lft.to/lastmile_qr_scan"}, "fusion_lon": 0.0, "lat": 38.912563666666664, "bike_id": "835a078dfd8597dd0fa0dc1cccef8573", "type": "electric_scooter", "is_reserved": 0, "lon": -77.0066785}, {"fusion_lat": 0.0, "name": "c8025ae84f2bf2269274add01bab9807", "is_disabled": 0, "rental_uris": {"android": "https://dc.lft.to/lastmile_qr_scan", "ios": "https://dc.lft.to/lastmile_qr_scan"}, "fusion_lon": 0.0, "lat": 38.92610783333333, "bike_id": "c8025ae84f2bf2269274add01bab9807", "type": "electric_scooter", "is_reserved": 0, "lon": -77.03958016666667}, {"fusion_lat": 0.0, "name": "efa46acb27f69b105c0e6aafddbf6f77", "is_disabled": 0, "rental_uris": {"android": "https://dc.lft.to/lastmile_qr_scan", "ios": "https://dc.lft.to/lastmile_qr_scan"}, "fusion_lon": 0.0, "lat": 38.920372, "bike_id": "efa46acb27f69b105c0e6aafddbf6f77", "type": "electric_scooter", "is_reserved": 0, "lon": -77.031709}, {"fusion_lat": 0.0, "name": "af9308ca0d3ed045196980d602fb66ee", "is_disabled": 0, "rental_uris": {"android": "https://dc.lft.to/lastmile_qr_scan", "ios": "https://dc.lft.to/lastmile_qr_scan"}, "fusion_lon": 0.0, "lat": 38.91776766666667, "bike_id": "af9308ca0d3ed045196980d602fb66ee", "type": "electric_scooter", "is_reserved": 0, "lon": -77.03852733333333}, {"fusion_lat": 0.0, "name": "609cebde2a1bf216a5834b813e1b1949", "is_disabled": 0, "rental_uris": {"android": "https://dc.lft.to/lastmile_qr_scan", "ios": "https://dc.lft.to/lastmile_qr_scan"}, "fusion_lon": 0.0, "lat": 38.909654333333336, "bike_id": "609cebde2a1bf216a5834b813e1b1949", "type": "electric_scooter", "is_reserved": 0, "lon": -77.03987066666667}, {"fusion_lat": 0.0, "name": "2a8501440021158c2cc9e0aca3f7818e", "is_disabled": 0, "rental_uris": {"android": "https://dc.lft.to/lastmile_qr_scan", "ios": "https://dc.lft.to/lastmile_qr_scan"}, "fusion_lon": 0.0, "lat": 38.8442585, "bike_id": "2a8501440021158c2cc9e0aca3f7818e", "type": "electric_scooter", "is_reserved": 0, "lon": -76.99783283333333}, {"fusion_lat": 0.0, "name": "ba061a80a7d64d7c9dda7366c5d77aba", "is_disabled": 0, "rental_uris": {"android": "https://dc.lft.to/lastmile_qr_scan", "ios": "https://dc.lft.to/lastmile_qr_scan"}, "fusion_lon": 0.0, "lat": 38.8890075, "bike_id": "ba061a80a7d64d7c9dda7366c5d77aba", "type": "electric_bike", "is_reserved": 0, "lon": -77.11523383333333}, {"fusion_lat": 0.0, "name": "b9435a47cd56c282114325ee89c0afe8", "is_disabled": 0, "rental_uris": {"android": "https://dc.lft.to/lastmile_qr_scan", "ios": "https://dc.lft.to/lastmile_qr_scan"}, "fusion_lon": 0.0, "lat": 38.895301333333336, "bike_id": "b9435a47cd56c282114325ee89c0afe8", "type": "electric_scooter", "is_reserved": 0, "lon": -77.03058266666666}, {"fusion_lat": 0.0, "name": "bdbd432f1ca331d375b0a8f7b400c1a1", "is_disabled": 0, "rental_uris": {"android": "https://dc.lft.to/lastmile_qr_scan", "ios": "https://dc.lft.to/lastmile_qr_scan"}, "fusion_lon": 0.0, "lat": 38.88385616666667, "bike_id": "bdbd432f1ca331d375b0a8f7b400c1a1", "type": "electric_scooter", "is_reserved": 0, "lon": -76.98561483333333}, {"fusion_lat": 0.0, "name": "756553ae74ed5de2abf470deab2aae71", "is_disabled": 0, "rental_uris": {"android": "https://dc.lft.to/lastmile_qr_scan", "ios": "https://dc.lft.to/lastmile_qr_scan"}, "fusion_lon": 0.0, "lat": 38.87375766666667, "bike_id": "756553ae74ed5de2abf470deab2aae71", "type": "electric_scooter", "is_reserved": 0, "lon": -77.00063}, {"fusion_lat": 0.0, "name": "9a8ceed40717725ef091e423a3567ca6", "is_disabled": 0, "rental_uris": {"android": "https://dc.lft.to/lastmile_qr_scan", "ios": "https://dc.lft.to/lastmile_qr_scan"}, "fusion_lon": 0.0, "lat": 38.899447, "bike_id": "9a8ceed40717725ef091e423a3567ca6", "type": "electric_scooter", "is_reserved": 0, "lon": -77.05480266666666}, {"fusion_lat": 0.0, "name": "4f7a2f6f60b8aa745f61500e59d20543", "is_disabled": 0, "rental_uris": {"android": "https://dc.lft.to/lastmile_qr_scan", "ios": "https://dc.lft.to/lastmile_qr_scan"}, "fusion_lon": 0.0, "lat": 38.9268595, "bike_id": "4f7a2f6f60b8aa745f61500e59d20543", "type": "electric_scooter", "is_reserved": 0, "lon": -77.03135633333333}, {"fusion_lat": 0.0, "name": "6fb875c0dac7520c0a5519d15cf2619a", "is_disabled": 0, "rental_uris": {"android": "https://dc.lft.to/lastmile_qr_scan", "ios": "https://dc.lft.to/lastmile_qr_scan"}, "fusion_lon": 0.0, "lat": 38.90137083333333, "bike_id": "6fb875c0dac7520c0a5519d15cf2619a", "type": "electric_scooter", "is_reserved": 0, "lon": -76.99117833333334}, {"fusion_lat": 0.0, "name": "5078dbdc50ff388edaa98fd0b37a013c", "is_disabled": 0, "rental_uris": {"android": "https://dc.lft.to/lastmile_qr_scan", "ios": "https://dc.lft.to/lastmile_qr_scan"}, "fusion_lon": 0.0, "lat": 38.90958116666667, "bike_id": "5078dbdc50ff388edaa98fd0b37a013c", "type": "electric_scooter", "is_reserved": 0, "lon": -77.02280783333333}, {"fusion_lat": 0.0, "name": "46af8d817c8d18de7e0703c074189084", "is_disabled": 0, "rental_uris": {"android": "https://dc.lft.to/lastmile_qr_scan", "ios": "https://dc.lft.to/lastmile_qr_scan"}, "fusion_lon": 0.0, "lat": 38.9134605, "bike_id": "46af8d817c8d18de7e0703c074189084", "type": "electric_bike", "is_reserved": 0, "lon": -76.9889995}, {"fusion_lat": 0.0, "name": "bd842015749222ceb2a000107f9ddfcf", "is_disabled": 0, "rental_uris": {"android": "https://dc.lft.to/lastmile_qr_scan", "ios": "https://dc.lft.to/lastmile_qr_scan"}, "fusion_lon": 0.0, "lat": 38.91978066666667, "bike_id": "bd842015749222ceb2a000107f9ddfcf", "type": "electric_scooter", "is_reserved": 0, "lon": -77.040902}, {"fusion_lat": 0.0, "name": "ab9f923ec3e0ae6d5ae4e9f5562037b4", "is_disabled": 0, "rental_uris": {"android": "https://dc.lft.to/lastmile_qr_scan", "ios": "https://dc.lft.to/lastmile_qr_scan"}, "fusion_lon": 0.0, "lat": 38.8781085, "bike_id": "ab9f923ec3e0ae6d5ae4e9f5562037b4", "type": "electric_scooter", "is_reserved": 0, "lon": -77.01528866666666}, {"fusion_lat": 0.0, "name": "ef20decd3d22e3c6caa1353509a91f49", "is_disabled": 0, "rental_uris": {"android": "https://dc.lft.to/lastmile_qr_scan", "ios": "https://dc.lft.to/lastmile_qr_scan"}, "fusion_lon": 0.0, "lat": 38.93219233333333, "bike_id": "ef20decd3d22e3c6caa1353509a91f49", "type": "electric_scooter", "is_reserved": 0, "lon": -77.04415716666666}, {"fusion_lat": 0.0, "name": "6106bbbf750957c542d212622536ace5", "is_disabled": 0, "rental_uris": {"android": "https://dc.lft.to/lastmile_qr_scan", "ios": "https://dc.lft.to/lastmile_qr_scan"}, "fusion_lon": 0.0, "lat": 38.83584483333333, "bike_id": "6106bbbf750957c542d212622536ace5", "type": "electric_bike", "is_reserved": 0, "lon": -76.9901025}, {"fusion_lat": 0.0, "name": "4ce1c3134abc2a5768562b3d9e48e5de", "is_disabled": 0, "rental_uris": {"android": "https://dc.lft.to/lastmile_qr_scan", "ios": "https://dc.lft.to/lastmile_qr_scan"}, "fusion_lon": 0.0, "lat": 38.900303666666666, "bike_id": "4ce1c3134abc2a5768562b3d9e48e5de", "type": "electric_scooter", "is_reserved": 0, "lon": -77.011753}, {"fusion_lat": 0.0, "name": "8ac5292c0920ce9af88e6085ad8410c6", "is_disabled": 0, "rental_uris": {"android": "https://dc.lft.to/lastmile_qr_scan", "ios": "https://dc.lft.to/lastmile_qr_scan"}, "fusion_lon": 0.0, "lat": 38.898435, "bike_id": "8ac5292c0920ce9af88e6085ad8410c6", "type": "electric_scooter", "is_reserved": 0, "lon": -76.98165633333333}, {"fusion_lat": 0.0, "name": "e728b38888d5f4104a5f983a60c7398c", "is_disabled": 0, "rental_uris": {"android": "https://dc.lft.to/lastmile_qr_scan", "ios": "https://dc.lft.to/lastmile_qr_scan"}, "fusion_lon": 0.0, "lat": 38.930889, "bike_id": "e728b38888d5f4104a5f983a60c7398c", "type": "electric_scooter", "is_reserved": 0, "lon": -77.03443183333333}, {"fusion_lat": 0.0, "name": "cce58f1af0b962604f2015a0d3f2ee68", "is_disabled": 0, "rental_uris": {"android": "https://dc.lft.to/lastmile_qr_scan", "ios": "https://dc.lft.to/lastmile_qr_scan"}, "fusion_lon": 0.0, "lat": 38.98782516666667, "bike_id": "cce58f1af0b962604f2015a0d3f2ee68", "type": "electric_bike", "is_reserved": 0, "lon": -77.14092366666667}, {"fusion_lat": 0.0, "name": "1d7b15b52e0b9b040dd8c46c823d1bab", "is_disabled": 0, "rental_uris": {"android": "https://dc.lft.to/lastmile_qr_scan", "ios": "https://dc.lft.to/lastmile_qr_scan"}, "fusion_lon": 0.0, "lat": 38.94153083333333, "bike_id": "1d7b15b52e0b9b040dd8c46c823d1bab", "type": "electric_bike", "is_reserved": 0, "lon": -77.00191516666666}, {"fusion_lat": 0.0, "name": "950a5be02fc076bb730ddf92c92e55e0", "is_disabled": 0, "rental_uris": {"android": "https://dc.lft.to/lastmile_qr_scan", "ios": "https://dc.lft.to/lastmile_qr_scan"}, "fusion_lon": 0.0, "lat": 38.873627, "bike_id": "950a5be02fc076bb730ddf92c92e55e0", "type": "electric_scooter", "is_reserved": 0, "lon": -77.00110683333334}, {"fusion_lat": 0.0, "name": "f28604c4b2c1af98b4b14bb68dabd5c4", "is_disabled": 0, "rental_uris": {"android": "https://dc.lft.to/lastmile_qr_scan", "ios": "https://dc.lft.to/lastmile_qr_scan"}, "fusion_lon": 0.0, "lat": 38.908803, "bike_id": "f28604c4b2c1af98b4b14bb68dabd5c4", "type": "electric_scooter", "is_reserved": 0, "lon": -77.0238255}, {"fusion_lat": 0.0, "name": "ef7dc3edf6e515907e3811aba12adcca", "is_disabled": 0, "rental_uris": {"android": "https://dc.lft.to/lastmile_qr_scan", "ios": "https://dc.lft.to/lastmile_qr_scan"}, "fusion_lon": 0.0, "lat": 38.90425183333333, "bike_id": "ef7dc3edf6e515907e3811aba12adcca", "type": "electric_scooter", "is_reserved": 0, "lon": -77.05877783333334}, {"fusion_lat": 0.0, "name": "7b48b1b61f38790711bc15483b097fc4", "is_disabled": 0, "rental_uris": {"android": "https://dc.lft.to/lastmile_qr_scan", "ios": "https://dc.lft.to/lastmile_qr_scan"}, "fusion_lon": 0.0, "lat": 38.941652166666664, "bike_id": "7b48b1b61f38790711bc15483b097fc4", "type": "electric_bike", "is_reserved": 0, "lon": -76.96646216666667}, {"fusion_lat": 0.0, "name": "d62778ee6d2cb90f47c612390929d4cd", "is_disabled": 0, "rental_uris": {"android": "https://dc.lft.to/lastmile_qr_scan", "ios": "https://dc.lft.to/lastmile_qr_scan"}, "fusion_lon": 0.0, "lat": 38.88723516666667, "bike_id": "d62778ee6d2cb90f47c612390929d4cd", "type": "electric_scooter", "is_reserved": 0, "lon": -77.02579933333334}, {"fusion_lat": 0.0, "name": "e2d7e380127e7e512a5f52feb484b188", "is_disabled": 0, "rental_uris": {"android": "https://dc.lft.to/lastmile_qr_scan", "ios": "https://dc.lft.to/lastmile_qr_scan"}, "fusion_lon": 0.0, "lat": 38.9238555, "bike_id": "e2d7e380127e7e512a5f52feb484b188", "type": "electric_scooter", "is_reserved": 0, "lon": -77.0354955}, {"fusion_lat": 0.0, "name": "c0ba2194de4399ef59252ec6f74a59b7", "is_disabled": 0, "rental_uris": {"android": "https://dc.lft.to/lastmile_qr_scan", "ios": "https://dc.lft.to/lastmile_qr_scan"}, "fusion_lon": 0.0, "lat": 38.89551766666666, "bike_id": "c0ba2194de4399ef59252ec6f74a59b7", "type": "electric_scooter", "is_reserved": 0, "lon": -77.0237765}, {"fusion_lat": 0.0, "name": "bff8f1228c927937f3a5ecee2d5f4691", "is_disabled": 0, "rental_uris": {"android": "https://dc.lft.to/lastmile_qr_scan", "ios": "https://dc.lft.to/lastmile_qr_scan"}, "fusion_lon": 0.0, "lat": 38.88360183333333, "bike_id": "bff8f1228c927937f3a5ecee2d5f4691", "type": "electric_scooter", "is_reserved": 0, "lon": -77.01960866666667}, {"fusion_lat": 0.0, "name": "426bba29b0b883c08ce1356f63b88e82", "is_disabled": 0, "rental_uris": {"android": "https://dc.lft.to/lastmile_qr_scan", "ios": "https://dc.lft.to/lastmile_qr_scan"}, "fusion_lon": 0.0, "lat": 38.90017866666667, "bike_id": "426bba29b0b883c08ce1356f63b88e82", "type": "electric_scooter", "is_reserved": 0, "lon": -77.02393183333334}, {"fusion_lat": 0.0, "name": "0a9539411baf50f14bcfe4accdb079d4", "is_disabled": 0, "rental_uris": {"android": "https://dc.lft.to/lastmile_qr_scan", "ios": "https://dc.lft.to/lastmile_qr_scan"}, "fusion_lon": 0.0, "lat": 38.91844483333333, "bike_id": "0a9539411baf50f14bcfe4accdb079d4", "type": "electric_scooter", "is_reserved": 0, "lon": -77.04021766666666}, {"fusion_lat": 0.0, "name": "759777e390fc65d6e25993a78dfeb326", "is_disabled": 0, "rental_uris": {"android": "https://dc.lft.to/lastmile_qr_scan", "ios": "https://dc.lft.to/lastmile_qr_scan"}, "fusion_lon": 0.0, "lat": 38.94924816666666, "bike_id": "759777e390fc65d6e25993a78dfeb326", "type": "electric_bike", "is_reserved": 0, "lon": -77.00801333333334}, {"fusion_lat": 0.0, "name": "72fea98872fa2ed11c0744e8501bb03e", "is_disabled": 0, "rental_uris": {"android": "https://dc.lft.to/lastmile_qr_scan", "ios": "https://dc.lft.to/lastmile_qr_scan"}, "fusion_lon": 0.0, "lat": 38.92688283333333, "bike_id": "72fea98872fa2ed11c0744e8501bb03e", "type": "electric_scooter", "is_reserved": 0, "lon": -77.02963433333333}, {"fusion_lat": 0.0, "name": "0750d3e0ad36807039ee7a9d3c9a0d00", "is_disabled": 0, "rental_uris": {"android": "https://dc.lft.to/lastmile_qr_scan", "ios": "https://dc.lft.to/lastmile_qr_scan"}, "fusion_lon": 0.0, "lat": 38.91748066666667, "bike_id": "0750d3e0ad36807039ee7a9d3c9a0d00", "type": "electric_scooter", "is_reserved": 0, "lon": -77.04575466666667}, {"fusion_lat": 0.0, "name": "8d875a771e8c20eebfc0cb5a1a3916f9", "is_disabled": 0, "rental_uris": {"android": "https://dc.lft.to/lastmile_qr_scan", "ios": "https://dc.lft.to/lastmile_qr_scan"}, "fusion_lon": 0.0, "lat": 38.907202833333336, "bike_id": "8d875a771e8c20eebfc0cb5a1a3916f9", "type": "electric_scooter", "is_reserved": 0, "lon": -76.99823166666667}, {"fusion_lat": 0.0, "name": "fa2e53ca246bae68ca2a5f98ee055e28", "is_disabled": 0, "rental_uris": {"android": "https://dc.lft.to/lastmile_qr_scan", "ios": "https://dc.lft.to/lastmile_qr_scan"}, "fusion_lon": 0.0, "lat": 38.92180966666667, "bike_id": "fa2e53ca246bae68ca2a5f98ee055e28", "type": "electric_scooter", "is_reserved": 0, "lon": -77.07441566666667}, {"fusion_lat": 0.0, "name": "b95120fefd427fedec0fe3e5ecdd176c", "is_disabled": 0, "rental_uris": {"android": "https://dc.lft.to/lastmile_qr_scan", "ios": "https://dc.lft.to/lastmile_qr_scan"}, "fusion_lon": 0.0, "lat": 38.935851166666666, "bike_id": "b95120fefd427fedec0fe3e5ecdd176c", "type": "electric_scooter", "is_reserved": 0, "lon": -77.02845116666667}, {"fusion_lat": 0.0, "name": "0ebba7d620b61da70a1ac840dcb4c68d", "is_disabled": 0, "rental_uris": {"android": "https://dc.lft.to/lastmile_qr_scan", "ios": "https://dc.lft.to/lastmile_qr_scan"}, "fusion_lon": 0.0, "lat": 38.941204666666664, "bike_id": "0ebba7d620b61da70a1ac840dcb4c68d", "type": "electric_bike", "is_reserved": 0, "lon": -76.990372}, {"fusion_lat": 0.0, "name": "4d9a47e3cd638adaa7182f025caea61f", "is_disabled": 0, "rental_uris": {"android": "https://dc.lft.to/lastmile_qr_scan", "ios": "https://dc.lft.to/lastmile_qr_scan"}, "fusion_lon": 0.0, "lat": 38.916139, "bike_id": "4d9a47e3cd638adaa7182f025caea61f", "type": "electric_scooter", "is_reserved": 0, "lon": -77.02163816666666}, {"fusion_lat": 0.0, "name": "63fc5e7e769b19ebbd864fe9f3fec987", "is_disabled": 0, "rental_uris": {"android": "https://dc.lft.to/lastmile_qr_scan", "ios": "https://dc.lft.to/lastmile_qr_scan"}, "fusion_lon": 0.0, "lat": 38.9127795, "bike_id": "63fc5e7e769b19ebbd864fe9f3fec987", "type": "electric_scooter", "is_reserved": 0, "lon": -77.02246483333333}, {"fusion_lat": 0.0, "name": "0c5af4d32d8bfbf7a151709f0e233fd3", "is_disabled": 0, "rental_uris": {"android": "https://dc.lft.to/lastmile_qr_scan", "ios": "https://dc.lft.to/lastmile_qr_scan"}, "fusion_lon": 0.0, "lat": 38.9223345, "bike_id": "0c5af4d32d8bfbf7a151709f0e233fd3", "type": "electric_scooter", "is_reserved": 0, "lon": -77.03892466666667}, {"fusion_lat": 0.0, "name": "bd3b612d8af5c66b7744d74243d9b1d7", "is_disabled": 0, "rental_uris": {"android": "https://dc.lft.to/lastmile_qr_scan", "ios": "https://dc.lft.to/lastmile_qr_scan"}, "fusion_lon": 0.0, "lat": 38.909540166666666, "bike_id": "bd3b612d8af5c66b7744d74243d9b1d7", "type": "electric_scooter", "is_reserved": 0, "lon": -77.04605466666666}, {"fusion_lat": 0.0, "name": "f51598f8e75bec95bb04db0bf42f81a9", "is_disabled": 0, "rental_uris": {"android": "https://dc.lft.to/lastmile_qr_scan", "ios": "https://dc.lft.to/lastmile_qr_scan"}, "fusion_lon": 0.0, "lat": 38.89564516666667, "bike_id": "f51598f8e75bec95bb04db0bf42f81a9", "type": "electric_bike", "is_reserved": 0, "lon": -77.12734766666667}, {"fusion_lat": 0.0, "name": "ca985b866c4a8f309301aea12163e6b8", "is_disabled": 0, "rental_uris": {"android": "https://dc.lft.to/lastmile_qr_scan", "ios": "https://dc.lft.to/lastmile_qr_scan"}, "fusion_lon": 0.0, "lat": 38.922475666666664, "bike_id": "ca985b866c4a8f309301aea12163e6b8", "type": "electric_scooter", "is_reserved": 0, "lon": -77.030832}, {"fusion_lat": 0.0, "name": "44f309d83143dc93d1fc46490d88f756", "is_disabled": 0, "rental_uris": {"android": "https://dc.lft.to/lastmile_qr_scan", "ios": "https://dc.lft.to/lastmile_qr_scan"}, "fusion_lon": 0.0, "lat": 38.9300435, "bike_id": "44f309d83143dc93d1fc46490d88f756", "type": "electric_bike", "is_reserved": 0, "lon": -77.0161665}, {"fusion_lat": 0.0, "name": "0cde6f4703efb6c1d34db56b18d1a706", "is_disabled": 0, "rental_uris": {"android": "https://dc.lft.to/lastmile_qr_scan", "ios": "https://dc.lft.to/lastmile_qr_scan"}, "fusion_lon": 0.0, "lat": 38.905309333333335, "bike_id": "0cde6f4703efb6c1d34db56b18d1a706", "type": "electric_bike", "is_reserved": 0, "lon": -76.99811383333333}, {"fusion_lat": 0.0, "name": "6a76db01f2fefabe75bd5c90b915794e", "is_disabled": 0, "rental_uris": {"android": "https://dc.lft.to/lastmile_qr_scan", "ios": "https://dc.lft.to/lastmile_qr_scan"}, "fusion_lon": 0.0, "lat": 38.91495283333333, "bike_id": "6a76db01f2fefabe75bd5c90b915794e", "type": "electric_scooter", "is_reserved": 0, "lon": -77.0326735}, {"fusion_lat": 0.0, "name": "faa922bdc924db45db7d7f6a2c6e4f12", "is_disabled": 0, "rental_uris": {"android": "https://dc.lft.to/lastmile_qr_scan", "ios": "https://dc.lft.to/lastmile_qr_scan"}, "fusion_lon": 0.0, "lat": 38.895331166666665, "bike_id": "faa922bdc924db45db7d7f6a2c6e4f12", "type": "electric_scooter", "is_reserved": 0, "lon": -76.94895216666667}, {"fusion_lat": 0.0, "name": "605dd31e1839c369092d53d581ef27ec", "is_disabled": 0, "rental_uris": {"android": "https://dc.lft.to/lastmile_qr_scan", "ios": "https://dc.lft.to/lastmile_qr_scan"}, "fusion_lon": 0.0, "lat": 38.90893583333333, "bike_id": "605dd31e1839c369092d53d581ef27ec", "type": "electric_scooter", "is_reserved": 0, "lon": -77.04295283333333}, {"fusion_lat": 0.0, "name": "376d75eb4732d7cdadae5a73425a0b1f", "is_disabled": 0, "rental_uris": {"android": "https://dc.lft.to/lastmile_qr_scan", "ios": "https://dc.lft.to/lastmile_qr_scan"}, "fusion_lon": 0.0, "lat": 38.92858783333333, "bike_id": "376d75eb4732d7cdadae5a73425a0b1f", "type": "electric_scooter", "is_reserved": 0, "lon": -77.0339815}, {"fusion_lat": 0.0, "name": "a9d52b6f748ab3d7338432831bc5686f", "is_disabled": 0, "rental_uris": {"android": "https://dc.lft.to/lastmile_qr_scan", "ios": "https://dc.lft.to/lastmile_qr_scan"}, "fusion_lon": 0.0, "lat": 38.934934, "bike_id": "a9d52b6f748ab3d7338432831bc5686f", "type": "electric_scooter", "is_reserved": 0, "lon": -77.0734365}, {"fusion_lat": 0.0, "name": "53963d0828e9bb20ace13437002bc8d6", "is_disabled": 0, "rental_uris": {"android": "https://dc.lft.to/lastmile_qr_scan", "ios": "https://dc.lft.to/lastmile_qr_scan"}, "fusion_lon": 0.0, "lat": 38.9052005, "bike_id": "53963d0828e9bb20ace13437002bc8d6", "type": "electric_scooter", "is_reserved": 0, "lon": -77.03172016666667}, {"fusion_lat": 0.0, "name": "6508b56a54e27500f1d40b070416a1a9", "is_disabled": 0, "rental_uris": {"android": "https://dc.lft.to/lastmile_qr_scan", "ios": "https://dc.lft.to/lastmile_qr_scan"}, "fusion_lon": 0.0, "lat": 38.93254366666667, "bike_id": "6508b56a54e27500f1d40b070416a1a9", "type": "electric_scooter", "is_reserved": 0, "lon": -77.03854}, {"fusion_lat": 0.0, "name": "6f47e55ef74508f64c9b4b455d06c404", "is_disabled": 0, "rental_uris": {"android": "https://dc.lft.to/lastmile_qr_scan", "ios": "https://dc.lft.to/lastmile_qr_scan"}, "fusion_lon": 0.0, "lat": 38.907612666666665, "bike_id": "6f47e55ef74508f64c9b4b455d06c404", "type": "electric_scooter", "is_reserved": 0, "lon": -77.00031766666666}, {"fusion_lat": 0.0, "name": "7bc237d9cafac45759628290872c5414", "is_disabled": 0, "rental_uris": {"android": "https://dc.lft.to/lastmile_qr_scan", "ios": "https://dc.lft.to/lastmile_qr_scan"}, "fusion_lon": 0.0, "lat": 38.916334166666665, "bike_id": "7bc237d9cafac45759628290872c5414", "type": "electric_scooter", "is_reserved": 0, "lon": -77.01079066666667}, {"fusion_lat": 0.0, "name": "27bca7d729aabbd3db02e64f177513cb", "is_disabled": 0, "rental_uris": {"android": "https://dc.lft.to/lastmile_qr_scan", "ios": "https://dc.lft.to/lastmile_qr_scan"}, "fusion_lon": 0.0, "lat": 38.9375835, "bike_id": "27bca7d729aabbd3db02e64f177513cb", "type": "electric_bike", "is_reserved": 0, "lon": -76.9582325}, {"fusion_lat": 0.0, "name": "548239b2c4776df6b8ab0feb827e8791", "is_disabled": 0, "rental_uris": {"android": "https://dc.lft.to/lastmile_qr_scan", "ios": "https://dc.lft.to/lastmile_qr_scan"}, "fusion_lon": 0.0, "lat": 38.9328695, "bike_id": "548239b2c4776df6b8ab0feb827e8791", "type": "electric_scooter", "is_reserved": 0, "lon": -77.04087783333334}, {"fusion_lat": 0.0, "name": "01104438425247e0fd528f28b2a3c64f", "is_disabled": 0, "rental_uris": {"android": "https://dc.lft.to/lastmile_qr_scan", "ios": "https://dc.lft.to/lastmile_qr_scan"}, "fusion_lon": 0.0, "lat": 38.911062, "bike_id": "01104438425247e0fd528f28b2a3c64f", "type": "electric_bike", "is_reserved": 0, "lon": -77.00273133333333}, {"fusion_lat": 0.0, "name": "841e7b69a570d8ce38af7cf4a22abdac", "is_disabled": 0, "rental_uris": {"android": "https://dc.lft.to/lastmile_qr_scan", "ios": "https://dc.lft.to/lastmile_qr_scan"}, "fusion_lon": 0.0, "lat": 38.92553383333333, "bike_id": "841e7b69a570d8ce38af7cf4a22abdac", "type": "electric_scooter", "is_reserved": 0, "lon": -77.03545666666666}, {"fusion_lat": 0.0, "name": "e234bcb170516e2ff07812d011f2f39e", "is_disabled": 0, "rental_uris": {"android": "https://dc.lft.to/lastmile_qr_scan", "ios": "https://dc.lft.to/lastmile_qr_scan"}, "fusion_lon": 0.0, "lat": 38.90271466666667, "bike_id": "e234bcb170516e2ff07812d011f2f39e", "type": "electric_scooter", "is_reserved": 0, "lon": -77.0533395}, {"fusion_lat": 0.0, "name": "7680eb0a1b6b636422f218fa9ddc092f", "is_disabled": 0, "rental_uris": {"android": "https://dc.lft.to/lastmile_qr_scan", "ios": "https://dc.lft.to/lastmile_qr_scan"}, "fusion_lon": 0.0, "lat": 38.95508783333333, "bike_id": "7680eb0a1b6b636422f218fa9ddc092f", "type": "electric_scooter", "is_reserved": 0, "lon": -77.02843983333334}, {"fusion_lat": 0.0, "name": "2728a539313615b9387b81a2d0ce5196", "is_disabled": 0, "rental_uris": {"android": "https://dc.lft.to/lastmile_qr_scan", "ios": "https://dc.lft.to/lastmile_qr_scan"}, "fusion_lon": 0.0, "lat": 38.89016266666667, "bike_id": "2728a539313615b9387b81a2d0ce5196", "type": "electric_scooter", "is_reserved": 0, "lon": -76.93733616666667}, {"fusion_lat": 0.0, "name": "e7419ec641e75a10ac4d262e7b08673c", "is_disabled": 0, "rental_uris": {"android": "https://dc.lft.to/lastmile_qr_scan", "ios": "https://dc.lft.to/lastmile_qr_scan"}, "fusion_lon": 0.0, "lat": 38.9283675, "bike_id": "e7419ec641e75a10ac4d262e7b08673c", "type": "electric_scooter", "is_reserved": 0, "lon": -76.99345783333334}, {"fusion_lat": 0.0, "name": "6b586a470b299bf301ec44feb487e5f5", "is_disabled": 0, "rental_uris": {"android": "https://dc.lft.to/lastmile_qr_scan", "ios": "https://dc.lft.to/lastmile_qr_scan"}, "fusion_lon": 0.0, "lat": 38.915838666666666, "bike_id": "6b586a470b299bf301ec44feb487e5f5", "type": "electric_scooter", "is_reserved": 0, "lon": -77.04562566666667}, {"fusion_lat": 0.0, "name": "8fd3e3640d102d5a8738a9ad35aac214", "is_disabled": 0, "rental_uris": {"android": "https://dc.lft.to/lastmile_qr_scan", "ios": "https://dc.lft.to/lastmile_qr_scan"}, "fusion_lon": 0.0, "lat": 38.89656466666667, "bike_id": "8fd3e3640d102d5a8738a9ad35aac214", "type": "electric_scooter", "is_reserved": 0, "lon": -77.011973}, {"fusion_lat": 0.0, "name": "8edd389f449a7d7bff1e579451da21f3", "is_disabled": 0, "rental_uris": {"android": "https://dc.lft.to/lastmile_qr_scan", "ios": "https://dc.lft.to/lastmile_qr_scan"}, "fusion_lon": 0.0, "lat": 38.93385166666667, "bike_id": "8edd389f449a7d7bff1e579451da21f3", "type": "electric_scooter", "is_reserved": 0, "lon": -77.0195525}, {"fusion_lat": 0.0, "name": "eb6effcf6a27c09aac03c913aac27b9a", "is_disabled": 0, "rental_uris": {"android": "https://dc.lft.to/lastmile_qr_scan", "ios": "https://dc.lft.to/lastmile_qr_scan"}, "fusion_lon": 0.0, "lat": 38.87130783333333, "bike_id": "eb6effcf6a27c09aac03c913aac27b9a", "type": "electric_scooter", "is_reserved": 0, "lon": -77.01222466666667}, {"fusion_lat": 0.0, "name": "849e52a639b14a3b3439012957e95e48", "is_disabled": 0, "rental_uris": {"android": "https://dc.lft.to/lastmile_qr_scan", "ios": "https://dc.lft.to/lastmile_qr_scan"}, "fusion_lon": 0.0, "lat": 38.91552316666667, "bike_id": "849e52a639b14a3b3439012957e95e48", "type": "electric_scooter", "is_reserved": 0, "lon": -77.03858683333333}, {"fusion_lat": 0.0, "name": "f51c82d88a7da011890f7e336e7d3485", "is_disabled": 0, "rental_uris": {"android": "https://dc.lft.to/lastmile_qr_scan", "ios": "https://dc.lft.to/lastmile_qr_scan"}, "fusion_lon": 0.0, "lat": 38.928111333333334, "bike_id": "f51c82d88a7da011890f7e336e7d3485", "type": "electric_scooter", "is_reserved": 0, "lon": -77.04359666666667}, {"fusion_lat": 0.0, "name": "6a686272cf79a9cd190bef80ee7f7898", "is_disabled": 0, "rental_uris": {"android": "https://dc.lft.to/lastmile_qr_scan", "ios": "https://dc.lft.to/lastmile_qr_scan"}, "fusion_lon": 0.0, "lat": 38.89814966666667, "bike_id": "6a686272cf79a9cd190bef80ee7f7898", "type": "electric_scooter", "is_reserved": 0, "lon": -77.04999183333334}, {"fusion_lat": 0.0, "name": "8b72d076d059410cc912ea14aa2a15a7", "is_disabled": 0, "rental_uris": {"android": "https://dc.lft.to/lastmile_qr_scan", "ios": "https://dc.lft.to/lastmile_qr_scan"}, "fusion_lon": 0.0, "lat": 38.9011155, "bike_id": "8b72d076d059410cc912ea14aa2a15a7", "type": "electric_scooter", "is_reserved": 0, "lon": -76.97423616666667}, {"fusion_lat": 0.0, "name": "a539116b15ad68daa452904b3170b4b1", "is_disabled": 0, "rental_uris": {"android": "https://dc.lft.to/lastmile_qr_scan", "ios": "https://dc.lft.to/lastmile_qr_scan"}, "fusion_lon": 0.0, "lat": 38.92156116666666, "bike_id": "a539116b15ad68daa452904b3170b4b1", "type": "electric_scooter", "is_reserved": 0, "lon": -77.03694}, {"fusion_lat": 0.0, "name": "7eff6063905a110c9a992eb25b7bfc14", "is_disabled": 0, "rental_uris": {"android": "https://dc.lft.to/lastmile_qr_scan", "ios": "https://dc.lft.to/lastmile_qr_scan"}, "fusion_lon": 0.0, "lat": 38.90438783333333, "bike_id": "7eff6063905a110c9a992eb25b7bfc14", "type": "electric_scooter", "is_reserved": 0, "lon": -77.0586275}, {"fusion_lat": 0.0, "name": "3aa00ed3a005bbc7904f358672c269d2", "is_disabled": 0, "rental_uris": {"android": "https://dc.lft.to/lastmile_qr_scan", "ios": "https://dc.lft.to/lastmile_qr_scan"}, "fusion_lon": 0.0, "lat": 38.900143666666665, "bike_id": "3aa00ed3a005bbc7904f358672c269d2", "type": "electric_scooter", "is_reserved": 0, "lon": -77.00332116666667}, {"fusion_lat": 0.0, "name": "c8c3afe30d76942fc044416e1b732df3", "is_disabled": 0, "rental_uris": {"android": "https://dc.lft.to/lastmile_qr_scan", "ios": "https://dc.lft.to/lastmile_qr_scan"}, "fusion_lon": 0.0, "lat": 38.9261005, "bike_id": "c8c3afe30d76942fc044416e1b732df3", "type": "electric_scooter", "is_reserved": 0, "lon": -77.07570183333333}, {"fusion_lat": 0.0, "name": "604e9c4d3c41a26e0a7d5656430b3464", "is_disabled": 0, "rental_uris": {"android": "https://dc.lft.to/lastmile_qr_scan", "ios": "https://dc.lft.to/lastmile_qr_scan"}, "fusion_lon": 0.0, "lat": 38.909480333333335, "bike_id": "604e9c4d3c41a26e0a7d5656430b3464", "type": "electric_scooter", "is_reserved": 0, "lon": -76.9876965}, {"fusion_lat": 0.0, "name": "5f4842a56ab311194d19517d12eaf381", "is_disabled": 0, "rental_uris": {"android": "https://dc.lft.to/lastmile_qr_scan", "ios": "https://dc.lft.to/lastmile_qr_scan"}, "fusion_lon": 0.0, "lat": 38.884865, "bike_id": "5f4842a56ab311194d19517d12eaf381", "type": "electric_scooter", "is_reserved": 0, "lon": -77.0108165}, {"fusion_lat": 0.0, "name": "736c24f28ef4fe441ff6b67e73d306eb", "is_disabled": 0, "rental_uris": {"android": "https://dc.lft.to/lastmile_qr_scan", "ios": "https://dc.lft.to/lastmile_qr_scan"}, "fusion_lon": 0.0, "lat": 38.912586833333336, "bike_id": "736c24f28ef4fe441ff6b67e73d306eb", "type": "electric_scooter", "is_reserved": 0, "lon": -77.03868883333334}, {"fusion_lat": 0.0, "name": "fe597195c4b62886a4c59027e51da7d9", "is_disabled": 0, "rental_uris": {"android": "https://dc.lft.to/lastmile_qr_scan", "ios": "https://dc.lft.to/lastmile_qr_scan"}, "fusion_lon": 0.0, "lat": 38.90024283333333, "bike_id": "fe597195c4b62886a4c59027e51da7d9", "type": "electric_scooter", "is_reserved": 0, "lon": -76.97401183333334}, {"fusion_lat": 0.0, "name": "ef0fd4725bd232338ce48484c15fbd78", "is_disabled": 0, "rental_uris": {"android": "https://dc.lft.to/lastmile_qr_scan", "ios": "https://dc.lft.to/lastmile_qr_scan"}, "fusion_lon": 0.0, "lat": 38.90705633333334, "bike_id": "ef0fd4725bd232338ce48484c15fbd78", "type": "electric_scooter", "is_reserved": 0, "lon": -76.99965033333334}, {"fusion_lat": 0.0, "name": "d8f1cbcdb38032e69db6fcc6f1939608", "is_disabled": 0, "rental_uris": {"android": "https://dc.lft.to/lastmile_qr_scan", "ios": "https://dc.lft.to/lastmile_qr_scan"}, "fusion_lon": 0.0, "lat": 38.90471216666667, "bike_id": "d8f1cbcdb38032e69db6fcc6f1939608", "type": "electric_bike", "is_reserved": 0, "lon": -77.0188755}, {"fusion_lat": 0.0, "name": "1be83f8241f51baeb4186e3ea647a361", "is_disabled": 0, "rental_uris": {"android": "https://dc.lft.to/lastmile_qr_scan", "ios": "https://dc.lft.to/lastmile_qr_scan"}, "fusion_lon": 0.0, "lat": 38.9304665, "bike_id": "1be83f8241f51baeb4186e3ea647a361", "type": "electric_scooter", "is_reserved": 0, "lon": -77.03803283333333}, {"fusion_lat": 0.0, "name": "24dd5686ae9df5b6d56b4252c110a128", "is_disabled": 0, "rental_uris": {"android": "https://dc.lft.to/lastmile_qr_scan", "ios": "https://dc.lft.to/lastmile_qr_scan"}, "fusion_lon": 0.0, "lat": 38.922927333333334, "bike_id": "24dd5686ae9df5b6d56b4252c110a128", "type": "electric_scooter", "is_reserved": 0, "lon": -76.997759}, {"fusion_lat": 0.0, "name": "6d11949606bccd63f6f9972ce432b936", "is_disabled": 0, "rental_uris": {"android": "https://dc.lft.to/lastmile_qr_scan", "ios": "https://dc.lft.to/lastmile_qr_scan"}, "fusion_lon": 0.0, "lat": 38.89727966666667, "bike_id": "6d11949606bccd63f6f9972ce432b936", "type": "electric_scooter", "is_reserved": 0, "lon": -77.00929733333334}, {"fusion_lat": 0.0, "name": "3e8c2819d82f29453ba6c3d9da203519", "is_disabled": 0, "rental_uris": {"android": "https://dc.lft.to/lastmile_qr_scan", "ios": "https://dc.lft.to/lastmile_qr_scan"}, "fusion_lon": 0.0, "lat": 38.90389483333333, "bike_id": "3e8c2819d82f29453ba6c3d9da203519", "type": "electric_scooter", "is_reserved": 0, "lon": -77.01799416666667}, {"fusion_lat": 0.0, "name": "2b482f5b3dc920c1ddb1adf34ee6e91e", "is_disabled": 0, "rental_uris": {"android": "https://dc.lft.to/lastmile_qr_scan", "ios": "https://dc.lft.to/lastmile_qr_scan"}, "fusion_lon": 0.0, "lat": 38.897273, "bike_id": "2b482f5b3dc920c1ddb1adf34ee6e91e", "type": "electric_scooter", "is_reserved": 0, "lon": -77.0247905}, {"fusion_lat": 0.0, "name": "babcef45c48134d25ef593fcf9a2d78e", "is_disabled": 0, "rental_uris": {"android": "https://dc.lft.to/lastmile_qr_scan", "ios": "https://dc.lft.to/lastmile_qr_scan"}, "fusion_lon": 0.0, "lat": 38.8997295, "bike_id": "babcef45c48134d25ef593fcf9a2d78e", "type": "electric_scooter", "is_reserved": 0, "lon": -77.05267833333333}, {"fusion_lat": 0.0, "name": "6dc2995837708c07d7d95590cb015976", "is_disabled": 0, "rental_uris": {"android": "https://dc.lft.to/lastmile_qr_scan", "ios": "https://dc.lft.to/lastmile_qr_scan"}, "fusion_lon": 0.0, "lat": 38.931801666666665, "bike_id": "6dc2995837708c07d7d95590cb015976", "type": "electric_scooter", "is_reserved": 0, "lon": -77.02006083333333}, {"fusion_lat": 0.0, "name": "10153e3f09a6554f7cacb9d40e2cc8d2", "is_disabled": 0, "rental_uris": {"android": "https://dc.lft.to/lastmile_qr_scan", "ios": "https://dc.lft.to/lastmile_qr_scan"}, "fusion_lon": 0.0, "lat": 38.90576983333333, "bike_id": "10153e3f09a6554f7cacb9d40e2cc8d2", "type": "electric_scooter", "is_reserved": 0, "lon": -77.02208716666667}, {"fusion_lat": 0.0, "name": "0019c8bdeeb72695965afd7ab33664ca", "is_disabled": 0, "rental_uris": {"android": "https://dc.lft.to/lastmile_qr_scan", "ios": "https://dc.lft.to/lastmile_qr_scan"}, "fusion_lon": 0.0, "lat": 38.92341066666667, "bike_id": "0019c8bdeeb72695965afd7ab33664ca", "type": "electric_scooter", "is_reserved": 0, "lon": -77.05215833333334}, {"fusion_lat": 0.0, "name": "9e6ffc12108ec414c996ff58a3c4f640", "is_disabled": 0, "rental_uris": {"android": "https://dc.lft.to/lastmile_qr_scan", "ios": "https://dc.lft.to/lastmile_qr_scan"}, "fusion_lon": 0.0, "lat": 38.90352733333334, "bike_id": "9e6ffc12108ec414c996ff58a3c4f640", "type": "electric_scooter", "is_reserved": 0, "lon": -76.974794}, {"fusion_lat": 0.0, "name": "e56e57c8606ed417e3182f77ba06e046", "is_disabled": 0, "rental_uris": {"android": "https://dc.lft.to/lastmile_qr_scan", "ios": "https://dc.lft.to/lastmile_qr_scan"}, "fusion_lon": 0.0, "lat": 38.93462866666667, "bike_id": "e56e57c8606ed417e3182f77ba06e046", "type": "electric_scooter", "is_reserved": 0, "lon": -77.04115133333333}, {"fusion_lat": 0.0, "name": "3e493c4a7ccfe0f336ebff7ffadd7f6e", "is_disabled": 0, "rental_uris": {"android": "https://dc.lft.to/lastmile_qr_scan", "ios": "https://dc.lft.to/lastmile_qr_scan"}, "fusion_lon": 0.0, "lat": 38.909217, "bike_id": "3e493c4a7ccfe0f336ebff7ffadd7f6e", "type": "electric_scooter", "is_reserved": 0, "lon": -76.9991975}, {"fusion_lat": 0.0, "name": "bfd5e7b90a017b90ef6986bf3d7b05a7", "is_disabled": 0, "rental_uris": {"android": "https://dc.lft.to/lastmile_qr_scan", "ios": "https://dc.lft.to/lastmile_qr_scan"}, "fusion_lon": 0.0, "lat": 38.917680833333335, "bike_id": "bfd5e7b90a017b90ef6986bf3d7b05a7", "type": "electric_scooter", "is_reserved": 0, "lon": -77.02313833333334}, {"fusion_lat": 0.0, "name": "e88345f747e1b5085699cd2ee0d7f83f", "is_disabled": 0, "rental_uris": {"android": "https://dc.lft.to/lastmile_qr_scan", "ios": "https://dc.lft.to/lastmile_qr_scan"}, "fusion_lon": 0.0, "lat": 38.928145, "bike_id": "e88345f747e1b5085699cd2ee0d7f83f", "type": "electric_scooter", "is_reserved": 0, "lon": -77.023306}, {"fusion_lat": 0.0, "name": "36413d02cd301a11e05dde1c27057d46", "is_disabled": 0, "rental_uris": {"android": "https://dc.lft.to/lastmile_qr_scan", "ios": "https://dc.lft.to/lastmile_qr_scan"}, "fusion_lon": 0.0, "lat": 38.907953166666665, "bike_id": "36413d02cd301a11e05dde1c27057d46", "type": "electric_scooter", "is_reserved": 0, "lon": -77.04238216666667}, {"fusion_lat": 0.0, "name": "829824b889d6cf4813c2bb74b853fd5c", "is_disabled": 0, "rental_uris": {"android": "https://dc.lft.to/lastmile_qr_scan", "ios": "https://dc.lft.to/lastmile_qr_scan"}, "fusion_lon": 0.0, "lat": 38.887317333333336, "bike_id": "829824b889d6cf4813c2bb74b853fd5c", "type": "electric_scooter", "is_reserved": 0, "lon": -77.01509233333333}, {"fusion_lat": 0.0, "name": "19c3804e3fe3e7a6c217d0cfb6448541", "is_disabled": 0, "rental_uris": {"android": "https://dc.lft.to/lastmile_qr_scan", "ios": "https://dc.lft.to/lastmile_qr_scan"}, "fusion_lon": 0.0, "lat": 38.92466616666667, "bike_id": "19c3804e3fe3e7a6c217d0cfb6448541", "type": "electric_scooter", "is_reserved": 0, "lon": -77.0207275}, {"fusion_lat": 0.0, "name": "bba4d331ee3a9476cd8eb9b8395ba8cb", "is_disabled": 0, "rental_uris": {"android": "https://dc.lft.to/lastmile_qr_scan", "ios": "https://dc.lft.to/lastmile_qr_scan"}, "fusion_lon": 0.0, "lat": 38.901013, "bike_id": "bba4d331ee3a9476cd8eb9b8395ba8cb", "type": "electric_scooter", "is_reserved": 0, "lon": -76.93049916666666}, {"fusion_lat": 0.0, "name": "a1e89feddc5464220bb5ab387e2f127c", "is_disabled": 0, "rental_uris": {"android": "https://dc.lft.to/lastmile_qr_scan", "ios": "https://dc.lft.to/lastmile_qr_scan"}, "fusion_lon": 0.0, "lat": 38.930856666666664, "bike_id": "a1e89feddc5464220bb5ab387e2f127c", "type": "electric_scooter", "is_reserved": 0, "lon": -77.02007583333334}, {"fusion_lat": 0.0, "name": "a7b76cfba9b9c67a60967590c438990b", "is_disabled": 0, "rental_uris": {"android": "https://dc.lft.to/lastmile_qr_scan", "ios": "https://dc.lft.to/lastmile_qr_scan"}, "fusion_lon": 0.0, "lat": 38.911738166666666, "bike_id": "a7b76cfba9b9c67a60967590c438990b", "type": "electric_scooter", "is_reserved": 0, "lon": -77.0295045}, {"fusion_lat": 0.0, "name": "4cbe78d6e8041e63aad0947a8db1af5b", "is_disabled": 0, "rental_uris": {"android": "https://dc.lft.to/lastmile_qr_scan", "ios": "https://dc.lft.to/lastmile_qr_scan"}, "fusion_lon": 0.0, "lat": 38.889903, "bike_id": "4cbe78d6e8041e63aad0947a8db1af5b", "type": "electric_scooter", "is_reserved": 0, "lon": -76.99251516666666}, {"fusion_lat": 0.0, "name": "65fa90a93b5e095e1930dbfc2ffc2c87", "is_disabled": 0, "rental_uris": {"android": "https://dc.lft.to/lastmile_qr_scan", "ios": "https://dc.lft.to/lastmile_qr_scan"}, "fusion_lon": 0.0, "lat": 38.88147433333334, "bike_id": "65fa90a93b5e095e1930dbfc2ffc2c87", "type": "electric_scooter", "is_reserved": 0, "lon": -76.9950825}, {"fusion_lat": 0.0, "name": "acf057895c0594c5e05dac5dadb2fc1b", "is_disabled": 0, "rental_uris": {"android": "https://dc.lft.to/lastmile_qr_scan", "ios": "https://dc.lft.to/lastmile_qr_scan"}, "fusion_lon": 0.0, "lat": 38.90547933333333, "bike_id": "acf057895c0594c5e05dac5dadb2fc1b", "type": "electric_scooter", "is_reserved": 0, "lon": -77.0465765}, {"fusion_lat": 0.0, "name": "7175d21f9f68ab3657a0bc354f27d40e", "is_disabled": 0, "rental_uris": {"android": "https://dc.lft.to/lastmile_qr_scan", "ios": "https://dc.lft.to/lastmile_qr_scan"}, "fusion_lon": 0.0, "lat": 38.902546, "bike_id": "7175d21f9f68ab3657a0bc354f27d40e", "type": "electric_scooter", "is_reserved": 0, "lon": -77.06321166666666}, {"fusion_lat": 0.0, "name": "22e0f4530f4c8fe6df56a826bf71fce6", "is_disabled": 0, "rental_uris": {"android": "https://dc.lft.to/lastmile_qr_scan", "ios": "https://dc.lft.to/lastmile_qr_scan"}, "fusion_lon": 0.0, "lat": 38.91900316666667, "bike_id": "22e0f4530f4c8fe6df56a826bf71fce6", "type": "electric_scooter", "is_reserved": 0, "lon": -77.000465}, {"fusion_lat": 0.0, "name": "0fa660f7d38899e336c11746dbce80b5", "is_disabled": 0, "rental_uris": {"android": "https://dc.lft.to/lastmile_qr_scan", "ios": "https://dc.lft.to/lastmile_qr_scan"}, "fusion_lon": 0.0, "lat": 38.96666233333333, "bike_id": "0fa660f7d38899e336c11746dbce80b5", "type": "electric_scooter", "is_reserved": 0, "lon": -77.02547316666667}, {"fusion_lat": 0.0, "name": "a0923ed03a65af9ab6735ddb6a257f89", "is_disabled": 0, "rental_uris": {"android": "https://dc.lft.to/lastmile_qr_scan", "ios": "https://dc.lft.to/lastmile_qr_scan"}, "fusion_lon": 0.0, "lat": 38.99778333333333, "bike_id": "a0923ed03a65af9ab6735ddb6a257f89", "type": "electric_bike", "is_reserved": 0, "lon": -77.0471985}, {"fusion_lat": 0.0, "name": "8fa49aa52ed56d4b8485ceb9aa03f68c", "is_disabled": 0, "rental_uris": {"android": "https://dc.lft.to/lastmile_qr_scan", "ios": "https://dc.lft.to/lastmile_qr_scan"}, "fusion_lon": 0.0, "lat": 38.905713666666664, "bike_id": "8fa49aa52ed56d4b8485ceb9aa03f68c", "type": "electric_scooter", "is_reserved": 0, "lon": -77.04575933333334}, {"fusion_lat": 0.0, "name": "bb11935eee4ac9c51e11a29c27585b2b", "is_disabled": 0, "rental_uris": {"android": "https://dc.lft.to/lastmile_qr_scan", "ios": "https://dc.lft.to/lastmile_qr_scan"}, "fusion_lon": 0.0, "lat": 38.903870833333336, "bike_id": "bb11935eee4ac9c51e11a29c27585b2b", "type": "electric_scooter", "is_reserved": 0, "lon": -77.04833133333334}, {"fusion_lat": 0.0, "name": "a567cb9e13363fddca17878ba122c5d6", "is_disabled": 0, "rental_uris": {"android": "https://dc.lft.to/lastmile_qr_scan", "ios": "https://dc.lft.to/lastmile_qr_scan"}, "fusion_lon": 0.0, "lat": 38.898551166666664, "bike_id": "a567cb9e13363fddca17878ba122c5d6", "type": "electric_scooter", "is_reserved": 0, "lon": -77.03961916666667}, {"fusion_lat": 0.0, "name": "7517efb2190402d0ee36780b8cc4aaed", "is_disabled": 0, "rental_uris": {"android": "https://dc.lft.to/lastmile_qr_scan", "ios": "https://dc.lft.to/lastmile_qr_scan"}, "fusion_lon": 0.0, "lat": 38.90410716666667, "bike_id": "7517efb2190402d0ee36780b8cc4aaed", "type": "electric_scooter", "is_reserved": 0, "lon": -76.973329}, {"fusion_lat": 0.0, "name": "53577f71a351d423705145c970b6b930", "is_disabled": 0, "rental_uris": {"android": "https://dc.lft.to/lastmile_qr_scan", "ios": "https://dc.lft.to/lastmile_qr_scan"}, "fusion_lon": 0.0, "lat": 38.900242666666664, "bike_id": "53577f71a351d423705145c970b6b930", "type": "electric_scooter", "is_reserved": 0, "lon": -76.99876216666667}, {"fusion_lat": 0.0, "name": "90c8680f0b354c012d63a91ccf89d7e9", "is_disabled": 0, "rental_uris": {"android": "https://dc.lft.to/lastmile_qr_scan", "ios": "https://dc.lft.to/lastmile_qr_scan"}, "fusion_lon": 0.0, "lat": 38.90571633333333, "bike_id": "90c8680f0b354c012d63a91ccf89d7e9", "type": "electric_scooter", "is_reserved": 0, "lon": -77.00638466666666}, {"fusion_lat": 0.0, "name": "e164112d4d355f4eecff5582d22a8145", "is_disabled": 0, "rental_uris": {"android": "https://dc.lft.to/lastmile_qr_scan", "ios": "https://dc.lft.to/lastmile_qr_scan"}, "fusion_lon": 0.0, "lat": 38.920696666666664, "bike_id": "e164112d4d355f4eecff5582d22a8145", "type": "electric_scooter", "is_reserved": 0, "lon": -77.04090133333334}, {"fusion_lat": 0.0, "name": "13a2045dea6bd36d05508a246c25b172", "is_disabled": 0, "rental_uris": {"android": "https://dc.lft.to/lastmile_qr_scan", "ios": "https://dc.lft.to/lastmile_qr_scan"}, "fusion_lon": 0.0, "lat": 38.91491716666667, "bike_id": "13a2045dea6bd36d05508a246c25b172", "type": "electric_scooter", "is_reserved": 0, "lon": -77.035974}, {"fusion_lat": 0.0, "name": "ce508e08e82c418f5ce09387bed67b83", "is_disabled": 0, "rental_uris": {"android": "https://dc.lft.to/lastmile_qr_scan", "ios": "https://dc.lft.to/lastmile_qr_scan"}, "fusion_lon": 0.0, "lat": 38.8075895, "bike_id": "ce508e08e82c418f5ce09387bed67b83", "type": "electric_bike", "is_reserved": 0, "lon": -77.09465066666667}, {"fusion_lat": 0.0, "name": "0ec36f472e0df74a2ec20022aa52c80e", "is_disabled": 0, "rental_uris": {"android": "https://dc.lft.to/lastmile_qr_scan", "ios": "https://dc.lft.to/lastmile_qr_scan"}, "fusion_lon": 0.0, "lat": 38.91561933333333, "bike_id": "0ec36f472e0df74a2ec20022aa52c80e", "type": "electric_scooter", "is_reserved": 0, "lon": -77.03869133333333}, {"fusion_lat": 0.0, "name": "a4f2334cb8cea9b4fce886507b98af9c", "is_disabled": 0, "rental_uris": {"android": "https://dc.lft.to/lastmile_qr_scan", "ios": "https://dc.lft.to/lastmile_qr_scan"}, "fusion_lon": 0.0, "lat": 38.89739333333333, "bike_id": "a4f2334cb8cea9b4fce886507b98af9c", "type": "electric_scooter", "is_reserved": 0, "lon": -77.03355766666667}, {"fusion_lat": 0.0, "name": "9a8be763cee6bb822b517bced2538e21", "is_disabled": 0, "rental_uris": {"android": "https://dc.lft.to/lastmile_qr_scan", "ios": "https://dc.lft.to/lastmile_qr_scan"}, "fusion_lon": 0.0, "lat": 38.923867333333334, "bike_id": "9a8be763cee6bb822b517bced2538e21", "type": "electric_scooter", "is_reserved": 0, "lon": -77.036592}, {"fusion_lat": 0.0, "name": "55b725724a3d5bc7d71de1b4fee66355", "is_disabled": 0, "rental_uris": {"android": "https://dc.lft.to/lastmile_qr_scan", "ios": "https://dc.lft.to/lastmile_qr_scan"}, "fusion_lon": 0.0, "lat": 38.865600666666666, "bike_id": "55b725724a3d5bc7d71de1b4fee66355", "type": "electric_bike", "is_reserved": 0, "lon": -76.97329966666666}, {"fusion_lat": 0.0, "name": "66149d539be13ba353fe987028fabb2c", "is_disabled": 0, "rental_uris": {"android": "https://dc.lft.to/lastmile_qr_scan", "ios": "https://dc.lft.to/lastmile_qr_scan"}, "fusion_lon": 0.0, "lat": 38.91487033333333, "bike_id": "66149d539be13ba353fe987028fabb2c", "type": "electric_scooter", "is_reserved": 0, "lon": -77.0353705}, {"fusion_lat": 0.0, "name": "8a889c426580f3e540a52973cb1109b7", "is_disabled": 0, "rental_uris": {"android": "https://dc.lft.to/lastmile_qr_scan", "ios": "https://dc.lft.to/lastmile_qr_scan"}, "fusion_lon": 0.0, "lat": 38.920157, "bike_id": "8a889c426580f3e540a52973cb1109b7", "type": "electric_scooter", "is_reserved": 0, "lon": -77.02504116666667}, {"fusion_lat": 0.0, "name": "f2df66fe9442f9e0a881aa3e073c7bfb", "is_disabled": 0, "rental_uris": {"android": "https://dc.lft.to/lastmile_qr_scan", "ios": "https://dc.lft.to/lastmile_qr_scan"}, "fusion_lon": 0.0, "lat": 38.900560666666664, "bike_id": "f2df66fe9442f9e0a881aa3e073c7bfb", "type": "electric_scooter", "is_reserved": 0, "lon": -77.01616283333334}, {"fusion_lat": 0.0, "name": "1cd7d00d778e60b518a70687e02d3e9c", "is_disabled": 0, "rental_uris": {"android": "https://dc.lft.to/lastmile_qr_scan", "ios": "https://dc.lft.to/lastmile_qr_scan"}, "fusion_lon": 0.0, "lat": 38.945352166666666, "bike_id": "1cd7d00d778e60b518a70687e02d3e9c", "type": "electric_scooter", "is_reserved": 0, "lon": -77.0168675},