{"data": {"bikes": [{"is_reserved": 0, "type": "electric_scooter", "fusion_lat": 0.0, "is_disabled": 0, "rental_uris": {"ios": "https://dc.lft.to/lastmile_qr_scan", "android": "https://dc.lft.to/lastmile_qr_scan"}, "bike_id": "3defd179b3301ea1c7815a0793b24e0d", "lat": 38.923824, "name": "3defd179b3301ea1c7815a0793b24e0d", "lon": -77.051834, "fusion_lon": 0.0}, {"is_reserved": 0, "type": "electric_scooter", "fusion_lat": 0.0, "is_disabled": 0, "rental_uris": {"ios": "https://dc.lft.to/lastmile_qr_scan", "android": "https://dc.lft.to/lastmile_qr_scan"}, "bike_id": "ee192404d5b86588a14aa7c378f1ab0d", "lat": 38.92417583333334, "name": "ee192404d5b86588a14aa7c378f1ab0d", "lon": -77.02978066666667, "fusion_lon": 0.0}, {"is_reserved": 0, "type": "electric_scooter", "fusion_lat": 0.0, "is_disabled": 0, "rental_uris": {"ios": "https://dc.lft.to/lastmile_qr_scan", "android": "https://dc.lft.to/lastmile_qr_scan"}, "bike_id": "33f9d7acad8fc60c9de7dfbb1d6c3b60", "lat": 38.920731333333336, "name": "33f9d7acad8fc60c9de7dfbb1d6c3b60", "lon": -77.02824583333333, "fusion_lon": 0.0}, {"is_reserved": 0, "type": "electric_scooter", "fusion_lat": 0.0, "is_disabled": 0, "rental_uris": {"ios": "https://dc.lft.to/lastmile_qr_scan", "android": "https://dc.lft.to/lastmile_qr_scan"}, "bike_id": "3b76695f0a2f8393762ee1807b91b781", "lat": 38.904673833333334, "name": "3b76695f0a2f8393762ee1807b91b781", "lon": -77.01704566666666, "fusion_lon": 0.0}, {"is_reserved": 0, "type": "electric_scooter", "fusion_lat": 0.0, "is_disabled": 0, "rental_uris": {"ios": "https://dc.lft.to/lastmile_qr_scan", "android": "https://dc.lft.to/lastmile_qr_scan"}, "bike_id": "aa05ce29560d1517068f4a7ab05ba91d", "lat": 38.902574666666666, "name": "aa05ce29560d1517068f4a7ab05ba91d", "lon": -77.0169375, "fusion_lon": 0.0}, {"is_reserved": 0, "type": "electric_scooter", "fusion_lat": 0.0, "is_disabled": 0, "rental_uris": {"ios": "https://dc.lft.to/lastmile_qr_scan", "android": "https://dc.lft.to/lastmile_qr_scan"}, "bike_id": "ed99899be66ec2b9dd27dde1e319bd1a", "lat": 38.93783216666667, "name": "ed99899be66ec2b9dd27dde1e319bd1a", "lon": -76.993709, "fusion_lon": 0.0}, {"is_reserved": 0, "type": "electric_scooter", "fusion_lat": 0.0, "is_disabled": 0, "rental_uris": {"ios": "https://dc.lft.to/lastmile_qr_scan", "android": "https://dc.lft.to/lastmile_qr_scan"}, "bike_id": "dd0832c54121bcb2c59374905924df7b", "lat": 38.882681166666664, "name": "dd0832c54121bcb2c59374905924df7b", "lon": -76.99528333333333, "fusion_lon": 0.0}, {"is_reserved": 0, "type": "electric_scooter", "fusion_lat": 0.0, "is_disabled": 0, "rental_uris": {"ios": "https://dc.lft.to/lastmile_qr_scan", "android": "https://dc.lft.to/lastmile_qr_scan"}, "bike_id": "1e07ffbce8f61057ca18aea78b408c2a", "lat": 38.903305333333336, "name": "1e07ffbce8f61057ca18aea78b408c2a", "lon": -76.97588366666666, "fusion_lon": 0.0}, {"is_reserved": 0, "type": "electric_scooter", "fusion_lat": 0.0, "is_disabled": 0, "rental_uris": {"ios": "https://dc.lft.to/lastmile_qr_scan", "android": "https://dc.lft.to/lastmile_qr_scan"}, "bike_id": "be95088bad87c50943127c8d6b4aaa60", "lat": 38.89639416666667, "name": "be95088bad87c50943127c8d6b4aaa60", "lon": -77.01188916666666, "fusion_lon": 0.0}, {"is_reserved": 0, "type": "electric_scooter", "fusion_lat": 0.0, "is_disabled": 0, "rental_uris": {"ios": "https://dc.lft.to/lastmile_qr_scan", "android": "https://dc.lft.to/lastmile_qr_scan"}, "bike_id": "7cd39524e84bb117ac7987504f1d0544", "lat": 38.90955266666667, "name": "7cd39524e84bb117ac7987504f1d0544", "lon": -77.02376933333333, "fusion_lon": 0.0}, {"is_reserved": 0, "type": "electric_scooter", "fusion_lat": 0.0, "is_disabled": 0, "rental_uris": {"ios": "https://dc.lft.to/lastmile_qr_scan", "android": "https://dc.lft.to/lastmile_qr_scan"}, "bike_id": "782699d9f3c26ec16c68e1f231d74e7b", "lat": 38.91200666666667, "name": "782699d9f3c26ec16c68e1f231d74e7b", "lon": -77.00210683333333, "fusion_lon": 0.0}, {"is_reserved": 0, "type": "electric_scooter", "fusion_lat": 0.0, "is_disabled": 0, "rental_uris": {"ios": "https://dc.lft.to/lastmile_qr_scan", "android": "https://dc.lft.to/lastmile_qr_scan"}, "bike_id": "066157502612440a13986f901f0cc1ff", "lat": 38.878390333333336, "name": "066157502612440a13986f901f0cc1ff", "lon": -77.00870116666667, "fusion_lon": 0.0}, {"is_reserved": 0, "type": "electric_scooter", "fusion_lat": 0.0, "is_disabled": 0, "rental_uris": {"ios": "https://dc.lft.to/lastmile_qr_scan", "android": "https://dc.lft.to/lastmile_qr_scan"}, "bike_id": "50ac8101f8b4c9e294f2538e63ac74f8", "lat": 38.8850875, "name": "50ac8101f8b4c9e294f2538e63ac74f8", "lon": -76.996175, "fusion_lon": 0.0}, {"is_reserved": 0, "type": "electric_bike", "fusion_lat": 0.0, "is_disabled": 0, "rental_uris": {"ios": "https://dc.lft.to/lastmile_qr_scan", "android": "https://dc.lft.to/lastmile_qr_scan"}, "bike_id": "9e8c6c6085d42d1676fa872ee3b51bd3", "lat": 39.005343833333335, "name": "9e8c6c6085d42d1676fa872ee3b51bd3", "lon": -77.10402833333333, "fusion_lon": 0.0}, {"is_reserved": 0, "type": "electric_scooter", "fusion_lat": 0.0, "is_disabled": 0, "rental_uris": {"ios": "https://dc.lft.to/lastmile_qr_scan", "android": "https://dc.lft.to/lastmile_qr_scan"}, "bike_id": "91b44fad9e89b510386645a2f26d2cdf", "lat": 38.90570833333334, "name": "91b44fad9e89b510386645a2f26d2cdf", "lon": -77.03118433333333, "fusion_lon": 0.0}, {"is_reserved": 0, "type": "electric_scooter", "fusion_lat": 0.0, "is_disabled": 0, "rental_uris": {"ios": "https://dc.lft.to/lastmile_qr_scan", "android": "https://dc.lft.to/lastmile_qr_scan"}, "bike_id": "affd1412bfb70cbfa63f422457735c10", "lat": 38.9296855, "name": "affd1412bfb70cbfa63f422457735c10", "lon": -77.02346166666666, "fusion_lon": 0.0}, {"is_reserved": 0, "type": "electric_scooter", "fusion_lat": 0.0, "is_disabled": 0, "rental_uris": {"ios": "https://dc.lft.to/lastmile_qr_scan", "android": "https://dc.lft.to/lastmile_qr_scan"}, "bike_id": "ab34207191f059ab660cd59d3ca32ff7", "lat": 38.914767166666664, "name": "ab34207191f059ab660cd59d3ca32ff7", "lon": -77.009299, "fusion_lon": 0.0}, {"is_reserved": 0, "type": "electric_scooter", "fusion_lat": 0.0, "is_disabled": 0, "rental_uris": {"ios": "https://dc.lft.to/lastmile_qr_scan", "android": "https://dc.lft.to/lastmile_qr_scan"}, "bike_id": "b9be6b44ca51cfa36c210a9ca1b1e8ba", "lat": 38.898494666666664, "name": "b9be6b44ca51cfa36c210a9ca1b1e8ba", "lon": -76.99488783333334, "fusion_lon": 0.0}, {"is_reserved": 0, "type": "electric_bike", "fusion_lat": 0.0, "is_disabled": 0, "rental_uris": {"ios": "https://dc.lft.to/lastmile_qr_scan", "android": "https://dc.lft.to/lastmile_qr_scan"}, "bike_id": "bc438b7a56f6e1651a89b0f6f7dd5b7f", "lat": 38.8649845, "name": "bc438b7a56f6e1651a89b0f6f7dd5b7f", "lon": -76.97330583333333, "fusion_lon": 0.0}, {"is_reserved": 0, "type": "electric_scooter", "fusion_lat": 0.0, "is_disabled": 0, "rental_uris": {"ios": "https://dc.lft.to/lastmile_qr_scan", "android": "https://dc.lft.to/lastmile_qr_scan"}, "bike_id": "a1305ed27cda08361616b04e8e7e4558", "lat": 38.89760733333333, "name": "a1305ed27cda08361616b04e8e7e4558", "lon": -77.01208866666667, "fusion_lon": 0.0}, {"is_reserved": 0, "type": "electric_scooter", "fusion_lat": 0.0, "is_disabled": 0, "rental_uris": {"ios": "https://dc.lft.to/lastmile_qr_scan", "android": "https://dc.lft.to/lastmile_qr_scan"}, "bike_id": "dfa6a3c7ed7f9162b32e06b0701e0f78", "lat": 38.91460333333333, "name": "dfa6a3c7ed7f9162b32e06b0701e0f78", "lon": -77.02290116666667, "fusion_lon": 0.0}, {"is_reserved": 0, "type": "electric_bike", "fusion_lat": 0.0, "is_disabled": 0, "rental_uris": {"ios": "https://dc.lft.to/lastmile_qr_scan", "android": "https://dc.lft.to/lastmile_qr_scan"}, "bike_id": "15ec8bca7d2783398337ef963ad29aae", "lat": 38.87738066666667, "name": "15ec8bca7d2783398337ef963ad29aae", "lon": -77.14870866666666, "fusion_lon": 0.0}, {"is_reserved": 0, "type": "electric_scooter", "fusion_lat": 0.0, "is_disabled": 0, "rental_uris": {"ios": "https://dc.lft.to/lastmile_qr_scan", "android": "https://dc.lft.to/lastmile_qr_scan"}, "bike_id": "2e03b1050f132bdc36b4e697cf6ae5d7", "lat": 38.919469, "name": "2e03b1050f132bdc36b4e697cf6ae5d7", "lon": -77.02510683333334, "fusion_lon": 0.0}, {"is_reserved": 0, "type": "electric_scooter", "fusion_lat": 0.0, "is_disabled": 0, "rental_uris": {"ios": "https://dc.lft.to/lastmile_qr_scan", "android": "https://dc.lft.to/lastmile_qr_scan"}, "bike_id": "2ea3c15fa0669acf6e684a4b36b0f444", "lat": 38.907551, "name": "2ea3c15fa0669acf6e684a4b36b0f444", "lon": -77.01697833333333, "fusion_lon": 0.0}, {"is_reserved": 0, "type": "electric_scooter", "fusion_lat": 0.0, "is_disabled": 0, "rental_uris": {"ios": "https://dc.lft.to/lastmile_qr_scan", "android": "https://dc.lft.to/lastmile_qr_scan"}, "bike_id": "e7e982f5a7be5d45cb47c507534bd531", "lat": 38.9223635, "name": "e7e982f5a7be5d45cb47c507534bd531", "lon": -76.9884505, "fusion_lon": 0.0}, {"is_reserved": 0, "type": "electric_scooter", "fusion_lat": 0.0, "is_disabled": 0, "rental_uris": {"ios": "https://dc.lft.to/lastmile_qr_scan", "android": "https://dc.lft.to/lastmile_qr_scan"}, "bike_id": "0c68592a974cfac50e8b4bc14dbe05c1", "lat": 38.90562366666666, "name": "0c68592a974cfac50e8b4bc14dbe05c1", "lon": -77.00708966666667, "fusion_lon": 0.0}, {"is_reserved": 0, "type": "electric_scooter", "fusion_lat": 0.0, "is_disabled": 0, "rental_uris": {"ios": "https://dc.lft.to/lastmile_qr_scan", "android": "https://dc.lft.to/lastmile_qr_scan"}, "bike_id": "5482c359668de4400391026a0acae8dc", "lat": 38.92385083333333, "name": "5482c359668de4400391026a0acae8dc", "lon": -77.02748983333333, "fusion_lon": 0.0}, {"is_reserved": 0, "type": "electric_scooter", "fusion_lat": 0.0, "is_disabled": 0, "rental_uris": {"ios": "https://dc.lft.to/lastmile_qr_scan", "android": "https://dc.lft.to/lastmile_qr_scan"}, "bike_id": "cde6f4b28a00003d2c059e594f983c03", "lat": 38.905876166666665, "name": "cde6f4b28a00003d2c059e594f983c03", "lon": -77.07278483333333, "fusion_lon": 0.0}, {"is_reserved": 0, "type": "electric_scooter", "fusion_lat": 0.0, "is_disabled": 0, "rental_uris": {"ios": "https://dc.lft.to/lastmile_qr_scan", "android": "https://dc.lft.to/lastmile_qr_scan"}, "bike_id": "4f13455aff3cb9e519e7317bcc28850b", "lat": 38.894183, "name": "4f13455aff3cb9e519e7317bcc28850b", "lon": -77.01088016666667, "fusion_lon": 0.0}, {"is_reserved": 0, "type": "electric_scooter", "fusion_lat": 0.0, "is_disabled": 0, "rental_uris": {"ios": "https://dc.lft.to/lastmile_qr_scan", "android": "https://dc.lft.to/lastmile_qr_scan"}, "bike_id": "042c63d4f0dc27fb96b96e9b67c8c54c", "lat": 38.9203815, "name": "042c63d4f0dc27fb96b96e9b67c8c54c", "lon": -77.041928, "fusion_lon": 0.0}, {"is_reserved": 0, "type": "electric_scooter", "fusion_lat": 0.0, "is_disabled": 0, "rental_uris": {"ios": "https://dc.lft.to/lastmile_qr_scan", "android": "https://dc.lft.to/lastmile_qr_scan"}, "bike_id": "ed7c314894eacb61f2eedd30788d47f8", "lat": 38.920045, "name": "ed7c314894eacb61f2eedd30788d47f8", "lon": -77.071027, "fusion_lon": 0.0}, {"is_reserved": 0, "type": "electric_scooter", "fusion_lat": 0.0, "is_disabled": 0, "rental_uris": {"ios": "https://dc.lft.to/lastmile_qr_scan", "android": "https://dc.lft.to/lastmile_qr_scan"}, "bike_id": "0ac3731122f62e7fec5252cb03fe3496", "lat": 38.9126395, "name": "0ac3731122f62e7fec5252cb03fe3496", "lon": -77.03873233333333, "fusion_lon": 0.0}, {"is_reserved": 0, "type": "electric_scooter", "fusion_lat": 0.0, "is_disabled": 0, "rental_uris": {"ios": "https://dc.lft.to/lastmile_qr_scan", "android": "https://dc.lft.to/lastmile_qr_scan"}, "bike_id": "0182e884de397b51490f2f83f44a4b37", "lat": 38.928343166666664, "name": "0182e884de397b51490f2f83f44a4b37", "lon": -77.02153983333334, "fusion_lon": 0.0}, {"is_reserved": 0, "type": "electric_scooter", "fusion_lat": 0.0, "is_disabled": 0, "rental_uris": {"ios": "https://dc.lft.to/lastmile_qr_scan", "android": "https://dc.lft.to/lastmile_qr_scan"}, "bike_id": "241c7e59ef3b70131cef69136a9d13f9", "lat": 38.9196305, "name": "241c7e59ef3b70131cef69136a9d13f9", "lon": -77.02373733333333, "fusion_lon": 0.0}, {"is_reserved": 0, "type": "electric_scooter", "fusion_lat": 0.0, "is_disabled": 0, "rental_uris": {"ios": "https://dc.lft.to/lastmile_qr_scan", "android": "https://dc.lft.to/lastmile_qr_scan"}, "bike_id": "f49c9f815271c383288c491b074fec1b", "lat": 38.930943, "name": "f49c9f815271c383288c491b074fec1b", "lon": -77.03211033333334, "fusion_lon": 0.0}, {"is_reserved": 0, "type": "electric_scooter", "fusion_lat": 0.0, "is_disabled": 0, "rental_uris": {"ios": "https://dc.lft.to/lastmile_qr_scan", "android": "https://dc.lft.to/lastmile_qr_scan"}, "bike_id": "8d677f01de075a931764d9c3576abc0e", "lat": 38.93993, "name": "8d677f01de075a931764d9c3576abc0e", "lon": -77.02898083333334, "fusion_lon": 0.0}, {"is_reserved": 0, "type": "electric_scooter", "fusion_lat": 0.0, "is_disabled": 0, "rental_uris": {"ios": "https://dc.lft.to/lastmile_qr_scan", "android": "https://dc.lft.to/lastmile_qr_scan"}, "bike_id": "789e3f6a431f19c98ba8ed47945ee61a", "lat": 38.894702833333334, "name": "789e3f6a431f19c98ba8ed47945ee61a", "lon": -77.02732416666667, "fusion_lon": 0.0}, {"is_reserved": 0, "type": "electric_bike", "fusion_lat": 0.0, "is_disabled": 0, "rental_uris": {"ios": "https://dc.lft.to/lastmile_qr_scan", "android": "https://dc.lft.to/lastmile_qr_scan"}, "bike_id": "0418c761b85cb4a0978c91dbbc0927d6", "lat": 38.88278716666667, "name": "0418c761b85cb4a0978c91dbbc0927d6", "lon": -76.932406, "fusion_lon": 0.0}, {"is_reserved": 0, "type": "electric_scooter", "fusion_lat": 0.0, "is_disabled": 0, "rental_uris": {"ios": "https://dc.lft.to/lastmile_qr_scan", "android": "https://dc.lft.to/lastmile_qr_scan"}, "bike_id": "af045ece5b196d3769c33282afe3612d", "lat": 38.89223066666667, "name": "af045ece5b196d3769c33282afe3612d", "lon": -77.04487283333333, "fusion_lon": 0.0}, {"is_reserved": 0, "type": "electric_bike", "fusion_lat": 0.0, "is_disabled": 0, "rental_uris": {"ios": "https://dc.lft.to/lastmile_qr_scan", "android": "https://dc.lft.to/lastmile_qr_scan"}, "bike_id": "6802e54275aa073d580a6266f0bfb5f8", "lat": 38.9451945, "name": "6802e54275aa073d580a6266f0bfb5f8", "lon": -76.96803666666666, "fusion_lon": 0.0}, {"is_reserved": 0, "type": "electric_scooter", "fusion_lat": 0.0, "is_disabled": 0, "rental_uris": {"ios": "https://dc.lft.to/lastmile_qr_scan", "android": "https://dc.lft.to/lastmile_qr_scan"}, "bike_id": "daa7d44616bd9d0c20d140085538b6fa", "lat": 38.910668333333334, "name": "daa7d44616bd9d0c20d140085538b6fa", "lon": -77.02660816666666, "fusion_lon": 0.0}, {"is_reserved": 0, "type": "electric_scooter", "fusion_lat": 0.0, "is_disabled": 0, "rental_uris": {"ios": "https://dc.lft.to/lastmile_qr_scan", "android": "https://dc.lft.to/lastmile_qr_scan"}, "bike_id": "d42318192e1d10ec38f04232205fef56", "lat": 38.919491, "name": "d42318192e1d10ec38f04232205fef56", "lon": -77.00232933333334, "fusion_lon": 0.0}, {"is_reserved": 0, "type": "electric_scooter", "fusion_lat": 0.0, "is_disabled": 0, "rental_uris": {"ios": "https://dc.lft.to/lastmile_qr_scan", "android": "https://dc.lft.to/lastmile_qr_scan"}, "bike_id": "23cafcb33f03beae5f2bbe71ced0bf52", "lat": 38.93973, "name": "23cafcb33f03beae5f2bbe71ced0bf52", "lon": -77.03433883333334, "fusion_lon": 0.0}, {"is_reserved": 0, "type": "electric_scooter", "fusion_lat": 0.0, "is_disabled": 0, "rental_uris": {"ios": "https://dc.lft.to/lastmile_qr_scan", "android": "https://dc.lft.to/lastmile_qr_scan"}, "bike_id": "ebebf59415f98f040f8abfd571fe11ad", "lat": 38.8972425, "name": "ebebf59415f98f040f8abfd571fe11ad", "lon": -77.04372216666667, "fusion_lon": 0.0}, {"is_reserved": 0, "type": "electric_scooter", "fusion_lat": 0.0, "is_disabled": 0, "rental_uris": {"ios": "https://dc.lft.to/lastmile_qr_scan", "android": "https://dc.lft.to/lastmile_qr_scan"}, "bike_id": "e9d85df53505759807b506b7df439c1f", "lat": 38.917125, "name": "e9d85df53505759807b506b7df439c1f", "lon": -77.09210016666667, "fusion_lon": 0.0}, {"is_reserved": 0, "type": "electric_scooter", "fusion_lat": 0.0, "is_disabled": 0, "rental_uris": {"ios": "https://dc.lft.to/lastmile_qr_scan", "android": "https://dc.lft.to/lastmile_qr_scan"}, "bike_id": "d8c2a2a8efbcfd382ec0216de330f221", "lat": 38.885713333333335, "name": "d8c2a2a8efbcfd382ec0216de330f221", "lon": -77.00036316666667, "fusion_lon": 0.0}, {"is_reserved": 0, "type": "electric_scooter", "fusion_lat": 0.0, "is_disabled": 0, "rental_uris": {"ios": "https://dc.lft.to/lastmile_qr_scan", "android": "https://dc.lft.to/lastmile_qr_scan"}, "bike_id": "a5927a4e740d8990607cc23892334d1c", "lat": 38.92410183333333, "name": "a5927a4e740d8990607cc23892334d1c", "lon": -77.03639133333333, "fusion_lon": 0.0}, {"is_reserved": 0, "type": "electric_scooter", "fusion_lat": 0.0, "is_disabled": 0, "rental_uris": {"ios": "https://dc.lft.to/lastmile_qr_scan", "android": "https://dc.lft.to/lastmile_qr_scan"}, "bike_id": "859529ff6939f43009ff81da2464c210", "lat": 38.9130065, "name": "859529ff6939f43009ff81da2464c210", "lon": -77.04562016666667, "fusion_lon": 0.0}, {"is_reserved": 0, "type": "electric_scooter", "fusion_lat": 0.0, "is_disabled": 0, "rental_uris": {"ios": "https://dc.lft.to/lastmile_qr_scan", "android": "https://dc.lft.to/lastmile_qr_scan"}, "bike_id": "141f32bcff27d5d0884d1a3b2f071020", "lat": 38.90395683333333, "name": "141f32bcff27d5d0884d1a3b2f071020", "lon": -77.050773, "fusion_lon": 0.0}, {"is_reserved": 0, "type": "electric_scooter", "fusion_lat": 0.0, "is_disabled": 0, "rental_uris": {"ios": "https://dc.lft.to/lastmile_qr_scan", "android": "https://dc.lft.to/lastmile_qr_scan"}, "bike_id": "8e2034ac38166a76e857df37b175e0bf", "lat": 38.92199183333334, "name": "8e2034ac38166a76e857df37b175e0bf", "lon": -77.01834283333334, "fusion_lon": 0.0}, {"is_reserved": 0, "type": "electric_scooter", "fusion_lat": 0.0, "is_disabled": 0, "rental_uris": {"ios": "https://dc.lft.to/lastmile_qr_scan", "android": "https://dc.lft.to/lastmile_qr_scan"}, "bike_id": "91130520757c488f898bfee7d7080207", "lat": 38.95096866666667, "name": "91130520757c488f898bfee7d7080207", "lon": -77.0219555, "fusion_lon": 0.0}, {"is_reserved": 0, "type": "electric_scooter", "fusion_lat": 0.0, "is_disabled": 0, "rental_uris": {"ios": "https://dc.lft.to/lastmile_qr_scan", "android": "https://dc.lft.to/lastmile_qr_scan"}, "bike_id": "25c275893eeac8480711fb743cb22a6e", "lat": 38.90033783333333, "name": "25c275893eeac8480711fb743cb22a6e", "lon": -77.01234483333333, "fusion_lon": 0.0}, {"is_reserved": 0, "type": "electric_scooter", "fusion_lat": 0.0, "is_disabled": 0, "rental_uris": {"ios": "https://dc.lft.to/lastmile_qr_scan", "android": "https://dc.lft.to/lastmile_qr_scan"}, "bike_id": "048dbd0248d5cf994fca97f6f2e690f2", "lat": 38.9311375, "name": "048dbd0248d5cf994fca97f6f2e690f2", "lon": -77.0380735, "fusion_lon": 0.0}, {"is_reserved": 0, "type": "electric_scooter", "fusion_lat": 0.0, "is_disabled": 0, "rental_uris": {"ios": "https://dc.lft.to/lastmile_qr_scan", "android": "https://dc.lft.to/lastmile_qr_scan"}, "bike_id": "e385e091bbcad0d5261cc26102d86b13", "lat": 38.90565516666667, "name": "e385e091bbcad0d5261cc26102d86b13", "lon": -77.0043425, "fusion_lon": 0.0}, {"is_reserved": 0, "type": "electric_scooter", "fusion_lat": 0.0, "is_disabled": 0, "rental_uris": {"ios": "https://dc.lft.to/lastmile_qr_scan", "android": "https://dc.lft.to/lastmile_qr_scan"}, "bike_id": "996b31131f1462a5a56e933c5c15f83b", "lat": 38.90112966666667, "name": "996b31131f1462a5a56e933c5c15f83b", "lon": -77.04352233333333, "fusion_lon": 0.0}, {"is_reserved": 0, "type": "electric_scooter", "fusion_lat": 0.0, "is_disabled": 0, "rental_uris": {"ios": "https://dc.lft.to/lastmile_qr_scan", "android": "https://dc.lft.to/lastmile_qr_scan"}, "bike_id": "45f7d3d4d7a5dc9f6d8df65e3586428c", "lat": 38.920639, "name": "45f7d3d4d7a5dc9f6d8df65e3586428c", "lon": -77.034598, "fusion_lon": 0.0}, {"is_reserved": 0, "type": "electric_scooter", "fusion_lat": 0.0, "is_disabled": 0, "rental_uris": {"ios": "https://dc.lft.to/lastmile_qr_scan", "android": "https://dc.lft.to/lastmile_qr_scan"}, "bike_id": "5a4f8e81b523e0246324089d62ee0d6f", "lat": 38.93869, "name": "5a4f8e81b523e0246324089d62ee0d6f", "lon": -77.0782085, "fusion_lon": 0.0}, {"is_reserved": 0, "type": "electric_scooter", "fusion_lat": 0.0, "is_disabled": 0, "rental_uris": {"ios": "https://dc.lft.to/lastmile_qr_scan", "android": "https://dc.lft.to/lastmile_qr_scan"}, "bike_id": "a1fe687259e246ed3b4221006c4031fd", "lat": 38.892210166666665, "name": "a1fe687259e246ed3b4221006c4031fd", "lon": -77.04367816666667, "fusion_lon": 0.0}, {"is_reserved": 0, "type": "electric_scooter", "fusion_lat": 0.0, "is_disabled": 0, "rental_uris": {"ios": "https://dc.lft.to/lastmile_qr_scan", "android": "https://dc.lft.to/lastmile_qr_scan"}, "bike_id": "1cf7fd6941d33d3a2a05d0f3fffde55e", "lat": 38.933815333333335, "name": "1cf7fd6941d33d3a2a05d0f3fffde55e", "lon": -77.07383483333334, "fusion_lon": 0.0}, {"is_reserved": 0, "type": "electric_scooter", "fusion_lat": 0.0, "is_disabled": 0, "rental_uris": {"ios": "https://dc.lft.to/lastmile_qr_scan", "android": "https://dc.lft.to/lastmile_qr_scan"}, "bike_id": "8e739a62685655b2c801e1265ce94885", "lat": 38.922313, "name": "8e739a62685655b2c801e1265ce94885", "lon": -76.9753455, "fusion_lon": 0.0}, {"is_reserved": 0, "type": "electric_scooter", "fusion_lat": 0.0, "is_disabled": 0, "rental_uris": {"ios": "https://dc.lft.to/lastmile_qr_scan", "android": "https://dc.lft.to/lastmile_qr_scan"}, "bike_id": "6339abcef6916632a21bae0dfc2d9054", "lat": 38.906770333333334, "name": "6339abcef6916632a21bae0dfc2d9054", "lon": -77.04883933333333, "fusion_lon": 0.0}, {"is_reserved": 0, "type": "electric_scooter", "fusion_lat": 0.0, "is_disabled": 0, "rental_uris": {"ios": "https://dc.lft.to/lastmile_qr_scan", "android": "https://dc.lft.to/lastmile_qr_scan"}, "bike_id": "22ae797168cda7b5d311221269e3b68a", "lat": 38.92669716666666, "name": "22ae797168cda7b5d311221269e3b68a", "lon": -77.02719283333333, "fusion_lon": 0.0}, {"is_reserved": 0, "type": "electric_scooter", "fusion_lat": 0.0, "is_disabled": 0, "rental_uris": {"ios": "https://dc.lft.to/lastmile_qr_scan", "android": "https://dc.lft.to/lastmile_qr_scan"}, "bike_id": "c8572265e30752292c55de9c340f7e48", "lat": 38.9337985, "name": "c8572265e30752292c55de9c340f7e48", "lon": -77.07273133333334, "fusion_lon": 0.0}, {"is_reserved": 0, "type": "electric_scooter", "fusion_lat": 0.0, "is_disabled": 0, "rental_uris": {"ios": "https://dc.lft.to/lastmile_qr_scan", "android": "https://dc.lft.to/lastmile_qr_scan"}, "bike_id": "18ff23714ea7071ef6bcc0190daf2468", "lat": 38.94462083333333, "name": "18ff23714ea7071ef6bcc0190daf2468", "lon": -77.0065755, "fusion_lon": 0.0}, {"is_reserved": 0, "type": "electric_scooter", "fusion_lat": 0.0, "is_disabled": 0, "rental_uris": {"ios": "https://dc.lft.to/lastmile_qr_scan", "android": "https://dc.lft.to/lastmile_qr_scan"}, "bike_id": "8f0e83cd1d983c9b2c5330c89dcd37e2", "lat": 38.920433333333335, "name": "8f0e83cd1d983c9b2c5330c89dcd37e2", "lon": -77.0339345, "fusion_lon": 0.0}, {"is_reserved": 0, "type": "electric_scooter", "fusion_lat": 0.0, "is_disabled": 0, "rental_uris": {"ios": "https://dc.lft.to/lastmile_qr_scan", "android": "https://dc.lft.to/lastmile_qr_scan"}, "bike_id": "dd73e90e1f78864496f3d23103c63b3e", "lat": 38.912191166666666, "name": "dd73e90e1f78864496f3d23103c63b3e", "lon": -77.00666316666667, "fusion_lon": 0.0}, {"is_reserved": 0, "type": "electric_scooter", "fusion_lat": 0.0, "is_disabled": 0, "rental_uris": {"ios": "https://dc.lft.to/lastmile_qr_scan", "android": "https://dc.lft.to/lastmile_qr_scan"}, "bike_id": "ce2c8b7cb3dfa969c9422bd314dfef07", "lat": 38.90267466666667, "name": "ce2c8b7cb3dfa969c9422bd314dfef07", "lon": -76.98981016666667, "fusion_lon": 0.0}, {"is_reserved": 0, "type": "electric_scooter", "fusion_lat": 0.0, "is_disabled": 0, "rental_uris": {"ios": "https://dc.lft.to/lastmile_qr_scan", "android": "https://dc.lft.to/lastmile_qr_scan"}, "bike_id": "871ed3a8889675cd37df0b942d9d74c9", "lat": 38.90782816666667, "name": "871ed3a8889675cd37df0b942d9d74c9", "lon": -77.07257983333334, "fusion_lon": 0.0}, {"is_reserved": 0, "type": "electric_scooter", "fusion_lat": 0.0, "is_disabled": 0, "rental_uris": {"ios": "https://dc.lft.to/lastmile_qr_scan", "android": "https://dc.lft.to/lastmile_qr_scan"}, "bike_id": "6c6a65fbd484907f89e94cbf8891e75e", "lat": 38.915427, "name": "6c6a65fbd484907f89e94cbf8891e75e", "lon": -77.0297275, "fusion_lon": 0.0}, {"is_reserved": 0, "type": "electric_scooter", "fusion_lat": 0.0, "is_disabled": 0, "rental_uris": {"ios": "https://dc.lft.to/lastmile_qr_scan", "android": "https://dc.lft.to/lastmile_qr_scan"}, "bike_id": "ca563c0d4a436d4fc30af17cdaa31221", "lat": 38.905251666666665, "name": "ca563c0d4a436d4fc30af17cdaa31221", "lon": -77.04335583333334, "fusion_lon": 0.0}, {"is_reserved": 0, "type": "electric_scooter", "fusion_lat": 0.0, "is_disabled": 0, "rental_uris": {"ios": "https://dc.lft.to/lastmile_qr_scan", "android": "https://dc.lft.to/lastmile_qr_scan"}, "bike_id": "d6b8ca151010bed265a8d1abcba7e6f5", "lat": 38.873769833333334, "name": "d6b8ca151010bed265a8d1abcba7e6f5", "lon": -77.001257, "fusion_lon": 0.0}, {"is_reserved": 0, "type": "electric_bike", "fusion_lat": 0.0, "is_disabled": 0, "rental_uris": {"ios": "https://dc.lft.to/lastmile_qr_scan", "android": "https://dc.lft.to/lastmile_qr_scan"}, "bike_id": "acd031bdb3a5acf6fc8b7d16fb2b7e4f", "lat": 38.867545166666666, "name": "acd031bdb3a5acf6fc8b7d16fb2b7e4f", "lon": -76.94535666666667, "fusion_lon": 0.0}, {"is_reserved": 0, "type": "electric_scooter", "fusion_lat": 0.0, "is_disabled": 0, "rental_uris": {"ios": "https://dc.lft.to/lastmile_qr_scan", "android": "https://dc.lft.to/lastmile_qr_scan"}, "bike_id": "7bd266a7e0c375edd73b92a9c79b271b", "lat": 38.884516, "name": "7bd266a7e0c375edd73b92a9c79b271b", "lon": -77.03030016666666, "fusion_lon": 0.0}, {"is_reserved": 0, "type": "electric_scooter", "fusion_lat": 0.0, "is_disabled": 0, "rental_uris": {"ios": "https://dc.lft.to/lastmile_qr_scan", "android": "https://dc.lft.to/lastmile_qr_scan"}, "bike_id": "95690e8fd367dfe66aa1375fc4fe2185", "lat": 38.887685833333336, "name": "95690e8fd367dfe66aa1375fc4fe2185", "lon": -76.93263216666666, "fusion_lon": 0.0}, {"is_reserved": 0, "type": "electric_scooter", "fusion_lat": 0.0, "is_disabled": 0, "rental_uris": {"ios": "https://dc.lft.to/lastmile_qr_scan", "android": "https://dc.lft.to/lastmile_qr_scan"}, "bike_id": "f78a8592a24d080e358eed9fcf183f67", "lat": 38.895527666666666, "name": "f78a8592a24d080e358eed9fcf183f67", "lon": -77.0091145, "fusion_lon": 0.0}, {"is_reserved": 0, "type": "electric_scooter", "fusion_lat": 0.0, "is_disabled": 0, "rental_uris": {"ios": "https://dc.lft.to/lastmile_qr_scan", "android": "https://dc.lft.to/lastmile_qr_scan"}, "bike_id": "648bb20c68466c858875ce3fc31d98e8", "lat": 38.93289733333334, "name": "648bb20c68466c858875ce3fc31d98e8", "lon": -77.02549483333334, "fusion_lon": 0.0}, {"is_reserved": 0, "type": "electric_scooter", "fusion_lat": 0.0, "is_disabled": 0, "rental_uris": {"ios": "https://dc.lft.to/lastmile_qr_scan", "android": "https://dc.lft.to/lastmile_qr_scan"}, "bike_id": "cf40c5912ee1a520c60ccc0d194fc812", "lat": 38.92169116666667, "name": "cf40c5912ee1a520c60ccc0d194fc812", "lon": -77.04008083333333, "fusion_lon": 0.0}, {"is_reserved": 0, "type": "electric_scooter", "fusion_lat": 0.0, "is_disabled": 0, "rental_uris": {"ios": "https://dc.lft.to/lastmile_qr_scan", "android": "https://dc.lft.to/lastmile_qr_scan"}, "bike_id": "8c2be666dbf8454307cbd91ed2a5c113", "lat": 38.914114, "name": "8c2be666dbf8454307cbd91ed2a5c113", "lon": -77.03744483333334, "fusion_lon": 0.0}, {"is_reserved": 0, "type": "electric_scooter", "fusion_lat": 0.0, "is_disabled": 0, "rental_uris": {"ios": "https://dc.lft.to/lastmile_qr_scan", "android": "https://dc.lft.to/lastmile_qr_scan"}, "bike_id": "32de30da22416525788b54cf03811050", "lat": 38.954296666666664, "name": "32de30da22416525788b54cf03811050", "lon": -77.01853016666666, "fusion_lon": 0.0}, {"is_reserved": 0, "type": "electric_scooter", "fusion_lat": 0.0, "is_disabled": 0, "rental_uris": {"ios": "https://dc.lft.to/lastmile_qr_scan", "android": "https://dc.lft.to/lastmile_qr_scan"}, "bike_id": "f3a8bb30418d4dab70aa41b2c0b0cfe3", "lat": 38.92513233333333, "name": "f3a8bb30418d4dab70aa41b2c0b0cfe3", "lon": -77.03237283333333, "fusion_lon": 0.0}, {"is_reserved": 0, "type": "electric_scooter", "fusion_lat": 0.0, "is_disabled": 0, "rental_uris": {"ios": "https://dc.lft.to/lastmile_qr_scan", "android": "https://dc.lft.to/lastmile_qr_scan"}, "bike_id": "1c49309e3e0e97e4fee32d1cbac26e0c", "lat": 38.896265, "name": "1c49309e3e0e97e4fee32d1cbac26e0c", "lon": -77.02662866666667, "fusion_lon": 0.0}, {"is_reserved": 0, "type": "electric_scooter", "fusion_lat": 0.0, "is_disabled": 0, "rental_uris": {"ios": "https://dc.lft.to/lastmile_qr_scan", "android": "https://dc.lft.to/lastmile_qr_scan"}, "bike_id": "be04f28b58f7d57edc825a76f9c69a14", "lat": 38.905592666666664, "name": "be04f28b58f7d57edc825a76f9c69a14", "lon": -77.026566, "fusion_lon": 0.0}, {"is_reserved": 0, "type": "electric_bike", "fusion_lat": 0.0, "is_disabled": 0, "rental_uris": {"ios": "https://dc.lft.to/lastmile_qr_scan", "android": "https://dc.lft.to/lastmile_qr_scan"}, "bike_id": "8c4f41340c54ae13dfd3ffdd38c9e191", "lat": 38.983648333333335, "name": "8c4f41340c54ae13dfd3ffdd38c9e191", "lon": -76.98856883333333, "fusion_lon": 0.0}, {"is_reserved": 0, "type": "electric_scooter", "fusion_lat": 0.0, "is_disabled": 0, "rental_uris": {"ios": "https://dc.lft.to/lastmile_qr_scan", "android": "https://dc.lft.to/lastmile_qr_scan"}, "bike_id": "26ebaae42afb4571c5fcc23738f8dafd", "lat": 38.918209166666664, "name": "26ebaae42afb4571c5fcc23738f8dafd", "lon": -77.02420583333334, "fusion_lon": 0.0}, {"is_reserved": 0, "type": "electric_scooter", "fusion_lat": 0.0, "is_disabled": 0, "rental_uris": {"ios": "https://dc.lft.to/lastmile_qr_scan", "android": "https://dc.lft.to/lastmile_qr_scan"}, "bike_id": "ee903139face1262806f866af97349d1", "lat": 38.92742, "name": "ee903139face1262806f866af97349d1", "lon": -77.02621383333333, "fusion_lon": 0.0}, {"is_reserved": 0, "type": "electric_scooter", "fusion_lat": 0.0, "is_disabled": 0, "rental_uris": {"ios": "https://dc.lft.to/lastmile_qr_scan", "android": "https://dc.lft.to/lastmile_qr_scan"}, "bike_id": "21992ce9fe4597192ccaf705a8cb327d", "lat": 38.91406833333333, "name": "21992ce9fe4597192ccaf705a8cb327d", "lon": -77.0143085, "fusion_lon": 0.0}, {"is_reserved": 0, "type": "electric_scooter", "fusion_lat": 0.0, "is_disabled": 0, "rental_uris": {"ios": "https://dc.lft.to/lastmile_qr_scan", "android": "https://dc.lft.to/lastmile_qr_scan"}, "bike_id": "f32ce3f272a7f8d88eb5211d34359f50", "lat": 38.9231985, "name": "f32ce3f272a7f8d88eb5211d34359f50", "lon": -77.01954683333334, "fusion_lon": 0.0}, {"is_reserved": 0, "type": "electric_scooter", "fusion_lat": 0.0, "is_disabled": 0, "rental_uris": {"ios": "https://dc.lft.to/lastmile_qr_scan", "android": "https://dc.lft.to/lastmile_qr_scan"}, "bike_id": "64c2aee65da5275288071618d0a936bc", "lat": 38.9024855, "name": "64c2aee65da5275288071618d0a936bc", "lon": -77.02780666666666, "fusion_lon": 0.0}, {"is_reserved": 0, "type": "electric_scooter", "fusion_lat": 0.0, "is_disabled": 0, "rental_uris": {"ios": "https://dc.lft.to/lastmile_qr_scan", "android": "https://dc.lft.to/lastmile_qr_scan"}, "bike_id": "e1242b3f916cd56d323e6f058002eddc", "lat": 38.92326216666667, "name": "e1242b3f916cd56d323e6f058002eddc", "lon": -77.04508533333333, "fusion_lon": 0.0}, {"is_reserved": 0, "type": "electric_scooter", "fusion_lat": 0.0, "is_disabled": 0, "rental_uris": {"ios": "https://dc.lft.to/lastmile_qr_scan", "android": "https://dc.lft.to/lastmile_qr_scan"}, "bike_id": "55763c4e64a9f32cf0abce8fe14e662d", "lat": 38.9184475, "name": "55763c4e64a9f32cf0abce8fe14e662d", "lon": -77.02594116666667, "fusion_lon": 0.0}, {"is_reserved": 0, "type": "electric_scooter", "fusion_lat": 0.0, "is_disabled": 0, "rental_uris": {"ios": "https://dc.lft.to/lastmile_qr_scan", "android": "https://dc.lft.to/lastmile_qr_scan"}, "bike_id": "32e5c39e25086ff83762e6c66fd5c1e0", "lat": 38.921074833333336, "name": "32e5c39e25086ff83762e6c66fd5c1e0", "lon": -77.0304305, "fusion_lon": 0.0}, {"is_reserved": 0, "type": "electric_scooter", "fusion_lat": 0.0, "is_disabled": 0, "rental_uris": {"ios": "https://dc.lft.to/lastmile_qr_scan", "android": "https://dc.lft.to/lastmile_qr_scan"}, "bike_id": "c5b8378aefca5c4bf9e4769eb0c0a22f", "lat": 38.915082, "name": "c5b8378aefca5c4bf9e4769eb0c0a22f", "lon": -77.0321695, "fusion_lon": 0.0}, {"is_reserved": 0, "type": "electric_bike", "fusion_lat": 0.0, "is_disabled": 0, "rental_uris": {"ios": "https://dc.lft.to/lastmile_qr_scan", "android": "https://dc.lft.to/lastmile_qr_scan"}, "bike_id": "d2646885fc8f975ccb0986e1587c3062", "lat": 38.92575383333333, "name": "d2646885fc8f975ccb0986e1587c3062", "lon": -77.040373, "fusion_lon": 0.0}, {"is_reserved": 0, "type": "electric_scooter", "fusion_lat": 0.0, "is_disabled": 0, "rental_uris": {"ios": "https://dc.lft.to/lastmile_qr_scan", "android": "https://dc.lft.to/lastmile_qr_scan"}, "bike_id": "a82651954fc1320ec79d4fd728e1f805", "lat": 38.9095605, "name": "a82651954fc1320ec79d4fd728e1f805", "lon": -77.022057, "fusion_lon": 0.0}, {"is_reserved": 0, "type": "electric_scooter", "fusion_lat": 0.0, "is_disabled": 0, "rental_uris": {"ios": "https://dc.lft.to/lastmile_qr_scan", "android": "https://dc.lft.to/lastmile_qr_scan"}, "bike_id": "85590a77d667166190a7dbadf68ab665", "lat": 38.925478166666664, "name": "85590a77d667166190a7dbadf68ab665", "lon": -77.033289, "fusion_lon": 0.0}, {"is_reserved": 0, "type": "electric_scooter", "fusion_lat": 0.0, "is_disabled": 0, "rental_uris": {"ios": "https://dc.lft.to/lastmile_qr_scan", "android": "https://dc.lft.to/lastmile_qr_scan"}, "bike_id": "fad6921455ddfdf3e90fa5231a1b6770", "lat": 38.923260166666665, "name": "fad6921455ddfdf3e90fa5231a1b6770", "lon": -77.0361705, "fusion_lon": 0.0}, {"is_reserved": 0, "type": "electric_scooter", "fusion_lat": 0.0, "is_disabled": 0, "rental_uris": {"ios": "https://dc.lft.to/lastmile_qr_scan", "android": "https://dc.lft.to/lastmile_qr_scan"}, "bike_id": "0141eab86346f078262594824e47cb4e", "lat": 38.90613233333333, "name": "0141eab86346f078262594824e47cb4e", "lon": -77.05661283333333, "fusion_lon": 0.0}, {"is_reserved": 0, "type": "electric_scooter", "fusion_lat": 0.0, "is_disabled": 0, "rental_uris": {"ios": "https://dc.lft.to/lastmile_qr_scan", "android": "https://dc.lft.to/lastmile_qr_scan"}, "bike_id": "5b40fc80d2dea5c08a01422a5e03aaf6", "lat": 38.917161166666666, "name": "5b40fc80d2dea5c08a01422a5e03aaf6", "lon": -77.00883816666666, "fusion_lon": 0.0}, {"is_reserved": 0, "type": "electric_scooter", "fusion_lat": 0.0, "is_disabled": 0, "rental_uris": {"ios": "https://dc.lft.to/lastmile_qr_scan", "android": "https://dc.lft.to/lastmile_qr_scan"}, "bike_id": "131908cd8b49445b1963f2f64c762d3e", "lat": 38.952823, "name": "131908cd8b49445b1963f2f64c762d3e", "lon": -76.998985, "fusion_lon": 0.0}, {"is_reserved": 0, "type": "electric_scooter", "fusion_lat": 0.0, "is_disabled": 0, "rental_uris": {"ios": "https://dc.lft.to/lastmile_qr_scan", "android": "https://dc.lft.to/lastmile_qr_scan"}, "bike_id": "fff19e08a12baf48421828c324733e7f", "lat": 38.92598066666667, "name": "fff19e08a12baf48421828c324733e7f", "lon": -77.02157766666667, "fusion_lon": 0.0}, {"is_reserved": 0, "type": "electric_scooter", "fusion_lat": 0.0, "is_disabled": 0, "rental_uris": {"ios": "https://dc.lft.to/lastmile_qr_scan", "android": "https://dc.lft.to/lastmile_qr_scan"}, "bike_id": "8ce2c4bc96e1d6c991645bd4b401d6b4", "lat": 38.909042, "name": "8ce2c4bc96e1d6c991645bd4b401d6b4", "lon": -77.044341, "fusion_lon": 0.0}, {"is_reserved": 0, "type": "electric_scooter", "fusion_lat": 0.0, "is_disabled": 0, "rental_uris": {"ios": "https://dc.lft.to/lastmile_qr_scan", "android": "https://dc.lft.to/lastmile_qr_scan"}, "bike_id": "de47945eff8a03f4af3835e190c0b766", "lat": 38.902305, "name": "de47945eff8a03f4af3835e190c0b766", "lon": -77.013994, "fusion_lon": 0.0}, {"is_reserved": 0, "type": "electric_scooter", "fusion_lat": 0.0, "is_disabled": 0, "rental_uris": {"ios": "https://dc.lft.to/lastmile_qr_scan", "android": "https://dc.lft.to/lastmile_qr_scan"}, "bike_id": "33491180dde9bd078738fbe925ab1838", "lat": 38.92783716666667, "name": "33491180dde9bd078738fbe925ab1838", "lon": -76.97629666666667, "fusion_lon": 0.0}, {"is_reserved": 0, "type": "electric_scooter", "fusion_lat": 0.0, "is_disabled": 0, "rental_uris": {"ios": "https://dc.lft.to/lastmile_qr_scan", "android": "https://dc.lft.to/lastmile_qr_scan"}, "bike_id": "e851906678a9414ad75a7fdab7e42993", "lat": 38.91752866666667, "name": "e851906678a9414ad75a7fdab7e42993", "lon": -77.02286616666666, "fusion_lon": 0.0}, {"is_reserved": 0, "type": "electric_scooter", "fusion_lat": 0.0, "is_disabled": 0, "rental_uris": {"ios": "https://dc.lft.to/lastmile_qr_scan", "android": "https://dc.lft.to/lastmile_qr_scan"}, "bike_id": "dc19785d27f11da789ea30f6fb3a4f76", "lat": 38.913329166666664, "name": "dc19785d27f11da789ea30f6fb3a4f76", "lon": -77.03038133333334, "fusion_lon": 0.0}, {"is_reserved": 0, "type": "electric_bike", "fusion_lat": 0.0, "is_disabled": 0, "rental_uris": {"ios": "https://dc.lft.to/lastmile_qr_scan", "android": "https://dc.lft.to/lastmile_qr_scan"}, "bike_id": "98d68b7c05c708fbe1599dbb56ef9fbf", "lat": 38.96897633333333, "name": "98d68b7c05c708fbe1599dbb56ef9fbf", "lon": -76.95570716666667, "fusion_lon": 0.0}, {"is_reserved": 0, "type": "electric_scooter", "fusion_lat": 0.0, "is_disabled": 0, "rental_uris": {"ios": "https://dc.lft.to/lastmile_qr_scan", "android": "https://dc.lft.to/lastmile_qr_scan"}, "bike_id": "e4708984678307c53bef788212689d7b", "lat": 38.972397, "name": "e4708984678307c53bef788212689d7b", "lon": -77.02715733333334, "fusion_lon": 0.0}, {"is_reserved": 0, "type": "electric_scooter", "fusion_lat": 0.0, "is_disabled": 0, "rental_uris": {"ios": "https://dc.lft.to/lastmile_qr_scan", "android": "https://dc.lft.to/lastmile_qr_scan"}, "bike_id": "f9a203b17ee74a00f1e15083fc7599f9", "lat": 38.90559616666667, "name": "f9a203b17ee74a00f1e15083fc7599f9", "lon": -77.04460066666667, "fusion_lon": 0.0}, {"is_reserved": 0, "type": "electric_bike", "fusion_lat": 0.0, "is_disabled": 0, "rental_uris": {"ios": "https://dc.lft.to/lastmile_qr_scan", "android": "https://dc.lft.to/lastmile_qr_scan"}, "bike_id": "84c6a5f8052b495801ced7aa47c2325c", "lat": 38.89726566666667, "name": "84c6a5f8052b495801ced7aa47c2325c", "lon": -76.97237516666667, "fusion_lon": 0.0}, {"is_reserved": 0, "type": "electric_scooter", "fusion_lat": 0.0, "is_disabled": 0, "rental_uris": {"ios": "https://dc.lft.to/lastmile_qr_scan", "android": "https://dc.lft.to/lastmile_qr_scan"}, "bike_id": "371f4af755007027659e6e4f789cfeec", "lat": 38.915622, "name": "371f4af755007027659e6e4f789cfeec", "lon": -77.0367135, "fusion_lon": 0.0}, {"is_reserved": 0, "type": "electric_scooter", "fusion_lat": 0.0, "is_disabled": 0, "rental_uris": {"ios": "https://dc.lft.to/lastmile_qr_scan", "android": "https://dc.lft.to/lastmile_qr_scan"}, "bike_id": "9a26365cc3f05c74ca1adfa7c8770616", "lat": 38.89782666666667, "name": "9a26365cc3f05c74ca1adfa7c8770616", "lon": -77.050328, "fusion_lon": 0.0}, {"is_reserved": 0, "type": "electric_scooter", "fusion_lat": 0.0, "is_disabled": 0, "rental_uris": {"ios": "https://dc.lft.to/lastmile_qr_scan", "android": "https://dc.lft.to/lastmile_qr_scan"}, "bike_id": "ea5e3b0e6ec4adf2568b428dcbc3ba40", "lat": 38.948617166666665, "name": "ea5e3b0e6ec4adf2568b428dcbc3ba40", "lon": -77.078867, "fusion_lon": 0.0}, {"is_reserved": 0, "type": "electric_scooter", "fusion_lat": 0.0, "is_disabled": 0, "rental_uris": {"ios": "https://dc.lft.to/lastmile_qr_scan", "android": "https://dc.lft.to/lastmile_qr_scan"}, "bike_id": "7b9d9bbf8dc3d63fca1cee38be327667", "lat": 38.916599, "name": "7b9d9bbf8dc3d63fca1cee38be327667", "lon": -77.04183783333333, "fusion_lon": 0.0}, {"is_reserved": 0, "type": "electric_scooter", "fusion_lat": 0.0, "is_disabled": 0, "rental_uris": {"ios": "https://dc.lft.to/lastmile_qr_scan", "android": "https://dc.lft.to/lastmile_qr_scan"}, "bike_id": "ba66498f795c090147ded5aba0a61a07", "lat": 38.9228315, "name": "ba66498f795c090147ded5aba0a61a07", "lon": -76.9977025, "fusion_lon": 0.0}, {"is_reserved": 0, "type": "electric_scooter", "fusion_lat": 0.0, "is_disabled": 0, "rental_uris": {"ios": "https://dc.lft.to/lastmile_qr_scan", "android": "https://dc.lft.to/lastmile_qr_scan"}, "bike_id": "953bcd00cc89e13c1d7689d0cca29ee4", "lat": 38.896871, "name": "953bcd00cc89e13c1d7689d0cca29ee4", "lon": -77.04331483333333, "fusion_lon": 0.0}, {"is_reserved": 0, "type": "electric_scooter", "fusion_lat": 0.0, "is_disabled": 0, "rental_uris": {"ios": "https://dc.lft.to/lastmile_qr_scan", "android": "https://dc.lft.to/lastmile_qr_scan"}, "bike_id": "10e66c915762491a0ee1dd257dad2a68", "lat": 38.8801465, "name": "10e66c915762491a0ee1dd257dad2a68", "lon": -76.997376, "fusion_lon": 0.0}, {"is_reserved": 0, "type": "electric_scooter", "fusion_lat": 0.0, "is_disabled": 0, "rental_uris": {"ios": "https://dc.lft.to/lastmile_qr_scan", "android": "https://dc.lft.to/lastmile_qr_scan"}, "bike_id": "29076696819cb6a0cdd3d72f49f7ff3b", "lat": 38.898786666666666, "name": "29076696819cb6a0cdd3d72f49f7ff3b", "lon": -76.9317705, "fusion_lon": 0.0}, {"is_reserved": 0, "type": "electric_bike", "fusion_lat": 0.0, "is_disabled": 0, "rental_uris": {"ios": "https://dc.lft.to/lastmile_qr_scan", "android": "https://dc.lft.to/lastmile_qr_scan"}, "bike_id": "a979dfc05cb08f428a902fb0de7af31b", "lat": 38.86820766666666, "name": "a979dfc05cb08f428a902fb0de7af31b", "lon": -76.98032883333333, "fusion_lon": 0.0}, {"is_reserved": 0, "type": "electric_scooter", "fusion_lat": 0.0, "is_disabled": 0, "rental_uris": {"ios": "https://dc.lft.to/lastmile_qr_scan", "android": "https://dc.lft.to/lastmile_qr_scan"}, "bike_id": "68f2becbcb91ad143243416dd275f65f", "lat": 38.94300366666667, "name": "68f2becbcb91ad143243416dd275f65f", "lon": -77.02533283333334, "fusion_lon": 0.0}, {"is_reserved": 0, "type": "electric_scooter", "fusion_lat": 0.0, "is_disabled": 0, "rental_uris": {"ios": "https://dc.lft.to/lastmile_qr_scan", "android": "https://dc.lft.to/lastmile_qr_scan"}, "bike_id": "7ee68a686fcdf60d9d7775b6ecee6db6", "lat": 38.919576, "name": "7ee68a686fcdf60d9d7775b6ecee6db6", "lon": -77.023486, "fusion_lon": 0.0}, {"is_reserved": 0, "type": "electric_scooter", "fusion_lat": 0.0, "is_disabled": 0, "rental_uris": {"ios": "https://dc.lft.to/lastmile_qr_scan", "android": "https://dc.lft.to/lastmile_qr_scan"}, "bike_id": "f1a20c268c13e33b06d96652dd3466e0", "lat": 38.9055295, "name": "f1a20c268c13e33b06d96652dd3466e0", "lon": -77.00581216666667, "fusion_lon": 0.0}, {"is_reserved": 0, "type": "electric_scooter", "fusion_lat": 0.0, "is_disabled": 0, "rental_uris": {"ios": "https://dc.lft.to/lastmile_qr_scan", "android": "https://dc.lft.to/lastmile_qr_scan"}, "bike_id": "67e5adb41e4413d39e9533b3f51cc8c6", "lat": 38.926468, "name": "67e5adb41e4413d39e9533b3f51cc8c6", "lon": -77.03840783333334, "fusion_lon": 0.0}, {"is_reserved": 0, "type": "electric_scooter", "fusion_lat": 0.0, "is_disabled": 0, "rental_uris": {"ios": "https://dc.lft.to/lastmile_qr_scan", "android": "https://dc.lft.to/lastmile_qr_scan"}, "bike_id": "d965654a54ecaeda9c84db165d521035", "lat": 38.896735666666665, "name": "d965654a54ecaeda9c84db165d521035", "lon": -76.93214483333334, "fusion_lon": 0.0}, {"is_reserved": 0, "type": "electric_scooter", "fusion_lat": 0.0, "is_disabled": 0, "rental_uris": {"ios": "https://dc.lft.to/lastmile_qr_scan", "android": "https://dc.lft.to/lastmile_qr_scan"}, "bike_id": "e7090e41021e049a0be220ef8631d66b", "lat": 38.900188666666665, "name": "e7090e41021e049a0be220ef8631d66b", "lon": -77.00679066666666, "fusion_lon": 0.0}, {"is_reserved": 0, "type": "electric_scooter", "fusion_lat": 0.0, "is_disabled": 0, "rental_uris": {"ios": "https://dc.lft.to/lastmile_qr_scan", "android": "https://dc.lft.to/lastmile_qr_scan"}, "bike_id": "3324bb8f250892f634ed30d0c930d50c", "lat": 38.91902, "name": "3324bb8f250892f634ed30d0c930d50c", "lon": -77.00048033333333, "fusion_lon": 0.0}, {"is_reserved": 0, "type": "electric_scooter", "fusion_lat": 0.0, "is_disabled": 0, "rental_uris": {"ios": "https://dc.lft.to/lastmile_qr_scan", "android": "https://dc.lft.to/lastmile_qr_scan"}, "bike_id": "11dbba5afc4374a20d2a15f187979d00", "lat": 38.901178, "name": "11dbba5afc4374a20d2a15f187979d00", "lon": -77.041835, "fusion_lon": 0.0}, {"is_reserved": 0, "type": "electric_scooter", "fusion_lat": 0.0, "is_disabled": 0, "rental_uris": {"ios": "https://dc.lft.to/lastmile_qr_scan", "android": "https://dc.lft.to/lastmile_qr_scan"}, "bike_id": "9e0fe0050cb3e1a1462b8fea8b92fc24", "lat": 38.9233825, "name": "9e0fe0050cb3e1a1462b8fea8b92fc24", "lon": -76.98493816666667, "fusion_lon": 0.0}, {"is_reserved": 0, "type": "electric_scooter", "fusion_lat": 0.0, "is_disabled": 0, "rental_uris": {"ios": "https://dc.lft.to/lastmile_qr_scan", "android": "https://dc.lft.to/lastmile_qr_scan"}, "bike_id": "0928df3574f398566cf0983fc07d21c5", "lat": 38.9550395, "name": "0928df3574f398566cf0983fc07d21c5", "lon": -77.070014, "fusion_lon": 0.0}, {"is_reserved": 0, "type": "electric_scooter", "fusion_lat": 0.0, "is_disabled": 0, "rental_uris": {"ios": "https://dc.lft.to/lastmile_qr_scan", "android": "https://dc.lft.to/lastmile_qr_scan"}, "bike_id": "6cc9c57c40e9128e0ad27f536799f210", "lat": 38.91668283333333, "name": "6cc9c57c40e9128e0ad27f536799f210", "lon": -77.02688566666667, "fusion_lon": 0.0}, {"is_reserved": 0, "type": "electric_scooter", "fusion_lat": 0.0, "is_disabled": 0, "rental_uris": {"ios": "https://dc.lft.to/lastmile_qr_scan", "android": "https://dc.lft.to/lastmile_qr_scan"}, "bike_id": "baae7b184228431ac6ad814021829be5", "lat": 38.923514, "name": "baae7b184228431ac6ad814021829be5", "lon": -77.03635383333334, "fusion_lon": 0.0}, {"is_reserved": 0, "type": "electric_scooter", "fusion_lat": 0.0, "is_disabled": 0, "rental_uris": {"ios": "https://dc.lft.to/lastmile_qr_scan", "android": "https://dc.lft.to/lastmile_qr_scan"}, "bike_id": "f48b73ba01f47b569aff9ebecd33c389", "lat": 38.91948433333334, "name": "f48b73ba01f47b569aff9ebecd33c389", "lon": -77.01390266666667, "fusion_lon": 0.0}, {"is_reserved": 0, "type": "electric_bike", "fusion_lat": 0.0, "is_disabled": 0, "rental_uris": {"ios": "https://dc.lft.to/lastmile_qr_scan", "android": "https://dc.lft.to/lastmile_qr_scan"}, "bike_id": "500af67d504a6608e090e90e99e1aa67", "lat": 38.86016216666667, "name": "500af67d504a6608e090e90e99e1aa67", "lon": -77.065318, "fusion_lon": 0.0}, {"is_reserved": 0, "type": "electric_scooter", "fusion_lat": 0.0, "is_disabled": 0, "rental_uris": {"ios": "https://dc.lft.to/lastmile_qr_scan", "android": "https://dc.lft.to/lastmile_qr_scan"}, "bike_id": "b2a787f7d53931bd52ed60996fdf7f9a", "lat": 38.89670783333333, "name": "b2a787f7d53931bd52ed60996fdf7f9a", "lon": -76.93209516666667, "fusion_lon": 0.0}, {"is_reserved": 0, "type": "electric_scooter", "fusion_lat": 0.0, "is_disabled": 0, "rental_uris": {"ios": "https://dc.lft.to/lastmile_qr_scan", "android": "https://dc.lft.to/lastmile_qr_scan"}, "bike_id": "1ac21269d94a7fc4ffe843b3792061c5", "lat": 38.872055333333336, "name": "1ac21269d94a7fc4ffe843b3792061c5", "lon": -76.97842816666666, "fusion_lon": 0.0}, {"is_reserved": 0, "type": "electric_scooter", "fusion_lat": 0.0, "is_disabled": 0, "rental_uris": {"ios": "https://dc.lft.to/lastmile_qr_scan", "android": "https://dc.lft.to/lastmile_qr_scan"}, "bike_id": "131e4423fe43a42efa9d0ca2eb4c591c", "lat": 38.90509133333333, "name": "131e4423fe43a42efa9d0ca2eb4c591c", "lon": -76.95213533333333, "fusion_lon": 0.0}, {"is_reserved": 0, "type": "electric_scooter", "fusion_lat": 0.0, "is_disabled": 0, "rental_uris": {"ios": "https://dc.lft.to/lastmile_qr_scan", "android": "https://dc.lft.to/lastmile_qr_scan"}, "bike_id": "4ffe287ab5d87c61e3aa3df265efe430", "lat": 38.8836185, "name": "4ffe287ab5d87c61e3aa3df265efe430", "lon": -76.95766066666667, "fusion_lon": 0.0}, {"is_reserved": 0, "type": "electric_scooter", "fusion_lat": 0.0, "is_disabled": 0, "rental_uris": {"ios": "https://dc.lft.to/lastmile_qr_scan", "android": "https://dc.lft.to/lastmile_qr_scan"}, "bike_id": "76164f0832cf4d068a1e14ac3af85328", "lat": 38.902498666666666, "name": "76164f0832cf4d068a1e14ac3af85328", "lon": -77.01990116666667, "fusion_lon": 0.0}, {"is_reserved": 0, "type": "electric_scooter", "fusion_lat": 0.0, "is_disabled": 0, "rental_uris": {"ios": "https://dc.lft.to/lastmile_qr_scan", "android": "https://dc.lft.to/lastmile_qr_scan"}, "bike_id": "68b23cf03aafe72d25b3d8b603a24d74", "lat": 38.883063, "name": "68b23cf03aafe72d25b3d8b603a24d74", "lon": -76.99375283333333, "fusion_lon": 0.0}, {"is_reserved": 0, "type": "electric_scooter", "fusion_lat": 0.0, "is_disabled": 0, "rental_uris": {"ios": "https://dc.lft.to/lastmile_qr_scan", "android": "https://dc.lft.to/lastmile_qr_scan"}, "bike_id": "c30204f84811eefd4bd2ee4e330ace6b", "lat": 38.93847566666667, "name": "c30204f84811eefd4bd2ee4e330ace6b", "lon": -77.01952666666666, "fusion_lon": 0.0}, {"is_reserved": 0, "type": "electric_scooter", "fusion_lat": 0.0, "is_disabled": 0, "rental_uris": {"ios": "https://dc.lft.to/lastmile_qr_scan", "android": "https://dc.lft.to/lastmile_qr_scan"}, "bike_id": "83d9ad50ec3b1df7ee3ebede43ec3624", "lat": 38.897299833333335, "name": "83d9ad50ec3b1df7ee3ebede43ec3624", "lon": -77.01915433333333, "fusion_lon": 0.0}, {"is_reserved": 0, "type": "electric_scooter", "fusion_lat": 0.0, "is_disabled": 0, "rental_uris": {"ios": "https://dc.lft.to/lastmile_qr_scan", "android": "https://dc.lft.to/lastmile_qr_scan"}, "bike_id": "ae88340335a131f8199d016aaf0eedd6", "lat": 38.89200983333333, "name": "ae88340335a131f8199d016aaf0eedd6", "lon": -77.01552633333333, "fusion_lon": 0.0}, {"is_reserved": 0, "type": "electric_scooter", "fusion_lat": 0.0, "is_disabled": 0, "rental_uris": {"ios": "https://dc.lft.to/lastmile_qr_scan", "android": "https://dc.lft.to/lastmile_qr_scan"}, "bike_id": "073b5dd5596fd5918e15629f8df80ccf", "lat": 38.91794933333333, "name": "073b5dd5596fd5918e15629f8df80ccf", "lon": -77.04441766666666, "fusion_lon": 0.0}, {"is_reserved": 0, "type": "electric_scooter", "fusion_lat": 0.0, "is_disabled": 0, "rental_uris": {"ios": "https://dc.lft.to/lastmile_qr_scan", "android": "https://dc.lft.to/lastmile_qr_scan"}, "bike_id": "e6d856c60729c1997c0f9282d4a35e72", "lat": 38.90237233333333, "name": "e6d856c60729c1997c0f9282d4a35e72", "lon": -77.00064166666667, "fusion_lon": 0.0}, {"is_reserved": 0, "type": "electric_scooter", "fusion_lat": 0.0, "is_disabled": 0, "rental_uris": {"ios": "https://dc.lft.to/lastmile_qr_scan", "android": "https://dc.lft.to/lastmile_qr_scan"}, "bike_id": "6c8774059344165c7b86b6a25955f30d", "lat": 38.92409633333333, "name": "6c8774059344165c7b86b6a25955f30d", "lon": -77.02128283333333, "fusion_lon": 0.0}, {"is_reserved": 0, "type": "electric_scooter", "fusion_lat": 0.0, "is_disabled": 0, "rental_uris": {"ios": "https://dc.lft.to/lastmile_qr_scan", "android": "https://dc.lft.to/lastmile_qr_scan"}, "bike_id": "c5d7ee61d764bce0d70af50b8a8efce8", "lat": 38.899959333333335, "name": "c5d7ee61d764bce0d70af50b8a8efce8", "lon": -77.045073, "fusion_lon": 0.0}, {"is_reserved": 0, "type": "electric_scooter", "fusion_lat": 0.0, "is_disabled": 0, "rental_uris": {"ios": "https://dc.lft.to/lastmile_qr_scan", "android": "https://dc.lft.to/lastmile_qr_scan"}, "bike_id": "bd699d27d681add6c2b8648fe00bb263", "lat": 38.948277, "name": "bd699d27d681add6c2b8648fe00bb263", "lon": -77.026128, "fusion_lon": 0.0}, {"is_reserved": 0, "type": "electric_scooter", "fusion_lat": 0.0, "is_disabled": 0, "rental_uris": {"ios": "https://dc.lft.to/lastmile_qr_scan", "android": "https://dc.lft.to/lastmile_qr_scan"}, "bike_id": "19bd4f7116dd5ae7501ebe995b28969e", "lat": 38.87635866666667, "name": "19bd4f7116dd5ae7501ebe995b28969e", "lon": -77.00065933333333, "fusion_lon": 0.0}, {"is_reserved": 0, "type": "electric_scooter", "fusion_lat": 0.0, "is_disabled": 0, "rental_uris": {"ios": "https://dc.lft.to/lastmile_qr_scan", "android": "https://dc.lft.to/lastmile_qr_scan"}, "bike_id": "ac26a41e6d94be33e0cbd44a1b363595", "lat": 38.881358166666665, "name": "ac26a41e6d94be33e0cbd44a1b363595", "lon": -77.02002133333333, "fusion_lon": 0.0}, {"is_reserved": 0, "type": "electric_bike", "fusion_lat": 0.0, "is_disabled": 0, "rental_uris": {"ios": "https://dc.lft.to/lastmile_qr_scan", "android": "https://dc.lft.to/lastmile_qr_scan"}, "bike_id": "758985620efcd9a5d4536a533ed22609", "lat": 38.81331683333333, "name": "758985620efcd9a5d4536a533ed22609", "lon": -77.05114733333333, "fusion_lon": 0.0}, {"is_reserved": 0, "type": "electric_scooter", "fusion_lat": 0.0, "is_disabled": 0, "rental_uris": {"ios": "https://dc.lft.to/lastmile_qr_scan", "android": "https://dc.lft.to/lastmile_qr_scan"}, "bike_id": "2ecfd1eb18f1a897271980797a2265ce", "lat": 38.9076975, "name": "2ecfd1eb18f1a897271980797a2265ce", "lon": -77.0240575, "fusion_lon": 0.0}, {"is_reserved": 0, "type": "electric_scooter", "fusion_lat": 0.0, "is_disabled": 0, "rental_uris": {"ios": "https://dc.lft.to/lastmile_qr_scan", "android": "https://dc.lft.to/lastmile_qr_scan"}, "bike_id": "9bbb35604b042e6d5e14f673ba26affd", "lat": 38.920666, "name": "9bbb35604b042e6d5e14f673ba26affd", "lon": -77.0437885, "fusion_lon": 0.0}, {"is_reserved": 0, "type": "electric_scooter", "fusion_lat": 0.0, "is_disabled": 0, "rental_uris": {"ios": "https://dc.lft.to/lastmile_qr_scan", "android": "https://dc.lft.to/lastmile_qr_scan"}, "bike_id": "46f80365c287e9e39cb9bfffd689326f", "lat": 38.902994166666666, "name": "46f80365c287e9e39cb9bfffd689326f", "lon": -76.99841883333333, "fusion_lon": 0.0}, {"is_reserved": 0, "type": "electric_scooter", "fusion_lat": 0.0, "is_disabled": 0, "rental_uris": {"ios": "https://dc.lft.to/lastmile_qr_scan", "android": "https://dc.lft.to/lastmile_qr_scan"}, "bike_id": "6460f73185c8d6e313818f86ebe3cc40", "lat": 38.92483516666667, "name": "6460f73185c8d6e313818f86ebe3cc40", "lon": -77.02548166666666, "fusion_lon": 0.0}, {"is_reserved": 0, "type": "electric_scooter", "fusion_lat": 0.0, "is_disabled": 0, "rental_uris": {"ios": "https://dc.lft.to/lastmile_qr_scan", "android": "https://dc.lft.to/lastmile_qr_scan"}, "bike_id": "928145b774b7d78bbd131397c025a94f", "lat": 38.880046666666665, "name": "928145b774b7d78bbd131397c025a94f", "lon": -76.9983365, "fusion_lon": 0.0}, {"is_reserved": 0, "type": "electric_scooter", "fusion_lat": 0.0, "is_disabled": 0, "rental_uris": {"ios": "https://dc.lft.to/lastmile_qr_scan", "android": "https://dc.lft.to/lastmile_qr_scan"}, "bike_id": "4bc0f568c414bddafa617f5f4867e3be", "lat": 38.89506566666667, "name": "4bc0f568c414bddafa617f5f4867e3be", "lon": -76.94886416666667, "fusion_lon": 0.0}, {"is_reserved": 0, "type": "electric_scooter", "fusion_lat": 0.0, "is_disabled": 0, "rental_uris": {"ios": "https://dc.lft.to/lastmile_qr_scan", "android": "https://dc.lft.to/lastmile_qr_scan"}, "bike_id": "e02205e68037724ce5d720c333dd6b76", "lat": 38.903721833333336, "name": "e02205e68037724ce5d720c333dd6b76", "lon": -76.97819316666667, "fusion_lon": 0.0}, {"is_reserved": 0, "type": "electric_scooter", "fusion_lat": 0.0, "is_disabled": 0, "rental_uris": {"ios": "https://dc.lft.to/lastmile_qr_scan", "android": "https://dc.lft.to/lastmile_qr_scan"}, "bike_id": "1da72463b3fa2b60acad06cfe869bdc7", "lat": 38.94010866666667, "name": "1da72463b3fa2b60acad06cfe869bdc7", "lon": -77.07744483333333, "fusion_lon": 0.0}, {"is_reserved": 0, "type": "electric_scooter", "fusion_lat": 0.0, "is_disabled": 0, "rental_uris": {"ios": "https://dc.lft.to/lastmile_qr_scan", "android": "https://dc.lft.to/lastmile_qr_scan"}, "bike_id": "3f1dbd29d617f82cd13911149e20564a", "lat": 38.95208383333333, "name": "3f1dbd29d617f82cd13911149e20564a", "lon": -77.06891933333333, "fusion_lon": 0.0}, {"is_reserved": 0, "type": "electric_scooter", "fusion_lat": 0.0, "is_disabled": 0, "rental_uris": {"ios": "https://dc.lft.to/lastmile_qr_scan", "android": "https://dc.lft.to/lastmile_qr_scan"}, "bike_id": "e7796ca522a194eecf51a272ff94bb01", "lat": 38.928386833333334, "name": "e7796ca522a194eecf51a272ff94bb01", "lon": -77.01409266666667, "fusion_lon": 0.0}, {"is_reserved": 0, "type": "electric_scooter", "fusion_lat": 0.0, "is_disabled": 0, "rental_uris": {"ios": "https://dc.lft.to/lastmile_qr_scan", "android": "https://dc.lft.to/lastmile_qr_scan"}, "bike_id": "deea5553326d954b5de263cede205d0c", "lat": 38.93016716666666, "name": "deea5553326d954b5de263cede205d0c", "lon": -77.021155, "fusion_lon": 0.0}, {"is_reserved": 0, "type": "electric_scooter", "fusion_lat": 0.0, "is_disabled": 0, "rental_uris": {"ios": "https://dc.lft.to/lastmile_qr_scan", "android": "https://dc.lft.to/lastmile_qr_scan"}, "bike_id": "717c7c0b50d6ffba49178dd2823f7a94", "lat": 38.87883433333333, "name": "717c7c0b50d6ffba49178dd2823f7a94", "lon": -76.9653965, "fusion_lon": 0.0}, {"is_reserved": 0, "type": "electric_scooter", "fusion_lat": 0.0, "is_disabled": 0, "rental_uris": {"ios": "https://dc.lft.to/lastmile_qr_scan", "android": "https://dc.lft.to/lastmile_qr_scan"}, "bike_id": "68fe5514e831d78b5a8b0aa7fe8622af", "lat": 38.90183483333333, "name": "68fe5514e831d78b5a8b0aa7fe8622af", "lon": -76.97676166666666, "fusion_lon": 0.0}, {"is_reserved": 0, "type": "electric_bike", "fusion_lat": 0.0, "is_disabled": 0, "rental_uris": {"ios": "https://dc.lft.to/lastmile_qr_scan", "android": "https://dc.lft.to/lastmile_qr_scan"}, "bike_id": "224811c5755286c0a425a043ca7e4c48", "lat": 39.03476783333333, "name": "224811c5755286c0a425a043ca7e4c48", "lon": -77.0410805, "fusion_lon": 0.0}, {"is_reserved": 0, "type": "electric_scooter", "fusion_lat": 0.0, "is_disabled": 0, "rental_uris": {"ios": "https://dc.lft.to/lastmile_qr_scan", "android": "https://dc.lft.to/lastmile_qr_scan"}, "bike_id": "93bdffd14bef9a9a450e74fe84138298", "lat": 38.89930666666667, "name": "93bdffd14bef9a9a450e74fe84138298", "lon": -76.93763216666666, "fusion_lon": 0.0}, {"is_reserved": 0, "type": "electric_scooter", "fusion_lat": 0.0, "is_disabled": 0, "rental_uris": {"ios": "https://dc.lft.to/lastmile_qr_scan", "android": "https://dc.lft.to/lastmile_qr_scan"}, "bike_id": "61f8ca7c387f3c79c913b9ea6572c8d7", "lat": 38.910097666666665, "name": "61f8ca7c387f3c79c913b9ea6572c8d7", "lon": -77.044232, "fusion_lon": 0.0}, {"is_reserved": 0, "type": "electric_scooter", "fusion_lat": 0.0, "is_disabled": 0, "rental_uris": {"ios": "https://dc.lft.to/lastmile_qr_scan", "android": "https://dc.lft.to/lastmile_qr_scan"}, "bike_id": "605223e4ad8e160e421b82bcfc1ead9d", "lat": 38.92427883333333, "name": "605223e4ad8e160e421b82bcfc1ead9d", "lon": -77.04479883333333, "fusion_lon": 0.0}, {"is_reserved": 0, "type": "electric_scooter", "fusion_lat": 0.0, "is_disabled": 0, "rental_uris": {"ios": "https://dc.lft.to/lastmile_qr_scan", "android": "https://dc.lft.to/lastmile_qr_scan"}, "bike_id": "f389a502d41eb5485f9204d27263de82", "lat": 38.91694183333333, "name": "f389a502d41eb5485f9204d27263de82", "lon": -77.02597366666667, "fusion_lon": 0.0}, {"is_reserved": 0, "type": "electric_scooter", "fusion_lat": 0.0, "is_disabled": 0, "rental_uris": {"ios": "https://dc.lft.to/lastmile_qr_scan", "android": "https://dc.lft.to/lastmile_qr_scan"}, "bike_id": "adcc403da54e91bf8365100c59bed755", "lat": 38.95217533333334, "name": "adcc403da54e91bf8365100c59bed755", "lon": -77.08876333333333, "fusion_lon": 0.0}, {"is_reserved": 0, "type": "electric_scooter", "fusion_lat": 0.0, "is_disabled": 0, "rental_uris": {"ios": "https://dc.lft.to/lastmile_qr_scan", "android": "https://dc.lft.to/lastmile_qr_scan"}, "bike_id": "c33b1c9b5f3940db9e199727977901c3", "lat": 38.91046583333333, "name": "c33b1c9b5f3940db9e199727977901c3", "lon": -76.99814783333333, "fusion_lon": 0.0}, {"is_reserved": 0, "type": "electric_scooter", "fusion_lat": 0.0, "is_disabled": 0, "rental_uris": {"ios": "https://dc.lft.to/lastmile_qr_scan", "android": "https://dc.lft.to/lastmile_qr_scan"}, "bike_id": "35213a0fb4749edee3c4360660e88c47", "lat": 38.8831835, "name": "35213a0fb4749edee3c4360660e88c47", "lon": -76.93485633333333, "fusion_lon": 0.0}, {"is_reserved": 0, "type": "electric_scooter", "fusion_lat": 0.0, "is_disabled": 0, "rental_uris": {"ios": "https://dc.lft.to/lastmile_qr_scan", "android": "https://dc.lft.to/lastmile_qr_scan"}, "bike_id": "fe79b68512fedc275a59452e76342706", "lat": 38.92409266666667, "name": "fe79b68512fedc275a59452e76342706", "lon": -77.02009733333334, "fusion_lon": 0.0}, {"is_reserved": 0, "type": "electric_scooter", "fusion_lat": 0.0, "is_disabled": 0, "rental_uris": {"ios": "https://dc.lft.to/lastmile_qr_scan", "android": "https://dc.lft.to/lastmile_qr_scan"}, "bike_id": "89b37ceb816b3125c44dca14ad427619", "lat": 38.92763683333333, "name": "89b37ceb816b3125c44dca14ad427619", "lon": -77.0231645, "fusion_lon": 0.0}, {"is_reserved": 0, "type": "electric_bike", "fusion_lat": 0.0, "is_disabled": 0, "rental_uris": {"ios": "https://dc.lft.to/lastmile_qr_scan", "android": "https://dc.lft.to/lastmile_qr_scan"}, "bike_id": "b2e2f8b2161612ce3a6f958a01bd8291", "lat": 38.8523705, "name": "b2e2f8b2161612ce3a6f958a01bd8291", "lon": -77.11412066666666, "fusion_lon": 0.0}, {"is_reserved": 0, "type": "electric_scooter", "fusion_lat": 0.0, "is_disabled": 0, "rental_uris": {"ios": "https://dc.lft.to/lastmile_qr_scan", "android": "https://dc.lft.to/lastmile_qr_scan"}, "bike_id": "a0a839d71842819aa1c4951b97c6989f", "lat": 38.905171333333335, "name": "a0a839d71842819aa1c4951b97c6989f", "lon": -77.0171345, "fusion_lon": 0.0}, {"is_reserved": 0, "type": "electric_scooter", "fusion_lat": 0.0, "is_disabled": 0, "rental_uris": {"ios": "https://dc.lft.to/lastmile_qr_scan", "android": "https://dc.lft.to/lastmile_qr_scan"}, "bike_id": "936c91b27660070b65baa8fb6ff3f438", "lat": 38.911409, "name": "936c91b27660070b65baa8fb6ff3f438", "lon": -77.0280275, "fusion_lon": 0.0}, {"is_reserved": 0, "type": "electric_scooter", "fusion_lat": 0.0, "is_disabled": 0, "rental_uris": {"ios": "https://dc.lft.to/lastmile_qr_scan", "android": "https://dc.lft.to/lastmile_qr_scan"}, "bike_id": "22c73f6ae9bd253cc17923e4affc2f95", "lat": 38.89721183333333, "name": "22c73f6ae9bd253cc17923e4affc2f95", "lon": -77.05129166666667, "fusion_lon": 0.0}, {"is_reserved": 0, "type": "electric_scooter", "fusion_lat": 0.0, "is_disabled": 0, "rental_uris": {"ios": "https://dc.lft.to/lastmile_qr_scan", "android": "https://dc.lft.to/lastmile_qr_scan"}, "bike_id": "562d6535b448f95372d42f9b906c4624", "lat": 38.9014145, "name": "562d6535b448f95372d42f9b906c4624", "lon": -76.92983733333334, "fusion_lon": 0.0}, {"is_reserved": 0, "type": "electric_bike", "fusion_lat": 0.0, "is_disabled": 0, "rental_uris": {"ios": "https://dc.lft.to/lastmile_qr_scan", "android": "https://dc.lft.to/lastmile_qr_scan"}, "bike_id": "c5a46beebbbabf835dde857d79b666ee", "lat": 39.00651966666667, "name": "c5a46beebbbabf835dde857d79b666ee", "lon": -76.90023683333334, "fusion_lon": 0.0}, {"is_reserved": 0, "type": "electric_scooter", "fusion_lat": 0.0, "is_disabled": 0, "rental_uris": {"ios": "https://dc.lft.to/lastmile_qr_scan", "android": "https://dc.lft.to/lastmile_qr_scan"}, "bike_id": "13abe978f7bd28fb1091551bb28c8a18", "lat": 38.84277183333333, "name": "13abe978f7bd28fb1091551bb28c8a18", "lon": -76.988387, "fusion_lon": 0.0}, {"is_reserved": 0, "type": "electric_scooter", "fusion_lat": 0.0, "is_disabled": 0, "rental_uris": {"ios": "https://dc.lft.to/lastmile_qr_scan", "android": "https://dc.lft.to/lastmile_qr_scan"}, "bike_id": "e1664ff71abc659a7ecdc9e793876f72", "lat": 38.92327316666667, "name": "e1664ff71abc659a7ecdc9e793876f72", "lon": -77.02916066666667, "fusion_lon": 0.0}, {"is_reserved": 0, "type": "electric_scooter", "fusion_lat": 0.0, "is_disabled": 0, "rental_uris": {"ios": "https://dc.lft.to/lastmile_qr_scan", "android": "https://dc.lft.to/lastmile_qr_scan"}, "bike_id": "684eb7fd0af25012146fb80cf655311b", "lat": 38.904684833333334, "name": "684eb7fd0af25012146fb80cf655311b", "lon": -77.03550516666667, "fusion_lon": 0.0}, {"is_reserved": 0, "type": "electric_scooter", "fusion_lat": 0.0, "is_disabled": 0, "rental_uris": {"ios": "https://dc.lft.to/lastmile_qr_scan", "android": "https://dc.lft.to/lastmile_qr_scan"}, "bike_id": "e2be3a017044abec938e856820fa4839", "lat": 38.9359595, "name": "e2be3a017044abec938e856820fa4839", "lon": -77.05593216666666, "fusion_lon": 0.0}, {"is_reserved": 0, "type": "electric_scooter", "fusion_lat": 0.0, "is_disabled": 0, "rental_uris": {"ios": "https://dc.lft.to/lastmile_qr_scan", "android": "https://dc.lft.to/lastmile_qr_scan"}, "bike_id": "5acd2134cf8c68ade32d455e1084defb", "lat": 38.918171666666666, "name": "5acd2134cf8c68ade32d455e1084defb", "lon": -77.02697783333333, "fusion_lon": 0.0}, {"is_reserved": 0, "type": "electric_scooter", "fusion_lat": 0.0, "is_disabled": 0, "rental_uris": {"ios": "https://dc.lft.to/lastmile_qr_scan", "android": "https://dc.lft.to/lastmile_qr_scan"}, "bike_id": "7c80d7b3fb2f4125d0d2afaf91afec9f", "lat": 38.92159933333333, "name": "7c80d7b3fb2f4125d0d2afaf91afec9f", "lon": -77.03509266666667, "fusion_lon": 0.0}, {"is_reserved": 0, "type": "electric_scooter", "fusion_lat": 0.0, "is_disabled": 0, "rental_uris": {"ios": "https://dc.lft.to/lastmile_qr_scan", "android": "https://dc.lft.to/lastmile_qr_scan"}, "bike_id": "12d77e59dbf45dbe2cb22507d8496bea", "lat": 38.89737916666667, "name": "12d77e59dbf45dbe2cb22507d8496bea", "lon": -77.02816166666666, "fusion_lon": 0.0}, {"is_reserved": 0, "type": "electric_scooter", "fusion_lat": 0.0, "is_disabled": 0, "rental_uris": {"ios": "https://dc.lft.to/lastmile_qr_scan", "android": "https://dc.lft.to/lastmile_qr_scan"}, "bike_id": "1c319bb36deda1f5bb51f780db29b93e", "lat": 38.9010935, "name": "1c319bb36deda1f5bb51f780db29b93e", "lon": -77.03450983333333, "fusion_lon": 0.0}, {"is_reserved": 0, "type": "electric_bike", "fusion_lat": 0.0, "is_disabled": 0, "rental_uris": {"ios": "https://dc.lft.to/lastmile_qr_scan", "android": "https://dc.lft.to/lastmile_qr_scan"}, "bike_id": "89aad539dd807da0768288ac4aee2510", "lat": 38.877379, "name": "89aad539dd807da0768288ac4aee2510", "lon": -77.11846816666667, "fusion_lon": 0.0}, {"is_reserved": 0, "type": "electric_scooter", "fusion_lat": 0.0, "is_disabled": 0, "rental_uris": {"ios": "https://dc.lft.to/lastmile_qr_scan", "android": "https://dc.lft.to/lastmile_qr_scan"}, "bike_id": "a28af14e7296375509a27f7dee8ceb24", "lat": 38.93469366666667, "name": "a28af14e7296375509a27f7dee8ceb24", "lon": -77.027905, "fusion_lon": 0.0}, {"is_reserved": 0, "type": "electric_scooter", "fusion_lat": 0.0, "is_disabled": 0, "rental_uris": {"ios": "https://dc.lft.to/lastmile_qr_scan", "android": "https://dc.lft.to/lastmile_qr_scan"}, "bike_id": "901473746ad6c9df5dcadaa6ccb26159", "lat": 38.923541666666665, "name": "901473746ad6c9df5dcadaa6ccb26159", "lon": -77.07304966666666, "fusion_lon": 0.0}, {"is_reserved": 0, "type": "electric_scooter", "fusion_lat": 0.0, "is_disabled": 0, "rental_uris": {"ios": "https://dc.lft.to/lastmile_qr_scan", "android": "https://dc.lft.to/lastmile_qr_scan"}, "bike_id": "a375597801cc5eeb7e762771c4767797", "lat": 38.915913833333335, "name": "a375597801cc5eeb7e762771c4767797", "lon": -77.03202466666667, "fusion_lon": 0.0}, {"is_reserved": 0, "type": "electric_scooter", "fusion_lat": 0.0, "is_disabled": 0, "rental_uris": {"ios": "https://dc.lft.to/lastmile_qr_scan", "android": "https://dc.lft.to/lastmile_qr_scan"}, "bike_id": "0c9093491752894d436a1e494bd4e947", "lat": 38.93096283333333, "name": "0c9093491752894d436a1e494bd4e947", "lon": -77.0343785, "fusion_lon": 0.0}, {"is_reserved": 0, "type": "electric_scooter", "fusion_lat": 0.0, "is_disabled": 0, "rental_uris": {"ios": "https://dc.lft.to/lastmile_qr_scan", "android": "https://dc.lft.to/lastmile_qr_scan"}, "bike_id": "050d44bdb4a7d8bbc784f98c179b0f58", "lat": 38.921775833333335, "name": "050d44bdb4a7d8bbc784f98c179b0f58", "lon": -77.0401455, "fusion_lon": 0.0}, {"is_reserved": 0, "type": "electric_scooter", "fusion_lat": 0.0, "is_disabled": 0, "rental_uris": {"ios": "https://dc.lft.to/lastmile_qr_scan", "android": "https://dc.lft.to/lastmile_qr_scan"}, "bike_id": "c692a8e0a33e696477d0710be9980919", "lat": 38.902496166666666, "name": "c692a8e0a33e696477d0710be9980919", "lon": -77.02016066666667, "fusion_lon": 0.0}, {"is_reserved": 0, "type": "electric_bike", "fusion_lat": 0.0, "is_disabled": 0, "rental_uris": {"ios": "https://dc.lft.to/lastmile_qr_scan", "android": "https://dc.lft.to/lastmile_qr_scan"}, "bike_id": "9e11e7cc105876582730027450c808d2", "lat": 38.98285283333333, "name": "9e11e7cc105876582730027450c808d2", "lon": -76.97640816666667, "fusion_lon": 0.0}, {"is_reserved": 0, "type": "electric_scooter", "fusion_lat": 0.0, "is_disabled": 0, "rental_uris": {"ios": "https://dc.lft.to/lastmile_qr_scan", "android": "https://dc.lft.to/lastmile_qr_scan"}, "bike_id": "3d5b3c2265ac154f9af6fe2b6c3ae9f6", "lat": 38.900458666666665, "name": "3d5b3c2265ac154f9af6fe2b6c3ae9f6", "lon": -77.04331216666667, "fusion_lon": 0.0}, {"is_reserved": 0, "type": "electric_scooter", "fusion_lat": 0.0, "is_disabled": 0, "rental_uris": {"ios": "https://dc.lft.to/lastmile_qr_scan", "android": "https://dc.lft.to/lastmile_qr_scan"}, "bike_id": "b2e0462e782a8f9bef33a75cc801cd78", "lat": 38.921790666666666, "name": "b2e0462e782a8f9bef33a75cc801cd78", "lon": -77.0211675, "fusion_lon": 0.0}, {"is_reserved": 0, "type": "electric_scooter", "fusion_lat": 0.0, "is_disabled": 0, "rental_uris": {"ios": "https://dc.lft.to/lastmile_qr_scan", "android": "https://dc.lft.to/lastmile_qr_scan"}, "bike_id": "f27d09867ae34917477bbaede10bb54f", "lat": 38.8987575, "name": "f27d09867ae34917477bbaede10bb54f", "lon": -76.93178933333333, "fusion_lon": 0.0}, {"is_reserved": 0, "type": "electric_scooter", "fusion_lat": 0.0, "is_disabled": 0, "rental_uris": {"ios": "https://dc.lft.to/lastmile_qr_scan", "android": "https://dc.lft.to/lastmile_qr_scan"}, "bike_id": "3e801164c530e6053fd4d2b4e9c616e4", "lat": 38.910238, "name": "3e801164c530e6053fd4d2b4e9c616e4", "lon": -77.0199115, "fusion_lon": 0.0}, {"is_reserved": 0, "type": "electric_scooter", "fusion_lat": 0.0, "is_disabled": 0, "rental_uris": {"ios": "https://dc.lft.to/lastmile_qr_scan", "android": "https://dc.lft.to/lastmile_qr_scan"}, "bike_id": "fef945e0d7e394e9d14f122413e25815", "lat": 38.9236625, "name": "fef945e0d7e394e9d14f122413e25815", "lon": -77.01921266666666, "fusion_lon": 0.0}, {"is_reserved": 0, "type": "electric_scooter", "fusion_lat": 0.0, "is_disabled": 0, "rental_uris": {"ios": "https://dc.lft.to/lastmile_qr_scan", "android": "https://dc.lft.to/lastmile_qr_scan"}, "bike_id": "a4d4b979cdc91f4baecd2e772c8c76b1", "lat": 38.9642735, "name": "a4d4b979cdc91f4baecd2e772c8c76b1", "lon": -77.07428133333333, "fusion_lon": 0.0}, {"is_reserved": 0, "type": "electric_scooter", "fusion_lat": 0.0, "is_disabled": 0, "rental_uris": {"ios": "https://dc.lft.to/lastmile_qr_scan", "android": "https://dc.lft.to/lastmile_qr_scan"}, "bike_id": "2b072f53037eeeb1c6aaf13faa64b4cf", "lat": 38.90327216666667, "name": "2b072f53037eeeb1c6aaf13faa64b4cf", "lon": -76.99131816666667, "fusion_lon": 0.0}, {"is_reserved": 0, "type": "electric_scooter", "fusion_lat": 0.0, "is_disabled": 0, "rental_uris": {"ios": "https://dc.lft.to/lastmile_qr_scan", "android": "https://dc.lft.to/lastmile_qr_scan"}, "bike_id": "a1f21f0d11dd19afc6a31493e13088cf", "lat": 38.901995166666666, "name": "a1f21f0d11dd19afc6a31493e13088cf", "lon": -77.022136, "fusion_lon": 0.0}, {"is_reserved": 0, "type": "electric_scooter", "fusion_lat": 0.0, "is_disabled": 0, "rental_uris": {"ios": "https://dc.lft.to/lastmile_qr_scan", "android": "https://dc.lft.to/lastmile_qr_scan"}, "bike_id": "321ae1e5e40984fba42aa233c03a8182", "lat": 38.935703, "name": "321ae1e5e40984fba42aa233c03a8182", "lon": -77.07343733333333, "fusion_lon": 0.0}, {"is_reserved": 0, "type": "electric_scooter", "fusion_lat": 0.0, "is_disabled": 0, "rental_uris": {"ios": "https://dc.lft.to/lastmile_qr_scan", "android": "https://dc.lft.to/lastmile_qr_scan"}, "bike_id": "ad0dbb6bab571615f8de5f1f1014cd9b", "lat": 38.857223166666664, "name": "ad0dbb6bab571615f8de5f1f1014cd9b", "lon": -76.98096816666667, "fusion_lon": 0.0}, {"is_reserved": 0, "type": "electric_scooter", "fusion_lat": 0.0, "is_disabled": 0, "rental_uris": {"ios": "https://dc.lft.to/lastmile_qr_scan", "android": "https://dc.lft.to/lastmile_qr_scan"}, "bike_id": "b96183c9b5596b43099ca9b4fe0d4a91", "lat": 38.947292166666664, "name": "b96183c9b5596b43099ca9b4fe0d4a91", "lon": -77.02670683333334, "fusion_lon": 0.0}, {"is_reserved": 0, "type": "electric_scooter", "fusion_lat": 0.0, "is_disabled": 0, "rental_uris": {"ios": "https://dc.lft.to/lastmile_qr_scan", "android": "https://dc.lft.to/lastmile_qr_scan"}, "bike_id": "87847db7c2ff2e8b2a4fbd4ae54202c9", "lat": 38.88539633333333, "name": "87847db7c2ff2e8b2a4fbd4ae54202c9", "lon": -76.9854405, "fusion_lon": 0.0}, {"is_reserved": 0, "type": "electric_scooter", "fusion_lat": 0.0, "is_disabled": 0, "rental_uris": {"ios": "https://dc.lft.to/lastmile_qr_scan", "android": "https://dc.lft.to/lastmile_qr_scan"}, "bike_id": "900efe9ce16888a3701d30040d720196", "lat": 38.927559, "name": "900efe9ce16888a3701d30040d720196", "lon": -77.032673, "fusion_lon": 0.0}, {"is_reserved": 0, "type": "electric_bike", "fusion_lat": 0.0, "is_disabled": 0, "rental_uris": {"ios": "https://dc.lft.to/lastmile_qr_scan", "android": "https://dc.lft.to/lastmile_qr_scan"}, "bike_id": "a50b84cd4de7608e4dee843bd2435515", "lat": 38.9280025, "name": "a50b84cd4de7608e4dee843bd2435515", "lon": -77.229444, "fusion_lon": 0.0}, {"is_reserved": 0, "type": "electric_scooter", "fusion_lat": 0.0, "is_disabled": 0, "rental_uris": {"ios": "https://dc.lft.to/lastmile_qr_scan", "android": "https://dc.lft.to/lastmile_qr_scan"}, "bike_id": "22fbe2f4b2ab1758d07973d1db14a9a8", "lat": 38.917002333333336, "name": "22fbe2f4b2ab1758d07973d1db14a9a8", "lon": -77.053037, "fusion_lon": 0.0}, {"is_reserved": 0, "type": "electric_bike", "fusion_lat": 0.0, "is_disabled": 0, "rental_uris": {"ios": "https://dc.lft.to/lastmile_qr_scan", "android": "https://dc.lft.to/lastmile_qr_scan"}, "bike_id": "551d4fdbad63e29658b9df7c301eb65d", "lat": 38.834083, "name": "551d4fdbad63e29658b9df7c301eb65d", "lon": -77.04990183333334, "fusion_lon": 0.0}, {"is_reserved": 0, "type": "electric_scooter", "fusion_lat": 0.0, "is_disabled": 0, "rental_uris": {"ios": "https://dc.lft.to/lastmile_qr_scan", "android": "https://dc.lft.to/lastmile_qr_scan"}, "bike_id": "3c349fca25afe40419b62fd2ea1cf7f0", "lat": 38.9063185, "name": "3c349fca25afe40419b62fd2ea1cf7f0", "lon": -77.00873983333334, "fusion_lon": 0.0}, {"is_reserved": 0, "type": "electric_scooter", "fusion_lat": 0.0, "is_disabled": 0, "rental_uris": {"ios": "https://dc.lft.to/lastmile_qr_scan", "android": "https://dc.lft.to/lastmile_qr_scan"}, "bike_id": "532b022f49a8bb31b07ea2f0907a3ec4", "lat": 38.92572933333334, "name": "532b022f49a8bb31b07ea2f0907a3ec4", "lon": -77.02988016666667, "fusion_lon": 0.0}, {"is_reserved": 0, "type": "electric_scooter", "fusion_lat": 0.0, "is_disabled": 0, "rental_uris": {"ios": "https://dc.lft.to/lastmile_qr_scan", "android": "https://dc.lft.to/lastmile_qr_scan"}, "bike_id": "e9fa26f02084d6b830b3b8ca2aba957b", "lat": 38.932648, "name": "e9fa26f02084d6b830b3b8ca2aba957b", "lon": -77.03261066666667, "fusion_lon": 0.0}, {"is_reserved": 0, "type": "electric_bike", "fusion_lat": 0.0, "is_disabled": 0, "rental_uris": {"ios": "https://dc.lft.to/lastmile_qr_scan", "android": "https://dc.lft.to/lastmile_qr_scan"}, "bike_id": "c7e18f3e45091280b2221a1e1d0e17d9", "lat": 38.850689333333335, "name": "c7e18f3e45091280b2221a1e1d0e17d9", "lon": -76.95829883333333, "fusion_lon": 0.0}, {"is_reserved": 0, "type": "electric_scooter", "fusion_lat": 0.0, "is_disabled": 0, "rental_uris": {"ios": "https://dc.lft.to/lastmile_qr_scan", "android": "https://dc.lft.to/lastmile_qr_scan"}, "bike_id": "7afabfd533f1fab47b62ea547fcb484d", "lat": 38.930985, "name": "7afabfd533f1fab47b62ea547fcb484d", "lon": -77.0247535, "fusion_lon": 0.0}, {"is_reserved": 0, "type": "electric_scooter", "fusion_lat": 0.0, "is_disabled": 0, "rental_uris": {"ios": "https://dc.lft.to/lastmile_qr_scan", "android": "https://dc.lft.to/lastmile_qr_scan"}, "bike_id": "550e090b317d57a4d92ef83b05d4bf1c", "lat": 38.86081516666667, "name": "550e090b317d57a4d92ef83b05d4bf1c", "lon": -76.98375783333333, "fusion_lon": 0.0}, {"is_reserved": 0, "type": "electric_scooter", "fusion_lat": 0.0, "is_disabled": 0, "rental_uris": {"ios": "https://dc.lft.to/lastmile_qr_scan", "android": "https://dc.lft.to/lastmile_qr_scan"}, "bike_id": "0f15d72c460959f67fdf8f71f7e830f7", "lat": 38.885756, "name": "0f15d72c460959f67fdf8f71f7e830f7", "lon": -77.0121295, "fusion_lon": 0.0}, {"is_reserved": 0, "type": "electric_scooter", "fusion_lat": 0.0, "is_disabled": 0, "rental_uris": {"ios": "https://dc.lft.to/lastmile_qr_scan", "android": "https://dc.lft.to/lastmile_qr_scan"}, "bike_id": "f4d4bf290cd1dfef08584afbf8b23ea2", "lat": 38.89630116666667, "name": "f4d4bf290cd1dfef08584afbf8b23ea2", "lon": -77.0465875, "fusion_lon": 0.0}, {"is_reserved": 0, "type": "electric_scooter", "fusion_lat": 0.0, "is_disabled": 0, "rental_uris": {"ios": "https://dc.lft.to/lastmile_qr_scan", "android": "https://dc.lft.to/lastmile_qr_scan"}, "bike_id": "9a29ba48c113fa4763c75f20734a3ae4", "lat": 38.9043985, "name": "9a29ba48c113fa4763c75f20734a3ae4", "lon": -76.99731133333333, "fusion_lon": 0.0}, {"is_reserved": 0, "type": "electric_bike", "fusion_lat": 0.0, "is_disabled": 0, "rental_uris": {"ios": "https://dc.lft.to/lastmile_qr_scan", "android": "https://dc.lft.to/lastmile_qr_scan"}, "bike_id": "daac7e84be9ab6865f8ee941edb2cec9", "lat": 38.90499716666667, "name": "daac7e84be9ab6865f8ee941edb2cec9", "lon": -77.0276495, "fusion_lon": 0.0}, {"is_reserved": 0, "type": "electric_scooter", "fusion_lat": 0.0, "is_disabled": 0, "rental_uris": {"ios": "https://dc.lft.to/lastmile_qr_scan", "android": "https://dc.lft.to/lastmile_qr_scan"}, "bike_id": "b25d635bf6438ac4af65a8d500b7ef30", "lat": 38.93010366666667, "name": "b25d635bf6438ac4af65a8d500b7ef30", "lon": -77.04050183333334, "fusion_lon": 0.0}, {"is_reserved": 0, "type": "electric_scooter", "fusion_lat": 0.0, "is_disabled": 0, "rental_uris": {"ios": "https://dc.lft.to/lastmile_qr_scan", "android": "https://dc.lft.to/lastmile_qr_scan"}, "bike_id": "a82a1788a78c7efcceb615ae8b7fb705", "lat": 38.923777, "name": "a82a1788a78c7efcceb615ae8b7fb705", "lon": -77.04114433333334, "fusion_lon": 0.0}, {"is_reserved": 0, "type": "electric_scooter", "fusion_lat": 0.0, "is_disabled": 0, "rental_uris": {"ios": "https://dc.lft.to/lastmile_qr_scan", "android": "https://dc.lft.to/lastmile_qr_scan"}, "bike_id": "9ea1d057b8dc1d01e18184960472f0a3", "lat": 38.90956933333333, "name": "9ea1d057b8dc1d01e18184960472f0a3", "lon": -76.99575483333334, "fusion_lon": 0.0}, {"is_reserved": 0, "type": "electric_scooter", "fusion_lat": 0.0, "is_disabled": 0, "rental_uris": {"ios": "https://dc.lft.to/lastmile_qr_scan", "android": "https://dc.lft.to/lastmile_qr_scan"}, "bike_id": "e6adea6514d19633103d6759c9443174", "lat": 38.92489883333333, "name": "e6adea6514d19633103d6759c9443174", "lon": -77.02136266666666, "fusion_lon": 0.0}, {"is_reserved": 0, "type": "electric_scooter", "fusion_lat": 0.0, "is_disabled": 0, "rental_uris": {"ios": "https://dc.lft.to/lastmile_qr_scan", "android": "https://dc.lft.to/lastmile_qr_scan"}, "bike_id": "44681d91f8a08ce23f4104a0e8bac743", "lat": 38.9083025, "name": "44681d91f8a08ce23f4104a0e8bac743", "lon": -77.04363333333333, "fusion_lon": 0.0}, {"is_reserved": 0, "type": "electric_scooter", "fusion_lat": 0.0, "is_disabled": 0, "rental_uris": {"ios": "https://dc.lft.to/lastmile_qr_scan", "android": "https://dc.lft.to/lastmile_qr_scan"}, "bike_id": "0c3d43fd8d06528deb52c1844101c22f", "lat": 38.921590333333334, "name": "0c3d43fd8d06528deb52c1844101c22f", "lon": -77.03470133333333, "fusion_lon": 0.0}, {"is_reserved": 0, "type": "electric_scooter", "fusion_lat": 0.0, "is_disabled": 0, "rental_uris": {"ios": "https://dc.lft.to/lastmile_qr_scan", "android": "https://dc.lft.to/lastmile_qr_scan"}, "bike_id": "85165b37a8e376d718bc23b28a3f2b4c", "lat": 38.91411816666667, "name": "85165b37a8e376d718bc23b28a3f2b4c", "lon": -77.0333815, "fusion_lon": 0.0}, {"is_reserved": 0, "type": "electric_scooter", "fusion_lat": 0.0, "is_disabled": 0, "rental_uris": {"ios": "https://dc.lft.to/lastmile_qr_scan", "android": "https://dc.lft.to/lastmile_qr_scan"}, "bike_id": "9641a7b87c169651d47d11c066b1f365", "lat": 38.889866, "name": "9641a7b87c169651d47d11c066b1f365", "lon": -76.98815316666666, "fusion_lon": 0.0}, {"is_reserved": 0, "type": "electric_scooter", "fusion_lat": 0.0, "is_disabled": 0, "rental_uris": {"ios": "https://dc.lft.to/lastmile_qr_scan", "android": "https://dc.lft.to/lastmile_qr_scan"}, "bike_id": "3e15ebcddfbb588581ec09e56d59d6bd", "lat": 38.893567833333336, "name": "3e15ebcddfbb588581ec09e56d59d6bd", "lon": -77.01978183333334, "fusion_lon": 0.0}, {"is_reserved": 0, "type": "electric_bike", "fusion_lat": 0.0, "is_disabled": 0, "rental_uris": {"ios": "https://dc.lft.to/lastmile_qr_scan", "android": "https://dc.lft.to/lastmile_qr_scan"}, "bike_id": "f62f740630fc979f0929133a59f98437", "lat": 38.88610166666667, "name": "f62f740630fc979f0929133a59f98437", "lon": -77.00085233333333, "fusion_lon": 0.0}, {"is_reserved": 0, "type": "electric_scooter", "fusion_lat": 0.0, "is_disabled": 0, "rental_uris": {"ios": "https://dc.lft.to/lastmile_qr_scan", "android": "https://dc.lft.to/lastmile_qr_scan"}, "bike_id": "19ae52639a7be86ea93f812645ee2031", "lat": 38.921208666666665, "name": "19ae52639a7be86ea93f812645ee2031", "lon": -77.044382, "fusion_lon": 0.0}, {"is_reserved": 0, "type": "electric_scooter", "fusion_lat": 0.0, "is_disabled": 0, "rental_uris": {"ios": "https://dc.lft.to/lastmile_qr_scan", "android": "https://dc.lft.to/lastmile_qr_scan"}, "bike_id": "eec16b75d7297a5ff77b4d60ee755975", "lat": 38.90911666666667, "name": "eec16b75d7297a5ff77b4d60ee755975", "lon": -76.99120116666667, "fusion_lon": 0.0}, {"is_reserved": 0, "type": "electric_scooter", "fusion_lat": 0.0, "is_disabled": 0, "rental_uris": {"ios": "https://dc.lft.to/lastmile_qr_scan", "android": "https://dc.lft.to/lastmile_qr_scan"}, "bike_id": "d466172579673e0b74f29593af9fb901", "lat": 38.874762833333335, "name": "d466172579673e0b74f29593af9fb901", "lon": -76.99167716666666, "fusion_lon": 0.0}, {"is_reserved": 0, "type": "electric_scooter", "fusion_lat": 0.0, "is_disabled": 0, "rental_uris": {"ios": "https://dc.lft.to/lastmile_qr_scan", "android": "https://dc.lft.to/lastmile_qr_scan"}, "bike_id": "c48bdb1e6be7b7673fcf80eb96804d14", "lat": 38.917763666666666, "name": "c48bdb1e6be7b7673fcf80eb96804d14", "lon": -77.02308583333334, "fusion_lon": 0.0}, {"is_reserved": 0, "type": "electric_bike", "fusion_lat": 0.0, "is_disabled": 0, "rental_uris": {"ios": "https://dc.lft.to/lastmile_qr_scan", "android": "https://dc.lft.to/lastmile_qr_scan"}, "bike_id": "2b839845cfb03885891cb2ef99bad9c7", "lat": 38.80403583333333, "name": "2b839845cfb03885891cb2ef99bad9c7", "lon": -77.11326933333333, "fusion_lon": 0.0}, {"is_reserved": 0, "type": "electric_scooter", "fusion_lat": 0.0, "is_disabled": 0, "rental_uris": {"ios": "https://dc.lft.to/lastmile_qr_scan", "android": "https://dc.lft.to/lastmile_qr_scan"}, "bike_id": "b72864321eb7de629a4c6825c5702aa8", "lat": 38.9327045, "name": "b72864321eb7de629a4c6825c5702aa8", "lon": -77.0210105, "fusion_lon": 0.0}, {"is_reserved": 0, "type": "electric_bike", "fusion_lat": 0.0, "is_disabled": 0, "rental_uris": {"ios": "https://dc.lft.to/lastmile_qr_scan", "android": "https://dc.lft.to/lastmile_qr_scan"}, "bike_id": "de23a0a83d3000ca041eb59fa0fa1615", "lat": 38.855933666666665, "name": "de23a0a83d3000ca041eb59fa0fa1615", "lon": -76.97277316666667, "fusion_lon": 0.0}, {"is_reserved": 0, "type": "electric_scooter", "fusion_lat": 0.0, "is_disabled": 0, "rental_uris": {"ios": "https://dc.lft.to/lastmile_qr_scan", "android": "https://dc.lft.to/lastmile_qr_scan"}, "bike_id": "b7750c385bd74c90da5276ca911ab4bd", "lat": 38.89837933333333, "name": "b7750c385bd74c90da5276ca911ab4bd", "lon": -77.03924583333334, "fusion_lon": 0.0}, {"is_reserved": 0, "type": "electric_scooter", "fusion_lat": 0.0, "is_disabled": 0, "rental_uris": {"ios": "https://dc.lft.to/lastmile_qr_scan", "android": "https://dc.lft.to/lastmile_qr_scan"}, "bike_id": "f082e802e0c4e14a9d03fa12bce6b788", "lat": 38.90409983333333, "name": "f082e802e0c4e14a9d03fa12bce6b788", "lon": -76.9733305, "fusion_lon": 0.0}, {"is_reserved": 0, "type": "electric_scooter", "fusion_lat": 0.0, "is_disabled": 0, "rental_uris": {"ios": "https://dc.lft.to/lastmile_qr_scan", "android": "https://dc.lft.to/lastmile_qr_scan"}, "bike_id": "cc864d7601a716ee02f419daa1f49c61", "lat": 38.94633616666667, "name": "cc864d7601a716ee02f419daa1f49c61", "lon": -77.01737383333334, "fusion_lon": 0.0}, {"is_reserved": 0, "type": "electric_scooter", "fusion_lat": 0.0, "is_disabled": 0, "rental_uris": {"ios": "https://dc.lft.to/lastmile_qr_scan", "android": "https://dc.lft.to/lastmile_qr_scan"}, "bike_id": "ca1b8ff7ae86117313b1c8a5b1575486", "lat": 38.907131, "name": "ca1b8ff7ae86117313b1c8a5b1575486", "lon": -77.03854183333333, "fusion_lon": 0.0}, {"is_reserved": 0, "type": "electric_scooter", "fusion_lat": 0.0, "is_disabled": 0, "rental_uris": {"ios": "https://dc.lft.to/lastmile_qr_scan", "android": "https://dc.lft.to/lastmile_qr_scan"}, "bike_id": "f9f662b3ec3a3f93de43dc10249cb936", "lat": 38.9054145, "name": "f9f662b3ec3a3f93de43dc10249cb936", "lon": -77.05801766666667, "fusion_lon": 0.0}, {"is_reserved": 0, "type": "electric_scooter", "fusion_lat": 0.0, "is_disabled": 0, "rental_uris": {"ios": "https://dc.lft.to/lastmile_qr_scan", "android": "https://dc.lft.to/lastmile_qr_scan"}, "bike_id": "c35799787df7b7b6e86fc825dc9070f0", "lat": 38.94206366666667, "name": "c35799787df7b7b6e86fc825dc9070f0", "lon": -77.01332983333333, "fusion_lon": 0.0}, {"is_reserved": 0, "type": "electric_scooter", "fusion_lat": 0.0, "is_disabled": 0, "rental_uris": {"ios": "https://dc.lft.to/lastmile_qr_scan", "android": "https://dc.lft.to/lastmile_qr_scan"}, "bike_id": "5031113396e73058d358c7cdafc7b4fd", "lat": 38.927069833333334, "name": "5031113396e73058d358c7cdafc7b4fd", "lon": -77.0208445, "fusion_lon": 0.0}, {"is_reserved": 0, "type": "electric_scooter", "fusion_lat": 0.0, "is_disabled": 0, "rental_uris": {"ios": "https://dc.lft.to/lastmile_qr_scan", "android": "https://dc.lft.to/lastmile_qr_scan"}, "bike_id": "beac65cae08f0ec3ffa69031c27faad3", "lat": 38.942727166666664, "name": "beac65cae08f0ec3ffa69031c27faad3", "lon": -77.02932133333333, "fusion_lon": 0.0}, {"is_reserved": 0, "type": "electric_scooter", "fusion_lat": 0.0, "is_disabled": 0, "rental_uris": {"ios": "https://dc.lft.to/lastmile_qr_scan", "android": "https://dc.lft.to/lastmile_qr_scan"}, "bike_id": "0fee6ed3ab0d2ea4adf4f2ecb995bb56", "lat": 38.905923333333334, "name": "0fee6ed3ab0d2ea4adf4f2ecb995bb56", "lon": -77.0666335, "fusion_lon": 0.0}, {"is_reserved": 0, "type": "electric_bike", "fusion_lat": 0.0, "is_disabled": 0, "rental_uris": {"ios": "https://dc.lft.to/lastmile_qr_scan", "android": "https://dc.lft.to/lastmile_qr_scan"}, "bike_id": "9331bb6cde00156ef8b46e5bee17102d", "lat": 38.919039166666664, "name": "9331bb6cde00156ef8b46e5bee17102d", "lon": -77.00069316666666, "fusion_lon": 0.0}, {"is_reserved": 0, "type": "electric_scooter", "fusion_lat": 0.0, "is_disabled": 0, "rental_uris": {"ios": "https://dc.lft.to/lastmile_qr_scan", "android": "https://dc.lft.to/lastmile_qr_scan"}, "bike_id": "7a378b2595d8ca03ff80a0f7d143abcd", "lat": 38.926314833333336, "name": "7a378b2595d8ca03ff80a0f7d143abcd", "lon": -77.03846466666667, "fusion_lon": 0.0}, {"is_reserved": 0, "type": "electric_scooter", "fusion_lat": 0.0, "is_disabled": 0, "rental_uris": {"ios": "https://dc.lft.to/lastmile_qr_scan", "android": "https://dc.lft.to/lastmile_qr_scan"}, "bike_id": "f6615cdd2ede7d1b723b27c3cbdb3579", "lat": 38.92400383333333, "name": "f6615cdd2ede7d1b723b27c3cbdb3579", "lon": -77.03545266666667, "fusion_lon": 0.0}, {"is_reserved": 0, "type": "electric_bike", "fusion_lat": 0.0, "is_disabled": 0, "rental_uris": {"ios": "https://dc.lft.to/lastmile_qr_scan", "android": "https://dc.lft.to/lastmile_qr_scan"}, "bike_id": "23c54e5af1963db1de76d22c88e89045", "lat": 38.9167075, "name": "23c54e5af1963db1de76d22c88e89045", "lon": -77.0004715, "fusion_lon": 0.0}, {"is_reserved": 0, "type": "electric_scooter", "fusion_lat": 0.0, "is_disabled": 0, "rental_uris": {"ios": "https://dc.lft.to/lastmile_qr_scan", "android": "https://dc.lft.to/lastmile_qr_scan"}, "bike_id": "7d4bf4b5e0fc3693c8136be50d8d4116", "lat": 38.93250716666667, "name": "7d4bf4b5e0fc3693c8136be50d8d4116", "lon": -77.03275233333333, "fusion_lon": 0.0}, {"is_reserved": 0, "type": "electric_scooter", "fusion_lat": 0.0, "is_disabled": 0, "rental_uris": {"ios": "https://dc.lft.to/lastmile_qr_scan", "android": "https://dc.lft.to/lastmile_qr_scan"}, "bike_id": "3cbfb976132352e1103de93c4f57fb5e", "lat": 38.929993, "name": "3cbfb976132352e1103de93c4f57fb5e", "lon": -77.02171616666666, "fusion_lon": 0.0}, {"is_reserved": 0, "type": "electric_scooter", "fusion_lat": 0.0, "is_disabled": 0, "rental_uris": {"ios": "https://dc.lft.to/lastmile_qr_scan", "android": "https://dc.lft.to/lastmile_qr_scan"}, "bike_id": "ddfbac8f378b9cd91b54615cd32ae6f3", "lat": 38.9238355, "name": "ddfbac8f378b9cd91b54615cd32ae6f3", "lon": -77.04090566666666, "fusion_lon": 0.0}, {"is_reserved": 0, "type": "electric_scooter", "fusion_lat": 0.0, "is_disabled": 0, "rental_uris": {"ios": "https://dc.lft.to/lastmile_qr_scan", "android": "https://dc.lft.to/lastmile_qr_scan"}, "bike_id": "9f74a4afd760cb4011d838b0c08112b5", "lat": 38.922327, "name": "9f74a4afd760cb4011d838b0c08112b5", "lon": -77.03519183333333, "fusion_lon": 0.0}, {"is_reserved": 0, "type": "electric_scooter", "fusion_lat": 0.0, "is_disabled": 0, "rental_uris": {"ios": "https://dc.lft.to/lastmile_qr_scan", "android": "https://dc.lft.to/lastmile_qr_scan"}, "bike_id": "a860a2b9d83e11ae94f4daf121c59560", "lat": 38.917242, "name": "a860a2b9d83e11ae94f4daf121c59560", "lon": -77.02595666666667, "fusion_lon": 0.0}, {"is_reserved": 0, "type": "electric_scooter", "fusion_lat": 0.0, "is_disabled": 0, "rental_uris": {"ios": "https://dc.lft.to/lastmile_qr_scan", "android": "https://dc.lft.to/lastmile_qr_scan"}, "bike_id": "ac8a72212d652eb2182e968a04426553", "lat": 38.952549833333336, "name": "ac8a72212d652eb2182e968a04426553", "lon": -77.02074266666666, "fusion_lon": 0.0}, {"is_reserved": 0, "type": "electric_scooter", "fusion_lat": 0.0, "is_disabled": 0, "rental_uris": {"ios": "https://dc.lft.to/lastmile_qr_scan", "android": "https://dc.lft.to/lastmile_qr_scan"}, "bike_id": "e71faedd2be511170809dc10ca0a2de6", "lat": 38.92363916666667, "name": "e71faedd2be511170809dc10ca0a2de6", "lon": -77.05247416666667, "fusion_lon": 0.0}, {"is_reserved": 0, "type": "electric_scooter", "fusion_lat": 0.0, "is_disabled": 0, "rental_uris": {"ios": "https://dc.lft.to/lastmile_qr_scan", "android": "https://dc.lft.to/lastmile_qr_scan"}, "bike_id": "f150ed41273845197b7ab28b534208ba", "lat": 38.9156295, "name": "f150ed41273845197b7ab28b534208ba", "lon": -77.040057, "fusion_lon": 0.0}, {"is_reserved": 0, "type": "electric_scooter", "fusion_lat": 0.0, "is_disabled": 0, "rental_uris": {"ios": "https://dc.lft.to/lastmile_qr_scan", "android": "https://dc.lft.to/lastmile_qr_scan"}, "bike_id": "042e98857ac4613bcf58fdc1ba53b28b", "lat": 38.8990925, "name": "042e98857ac4613bcf58fdc1ba53b28b", "lon": -77.0233175, "fusion_lon": 0.0}, {"is_reserved": 0, "type": "electric_bike", "fusion_lat": 0.0, "is_disabled": 0, "rental_uris": {"ios": "https://dc.lft.to/lastmile_qr_scan", "android": "https://dc.lft.to/lastmile_qr_scan"}, "bike_id": "f30986b9d043b9935d78ec204593e541", "lat": 38.9568655, "name": "f30986b9d043b9935d78ec204593e541", "lon": -77.02221333333334, "fusion_lon": 0.0}, {"is_reserved": 0, "type": "electric_scooter", "fusion_lat": 0.0, "is_disabled": 0, "rental_uris": {"ios": "https://dc.lft.to/lastmile_qr_scan", "android": "https://dc.lft.to/lastmile_qr_scan"}, "bike_id": "afc6729e3a340ce3fe6e126aaad615a9", "lat": 38.912726, "name": "afc6729e3a340ce3fe6e126aaad615a9", "lon": -77.03654966666667, "fusion_lon": 0.0}, {"is_reserved": 0, "type": "electric_scooter", "fusion_lat": 0.0, "is_disabled": 0, "rental_uris": {"ios": "https://dc.lft.to/lastmile_qr_scan", "android": "https://dc.lft.to/lastmile_qr_scan"}, "bike_id": "4c451750922d31da55deb0d4366d0c72", "lat": 38.9432815, "name": "4c451750922d31da55deb0d4366d0c72", "lon": -77.01313983333333, "fusion_lon": 0.0}, {"is_reserved": 0, "type": "electric_scooter", "fusion_lat": 0.0, "is_disabled": 0, "rental_uris": {"ios": "https://dc.lft.to/lastmile_qr_scan", "android": "https://dc.lft.to/lastmile_qr_scan"}, "bike_id": "4ffab62ce796da3e88cee347d6ec4290", "lat": 38.89967983333333, "name": "4ffab62ce796da3e88cee347d6ec4290", "lon": -77.02628833333333, "fusion_lon": 0.0}, {"is_reserved": 0, "type": "electric_scooter", "fusion_lat": 0.0, "is_disabled": 0, "rental_uris": {"ios": "https://dc.lft.to/lastmile_qr_scan", "android": "https://dc.lft.to/lastmile_qr_scan"}, "bike_id": "5f71fac10746feeeb4de206ffa20e212", "lat": 38.93694983333334, "name": "5f71fac10746feeeb4de206ffa20e212", "lon": -77.05601583333333, "fusion_lon": 0.0}, {"is_reserved": 0, "type": "electric_scooter", "fusion_lat": 0.0, "is_disabled": 0, "rental_uris": {"ios": "https://dc.lft.to/lastmile_qr_scan", "android": "https://dc.lft.to/lastmile_qr_scan"}, "bike_id": "37fb0aaa966c18627e57e3a612b628e0", "lat": 38.8932935, "name": "37fb0aaa966c18627e57e3a612b628e0", "lon": -76.93925833333333, "fusion_lon": 0.0}, {"is_reserved": 0, "type": "electric_scooter", "fusion_lat": 0.0, "is_disabled": 0, "rental_uris": {"ios": "https://dc.lft.to/lastmile_qr_scan", "android": "https://dc.lft.to/lastmile_qr_scan"}, "bike_id": "ad5260740acc7764953b95dc090467e9", "lat": 38.912574, "name": "ad5260740acc7764953b95dc090467e9", "lon": -77.01025066666666, "fusion_lon": 0.0}, {"is_reserved": 0, "type": "electric_scooter", "fusion_lat": 0.0, "is_disabled": 0, "rental_uris": {"ios": "https://dc.lft.to/lastmile_qr_scan", "android": "https://dc.lft.to/lastmile_qr_scan"}, "bike_id": "68a87a22b3a986f6488cbc1035b8b02c", "lat": 38.8858475, "name": "68a87a22b3a986f6488cbc1035b8b02c", "lon": -77.012276, "fusion_lon": 0.0}, {"is_reserved": 0, "type": "electric_scooter", "fusion_lat": 0.0, "is_disabled": 0, "rental_uris": {"ios": "https://dc.lft.to/lastmile_qr_scan", "android": "https://dc.lft.to/lastmile_qr_scan"}, "bike_id": "6acc734e6457e13c64ade7591e8c4dc4", "lat": 38.90849866666667, "name": "6acc734e6457e13c64ade7591e8c4dc4", "lon": -77.04171283333334, "fusion_lon": 0.0}, {"is_reserved": 0, "type": "electric_scooter", "fusion_lat": 0.0, "is_disabled": 0, "rental_uris": {"ios": "https://dc.lft.to/lastmile_qr_scan", "android": "https://dc.lft.to/lastmile_qr_scan"}, "bike_id": "ce2c667839e3e1ed9b10644c362bbee9", "lat": 38.897329166666665, "name": "ce2c667839e3e1ed9b10644c362bbee9", "lon": -77.00757016666667, "fusion_lon": 0.0}, {"is_reserved": 0, "type": "electric_bike", "fusion_lat": 0.0, "is_disabled": 0, "rental_uris": {"ios": "https://dc.lft.to/lastmile_qr_scan", "android": "https://dc.lft.to/lastmile_qr_scan"}, "bike_id": "58b6f6e602aed9143272468f5c90be76", "lat": 38.832736833333335, "name": "58b6f6e602aed9143272468f5c90be76", "lon": -77.08372833333334, "fusion_lon": 0.0}, {"is_reserved": 0, "type": "electric_scooter", "fusion_lat": 0.0, "is_disabled": 0, "rental_uris": {"ios": "https://dc.lft.to/lastmile_qr_scan", "android": "https://dc.lft.to/lastmile_qr_scan"}, "bike_id": "40ba907175d4ed7f9f30e9257c009724", "lat": 38.930332, "name": "40ba907175d4ed7f9f30e9257c009724", "lon": -77.03814116666666, "fusion_lon": 0.0}, {"is_reserved": 0, "type": "electric_scooter", "fusion_lat": 0.0, "is_disabled": 0, "rental_uris": {"ios": "https://dc.lft.to/lastmile_qr_scan", "android": "https://dc.lft.to/lastmile_qr_scan"}, "bike_id": "3e18161eee43067fd8b31436cb6ed2d6", "lat": 38.88989566666667, "name": "3e18161eee43067fd8b31436cb6ed2d6", "lon": -77.00079233333334, "fusion_lon": 0.0}, {"is_reserved": 0, "type": "electric_scooter", "fusion_lat": 0.0, "is_disabled": 0, "rental_uris": {"ios": "https://dc.lft.to/lastmile_qr_scan", "android": "https://dc.lft.to/lastmile_qr_scan"}, "bike_id": "16fac866f4521545ba1c18feccf3525e", "lat": 38.917034666666666, "name": "16fac866f4521545ba1c18feccf3525e", "lon": -77.02481683333333, "fusion_lon": 0.0}, {"is_reserved": 0, "type": "electric_scooter", "fusion_lat": 0.0, "is_disabled": 0, "rental_uris": {"ios": "https://dc.lft.to/lastmile_qr_scan", "android": "https://dc.lft.to/lastmile_qr_scan"}, "bike_id": "1f9b851da3647aef0d239d16f8e9bd04", "lat": 38.92051883333333, "name": "1f9b851da3647aef0d239d16f8e9bd04", "lon": -77.016693, "fusion_lon": 0.0}, {"is_reserved": 0, "type": "electric_scooter", "fusion_lat": 0.0, "is_disabled": 0, "rental_uris": {"ios": "https://dc.lft.to/lastmile_qr_scan", "android": "https://dc.lft.to/lastmile_qr_scan"}, "bike_id": "4eac0dcb7c7ec86f389b36d4e5f3cac1", "lat": 38.938677166666665, "name": "4eac0dcb7c7ec86f389b36d4e5f3cac1", "lon": -77.0723815, "fusion_lon": 0.0}, {"is_reserved": 0, "type": "electric_scooter", "fusion_lat": 0.0, "is_disabled": 0, "rental_uris": {"ios": "https://dc.lft.to/lastmile_qr_scan", "android": "https://dc.lft.to/lastmile_qr_scan"}, "bike_id": "30cd541526e2f06beb3468ff4140f7aa", "lat": 38.8991605, "name": "30cd541526e2f06beb3468ff4140f7aa", "lon": -77.04981133333334, "fusion_lon": 0.0}, {"is_reserved": 0, "type": "electric_scooter", "fusion_lat": 0.0, "is_disabled": 0, "rental_uris": {"ios": "https://dc.lft.to/lastmile_qr_scan", "android": "https://dc.lft.to/lastmile_qr_scan"}, "bike_id": "c92c4fbf17116b96468c3f06db659b3d", "lat": 38.927130166666664, "name": "c92c4fbf17116b96468c3f06db659b3d", "lon": -77.04050883333333, "fusion_lon": 0.0}, {"is_reserved": 0, "type": "electric_scooter", "fusion_lat": 0.0, "is_disabled": 0, "rental_uris": {"ios": "https://dc.lft.to/lastmile_qr_scan", "android": "https://dc.lft.to/lastmile_qr_scan"}, "bike_id": "d913c46fbd1e2ffa066814e6d59a2e9d", "lat": 38.920237166666666, "name": "d913c46fbd1e2ffa066814e6d59a2e9d", "lon": -77.03969783333334, "fusion_lon": 0.0}, {"is_reserved": 0, "type": "electric_scooter", "fusion_lat": 0.0, "is_disabled": 0, "rental_uris": {"ios": "https://dc.lft.to/lastmile_qr_scan", "android": "https://dc.lft.to/lastmile_qr_scan"}, "bike_id": "b3e5a30909643a000843af388bf65d97", "lat": 38.90792966666667, "name": "b3e5a30909643a000843af388bf65d97", "lon": -77.00204316666667, "fusion_lon": 0.0}, {"is_reserved": 0, "type": "electric_scooter", "fusion_lat": 0.0, "is_disabled": 0, "rental_uris": {"ios": "https://dc.lft.to/lastmile_qr_scan", "android": "https://dc.lft.to/lastmile_qr_scan"}, "bike_id": "d8042a156c378a222e9113a2f7ecd350", "lat": 38.92022166666667, "name": "d8042a156c378a222e9113a2f7ecd350", "lon": -77.01704333333333, "fusion_lon": 0.0}, {"is_reserved": 0, "type": "electric_scooter", "fusion_lat": 0.0, "is_disabled": 0, "rental_uris": {"ios": "https://dc.lft.to/lastmile_qr_scan", "android": "https://dc.lft.to/lastmile_qr_scan"}, "bike_id": "8dd77e53826f848edcded031708a82df", "lat": 38.956362166666665, "name": "8dd77e53826f848edcded031708a82df", "lon": -77.02214733333334, "fusion_lon": 0.0}, {"is_reserved": 0, "type": "electric_scooter", "fusion_lat": 0.0, "is_disabled": 0, "rental_uris": {"ios": "https://dc.lft.to/lastmile_qr_scan", "android": "https://dc.lft.to/lastmile_qr_scan"}, "bike_id": "465c5710e1792706cea9057446906853", "lat": 38.924159833333334, "name": "465c5710e1792706cea9057446906853", "lon": -77.01947066666666, "fusion_lon": 0.0},