{"data": {"bikes": [{"rental_uris": {"android": "https://dc.lft.to/lastmile_qr_scan", "ios": "https://dc.lft.to/lastmile_qr_scan"}, "is_reserved": 0, "is_disabled": 0, "bike_id": "f56d25d8e7c32e2918ad2116979c72cb", "lat": 38.88466483333333, "name": "f56d25d8e7c32e2918ad2116979c72cb", "fusion_lon": 0.0, "fusion_lat": 0.0, "type": "electric_scooter", "lon": -77.01749633333333}, {"rental_uris": {"android": "https://dc.lft.to/lastmile_qr_scan", "ios": "https://dc.lft.to/lastmile_qr_scan"}, "is_reserved": 0, "is_disabled": 0, "bike_id": "498812f5577db92c3d043262f8b1ec30", "lat": 38.90620233333333, "name": "498812f5577db92c3d043262f8b1ec30", "fusion_lon": 0.0, "fusion_lat": 0.0, "type": "electric_scooter", "lon": -76.998601}, {"rental_uris": {"android": "https://dc.lft.to/lastmile_qr_scan", "ios": "https://dc.lft.to/lastmile_qr_scan"}, "is_reserved": 0, "is_disabled": 0, "bike_id": "3ed3a9c1a5a51fc8526e61b906cfe43f", "lat": 38.895026, "name": "3ed3a9c1a5a51fc8526e61b906cfe43f", "fusion_lon": 0.0, "fusion_lat": 0.0, "type": "electric_scooter", "lon": -76.94891416666667}, {"rental_uris": {"android": "https://dc.lft.to/lastmile_qr_scan", "ios": "https://dc.lft.to/lastmile_qr_scan"}, "is_reserved": 0, "is_disabled": 0, "bike_id": "883332b90385a9c8706eee32e08eccfd", "lat": 38.904222, "name": "883332b90385a9c8706eee32e08eccfd", "fusion_lon": 0.0, "fusion_lat": 0.0, "type": "electric_scooter", "lon": -77.0344415}, {"rental_uris": {"android": "https://dc.lft.to/lastmile_qr_scan", "ios": "https://dc.lft.to/lastmile_qr_scan"}, "is_reserved": 0, "is_disabled": 0, "bike_id": "b1b4213beba4cfb649fa0a72e01cddfb", "lat": 38.877799, "name": "b1b4213beba4cfb649fa0a72e01cddfb", "fusion_lon": 0.0, "fusion_lat": 0.0, "type": "electric_scooter", "lon": -76.99410416666667}, {"rental_uris": {"android": "https://dc.lft.to/lastmile_qr_scan", "ios": "https://dc.lft.to/lastmile_qr_scan"}, "is_reserved": 0, "is_disabled": 0, "bike_id": "1a584c2366e52cd619b856e407448263", "lat": 38.928094, "name": "1a584c2366e52cd619b856e407448263", "fusion_lon": 0.0, "fusion_lat": 0.0, "type": "electric_scooter", "lon": -77.03591733333333}, {"rental_uris": {"android": "https://dc.lft.to/lastmile_qr_scan", "ios": "https://dc.lft.to/lastmile_qr_scan"}, "is_reserved": 0, "is_disabled": 0, "bike_id": "474d1e3fa067a07568fe5cd69e4e5def", "lat": 38.891912166666664, "name": "474d1e3fa067a07568fe5cd69e4e5def", "fusion_lon": 0.0, "fusion_lat": 0.0, "type": "electric_scooter", "lon": -76.9938985}, {"rental_uris": {"android": "https://dc.lft.to/lastmile_qr_scan", "ios": "https://dc.lft.to/lastmile_qr_scan"}, "is_reserved": 0, "is_disabled": 0, "bike_id": "4fdbf218e0466e36dd15ba88fcbf7c00", "lat": 38.90675866666667, "name": "4fdbf218e0466e36dd15ba88fcbf7c00", "fusion_lon": 0.0, "fusion_lat": 0.0, "type": "electric_scooter", "lon": -77.03744516666667}, {"rental_uris": {"android": "https://dc.lft.to/lastmile_qr_scan", "ios": "https://dc.lft.to/lastmile_qr_scan"}, "is_reserved": 0, "is_disabled": 0, "bike_id": "11174370c6ff856a31c22818d87d264c", "lat": 38.89902283333333, "name": "11174370c6ff856a31c22818d87d264c", "fusion_lon": 0.0, "fusion_lat": 0.0, "type": "electric_scooter", "lon": -77.009065}, {"rental_uris": {"android": "https://dc.lft.to/lastmile_qr_scan", "ios": "https://dc.lft.to/lastmile_qr_scan"}, "is_reserved": 0, "is_disabled": 0, "bike_id": "1623b321fb8e9af2006025531f3329d3", "lat": 38.892176166666665, "name": "1623b321fb8e9af2006025531f3329d3", "fusion_lon": 0.0, "fusion_lat": 0.0, "type": "electric_scooter", "lon": -77.02235266666666}, {"rental_uris": {"android": "https://dc.lft.to/lastmile_qr_scan", "ios": "https://dc.lft.to/lastmile_qr_scan"}, "is_reserved": 0, "is_disabled": 0, "bike_id": "369b2ea5d98ef1822ccfafbb159564b8", "lat": 38.9074175, "name": "369b2ea5d98ef1822ccfafbb159564b8", "fusion_lon": 0.0, "fusion_lat": 0.0, "type": "electric_scooter", "lon": -77.041599}, {"rental_uris": {"android": "https://dc.lft.to/lastmile_qr_scan", "ios": "https://dc.lft.to/lastmile_qr_scan"}, "is_reserved": 0, "is_disabled": 0, "bike_id": "a4bcd142856f2ff734a9b7af0dfe775a", "lat": 38.90042483333333, "name": "a4bcd142856f2ff734a9b7af0dfe775a", "fusion_lon": 0.0, "fusion_lat": 0.0, "type": "electric_scooter", "lon": -76.98820433333333}, {"rental_uris": {"android": "https://dc.lft.to/lastmile_qr_scan", "ios": "https://dc.lft.to/lastmile_qr_scan"}, "is_reserved": 0, "is_disabled": 0, "bike_id": "de4a53f7f68798103f76ee221820fb27", "lat": 38.9539565, "name": "de4a53f7f68798103f76ee221820fb27", "fusion_lon": 0.0, "fusion_lat": 0.0, "type": "electric_scooter", "lon": -77.02784183333333}, {"rental_uris": {"android": "https://dc.lft.to/lastmile_qr_scan", "ios": "https://dc.lft.to/lastmile_qr_scan"}, "is_reserved": 0, "is_disabled": 0, "bike_id": "4431f98923cead943a5822e9a1fa4752", "lat": 38.90054766666667, "name": "4431f98923cead943a5822e9a1fa4752", "fusion_lon": 0.0, "fusion_lat": 0.0, "type": "electric_scooter", "lon": -77.0434995}, {"rental_uris": {"android": "https://dc.lft.to/lastmile_qr_scan", "ios": "https://dc.lft.to/lastmile_qr_scan"}, "is_reserved": 0, "is_disabled": 0, "bike_id": "c8614becf8432c6fb94e432b21fde887", "lat": 38.89629466666667, "name": "c8614becf8432c6fb94e432b21fde887", "fusion_lon": 0.0, "fusion_lat": 0.0, "type": "electric_scooter", "lon": -76.99949966666667}, {"rental_uris": {"android": "https://dc.lft.to/lastmile_qr_scan", "ios": "https://dc.lft.to/lastmile_qr_scan"}, "is_reserved": 0, "is_disabled": 0, "bike_id": "2cee7f0a069583d02fca9aa39d4ae4ad", "lat": 38.903679, "name": "2cee7f0a069583d02fca9aa39d4ae4ad", "fusion_lon": 0.0, "fusion_lat": 0.0, "type": "electric_scooter", "lon": -77.044961}, {"rental_uris": {"android": "https://dc.lft.to/lastmile_qr_scan", "ios": "https://dc.lft.to/lastmile_qr_scan"}, "is_reserved": 0, "is_disabled": 0, "bike_id": "27098acd9e60d9180079e84291f79d5e", "lat": 38.93632083333333, "name": "27098acd9e60d9180079e84291f79d5e", "fusion_lon": 0.0, "fusion_lat": 0.0, "type": "electric_scooter", "lon": -77.03265583333334}, {"rental_uris": {"android": "https://dc.lft.to/lastmile_qr_scan", "ios": "https://dc.lft.to/lastmile_qr_scan"}, "is_reserved": 0, "is_disabled": 0, "bike_id": "43a038a27cfad28c7c43d8422ef5e559", "lat": 38.903364, "name": "43a038a27cfad28c7c43d8422ef5e559", "fusion_lon": 0.0, "fusion_lat": 0.0, "type": "electric_scooter", "lon": -76.98269966666666}, {"rental_uris": {"android": "https://dc.lft.to/lastmile_qr_scan", "ios": "https://dc.lft.to/lastmile_qr_scan"}, "is_reserved": 0, "is_disabled": 0, "bike_id": "db93d6b6cbe599a633d18d02ef4769b3", "lat": 38.92611383333333, "name": "db93d6b6cbe599a633d18d02ef4769b3", "fusion_lon": 0.0, "fusion_lat": 0.0, "type": "electric_scooter", "lon": -77.0433625}, {"rental_uris": {"android": "https://dc.lft.to/lastmile_qr_scan", "ios": "https://dc.lft.to/lastmile_qr_scan"}, "is_reserved": 0, "is_disabled": 0, "bike_id": "de56658c558198fa173b4e73105e187f", "lat": 38.892204666666665, "name": "de56658c558198fa173b4e73105e187f", "fusion_lon": 0.0, "fusion_lat": 0.0, "type": "electric_scooter", "lon": -77.02769883333333}, {"rental_uris": {"android": "https://dc.lft.to/lastmile_qr_scan", "ios": "https://dc.lft.to/lastmile_qr_scan"}, "is_reserved": 0, "is_disabled": 0, "bike_id": "cb77afeab045e05219d6836c117c03fe", "lat": 38.899082, "name": "cb77afeab045e05219d6836c117c03fe", "fusion_lon": 0.0, "fusion_lat": 0.0, "type": "electric_scooter", "lon": -77.04035433333334}, {"rental_uris": {"android": "https://dc.lft.to/lastmile_qr_scan", "ios": "https://dc.lft.to/lastmile_qr_scan"}, "is_reserved": 0, "is_disabled": 0, "bike_id": "e7b6f5e62019a52eedb046d2280139e4", "lat": 38.9019, "name": "e7b6f5e62019a52eedb046d2280139e4", "fusion_lon": 0.0, "fusion_lat": 0.0, "type": "electric_scooter", "lon": -77.03349833333333}, {"rental_uris": {"android": "https://dc.lft.to/lastmile_qr_scan", "ios": "https://dc.lft.to/lastmile_qr_scan"}, "is_reserved": 0, "is_disabled": 0, "bike_id": "748ad86a9bef08725995e0117ca0af91", "lat": 38.9284365, "name": "748ad86a9bef08725995e0117ca0af91", "fusion_lon": 0.0, "fusion_lat": 0.0, "type": "electric_scooter", "lon": -77.03270116666667}, {"rental_uris": {"android": "https://dc.lft.to/lastmile_qr_scan", "ios": "https://dc.lft.to/lastmile_qr_scan"}, "is_reserved": 0, "is_disabled": 0, "bike_id": "926b61caabe308b13f4859582e61ee5d", "lat": 38.9170645, "name": "926b61caabe308b13f4859582e61ee5d", "fusion_lon": 0.0, "fusion_lat": 0.0, "type": "electric_scooter", "lon": -77.046036}, {"rental_uris": {"android": "https://dc.lft.to/lastmile_qr_scan", "ios": "https://dc.lft.to/lastmile_qr_scan"}, "is_reserved": 0, "is_disabled": 0, "bike_id": "ee9312003ea2f326823c98d13a508642", "lat": 38.9156065, "name": "ee9312003ea2f326823c98d13a508642", "fusion_lon": 0.0, "fusion_lat": 0.0, "type": "electric_scooter", "lon": -77.01986416666666}, {"rental_uris": {"android": "https://dc.lft.to/lastmile_qr_scan", "ios": "https://dc.lft.to/lastmile_qr_scan"}, "is_reserved": 0, "is_disabled": 0, "bike_id": "bb956d7c4902fc4c639d116d3657b841", "lat": 38.909645166666664, "name": "bb956d7c4902fc4c639d116d3657b841", "fusion_lon": 0.0, "fusion_lat": 0.0, "type": "electric_scooter", "lon": -77.03865466666667}, {"rental_uris": {"android": "https://dc.lft.to/lastmile_qr_scan", "ios": "https://dc.lft.to/lastmile_qr_scan"}, "is_reserved": 0, "is_disabled": 0, "bike_id": "20ebc4fe56ce471cab9d1e1ffb9d5b21", "lat": 38.917431666666666, "name": "20ebc4fe56ce471cab9d1e1ffb9d5b21", "fusion_lon": 0.0, "fusion_lat": 0.0, "type": "electric_scooter", "lon": -77.031851}, {"rental_uris": {"android": "https://dc.lft.to/lastmile_qr_scan", "ios": "https://dc.lft.to/lastmile_qr_scan"}, "is_reserved": 0, "is_disabled": 0, "bike_id": "7a064a62c0b85377b44efeeaf2b05f55", "lat": 38.86623916666667, "name": "7a064a62c0b85377b44efeeaf2b05f55", "fusion_lon": 0.0, "fusion_lat": 0.0, "type": "electric_scooter", "lon": -76.98718833333334}, {"rental_uris": {"android": "https://dc.lft.to/lastmile_qr_scan", "ios": "https://dc.lft.to/lastmile_qr_scan"}, "is_reserved": 0, "is_disabled": 0, "bike_id": "def36fd1ad493a29612b618dede02450", "lat": 38.89941866666667, "name": "def36fd1ad493a29612b618dede02450", "fusion_lon": 0.0, "fusion_lat": 0.0, "type": "electric_scooter", "lon": -77.04893033333333}, {"rental_uris": {"android": "https://dc.lft.to/lastmile_qr_scan", "ios": "https://dc.lft.to/lastmile_qr_scan"}, "is_reserved": 0, "is_disabled": 0, "bike_id": "5727ad0c0a45860f951b088fdb935300", "lat": 38.893490166666666, "name": "5727ad0c0a45860f951b088fdb935300", "fusion_lon": 0.0, "fusion_lat": 0.0, "type": "electric_scooter", "lon": -76.94926416666667}, {"rental_uris": {"android": "https://dc.lft.to/lastmile_qr_scan", "ios": "https://dc.lft.to/lastmile_qr_scan"}, "is_reserved": 0, "is_disabled": 0, "bike_id": "5ca3db9e6b35cc1c560078c317357e14", "lat": 38.92918066666667, "name": "5ca3db9e6b35cc1c560078c317357e14", "fusion_lon": 0.0, "fusion_lat": 0.0, "type": "electric_scooter", "lon": -77.05465516666666}, {"rental_uris": {"android": "https://dc.lft.to/lastmile_qr_scan", "ios": "https://dc.lft.to/lastmile_qr_scan"}, "is_reserved": 0, "is_disabled": 0, "bike_id": "fef2f1103bbb03cbefe77cbca0f36238", "lat": 38.908504, "name": "fef2f1103bbb03cbefe77cbca0f36238", "fusion_lon": 0.0, "fusion_lat": 0.0, "type": "electric_scooter", "lon": -77.02530366666667}, {"rental_uris": {"android": "https://dc.lft.to/lastmile_qr_scan", "ios": "https://dc.lft.to/lastmile_qr_scan"}, "is_reserved": 0, "is_disabled": 0, "bike_id": "284d52f1a9cd1e9de03599c82e987b97", "lat": 38.892247166666664, "name": "284d52f1a9cd1e9de03599c82e987b97", "fusion_lon": 0.0, "fusion_lat": 0.0, "type": "electric_scooter", "lon": -77.02516983333334}, {"rental_uris": {"android": "https://dc.lft.to/lastmile_qr_scan", "ios": "https://dc.lft.to/lastmile_qr_scan"}, "is_reserved": 0, "is_disabled": 0, "bike_id": "f7f5cfce7d182b5cb2a282c774933b42", "lat": 38.8070835, "name": "f7f5cfce7d182b5cb2a282c774933b42", "fusion_lon": 0.0, "fusion_lat": 0.0, "type": "electric_bike", "lon": -77.0617175}, {"rental_uris": {"android": "https://dc.lft.to/lastmile_qr_scan", "ios": "https://dc.lft.to/lastmile_qr_scan"}, "is_reserved": 0, "is_disabled": 0, "bike_id": "6719d64e2c13b72002304e27e618c692", "lat": 38.9235425, "name": "6719d64e2c13b72002304e27e618c692", "fusion_lon": 0.0, "fusion_lat": 0.0, "type": "electric_scooter", "lon": -77.01919816666667}, {"rental_uris": {"android": "https://dc.lft.to/lastmile_qr_scan", "ios": "https://dc.lft.to/lastmile_qr_scan"}, "is_reserved": 0, "is_disabled": 0, "bike_id": "9fea04276c7862e6502d178c84cc7cfe", "lat": 38.99938916666667, "name": "9fea04276c7862e6502d178c84cc7cfe", "fusion_lon": 0.0, "fusion_lat": 0.0, "type": "electric_bike", "lon": -77.07430983333333}, {"rental_uris": {"android": "https://dc.lft.to/lastmile_qr_scan", "ios": "https://dc.lft.to/lastmile_qr_scan"}, "is_reserved": 0, "is_disabled": 0, "bike_id": "bbe374a2bece0d387dbd8e363efc77e0", "lat": 38.931068833333335, "name": "bbe374a2bece0d387dbd8e363efc77e0", "fusion_lon": 0.0, "fusion_lat": 0.0, "type": "electric_scooter", "lon": -77.0380195}, {"rental_uris": {"android": "https://dc.lft.to/lastmile_qr_scan", "ios": "https://dc.lft.to/lastmile_qr_scan"}, "is_reserved": 0, "is_disabled": 0, "bike_id": "ee2b1982f79d93237f149ee6943aaea6", "lat": 38.907237, "name": "ee2b1982f79d93237f149ee6943aaea6", "fusion_lon": 0.0, "fusion_lat": 0.0, "type": "electric_scooter", "lon": -77.0359755}, {"rental_uris": {"android": "https://dc.lft.to/lastmile_qr_scan", "ios": "https://dc.lft.to/lastmile_qr_scan"}, "is_reserved": 0, "is_disabled": 0, "bike_id": "b3638e5c297c8274264eaac507cfbe51", "lat": 38.892203, "name": "b3638e5c297c8274264eaac507cfbe51", "fusion_lon": 0.0, "fusion_lat": 0.0, "type": "electric_scooter", "lon": -77.03218966666667}, {"rental_uris": {"android": "https://dc.lft.to/lastmile_qr_scan", "ios": "https://dc.lft.to/lastmile_qr_scan"}, "is_reserved": 0, "is_disabled": 0, "bike_id": "735df3c27983787d788092606750b9c6", "lat": 38.904105, "name": "735df3c27983787d788092606750b9c6", "fusion_lon": 0.0, "fusion_lat": 0.0, "type": "electric_scooter", "lon": -77.0059665}, {"rental_uris": {"android": "https://dc.lft.to/lastmile_qr_scan", "ios": "https://dc.lft.to/lastmile_qr_scan"}, "is_reserved": 0, "is_disabled": 0, "bike_id": "4865fc57a400225554e87366133ef8f2", "lat": 38.85320216666667, "name": "4865fc57a400225554e87366133ef8f2", "fusion_lon": 0.0, "fusion_lat": 0.0, "type": "electric_bike", "lon": -76.980201}, {"rental_uris": {"android": "https://dc.lft.to/lastmile_qr_scan", "ios": "https://dc.lft.to/lastmile_qr_scan"}, "is_reserved": 0, "is_disabled": 0, "bike_id": "72c7eacdbca11074211c0ba0b2bef0aa", "lat": 38.895028, "name": "72c7eacdbca11074211c0ba0b2bef0aa", "fusion_lon": 0.0, "fusion_lat": 0.0, "type": "electric_scooter", "lon": -76.9488825}, {"rental_uris": {"android": "https://dc.lft.to/lastmile_qr_scan", "ios": "https://dc.lft.to/lastmile_qr_scan"}, "is_reserved": 0, "is_disabled": 0, "bike_id": "b896709b7d02683ed39d2003d424dc3a", "lat": 38.9030005, "name": "b896709b7d02683ed39d2003d424dc3a", "fusion_lon": 0.0, "fusion_lat": 0.0, "type": "electric_scooter", "lon": -77.043274}, {"rental_uris": {"android": "https://dc.lft.to/lastmile_qr_scan", "ios": "https://dc.lft.to/lastmile_qr_scan"}, "is_reserved": 0, "is_disabled": 0, "bike_id": "5969e71dbe85473cd7170d810f371954", "lat": 38.92454683333333, "name": "5969e71dbe85473cd7170d810f371954", "fusion_lon": 0.0, "fusion_lat": 0.0, "type": "electric_scooter", "lon": -77.052286}, {"rental_uris": {"android": "https://dc.lft.to/lastmile_qr_scan", "ios": "https://dc.lft.to/lastmile_qr_scan"}, "is_reserved": 0, "is_disabled": 0, "bike_id": "33628376a1c2946b568870d671144c5f", "lat": 38.915102833333336, "name": "33628376a1c2946b568870d671144c5f", "fusion_lon": 0.0, "fusion_lat": 0.0, "type": "electric_scooter", "lon": -77.02187516666666}, {"rental_uris": {"android": "https://dc.lft.to/lastmile_qr_scan", "ios": "https://dc.lft.to/lastmile_qr_scan"}, "is_reserved": 0, "is_disabled": 0, "bike_id": "27dca28f4ad09a4f618d5fcc931d69bb", "lat": 38.895651666666666, "name": "27dca28f4ad09a4f618d5fcc931d69bb", "fusion_lon": 0.0, "fusion_lat": 0.0, "type": "electric_scooter", "lon": -77.02181166666666}, {"rental_uris": {"android": "https://dc.lft.to/lastmile_qr_scan", "ios": "https://dc.lft.to/lastmile_qr_scan"}, "is_reserved": 0, "is_disabled": 0, "bike_id": "62d71eca230c2a40651b57be5ee9ab2d", "lat": 38.881306333333335, "name": "62d71eca230c2a40651b57be5ee9ab2d", "fusion_lon": 0.0, "fusion_lat": 0.0, "type": "electric_bike", "lon": -77.000426}, {"rental_uris": {"android": "https://dc.lft.to/lastmile_qr_scan", "ios": "https://dc.lft.to/lastmile_qr_scan"}, "is_reserved": 0, "is_disabled": 0, "bike_id": "9fe8917bee9a8e2a45c304834d4dc430", "lat": 38.917430333333336, "name": "9fe8917bee9a8e2a45c304834d4dc430", "fusion_lon": 0.0, "fusion_lat": 0.0, "type": "electric_scooter", "lon": -77.03194416666666}, {"rental_uris": {"android": "https://dc.lft.to/lastmile_qr_scan", "ios": "https://dc.lft.to/lastmile_qr_scan"}, "is_reserved": 0, "is_disabled": 0, "bike_id": "b91c251e24155897398891cda6a2b909", "lat": 38.9035515, "name": "b91c251e24155897398891cda6a2b909", "fusion_lon": 0.0, "fusion_lat": 0.0, "type": "electric_scooter", "lon": -77.0320145}, {"rental_uris": {"android": "https://dc.lft.to/lastmile_qr_scan", "ios": "https://dc.lft.to/lastmile_qr_scan"}, "is_reserved": 0, "is_disabled": 0, "bike_id": "eb59b5ac42e08cc16a88b5726c2d4c3d", "lat": 38.903172166666664, "name": "eb59b5ac42e08cc16a88b5726c2d4c3d", "fusion_lon": 0.0, "fusion_lat": 0.0, "type": "electric_scooter", "lon": -77.05156466666666}, {"rental_uris": {"android": "https://dc.lft.to/lastmile_qr_scan", "ios": "https://dc.lft.to/lastmile_qr_scan"}, "is_reserved": 0, "is_disabled": 0, "bike_id": "572618d8189671cacb1f544bdf7f1758", "lat": 38.963071, "name": "572618d8189671cacb1f544bdf7f1758", "fusion_lon": 0.0, "fusion_lat": 0.0, "type": "electric_bike", "lon": -77.011041}, {"rental_uris": {"android": "https://dc.lft.to/lastmile_qr_scan", "ios": "https://dc.lft.to/lastmile_qr_scan"}, "is_reserved": 0, "is_disabled": 0, "bike_id": "cea0f29d9f6641a73b56c7b1d0b93452", "lat": 38.921474, "name": "cea0f29d9f6641a73b56c7b1d0b93452", "fusion_lon": 0.0, "fusion_lat": 0.0, "type": "electric_scooter", "lon": -77.02422566666667}, {"rental_uris": {"android": "https://dc.lft.to/lastmile_qr_scan", "ios": "https://dc.lft.to/lastmile_qr_scan"}, "is_reserved": 0, "is_disabled": 0, "bike_id": "28160b8097e03fda7f4695304f1ff187", "lat": 38.897264666666665, "name": "28160b8097e03fda7f4695304f1ff187", "fusion_lon": 0.0, "fusion_lat": 0.0, "type": "electric_scooter", "lon": -77.03214733333333}, {"rental_uris": {"android": "https://dc.lft.to/lastmile_qr_scan", "ios": "https://dc.lft.to/lastmile_qr_scan"}, "is_reserved": 0, "is_disabled": 0, "bike_id": "16384d9d8b4cfc440183146d7bc63c64", "lat": 38.88766616666667, "name": "16384d9d8b4cfc440183146d7bc63c64", "fusion_lon": 0.0, "fusion_lat": 0.0, "type": "electric_scooter", "lon": -77.02845516666666}, {"rental_uris": {"android": "https://dc.lft.to/lastmile_qr_scan", "ios": "https://dc.lft.to/lastmile_qr_scan"}, "is_reserved": 0, "is_disabled": 0, "bike_id": "25de5528505d1797146ef16116c69d56", "lat": 38.88617133333333, "name": "25de5528505d1797146ef16116c69d56", "fusion_lon": 0.0, "fusion_lat": 0.0, "type": "electric_scooter", "lon": -76.955878}, {"rental_uris": {"android": "https://dc.lft.to/lastmile_qr_scan", "ios": "https://dc.lft.to/lastmile_qr_scan"}, "is_reserved": 0, "is_disabled": 0, "bike_id": "82d58954c3562423099f53c66ab50058", "lat": 38.89724233333333, "name": "82d58954c3562423099f53c66ab50058", "fusion_lon": 0.0, "fusion_lat": 0.0, "type": "electric_scooter", "lon": -77.031643}, {"rental_uris": {"android": "https://dc.lft.to/lastmile_qr_scan", "ios": "https://dc.lft.to/lastmile_qr_scan"}, "is_reserved": 0, "is_disabled": 0, "bike_id": "4688db8fd0921f33ae372c641b07a4ac", "lat": 38.90003216666667, "name": "4688db8fd0921f33ae372c641b07a4ac", "fusion_lon": 0.0, "fusion_lat": 0.0, "type": "electric_scooter", "lon": -77.00552516666667}, {"rental_uris": {"android": "https://dc.lft.to/lastmile_qr_scan", "ios": "https://dc.lft.to/lastmile_qr_scan"}, "is_reserved": 0, "is_disabled": 0, "bike_id": "361302d2b51a5b09dc294af5f1b569b6", "lat": 38.876395333333335, "name": "361302d2b51a5b09dc294af5f1b569b6", "fusion_lon": 0.0, "fusion_lat": 0.0, "type": "electric_scooter", "lon": -77.0037625}, {"rental_uris": {"android": "https://dc.lft.to/lastmile_qr_scan", "ios": "https://dc.lft.to/lastmile_qr_scan"}, "is_reserved": 0, "is_disabled": 0, "bike_id": "ced801d60b94d83242c8f38ea7d6726c", "lat": 38.866922833333334, "name": "ced801d60b94d83242c8f38ea7d6726c", "fusion_lon": 0.0, "fusion_lat": 0.0, "type": "electric_scooter", "lon": -76.98598583333333}, {"rental_uris": {"android": "https://dc.lft.to/lastmile_qr_scan", "ios": "https://dc.lft.to/lastmile_qr_scan"}, "is_reserved": 0, "is_disabled": 0, "bike_id": "1727f79f1c5c642fa1adb8767898a914", "lat": 38.91238, "name": "1727f79f1c5c642fa1adb8767898a914", "fusion_lon": 0.0, "fusion_lat": 0.0, "type": "electric_scooter", "lon": -77.04487133333333}, {"rental_uris": {"android": "https://dc.lft.to/lastmile_qr_scan", "ios": "https://dc.lft.to/lastmile_qr_scan"}, "is_reserved": 0, "is_disabled": 0, "bike_id": "837a9fe66f482e52a33b02c68a5ea5f2", "lat": 38.9038265, "name": "837a9fe66f482e52a33b02c68a5ea5f2", "fusion_lon": 0.0, "fusion_lat": 0.0, "type": "electric_scooter", "lon": -77.04456533333334}, {"rental_uris": {"android": "https://dc.lft.to/lastmile_qr_scan", "ios": "https://dc.lft.to/lastmile_qr_scan"}, "is_reserved": 0, "is_disabled": 0, "bike_id": "e7c84d1b0b0769cc1c1536f1800c10f8", "lat": 38.84420933333333, "name": "e7c84d1b0b0769cc1c1536f1800c10f8", "fusion_lon": 0.0, "fusion_lat": 0.0, "type": "electric_scooter", "lon": -76.9977975}, {"rental_uris": {"android": "https://dc.lft.to/lastmile_qr_scan", "ios": "https://dc.lft.to/lastmile_qr_scan"}, "is_reserved": 0, "is_disabled": 0, "bike_id": "ed023cb5bdf94a9c0227a9e32b7f6d8b", "lat": 38.89732, "name": "ed023cb5bdf94a9c0227a9e32b7f6d8b", "fusion_lon": 0.0, "fusion_lat": 0.0, "type": "electric_scooter", "lon": -76.94731216666666}, {"rental_uris": {"android": "https://dc.lft.to/lastmile_qr_scan", "ios": "https://dc.lft.to/lastmile_qr_scan"}, "is_reserved": 0, "is_disabled": 0, "bike_id": "3da4ed7c5ed138a36545551bdda739fb", "lat": 38.92049883333333, "name": "3da4ed7c5ed138a36545551bdda739fb", "fusion_lon": 0.0, "fusion_lat": 0.0, "type": "electric_scooter", "lon": -77.04187283333333}, {"rental_uris": {"android": "https://dc.lft.to/lastmile_qr_scan", "ios": "https://dc.lft.to/lastmile_qr_scan"}, "is_reserved": 0, "is_disabled": 0, "bike_id": "37264dd6ce14ccf39eca9111e0f446d3", "lat": 38.918233666666666, "name": "37264dd6ce14ccf39eca9111e0f446d3", "fusion_lon": 0.0, "fusion_lat": 0.0, "type": "electric_scooter", "lon": -77.034451}, {"rental_uris": {"android": "https://dc.lft.to/lastmile_qr_scan", "ios": "https://dc.lft.to/lastmile_qr_scan"}, "is_reserved": 0, "is_disabled": 0, "bike_id": "7bfb5c114c0b9a92c9d13fce3c2fd06a", "lat": 38.91700183333333, "name": "7bfb5c114c0b9a92c9d13fce3c2fd06a", "fusion_lon": 0.0, "fusion_lat": 0.0, "type": "electric_scooter", "lon": -77.03860733333333}, {"rental_uris": {"android": "https://dc.lft.to/lastmile_qr_scan", "ios": "https://dc.lft.to/lastmile_qr_scan"}, "is_reserved": 0, "is_disabled": 0, "bike_id": "d27c33bb6a4959c7344cb836e3248391", "lat": 38.932619, "name": "d27c33bb6a4959c7344cb836e3248391", "fusion_lon": 0.0, "fusion_lat": 0.0, "type": "electric_scooter", "lon": -77.02100383333334}, {"rental_uris": {"android": "https://dc.lft.to/lastmile_qr_scan", "ios": "https://dc.lft.to/lastmile_qr_scan"}, "is_reserved": 0, "is_disabled": 0, "bike_id": "43e22b41b246bfabc87875fc64e55369", "lat": 38.910961, "name": "43e22b41b246bfabc87875fc64e55369", "fusion_lon": 0.0, "fusion_lat": 0.0, "type": "electric_scooter", "lon": -77.04666633333333}, {"rental_uris": {"android": "https://dc.lft.to/lastmile_qr_scan", "ios": "https://dc.lft.to/lastmile_qr_scan"}, "is_reserved": 0, "is_disabled": 0, "bike_id": "eff6271e7c2ba52c596ad620b72a66d1", "lat": 38.87105733333333, "name": "eff6271e7c2ba52c596ad620b72a66d1", "fusion_lon": 0.0, "fusion_lat": 0.0, "type": "electric_scooter", "lon": -77.00761}, {"rental_uris": {"android": "https://dc.lft.to/lastmile_qr_scan", "ios": "https://dc.lft.to/lastmile_qr_scan"}, "is_reserved": 0, "is_disabled": 0, "bike_id": "b0a1fe2793bce8b9a550f65d7247af56", "lat": 38.919953666666665, "name": "b0a1fe2793bce8b9a550f65d7247af56", "fusion_lon": 0.0, "fusion_lat": 0.0, "type": "electric_scooter", "lon": -77.02527133333334}, {"rental_uris": {"android": "https://dc.lft.to/lastmile_qr_scan", "ios": "https://dc.lft.to/lastmile_qr_scan"}, "is_reserved": 0, "is_disabled": 0, "bike_id": "9bdaa78962b52692a768535fadec0d61", "lat": 38.879291333333335, "name": "9bdaa78962b52692a768535fadec0d61", "fusion_lon": 0.0, "fusion_lat": 0.0, "type": "electric_scooter", "lon": -77.0146915}, {"rental_uris": {"android": "https://dc.lft.to/lastmile_qr_scan", "ios": "https://dc.lft.to/lastmile_qr_scan"}, "is_reserved": 0, "is_disabled": 0, "bike_id": "5284c03e803f8c2d2ed5909e7a13c6ef", "lat": 38.914355666666665, "name": "5284c03e803f8c2d2ed5909e7a13c6ef", "fusion_lon": 0.0, "fusion_lat": 0.0, "type": "electric_scooter", "lon": -77.02200366666666}, {"rental_uris": {"android": "https://dc.lft.to/lastmile_qr_scan", "ios": "https://dc.lft.to/lastmile_qr_scan"}, "is_reserved": 0, "is_disabled": 0, "bike_id": "fcb3768520f656574a765e6350800c02", "lat": 38.892741666666666, "name": "fcb3768520f656574a765e6350800c02", "fusion_lon": 0.0, "fusion_lat": 0.0, "type": "electric_scooter", "lon": -77.05045}, {"rental_uris": {"android": "https://dc.lft.to/lastmile_qr_scan", "ios": "https://dc.lft.to/lastmile_qr_scan"}, "is_reserved": 0, "is_disabled": 0, "bike_id": "93d033e58dabeb124b689d5301aef01a", "lat": 38.94292016666667, "name": "93d033e58dabeb124b689d5301aef01a", "fusion_lon": 0.0, "fusion_lat": 0.0, "type": "electric_scooter", "lon": -77.0216925}, {"rental_uris": {"android": "https://dc.lft.to/lastmile_qr_scan", "ios": "https://dc.lft.to/lastmile_qr_scan"}, "is_reserved": 0, "is_disabled": 0, "bike_id": "20c5bed926ea3aca53eaec843e29ed7c", "lat": 38.974936166666666, "name": "20c5bed926ea3aca53eaec843e29ed7c", "fusion_lon": 0.0, "fusion_lat": 0.0, "type": "electric_scooter", "lon": -77.0168115}, {"rental_uris": {"android": "https://dc.lft.to/lastmile_qr_scan", "ios": "https://dc.lft.to/lastmile_qr_scan"}, "is_reserved": 0, "is_disabled": 0, "bike_id": "1b213f02ecd243fe3e32674f46882bd8", "lat": 38.93599833333333, "name": "1b213f02ecd243fe3e32674f46882bd8", "fusion_lon": 0.0, "fusion_lat": 0.0, "type": "electric_scooter", "lon": -77.02336233333334}, {"rental_uris": {"android": "https://dc.lft.to/lastmile_qr_scan", "ios": "https://dc.lft.to/lastmile_qr_scan"}, "is_reserved": 0, "is_disabled": 0, "bike_id": "1da2f98ba9bd454a9c3f0ea95dff4ea5", "lat": 38.89213516666667, "name": "1da2f98ba9bd454a9c3f0ea95dff4ea5", "fusion_lon": 0.0, "fusion_lat": 0.0, "type": "electric_scooter", "lon": -77.02620783333333}, {"rental_uris": {"android": "https://dc.lft.to/lastmile_qr_scan", "ios": "https://dc.lft.to/lastmile_qr_scan"}, "is_reserved": 0, "is_disabled": 0, "bike_id": "365643a568301b970752d65a6b57f8fd", "lat": 38.90777933333333, "name": "365643a568301b970752d65a6b57f8fd", "fusion_lon": 0.0, "fusion_lat": 0.0, "type": "electric_scooter", "lon": -77.0375205}, {"rental_uris": {"android": "https://dc.lft.to/lastmile_qr_scan", "ios": "https://dc.lft.to/lastmile_qr_scan"}, "is_reserved": 0, "is_disabled": 0, "bike_id": "c916157a17248e6ea7b2a0133645a3fb", "lat": 39.014705, "name": "c916157a17248e6ea7b2a0133645a3fb", "fusion_lon": 0.0, "fusion_lat": 0.0, "type": "electric_bike", "lon": -77.054944}, {"rental_uris": {"android": "https://dc.lft.to/lastmile_qr_scan", "ios": "https://dc.lft.to/lastmile_qr_scan"}, "is_reserved": 0, "is_disabled": 0, "bike_id": "98e6e674ed55d75d37395224064122ed", "lat": 38.877073, "name": "98e6e674ed55d75d37395224064122ed", "fusion_lon": 0.0, "fusion_lat": 0.0, "type": "electric_scooter", "lon": -77.01634683333333}, {"rental_uris": {"android": "https://dc.lft.to/lastmile_qr_scan", "ios": "https://dc.lft.to/lastmile_qr_scan"}, "is_reserved": 0, "is_disabled": 0, "bike_id": "bb91ae98a5cc28f072ff100451022d49", "lat": 38.90428, "name": "bb91ae98a5cc28f072ff100451022d49", "fusion_lon": 0.0, "fusion_lat": 0.0, "type": "electric_scooter", "lon": -77.046542}, {"rental_uris": {"android": "https://dc.lft.to/lastmile_qr_scan", "ios": "https://dc.lft.to/lastmile_qr_scan"}, "is_reserved": 0, "is_disabled": 0, "bike_id": "8e4283c8f45eb36ecfa6634de02bc587", "lat": 38.907181, "name": "8e4283c8f45eb36ecfa6634de02bc587", "fusion_lon": 0.0, "fusion_lat": 0.0, "type": "electric_scooter", "lon": -77.0338615}, {"rental_uris": {"android": "https://dc.lft.to/lastmile_qr_scan", "ios": "https://dc.lft.to/lastmile_qr_scan"}, "is_reserved": 0, "is_disabled": 0, "bike_id": "1e4fd75b0c25fa3fd2a2271be6786507", "lat": 38.932582833333335, "name": "1e4fd75b0c25fa3fd2a2271be6786507", "fusion_lon": 0.0, "fusion_lat": 0.0, "type": "electric_scooter", "lon": -77.0326295}, {"rental_uris": {"android": "https://dc.lft.to/lastmile_qr_scan", "ios": "https://dc.lft.to/lastmile_qr_scan"}, "is_reserved": 0, "is_disabled": 0, "bike_id": "1c463f9414bcd3b9e9c02ca4f3a37522", "lat": 38.9227245, "name": "1c463f9414bcd3b9e9c02ca4f3a37522", "fusion_lon": 0.0, "fusion_lat": 0.0, "type": "electric_scooter", "lon": -77.0363985}, {"rental_uris": {"android": "https://dc.lft.to/lastmile_qr_scan", "ios": "https://dc.lft.to/lastmile_qr_scan"}, "is_reserved": 0, "is_disabled": 0, "bike_id": "36fd044a703dc19a045b3b50caf668ac", "lat": 38.892188833333336, "name": "36fd044a703dc19a045b3b50caf668ac", "fusion_lon": 0.0, "fusion_lat": 0.0, "type": "electric_scooter", "lon": -77.027628}, {"rental_uris": {"android": "https://dc.lft.to/lastmile_qr_scan", "ios": "https://dc.lft.to/lastmile_qr_scan"}, "is_reserved": 0, "is_disabled": 0, "bike_id": "f31daf35765ab39a38d214806ce85b6e", "lat": 38.9340735, "name": "f31daf35765ab39a38d214806ce85b6e", "fusion_lon": 0.0, "fusion_lat": 0.0, "type": "electric_scooter", "lon": -77.0284125}, {"rental_uris": {"android": "https://dc.lft.to/lastmile_qr_scan", "ios": "https://dc.lft.to/lastmile_qr_scan"}, "is_reserved": 0, "is_disabled": 0, "bike_id": "88916f25257e1ce7641df9b4d9b65329", "lat": 38.891943, "name": "88916f25257e1ce7641df9b4d9b65329", "fusion_lon": 0.0, "fusion_lat": 0.0, "type": "electric_scooter", "lon": -76.9985785}, {"rental_uris": {"android": "https://dc.lft.to/lastmile_qr_scan", "ios": "https://dc.lft.to/lastmile_qr_scan"}, "is_reserved": 0, "is_disabled": 0, "bike_id": "c108b424285ff4c36a820274e85d95f0", "lat": 38.967353333333335, "name": "c108b424285ff4c36a820274e85d95f0", "fusion_lon": 0.0, "fusion_lat": 0.0, "type": "electric_bike", "lon": -76.98193783333333}, {"rental_uris": {"android": "https://dc.lft.to/lastmile_qr_scan", "ios": "https://dc.lft.to/lastmile_qr_scan"}, "is_reserved": 0, "is_disabled": 0, "bike_id": "179f6ba2943a64f7cd36a1a6693e95ad", "lat": 38.90167733333333, "name": "179f6ba2943a64f7cd36a1a6693e95ad", "fusion_lon": 0.0, "fusion_lat": 0.0, "type": "electric_scooter", "lon": -77.02477533333334}, {"rental_uris": {"android": "https://dc.lft.to/lastmile_qr_scan", "ios": "https://dc.lft.to/lastmile_qr_scan"}, "is_reserved": 0, "is_disabled": 0, "bike_id": "60a8fce7450a578d2c4e9288f6b71af2", "lat": 38.878097833333335, "name": "60a8fce7450a578d2c4e9288f6b71af2", "fusion_lon": 0.0, "fusion_lat": 0.0, "type": "electric_scooter", "lon": -77.01345016666667}, {"rental_uris": {"android": "https://dc.lft.to/lastmile_qr_scan", "ios": "https://dc.lft.to/lastmile_qr_scan"}, "is_reserved": 0, "is_disabled": 0, "bike_id": "3d55942571ab13ff7e6f1b8745d9f2e0", "lat": 38.89197, "name": "3d55942571ab13ff7e6f1b8745d9f2e0", "fusion_lon": 0.0, "fusion_lat": 0.0, "type": "electric_scooter", "lon": -77.02776116666666}, {"rental_uris": {"android": "https://dc.lft.to/lastmile_qr_scan", "ios": "https://dc.lft.to/lastmile_qr_scan"}, "is_reserved": 0, "is_disabled": 0, "bike_id": "7c62daf5b4e3f6fce5a27d38186729df", "lat": 38.90780016666667, "name": "7c62daf5b4e3f6fce5a27d38186729df", "fusion_lon": 0.0, "fusion_lat": 0.0, "type": "electric_scooter", "lon": -77.02286283333333}, {"rental_uris": {"android": "https://dc.lft.to/lastmile_qr_scan", "ios": "https://dc.lft.to/lastmile_qr_scan"}, "is_reserved": 0, "is_disabled": 0, "bike_id": "cc7352f94de906adccdae40da2b00da0", "lat": 38.923640166666665, "name": "cc7352f94de906adccdae40da2b00da0", "fusion_lon": 0.0, "fusion_lat": 0.0, "type": "electric_scooter", "lon": -77.0512925}, {"rental_uris": {"android": "https://dc.lft.to/lastmile_qr_scan", "ios": "https://dc.lft.to/lastmile_qr_scan"}, "is_reserved": 0, "is_disabled": 0, "bike_id": "712fa360f4e79668373429bfa158cdbd", "lat": 38.908148, "name": "712fa360f4e79668373429bfa158cdbd", "fusion_lon": 0.0, "fusion_lat": 0.0, "type": "electric_scooter", "lon": -77.04340966666666}, {"rental_uris": {"android": "https://dc.lft.to/lastmile_qr_scan", "ios": "https://dc.lft.to/lastmile_qr_scan"}, "is_reserved": 0, "is_disabled": 0, "bike_id": "1339b9d247e1e2b047a609536fbd819c", "lat": 38.9535375, "name": "1339b9d247e1e2b047a609536fbd819c", "fusion_lon": 0.0, "fusion_lat": 0.0, "type": "electric_bike", "lon": -76.98092116666666}, {"rental_uris": {"android": "https://dc.lft.to/lastmile_qr_scan", "ios": "https://dc.lft.to/lastmile_qr_scan"}, "is_reserved": 0, "is_disabled": 0, "bike_id": "f7b004529943c7f42dad8684f1a297d8", "lat": 38.8969125, "name": "f7b004529943c7f42dad8684f1a297d8", "fusion_lon": 0.0, "fusion_lat": 0.0, "type": "electric_scooter", "lon": -77.02183816666667}, {"rental_uris": {"android": "https://dc.lft.to/lastmile_qr_scan", "ios": "https://dc.lft.to/lastmile_qr_scan"}, "is_reserved": 0, "is_disabled": 0, "bike_id": "6e34dcd72d976fec012519e022cb41f3", "lat": 38.933783, "name": "6e34dcd72d976fec012519e022cb41f3", "fusion_lon": 0.0, "fusion_lat": 0.0, "type": "electric_scooter", "lon": -77.03554566666666}, {"rental_uris": {"android": "https://dc.lft.to/lastmile_qr_scan", "ios": "https://dc.lft.to/lastmile_qr_scan"}, "is_reserved": 0, "is_disabled": 0, "bike_id": "3be6de58b2427b8ed684f21b1e12d891", "lat": 38.90718733333333, "name": "3be6de58b2427b8ed684f21b1e12d891", "fusion_lon": 0.0, "fusion_lat": 0.0, "type": "electric_scooter", "lon": -76.97859633333333}, {"rental_uris": {"android": "https://dc.lft.to/lastmile_qr_scan", "ios": "https://dc.lft.to/lastmile_qr_scan"}, "is_reserved": 0, "is_disabled": 0, "bike_id": "c35bce39b59979dc4436a1d6c393be74", "lat": 38.92900916666667, "name": "c35bce39b59979dc4436a1d6c393be74", "fusion_lon": 0.0, "fusion_lat": 0.0, "type": "electric_scooter", "lon": -77.05461516666666}, {"rental_uris": {"android": "https://dc.lft.to/lastmile_qr_scan", "ios": "https://dc.lft.to/lastmile_qr_scan"}, "is_reserved": 0, "is_disabled": 0, "bike_id": "281e3285cf93c6bd87e092330c6e410e", "lat": 38.8842695, "name": "281e3285cf93c6bd87e092330c6e410e", "fusion_lon": 0.0, "fusion_lat": 0.0, "type": "electric_scooter", "lon": -76.95760233333333}, {"rental_uris": {"android": "https://dc.lft.to/lastmile_qr_scan", "ios": "https://dc.lft.to/lastmile_qr_scan"}, "is_reserved": 0, "is_disabled": 0, "bike_id": "349b7df6f47b38a4db5b607d0e98c489", "lat": 38.93244133333334, "name": "349b7df6f47b38a4db5b607d0e98c489", "fusion_lon": 0.0, "fusion_lat": 0.0, "type": "electric_scooter", "lon": -77.032673}, {"rental_uris": {"android": "https://dc.lft.to/lastmile_qr_scan", "ios": "https://dc.lft.to/lastmile_qr_scan"}, "is_reserved": 0, "is_disabled": 0, "bike_id": "e87cc0f778569e5791d02376617fab24", "lat": 38.929104833333334, "name": "e87cc0f778569e5791d02376617fab24", "fusion_lon": 0.0, "fusion_lat": 0.0, "type": "electric_scooter", "lon": -77.02094783333334}, {"rental_uris": {"android": "https://dc.lft.to/lastmile_qr_scan", "ios": "https://dc.lft.to/lastmile_qr_scan"}, "is_reserved": 0, "is_disabled": 0, "bike_id": "c2990cb0ac7bb2847e9e21ce235702e4", "lat": 38.90551683333333, "name": "c2990cb0ac7bb2847e9e21ce235702e4", "fusion_lon": 0.0, "fusion_lat": 0.0, "type": "electric_scooter", "lon": -77.0334285}, {"rental_uris": {"android": "https://dc.lft.to/lastmile_qr_scan", "ios": "https://dc.lft.to/lastmile_qr_scan"}, "is_reserved": 0, "is_disabled": 0, "bike_id": "8b8f05aa3dd00bac1c481838e3215fc9", "lat": 38.895573, "name": "8b8f05aa3dd00bac1c481838e3215fc9", "fusion_lon": 0.0, "fusion_lat": 0.0, "type": "electric_scooter", "lon": -77.04683033333333}, {"rental_uris": {"android": "https://dc.lft.to/lastmile_qr_scan", "ios": "https://dc.lft.to/lastmile_qr_scan"}, "is_reserved": 0, "is_disabled": 0, "bike_id": "cc764f8e59e086b5a61beaa2900e5359", "lat": 38.9237945, "name": "cc764f8e59e086b5a61beaa2900e5359", "fusion_lon": 0.0, "fusion_lat": 0.0, "type": "electric_scooter", "lon": -77.0430295}, {"rental_uris": {"android": "https://dc.lft.to/lastmile_qr_scan", "ios": "https://dc.lft.to/lastmile_qr_scan"}, "is_reserved": 0, "is_disabled": 0, "bike_id": "46de29103dc52431ef724ecb38c5d0e3", "lat": 38.9046775, "name": "46de29103dc52431ef724ecb38c5d0e3", "fusion_lon": 0.0, "fusion_lat": 0.0, "type": "electric_scooter", "lon": -77.04869933333333}, {"rental_uris": {"android": "https://dc.lft.to/lastmile_qr_scan", "ios": "https://dc.lft.to/lastmile_qr_scan"}, "is_reserved": 0, "is_disabled": 0, "bike_id": "6d426152bee8ceb9dde349cb4dffe5c3", "lat": 38.9161225, "name": "6d426152bee8ceb9dde349cb4dffe5c3", "fusion_lon": 0.0, "fusion_lat": 0.0, "type": "electric_scooter", "lon": -77.032016}, {"rental_uris": {"android": "https://dc.lft.to/lastmile_qr_scan", "ios": "https://dc.lft.to/lastmile_qr_scan"}, "is_reserved": 0, "is_disabled": 0, "bike_id": "7b647b38113494db211e0dfd33f25898", "lat": 38.905620666666664, "name": "7b647b38113494db211e0dfd33f25898", "fusion_lon": 0.0, "fusion_lat": 0.0, "type": "electric_scooter", "lon": -77.02814966666666}, {"rental_uris": {"android": "https://dc.lft.to/lastmile_qr_scan", "ios": "https://dc.lft.to/lastmile_qr_scan"}, "is_reserved": 0, "is_disabled": 0, "bike_id": "614b3c0e6923cd402a4c08ea95d4d5d3", "lat": 38.914808, "name": "614b3c0e6923cd402a4c08ea95d4d5d3", "fusion_lon": 0.0, "fusion_lat": 0.0, "type": "electric_scooter", "lon": -77.025681}, {"rental_uris": {"android": "https://dc.lft.to/lastmile_qr_scan", "ios": "https://dc.lft.to/lastmile_qr_scan"}, "is_reserved": 0, "is_disabled": 0, "bike_id": "8aea5b11c48dc4988f09606007b27b9a", "lat": 38.91545333333333, "name": "8aea5b11c48dc4988f09606007b27b9a", "fusion_lon": 0.0, "fusion_lat": 0.0, "type": "electric_scooter", "lon": -77.02134966666667}, {"rental_uris": {"android": "https://dc.lft.to/lastmile_qr_scan", "ios": "https://dc.lft.to/lastmile_qr_scan"}, "is_reserved": 0, "is_disabled": 0, "bike_id": "52b2ae7a9128fb3f5ac9dc264b0f2dd9", "lat": 38.908482, "name": "52b2ae7a9128fb3f5ac9dc264b0f2dd9", "fusion_lon": 0.0, "fusion_lat": 0.0, "type": "electric_scooter", "lon": -77.0252265}, {"rental_uris": {"android": "https://dc.lft.to/lastmile_qr_scan", "ios": "https://dc.lft.to/lastmile_qr_scan"}, "is_reserved": 0, "is_disabled": 0, "bike_id": "80202cb003d8e6a808404e1b8b753c68", "lat": 38.925981166666666, "name": "80202cb003d8e6a808404e1b8b753c68", "fusion_lon": 0.0, "fusion_lat": 0.0, "type": "electric_scooter", "lon": -77.02156066666667}, {"rental_uris": {"android": "https://dc.lft.to/lastmile_qr_scan", "ios": "https://dc.lft.to/lastmile_qr_scan"}, "is_reserved": 0, "is_disabled": 0, "bike_id": "85944eb27f0a6ae64c93ee64b92cab43", "lat": 38.906690833333336, "name": "85944eb27f0a6ae64c93ee64b92cab43", "fusion_lon": 0.0, "fusion_lat": 0.0, "type": "electric_scooter", "lon": -77.0271135}, {"rental_uris": {"android": "https://dc.lft.to/lastmile_qr_scan", "ios": "https://dc.lft.to/lastmile_qr_scan"}, "is_reserved": 0, "is_disabled": 0, "bike_id": "a4108887e673c93ca5fe0cc4ab392a8c", "lat": 38.92975833333333, "name": "a4108887e673c93ca5fe0cc4ab392a8c", "fusion_lon": 0.0, "fusion_lat": 0.0, "type": "electric_scooter", "lon": -77.0550075}, {"rental_uris": {"android": "https://dc.lft.to/lastmile_qr_scan", "ios": "https://dc.lft.to/lastmile_qr_scan"}, "is_reserved": 0, "is_disabled": 0, "bike_id": "73ba6a401740237dc598e3eb860d201c", "lat": 38.893830333333334, "name": "73ba6a401740237dc598e3eb860d201c", "fusion_lon": 0.0, "fusion_lat": 0.0, "type": "electric_scooter", "lon": -77.0467635}, {"rental_uris": {"android": "https://dc.lft.to/lastmile_qr_scan", "ios": "https://dc.lft.to/lastmile_qr_scan"}, "is_reserved": 0, "is_disabled": 0, "bike_id": "81e02b3ac1fad3a0089249f9e7466a1c", "lat": 38.9026905, "name": "81e02b3ac1fad3a0089249f9e7466a1c", "fusion_lon": 0.0, "fusion_lat": 0.0, "type": "electric_scooter", "lon": -77.04446466666667}, {"rental_uris": {"android": "https://dc.lft.to/lastmile_qr_scan", "ios": "https://dc.lft.to/lastmile_qr_scan"}, "is_reserved": 0, "is_disabled": 0, "bike_id": "4bec8d4f9c883c20e1569aa0ab5b4ce3", "lat": 38.933527166666664, "name": "4bec8d4f9c883c20e1569aa0ab5b4ce3", "fusion_lon": 0.0, "fusion_lat": 0.0, "type": "electric_scooter", "lon": -77.0730715}, {"rental_uris": {"android": "https://dc.lft.to/lastmile_qr_scan", "ios": "https://dc.lft.to/lastmile_qr_scan"}, "is_reserved": 0, "is_disabled": 0, "bike_id": "3f23b32b3a01e41a1a212ad4161a8f2b", "lat": 38.90648566666667, "name": "3f23b32b3a01e41a1a212ad4161a8f2b", "fusion_lon": 0.0, "fusion_lat": 0.0, "type": "electric_scooter", "lon": -76.9781155}, {"rental_uris": {"android": "https://dc.lft.to/lastmile_qr_scan", "ios": "https://dc.lft.to/lastmile_qr_scan"}, "is_reserved": 0, "is_disabled": 0, "bike_id": "b23296220792eeacec2822af23872edd", "lat": 38.8844635, "name": "b23296220792eeacec2822af23872edd", "fusion_lon": 0.0, "fusion_lat": 0.0, "type": "electric_scooter", "lon": -76.99392816666666}, {"rental_uris": {"android": "https://dc.lft.to/lastmile_qr_scan", "ios": "https://dc.lft.to/lastmile_qr_scan"}, "is_reserved": 0, "is_disabled": 0, "bike_id": "d82afc5b86007d05b03ba1aed2622aa3", "lat": 38.941707666666666, "name": "d82afc5b86007d05b03ba1aed2622aa3", "fusion_lon": 0.0, "fusion_lat": 0.0, "type": "electric_scooter", "lon": -77.02558483333334}, {"rental_uris": {"android": "https://dc.lft.to/lastmile_qr_scan", "ios": "https://dc.lft.to/lastmile_qr_scan"}, "is_reserved": 0, "is_disabled": 0, "bike_id": "370937bc578643862796dca96bef0a56", "lat": 38.88711716666667, "name": "370937bc578643862796dca96bef0a56", "fusion_lon": 0.0, "fusion_lat": 0.0, "type": "electric_scooter", "lon": -77.03190166666667}, {"rental_uris": {"android": "https://dc.lft.to/lastmile_qr_scan", "ios": "https://dc.lft.to/lastmile_qr_scan"}, "is_reserved": 0, "is_disabled": 0, "bike_id": "3b27bf88835b871c7d1205f7c0950bd1", "lat": 38.945486833333334, "name": "3b27bf88835b871c7d1205f7c0950bd1", "fusion_lon": 0.0, "fusion_lat": 0.0, "type": "electric_bike", "lon": -76.89540633333333}, {"rental_uris": {"android": "https://dc.lft.to/lastmile_qr_scan", "ios": "https://dc.lft.to/lastmile_qr_scan"}, "is_reserved": 0, "is_disabled": 0, "bike_id": "7abb1926fe2c527dd6deff7f7da1562e", "lat": 38.897580166666664, "name": "7abb1926fe2c527dd6deff7f7da1562e", "fusion_lon": 0.0, "fusion_lat": 0.0, "type": "electric_scooter", "lon": -77.03933983333333}, {"rental_uris": {"android": "https://dc.lft.to/lastmile_qr_scan", "ios": "https://dc.lft.to/lastmile_qr_scan"}, "is_reserved": 0, "is_disabled": 0, "bike_id": "9fdecec88b04d8db570c2058b921e1b6", "lat": 38.9191215, "name": "9fdecec88b04d8db570c2058b921e1b6", "fusion_lon": 0.0, "fusion_lat": 0.0, "type": "electric_scooter", "lon": -77.03256983333333}, {"rental_uris": {"android": "https://dc.lft.to/lastmile_qr_scan", "ios": "https://dc.lft.to/lastmile_qr_scan"}, "is_reserved": 0, "is_disabled": 0, "bike_id": "d231b592fa2abc866373a8c2c4aa9853", "lat": 38.92822616666667, "name": "d231b592fa2abc866373a8c2c4aa9853", "fusion_lon": 0.0, "fusion_lat": 0.0, "type": "electric_scooter", "lon": -77.0225555}, {"rental_uris": {"android": "https://dc.lft.to/lastmile_qr_scan", "ios": "https://dc.lft.to/lastmile_qr_scan"}, "is_reserved": 0, "is_disabled": 0, "bike_id": "253d756a00ff6057e4c9bd6c7fb6fdb0", "lat": 38.9249395, "name": "253d756a00ff6057e4c9bd6c7fb6fdb0", "fusion_lon": 0.0, "fusion_lat": 0.0, "type": "electric_scooter", "lon": -77.03217416666666}, {"rental_uris": {"android": "https://dc.lft.to/lastmile_qr_scan", "ios": "https://dc.lft.to/lastmile_qr_scan"}, "is_reserved": 0, "is_disabled": 0, "bike_id": "0749914df2a114e7174f7b730aece67f", "lat": 38.879654333333335, "name": "0749914df2a114e7174f7b730aece67f", "fusion_lon": 0.0, "fusion_lat": 0.0, "type": "electric_scooter", "lon": -76.98540233333334}, {"rental_uris": {"android": "https://dc.lft.to/lastmile_qr_scan", "ios": "https://dc.lft.to/lastmile_qr_scan"}, "is_reserved": 0, "is_disabled": 0, "bike_id": "c4e65309ae051d306d46404ae91d6b63", "lat": 38.880061166666664, "name": "c4e65309ae051d306d46404ae91d6b63", "fusion_lon": 0.0, "fusion_lat": 0.0, "type": "electric_scooter", "lon": -77.0174465}, {"rental_uris": {"android": "https://dc.lft.to/lastmile_qr_scan", "ios": "https://dc.lft.to/lastmile_qr_scan"}, "is_reserved": 0, "is_disabled": 0, "bike_id": "720bf5f2629c21c18cd25eae5b8af2ed", "lat": 38.926467, "name": "720bf5f2629c21c18cd25eae5b8af2ed", "fusion_lon": 0.0, "fusion_lat": 0.0, "type": "electric_scooter", "lon": -76.97617883333334}, {"rental_uris": {"android": "https://dc.lft.to/lastmile_qr_scan", "ios": "https://dc.lft.to/lastmile_qr_scan"}, "is_reserved": 0, "is_disabled": 0, "bike_id": "d72c38afdeb41a0bd21f151976b99179", "lat": 38.91555183333333, "name": "d72c38afdeb41a0bd21f151976b99179", "fusion_lon": 0.0, "fusion_lat": 0.0, "type": "electric_scooter", "lon": -77.01986433333333}, {"rental_uris": {"android": "https://dc.lft.to/lastmile_qr_scan", "ios": "https://dc.lft.to/lastmile_qr_scan"}, "is_reserved": 0, "is_disabled": 0, "bike_id": "64c22fef2e4344405f3eaee7bc916586", "lat": 38.960256333333334, "name": "64c22fef2e4344405f3eaee7bc916586", "fusion_lon": 0.0, "fusion_lat": 0.0, "type": "electric_bike", "lon": -77.0332195}, {"rental_uris": {"android": "https://dc.lft.to/lastmile_qr_scan", "ios": "https://dc.lft.to/lastmile_qr_scan"}, "is_reserved": 0, "is_disabled": 0, "bike_id": "2798db7f73d35d73293cb75c47beb761", "lat": 38.944855, "name": "2798db7f73d35d73293cb75c47beb761", "fusion_lon": 0.0, "fusion_lat": 0.0, "type": "electric_scooter", "lon": -77.00523983333333}, {"rental_uris": {"android": "https://dc.lft.to/lastmile_qr_scan", "ios": "https://dc.lft.to/lastmile_qr_scan"}, "is_reserved": 0, "is_disabled": 0, "bike_id": "d9a2e5e7bb16cbd0339a6ca770603635", "lat": 38.893669333333335, "name": "d9a2e5e7bb16cbd0339a6ca770603635", "fusion_lon": 0.0, "fusion_lat": 0.0, "type": "electric_scooter", "lon": -77.0228125}, {"rental_uris": {"android": "https://dc.lft.to/lastmile_qr_scan", "ios": "https://dc.lft.to/lastmile_qr_scan"}, "is_reserved": 0, "is_disabled": 0, "bike_id": "9e2106d122806b31f087a42fb538a8b0", "lat": 38.894959166666666, "name": "9e2106d122806b31f087a42fb538a8b0", "fusion_lon": 0.0, "fusion_lat": 0.0, "type": "electric_scooter", "lon": -77.01085083333334}, {"rental_uris": {"android": "https://dc.lft.to/lastmile_qr_scan", "ios": "https://dc.lft.to/lastmile_qr_scan"}, "is_reserved": 0, "is_disabled": 0, "bike_id": "6f6ff99e10dbbdcbd3ac33f6f731f228", "lat": 38.91170916666667, "name": "6f6ff99e10dbbdcbd3ac33f6f731f228", "fusion_lon": 0.0, "fusion_lat": 0.0, "type": "electric_bike", "lon": -77.08809166666667}, {"rental_uris": {"android": "https://dc.lft.to/lastmile_qr_scan", "ios": "https://dc.lft.to/lastmile_qr_scan"}, "is_reserved": 0, "is_disabled": 0, "bike_id": "f13fdfec663697bd1c340db3503953c7", "lat": 38.932581666666664, "name": "f13fdfec663697bd1c340db3503953c7", "fusion_lon": 0.0, "fusion_lat": 0.0, "type": "electric_scooter", "lon": -77.03266133333334}, {"rental_uris": {"android": "https://dc.lft.to/lastmile_qr_scan", "ios": "https://dc.lft.to/lastmile_qr_scan"}, "is_reserved": 0, "is_disabled": 0, "bike_id": "2b0cdd4627b6b119180517a33f234fa8", "lat": 38.8948155, "name": "2b0cdd4627b6b119180517a33f234fa8", "fusion_lon": 0.0, "fusion_lat": 0.0, "type": "electric_scooter", "lon": -76.99242516666666}, {"rental_uris": {"android": "https://dc.lft.to/lastmile_qr_scan", "ios": "https://dc.lft.to/lastmile_qr_scan"}, "is_reserved": 0, "is_disabled": 0, "bike_id": "bc5870ccbbd966541000fcc004245587", "lat": 38.844213333333336, "name": "bc5870ccbbd966541000fcc004245587", "fusion_lon": 0.0, "fusion_lat": 0.0, "type": "electric_scooter", "lon": -76.9977945}, {"rental_uris": {"android": "https://dc.lft.to/lastmile_qr_scan", "ios": "https://dc.lft.to/lastmile_qr_scan"}, "is_reserved": 0, "is_disabled": 0, "bike_id": "9fd5c1dfc6bf1dc02254320d90f0daee", "lat": 38.898160833333336, "name": "9fd5c1dfc6bf1dc02254320d90f0daee", "fusion_lon": 0.0, "fusion_lat": 0.0, "type": "electric_scooter", "lon": -77.0135855}, {"rental_uris": {"android": "https://dc.lft.to/lastmile_qr_scan", "ios": "https://dc.lft.to/lastmile_qr_scan"}, "is_reserved": 0, "is_disabled": 0, "bike_id": "194b338d762f722597c9c6401e779fb1", "lat": 38.9398085, "name": "194b338d762f722597c9c6401e779fb1", "fusion_lon": 0.0, "fusion_lat": 0.0, "type": "electric_scooter", "lon": -77.02979283333333}, {"rental_uris": {"android": "https://dc.lft.to/lastmile_qr_scan", "ios": "https://dc.lft.to/lastmile_qr_scan"}, "is_reserved": 0, "is_disabled": 0, "bike_id": "099b8dfe9b2f3c13a5e011c58e6c6692", "lat": 38.8991255, "name": "099b8dfe9b2f3c13a5e011c58e6c6692", "fusion_lon": 0.0, "fusion_lat": 0.0, "type": "electric_scooter", "lon": -76.93378383333334}, {"rental_uris": {"android": "https://dc.lft.to/lastmile_qr_scan", "ios": "https://dc.lft.to/lastmile_qr_scan"}, "is_reserved": 0, "is_disabled": 0, "bike_id": "3a9a53b445ca319ad34480f3566be318", "lat": 38.8872965, "name": "3a9a53b445ca319ad34480f3566be318", "fusion_lon": 0.0, "fusion_lat": 0.0, "type": "electric_scooter", "lon": -77.0176785}, {"rental_uris": {"android": "https://dc.lft.to/lastmile_qr_scan", "ios": "https://dc.lft.to/lastmile_qr_scan"}, "is_reserved": 0, "is_disabled": 0, "bike_id": "360eada7f321c2500464efc97ca652db", "lat": 38.92447833333333, "name": "360eada7f321c2500464efc97ca652db", "fusion_lon": 0.0, "fusion_lat": 0.0, "type": "electric_scooter", "lon": -77.04110366666667}, {"rental_uris": {"android": "https://dc.lft.to/lastmile_qr_scan", "ios": "https://dc.lft.to/lastmile_qr_scan"}, "is_reserved": 0, "is_disabled": 0, "bike_id": "337b177c2e6484077045079d1f61b3ba", "lat": 38.88301383333334, "name": "337b177c2e6484077045079d1f61b3ba", "fusion_lon": 0.0, "fusion_lat": 0.0, "type": "electric_scooter", "lon": -76.9786785}, {"rental_uris": {"android": "https://dc.lft.to/lastmile_qr_scan", "ios": "https://dc.lft.to/lastmile_qr_scan"}, "is_reserved": 0, "is_disabled": 0, "bike_id": "741b051bfede9d4e556a2487b4bbe5fe", "lat": 38.913590666666664, "name": "741b051bfede9d4e556a2487b4bbe5fe", "fusion_lon": 0.0, "fusion_lat": 0.0, "type": "electric_scooter", "lon": -77.03155066666666}, {"rental_uris": {"android": "https://dc.lft.to/lastmile_qr_scan", "ios": "https://dc.lft.to/lastmile_qr_scan"}, "is_reserved": 0, "is_disabled": 0, "bike_id": "9f56b68609bcf1b72a2b515158959e4a", "lat": 38.89907316666667, "name": "9f56b68609bcf1b72a2b515158959e4a", "fusion_lon": 0.0, "fusion_lat": 0.0, "type": "electric_scooter", "lon": -76.93377183333334}, {"rental_uris": {"android": "https://dc.lft.to/lastmile_qr_scan", "ios": "https://dc.lft.to/lastmile_qr_scan"}, "is_reserved": 0, "is_disabled": 0, "bike_id": "dbd17a296bcd6378ea3b6efb941f6236", "lat": 38.89737816666667, "name": "dbd17a296bcd6378ea3b6efb941f6236", "fusion_lon": 0.0, "fusion_lat": 0.0, "type": "electric_scooter", "lon": -77.0127325}, {"rental_uris": {"android": "https://dc.lft.to/lastmile_qr_scan", "ios": "https://dc.lft.to/lastmile_qr_scan"}, "is_reserved": 0, "is_disabled": 0, "bike_id": "d222cbe2b5ade9205bf582a04f52d9ad", "lat": 38.9007795, "name": "d222cbe2b5ade9205bf582a04f52d9ad", "fusion_lon": 0.0, "fusion_lat": 0.0, "type": "electric_scooter", "lon": -77.04755066666667}, {"rental_uris": {"android": "https://dc.lft.to/lastmile_qr_scan", "ios": "https://dc.lft.to/lastmile_qr_scan"}, "is_reserved": 0, "is_disabled": 0, "bike_id": "589f9d99119f967c5d73881101d4ad78", "lat": 39.06288683333333, "name": "589f9d99119f967c5d73881101d4ad78", "fusion_lon": 0.0, "fusion_lat": 0.0, "type": "electric_bike", "lon": -77.04979683333333}, {"rental_uris": {"android": "https://dc.lft.to/lastmile_qr_scan", "ios": "https://dc.lft.to/lastmile_qr_scan"}, "is_reserved": 0, "is_disabled": 0, "bike_id": "3dd2fe70d399c8ac7abc3afa0be18e64", "lat": 38.9249, "name": "3dd2fe70d399c8ac7abc3afa0be18e64", "fusion_lon": 0.0, "fusion_lat": 0.0, "type": "electric_scooter", "lon": -77.052162}, {"rental_uris": {"android": "https://dc.lft.to/lastmile_qr_scan", "ios": "https://dc.lft.to/lastmile_qr_scan"}, "is_reserved": 0, "is_disabled": 0, "bike_id": "e3e1854fa9e9426d2d34f06a575c87e6", "lat": 38.90549733333334, "name": "e3e1854fa9e9426d2d34f06a575c87e6", "fusion_lon": 0.0, "fusion_lat": 0.0, "type": "electric_scooter", "lon": -77.04858283333333}, {"rental_uris": {"android": "https://dc.lft.to/lastmile_qr_scan", "ios": "https://dc.lft.to/lastmile_qr_scan"}, "is_reserved": 0, "is_disabled": 0, "bike_id": "53f72a60096e980c65532b75577451db", "lat": 38.93338966666666, "name": "53f72a60096e980c65532b75577451db", "fusion_lon": 0.0, "fusion_lat": 0.0, "type": "electric_scooter", "lon": -77.0571705}, {"rental_uris": {"android": "https://dc.lft.to/lastmile_qr_scan", "ios": "https://dc.lft.to/lastmile_qr_scan"}, "is_reserved": 0, "is_disabled": 0, "bike_id": "d5188a7a443544afccef42c771482647", "lat": 38.93310966666667, "name": "d5188a7a443544afccef42c771482647", "fusion_lon": 0.0, "fusion_lat": 0.0, "type": "electric_scooter", "lon": -77.03074083333334}, {"rental_uris": {"android": "https://dc.lft.to/lastmile_qr_scan", "ios": "https://dc.lft.to/lastmile_qr_scan"}, "is_reserved": 0, "is_disabled": 0, "bike_id": "760952d6b081f38b892df1614dd2cd84", "lat": 38.9148085, "name": "760952d6b081f38b892df1614dd2cd84", "fusion_lon": 0.0, "fusion_lat": 0.0, "type": "electric_scooter", "lon": -77.02582816666667}, {"rental_uris": {"android": "https://dc.lft.to/lastmile_qr_scan", "ios": "https://dc.lft.to/lastmile_qr_scan"}, "is_reserved": 0, "is_disabled": 0, "bike_id": "1cff60c6e662cae31d409800bae61bc9", "lat": 38.95628333333333, "name": "1cff60c6e662cae31d409800bae61bc9", "fusion_lon": 0.0, "fusion_lat": 0.0, "type": "electric_scooter", "lon": -77.032933}, {"rental_uris": {"android": "https://dc.lft.to/lastmile_qr_scan", "ios": "https://dc.lft.to/lastmile_qr_scan"}, "is_reserved": 0, "is_disabled": 0, "bike_id": "a51d74fe02d9b192d8d029020551cf79", "lat": 38.92485933333333, "name": "a51d74fe02d9b192d8d029020551cf79", "fusion_lon": 0.0, "fusion_lat": 0.0, "type": "electric_scooter", "lon": -77.05217133333333}, {"rental_uris": {"android": "https://dc.lft.to/lastmile_qr_scan", "ios": "https://dc.lft.to/lastmile_qr_scan"}, "is_reserved": 0, "is_disabled": 0, "bike_id": "ff67036e992379aca72095368adeb982", "lat": 38.906372, "name": "ff67036e992379aca72095368adeb982", "fusion_lon": 0.0, "fusion_lat": 0.0, "type": "electric_scooter", "lon": -77.005752}, {"rental_uris": {"android": "https://dc.lft.to/lastmile_qr_scan", "ios": "https://dc.lft.to/lastmile_qr_scan"}, "is_reserved": 0, "is_disabled": 0, "bike_id": "d4a4cab95fbe6c3051f23019f6ee23a5", "lat": 38.91540833333333, "name": "d4a4cab95fbe6c3051f23019f6ee23a5", "fusion_lon": 0.0, "fusion_lat": 0.0, "type": "electric_scooter", "lon": -77.03853366666667}, {"rental_uris": {"android": "https://dc.lft.to/lastmile_qr_scan", "ios": "https://dc.lft.to/lastmile_qr_scan"}, "is_reserved": 0, "is_disabled": 0, "bike_id": "a1b2d7d98879850ceffbf94508c27faa", "lat": 38.92323233333333, "name": "a1b2d7d98879850ceffbf94508c27faa", "fusion_lon": 0.0, "fusion_lat": 0.0, "type": "electric_scooter", "lon": -77.01957366666667}, {"rental_uris": {"android": "https://dc.lft.to/lastmile_qr_scan", "ios": "https://dc.lft.to/lastmile_qr_scan"}, "is_reserved": 0, "is_disabled": 0, "bike_id": "91551accd3ba67da964484dcf1fd94e6", "lat": 38.935319, "name": "91551accd3ba67da964484dcf1fd94e6", "fusion_lon": 0.0, "fusion_lat": 0.0, "type": "electric_bike", "lon": -77.08181166666667}, {"rental_uris": {"android": "https://dc.lft.to/lastmile_qr_scan", "ios": "https://dc.lft.to/lastmile_qr_scan"}, "is_reserved": 0, "is_disabled": 0, "bike_id": "176c5bace29354c3bf08e9800011ad38", "lat": 38.89217983333333, "name": "176c5bace29354c3bf08e9800011ad38", "fusion_lon": 0.0, "fusion_lat": 0.0, "type": "electric_scooter", "lon": -77.03219916666667}, {"rental_uris": {"android": "https://dc.lft.to/lastmile_qr_scan", "ios": "https://dc.lft.to/lastmile_qr_scan"}, "is_reserved": 0, "is_disabled": 0, "bike_id": "6a1b560aec5b397e3c60c4567e0930af", "lat": 38.89719266666667, "name": "6a1b560aec5b397e3c60c4567e0930af", "fusion_lon": 0.0, "fusion_lat": 0.0, "type": "electric_bike", "lon": -77.0080885}, {"rental_uris": {"android": "https://dc.lft.to/lastmile_qr_scan", "ios": "https://dc.lft.to/lastmile_qr_scan"}, "is_reserved": 0, "is_disabled": 0, "bike_id": "c7e74454003f4191f738fa471b0132c6", "lat": 38.92670283333333, "name": "c7e74454003f4191f738fa471b0132c6", "fusion_lon": 0.0, "fusion_lat": 0.0, "type": "electric_scooter", "lon": -77.01503566666666}, {"rental_uris": {"android": "https://dc.lft.to/lastmile_qr_scan", "ios": "https://dc.lft.to/lastmile_qr_scan"}, "is_reserved": 0, "is_disabled": 0, "bike_id": "7b1cb91fb4506d8992645daa28011c94", "lat": 38.90355, "name": "7b1cb91fb4506d8992645daa28011c94", "fusion_lon": 0.0, "fusion_lat": 0.0, "type": "electric_scooter", "lon": -77.03754483333333}, {"rental_uris": {"android": "https://dc.lft.to/lastmile_qr_scan", "ios": "https://dc.lft.to/lastmile_qr_scan"}, "is_reserved": 0, "is_disabled": 0, "bike_id": "329ae42cac482aaf7eac1a7f2f87e3e5", "lat": 38.8946765, "name": "329ae42cac482aaf7eac1a7f2f87e3e5", "fusion_lon": 0.0, "fusion_lat": 0.0, "type": "electric_scooter", "lon": -77.03117533333334}, {"rental_uris": {"android": "https://dc.lft.to/lastmile_qr_scan", "ios": "https://dc.lft.to/lastmile_qr_scan"}, "is_reserved": 0, "is_disabled": 0, "bike_id": "d68989f08322ef4f184d921687095e4e", "lat": 38.871853333333334, "name": "d68989f08322ef4f184d921687095e4e", "fusion_lon": 0.0, "fusion_lat": 0.0, "type": "electric_scooter", "lon": -77.00585466666666}, {"rental_uris": {"android": "https://dc.lft.to/lastmile_qr_scan", "ios": "https://dc.lft.to/lastmile_qr_scan"}, "is_reserved": 0, "is_disabled": 0, "bike_id": "806eb6b042bae54d7e430a6bb8704782", "lat": 38.93186433333333, "name": "806eb6b042bae54d7e430a6bb8704782", "fusion_lon": 0.0, "fusion_lat": 0.0, "type": "electric_scooter", "lon": -77.025757}, {"rental_uris": {"android": "https://dc.lft.to/lastmile_qr_scan", "ios": "https://dc.lft.to/lastmile_qr_scan"}, "is_reserved": 0, "is_disabled": 0, "bike_id": "9d0f8d74488c67aec90e88308f093cee", "lat": 38.902832333333336, "name": "9d0f8d74488c67aec90e88308f093cee", "fusion_lon": 0.0, "fusion_lat": 0.0, "type": "electric_scooter", "lon": -77.03645466666667}, {"rental_uris": {"android": "https://dc.lft.to/lastmile_qr_scan", "ios": "https://dc.lft.to/lastmile_qr_scan"}, "is_reserved": 0, "is_disabled": 0, "bike_id": "a843981ff14870b2152d9fcdedd3b8b7", "lat": 38.91558966666667, "name": "a843981ff14870b2152d9fcdedd3b8b7", "fusion_lon": 0.0, "fusion_lat": 0.0, "type": "electric_scooter", "lon": -77.03933566666667}, {"rental_uris": {"android": "https://dc.lft.to/lastmile_qr_scan", "ios": "https://dc.lft.to/lastmile_qr_scan"}, "is_reserved": 0, "is_disabled": 0, "bike_id": "200c3f10a989961f2fe399d57cfad5c1", "lat": 38.88608966666666, "name": "200c3f10a989961f2fe399d57cfad5c1", "fusion_lon": 0.0, "fusion_lat": 0.0, "type": "electric_scooter", "lon": -76.99482133333333}, {"rental_uris": {"android": "https://dc.lft.to/lastmile_qr_scan", "ios": "https://dc.lft.to/lastmile_qr_scan"}, "is_reserved": 0, "is_disabled": 0, "bike_id": "b798142581070187a7232ce8bf4310b1", "lat": 38.995178833333334, "name": "b798142581070187a7232ce8bf4310b1", "fusion_lon": 0.0, "fusion_lat": 0.0, "type": "electric_bike", "lon": -77.03123616666667}, {"rental_uris": {"android": "https://dc.lft.to/lastmile_qr_scan", "ios": "https://dc.lft.to/lastmile_qr_scan"}, "is_reserved": 0, "is_disabled": 0, "bike_id": "c3627307208959c11f1bee63fb56235d", "lat": 38.877115833333335, "name": "c3627307208959c11f1bee63fb56235d", "fusion_lon": 0.0, "fusion_lat": 0.0, "type": "electric_scooter", "lon": -77.0183465}, {"rental_uris": {"android": "https://dc.lft.to/lastmile_qr_scan", "ios": "https://dc.lft.to/lastmile_qr_scan"}, "is_reserved": 0, "is_disabled": 0, "bike_id": "6d420c8a70095199c123a5103011a1f2", "lat": 38.823784, "name": "6d420c8a70095199c123a5103011a1f2", "fusion_lon": 0.0, "fusion_lat": 0.0, "type": "electric_bike", "lon": -77.00223966666667}, {"rental_uris": {"android": "https://dc.lft.to/lastmile_qr_scan", "ios": "https://dc.lft.to/lastmile_qr_scan"}, "is_reserved": 0, "is_disabled": 0, "bike_id": "763739fac19f69bc4356c2a5093fcdc7", "lat": 38.895461, "name": "763739fac19f69bc4356c2a5093fcdc7", "fusion_lon": 0.0, "fusion_lat": 0.0, "type": "electric_scooter", "lon": -77.05664566666667}, {"rental_uris": {"android": "https://dc.lft.to/lastmile_qr_scan", "ios": "https://dc.lft.to/lastmile_qr_scan"}, "is_reserved": 0, "is_disabled": 0, "bike_id": "04459e09cdfe65a084ebf988a09011a1", "lat": 38.88766966666667, "name": "04459e09cdfe65a084ebf988a09011a1", "fusion_lon": 0.0, "fusion_lat": 0.0, "type": "electric_scooter", "lon": -77.02843116666666}, {"rental_uris": {"android": "https://dc.lft.to/lastmile_qr_scan", "ios": "https://dc.lft.to/lastmile_qr_scan"}, "is_reserved": 0, "is_disabled": 0, "bike_id": "c185b83adde4ad0dcccc22d74dcda64a", "lat": 38.930954166666666, "name": "c185b83adde4ad0dcccc22d74dcda64a", "fusion_lon": 0.0, "fusion_lat": 0.0, "type": "electric_scooter", "lon": -77.02476366666667}, {"rental_uris": {"android": "https://dc.lft.to/lastmile_qr_scan", "ios": "https://dc.lft.to/lastmile_qr_scan"}, "is_reserved": 0, "is_disabled": 0, "bike_id": "c7a29035e2362244431a34f017c0fa34", "lat": 38.89220783333333, "name": "c7a29035e2362244431a34f017c0fa34", "fusion_lon": 0.0, "fusion_lat": 0.0, "type": "electric_scooter", "lon": -77.04308583333334}, {"rental_uris": {"android": "https://dc.lft.to/lastmile_qr_scan", "ios": "https://dc.lft.to/lastmile_qr_scan"}, "is_reserved": 0, "is_disabled": 0, "bike_id": "c398a914ae3a5191322cd3740b3bac33", "lat": 38.92329316666667, "name": "c398a914ae3a5191322cd3740b3bac33", "fusion_lon": 0.0, "fusion_lat": 0.0, "type": "electric_scooter", "lon": -77.03576283333334}, {"rental_uris": {"android": "https://dc.lft.to/lastmile_qr_scan", "ios": "https://dc.lft.to/lastmile_qr_scan"}, "is_reserved": 0, "is_disabled": 0, "bike_id": "ebfc2a3a2f7dee47c1545c65c14a609a", "lat": 38.887921166666665, "name": "ebfc2a3a2f7dee47c1545c65c14a609a", "fusion_lon": 0.0, "fusion_lat": 0.0, "type": "electric_scooter", "lon": -76.933558}, {"rental_uris": {"android": "https://dc.lft.to/lastmile_qr_scan", "ios": "https://dc.lft.to/lastmile_qr_scan"}, "is_reserved": 0, "is_disabled": 0, "bike_id": "e90f03e6bb7f331b67eb5c5763232feb", "lat": 38.91767933333333, "name": "e90f03e6bb7f331b67eb5c5763232feb", "fusion_lon": 0.0, "fusion_lat": 0.0, "type": "electric_scooter", "lon": -77.023386}, {"rental_uris": {"android": "https://dc.lft.to/lastmile_qr_scan", "ios": "https://dc.lft.to/lastmile_qr_scan"}, "is_reserved": 0, "is_disabled": 0, "bike_id": "cdc5aee444a2850617d587a05bc9f760", "lat": 38.89326483333333, "name": "cdc5aee444a2850617d587a05bc9f760", "fusion_lon": 0.0, "fusion_lat": 0.0, "type": "electric_scooter", "lon": -77.01212083333333}, {"rental_uris": {"android": "https://dc.lft.to/lastmile_qr_scan", "ios": "https://dc.lft.to/lastmile_qr_scan"}, "is_reserved": 0, "is_disabled": 0, "bike_id": "fdc84a7b755b002f29f4f560fdfb620e", "lat": 38.90364833333334, "name": "fdc84a7b755b002f29f4f560fdfb620e", "fusion_lon": 0.0, "fusion_lat": 0.0, "type": "electric_scooter", "lon": -77.03799}, {"rental_uris": {"android": "https://dc.lft.to/lastmile_qr_scan", "ios": "https://dc.lft.to/lastmile_qr_scan"}, "is_reserved": 0, "is_disabled": 0, "bike_id": "5d7eeb7e760233f15b338100f48e86b2", "lat": 38.8356025, "name": "5d7eeb7e760233f15b338100f48e86b2", "fusion_lon": 0.0, "fusion_lat": 0.0, "type": "electric_scooter", "lon": -76.9950635}, {"rental_uris": {"android": "https://dc.lft.to/lastmile_qr_scan", "ios": "https://dc.lft.to/lastmile_qr_scan"}, "is_reserved": 0, "is_disabled": 0, "bike_id": "d059c5f65001820ac0e418d654b7cde9", "lat": 38.890078333333335, "name": "d059c5f65001820ac0e418d654b7cde9", "fusion_lon": 0.0, "fusion_lat": 0.0, "type": "electric_scooter", "lon": -76.93733083333333}, {"rental_uris": {"android": "https://dc.lft.to/lastmile_qr_scan", "ios": "https://dc.lft.to/lastmile_qr_scan"}, "is_reserved": 0, "is_disabled": 0, "bike_id": "68b54a5dfc85cfe2a65698b14d2ed6b9", "lat": 38.90969366666667, "name": "68b54a5dfc85cfe2a65698b14d2ed6b9", "fusion_lon": 0.0, "fusion_lat": 0.0, "type": "electric_scooter", "lon": -77.03221783333333}, {"rental_uris": {"android": "https://dc.lft.to/lastmile_qr_scan", "ios": "https://dc.lft.to/lastmile_qr_scan"}, "is_reserved": 0, "is_disabled": 0, "bike_id": "1644d60d7dfb686f346aafb29ff32546", "lat": 38.922399666666664, "name": "1644d60d7dfb686f346aafb29ff32546", "fusion_lon": 0.0, "fusion_lat": 0.0, "type": "electric_scooter", "lon": -77.0308515}, {"rental_uris": {"android": "https://dc.lft.to/lastmile_qr_scan", "ios": "https://dc.lft.to/lastmile_qr_scan"}, "is_reserved": 0, "is_disabled": 0, "bike_id": "3f8ada9474134486767abcd4f32b2138", "lat": 38.902789166666665, "name": "3f8ada9474134486767abcd4f32b2138", "fusion_lon": 0.0, "fusion_lat": 0.0, "type": "electric_scooter", "lon": -77.03850083333333}, {"rental_uris": {"android": "https://dc.lft.to/lastmile_qr_scan", "ios": "https://dc.lft.to/lastmile_qr_scan"}, "is_reserved": 0, "is_disabled": 0, "bike_id": "d6e075d690d6dd2ec7548d65c5529f55", "lat": 38.93173916666667, "name": "d6e075d690d6dd2ec7548d65c5529f55", "fusion_lon": 0.0, "fusion_lat": 0.0, "type": "electric_scooter", "lon": -77.03666983333333}, {"rental_uris": {"android": "https://dc.lft.to/lastmile_qr_scan", "ios": "https://dc.lft.to/lastmile_qr_scan"}, "is_reserved": 0, "is_disabled": 0, "bike_id": "291f3be034fc6324eb8f949d82a9aca6", "lat": 38.920942333333336, "name": "291f3be034fc6324eb8f949d82a9aca6", "fusion_lon": 0.0, "fusion_lat": 0.0, "type": "electric_scooter", "lon": -77.04385916666666}, {"rental_uris": {"android": "https://dc.lft.to/lastmile_qr_scan", "ios": "https://dc.lft.to/lastmile_qr_scan"}, "is_reserved": 0, "is_disabled": 0, "bike_id": "5f1c93a564641db49a08cd4ef50575dd", "lat": 38.91698066666667, "name": "5f1c93a564641db49a08cd4ef50575dd", "fusion_lon": 0.0, "fusion_lat": 0.0, "type": "electric_scooter", "lon": -77.02380633333334}, {"rental_uris": {"android": "https://dc.lft.to/lastmile_qr_scan", "ios": "https://dc.lft.to/lastmile_qr_scan"}, "is_reserved": 0, "is_disabled": 0, "bike_id": "9aec782bfe03a181ce78891c50775fe2", "lat": 38.919812, "name": "9aec782bfe03a181ce78891c50775fe2", "fusion_lon": 0.0, "fusion_lat": 0.0, "type": "electric_scooter", "lon": -77.04162516666666}, {"rental_uris": {"android": "https://dc.lft.to/lastmile_qr_scan", "ios": "https://dc.lft.to/lastmile_qr_scan"}, "is_reserved": 0, "is_disabled": 0, "bike_id": "545109c71bae09f65093107d81660f8a", "lat": 38.9460605, "name": "545109c71bae09f65093107d81660f8a", "fusion_lon": 0.0, "fusion_lat": 0.0, "type": "electric_scooter", "lon": -77.080183}, {"rental_uris": {"android": "https://dc.lft.to/lastmile_qr_scan", "ios": "https://dc.lft.to/lastmile_qr_scan"}, "is_reserved": 0, "is_disabled": 0, "bike_id": "db043d271d426dc3c29880f808bf1732", "lat": 38.903519, "name": "db043d271d426dc3c29880f808bf1732", "fusion_lon": 0.0, "fusion_lat": 0.0, "type": "electric_scooter", "lon": -77.03860116666667}, {"rental_uris": {"android": "https://dc.lft.to/lastmile_qr_scan", "ios": "https://dc.lft.to/lastmile_qr_scan"}, "is_reserved": 0, "is_disabled": 0, "bike_id": "d5517cdeddff17f60df98e30bf80b3fd", "lat": 38.9077695, "name": "d5517cdeddff17f60df98e30bf80b3fd", "fusion_lon": 0.0, "fusion_lat": 0.0, "type": "electric_scooter", "lon": -77.04324516666667}, {"rental_uris": {"android": "https://dc.lft.to/lastmile_qr_scan", "ios": "https://dc.lft.to/lastmile_qr_scan"}, "is_reserved": 0, "is_disabled": 0, "bike_id": "403894e24ea50c9a0b7bdc23da9d5d03", "lat": 38.92896433333333, "name": "403894e24ea50c9a0b7bdc23da9d5d03", "fusion_lon": 0.0, "fusion_lat": 0.0, "type": "electric_scooter", "lon": -77.00421016666667}, {"rental_uris": {"android": "https://dc.lft.to/lastmile_qr_scan", "ios": "https://dc.lft.to/lastmile_qr_scan"}, "is_reserved": 0, "is_disabled": 0, "bike_id": "650ffa36420f22c0c874e4249e000387", "lat": 38.892174, "name": "650ffa36420f22c0c874e4249e000387", "fusion_lon": 0.0, "fusion_lat": 0.0, "type": "electric_scooter", "lon": -77.04514733333333}, {"rental_uris": {"android": "https://dc.lft.to/lastmile_qr_scan", "ios": "https://dc.lft.to/lastmile_qr_scan"}, "is_reserved": 0, "is_disabled": 0, "bike_id": "9e863f7c66b83af0313662686f40cb1a", "lat": 38.903965166666666, "name": "9e863f7c66b83af0313662686f40cb1a", "fusion_lon": 0.0, "fusion_lat": 0.0, "type": "electric_scooter", "lon": -77.0427335}, {"rental_uris": {"android": "https://dc.lft.to/lastmile_qr_scan", "ios": "https://dc.lft.to/lastmile_qr_scan"}, "is_reserved": 0, "is_disabled": 0, "bike_id": "601eb2f78b8014564cc5c4adb4c06cef", "lat": 38.857493, "name": "601eb2f78b8014564cc5c4adb4c06cef", "fusion_lon": 0.0, "fusion_lat": 0.0, "type": "electric_scooter", "lon": -76.99295883333333}, {"rental_uris": {"android": "https://dc.lft.to/lastmile_qr_scan", "ios": "https://dc.lft.to/lastmile_qr_scan"}, "is_reserved": 0, "is_disabled": 0, "bike_id": "46a81c78466eef2a6117a3b5f5a9544f", "lat": 38.8987335, "name": "46a81c78466eef2a6117a3b5f5a9544f", "fusion_lon": 0.0, "fusion_lat": 0.0, "type": "electric_scooter", "lon": -77.02949316666667}, {"rental_uris": {"android": "https://dc.lft.to/lastmile_qr_scan", "ios": "https://dc.lft.to/lastmile_qr_scan"}, "is_reserved": 0, "is_disabled": 0, "bike_id": "4a041e1726dc706d7dee624fc3a869b6", "lat": 38.9052195, "name": "4a041e1726dc706d7dee624fc3a869b6", "fusion_lon": 0.0, "fusion_lat": 0.0, "type": "electric_scooter", "lon": -77.05039283333333}, {"rental_uris": {"android": "https://dc.lft.to/lastmile_qr_scan", "ios": "https://dc.lft.to/lastmile_qr_scan"}, "is_reserved": 0, "is_disabled": 0, "bike_id": "206a2c75b573c0bbf0874b75179b2b6a", "lat": 38.90426883333333, "name": "206a2c75b573c0bbf0874b75179b2b6a", "fusion_lon": 0.0, "fusion_lat": 0.0, "type": "electric_scooter", "lon": -77.05324383333334}, {"rental_uris": {"android": "https://dc.lft.to/lastmile_qr_scan", "ios": "https://dc.lft.to/lastmile_qr_scan"}, "is_reserved": 0, "is_disabled": 0, "bike_id": "d731e4eceb9ceec9dd95f55b5133f39e", "lat": 38.94096066666667, "name": "d731e4eceb9ceec9dd95f55b5133f39e", "fusion_lon": 0.0, "fusion_lat": 0.0, "type": "electric_scooter", "lon": -77.02534583333333}, {"rental_uris": {"android": "https://dc.lft.to/lastmile_qr_scan", "ios": "https://dc.lft.to/lastmile_qr_scan"}, "is_reserved": 0, "is_disabled": 0, "bike_id": "057220b0629cca0322e89a571ef0c5b3", "lat": 38.89238116666667, "name": "057220b0629cca0322e89a571ef0c5b3", "fusion_lon": 0.0, "fusion_lat": 0.0, "type": "electric_scooter", "lon": -77.0318185}, {"rental_uris": {"android": "https://dc.lft.to/lastmile_qr_scan", "ios": "https://dc.lft.to/lastmile_qr_scan"}, "is_reserved": 0, "is_disabled": 0, "bike_id": "07eb7e5b6e624f77912671da27689ec8", "lat": 38.9177995, "name": "07eb7e5b6e624f77912671da27689ec8", "fusion_lon": 0.0, "fusion_lat": 0.0, "type": "electric_scooter", "lon": -77.03191516666666}, {"rental_uris": {"android": "https://dc.lft.to/lastmile_qr_scan", "ios": "https://dc.lft.to/lastmile_qr_scan"}, "is_reserved": 0, "is_disabled": 0, "bike_id": "448d666b668b5724b0c42957d8422b8d", "lat": 38.927515, "name": "448d666b668b5724b0c42957d8422b8d", "fusion_lon": 0.0, "fusion_lat": 0.0, "type": "electric_scooter", "lon": -77.032854}, {"rental_uris": {"android": "https://dc.lft.to/lastmile_qr_scan", "ios": "https://dc.lft.to/lastmile_qr_scan"}, "is_reserved": 0, "is_disabled": 0, "bike_id": "be13c3eb0a2a9ab8d61b35c7dc091adb", "lat": 38.9052445, "name": "be13c3eb0a2a9ab8d61b35c7dc091adb", "fusion_lon": 0.0, "fusion_lat": 0.0, "type": "electric_scooter", "lon": -77.03376533333333}, {"rental_uris": {"android": "https://dc.lft.to/lastmile_qr_scan", "ios": "https://dc.lft.to/lastmile_qr_scan"}, "is_reserved": 0, "is_disabled": 0, "bike_id": "4dcdad474206000a02d8f073cc5df8a9", "lat": 38.885598333333334, "name": "4dcdad474206000a02d8f073cc5df8a9", "fusion_lon": 0.0, "fusion_lat": 0.0, "type": "electric_bike", "lon": -77.16690816666667}, {"rental_uris": {"android": "https://dc.lft.to/lastmile_qr_scan", "ios": "https://dc.lft.to/lastmile_qr_scan"}, "is_reserved": 0, "is_disabled": 0, "bike_id": "455eb2b5535fe52dc7514f848e319225", "lat": 38.9188555, "name": "455eb2b5535fe52dc7514f848e319225", "fusion_lon": 0.0, "fusion_lat": 0.0, "type": "electric_scooter", "lon": -77.02969333333333}, {"rental_uris": {"android": "https://dc.lft.to/lastmile_qr_scan", "ios": "https://dc.lft.to/lastmile_qr_scan"}, "is_reserved": 0, "is_disabled": 0, "bike_id": "b444a1ee3ce158357416bbea74e150f8", "lat": 38.884826333333336, "name": "b444a1ee3ce158357416bbea74e150f8", "fusion_lon": 0.0, "fusion_lat": 0.0, "type": "electric_scooter", "lon": -77.0072885}, {"rental_uris": {"android": "https://dc.lft.to/lastmile_qr_scan", "ios": "https://dc.lft.to/lastmile_qr_scan"}, "is_reserved": 0, "is_disabled": 0, "bike_id": "2c6ec8830ea69204eb91e251517b5a68", "lat": 38.89217983333333, "name": "2c6ec8830ea69204eb91e251517b5a68", "fusion_lon": 0.0, "fusion_lat": 0.0, "type": "electric_scooter", "lon": -77.03217266666667}, {"rental_uris": {"android": "https://dc.lft.to/lastmile_qr_scan", "ios": "https://dc.lft.to/lastmile_qr_scan"}, "is_reserved": 0, "is_disabled": 0, "bike_id": "c36f3eec95a5075d46a05ae3a5decba3", "lat": 38.87727066666667, "name": "c36f3eec95a5075d46a05ae3a5decba3", "fusion_lon": 0.0, "fusion_lat": 0.0, "type": "electric_bike", "lon": -76.981097}, {"rental_uris": {"android": "https://dc.lft.to/lastmile_qr_scan", "ios": "https://dc.lft.to/lastmile_qr_scan"}, "is_reserved": 0, "is_disabled": 0, "bike_id": "59646df7bd6769dd020a2b85ec5b1ae6", "lat": 38.87386083333333, "name": "59646df7bd6769dd020a2b85ec5b1ae6", "fusion_lon": 0.0, "fusion_lat": 0.0, "type": "electric_scooter", "lon": -77.00114683333334}, {"rental_uris": {"android": "https://dc.lft.to/lastmile_qr_scan", "ios": "https://dc.lft.to/lastmile_qr_scan"}, "is_reserved": 0, "is_disabled": 0, "bike_id": "fc8c29da41d359a36355d10192dee9ea", "lat": 38.906830666666664, "name": "fc8c29da41d359a36355d10192dee9ea", "fusion_lon": 0.0, "fusion_lat": 0.0, "type": "electric_scooter", "lon": -77.03584033333334}, {"rental_uris": {"android": "https://dc.lft.to/lastmile_qr_scan", "ios": "https://dc.lft.to/lastmile_qr_scan"}, "is_reserved": 0, "is_disabled": 0, "bike_id": "1707084ca433c61dbf2df4af7d703267", "lat": 38.945294833333335, "name": "1707084ca433c61dbf2df4af7d703267", "fusion_lon": 0.0, "fusion_lat": 0.0, "type": "electric_scooter", "lon": -77.015065}, {"rental_uris": {"android": "https://dc.lft.to/lastmile_qr_scan", "ios": "https://dc.lft.to/lastmile_qr_scan"}, "is_reserved": 0, "is_disabled": 0, "bike_id": "8c51e22c73879d7085ee4b0f252b69fb", "lat": 38.871828666666666, "name": "8c51e22c73879d7085ee4b0f252b69fb", "fusion_lon": 0.0, "fusion_lat": 0.0, "type": "electric_scooter", "lon": -77.00600733333333}, {"rental_uris": {"android": "https://dc.lft.to/lastmile_qr_scan", "ios": "https://dc.lft.to/lastmile_qr_scan"}, "is_reserved": 0, "is_disabled": 0, "bike_id": "70d1d64c818804280a3348d78a6ea19e", "lat": 38.89742733333333, "name": "70d1d64c818804280a3348d78a6ea19e", "fusion_lon": 0.0, "fusion_lat": 0.0, "type": "electric_scooter", "lon": -77.02679216666667}, {"rental_uris": {"android": "https://dc.lft.to/lastmile_qr_scan", "ios": "https://dc.lft.to/lastmile_qr_scan"}, "is_reserved": 0, "is_disabled": 0, "bike_id": "f51057b9da2b12c4583f6b11f8f7d41d", "lat": 38.90033533333333, "name": "f51057b9da2b12c4583f6b11f8f7d41d", "fusion_lon": 0.0, "fusion_lat": 0.0, "type": "electric_scooter", "lon": -77.03189683333333}, {"rental_uris": {"android": "https://dc.lft.to/lastmile_qr_scan", "ios": "https://dc.lft.to/lastmile_qr_scan"}, "is_reserved": 0, "is_disabled": 0, "bike_id": "e1c4c471652bc0542d721b9b37f711eb", "lat": 38.905084333333335, "name": "e1c4c471652bc0542d721b9b37f711eb", "fusion_lon": 0.0, "fusion_lat": 0.0, "type": "electric_scooter", "lon": -77.06370583333333}, {"rental_uris": {"android": "https://dc.lft.to/lastmile_qr_scan", "ios": "https://dc.lft.to/lastmile_qr_scan"}, "is_reserved": 0, "is_disabled": 0, "bike_id": "03e6c3265781722432c64c20b3b8994b", "lat": 38.898777833333334, "name": "03e6c3265781722432c64c20b3b8994b", "fusion_lon": 0.0, "fusion_lat": 0.0, "type": "electric_scooter", "lon": -76.93175516666666}, {"rental_uris": {"android": "https://dc.lft.to/lastmile_qr_scan", "ios": "https://dc.lft.to/lastmile_qr_scan"}, "is_reserved": 0, "is_disabled": 0, "bike_id": "623567c9412e055e4fc4516526d50b3e", "lat": 38.9242875, "name": "623567c9412e055e4fc4516526d50b3e", "fusion_lon": 0.0, "fusion_lat": 0.0, "type": "electric_scooter", "lon": -77.052153}, {"rental_uris": {"android": "https://dc.lft.to/lastmile_qr_scan", "ios": "https://dc.lft.to/lastmile_qr_scan"}, "is_reserved": 0, "is_disabled": 0, "bike_id": "5916560289b328a855e468abf3f1bc2b", "lat": 38.909597166666664, "name": "5916560289b328a855e468abf3f1bc2b", "fusion_lon": 0.0, "fusion_lat": 0.0, "type": "electric_scooter", "lon": -77.0342325}, {"rental_uris": {"android": "https://dc.lft.to/lastmile_qr_scan", "ios": "https://dc.lft.to/lastmile_qr_scan"}, "is_reserved": 0, "is_disabled": 0, "bike_id": "7477475c8af0076383d3216f2ee9ebe2", "lat": 38.91159916666667, "name": "7477475c8af0076383d3216f2ee9ebe2", "fusion_lon": 0.0, "fusion_lat": 0.0, "type": "electric_scooter", "lon": -77.04441133333333}, {"rental_uris": {"android": "https://dc.lft.to/lastmile_qr_scan", "ios": "https://dc.lft.to/lastmile_qr_scan"}, "is_reserved": 0, "is_disabled": 0, "bike_id": "73a863fc5df0e633aa743872c1e2e4fc", "lat": 38.934216, "name": "73a863fc5df0e633aa743872c1e2e4fc", "fusion_lon": 0.0, "fusion_lat": 0.0, "type": "electric_scooter", "lon": -77.0399675}, {"rental_uris": {"android": "https://dc.lft.to/lastmile_qr_scan", "ios": "https://dc.lft.to/lastmile_qr_scan"}, "is_reserved": 0, "is_disabled": 0, "bike_id": "4e5e4bb8996acff997aea109ef6a5c13", "lat": 38.925533, "name": "4e5e4bb8996acff997aea109ef6a5c13", "fusion_lon": 0.0, "fusion_lat": 0.0, "type": "electric_scooter", "lon": -77.05233183333333}, {"rental_uris": {"android": "https://dc.lft.to/lastmile_qr_scan", "ios": "https://dc.lft.to/lastmile_qr_scan"}, "is_reserved": 0, "is_disabled": 0, "bike_id": "9a64a845a90658ef9cd3359257edf22d", "lat": 38.909823, "name": "9a64a845a90658ef9cd3359257edf22d", "fusion_lon": 0.0, "fusion_lat": 0.0, "type": "electric_scooter", "lon": -77.00913483333333}, {"rental_uris": {"android": "https://dc.lft.to/lastmile_qr_scan", "ios": "https://dc.lft.to/lastmile_qr_scan"}, "is_reserved": 0, "is_disabled": 0, "bike_id": "fe3ffafb27aeeb26a491683b91467084", "lat": 38.90314816666667, "name": "fe3ffafb27aeeb26a491683b91467084", "fusion_lon": 0.0, "fusion_lat": 0.0, "type": "electric_scooter", "lon": -77.0503105}, {"rental_uris": {"android": "https://dc.lft.to/lastmile_qr_scan", "ios": "https://dc.lft.to/lastmile_qr_scan"}, "is_reserved": 0, "is_disabled": 0, "bike_id": "d8a215ce38e781f644ffe00cace32532", "lat": 38.87223433333333, "name": "d8a215ce38e781f644ffe00cace32532", "fusion_lon": 0.0, "fusion_lat": 0.0, "type": "electric_scooter", "lon": -77.01764466666667}, {"rental_uris": {"android": "https://dc.lft.to/lastmile_qr_scan", "ios": "https://dc.lft.to/lastmile_qr_scan"}, "is_reserved": 0, "is_disabled": 0, "bike_id": "87f73b34cdc44274870b6f4bbae0d1ed", "lat": 38.910279333333335, "name": "87f73b34cdc44274870b6f4bbae0d1ed", "fusion_lon": 0.0, "fusion_lat": 0.0, "type": "electric_scooter", "lon": -77.026933}, {"rental_uris": {"android": "https://dc.lft.to/lastmile_qr_scan", "ios": "https://dc.lft.to/lastmile_qr_scan"}, "is_reserved": 0, "is_disabled": 0, "bike_id": "d19762b647ad60b7e3f2724f58c1c444", "lat": 38.883773166666664, "name": "d19762b647ad60b7e3f2724f58c1c444", "fusion_lon": 0.0, "fusion_lat": 0.0, "type": "electric_scooter", "lon": -77.04606583333333}, {"rental_uris": {"android": "https://dc.lft.to/lastmile_qr_scan", "ios": "https://dc.lft.to/lastmile_qr_scan"}, "is_reserved": 0, "is_disabled": 0, "bike_id": "cc376015a75fddd15179e0c806653106", "lat": 38.86482766666666, "name": "cc376015a75fddd15179e0c806653106", "fusion_lon": 0.0, "fusion_lat": 0.0, "type": "electric_bike", "lon": -76.97743016666666}, {"rental_uris": {"android": "https://dc.lft.to/lastmile_qr_scan", "ios": "https://dc.lft.to/lastmile_qr_scan"}, "is_reserved": 0, "is_disabled": 0, "bike_id": "b906a3a879940270b89be780bacdd7b2", "lat": 38.981531333333336, "name": "b906a3a879940270b89be780bacdd7b2", "fusion_lon": 0.0, "fusion_lat": 0.0, "type": "electric_bike", "lon": -77.02641383333334}, {"rental_uris": {"android": "https://dc.lft.to/lastmile_qr_scan", "ios": "https://dc.lft.to/lastmile_qr_scan"}, "is_reserved": 0, "is_disabled": 0, "bike_id": "5f2c080e876f731233ab145a289baa90", "lat": 38.925822833333335, "name": "5f2c080e876f731233ab145a289baa90", "fusion_lon": 0.0, "fusion_lat": 0.0, "type": "electric_scooter", "lon": -77.03552516666667}, {"rental_uris": {"android": "https://dc.lft.to/lastmile_qr_scan", "ios": "https://dc.lft.to/lastmile_qr_scan"}, "is_reserved": 0, "is_disabled": 0, "bike_id": "a7ea2edfb17e51f254dfb2e225ac0ee2", "lat": 38.91946216666667, "name": "a7ea2edfb17e51f254dfb2e225ac0ee2", "fusion_lon": 0.0, "fusion_lat": 0.0, "type": "electric_scooter", "lon": -77.044919}, {"rental_uris": {"android": "https://dc.lft.to/lastmile_qr_scan", "ios": "https://dc.lft.to/lastmile_qr_scan"}, "is_reserved": 0, "is_disabled": 0, "bike_id": "2b3dde07b47f291975e0f17083c2c463", "lat": 38.869981333333335, "name": "2b3dde07b47f291975e0f17083c2c463", "fusion_lon": 0.0, "fusion_lat": 0.0, "type": "electric_scooter", "lon": -76.9758565}, {"rental_uris": {"android": "https://dc.lft.to/lastmile_qr_scan", "ios": "https://dc.lft.to/lastmile_qr_scan"}, "is_reserved": 0, "is_disabled": 0, "bike_id": "3a6aabee118f0ba815bbc0504374e4c1", "lat": 38.924731666666666, "name": "3a6aabee118f0ba815bbc0504374e4c1", "fusion_lon": 0.0, "fusion_lat": 0.0, "type": "electric_scooter", "lon": -77.022082}, {"rental_uris": {"android": "https://dc.lft.to/lastmile_qr_scan", "ios": "https://dc.lft.to/lastmile_qr_scan"}, "is_reserved": 0, "is_disabled": 0, "bike_id": "76505e7a952ebc97dd1e441f9a570d65", "lat": 38.9039175, "name": "76505e7a952ebc97dd1e441f9a570d65", "fusion_lon": 0.0, "fusion_lat": 0.0, "type": "electric_scooter", "lon": -77.06514933333334}, {"rental_uris": {"android": "https://dc.lft.to/lastmile_qr_scan", "ios": "https://dc.lft.to/lastmile_qr_scan"}, "is_reserved": 0, "is_disabled": 0, "bike_id": "dfb164d9e6f518f3163377aeb3a3d4bc", "lat": 38.927426833333335, "name": "dfb164d9e6f518f3163377aeb3a3d4bc", "fusion_lon": 0.0, "fusion_lat": 0.0, "type": "electric_scooter", "lon": -77.0363465}, {"rental_uris": {"android": "https://dc.lft.to/lastmile_qr_scan", "ios": "https://dc.lft.to/lastmile_qr_scan"}, "is_reserved": 0, "is_disabled": 0, "bike_id": "8e4a058332cab228607aff0d5103eb0c", "lat": 38.90486516666667, "name": "8e4a058332cab228607aff0d5103eb0c", "fusion_lon": 0.0, "fusion_lat": 0.0, "type": "electric_scooter", "lon": -76.99832616666667}, {"rental_uris": {"android": "https://dc.lft.to/lastmile_qr_scan", "ios": "https://dc.lft.to/lastmile_qr_scan"}, "is_reserved": 0, "is_disabled": 0, "bike_id": "b41e5f301648b2f894d81c530b2390df", "lat": 38.89828333333333, "name": "b41e5f301648b2f894d81c530b2390df", "fusion_lon": 0.0, "fusion_lat": 0.0, "type": "electric_scooter", "lon": -77.033243}, {"rental_uris": {"android": "https://dc.lft.to/lastmile_qr_scan", "ios": "https://dc.lft.to/lastmile_qr_scan"}, "is_reserved": 0, "is_disabled": 0, "bike_id": "26f5f6d1e4f630253613557053141aad", "lat": 39.052776, "name": "26f5f6d1e4f630253613557053141aad", "fusion_lon": 0.0, "fusion_lat": 0.0, "type": "electric_bike", "lon": -77.08071466666667}, {"rental_uris": {"android": "https://dc.lft.to/lastmile_qr_scan", "ios": "https://dc.lft.to/lastmile_qr_scan"}, "is_reserved": 0, "is_disabled": 0, "bike_id": "e1f1b39cae93c288c7a1b4595a2b2e29", "lat": 38.8871205, "name": "e1f1b39cae93c288c7a1b4595a2b2e29", "fusion_lon": 0.0, "fusion_lat": 0.0, "type": "electric_scooter", "lon": -77.03176516666667}, {"rental_uris": {"android": "https://dc.lft.to/lastmile_qr_scan", "ios": "https://dc.lft.to/lastmile_qr_scan"}, "is_reserved": 0, "is_disabled": 0, "bike_id": "f532632e441b8fcb9212da1c1f710a7b", "lat": 38.95774016666667, "name": "f532632e441b8fcb9212da1c1f710a7b", "fusion_lon": 0.0, "fusion_lat": 0.0, "type": "electric_bike", "lon": -77.02753616666666}, {"rental_uris": {"android": "https://dc.lft.to/lastmile_qr_scan", "ios": "https://dc.lft.to/lastmile_qr_scan"}, "is_reserved": 0, "is_disabled": 0, "bike_id": "f46256daa06860c7a17dfc22935f4f59", "lat": 38.887626166666664, "name": "f46256daa06860c7a17dfc22935f4f59", "fusion_lon": 0.0, "fusion_lat": 0.0, "type": "electric_scooter", "lon": -77.02839633333333}, {"rental_uris": {"android": "https://dc.lft.to/lastmile_qr_scan", "ios": "https://dc.lft.to/lastmile_qr_scan"}, "is_reserved": 0, "is_disabled": 0, "bike_id": "41a6e686853d42a16d0192603958ed80", "lat": 38.89500833333334, "name": "41a6e686853d42a16d0192603958ed80", "fusion_lon": 0.0, "fusion_lat": 0.0, "type": "electric_scooter", "lon": -77.00332583333334}, {"rental_uris": {"android": "https://dc.lft.to/lastmile_qr_scan", "ios": "https://dc.lft.to/lastmile_qr_scan"}, "is_reserved": 0, "is_disabled": 0, "bike_id": "ea0a56125bff2f096af9dcee59e37775", "lat": 38.9162845, "name": "ea0a56125bff2f096af9dcee59e37775", "fusion_lon": 0.0, "fusion_lat": 0.0, "type": "electric_scooter", "lon": -77.03272866666667}, {"rental_uris": {"android": "https://dc.lft.to/lastmile_qr_scan", "ios": "https://dc.lft.to/lastmile_qr_scan"}, "is_reserved": 0, "is_disabled": 0, "bike_id": "3b81584690b09cf8434acda4914d01e4", "lat": 38.8958685, "name": "3b81584690b09cf8434acda4914d01e4", "fusion_lon": 0.0, "fusion_lat": 0.0, "type": "electric_scooter", "lon": -77.02074066666667}, {"rental_uris": {"android": "https://dc.lft.to/lastmile_qr_scan", "ios": "https://dc.lft.to/lastmile_qr_scan"}, "is_reserved": 0, "is_disabled": 0, "bike_id": "4fb71cbe1af01dae774b93f392769ad3", "lat": 38.91901516666667, "name": "4fb71cbe1af01dae774b93f392769ad3", "fusion_lon": 0.0, "fusion_lat": 0.0, "type": "electric_scooter", "lon": -77.02051516666667}, {"rental_uris": {"android": "https://dc.lft.to/lastmile_qr_scan", "ios": "https://dc.lft.to/lastmile_qr_scan"}, "is_reserved": 0, "is_disabled": 0, "bike_id": "d4e57219f05e6a9d1c20d624aa87d9ec", "lat": 38.887351, "name": "d4e57219f05e6a9d1c20d624aa87d9ec", "fusion_lon": 0.0, "fusion_lat": 0.0, "type": "electric_scooter", "lon": -77.02843983333334}, {"rental_uris": {"android": "https://dc.lft.to/lastmile_qr_scan", "ios": "https://dc.lft.to/lastmile_qr_scan"}, "is_reserved": 0, "is_disabled": 0, "bike_id": "f4051662fce5688e43c6f863b20d68a6", "lat": 38.952235, "name": "f4051662fce5688e43c6f863b20d68a6", "fusion_lon": 0.0, "fusion_lat": 0.0, "type": "electric_scooter", "lon": -77.01427466666667}, {"rental_uris": {"android": "https://dc.lft.to/lastmile_qr_scan", "ios": "https://dc.lft.to/lastmile_qr_scan"}, "is_reserved": 0, "is_disabled": 0, "bike_id": "40276578da853c14c7de407b501554c5", "lat": 38.89469866666666, "name": "40276578da853c14c7de407b501554c5", "fusion_lon": 0.0, "fusion_lat": 0.0, "type": "electric_scooter", "lon": -77.00137333333333}, {"rental_uris": {"android": "https://dc.lft.to/lastmile_qr_scan", "ios": "https://dc.lft.to/lastmile_qr_scan"}, "is_reserved": 0, "is_disabled": 0, "bike_id": "90e8b2081019adb6f1ee2566f4693b9e", "lat": 38.921553833333334, "name": "90e8b2081019adb6f1ee2566f4693b9e", "fusion_lon": 0.0, "fusion_lat": 0.0, "type": "electric_scooter", "lon": -77.03381716666667}, {"rental_uris": {"android": "https://dc.lft.to/lastmile_qr_scan", "ios": "https://dc.lft.to/lastmile_qr_scan"}, "is_reserved": 0, "is_disabled": 0, "bike_id": "a96e5c45a84be2329e1fe841ecbf676c", "lat": 38.895079, "name": "a96e5c45a84be2329e1fe841ecbf676c", "fusion_lon": 0.0, "fusion_lat": 0.0, "type": "electric_scooter", "lon": -76.94887083333333}, {"rental_uris": {"android": "https://dc.lft.to/lastmile_qr_scan", "ios": "https://dc.lft.to/lastmile_qr_scan"}, "is_reserved": 0, "is_disabled": 0, "bike_id": "5c15da437d8ea9bbb6b7020f1b20d7a3", "lat": 38.923583, "name": "5c15da437d8ea9bbb6b7020f1b20d7a3", "fusion_lon": 0.0, "fusion_lat": 0.0, "type": "electric_scooter", "lon": -77.05133216666667}, {"rental_uris": {"android": "https://dc.lft.to/lastmile_qr_scan", "ios": "https://dc.lft.to/lastmile_qr_scan"}, "is_reserved": 0, "is_disabled": 0, "bike_id": "e54e7a1702b794586bb77f492998af8a", "lat": 38.92106316666667, "name": "e54e7a1702b794586bb77f492998af8a", "fusion_lon": 0.0, "fusion_lat": 0.0, "type": "electric_scooter", "lon": -77.06331483333334}, {"rental_uris": {"android": "https://dc.lft.to/lastmile_qr_scan", "ios": "https://dc.lft.to/lastmile_qr_scan"}, "is_reserved": 0, "is_disabled": 0, "bike_id": "8dc445ffdddbbc5f0b5831516cb8de76", "lat": 38.89452083333333, "name": "8dc445ffdddbbc5f0b5831516cb8de76", "fusion_lon": 0.0, "fusion_lat": 0.0, "type": "electric_scooter", "lon": -77.0467735}, {"rental_uris": {"android": "https://dc.lft.to/lastmile_qr_scan", "ios": "https://dc.lft.to/lastmile_qr_scan"}, "is_reserved": 0, "is_disabled": 0, "bike_id": "181f0dbadd37bff862c360eb82748461", "lat": 38.924216, "name": "181f0dbadd37bff862c360eb82748461", "fusion_lon": 0.0, "fusion_lat": 0.0, "type": "electric_scooter", "lon": -77.04238416666666}, {"rental_uris": {"android": "https://dc.lft.to/lastmile_qr_scan", "ios": "https://dc.lft.to/lastmile_qr_scan"}, "is_reserved": 0, "is_disabled": 0, "bike_id": "eee4b255e5b257f14a2c9f6e7611b485", "lat": 38.9212075, "name": "eee4b255e5b257f14a2c9f6e7611b485", "fusion_lon": 0.0, "fusion_lat": 0.0, "type": "electric_scooter", "lon": -77.046381}, {"rental_uris": {"android": "https://dc.lft.to/lastmile_qr_scan", "ios": "https://dc.lft.to/lastmile_qr_scan"}, "is_reserved": 0, "is_disabled": 0, "bike_id": "c8ac035146102e7c84468500b9ba707d", "lat": 38.9307875, "name": "c8ac035146102e7c84468500b9ba707d", "fusion_lon": 0.0, "fusion_lat": 0.0, "type": "electric_scooter", "lon": -77.00411816666667}, {"rental_uris": {"android": "https://dc.lft.to/lastmile_qr_scan", "ios": "https://dc.lft.to/lastmile_qr_scan"}, "is_reserved": 0, "is_disabled": 0, "bike_id": "c45c0eebd485e0ae8c199b0d693ec9b4", "lat": 38.90540566666667, "name": "c45c0eebd485e0ae8c199b0d693ec9b4", "fusion_lon": 0.0, "fusion_lat": 0.0, "type": "electric_scooter", "lon": -77.03383033333333}, {"rental_uris": {"android": "https://dc.lft.to/lastmile_qr_scan", "ios": "https://dc.lft.to/lastmile_qr_scan"}, "is_reserved": 0, "is_disabled": 0, "bike_id": "19606fe32678ae88028c47f5e2e35530", "lat": 38.936533, "name": "19606fe32678ae88028c47f5e2e35530", "fusion_lon": 0.0, "fusion_lat": 0.0, "type": "electric_scooter", "lon": -77.03263766666667}, {"rental_uris": {"android": "https://dc.lft.to/lastmile_qr_scan", "ios": "https://dc.lft.to/lastmile_qr_scan"}, "is_reserved": 0, "is_disabled": 0, "bike_id": "a65ec4029baff7c2c6a46085a9a28e97", "lat": 38.93703583333333, "name": "a65ec4029baff7c2c6a46085a9a28e97", "fusion_lon": 0.0, "fusion_lat": 0.0, "type": "electric_scooter", "lon": -77.0610535}, {"rental_uris": {"android": "https://dc.lft.to/lastmile_qr_scan", "ios": "https://dc.lft.to/lastmile_qr_scan"}, "is_reserved": 0, "is_disabled": 0, "bike_id": "b8668da0c61df2860fa291b7c3ee90c4", "lat": 38.90012316666667, "name": "b8668da0c61df2860fa291b7c3ee90c4", "fusion_lon": 0.0, "fusion_lat": 0.0, "type": "electric_scooter", "lon": -77.0448165}, {"rental_uris": {"android": "https://dc.lft.to/lastmile_qr_scan", "ios": "https://dc.lft.to/lastmile_qr_scan"}, "is_reserved": 0, "is_disabled": 0, "bike_id": "68ab0ecb00b7e1e8ff6628dfdd1d701c", "lat": 38.8600755, "name": "68ab0ecb00b7e1e8ff6628dfdd1d701c", "fusion_lon": 0.0, "fusion_lat": 0.0, "type": "electric_scooter", "lon": -76.9852295}, {"rental_uris": {"android": "https://dc.lft.to/lastmile_qr_scan", "ios": "https://dc.lft.to/lastmile_qr_scan"}, "is_reserved": 0, "is_disabled": 0, "bike_id": "6ea5dca6cdcfae30692b8cbed57721bc", "lat": 38.874998, "name": "6ea5dca6cdcfae30692b8cbed57721bc", "fusion_lon": 0.0, "fusion_lat": 0.0, "type": "electric_scooter", "lon": -77.00096533333334}, {"rental_uris": {"android": "https://dc.lft.to/lastmile_qr_scan", "ios": "https://dc.lft.to/lastmile_qr_scan"}, "is_reserved": 0, "is_disabled": 0, "bike_id": "7733a66e1ac41507019349b2c0b77018", "lat": 38.952828333333336, "name": "7733a66e1ac41507019349b2c0b77018", "fusion_lon": 0.0, "fusion_lat": 0.0, "type": "electric_scooter", "lon": -77.069841}, {"rental_uris": {"android": "https://dc.lft.to/lastmile_qr_scan", "ios": "https://dc.lft.to/lastmile_qr_scan"}, "is_reserved": 0, "is_disabled": 0, "bike_id": "1ff0182c53e574cd2cc7044ad0dd693e", "lat": 38.903171666666665, "name": "1ff0182c53e574cd2cc7044ad0dd693e", "fusion_lon": 0.0, "fusion_lat": 0.0, "type": "electric_scooter", "lon": -76.991047}, {"rental_uris": {"android": "https://dc.lft.to/lastmile_qr_scan", "ios": "https://dc.lft.to/lastmile_qr_scan"}, "is_reserved": 0, "is_disabled": 0, "bike_id": "cd62c7fcc8f328a551e9ab0dff62b03b", "lat": 38.91266316666667, "name": "cd62c7fcc8f328a551e9ab0dff62b03b", "fusion_lon": 0.0, "fusion_lat": 0.0, "type": "electric_scooter", "lon": -77.02211}, {"rental_uris": {"android": "https://dc.lft.to/lastmile_qr_scan", "ios": "https://dc.lft.to/lastmile_qr_scan"}, "is_reserved": 0, "is_disabled": 0, "bike_id": "b507adb2dad9aca6d69ddef67ca8d14d", "lat": 38.91047016666667, "name": "b507adb2dad9aca6d69ddef67ca8d14d", "fusion_lon": 0.0, "fusion_lat": 0.0, "type": "electric_scooter", "lon": -77.03851683333333}, {"rental_uris": {"android": "https://dc.lft.to/lastmile_qr_scan", "ios": "https://dc.lft.to/lastmile_qr_scan"}, "is_reserved": 0, "is_disabled": 0, "bike_id": "72812a6cf370d275a8838daab5d63d01", "lat": 38.9237675, "name": "72812a6cf370d275a8838daab5d63d01", "fusion_lon": 0.0, "fusion_lat": 0.0, "type": "electric_scooter", "lon": -77.027387}, {"rental_uris": {"android": "https://dc.lft.to/lastmile_qr_scan", "ios": "https://dc.lft.to/lastmile_qr_scan"}, "is_reserved": 0, "is_disabled": 0, "bike_id": "96b6cb971c9429be38e08d4963a7b113", "lat": 38.935739, "name": "96b6cb971c9429be38e08d4963a7b113", "fusion_lon": 0.0, "fusion_lat": 0.0, "type": "electric_scooter", "lon": -77.0351715}, {"rental_uris": {"android": "https://dc.lft.to/lastmile_qr_scan", "ios": "https://dc.lft.to/lastmile_qr_scan"}, "is_reserved": 0, "is_disabled": 0, "bike_id": "b5917a1ecb1897e3d194d2b0c7991b52", "lat": 38.943246, "name": "b5917a1ecb1897e3d194d2b0c7991b52", "fusion_lon": 0.0, "fusion_lat": 0.0, "type": "electric_scooter", "lon": -77.02683883333333}, {"rental_uris": {"android": "https://dc.lft.to/lastmile_qr_scan", "ios": "https://dc.lft.to/lastmile_qr_scan"}, "is_reserved": 0, "is_disabled": 0, "bike_id": "f33047c357f7cb47e107d3f46d1eff34", "lat": 38.8987365, "name": "f33047c357f7cb47e107d3f46d1eff34", "fusion_lon": 0.0, "fusion_lat": 0.0, "type": "electric_scooter", "lon": -77.0328545}, {"rental_uris": {"android": "https://dc.lft.to/lastmile_qr_scan", "ios": "https://dc.lft.to/lastmile_qr_scan"}, "is_reserved": 0, "is_disabled": 0, "bike_id": "8a4322a9a33d074bc671a120cb70507e", "lat": 38.880355, "name": "8a4322a9a33d074bc671a120cb70507e", "fusion_lon": 0.0, "fusion_lat": 0.0, "type": "electric_scooter", "lon": -76.998359}, {"rental_uris": {"android": "https://dc.lft.to/lastmile_qr_scan", "ios": "https://dc.lft.to/lastmile_qr_scan"}, "is_reserved": 0, "is_disabled": 0, "bike_id": "3265f01fefd78da08ace7b2088697a37", "lat": 38.920488, "name": "3265f01fefd78da08ace7b2088697a37", "fusion_lon": 0.0, "fusion_lat": 0.0, "type": "electric_scooter", "lon": -77.03468}, {"rental_uris": {"android": "https://dc.lft.to/lastmile_qr_scan", "ios": "https://dc.lft.to/lastmile_qr_scan"}, "is_reserved": 0, "is_disabled": 0, "bike_id": "cf5f807ee95b8880736b58dfd27256b7", "lat": 38.921588666666665, "name": "cf5f807ee95b8880736b58dfd27256b7", "fusion_lon": 0.0, "fusion_lat": 0.0, "type": "electric_scooter", "lon": -77.033787}, {"rental_uris": {"android": "https://dc.lft.to/lastmile_qr_scan", "ios": "https://dc.lft.to/lastmile_qr_scan"}, "is_reserved": 0, "is_disabled": 0, "bike_id": "52309fd6f3880462ae624a5d5477d4b5", "lat": 38.931607666666665, "name": "52309fd6f3880462ae624a5d5477d4b5", "fusion_lon": 0.0, "fusion_lat": 0.0, "type": "electric_scooter", "lon": -77.056083}, {"rental_uris": {"android": "https://dc.lft.to/lastmile_qr_scan", "ios": "https://dc.lft.to/lastmile_qr_scan"}, "is_reserved": 0, "is_disabled": 0, "bike_id": "a5b26fbbed5d8e320fa0d3fae02cbfb4", "lat": 38.90961333333333, "name": "a5b26fbbed5d8e320fa0d3fae02cbfb4", "fusion_lon": 0.0, "fusion_lat": 0.0, "type": "electric_scooter", "lon": -77.04808883333334}, {"rental_uris": {"android": "https://dc.lft.to/lastmile_qr_scan", "ios": "https://dc.lft.to/lastmile_qr_scan"}, "is_reserved": 0, "is_disabled": 0, "bike_id": "6ae82d2298101a0dd1347fbbf5a9f6f1", "lat": 38.902692, "name": "6ae82d2298101a0dd1347fbbf5a9f6f1", "fusion_lon": 0.0, "fusion_lat": 0.0, "type": "electric_scooter", "lon": -77.0336985}, {"rental_uris": {"android": "https://dc.lft.to/lastmile_qr_scan", "ios": "https://dc.lft.to/lastmile_qr_scan"}, "is_reserved": 0, "is_disabled": 0, "bike_id": "9c8f4534756ef276bfe111afbf4c4e32", "lat": 38.95005916666667, "name": "9c8f4534756ef276bfe111afbf4c4e32", "fusion_lon": 0.0, "fusion_lat": 0.0, "type": "electric_scooter", "lon": -77.0673175}, {"rental_uris": {"android": "https://dc.lft.to/lastmile_qr_scan", "ios": "https://dc.lft.to/lastmile_qr_scan"}, "is_reserved": 0, "is_disabled": 0, "bike_id": "499bbbaaeab9b4e8fdb5ad4e8c23152f", "lat": 38.89217883333333, "name": "499bbbaaeab9b4e8fdb5ad4e8c23152f", "fusion_lon": 0.0, "fusion_lat": 0.0, "type": "electric_scooter", "lon": -77.01372683333334}, {"rental_uris": {"android": "https://dc.lft.to/lastmile_qr_scan", "ios": "https://dc.lft.to/lastmile_qr_scan"}, "is_reserved": 0, "is_disabled": 0, "bike_id": "5cb031cc8756f5ad9314c204679ee618", "lat": 38.871433833333334, "name": "5cb031cc8756f5ad9314c204679ee618", "fusion_lon": 0.0, "fusion_lat": 0.0, "type": "electric_scooter", "lon": -76.977444}, {"rental_uris": {"android": "https://dc.lft.to/lastmile_qr_scan", "ios": "https://dc.lft.to/lastmile_qr_scan"}, "is_reserved": 0, "is_disabled": 0, "bike_id": "8c5d022a9e8edf27c833ef997e619f9a", "lat": 38.89729116666667, "name": "8c5d022a9e8edf27c833ef997e619f9a", "fusion_lon": 0.0, "fusion_lat": 0.0, "type": "electric_scooter", "lon": -77.023241}, {"rental_uris": {"android": "https://dc.lft.to/lastmile_qr_scan", "ios": "https://dc.lft.to/lastmile_qr_scan"}, "is_reserved": 0, "is_disabled": 0, "bike_id": "949cc5ce8e844f823ea532f64b2d5cb8", "lat": 38.9242975, "name": "949cc5ce8e844f823ea532f64b2d5cb8", "fusion_lon": 0.0, "fusion_lat": 0.0, "type": "electric_scooter", "lon": -77.05177466666666},