{"data": {"bikes": [{"is_reserved": 0, "type": "electric_bike", "bike_id": "32c0e801aaa1cb2cbffd1f3b926520ab", "lat": 38.92552166666667, "lon": -77.001232, "rental_uris": {"android": "https://dc.lft.to/lastmile_qr_scan", "ios": "https://dc.lft.to/lastmile_qr_scan"}, "is_disabled": 0, "fusion_lat": 0.0, "name": "32c0e801aaa1cb2cbffd1f3b926520ab", "fusion_lon": 0.0}, {"is_reserved": 0, "type": "electric_scooter", "bike_id": "bd263939c9a1a4ed8710111d6d028783", "lat": 38.93140233333333, "lon": -77.02984883333333, "rental_uris": {"android": "https://dc.lft.to/lastmile_qr_scan", "ios": "https://dc.lft.to/lastmile_qr_scan"}, "is_disabled": 0, "fusion_lat": 0.0, "name": "bd263939c9a1a4ed8710111d6d028783", "fusion_lon": 0.0}, {"is_reserved": 0, "type": "electric_scooter", "bike_id": "d806d48bb81704448892625651646546", "lat": 38.885304833333336, "lon": -76.998272, "rental_uris": {"android": "https://dc.lft.to/lastmile_qr_scan", "ios": "https://dc.lft.to/lastmile_qr_scan"}, "is_disabled": 0, "fusion_lat": 0.0, "name": "d806d48bb81704448892625651646546", "fusion_lon": 0.0}, {"is_reserved": 0, "type": "electric_bike", "bike_id": "213972df438b78befd90069c5a025728", "lat": 38.8541745, "lon": -77.08363833333334, "rental_uris": {"android": "https://dc.lft.to/lastmile_qr_scan", "ios": "https://dc.lft.to/lastmile_qr_scan"}, "is_disabled": 0, "fusion_lat": 0.0, "name": "213972df438b78befd90069c5a025728", "fusion_lon": 0.0}, {"is_reserved": 0, "type": "electric_scooter", "bike_id": "cb371b6941672c03889207aa76d1d474", "lat": 38.9140915, "lon": -77.03171066666667, "rental_uris": {"android": "https://dc.lft.to/lastmile_qr_scan", "ios": "https://dc.lft.to/lastmile_qr_scan"}, "is_disabled": 0, "fusion_lat": 0.0, "name": "cb371b6941672c03889207aa76d1d474", "fusion_lon": 0.0}, {"is_reserved": 0, "type": "electric_bike", "bike_id": "29b0be41cb1c8313e50975be066d5852", "lat": 39.00442266666666, "lon": -76.90133416666667, "rental_uris": {"android": "https://dc.lft.to/lastmile_qr_scan", "ios": "https://dc.lft.to/lastmile_qr_scan"}, "is_disabled": 0, "fusion_lat": 0.0, "name": "29b0be41cb1c8313e50975be066d5852", "fusion_lon": 0.0}, {"is_reserved": 0, "type": "electric_scooter", "bike_id": "31e42019794d143bf99b02a4bb49cddb", "lat": 38.924446333333336, "lon": -77.02036266666667, "rental_uris": {"android": "https://dc.lft.to/lastmile_qr_scan", "ios": "https://dc.lft.to/lastmile_qr_scan"}, "is_disabled": 0, "fusion_lat": 0.0, "name": "31e42019794d143bf99b02a4bb49cddb", "fusion_lon": 0.0}, {"is_reserved": 0, "type": "electric_bike", "bike_id": "ece1fa69f87d29342224b07d862e81ce", "lat": 38.8703715, "lon": -77.22907216666667, "rental_uris": {"android": "https://dc.lft.to/lastmile_qr_scan", "ios": "https://dc.lft.to/lastmile_qr_scan"}, "is_disabled": 0, "fusion_lat": 0.0, "name": "ece1fa69f87d29342224b07d862e81ce", "fusion_lon": 0.0}, {"is_reserved": 0, "type": "electric_scooter", "bike_id": "91f49d2df2ade8d58904c338836c1fd8", "lat": 38.91365366666667, "lon": -77.02741616666667, "rental_uris": {"android": "https://dc.lft.to/lastmile_qr_scan", "ios": "https://dc.lft.to/lastmile_qr_scan"}, "is_disabled": 0, "fusion_lat": 0.0, "name": "91f49d2df2ade8d58904c338836c1fd8", "fusion_lon": 0.0}, {"is_reserved": 0, "type": "electric_scooter", "bike_id": "c22f25f95e255c58948af41de7a77567", "lat": 38.93196316666667, "lon": -77.0195705, "rental_uris": {"android": "https://dc.lft.to/lastmile_qr_scan", "ios": "https://dc.lft.to/lastmile_qr_scan"}, "is_disabled": 0, "fusion_lat": 0.0, "name": "c22f25f95e255c58948af41de7a77567", "fusion_lon": 0.0}, {"is_reserved": 0, "type": "electric_scooter", "bike_id": "275f09a465773468ff328db73c713316", "lat": 38.92388366666667, "lon": -77.0257975, "rental_uris": {"android": "https://dc.lft.to/lastmile_qr_scan", "ios": "https://dc.lft.to/lastmile_qr_scan"}, "is_disabled": 0, "fusion_lat": 0.0, "name": "275f09a465773468ff328db73c713316", "fusion_lon": 0.0}, {"is_reserved": 0, "type": "electric_scooter", "bike_id": "7c635499b78cc50989d5445f97fa9cde", "lat": 38.94047333333334, "lon": -77.02497983333333, "rental_uris": {"android": "https://dc.lft.to/lastmile_qr_scan", "ios": "https://dc.lft.to/lastmile_qr_scan"}, "is_disabled": 0, "fusion_lat": 0.0, "name": "7c635499b78cc50989d5445f97fa9cde", "fusion_lon": 0.0}, {"is_reserved": 0, "type": "electric_scooter", "bike_id": "351bf0ff66e2e61529f5b4d825eee4b6", "lat": 38.893849, "lon": -76.92310433333333, "rental_uris": {"android": "https://dc.lft.to/lastmile_qr_scan", "ios": "https://dc.lft.to/lastmile_qr_scan"}, "is_disabled": 0, "fusion_lat": 0.0, "name": "351bf0ff66e2e61529f5b4d825eee4b6", "fusion_lon": 0.0}, {"is_reserved": 0, "type": "electric_scooter", "bike_id": "2e737952d83433c5ebec6a0ae2d38ed7", "lat": 38.886356, "lon": -77.01970933333334, "rental_uris": {"android": "https://dc.lft.to/lastmile_qr_scan", "ios": "https://dc.lft.to/lastmile_qr_scan"}, "is_disabled": 0, "fusion_lat": 0.0, "name": "2e737952d83433c5ebec6a0ae2d38ed7", "fusion_lon": 0.0}, {"is_reserved": 0, "type": "electric_scooter", "bike_id": "431ab91778e91c9554745ed02e8e399e", "lat": 38.90789133333333, "lon": -77.00957816666667, "rental_uris": {"android": "https://dc.lft.to/lastmile_qr_scan", "ios": "https://dc.lft.to/lastmile_qr_scan"}, "is_disabled": 0, "fusion_lat": 0.0, "name": "431ab91778e91c9554745ed02e8e399e", "fusion_lon": 0.0}, {"is_reserved": 0, "type": "electric_scooter", "bike_id": "da0eab92d11775f2ed6443880d9c7b81", "lat": 38.91752366666667, "lon": -77.00455633333333, "rental_uris": {"android": "https://dc.lft.to/lastmile_qr_scan", "ios": "https://dc.lft.to/lastmile_qr_scan"}, "is_disabled": 0, "fusion_lat": 0.0, "name": "da0eab92d11775f2ed6443880d9c7b81", "fusion_lon": 0.0}, {"is_reserved": 0, "type": "electric_scooter", "bike_id": "e7bb7b5d57cb89c48ef83984eadf32c7", "lat": 38.949737999999996, "lon": -77.02446633333334, "rental_uris": {"android": "https://dc.lft.to/lastmile_qr_scan", "ios": "https://dc.lft.to/lastmile_qr_scan"}, "is_disabled": 0, "fusion_lat": 0.0, "name": "e7bb7b5d57cb89c48ef83984eadf32c7", "fusion_lon": 0.0}, {"is_reserved": 0, "type": "electric_scooter", "bike_id": "13abf48db52fdca3d935813a3c5945ea", "lat": 38.93332383333333, "lon": -77.02911133333333, "rental_uris": {"android": "https://dc.lft.to/lastmile_qr_scan", "ios": "https://dc.lft.to/lastmile_qr_scan"}, "is_disabled": 0, "fusion_lat": 0.0, "name": "13abf48db52fdca3d935813a3c5945ea", "fusion_lon": 0.0}, {"is_reserved": 0, "type": "electric_scooter", "bike_id": "9a3983e1f39f90e33f460b5dbb3e562a", "lat": 38.908058833333335, "lon": -77.04887083333334, "rental_uris": {"android": "https://dc.lft.to/lastmile_qr_scan", "ios": "https://dc.lft.to/lastmile_qr_scan"}, "is_disabled": 0, "fusion_lat": 0.0, "name": "9a3983e1f39f90e33f460b5dbb3e562a", "fusion_lon": 0.0}, {"is_reserved": 0, "type": "electric_scooter", "bike_id": "070d7bb44319779d7a1aff679189106b", "lat": 38.916399, "lon": -77.04267933333334, "rental_uris": {"android": "https://dc.lft.to/lastmile_qr_scan", "ios": "https://dc.lft.to/lastmile_qr_scan"}, "is_disabled": 0, "fusion_lat": 0.0, "name": "070d7bb44319779d7a1aff679189106b", "fusion_lon": 0.0}, {"is_reserved": 0, "type": "electric_scooter", "bike_id": "0d5cbf0c8d28cfca49bcee7957f58905", "lat": 38.879681833333336, "lon": -77.00845316666667, "rental_uris": {"android": "https://dc.lft.to/lastmile_qr_scan", "ios": "https://dc.lft.to/lastmile_qr_scan"}, "is_disabled": 0, "fusion_lat": 0.0, "name": "0d5cbf0c8d28cfca49bcee7957f58905", "fusion_lon": 0.0}, {"is_reserved": 0, "type": "electric_scooter", "bike_id": "08986fb759332720dcb58f43b633dfc1", "lat": 38.902336166666664, "lon": -77.01634883333334, "rental_uris": {"android": "https://dc.lft.to/lastmile_qr_scan", "ios": "https://dc.lft.to/lastmile_qr_scan"}, "is_disabled": 0, "fusion_lat": 0.0, "name": "08986fb759332720dcb58f43b633dfc1", "fusion_lon": 0.0}, {"is_reserved": 0, "type": "electric_bike", "bike_id": "cc3d16c9480e4dc53e280af220ee5104", "lat": 38.89189416666667, "lon": -76.985625, "rental_uris": {"android": "https://dc.lft.to/lastmile_qr_scan", "ios": "https://dc.lft.to/lastmile_qr_scan"}, "is_disabled": 0, "fusion_lat": 0.0, "name": "cc3d16c9480e4dc53e280af220ee5104", "fusion_lon": 0.0}, {"is_reserved": 0, "type": "electric_bike", "bike_id": "ff9ac32f7adecfbac7052ff71e858238", "lat": 38.9213275, "lon": -77.00400316666666, "rental_uris": {"android": "https://dc.lft.to/lastmile_qr_scan", "ios": "https://dc.lft.to/lastmile_qr_scan"}, "is_disabled": 0, "fusion_lat": 0.0, "name": "ff9ac32f7adecfbac7052ff71e858238", "fusion_lon": 0.0}, {"is_reserved": 0, "type": "electric_scooter", "bike_id": "f6c806356a304797cd06b1a01c6b338f", "lat": 38.9114555, "lon": -77.02175933333334, "rental_uris": {"android": "https://dc.lft.to/lastmile_qr_scan", "ios": "https://dc.lft.to/lastmile_qr_scan"}, "is_disabled": 0, "fusion_lat": 0.0, "name": "f6c806356a304797cd06b1a01c6b338f", "fusion_lon": 0.0}, {"is_reserved": 0, "type": "electric_scooter", "bike_id": "fdc65022319334c8c9ef31b93d54ca43", "lat": 38.94518716666666, "lon": -77.0297685, "rental_uris": {"android": "https://dc.lft.to/lastmile_qr_scan", "ios": "https://dc.lft.to/lastmile_qr_scan"}, "is_disabled": 0, "fusion_lat": 0.0, "name": "fdc65022319334c8c9ef31b93d54ca43", "fusion_lon": 0.0}, {"is_reserved": 0, "type": "electric_scooter", "bike_id": "6a450f823fa03720690595de7d15fdba", "lat": 38.897513333333336, "lon": -77.00911233333333, "rental_uris": {"android": "https://dc.lft.to/lastmile_qr_scan", "ios": "https://dc.lft.to/lastmile_qr_scan"}, "is_disabled": 0, "fusion_lat": 0.0, "name": "6a450f823fa03720690595de7d15fdba", "fusion_lon": 0.0}, {"is_reserved": 0, "type": "electric_scooter", "bike_id": "81514b5d27bf2234d6ff88125ed78e37", "lat": 38.94977983333333, "lon": -77.02014983333333, "rental_uris": {"android": "https://dc.lft.to/lastmile_qr_scan", "ios": "https://dc.lft.to/lastmile_qr_scan"}, "is_disabled": 0, "fusion_lat": 0.0, "name": "81514b5d27bf2234d6ff88125ed78e37", "fusion_lon": 0.0}, {"is_reserved": 0, "type": "electric_scooter", "bike_id": "397216bd70d71e684079184453b88ef9", "lat": 38.907839333333335, "lon": -77.0000935, "rental_uris": {"android": "https://dc.lft.to/lastmile_qr_scan", "ios": "https://dc.lft.to/lastmile_qr_scan"}, "is_disabled": 0, "fusion_lat": 0.0, "name": "397216bd70d71e684079184453b88ef9", "fusion_lon": 0.0}, {"is_reserved": 0, "type": "electric_scooter", "bike_id": "04d2c042c88ea2672dca4b6356ddf3a9", "lat": 38.921968166666666, "lon": -77.04245666666667, "rental_uris": {"android": "https://dc.lft.to/lastmile_qr_scan", "ios": "https://dc.lft.to/lastmile_qr_scan"}, "is_disabled": 0, "fusion_lat": 0.0, "name": "04d2c042c88ea2672dca4b6356ddf3a9", "fusion_lon": 0.0}, {"is_reserved": 0, "type": "electric_scooter", "bike_id": "0ff641e869a4896f34aa83e802107a11", "lat": 38.92026116666667, "lon": -77.0187925, "rental_uris": {"android": "https://dc.lft.to/lastmile_qr_scan", "ios": "https://dc.lft.to/lastmile_qr_scan"}, "is_disabled": 0, "fusion_lat": 0.0, "name": "0ff641e869a4896f34aa83e802107a11", "fusion_lon": 0.0}, {"is_reserved": 0, "type": "electric_scooter", "bike_id": "65e0f5131031d178b689466754630dad", "lat": 38.927330833333336, "lon": -77.05254, "rental_uris": {"android": "https://dc.lft.to/lastmile_qr_scan", "ios": "https://dc.lft.to/lastmile_qr_scan"}, "is_disabled": 0, "fusion_lat": 0.0, "name": "65e0f5131031d178b689466754630dad", "fusion_lon": 0.0}, {"is_reserved": 0, "type": "electric_scooter", "bike_id": "75e03aa691b483deb31cbc983e90bbac", "lat": 38.93065033333333, "lon": -77.0296725, "rental_uris": {"android": "https://dc.lft.to/lastmile_qr_scan", "ios": "https://dc.lft.to/lastmile_qr_scan"}, "is_disabled": 0, "fusion_lat": 0.0, "name": "75e03aa691b483deb31cbc983e90bbac", "fusion_lon": 0.0}, {"is_reserved": 0, "type": "electric_scooter", "bike_id": "047050980bea0aff23fbd6dfdd6d3907", "lat": 38.9231985, "lon": -77.045051, "rental_uris": {"android": "https://dc.lft.to/lastmile_qr_scan", "ios": "https://dc.lft.to/lastmile_qr_scan"}, "is_disabled": 0, "fusion_lat": 0.0, "name": "047050980bea0aff23fbd6dfdd6d3907", "fusion_lon": 0.0}, {"is_reserved": 0, "type": "electric_scooter", "bike_id": "6bf74cf4adae11dffb0775d75562a370", "lat": 38.9207425, "lon": -77.02499866666666, "rental_uris": {"android": "https://dc.lft.to/lastmile_qr_scan", "ios": "https://dc.lft.to/lastmile_qr_scan"}, "is_disabled": 0, "fusion_lat": 0.0, "name": "6bf74cf4adae11dffb0775d75562a370", "fusion_lon": 0.0}, {"is_reserved": 0, "type": "electric_scooter", "bike_id": "20ef27d21910214d2a369d3829c6175c", "lat": 38.907408333333336, "lon": -77.00759166666667, "rental_uris": {"android": "https://dc.lft.to/lastmile_qr_scan", "ios": "https://dc.lft.to/lastmile_qr_scan"}, "is_disabled": 0, "fusion_lat": 0.0, "name": "20ef27d21910214d2a369d3829c6175c", "fusion_lon": 0.0}, {"is_reserved": 0, "type": "electric_scooter", "bike_id": "24348225d95ea659cb87485b911aebe2", "lat": 38.89910166666667, "lon": -77.033604, "rental_uris": {"android": "https://dc.lft.to/lastmile_qr_scan", "ios": "https://dc.lft.to/lastmile_qr_scan"}, "is_disabled": 0, "fusion_lat": 0.0, "name": "24348225d95ea659cb87485b911aebe2", "fusion_lon": 0.0}, {"is_reserved": 0, "type": "electric_scooter", "bike_id": "9f585d925a2606ba968380ef46771687", "lat": 38.9352875, "lon": -77.02850533333333, "rental_uris": {"android": "https://dc.lft.to/lastmile_qr_scan", "ios": "https://dc.lft.to/lastmile_qr_scan"}, "is_disabled": 0, "fusion_lat": 0.0, "name": "9f585d925a2606ba968380ef46771687", "fusion_lon": 0.0}, {"is_reserved": 0, "type": "electric_scooter", "bike_id": "3e5b29a4e6314ed990c2364440f07c0b", "lat": 38.92155066666667, "lon": -77.03873983333334, "rental_uris": {"android": "https://dc.lft.to/lastmile_qr_scan", "ios": "https://dc.lft.to/lastmile_qr_scan"}, "is_disabled": 0, "fusion_lat": 0.0, "name": "3e5b29a4e6314ed990c2364440f07c0b", "fusion_lon": 0.0}, {"is_reserved": 0, "type": "electric_scooter", "bike_id": "e411cea3cda0e99ee924527f7662f502", "lat": 38.92025733333333, "lon": -77.01851383333333, "rental_uris": {"android": "https://dc.lft.to/lastmile_qr_scan", "ios": "https://dc.lft.to/lastmile_qr_scan"}, "is_disabled": 0, "fusion_lat": 0.0, "name": "e411cea3cda0e99ee924527f7662f502", "fusion_lon": 0.0}, {"is_reserved": 0, "type": "electric_scooter", "bike_id": "fae4c64ae19b6c7543bbb5b0b36f3c9d", "lat": 38.92646766666667, "lon": -77.02707883333333, "rental_uris": {"android": "https://dc.lft.to/lastmile_qr_scan", "ios": "https://dc.lft.to/lastmile_qr_scan"}, "is_disabled": 0, "fusion_lat": 0.0, "name": "fae4c64ae19b6c7543bbb5b0b36f3c9d", "fusion_lon": 0.0}, {"is_reserved": 0, "type": "electric_scooter", "bike_id": "c65a6803aeffbe0fcce201d47f0d5dca", "lat": 38.919916, "lon": -77.01788083333334, "rental_uris": {"android": "https://dc.lft.to/lastmile_qr_scan", "ios": "https://dc.lft.to/lastmile_qr_scan"}, "is_disabled": 0, "fusion_lat": 0.0, "name": "c65a6803aeffbe0fcce201d47f0d5dca", "fusion_lon": 0.0}, {"is_reserved": 0, "type": "electric_scooter", "bike_id": "097994945fb1c55ded08a423216ee3c7", "lat": 38.8750015, "lon": -77.00051816666667, "rental_uris": {"android": "https://dc.lft.to/lastmile_qr_scan", "ios": "https://dc.lft.to/lastmile_qr_scan"}, "is_disabled": 0, "fusion_lat": 0.0, "name": "097994945fb1c55ded08a423216ee3c7", "fusion_lon": 0.0}, {"is_reserved": 0, "type": "electric_scooter", "bike_id": "568a7b80af403fbb2231bfb18bd0de34", "lat": 38.895441, "lon": -76.98334316666667, "rental_uris": {"android": "https://dc.lft.to/lastmile_qr_scan", "ios": "https://dc.lft.to/lastmile_qr_scan"}, "is_disabled": 0, "fusion_lat": 0.0, "name": "568a7b80af403fbb2231bfb18bd0de34", "fusion_lon": 0.0}, {"is_reserved": 0, "type": "electric_bike", "bike_id": "48190f8b85ec31bd7e5ac14412132648", "lat": 38.90691066666667, "lon": -76.95253216666667, "rental_uris": {"android": "https://dc.lft.to/lastmile_qr_scan", "ios": "https://dc.lft.to/lastmile_qr_scan"}, "is_disabled": 0, "fusion_lat": 0.0, "name": "48190f8b85ec31bd7e5ac14412132648", "fusion_lon": 0.0}, {"is_reserved": 0, "type": "electric_scooter", "bike_id": "098ef91c10ff326eac0d036b8bf2f888", "lat": 38.91952716666667, "lon": -77.028887, "rental_uris": {"android": "https://dc.lft.to/lastmile_qr_scan", "ios": "https://dc.lft.to/lastmile_qr_scan"}, "is_disabled": 0, "fusion_lat": 0.0, "name": "098ef91c10ff326eac0d036b8bf2f888", "fusion_lon": 0.0}, {"is_reserved": 0, "type": "electric_scooter", "bike_id": "0e91722409cfe8be744ce9d273b01a41", "lat": 38.940272666666665, "lon": -77.02514083333334, "rental_uris": {"android": "https://dc.lft.to/lastmile_qr_scan", "ios": "https://dc.lft.to/lastmile_qr_scan"}, "is_disabled": 0, "fusion_lat": 0.0, "name": "0e91722409cfe8be744ce9d273b01a41", "fusion_lon": 0.0}, {"is_reserved": 0, "type": "electric_scooter", "bike_id": "9948b6a6de43fa506519d574ff030edc", "lat": 38.921240166666664, "lon": -77.03177816666667, "rental_uris": {"android": "https://dc.lft.to/lastmile_qr_scan", "ios": "https://dc.lft.to/lastmile_qr_scan"}, "is_disabled": 0, "fusion_lat": 0.0, "name": "9948b6a6de43fa506519d574ff030edc", "fusion_lon": 0.0}, {"is_reserved": 0, "type": "electric_scooter", "bike_id": "a0ce8f1b5d1d4fbecf707cbd61d0c3af", "lat": 38.91676366666667, "lon": -77.03201566666667, "rental_uris": {"android": "https://dc.lft.to/lastmile_qr_scan", "ios": "https://dc.lft.to/lastmile_qr_scan"}, "is_disabled": 0, "fusion_lat": 0.0, "name": "a0ce8f1b5d1d4fbecf707cbd61d0c3af", "fusion_lon": 0.0}, {"is_reserved": 0, "type": "electric_scooter", "bike_id": "55a7ed6dc3a9de2d4f700b98dbd95ef8", "lat": 38.939741, "lon": -77.05473083333334, "rental_uris": {"android": "https://dc.lft.to/lastmile_qr_scan", "ios": "https://dc.lft.to/lastmile_qr_scan"}, "is_disabled": 0, "fusion_lat": 0.0, "name": "55a7ed6dc3a9de2d4f700b98dbd95ef8", "fusion_lon": 0.0}, {"is_reserved": 0, "type": "electric_scooter", "bike_id": "6de6699741123624d538abf009b88108", "lat": 38.9286635, "lon": -77.05661, "rental_uris": {"android": "https://dc.lft.to/lastmile_qr_scan", "ios": "https://dc.lft.to/lastmile_qr_scan"}, "is_disabled": 0, "fusion_lat": 0.0, "name": "6de6699741123624d538abf009b88108", "fusion_lon": 0.0}, {"is_reserved": 0, "type": "electric_bike", "bike_id": "4b60390e255b6b69ae13a9749accbf7e", "lat": 38.99536066666667, "lon": -77.07483516666667, "rental_uris": {"android": "https://dc.lft.to/lastmile_qr_scan", "ios": "https://dc.lft.to/lastmile_qr_scan"}, "is_disabled": 0, "fusion_lat": 0.0, "name": "4b60390e255b6b69ae13a9749accbf7e", "fusion_lon": 0.0}, {"is_reserved": 0, "type": "electric_scooter", "bike_id": "a10cba8cdcb82f9a4c3d1d356076228a", "lat": 38.93532183333333, "lon": -77.02491583333334, "rental_uris": {"android": "https://dc.lft.to/lastmile_qr_scan", "ios": "https://dc.lft.to/lastmile_qr_scan"}, "is_disabled": 0, "fusion_lat": 0.0, "name": "a10cba8cdcb82f9a4c3d1d356076228a", "fusion_lon": 0.0}, {"is_reserved": 0, "type": "electric_scooter", "bike_id": "f2c3dc006ee52d5bed3770411650d0e4", "lat": 38.8998685, "lon": -77.02715683333334, "rental_uris": {"android": "https://dc.lft.to/lastmile_qr_scan", "ios": "https://dc.lft.to/lastmile_qr_scan"}, "is_disabled": 0, "fusion_lat": 0.0, "name": "f2c3dc006ee52d5bed3770411650d0e4", "fusion_lon": 0.0}, {"is_reserved": 0, "type": "electric_scooter", "bike_id": "5094f305aa6da1a02d4711a31ecbb63b", "lat": 38.90388316666667, "lon": -77.01771016666666, "rental_uris": {"android": "https://dc.lft.to/lastmile_qr_scan", "ios": "https://dc.lft.to/lastmile_qr_scan"}, "is_disabled": 0, "fusion_lat": 0.0, "name": "5094f305aa6da1a02d4711a31ecbb63b", "fusion_lon": 0.0}, {"is_reserved": 0, "type": "electric_scooter", "bike_id": "ef6cf055f2aeb2458570b48bff36e2da", "lat": 38.95183133333333, "lon": -77.026113, "rental_uris": {"android": "https://dc.lft.to/lastmile_qr_scan", "ios": "https://dc.lft.to/lastmile_qr_scan"}, "is_disabled": 0, "fusion_lat": 0.0, "name": "ef6cf055f2aeb2458570b48bff36e2da", "fusion_lon": 0.0}, {"is_reserved": 0, "type": "electric_scooter", "bike_id": "8abfa05d20c7f19f6d2dbe3c648fd40f", "lat": 38.911764166666664, "lon": -77.0045095, "rental_uris": {"android": "https://dc.lft.to/lastmile_qr_scan", "ios": "https://dc.lft.to/lastmile_qr_scan"}, "is_disabled": 0, "fusion_lat": 0.0, "name": "8abfa05d20c7f19f6d2dbe3c648fd40f", "fusion_lon": 0.0}, {"is_reserved": 0, "type": "electric_scooter", "bike_id": "c2252f230fb90bbcbaf49c025a48d225", "lat": 38.91623, "lon": -77.01570766666667, "rental_uris": {"android": "https://dc.lft.to/lastmile_qr_scan", "ios": "https://dc.lft.to/lastmile_qr_scan"}, "is_disabled": 0, "fusion_lat": 0.0, "name": "c2252f230fb90bbcbaf49c025a48d225", "fusion_lon": 0.0}, {"is_reserved": 0, "type": "electric_bike", "bike_id": "0ba2382ccbc20a7d599ae8af9e35da6c", "lat": 38.89454533333333, "lon": -77.0200335, "rental_uris": {"android": "https://dc.lft.to/lastmile_qr_scan", "ios": "https://dc.lft.to/lastmile_qr_scan"}, "is_disabled": 0, "fusion_lat": 0.0, "name": "0ba2382ccbc20a7d599ae8af9e35da6c", "fusion_lon": 0.0}, {"is_reserved": 0, "type": "electric_scooter", "bike_id": "962cb45b7bec933b64f67255d7bf94b0", "lat": 38.9664665, "lon": -77.00890066666666, "rental_uris": {"android": "https://dc.lft.to/lastmile_qr_scan", "ios": "https://dc.lft.to/lastmile_qr_scan"}, "is_disabled": 0, "fusion_lat": 0.0, "name": "962cb45b7bec933b64f67255d7bf94b0", "fusion_lon": 0.0}, {"is_reserved": 0, "type": "electric_scooter", "bike_id": "54aac6389a617999a3364c3cec1bf8ff", "lat": 38.914009166666666, "lon": -77.0433995, "rental_uris": {"android": "https://dc.lft.to/lastmile_qr_scan", "ios": "https://dc.lft.to/lastmile_qr_scan"}, "is_disabled": 0, "fusion_lat": 0.0, "name": "54aac6389a617999a3364c3cec1bf8ff", "fusion_lon": 0.0}, {"is_reserved": 0, "type": "electric_scooter", "bike_id": "4693a6e195caba7106c7da64926a6a90", "lat": 38.952665333333336, "lon": -77.023966, "rental_uris": {"android": "https://dc.lft.to/lastmile_qr_scan", "ios": "https://dc.lft.to/lastmile_qr_scan"}, "is_disabled": 0, "fusion_lat": 0.0, "name": "4693a6e195caba7106c7da64926a6a90", "fusion_lon": 0.0}, {"is_reserved": 0, "type": "electric_scooter", "bike_id": "3176fc98329793c75240f4453ad17b26", "lat": 38.92387383333333, "lon": -77.05058583333333, "rental_uris": {"android": "https://dc.lft.to/lastmile_qr_scan", "ios": "https://dc.lft.to/lastmile_qr_scan"}, "is_disabled": 0, "fusion_lat": 0.0, "name": "3176fc98329793c75240f4453ad17b26", "fusion_lon": 0.0}, {"is_reserved": 0, "type": "electric_scooter", "bike_id": "708374a64bf1b51e23d10404644dba03", "lat": 38.882472, "lon": -77.00625016666666, "rental_uris": {"android": "https://dc.lft.to/lastmile_qr_scan", "ios": "https://dc.lft.to/lastmile_qr_scan"}, "is_disabled": 0, "fusion_lat": 0.0, "name": "708374a64bf1b51e23d10404644dba03", "fusion_lon": 0.0}, {"is_reserved": 0, "type": "electric_scooter", "bike_id": "149d4e149aaef79c4c3f3ef81859a28e", "lat": 38.926015666666665, "lon": -77.03941216666666, "rental_uris": {"android": "https://dc.lft.to/lastmile_qr_scan", "ios": "https://dc.lft.to/lastmile_qr_scan"}, "is_disabled": 0, "fusion_lat": 0.0, "name": "149d4e149aaef79c4c3f3ef81859a28e", "fusion_lon": 0.0}, {"is_reserved": 0, "type": "electric_scooter", "bike_id": "9d755f1050590671fa00573036821465", "lat": 38.90791183333333, "lon": -77.02803716666666, "rental_uris": {"android": "https://dc.lft.to/lastmile_qr_scan", "ios": "https://dc.lft.to/lastmile_qr_scan"}, "is_disabled": 0, "fusion_lat": 0.0, "name": "9d755f1050590671fa00573036821465", "fusion_lon": 0.0}, {"is_reserved": 0, "type": "electric_scooter", "bike_id": "b69c470101567fb7c71b4a4c63fe5064", "lat": 38.89726066666667, "lon": -77.02170483333333, "rental_uris": {"android": "https://dc.lft.to/lastmile_qr_scan", "ios": "https://dc.lft.to/lastmile_qr_scan"}, "is_disabled": 0, "fusion_lat": 0.0, "name": "b69c470101567fb7c71b4a4c63fe5064", "fusion_lon": 0.0}, {"is_reserved": 0, "type": "electric_bike", "bike_id": "4345978d298183243aec513311a101c9", "lat": 38.841081833333334, "lon": -77.089412, "rental_uris": {"android": "https://dc.lft.to/lastmile_qr_scan", "ios": "https://dc.lft.to/lastmile_qr_scan"}, "is_disabled": 0, "fusion_lat": 0.0, "name": "4345978d298183243aec513311a101c9", "fusion_lon": 0.0}, {"is_reserved": 0, "type": "electric_scooter", "bike_id": "3da2036b1fc986cfc78534c7eddbf839", "lat": 38.9021805, "lon": -77.05116116666666, "rental_uris": {"android": "https://dc.lft.to/lastmile_qr_scan", "ios": "https://dc.lft.to/lastmile_qr_scan"}, "is_disabled": 0, "fusion_lat": 0.0, "name": "3da2036b1fc986cfc78534c7eddbf839", "fusion_lon": 0.0}, {"is_reserved": 0, "type": "electric_scooter", "bike_id": "478f269768d3c0d76095a96ac4c3a780", "lat": 38.920146833333334, "lon": -77.031971, "rental_uris": {"android": "https://dc.lft.to/lastmile_qr_scan", "ios": "https://dc.lft.to/lastmile_qr_scan"}, "is_disabled": 0, "fusion_lat": 0.0, "name": "478f269768d3c0d76095a96ac4c3a780", "fusion_lon": 0.0}, {"is_reserved": 0, "type": "electric_scooter", "bike_id": "89662865e8b7b92f5b1cb649710143e5", "lat": 38.879354166666666, "lon": -77.01674283333334, "rental_uris": {"android": "https://dc.lft.to/lastmile_qr_scan", "ios": "https://dc.lft.to/lastmile_qr_scan"}, "is_disabled": 0, "fusion_lat": 0.0, "name": "89662865e8b7b92f5b1cb649710143e5", "fusion_lon": 0.0}, {"is_reserved": 0, "type": "electric_scooter", "bike_id": "306f98d4823a275d44ba0190c8ffa556", "lat": 38.93112966666666, "lon": -77.02322116666667, "rental_uris": {"android": "https://dc.lft.to/lastmile_qr_scan", "ios": "https://dc.lft.to/lastmile_qr_scan"}, "is_disabled": 0, "fusion_lat": 0.0, "name": "306f98d4823a275d44ba0190c8ffa556", "fusion_lon": 0.0}, {"is_reserved": 0, "type": "electric_scooter", "bike_id": "55afbc8f102973c68c630d9e5831a708", "lat": 38.88771716666667, "lon": -76.9915975, "rental_uris": {"android": "https://dc.lft.to/lastmile_qr_scan", "ios": "https://dc.lft.to/lastmile_qr_scan"}, "is_disabled": 0, "fusion_lat": 0.0, "name": "55afbc8f102973c68c630d9e5831a708", "fusion_lon": 0.0}, {"is_reserved": 0, "type": "electric_scooter", "bike_id": "e233a56da34403f00228f605dc3bde5c", "lat": 38.91003166666667, "lon": -76.994115, "rental_uris": {"android": "https://dc.lft.to/lastmile_qr_scan", "ios": "https://dc.lft.to/lastmile_qr_scan"}, "is_disabled": 0, "fusion_lat": 0.0, "name": "e233a56da34403f00228f605dc3bde5c", "fusion_lon": 0.0}, {"is_reserved": 0, "type": "electric_scooter", "bike_id": "222e3d8a54d8be0cc53ae592b1e09614", "lat": 38.87470666666667, "lon": -77.00548166666667, "rental_uris": {"android": "https://dc.lft.to/lastmile_qr_scan", "ios": "https://dc.lft.to/lastmile_qr_scan"}, "is_disabled": 0, "fusion_lat": 0.0, "name": "222e3d8a54d8be0cc53ae592b1e09614", "fusion_lon": 0.0}, {"is_reserved": 0, "type": "electric_scooter", "bike_id": "8879d19f33ed74db40e6d70f68cb6ce1", "lat": 38.8829825, "lon": -76.94854383333333, "rental_uris": {"android": "https://dc.lft.to/lastmile_qr_scan", "ios": "https://dc.lft.to/lastmile_qr_scan"}, "is_disabled": 0, "fusion_lat": 0.0, "name": "8879d19f33ed74db40e6d70f68cb6ce1", "fusion_lon": 0.0}, {"is_reserved": 0, "type": "electric_scooter", "bike_id": "5b0450237a6c18253f75ae95b04bf37a", "lat": 38.92393333333333, "lon": -77.0505145, "rental_uris": {"android": "https://dc.lft.to/lastmile_qr_scan", "ios": "https://dc.lft.to/lastmile_qr_scan"}, "is_disabled": 0, "fusion_lat": 0.0, "name": "5b0450237a6c18253f75ae95b04bf37a", "fusion_lon": 0.0}, {"is_reserved": 0, "type": "electric_scooter", "bike_id": "0328c654de9244560df832576e74ecc4", "lat": 38.8995125, "lon": -77.0539065, "rental_uris": {"android": "https://dc.lft.to/lastmile_qr_scan", "ios": "https://dc.lft.to/lastmile_qr_scan"}, "is_disabled": 0, "fusion_lat": 0.0, "name": "0328c654de9244560df832576e74ecc4", "fusion_lon": 0.0}, {"is_reserved": 0, "type": "electric_scooter", "bike_id": "4c30b89186f61c00088f74fc4501cc57", "lat": 38.919229666666666, "lon": -77.04632633333334, "rental_uris": {"android": "https://dc.lft.to/lastmile_qr_scan", "ios": "https://dc.lft.to/lastmile_qr_scan"}, "is_disabled": 0, "fusion_lat": 0.0, "name": "4c30b89186f61c00088f74fc4501cc57", "fusion_lon": 0.0}, {"is_reserved": 0, "type": "electric_scooter", "bike_id": "e0f43aa5796bf288dd35bcf17ef6d43e", "lat": 38.900959666666665, "lon": -76.98097783333333, "rental_uris": {"android": "https://dc.lft.to/lastmile_qr_scan", "ios": "https://dc.lft.to/lastmile_qr_scan"}, "is_disabled": 0, "fusion_lat": 0.0, "name": "e0f43aa5796bf288dd35bcf17ef6d43e", "fusion_lon": 0.0}, {"is_reserved": 0, "type": "electric_scooter", "bike_id": "adea299a58f6b84c57248d6bd27056cf", "lat": 38.902441333333336, "lon": -77.04152783333333, "rental_uris": {"android": "https://dc.lft.to/lastmile_qr_scan", "ios": "https://dc.lft.to/lastmile_qr_scan"}, "is_disabled": 0, "fusion_lat": 0.0, "name": "adea299a58f6b84c57248d6bd27056cf", "fusion_lon": 0.0}, {"is_reserved": 0, "type": "electric_scooter", "bike_id": "22de578f63cede5d7967172a48898c0c", "lat": 38.923869833333335, "lon": -77.02882916666667, "rental_uris": {"android": "https://dc.lft.to/lastmile_qr_scan", "ios": "https://dc.lft.to/lastmile_qr_scan"}, "is_disabled": 0, "fusion_lat": 0.0, "name": "22de578f63cede5d7967172a48898c0c", "fusion_lon": 0.0}, {"is_reserved": 0, "type": "electric_scooter", "bike_id": "7485e1d40b93547e951ed77cd8b6304c", "lat": 38.89615583333333, "lon": -76.99732166666666, "rental_uris": {"android": "https://dc.lft.to/lastmile_qr_scan", "ios": "https://dc.lft.to/lastmile_qr_scan"}, "is_disabled": 0, "fusion_lat": 0.0, "name": "7485e1d40b93547e951ed77cd8b6304c", "fusion_lon": 0.0}, {"is_reserved": 0, "type": "electric_bike", "bike_id": "2af14d5c3cf5a7aa9d2fdb6b562448be", "lat": 38.945626, "lon": -76.95840133333333, "rental_uris": {"android": "https://dc.lft.to/lastmile_qr_scan", "ios": "https://dc.lft.to/lastmile_qr_scan"}, "is_disabled": 0, "fusion_lat": 0.0, "name": "2af14d5c3cf5a7aa9d2fdb6b562448be", "fusion_lon": 0.0}, {"is_reserved": 0, "type": "electric_scooter", "bike_id": "a7c1fefcefb45226e6c72a6eaa094129", "lat": 38.9009285, "lon": -77.01880766666666, "rental_uris": {"android": "https://dc.lft.to/lastmile_qr_scan", "ios": "https://dc.lft.to/lastmile_qr_scan"}, "is_disabled": 0, "fusion_lat": 0.0, "name": "a7c1fefcefb45226e6c72a6eaa094129", "fusion_lon": 0.0}, {"is_reserved": 0, "type": "electric_scooter", "bike_id": "32e5c326d53ab2439cc77683a2727bed", "lat": 38.93623483333333, "lon": -77.05907783333333, "rental_uris": {"android": "https://dc.lft.to/lastmile_qr_scan", "ios": "https://dc.lft.to/lastmile_qr_scan"}, "is_disabled": 0, "fusion_lat": 0.0, "name": "32e5c326d53ab2439cc77683a2727bed", "fusion_lon": 0.0}, {"is_reserved": 0, "type": "electric_bike", "bike_id": "f6b9ec80fdc58e14a9568743afc2fd96", "lat": 38.95873266666667, "lon": -76.97050316666666, "rental_uris": {"android": "https://dc.lft.to/lastmile_qr_scan", "ios": "https://dc.lft.to/lastmile_qr_scan"}, "is_disabled": 0, "fusion_lat": 0.0, "name": "f6b9ec80fdc58e14a9568743afc2fd96", "fusion_lon": 0.0}, {"is_reserved": 0, "type": "electric_scooter", "bike_id": "124873b8e8684c4c2841ba2064378780", "lat": 38.90010733333333, "lon": -76.99166516666666, "rental_uris": {"android": "https://dc.lft.to/lastmile_qr_scan", "ios": "https://dc.lft.to/lastmile_qr_scan"}, "is_disabled": 0, "fusion_lat": 0.0, "name": "124873b8e8684c4c2841ba2064378780", "fusion_lon": 0.0}, {"is_reserved": 0, "type": "electric_bike", "bike_id": "5b9879d4f085702a96dcb7dd58da9aaa", "lat": 38.955936, "lon": -76.995351, "rental_uris": {"android": "https://dc.lft.to/lastmile_qr_scan", "ios": "https://dc.lft.to/lastmile_qr_scan"}, "is_disabled": 0, "fusion_lat": 0.0, "name": "5b9879d4f085702a96dcb7dd58da9aaa", "fusion_lon": 0.0}, {"is_reserved": 0, "type": "electric_scooter", "bike_id": "f194d0b1ecc82d64355d8fbf4f90de2e", "lat": 38.88745083333333, "lon": -77.0174685, "rental_uris": {"android": "https://dc.lft.to/lastmile_qr_scan", "ios": "https://dc.lft.to/lastmile_qr_scan"}, "is_disabled": 0, "fusion_lat": 0.0, "name": "f194d0b1ecc82d64355d8fbf4f90de2e", "fusion_lon": 0.0}, {"is_reserved": 0, "type": "electric_bike", "bike_id": "6cddafb2414e0a6fb5e15d6d3a333886", "lat": 38.88243416666667, "lon": -76.96259666666667, "rental_uris": {"android": "https://dc.lft.to/lastmile_qr_scan", "ios": "https://dc.lft.to/lastmile_qr_scan"}, "is_disabled": 0, "fusion_lat": 0.0, "name": "6cddafb2414e0a6fb5e15d6d3a333886", "fusion_lon": 0.0}, {"is_reserved": 0, "type": "electric_scooter", "bike_id": "9f32135ae71037df4be1e8a56e9e3bad", "lat": 38.94007116666667, "lon": -77.027412, "rental_uris": {"android": "https://dc.lft.to/lastmile_qr_scan", "ios": "https://dc.lft.to/lastmile_qr_scan"}, "is_disabled": 0, "fusion_lat": 0.0, "name": "9f32135ae71037df4be1e8a56e9e3bad", "fusion_lon": 0.0}, {"is_reserved": 0, "type": "electric_scooter", "bike_id": "5194770b432f8a98dda1d060608ca01b", "lat": 38.905625, "lon": -76.99778816666667, "rental_uris": {"android": "https://dc.lft.to/lastmile_qr_scan", "ios": "https://dc.lft.to/lastmile_qr_scan"}, "is_disabled": 0, "fusion_lat": 0.0, "name": "5194770b432f8a98dda1d060608ca01b", "fusion_lon": 0.0}, {"is_reserved": 0, "type": "electric_scooter", "bike_id": "64b71829be9765e7a787835dd458fc03", "lat": 38.90096416666667, "lon": -77.0159005, "rental_uris": {"android": "https://dc.lft.to/lastmile_qr_scan", "ios": "https://dc.lft.to/lastmile_qr_scan"}, "is_disabled": 0, "fusion_lat": 0.0, "name": "64b71829be9765e7a787835dd458fc03", "fusion_lon": 0.0}, {"is_reserved": 0, "type": "electric_scooter", "bike_id": "7e73e63a00e7e0edd17970086365ad12", "lat": 38.9244695, "lon": -77.02032683333333, "rental_uris": {"android": "https://dc.lft.to/lastmile_qr_scan", "ios": "https://dc.lft.to/lastmile_qr_scan"}, "is_disabled": 0, "fusion_lat": 0.0, "name": "7e73e63a00e7e0edd17970086365ad12", "fusion_lon": 0.0}, {"is_reserved": 0, "type": "electric_scooter", "bike_id": "541c082be97727b2304040cd9966e6d1", "lat": 38.8995055, "lon": -77.05389716666667, "rental_uris": {"android": "https://dc.lft.to/lastmile_qr_scan", "ios": "https://dc.lft.to/lastmile_qr_scan"}, "is_disabled": 0, "fusion_lat": 0.0, "name": "541c082be97727b2304040cd9966e6d1", "fusion_lon": 0.0}, {"is_reserved": 0, "type": "electric_scooter", "bike_id": "4afd5ce5a2252e0f4a60d449c03ea78a", "lat": 38.937787166666666, "lon": -77.07453666666666, "rental_uris": {"android": "https://dc.lft.to/lastmile_qr_scan", "ios": "https://dc.lft.to/lastmile_qr_scan"}, "is_disabled": 0, "fusion_lat": 0.0, "name": "4afd5ce5a2252e0f4a60d449c03ea78a", "fusion_lon": 0.0}, {"is_reserved": 0, "type": "electric_scooter", "bike_id": "ed5d6cac6a76d38cf0a92b232ca0e73b", "lat": 38.911004166666665, "lon": -77.00359233333333, "rental_uris": {"android": "https://dc.lft.to/lastmile_qr_scan", "ios": "https://dc.lft.to/lastmile_qr_scan"}, "is_disabled": 0, "fusion_lat": 0.0, "name": "ed5d6cac6a76d38cf0a92b232ca0e73b", "fusion_lon": 0.0}, {"is_reserved": 0, "type": "electric_scooter", "bike_id": "e20486e3eadbc0786d2594033eb01071", "lat": 38.91237116666667, "lon": -77.0385615, "rental_uris": {"android": "https://dc.lft.to/lastmile_qr_scan", "ios": "https://dc.lft.to/lastmile_qr_scan"}, "is_disabled": 0, "fusion_lat": 0.0, "name": "e20486e3eadbc0786d2594033eb01071", "fusion_lon": 0.0}, {"is_reserved": 0, "type": "electric_scooter", "bike_id": "cf47bf02fefe1f5bc22e8f172358f24a", "lat": 38.94976283333333, "lon": -77.0245005, "rental_uris": {"android": "https://dc.lft.to/lastmile_qr_scan", "ios": "https://dc.lft.to/lastmile_qr_scan"}, "is_disabled": 0, "fusion_lat": 0.0, "name": "cf47bf02fefe1f5bc22e8f172358f24a", "fusion_lon": 0.0}, {"is_reserved": 0, "type": "electric_scooter", "bike_id": "733b00e9fd0ea23dd147e6ff414064db", "lat": 38.928693833333334, "lon": -77.03437783333334, "rental_uris": {"android": "https://dc.lft.to/lastmile_qr_scan", "ios": "https://dc.lft.to/lastmile_qr_scan"}, "is_disabled": 0, "fusion_lat": 0.0, "name": "733b00e9fd0ea23dd147e6ff414064db", "fusion_lon": 0.0}, {"is_reserved": 0, "type": "electric_bike", "bike_id": "a80d349d189c2a4044709e9a0d9c6a3b", "lat": 38.907941666666666, "lon": -77.02394, "rental_uris": {"android": "https://dc.lft.to/lastmile_qr_scan", "ios": "https://dc.lft.to/lastmile_qr_scan"}, "is_disabled": 0, "fusion_lat": 0.0, "name": "a80d349d189c2a4044709e9a0d9c6a3b", "fusion_lon": 0.0}, {"is_reserved": 0, "type": "electric_scooter", "bike_id": "a84a0de4287d8f5d99901a613c1fb2a5", "lat": 38.903498, "lon": -77.0107945, "rental_uris": {"android": "https://dc.lft.to/lastmile_qr_scan", "ios": "https://dc.lft.to/lastmile_qr_scan"}, "is_disabled": 0, "fusion_lat": 0.0, "name": "a84a0de4287d8f5d99901a613c1fb2a5", "fusion_lon": 0.0}, {"is_reserved": 0, "type": "electric_scooter", "bike_id": "f41a7f037d96513569e3bb9fc22fc137", "lat": 38.882168, "lon": -77.006124, "rental_uris": {"android": "https://dc.lft.to/lastmile_qr_scan", "ios": "https://dc.lft.to/lastmile_qr_scan"}, "is_disabled": 0, "fusion_lat": 0.0, "name": "f41a7f037d96513569e3bb9fc22fc137", "fusion_lon": 0.0}, {"is_reserved": 0, "type": "electric_scooter", "bike_id": "336606886fa6e12aeb9ff608fe354e01", "lat": 38.90060483333333, "lon": -76.98658066666667, "rental_uris": {"android": "https://dc.lft.to/lastmile_qr_scan", "ios": "https://dc.lft.to/lastmile_qr_scan"}, "is_disabled": 0, "fusion_lat": 0.0, "name": "336606886fa6e12aeb9ff608fe354e01", "fusion_lon": 0.0}, {"is_reserved": 0, "type": "electric_scooter", "bike_id": "95f75427460ff97372e278d916a06530", "lat": 38.93755866666667, "lon": -77.03153616666667, "rental_uris": {"android": "https://dc.lft.to/lastmile_qr_scan", "ios": "https://dc.lft.to/lastmile_qr_scan"}, "is_disabled": 0, "fusion_lat": 0.0, "name": "95f75427460ff97372e278d916a06530", "fusion_lon": 0.0}, {"is_reserved": 0, "type": "electric_bike", "bike_id": "af10c40903f03c6c71f22840a3a689a3", "lat": 38.88903066666666, "lon": -77.15961383333334, "rental_uris": {"android": "https://dc.lft.to/lastmile_qr_scan", "ios": "https://dc.lft.to/lastmile_qr_scan"}, "is_disabled": 0, "fusion_lat": 0.0, "name": "af10c40903f03c6c71f22840a3a689a3", "fusion_lon": 0.0}, {"is_reserved": 0, "type": "electric_scooter", "bike_id": "650245e1de78c4b9c8942a2c52035626", "lat": 38.8964335, "lon": -77.02613433333333, "rental_uris": {"android": "https://dc.lft.to/lastmile_qr_scan", "ios": "https://dc.lft.to/lastmile_qr_scan"}, "is_disabled": 0, "fusion_lat": 0.0, "name": "650245e1de78c4b9c8942a2c52035626", "fusion_lon": 0.0}, {"is_reserved": 0, "type": "electric_scooter", "bike_id": "a464312c774791d967f95d7ad0c44131", "lat": 38.920896166666665, "lon": -77.01784566666667, "rental_uris": {"android": "https://dc.lft.to/lastmile_qr_scan", "ios": "https://dc.lft.to/lastmile_qr_scan"}, "is_disabled": 0, "fusion_lat": 0.0, "name": "a464312c774791d967f95d7ad0c44131", "fusion_lon": 0.0}, {"is_reserved": 0, "type": "electric_bike", "bike_id": "cadd949c1278e44a1daa9927ac34b168", "lat": 38.93214, "lon": -77.02340116666667, "rental_uris": {"android": "https://dc.lft.to/lastmile_qr_scan", "ios": "https://dc.lft.to/lastmile_qr_scan"}, "is_disabled": 0, "fusion_lat": 0.0, "name": "cadd949c1278e44a1daa9927ac34b168", "fusion_lon": 0.0}, {"is_reserved": 0, "type": "electric_scooter", "bike_id": "3a6d65bc074b5d3c30e068f591a2bd77", "lat": 38.940334666666665, "lon": -77.02642283333333, "rental_uris": {"android": "https://dc.lft.to/lastmile_qr_scan", "ios": "https://dc.lft.to/lastmile_qr_scan"}, "is_disabled": 0, "fusion_lat": 0.0, "name": "3a6d65bc074b5d3c30e068f591a2bd77", "fusion_lon": 0.0}, {"is_reserved": 0, "type": "electric_scooter", "bike_id": "8c5af2a8ae1a7d4fca5e9d5b08e3eb00", "lat": 38.90724733333333, "lon": -77.04558616666667, "rental_uris": {"android": "https://dc.lft.to/lastmile_qr_scan", "ios": "https://dc.lft.to/lastmile_qr_scan"}, "is_disabled": 0, "fusion_lat": 0.0, "name": "8c5af2a8ae1a7d4fca5e9d5b08e3eb00", "fusion_lon": 0.0}, {"is_reserved": 0, "type": "electric_scooter", "bike_id": "dca5490df5fb6b34c9feba780dc947a1", "lat": 38.9208095, "lon": -77.076968, "rental_uris": {"android": "https://dc.lft.to/lastmile_qr_scan", "ios": "https://dc.lft.to/lastmile_qr_scan"}, "is_disabled": 0, "fusion_lat": 0.0, "name": "dca5490df5fb6b34c9feba780dc947a1", "fusion_lon": 0.0}, {"is_reserved": 0, "type": "electric_scooter", "bike_id": "e9924da8a58d26bdf19cd8a16408da04", "lat": 38.92647, "lon": -77.04060716666666, "rental_uris": {"android": "https://dc.lft.to/lastmile_qr_scan", "ios": "https://dc.lft.to/lastmile_qr_scan"}, "is_disabled": 0, "fusion_lat": 0.0, "name": "e9924da8a58d26bdf19cd8a16408da04", "fusion_lon": 0.0}, {"is_reserved": 0, "type": "electric_scooter", "bike_id": "1ed1af8f5349cbc503b614c2f462d2fa", "lat": 38.8938105, "lon": -76.97819366666667, "rental_uris": {"android": "https://dc.lft.to/lastmile_qr_scan", "ios": "https://dc.lft.to/lastmile_qr_scan"}, "is_disabled": 0, "fusion_lat": 0.0, "name": "1ed1af8f5349cbc503b614c2f462d2fa", "fusion_lon": 0.0}, {"is_reserved": 0, "type": "electric_scooter", "bike_id": "3c892055ad2f6b225371509fd4568c75", "lat": 38.921505833333335, "lon": -77.03870866666666, "rental_uris": {"android": "https://dc.lft.to/lastmile_qr_scan", "ios": "https://dc.lft.to/lastmile_qr_scan"}, "is_disabled": 0, "fusion_lat": 0.0, "name": "3c892055ad2f6b225371509fd4568c75", "fusion_lon": 0.0}, {"is_reserved": 0, "type": "electric_scooter", "bike_id": "c050f8ccd0d43ca44bc94ece9964152c", "lat": 38.89730433333333, "lon": -77.02375283333333, "rental_uris": {"android": "https://dc.lft.to/lastmile_qr_scan", "ios": "https://dc.lft.to/lastmile_qr_scan"}, "is_disabled": 0, "fusion_lat": 0.0, "name": "c050f8ccd0d43ca44bc94ece9964152c", "fusion_lon": 0.0}, {"is_reserved": 0, "type": "electric_scooter", "bike_id": "e696d9c81167c12adb1f610196e76564", "lat": 38.900993, "lon": -77.048749, "rental_uris": {"android": "https://dc.lft.to/lastmile_qr_scan", "ios": "https://dc.lft.to/lastmile_qr_scan"}, "is_disabled": 0, "fusion_lat": 0.0, "name": "e696d9c81167c12adb1f610196e76564", "fusion_lon": 0.0}, {"is_reserved": 0, "type": "electric_scooter", "bike_id": "73b300c28d011e182713a2b7024adde4", "lat": 38.91949783333333, "lon": -77.01354266666667, "rental_uris": {"android": "https://dc.lft.to/lastmile_qr_scan", "ios": "https://dc.lft.to/lastmile_qr_scan"}, "is_disabled": 0, "fusion_lat": 0.0, "name": "73b300c28d011e182713a2b7024adde4", "fusion_lon": 0.0}, {"is_reserved": 0, "type": "electric_scooter", "bike_id": "cd4fe92ef45731435d61b6ce076dad45", "lat": 38.923314500000004, "lon": -77.035595, "rental_uris": {"android": "https://dc.lft.to/lastmile_qr_scan", "ios": "https://dc.lft.to/lastmile_qr_scan"}, "is_disabled": 0, "fusion_lat": 0.0, "name": "cd4fe92ef45731435d61b6ce076dad45", "fusion_lon": 0.0}, {"is_reserved": 0, "type": "electric_scooter", "bike_id": "9fcbea5dbc203eb1689b9b75a4c75b7a", "lat": 38.94076716666667, "lon": -77.05492083333333, "rental_uris": {"android": "https://dc.lft.to/lastmile_qr_scan", "ios": "https://dc.lft.to/lastmile_qr_scan"}, "is_disabled": 0, "fusion_lat": 0.0, "name": "9fcbea5dbc203eb1689b9b75a4c75b7a", "fusion_lon": 0.0}, {"is_reserved": 0, "type": "electric_scooter", "bike_id": "a4ddfb6fa0718f7845d4c97be219a956", "lat": 38.91748183333333, "lon": -77.0278385, "rental_uris": {"android": "https://dc.lft.to/lastmile_qr_scan", "ios": "https://dc.lft.to/lastmile_qr_scan"}, "is_disabled": 0, "fusion_lat": 0.0, "name": "a4ddfb6fa0718f7845d4c97be219a956", "fusion_lon": 0.0}, {"is_reserved": 0, "type": "electric_scooter", "bike_id": "8a11b7ac69f640c545fc89a602ac69e1", "lat": 38.92831483333333, "lon": -77.05515033333333, "rental_uris": {"android": "https://dc.lft.to/lastmile_qr_scan", "ios": "https://dc.lft.to/lastmile_qr_scan"}, "is_disabled": 0, "fusion_lat": 0.0, "name": "8a11b7ac69f640c545fc89a602ac69e1", "fusion_lon": 0.0}, {"is_reserved": 0, "type": "electric_scooter", "bike_id": "13db9b402debeba363011c5251af03f8", "lat": 38.921944333333336, "lon": -77.04701583333333, "rental_uris": {"android": "https://dc.lft.to/lastmile_qr_scan", "ios": "https://dc.lft.to/lastmile_qr_scan"}, "is_disabled": 0, "fusion_lat": 0.0, "name": "13db9b402debeba363011c5251af03f8", "fusion_lon": 0.0}, {"is_reserved": 0, "type": "electric_scooter", "bike_id": "c7ae39417e396d6ef335cc5cdfe709a1", "lat": 38.90685466666667, "lon": -77.06254866666667, "rental_uris": {"android": "https://dc.lft.to/lastmile_qr_scan", "ios": "https://dc.lft.to/lastmile_qr_scan"}, "is_disabled": 0, "fusion_lat": 0.0, "name": "c7ae39417e396d6ef335cc5cdfe709a1", "fusion_lon": 0.0}, {"is_reserved": 0, "type": "electric_scooter", "bike_id": "6ba423b3597069ee76995238b440eacd", "lat": 38.89872733333333, "lon": -76.93184166666667, "rental_uris": {"android": "https://dc.lft.to/lastmile_qr_scan", "ios": "https://dc.lft.to/lastmile_qr_scan"}, "is_disabled": 0, "fusion_lat": 0.0, "name": "6ba423b3597069ee76995238b440eacd", "fusion_lon": 0.0}, {"is_reserved": 0, "type": "electric_scooter", "bike_id": "70d19f579374e55d5f0fc4b3038e4afa", "lat": 38.9289015, "lon": -77.01384116666667, "rental_uris": {"android": "https://dc.lft.to/lastmile_qr_scan", "ios": "https://dc.lft.to/lastmile_qr_scan"}, "is_disabled": 0, "fusion_lat": 0.0, "name": "70d19f579374e55d5f0fc4b3038e4afa", "fusion_lon": 0.0}, {"is_reserved": 0, "type": "electric_scooter", "bike_id": "5aab2c9a45dc2a42fcfa15370647bc67", "lat": 38.906552833333336, "lon": -77.00926883333334, "rental_uris": {"android": "https://dc.lft.to/lastmile_qr_scan", "ios": "https://dc.lft.to/lastmile_qr_scan"}, "is_disabled": 0, "fusion_lat": 0.0, "name": "5aab2c9a45dc2a42fcfa15370647bc67", "fusion_lon": 0.0}, {"is_reserved": 0, "type": "electric_scooter", "bike_id": "1ac01750b81ab21f29a02e7f6a1e0246", "lat": 38.885237333333336, "lon": -76.99610833333334, "rental_uris": {"android": "https://dc.lft.to/lastmile_qr_scan", "ios": "https://dc.lft.to/lastmile_qr_scan"}, "is_disabled": 0, "fusion_lat": 0.0, "name": "1ac01750b81ab21f29a02e7f6a1e0246", "fusion_lon": 0.0}, {"is_reserved": 0, "type": "electric_scooter", "bike_id": "c871d1268d608c92b6330bdc4fd17e2d", "lat": 38.92624983333333, "lon": -77.03634133333334, "rental_uris": {"android": "https://dc.lft.to/lastmile_qr_scan", "ios": "https://dc.lft.to/lastmile_qr_scan"}, "is_disabled": 0, "fusion_lat": 0.0, "name": "c871d1268d608c92b6330bdc4fd17e2d", "fusion_lon": 0.0}, {"is_reserved": 0, "type": "electric_scooter", "bike_id": "e3c225228e908cd02504410cb3aaa09b", "lat": 38.927492, "lon": -77.0245175, "rental_uris": {"android": "https://dc.lft.to/lastmile_qr_scan", "ios": "https://dc.lft.to/lastmile_qr_scan"}, "is_disabled": 0, "fusion_lat": 0.0, "name": "e3c225228e908cd02504410cb3aaa09b", "fusion_lon": 0.0}, {"is_reserved": 0, "type": "electric_scooter", "bike_id": "2646813c197030a245b8230d71209508", "lat": 38.92768616666667, "lon": -77.02782416666666, "rental_uris": {"android": "https://dc.lft.to/lastmile_qr_scan", "ios": "https://dc.lft.to/lastmile_qr_scan"}, "is_disabled": 0, "fusion_lat": 0.0, "name": "2646813c197030a245b8230d71209508", "fusion_lon": 0.0}, {"is_reserved": 0, "type": "electric_scooter", "bike_id": "09ed42ba68a429a1460bbda2f076e156", "lat": 38.942244, "lon": -77.0715075, "rental_uris": {"android": "https://dc.lft.to/lastmile_qr_scan", "ios": "https://dc.lft.to/lastmile_qr_scan"}, "is_disabled": 0, "fusion_lat": 0.0, "name": "09ed42ba68a429a1460bbda2f076e156", "fusion_lon": 0.0}, {"is_reserved": 0, "type": "electric_scooter", "bike_id": "17b6071063c26397426453013d7cc7b9", "lat": 38.98988333333333, "lon": -77.0336225, "rental_uris": {"android": "https://dc.lft.to/lastmile_qr_scan", "ios": "https://dc.lft.to/lastmile_qr_scan"}, "is_disabled": 0, "fusion_lat": 0.0, "name": "17b6071063c26397426453013d7cc7b9", "fusion_lon": 0.0}, {"is_reserved": 0, "type": "electric_scooter", "bike_id": "6841a2ae952edb8a297e8ec6bf510da2", "lat": 38.898746, "lon": -76.93185516666667, "rental_uris": {"android": "https://dc.lft.to/lastmile_qr_scan", "ios": "https://dc.lft.to/lastmile_qr_scan"}, "is_disabled": 0, "fusion_lat": 0.0, "name": "6841a2ae952edb8a297e8ec6bf510da2", "fusion_lon": 0.0}, {"is_reserved": 0, "type": "electric_scooter", "bike_id": "7be4bdb1c2860493c557376b42d9272b", "lat": 38.91687433333333, "lon": -77.0259825, "rental_uris": {"android": "https://dc.lft.to/lastmile_qr_scan", "ios": "https://dc.lft.to/lastmile_qr_scan"}, "is_disabled": 0, "fusion_lat": 0.0, "name": "7be4bdb1c2860493c557376b42d9272b", "fusion_lon": 0.0}, {"is_reserved": 0, "type": "electric_scooter", "bike_id": "a3c17a7dbf955bb207fa1f839c3d785b", "lat": 38.88733716666667, "lon": -77.0135055, "rental_uris": {"android": "https://dc.lft.to/lastmile_qr_scan", "ios": "https://dc.lft.to/lastmile_qr_scan"}, "is_disabled": 0, "fusion_lat": 0.0, "name": "a3c17a7dbf955bb207fa1f839c3d785b", "fusion_lon": 0.0}, {"is_reserved": 0, "type": "electric_scooter", "bike_id": "29f0e641a9a4afc3bfbe4f825d77b515", "lat": 38.9363215, "lon": -77.03264516666667, "rental_uris": {"android": "https://dc.lft.to/lastmile_qr_scan", "ios": "https://dc.lft.to/lastmile_qr_scan"}, "is_disabled": 0, "fusion_lat": 0.0, "name": "29f0e641a9a4afc3bfbe4f825d77b515", "fusion_lon": 0.0}, {"is_reserved": 0, "type": "electric_bike", "bike_id": "489a4975d56f0bb0c9f0103ead0d4039", "lat": 38.93173216666667, "lon": -77.02853966666666, "rental_uris": {"android": "https://dc.lft.to/lastmile_qr_scan", "ios": "https://dc.lft.to/lastmile_qr_scan"}, "is_disabled": 0, "fusion_lat": 0.0, "name": "489a4975d56f0bb0c9f0103ead0d4039", "fusion_lon": 0.0}, {"is_reserved": 0, "type": "electric_scooter", "bike_id": "88968953d5487d405023a3af55ae71fc", "lat": 38.926308, "lon": -77.03513466666666, "rental_uris": {"android": "https://dc.lft.to/lastmile_qr_scan", "ios": "https://dc.lft.to/lastmile_qr_scan"}, "is_disabled": 0, "fusion_lat": 0.0, "name": "88968953d5487d405023a3af55ae71fc", "fusion_lon": 0.0}, {"is_reserved": 0, "type": "electric_bike", "bike_id": "c48e77916831c2b598cd0f2ff7f11379", "lat": 38.961355, "lon": -77.02979933333333, "rental_uris": {"android": "https://dc.lft.to/lastmile_qr_scan", "ios": "https://dc.lft.to/lastmile_qr_scan"}, "is_disabled": 0, "fusion_lat": 0.0, "name": "c48e77916831c2b598cd0f2ff7f11379", "fusion_lon": 0.0}, {"is_reserved": 0, "type": "electric_scooter", "bike_id": "ac64db3bee0b0315d1dafdf1b3c9022c", "lat": 38.91415116666667, "lon": -77.0221, "rental_uris": {"android": "https://dc.lft.to/lastmile_qr_scan", "ios": "https://dc.lft.to/lastmile_qr_scan"}, "is_disabled": 0, "fusion_lat": 0.0, "name": "ac64db3bee0b0315d1dafdf1b3c9022c", "fusion_lon": 0.0}, {"is_reserved": 0, "type": "electric_scooter", "bike_id": "5629b46c43c00d1e5096435f9895351e", "lat": 38.90465716666667, "lon": -77.00722533333334, "rental_uris": {"android": "https://dc.lft.to/lastmile_qr_scan", "ios": "https://dc.lft.to/lastmile_qr_scan"}, "is_disabled": 0, "fusion_lat": 0.0, "name": "5629b46c43c00d1e5096435f9895351e", "fusion_lon": 0.0}, {"is_reserved": 0, "type": "electric_scooter", "bike_id": "b9656e0e4e379cebc76d3eb09ad5e5b9", "lat": 38.934957833333335, "lon": -77.04452716666667, "rental_uris": {"android": "https://dc.lft.to/lastmile_qr_scan", "ios": "https://dc.lft.to/lastmile_qr_scan"}, "is_disabled": 0, "fusion_lat": 0.0, "name": "b9656e0e4e379cebc76d3eb09ad5e5b9", "fusion_lon": 0.0}, {"is_reserved": 0, "type": "electric_scooter", "bike_id": "d300defc971f12200ca459f6e87e7002", "lat": 38.893584, "lon": -76.98681733333333, "rental_uris": {"android": "https://dc.lft.to/lastmile_qr_scan", "ios": "https://dc.lft.to/lastmile_qr_scan"}, "is_disabled": 0, "fusion_lat": 0.0, "name": "d300defc971f12200ca459f6e87e7002", "fusion_lon": 0.0}, {"is_reserved": 0, "type": "electric_scooter", "bike_id": "6e204f77ff983ccb9b3afe963d789912", "lat": 38.90607966666666, "lon": -77.00905916666666, "rental_uris": {"android": "https://dc.lft.to/lastmile_qr_scan", "ios": "https://dc.lft.to/lastmile_qr_scan"}, "is_disabled": 0, "fusion_lat": 0.0, "name": "6e204f77ff983ccb9b3afe963d789912", "fusion_lon": 0.0}, {"is_reserved": 0, "type": "electric_scooter", "bike_id": "d949b95744ea2d60890dfecedbc613e2", "lat": 38.907293, "lon": -77.0070545, "rental_uris": {"android": "https://dc.lft.to/lastmile_qr_scan", "ios": "https://dc.lft.to/lastmile_qr_scan"}, "is_disabled": 0, "fusion_lat": 0.0, "name": "d949b95744ea2d60890dfecedbc613e2", "fusion_lon": 0.0}, {"is_reserved": 0, "type": "electric_scooter", "bike_id": "34afe03132c659ed89d4be5e08323ba6", "lat": 38.92283233333333, "lon": -77.03656466666666, "rental_uris": {"android": "https://dc.lft.to/lastmile_qr_scan", "ios": "https://dc.lft.to/lastmile_qr_scan"}, "is_disabled": 0, "fusion_lat": 0.0, "name": "34afe03132c659ed89d4be5e08323ba6", "fusion_lon": 0.0}, {"is_reserved": 0, "type": "electric_scooter", "bike_id": "bdcec956db9dc86c29979d71752b9f43", "lat": 38.8949095, "lon": -76.92792683333333, "rental_uris": {"android": "https://dc.lft.to/lastmile_qr_scan", "ios": "https://dc.lft.to/lastmile_qr_scan"}, "is_disabled": 0, "fusion_lat": 0.0, "name": "bdcec956db9dc86c29979d71752b9f43", "fusion_lon": 0.0}, {"is_reserved": 0, "type": "electric_scooter", "bike_id": "e02dfa35857f329078135459a3344792", "lat": 38.96410566666667, "lon": -77.03284733333334, "rental_uris": {"android": "https://dc.lft.to/lastmile_qr_scan", "ios": "https://dc.lft.to/lastmile_qr_scan"}, "is_disabled": 0, "fusion_lat": 0.0, "name": "e02dfa35857f329078135459a3344792", "fusion_lon": 0.0}, {"is_reserved": 0, "type": "electric_scooter", "bike_id": "f4118b2ddb86aac4b79f9eba6b9c67d0", "lat": 38.924844666666665, "lon": -77.02268633333334, "rental_uris": {"android": "https://dc.lft.to/lastmile_qr_scan", "ios": "https://dc.lft.to/lastmile_qr_scan"}, "is_disabled": 0, "fusion_lat": 0.0, "name": "f4118b2ddb86aac4b79f9eba6b9c67d0", "fusion_lon": 0.0}, {"is_reserved": 0, "type": "electric_scooter", "bike_id": "00df87805c4124c5ce7bb2507912a814", "lat": 38.8994365, "lon": -76.981961, "rental_uris": {"android": "https://dc.lft.to/lastmile_qr_scan", "ios": "https://dc.lft.to/lastmile_qr_scan"}, "is_disabled": 0, "fusion_lat": 0.0, "name": "00df87805c4124c5ce7bb2507912a814", "fusion_lon": 0.0}, {"is_reserved": 0, "type": "electric_scooter", "bike_id": "4f26e8c070ae4039932506a3cbfd4fea", "lat": 38.9042855, "lon": -77.02605866666667, "rental_uris": {"android": "https://dc.lft.to/lastmile_qr_scan", "ios": "https://dc.lft.to/lastmile_qr_scan"}, "is_disabled": 0, "fusion_lat": 0.0, "name": "4f26e8c070ae4039932506a3cbfd4fea", "fusion_lon": 0.0}, {"is_reserved": 0, "type": "electric_scooter", "bike_id": "7634521973678b6f3a4204b81bc43764", "lat": 38.9139145, "lon": -77.01988866666667, "rental_uris": {"android": "https://dc.lft.to/lastmile_qr_scan", "ios": "https://dc.lft.to/lastmile_qr_scan"}, "is_disabled": 0, "fusion_lat": 0.0, "name": "7634521973678b6f3a4204b81bc43764", "fusion_lon": 0.0}, {"is_reserved": 0, "type": "electric_scooter", "bike_id": "e360d51900725ef206c1c3ba8c860563", "lat": 38.921350833333335, "lon": -77.04699666666667, "rental_uris": {"android": "https://dc.lft.to/lastmile_qr_scan", "ios": "https://dc.lft.to/lastmile_qr_scan"}, "is_disabled": 0, "fusion_lat": 0.0, "name": "e360d51900725ef206c1c3ba8c860563", "fusion_lon": 0.0}, {"is_reserved": 0, "type": "electric_scooter", "bike_id": "45fa8b4146a4dc455b79bbd4ed65cd1e", "lat": 38.9037345, "lon": -77.05411466666666, "rental_uris": {"android": "https://dc.lft.to/lastmile_qr_scan", "ios": "https://dc.lft.to/lastmile_qr_scan"}, "is_disabled": 0, "fusion_lat": 0.0, "name": "45fa8b4146a4dc455b79bbd4ed65cd1e", "fusion_lon": 0.0}, {"is_reserved": 0, "type": "electric_scooter", "bike_id": "be46b7cae24003aab4d47a5affe2d7d3", "lat": 38.9191195, "lon": -77.03434083333333, "rental_uris": {"android": "https://dc.lft.to/lastmile_qr_scan", "ios": "https://dc.lft.to/lastmile_qr_scan"}, "is_disabled": 0, "fusion_lat": 0.0, "name": "be46b7cae24003aab4d47a5affe2d7d3", "fusion_lon": 0.0}, {"is_reserved": 0, "type": "electric_scooter", "bike_id": "98962096de04b748119e365a96d8b632", "lat": 38.89562166666666, "lon": -77.01105733333333, "rental_uris": {"android": "https://dc.lft.to/lastmile_qr_scan", "ios": "https://dc.lft.to/lastmile_qr_scan"}, "is_disabled": 0, "fusion_lat": 0.0, "name": "98962096de04b748119e365a96d8b632", "fusion_lon": 0.0}, {"is_reserved": 0, "type": "electric_scooter", "bike_id": "3bfd1098aa9a90a28a55dd2a5154c979", "lat": 38.8998285, "lon": -77.05114616666667, "rental_uris": {"android": "https://dc.lft.to/lastmile_qr_scan", "ios": "https://dc.lft.to/lastmile_qr_scan"}, "is_disabled": 0, "fusion_lat": 0.0, "name": "3bfd1098aa9a90a28a55dd2a5154c979", "fusion_lon": 0.0}, {"is_reserved": 0, "type": "electric_bike", "bike_id": "a5673799b1a3b66382f0b41e029987c9", "lat": 38.7840055, "lon": -77.120585, "rental_uris": {"android": "https://dc.lft.to/lastmile_qr_scan", "ios": "https://dc.lft.to/lastmile_qr_scan"}, "is_disabled": 0, "fusion_lat": 0.0, "name": "a5673799b1a3b66382f0b41e029987c9", "fusion_lon": 0.0}, {"is_reserved": 0, "type": "electric_scooter", "bike_id": "1d0d0bbdde2095277b7a1344cddcc95b", "lat": 38.933404, "lon": -77.081563, "rental_uris": {"android": "https://dc.lft.to/lastmile_qr_scan", "ios": "https://dc.lft.to/lastmile_qr_scan"}, "is_disabled": 0, "fusion_lat": 0.0, "name": "1d0d0bbdde2095277b7a1344cddcc95b", "fusion_lon": 0.0}, {"is_reserved": 0, "type": "electric_scooter", "bike_id": "fc1a8be93eb5685d53b3d02cd2565cfc", "lat": 38.88326133333333, "lon": -77.0095505, "rental_uris": {"android": "https://dc.lft.to/lastmile_qr_scan", "ios": "https://dc.lft.to/lastmile_qr_scan"}, "is_disabled": 0, "fusion_lat": 0.0, "name": "fc1a8be93eb5685d53b3d02cd2565cfc", "fusion_lon": 0.0}, {"is_reserved": 0, "type": "electric_scooter", "bike_id": "c48b3a450f7695707341dee1716a7e86", "lat": 38.913100166666666, "lon": -77.03641583333334, "rental_uris": {"android": "https://dc.lft.to/lastmile_qr_scan", "ios": "https://dc.lft.to/lastmile_qr_scan"}, "is_disabled": 0, "fusion_lat": 0.0, "name": "c48b3a450f7695707341dee1716a7e86", "fusion_lon": 0.0}, {"is_reserved": 0, "type": "electric_scooter", "bike_id": "04f39b7f0c62b5b0f7e7ffd79b73acc1", "lat": 38.912692, "lon": -77.00512583333334, "rental_uris": {"android": "https://dc.lft.to/lastmile_qr_scan", "ios": "https://dc.lft.to/lastmile_qr_scan"}, "is_disabled": 0, "fusion_lat": 0.0, "name": "04f39b7f0c62b5b0f7e7ffd79b73acc1", "fusion_lon": 0.0}, {"is_reserved": 0, "type": "electric_scooter", "bike_id": "582752af6d8dc5cb191349975f3fe50b", "lat": 38.9038135, "lon": -77.03147883333334, "rental_uris": {"android": "https://dc.lft.to/lastmile_qr_scan", "ios": "https://dc.lft.to/lastmile_qr_scan"}, "is_disabled": 0, "fusion_lat": 0.0, "name": "582752af6d8dc5cb191349975f3fe50b", "fusion_lon": 0.0}, {"is_reserved": 0, "type": "electric_scooter", "bike_id": "2a357edd784822cd46638890d2843d81", "lat": 38.922315833333336, "lon": -77.0233475, "rental_uris": {"android": "https://dc.lft.to/lastmile_qr_scan", "ios": "https://dc.lft.to/lastmile_qr_scan"}, "is_disabled": 0, "fusion_lat": 0.0, "name": "2a357edd784822cd46638890d2843d81", "fusion_lon": 0.0}, {"is_reserved": 0, "type": "electric_scooter", "bike_id": "07977948c8c57453e78981c0298817d8", "lat": 38.892376, "lon": -77.04482366666667, "rental_uris": {"android": "https://dc.lft.to/lastmile_qr_scan", "ios": "https://dc.lft.to/lastmile_qr_scan"}, "is_disabled": 0, "fusion_lat": 0.0, "name": "07977948c8c57453e78981c0298817d8", "fusion_lon": 0.0}, {"is_reserved": 0, "type": "electric_scooter", "bike_id": "b3c57f85f33f68da7b65b2ebcaed68ed", "lat": 38.89998116666666, "lon": -76.9984785, "rental_uris": {"android": "https://dc.lft.to/lastmile_qr_scan", "ios": "https://dc.lft.to/lastmile_qr_scan"}, "is_disabled": 0, "fusion_lat": 0.0, "name": "b3c57f85f33f68da7b65b2ebcaed68ed", "fusion_lon": 0.0}, {"is_reserved": 0, "type": "electric_scooter", "bike_id": "472b3189b171ac5ba03fc3374da41e5d", "lat": 38.9155235, "lon": -77.03308633333333, "rental_uris": {"android": "https://dc.lft.to/lastmile_qr_scan", "ios": "https://dc.lft.to/lastmile_qr_scan"}, "is_disabled": 0, "fusion_lat": 0.0, "name": "472b3189b171ac5ba03fc3374da41e5d", "fusion_lon": 0.0}, {"is_reserved": 0, "type": "electric_scooter", "bike_id": "8e02a16eeb946ea788c08f3286662d56", "lat": 38.881547166666664, "lon": -76.99494133333333, "rental_uris": {"android": "https://dc.lft.to/lastmile_qr_scan", "ios": "https://dc.lft.to/lastmile_qr_scan"}, "is_disabled": 0, "fusion_lat": 0.0, "name": "8e02a16eeb946ea788c08f3286662d56", "fusion_lon": 0.0}, {"is_reserved": 0, "type": "electric_scooter", "bike_id": "e5050bbc0136c142ab69bf4164fe3d99", "lat": 38.899437166666665, "lon": -77.032213, "rental_uris": {"android": "https://dc.lft.to/lastmile_qr_scan", "ios": "https://dc.lft.to/lastmile_qr_scan"}, "is_disabled": 0, "fusion_lat": 0.0, "name": "e5050bbc0136c142ab69bf4164fe3d99", "fusion_lon": 0.0}, {"is_reserved": 0, "type": "electric_scooter", "bike_id": "7fa0a3846b1527a52b837aec1767d271", "lat": 38.9237495, "lon": -77.03051933333333, "rental_uris": {"android": "https://dc.lft.to/lastmile_qr_scan", "ios": "https://dc.lft.to/lastmile_qr_scan"}, "is_disabled": 0, "fusion_lat": 0.0, "name": "7fa0a3846b1527a52b837aec1767d271", "fusion_lon": 0.0}, {"is_reserved": 0, "type": "electric_scooter", "bike_id": "3cd612ca6a7e029cd5b1fd58cac6f25e", "lat": 38.92443866666667, "lon": -77.03292733333333, "rental_uris": {"android": "https://dc.lft.to/lastmile_qr_scan", "ios": "https://dc.lft.to/lastmile_qr_scan"}, "is_disabled": 0, "fusion_lat": 0.0, "name": "3cd612ca6a7e029cd5b1fd58cac6f25e", "fusion_lon": 0.0}, {"is_reserved": 0, "type": "electric_scooter", "bike_id": "12e81ac6d5328df7539c01a7667b0639", "lat": 38.877574333333335, "lon": -77.01895233333333, "rental_uris": {"android": "https://dc.lft.to/lastmile_qr_scan", "ios": "https://dc.lft.to/lastmile_qr_scan"}, "is_disabled": 0, "fusion_lat": 0.0, "name": "12e81ac6d5328df7539c01a7667b0639", "fusion_lon": 0.0}, {"is_reserved": 0, "type": "electric_scooter", "bike_id": "2f62d6d90e9522f180568bc6f25b17e3", "lat": 38.875139, "lon": -77.00323783333333, "rental_uris": {"android": "https://dc.lft.to/lastmile_qr_scan", "ios": "https://dc.lft.to/lastmile_qr_scan"}, "is_disabled": 0, "fusion_lat": 0.0, "name": "2f62d6d90e9522f180568bc6f25b17e3", "fusion_lon": 0.0}, {"is_reserved": 0, "type": "electric_scooter", "bike_id": "592c42fef1b9f84085c6397b911d196a", "lat": 38.889697166666664, "lon": -76.999381, "rental_uris": {"android": "https://dc.lft.to/lastmile_qr_scan", "ios": "https://dc.lft.to/lastmile_qr_scan"}, "is_disabled": 0, "fusion_lat": 0.0, "name": "592c42fef1b9f84085c6397b911d196a", "fusion_lon": 0.0}, {"is_reserved": 0, "type": "electric_scooter", "bike_id": "4a3e0510e54a1b3d06110103a2966055", "lat": 38.91509, "lon": -77.00341383333334, "rental_uris": {"android": "https://dc.lft.to/lastmile_qr_scan", "ios": "https://dc.lft.to/lastmile_qr_scan"}, "is_disabled": 0, "fusion_lat": 0.0, "name": "4a3e0510e54a1b3d06110103a2966055", "fusion_lon": 0.0}, {"is_reserved": 0, "type": "electric_scooter", "bike_id": "4a7c871a4e16a546f466963ad16d5eb5", "lat": 38.895934, "lon": -76.9298415, "rental_uris": {"android": "https://dc.lft.to/lastmile_qr_scan", "ios": "https://dc.lft.to/lastmile_qr_scan"}, "is_disabled": 0, "fusion_lat": 0.0, "name": "4a7c871a4e16a546f466963ad16d5eb5", "fusion_lon": 0.0}, {"is_reserved": 0, "type": "electric_scooter", "bike_id": "48cff553392816972c8e688a3a0dae9d", "lat": 38.90532183333333, "lon": -76.98832933333334, "rental_uris": {"android": "https://dc.lft.to/lastmile_qr_scan", "ios": "https://dc.lft.to/lastmile_qr_scan"}, "is_disabled": 0, "fusion_lat": 0.0, "name": "48cff553392816972c8e688a3a0dae9d", "fusion_lon": 0.0}, {"is_reserved": 0, "type": "electric_scooter", "bike_id": "a3c4d0350c7e05b5c275413ff1e16c36", "lat": 38.90278383333333, "lon": -77.01748933333333, "rental_uris": {"android": "https://dc.lft.to/lastmile_qr_scan", "ios": "https://dc.lft.to/lastmile_qr_scan"}, "is_disabled": 0, "fusion_lat": 0.0, "name": "a3c4d0350c7e05b5c275413ff1e16c36", "fusion_lon": 0.0}, {"is_reserved": 0, "type": "electric_scooter", "bike_id": "bf5a34c919008fbbcef41df5f67ab541", "lat": 38.918167333333336, "lon": -77.045283, "rental_uris": {"android": "https://dc.lft.to/lastmile_qr_scan", "ios": "https://dc.lft.to/lastmile_qr_scan"}, "is_disabled": 0, "fusion_lat": 0.0, "name": "bf5a34c919008fbbcef41df5f67ab541", "fusion_lon": 0.0}, {"is_reserved": 0, "type": "electric_scooter", "bike_id": "7d72636addf0ece822552e7331b67687", "lat": 38.89962216666667, "lon": -77.02599766666667, "rental_uris": {"android": "https://dc.lft.to/lastmile_qr_scan", "ios": "https://dc.lft.to/lastmile_qr_scan"}, "is_disabled": 0, "fusion_lat": 0.0, "name": "7d72636addf0ece822552e7331b67687", "fusion_lon": 0.0}, {"is_reserved": 0, "type": "electric_bike", "bike_id": "241b97809fbdf4ac886d46f719b0813e", "lat": 38.9490835, "lon": -77.024221, "rental_uris": {"android": "https://dc.lft.to/lastmile_qr_scan", "ios": "https://dc.lft.to/lastmile_qr_scan"}, "is_disabled": 0, "fusion_lat": 0.0, "name": "241b97809fbdf4ac886d46f719b0813e", "fusion_lon": 0.0}, {"is_reserved": 0, "type": "electric_bike", "bike_id": "1a41e67260ea7270ece33fb3dd684df5", "lat": 38.90980916666667, "lon": -76.98516333333333, "rental_uris": {"android": "https://dc.lft.to/lastmile_qr_scan", "ios": "https://dc.lft.to/lastmile_qr_scan"}, "is_disabled": 0, "fusion_lat": 0.0, "name": "1a41e67260ea7270ece33fb3dd684df5", "fusion_lon": 0.0}, {"is_reserved": 0, "type": "electric_scooter", "bike_id": "fe8eadffc3d29314a48235303e5cb5b4", "lat": 38.914139, "lon": -77.0187735, "rental_uris": {"android": "https://dc.lft.to/lastmile_qr_scan", "ios": "https://dc.lft.to/lastmile_qr_scan"}, "is_disabled": 0, "fusion_lat": 0.0, "name": "fe8eadffc3d29314a48235303e5cb5b4", "fusion_lon": 0.0}, {"is_reserved": 0, "type": "electric_scooter", "bike_id": "031bf31f9fa460da91f9565732d0a542", "lat": 38.925058166666666, "lon": -77.0216725, "rental_uris": {"android": "https://dc.lft.to/lastmile_qr_scan", "ios": "https://dc.lft.to/lastmile_qr_scan"}, "is_disabled": 0, "fusion_lat": 0.0, "name": "031bf31f9fa460da91f9565732d0a542", "fusion_lon": 0.0}, {"is_reserved": 0, "type": "electric_scooter", "bike_id": "c8dc2d522a6eedf663182dfc0bf20494", "lat": 38.9306555, "lon": -77.03816966666666, "rental_uris": {"android": "https://dc.lft.to/lastmile_qr_scan", "ios": "https://dc.lft.to/lastmile_qr_scan"}, "is_disabled": 0, "fusion_lat": 0.0, "name": "c8dc2d522a6eedf663182dfc0bf20494", "fusion_lon": 0.0}, {"is_reserved": 0, "type": "electric_bike", "bike_id": "fe285837fdcf22fcf05a5059fbc15194", "lat": 38.883457666666665, "lon": -76.9362775, "rental_uris": {"android": "https://dc.lft.to/lastmile_qr_scan", "ios": "https://dc.lft.to/lastmile_qr_scan"}, "is_disabled": 0, "fusion_lat": 0.0, "name": "fe285837fdcf22fcf05a5059fbc15194", "fusion_lon": 0.0}, {"is_reserved": 0, "type": "electric_scooter", "bike_id": "84b9b9c22e3ed428deff77c884b6c79a", "lat": 38.914078, "lon": -77.03169083333333, "rental_uris": {"android": "https://dc.lft.to/lastmile_qr_scan", "ios": "https://dc.lft.to/lastmile_qr_scan"}, "is_disabled": 0, "fusion_lat": 0.0, "name": "84b9b9c22e3ed428deff77c884b6c79a", "fusion_lon": 0.0}, {"is_reserved": 0, "type": "electric_scooter", "bike_id": "349fe5fd88ff1ec3170b0701ef2cde64", "lat": 38.91915516666667, "lon": -77.03432216666667, "rental_uris": {"android": "https://dc.lft.to/lastmile_qr_scan", "ios": "https://dc.lft.to/lastmile_qr_scan"}, "is_disabled": 0, "fusion_lat": 0.0, "name": "349fe5fd88ff1ec3170b0701ef2cde64", "fusion_lon": 0.0}, {"is_reserved": 0, "type": "electric_scooter", "bike_id": "b5700c66457615f1bc85bb5c6c089a60", "lat": 38.934523, "lon": -77.029539, "rental_uris": {"android": "https://dc.lft.to/lastmile_qr_scan", "ios": "https://dc.lft.to/lastmile_qr_scan"}, "is_disabled": 0, "fusion_lat": 0.0, "name": "b5700c66457615f1bc85bb5c6c089a60", "fusion_lon": 0.0}, {"is_reserved": 0, "type": "electric_scooter", "bike_id": "eba72ac2a555dcb0fada617c8624af18", "lat": 38.923837666666664, "lon": -77.02952633333334, "rental_uris": {"android": "https://dc.lft.to/lastmile_qr_scan", "ios": "https://dc.lft.to/lastmile_qr_scan"}, "is_disabled": 0, "fusion_lat": 0.0, "name": "eba72ac2a555dcb0fada617c8624af18", "fusion_lon": 0.0}, {"is_reserved": 0, "type": "electric_scooter", "bike_id": "59f94464c9642a0901fed40b0fd9b0f5", "lat": 38.92294416666667, "lon": -77.03029183333334, "rental_uris": {"android": "https://dc.lft.to/lastmile_qr_scan", "ios": "https://dc.lft.to/lastmile_qr_scan"}, "is_disabled": 0, "fusion_lat": 0.0, "name": "59f94464c9642a0901fed40b0fd9b0f5", "fusion_lon": 0.0}, {"is_reserved": 0, "type": "electric_scooter", "bike_id": "285d3c40e61d6b8460ff6954a626ef13", "lat": 38.892497166666665, "lon": -77.0334225, "rental_uris": {"android": "https://dc.lft.to/lastmile_qr_scan", "ios": "https://dc.lft.to/lastmile_qr_scan"}, "is_disabled": 0, "fusion_lat": 0.0, "name": "285d3c40e61d6b8460ff6954a626ef13", "fusion_lon": 0.0}, {"is_reserved": 0, "type": "electric_scooter", "bike_id": "f082abeb9d89368c7a3e1147668e577d", "lat": 38.93713416666667, "lon": -77.03630683333333, "rental_uris": {"android": "https://dc.lft.to/lastmile_qr_scan", "ios": "https://dc.lft.to/lastmile_qr_scan"}, "is_disabled": 0, "fusion_lat": 0.0, "name": "f082abeb9d89368c7a3e1147668e577d", "fusion_lon": 0.0}, {"is_reserved": 0, "type": "electric_scooter", "bike_id": "70db2153283d8280cbeaa0b68dfc4261", "lat": 38.900877333333334, "lon": -77.04965233333333, "rental_uris": {"android": "https://dc.lft.to/lastmile_qr_scan", "ios": "https://dc.lft.to/lastmile_qr_scan"}, "is_disabled": 0, "fusion_lat": 0.0, "name": "70db2153283d8280cbeaa0b68dfc4261", "fusion_lon": 0.0}, {"is_reserved": 0, "type": "electric_scooter", "bike_id": "77621436a61043f47fd5dabd07cbf72d", "lat": 38.899929666666665, "lon": -77.0272395, "rental_uris": {"android": "https://dc.lft.to/lastmile_qr_scan", "ios": "https://dc.lft.to/lastmile_qr_scan"}, "is_disabled": 0, "fusion_lat": 0.0, "name": "77621436a61043f47fd5dabd07cbf72d", "fusion_lon": 0.0}, {"is_reserved": 0, "type": "electric_scooter", "bike_id": "d91a10fc947faaa281228c49ec1ca977", "lat": 38.92053416666667, "lon": -77.02424066666667, "rental_uris": {"android": "https://dc.lft.to/lastmile_qr_scan", "ios": "https://dc.lft.to/lastmile_qr_scan"}, "is_disabled": 0, "fusion_lat": 0.0, "name": "d91a10fc947faaa281228c49ec1ca977", "fusion_lon": 0.0}, {"is_reserved": 0, "type": "electric_scooter", "bike_id": "11f23c5f83636c8c93a02dee25cb9114", "lat": 38.9030155, "lon": -76.97650666666667, "rental_uris": {"android": "https://dc.lft.to/lastmile_qr_scan", "ios": "https://dc.lft.to/lastmile_qr_scan"}, "is_disabled": 0, "fusion_lat": 0.0, "name": "11f23c5f83636c8c93a02dee25cb9114", "fusion_lon": 0.0}, {"is_reserved": 0, "type": "electric_scooter", "bike_id": "5e05306689837b9241a9f3c901ba8fcf", "lat": 38.89671966666667, "lon": -77.0119935, "rental_uris": {"android": "https://dc.lft.to/lastmile_qr_scan", "ios": "https://dc.lft.to/lastmile_qr_scan"}, "is_disabled": 0, "fusion_lat": 0.0, "name": "5e05306689837b9241a9f3c901ba8fcf", "fusion_lon": 0.0}, {"is_reserved": 0, "type": "electric_scooter", "bike_id": "22ac422157c3a8c542a5246926078bde", "lat": 38.914126833333334, "lon": -77.02246383333333, "rental_uris": {"android": "https://dc.lft.to/lastmile_qr_scan", "ios": "https://dc.lft.to/lastmile_qr_scan"}, "is_disabled": 0, "fusion_lat": 0.0, "name": "22ac422157c3a8c542a5246926078bde", "fusion_lon": 0.0}, {"is_reserved": 0, "type": "electric_scooter", "bike_id": "d3e6ff708f56b94bb379be2792af00f0", "lat": 38.9359675, "lon": -77.03372383333334, "rental_uris": {"android": "https://dc.lft.to/lastmile_qr_scan", "ios": "https://dc.lft.to/lastmile_qr_scan"}, "is_disabled": 0, "fusion_lat": 0.0, "name": "d3e6ff708f56b94bb379be2792af00f0", "fusion_lon": 0.0}, {"is_reserved": 0, "type": "electric_scooter", "bike_id": "530aeaae7b36779afc815eb19dd65dea", "lat": 38.9170765, "lon": -77.04030483333334, "rental_uris": {"android": "https://dc.lft.to/lastmile_qr_scan", "ios": "https://dc.lft.to/lastmile_qr_scan"}, "is_disabled": 0, "fusion_lat": 0.0, "name": "530aeaae7b36779afc815eb19dd65dea", "fusion_lon": 0.0}, {"is_reserved": 0, "type": "electric_scooter", "bike_id": "cc3e9f2daae906157f01d58b480788a2", "lat": 38.923403666666665, "lon": -77.05675066666667, "rental_uris": {"android": "https://dc.lft.to/lastmile_qr_scan", "ios": "https://dc.lft.to/lastmile_qr_scan"}, "is_disabled": 0, "fusion_lat": 0.0, "name": "cc3e9f2daae906157f01d58b480788a2", "fusion_lon": 0.0}, {"is_reserved": 0, "type": "electric_scooter", "bike_id": "afc0c45badc1e7f1c2692e4fb8d54f60", "lat": 38.87470616666667, "lon": -77.003357, "rental_uris": {"android": "https://dc.lft.to/lastmile_qr_scan", "ios": "https://dc.lft.to/lastmile_qr_scan"}, "is_disabled": 0, "fusion_lat": 0.0, "name": "afc0c45badc1e7f1c2692e4fb8d54f60", "fusion_lon": 0.0}, {"is_reserved": 0, "type": "electric_scooter", "bike_id": "0e1e1cbb854a3c4db842f541fcf27b88", "lat": 38.899021833333336, "lon": -76.9798955, "rental_uris": {"android": "https://dc.lft.to/lastmile_qr_scan", "ios": "https://dc.lft.to/lastmile_qr_scan"}, "is_disabled": 0, "fusion_lat": 0.0, "name": "0e1e1cbb854a3c4db842f541fcf27b88", "fusion_lon": 0.0}, {"is_reserved": 0, "type": "electric_bike", "bike_id": "1d92e9803ebac60dcfef2a8b53d4459a", "lat": 38.9730415, "lon": -76.994894, "rental_uris": {"android": "https://dc.lft.to/lastmile_qr_scan", "ios": "https://dc.lft.to/lastmile_qr_scan"}, "is_disabled": 0, "fusion_lat": 0.0, "name": "1d92e9803ebac60dcfef2a8b53d4459a", "fusion_lon": 0.0}, {"is_reserved": 0, "type": "electric_scooter", "bike_id": "ef211b06fa2a234b87a77b7e08c15aeb", "lat": 38.90930133333333, "lon": -76.99628033333333, "rental_uris": {"android": "https://dc.lft.to/lastmile_qr_scan", "ios": "https://dc.lft.to/lastmile_qr_scan"}, "is_disabled": 0, "fusion_lat": 0.0, "name": "ef211b06fa2a234b87a77b7e08c15aeb", "fusion_lon": 0.0}, {"is_reserved": 0, "type": "electric_scooter", "bike_id": "aac83355e2ddddf8e8630535b9f30768", "lat": 38.9352265, "lon": -77.019407, "rental_uris": {"android": "https://dc.lft.to/lastmile_qr_scan", "ios": "https://dc.lft.to/lastmile_qr_scan"}, "is_disabled": 0, "fusion_lat": 0.0, "name": "aac83355e2ddddf8e8630535b9f30768", "fusion_lon": 0.0}, {"is_reserved": 0, "type": "electric_scooter", "bike_id": "1865ac38453d6928f1e144c2d246380c", "lat": 38.90647716666667, "lon": -76.98377883333333, "rental_uris": {"android": "https://dc.lft.to/lastmile_qr_scan", "ios": "https://dc.lft.to/lastmile_qr_scan"}, "is_disabled": 0, "fusion_lat": 0.0, "name": "1865ac38453d6928f1e144c2d246380c", "fusion_lon": 0.0}, {"is_reserved": 0, "type": "electric_scooter", "bike_id": "91605739134a307bbfc7d7d3fd54f7af", "lat": 38.885437833333334, "lon": -76.99041566666666, "rental_uris": {"android": "https://dc.lft.to/lastmile_qr_scan", "ios": "https://dc.lft.to/lastmile_qr_scan"}, "is_disabled": 0, "fusion_lat": 0.0, "name": "91605739134a307bbfc7d7d3fd54f7af", "fusion_lon": 0.0}, {"is_reserved": 0, "type": "electric_scooter", "bike_id": "c761ff015eea47c6cc5107ac94d3ff95", "lat": 38.9164005, "lon": -77.03906533333334, "rental_uris": {"android": "https://dc.lft.to/lastmile_qr_scan", "ios": "https://dc.lft.to/lastmile_qr_scan"}, "is_disabled": 0, "fusion_lat": 0.0, "name": "c761ff015eea47c6cc5107ac94d3ff95", "fusion_lon": 0.0}, {"is_reserved": 0, "type": "electric_scooter", "bike_id": "7f1a81b41637951d70df13121ba1f254", "lat": 38.87213916666666, "lon": -77.01352266666666, "rental_uris": {"android": "https://dc.lft.to/lastmile_qr_scan", "ios": "https://dc.lft.to/lastmile_qr_scan"}, "is_disabled": 0, "fusion_lat": 0.0, "name": "7f1a81b41637951d70df13121ba1f254", "fusion_lon": 0.0}, {"is_reserved": 0, "type": "electric_scooter", "bike_id": "36132fbcd71c1fe88bd47ed21ad37525", "lat": 38.915505833333334, "lon": -77.03842366666667, "rental_uris": {"android": "https://dc.lft.to/lastmile_qr_scan", "ios": "https://dc.lft.to/lastmile_qr_scan"}, "is_disabled": 0, "fusion_lat": 0.0, "name": "36132fbcd71c1fe88bd47ed21ad37525", "fusion_lon": 0.0}, {"is_reserved": 0, "type": "electric_scooter", "bike_id": "3502f969461076dfecce3629cdc5a940", "lat": 38.905430833333334, "lon": -77.0570045, "rental_uris": {"android": "https://dc.lft.to/lastmile_qr_scan", "ios": "https://dc.lft.to/lastmile_qr_scan"}, "is_disabled": 0, "fusion_lat": 0.0, "name": "3502f969461076dfecce3629cdc5a940", "fusion_lon": 0.0}, {"is_reserved": 0, "type": "electric_scooter", "bike_id": "4147e41416ab1e646c2668f4ec8b0cc5", "lat": 38.89948716666667, "lon": -76.97909866666667, "rental_uris": {"android": "https://dc.lft.to/lastmile_qr_scan", "ios": "https://dc.lft.to/lastmile_qr_scan"}, "is_disabled": 0, "fusion_lat": 0.0, "name": "4147e41416ab1e646c2668f4ec8b0cc5", "fusion_lon": 0.0}, {"is_reserved": 0, "type": "electric_scooter", "bike_id": "d21cc8d3afc5b7aa3d09198f7edc256f", "lat": 38.9109085, "lon": -77.050591, "rental_uris": {"android": "https://dc.lft.to/lastmile_qr_scan", "ios": "https://dc.lft.to/lastmile_qr_scan"}, "is_disabled": 0, "fusion_lat": 0.0, "name": "d21cc8d3afc5b7aa3d09198f7edc256f", "fusion_lon": 0.0}, {"is_reserved": 0, "type": "electric_scooter", "bike_id": "4a5c2c6ca3e042ba388dde69ab680940", "lat": 38.927696833333336, "lon": -77.027821, "rental_uris": {"android": "https://dc.lft.to/lastmile_qr_scan", "ios": "https://dc.lft.to/lastmile_qr_scan"}, "is_disabled": 0, "fusion_lat": 0.0, "name": "4a5c2c6ca3e042ba388dde69ab680940", "fusion_lon": 0.0}, {"is_reserved": 0, "type": "electric_scooter", "bike_id": "c6a39f64f0896f6db8d4598bcce764f6", "lat": 38.90565433333333, "lon": -77.041563, "rental_uris": {"android": "https://dc.lft.to/lastmile_qr_scan", "ios": "https://dc.lft.to/lastmile_qr_scan"}, "is_disabled": 0, "fusion_lat": 0.0, "name": "c6a39f64f0896f6db8d4598bcce764f6", "fusion_lon": 0.0}, {"is_reserved": 0, "type": "electric_scooter", "bike_id": "027bd4964f2d2c6389b8aec5f4fc08fa", "lat": 38.96792583333333, "lon": -77.02432916666666, "rental_uris": {"android": "https://dc.lft.to/lastmile_qr_scan", "ios": "https://dc.lft.to/lastmile_qr_scan"}, "is_disabled": 0, "fusion_lat": 0.0, "name": "027bd4964f2d2c6389b8aec5f4fc08fa", "fusion_lon": 0.0}, {"is_reserved": 0, "type": "electric_scooter", "bike_id": "60301c915ae7c7ec5769f7ccded59f01", "lat": 38.9231565, "lon": -77.02905383333334, "rental_uris": {"android": "https://dc.lft.to/lastmile_qr_scan", "ios": "https://dc.lft.to/lastmile_qr_scan"}, "is_disabled": 0, "fusion_lat": 0.0, "name": "60301c915ae7c7ec5769f7ccded59f01", "fusion_lon": 0.0}, {"is_reserved": 0, "type": "electric_scooter", "bike_id": "c0cfb1a8540ab4e599b0ac4e96de4f38", "lat": 38.9340465, "lon": -77.032642, "rental_uris": {"android": "https://dc.lft.to/lastmile_qr_scan", "ios": "https://dc.lft.to/lastmile_qr_scan"}, "is_disabled": 0, "fusion_lat": 0.0, "name": "c0cfb1a8540ab4e599b0ac4e96de4f38", "fusion_lon": 0.0}, {"is_reserved": 0, "type": "electric_scooter", "bike_id": "f4123430a4aa07ce3b6d7188a60eccc6", "lat": 38.90732533333333, "lon": -77.04887416666666, "rental_uris": {"android": "https://dc.lft.to/lastmile_qr_scan", "ios": "https://dc.lft.to/lastmile_qr_scan"}, "is_disabled": 0, "fusion_lat": 0.0, "name": "f4123430a4aa07ce3b6d7188a60eccc6", "fusion_lon": 0.0}, {"is_reserved": 0, "type": "electric_scooter", "bike_id": "f83bea91af3536185f4c65ca30f60db8", "lat": 38.927648833333336, "lon": -77.0287145, "rental_uris": {"android": "https://dc.lft.to/lastmile_qr_scan", "ios": "https://dc.lft.to/lastmile_qr_scan"}, "is_disabled": 0, "fusion_lat": 0.0, "name": "f83bea91af3536185f4c65ca30f60db8", "fusion_lon": 0.0}, {"is_reserved": 0, "type": "electric_scooter", "bike_id": "974eb7289ae781fe424a82905729da81", "lat": 38.90268833333333, "lon": -77.05407883333334, "rental_uris": {"android": "https://dc.lft.to/lastmile_qr_scan", "ios": "https://dc.lft.to/lastmile_qr_scan"}, "is_disabled": 0, "fusion_lat": 0.0, "name": "974eb7289ae781fe424a82905729da81", "fusion_lon": 0.0}, {"is_reserved": 0, "type": "electric_scooter", "bike_id": "ebe8b1da576ce6b8fc15787b42e29f09", "lat": 38.84819666666667, "lon": -76.97815883333334, "rental_uris": {"android": "https://dc.lft.to/lastmile_qr_scan", "ios": "https://dc.lft.to/lastmile_qr_scan"}, "is_disabled": 0, "fusion_lat": 0.0, "name": "ebe8b1da576ce6b8fc15787b42e29f09", "fusion_lon": 0.0}, {"is_reserved": 0, "type": "electric_scooter", "bike_id": "2b0271a92a08fd3fb6f74a00a219d1d3", "lat": 38.92627533333334, "lon": -77.03785116666667, "rental_uris": {"android": "https://dc.lft.to/lastmile_qr_scan", "ios": "https://dc.lft.to/lastmile_qr_scan"}, "is_disabled": 0, "fusion_lat": 0.0, "name": "2b0271a92a08fd3fb6f74a00a219d1d3", "fusion_lon": 0.0}, {"is_reserved": 0, "type": "electric_bike", "bike_id": "ae55351d16c7d3494e6d68dee4f2f794", "lat": 38.8038305, "lon": -76.988151, "rental_uris": {"android": "https://dc.lft.to/lastmile_qr_scan", "ios": "https://dc.lft.to/lastmile_qr_scan"}, "is_disabled": 0, "fusion_lat": 0.0, "name": "ae55351d16c7d3494e6d68dee4f2f794", "fusion_lon": 0.0}, {"is_reserved": 0, "type": "electric_scooter", "bike_id": "4fd038592e2d71ccc8c1191457b9e1b2", "lat": 38.925363, "lon": -77.0326225, "rental_uris": {"android": "https://dc.lft.to/lastmile_qr_scan", "ios": "https://dc.lft.to/lastmile_qr_scan"}, "is_disabled": 0, "fusion_lat": 0.0, "name": "4fd038592e2d71ccc8c1191457b9e1b2", "fusion_lon": 0.0}, {"is_reserved": 0, "type": "electric_scooter", "bike_id": "e3d3cb1fe0d5c8c1cbf5b873d783fa48", "lat": 38.89220566666667, "lon": -77.03150166666667, "rental_uris": {"android": "https://dc.lft.to/lastmile_qr_scan", "ios": "https://dc.lft.to/lastmile_qr_scan"}, "is_disabled": 0, "fusion_lat": 0.0, "name": "e3d3cb1fe0d5c8c1cbf5b873d783fa48", "fusion_lon": 0.0}, {"is_reserved": 0, "type": "electric_scooter", "bike_id": "f00dfbba09a0bb8ae9f234634e1d02c4", "lat": 38.918670166666665, "lon": -77.02463133333333, "rental_uris": {"android": "https://dc.lft.to/lastmile_qr_scan", "ios": "https://dc.lft.to/lastmile_qr_scan"}, "is_disabled": 0, "fusion_lat": 0.0, "name": "f00dfbba09a0bb8ae9f234634e1d02c4", "fusion_lon": 0.0}, {"is_reserved": 0, "type": "electric_scooter", "bike_id": "2d938ef7283231e6409c9a3e0fd9e933", "lat": 38.90355366666667, "lon": -77.04183266666666, "rental_uris": {"android": "https://dc.lft.to/lastmile_qr_scan", "ios": "https://dc.lft.to/lastmile_qr_scan"}, "is_disabled": 0, "fusion_lat": 0.0, "name": "2d938ef7283231e6409c9a3e0fd9e933", "fusion_lon": 0.0}, {"is_reserved": 0, "type": "electric_scooter", "bike_id": "d42f4dcf3b5e28b9e0fd8d51063615f5", "lat": 38.912004, "lon": -77.01984983333334, "rental_uris": {"android": "https://dc.lft.to/lastmile_qr_scan", "ios": "https://dc.lft.to/lastmile_qr_scan"}, "is_disabled": 0, "fusion_lat": 0.0, "name": "d42f4dcf3b5e28b9e0fd8d51063615f5", "fusion_lon": 0.0}, {"is_reserved": 0, "type": "electric_scooter", "bike_id": "ce935885d27e65ce498cdd63cb79e7af", "lat": 38.90284283333333, "lon": -77.01748783333333, "rental_uris": {"android": "https://dc.lft.to/lastmile_qr_scan", "ios": "https://dc.lft.to/lastmile_qr_scan"}, "is_disabled": 0, "fusion_lat": 0.0, "name": "ce935885d27e65ce498cdd63cb79e7af", "fusion_lon": 0.0}, {"is_reserved": 0, "type": "electric_scooter", "bike_id": "3cd841614f72373093c3ad32615873b6", "lat": 38.943780333333336, "lon": -77.023566, "rental_uris": {"android": "https://dc.lft.to/lastmile_qr_scan", "ios": "https://dc.lft.to/lastmile_qr_scan"}, "is_disabled": 0, "fusion_lat": 0.0, "name": "3cd841614f72373093c3ad32615873b6", "fusion_lon": 0.0}, {"is_reserved": 0, "type": "electric_scooter", "bike_id": "9be2218d80a42b20701773070a270cf4", "lat": 38.900313833333335, "lon": -77.00210083333333, "rental_uris": {"android": "https://dc.lft.to/lastmile_qr_scan", "ios": "https://dc.lft.to/lastmile_qr_scan"}, "is_disabled": 0, "fusion_lat": 0.0, "name": "9be2218d80a42b20701773070a270cf4", "fusion_lon": 0.0}, {"is_reserved": 0, "type": "electric_scooter", "bike_id": "da9dab28229a02e41f2ca3f46c9e0142", "lat": 38.9355715, "lon": -77.02964633333333, "rental_uris": {"android": "https://dc.lft.to/lastmile_qr_scan", "ios": "https://dc.lft.to/lastmile_qr_scan"}, "is_disabled": 0, "fusion_lat": 0.0, "name": "da9dab28229a02e41f2ca3f46c9e0142", "fusion_lon": 0.0}, {"is_reserved": 0, "type": "electric_scooter", "bike_id": "31f9b01fc14c6844e67fd0306fe50b3a", "lat": 38.90865016666667, "lon": -77.0194415, "rental_uris": {"android": "https://dc.lft.to/lastmile_qr_scan", "ios": "https://dc.lft.to/lastmile_qr_scan"}, "is_disabled": 0, "fusion_lat": 0.0, "name": "31f9b01fc14c6844e67fd0306fe50b3a", "fusion_lon": 0.0}, {"is_reserved": 0, "type": "electric_bike", "bike_id": "a8599ccf23de9b27ac151dc154a1dfa8", "lat": 38.802421, "lon": -77.11439, "rental_uris": {"android": "https://dc.lft.to/lastmile_qr_scan", "ios": "https://dc.lft.to/lastmile_qr_scan"}, "is_disabled": 0, "fusion_lat": 0.0, "name": "a8599ccf23de9b27ac151dc154a1dfa8", "fusion_lon": 0.0}, {"is_reserved": 0, "type": "electric_scooter", "bike_id": "b5a5bd959425a11aee7d8ba5199dc599", "lat": 38.929141333333334, "lon": -77.02094133333334, "rental_uris": {"android": "https://dc.lft.to/lastmile_qr_scan", "ios": "https://dc.lft.to/lastmile_qr_scan"}, "is_disabled": 0, "fusion_lat": 0.0, "name": "b5a5bd959425a11aee7d8ba5199dc599", "fusion_lon": 0.0}, {"is_reserved": 0, "type": "electric_scooter", "bike_id": "d2abd05b680c23efa67443e5de938c90", "lat": 38.896099, "lon": -77.04411266666666, "rental_uris": {"android": "https://dc.lft.to/lastmile_qr_scan", "ios": "https://dc.lft.to/lastmile_qr_scan"}, "is_disabled": 0, "fusion_lat": 0.0, "name": "d2abd05b680c23efa67443e5de938c90", "fusion_lon": 0.0}, {"is_reserved": 0, "type": "electric_scooter", "bike_id": "3aaf388dafcd259e248b03ce9394b91e", "lat": 38.865189666666666, "lon": -76.96905116666667, "rental_uris": {"android": "https://dc.lft.to/lastmile_qr_scan", "ios": "https://dc.lft.to/lastmile_qr_scan"}, "is_disabled": 0, "fusion_lat": 0.0, "name": "3aaf388dafcd259e248b03ce9394b91e", "fusion_lon": 0.0}, {"is_reserved": 0, "type": "electric_scooter", "bike_id": "e24c8016b6f247f9c6f62bf2c5b6f978", "lat": 38.90953433333333, "lon": -77.04567166666666, "rental_uris": {"android": "https://dc.lft.to/lastmile_qr_scan", "ios": "https://dc.lft.to/lastmile_qr_scan"}, "is_disabled": 0, "fusion_lat": 0.0, "name": "e24c8016b6f247f9c6f62bf2c5b6f978", "fusion_lon": 0.0}, {"is_reserved": 0, "type": "electric_scooter", "bike_id": "6c0de3729ada5bf0defb6459bb398678", "lat": 38.9214775, "lon": -77.03489216666667, "rental_uris": {"android": "https://dc.lft.to/lastmile_qr_scan", "ios": "https://dc.lft.to/lastmile_qr_scan"}, "is_disabled": 0, "fusion_lat": 0.0, "name": "6c0de3729ada5bf0defb6459bb398678", "fusion_lon": 0.0}, {"is_reserved": 0, "type": "electric_scooter", "bike_id": "a166b5ded061daa39de1cc36c4aeecce", "lat": 38.92725133333333, "lon": -77.03549983333333, "rental_uris": {"android": "https://dc.lft.to/lastmile_qr_scan", "ios": "https://dc.lft.to/lastmile_qr_scan"}, "is_disabled": 0, "fusion_lat": 0.0, "name": "a166b5ded061daa39de1cc36c4aeecce", "fusion_lon": 0.0}, {"is_reserved": 0, "type": "electric_bike", "bike_id": "ad3e4da763082cf72b39921b63129ec7", "lat": 38.808647, "lon": -77.11254716666667, "rental_uris": {"android": "https://dc.lft.to/lastmile_qr_scan", "ios": "https://dc.lft.to/lastmile_qr_scan"}, "is_disabled": 0, "fusion_lat": 0.0, "name": "ad3e4da763082cf72b39921b63129ec7", "fusion_lon": 0.0}, {"is_reserved": 0, "type": "electric_scooter", "bike_id": "b898127cb97ee91c83ba92cd6ae4167c", "lat": 38.93522883333333, "lon": -77.019541, "rental_uris": {"android": "https://dc.lft.to/lastmile_qr_scan", "ios": "https://dc.lft.to/lastmile_qr_scan"}, "is_disabled": 0, "fusion_lat": 0.0, "name": "b898127cb97ee91c83ba92cd6ae4167c", "fusion_lon": 0.0}, {"is_reserved": 0, "type": "electric_scooter", "bike_id": "53d325fb20df08eba86c43a28eb79b11", "lat": 38.90513266666667, "lon": -77.0566475, "rental_uris": {"android": "https://dc.lft.to/lastmile_qr_scan", "ios": "https://dc.lft.to/lastmile_qr_scan"}, "is_disabled": 0, "fusion_lat": 0.0, "name": "53d325fb20df08eba86c43a28eb79b11", "fusion_lon": 0.0}, {"is_reserved": 0, "type": "electric_scooter", "bike_id": "6ba2cf2700e84f684b8207b89ddb4cd5", "lat": 38.89344783333333, "lon": -77.02848533333334, "rental_uris": {"android": "https://dc.lft.to/lastmile_qr_scan", "ios": "https://dc.lft.to/lastmile_qr_scan"}, "is_disabled": 0, "fusion_lat": 0.0, "name": "6ba2cf2700e84f684b8207b89ddb4cd5", "fusion_lon": 0.0}, {"is_reserved": 0, "type": "electric_scooter", "bike_id": "99674a780f0b7d100ef24852a23b374b", "lat": 38.9009105, "lon": -77.01592683333334, "rental_uris": {"android": "https://dc.lft.to/lastmile_qr_scan", "ios": "https://dc.lft.to/lastmile_qr_scan"}, "is_disabled": 0, "fusion_lat": 0.0, "name": "99674a780f0b7d100ef24852a23b374b", "fusion_lon": 0.0}, {"is_reserved": 0, "type": "electric_scooter", "bike_id": "a12741944dba3080735568efc0b90c81", "lat": 38.900850166666665, "lon": -77.057397, "rental_uris": {"android": "https://dc.lft.to/lastmile_qr_scan", "ios": "https://dc.lft.to/lastmile_qr_scan"}, "is_disabled": 0, "fusion_lat": 0.0, "name": "a12741944dba3080735568efc0b90c81", "fusion_lon": 0.0}, {"is_reserved": 0, "type": "electric_scooter", "bike_id": "1327721074002b09190a32d42db21c18", "lat": 38.905961, "lon": -77.04144716666667, "rental_uris": {"android": "https://dc.lft.to/lastmile_qr_scan", "ios": "https://dc.lft.to/lastmile_qr_scan"}, "is_disabled": 0, "fusion_lat": 0.0, "name": "1327721074002b09190a32d42db21c18", "fusion_lon": 0.0}, {"is_reserved": 0, "type": "electric_scooter", "bike_id": "980a64238956dbbaedf5f2acc18e251f", "lat": 38.87155083333333, "lon": -77.01321216666666, "rental_uris": {"android": "https://dc.lft.to/lastmile_qr_scan", "ios": "https://dc.lft.to/lastmile_qr_scan"}, "is_disabled": 0, "fusion_lat": 0.0, "name": "980a64238956dbbaedf5f2acc18e251f", "fusion_lon": 0.0}, {"is_reserved": 0, "type": "electric_scooter", "bike_id": "8cc215a5349dd24d01365009931ae63f", "lat": 38.911147666666665, "lon": -77.04362083333334, "rental_uris": {"android": "https://dc.lft.to/lastmile_qr_scan", "ios": "https://dc.lft.to/lastmile_qr_scan"}, "is_disabled": 0, "fusion_lat": 0.0, "name": "8cc215a5349dd24d01365009931ae63f", "fusion_lon": 0.0}, {"is_reserved": 0, "type": "electric_scooter", "bike_id": "eaed0251bc5bf6c970334c54a37bc955", "lat": 38.9068545, "lon": -77.0562235, "rental_uris": {"android": "https://dc.lft.to/lastmile_qr_scan", "ios": "https://dc.lft.to/lastmile_qr_scan"}, "is_disabled": 0, "fusion_lat": 0.0, "name": "eaed0251bc5bf6c970334c54a37bc955", "fusion_lon": 0.0}, {"is_reserved": 0, "type": "electric_scooter", "bike_id": "8f2141249e324f21fdea89c96797c1ed", "lat": 38.872822, "lon": -77.0171385, "rental_uris": {"android": "https://dc.lft.to/lastmile_qr_scan", "ios": "https://dc.lft.to/lastmile_qr_scan"}, "is_disabled": 0, "fusion_lat": 0.0, "name": "8f2141249e324f21fdea89c96797c1ed", "fusion_lon": 0.0}, {"is_reserved": 0, "type": "electric_bike", "bike_id": "bd038daabbb3b3241aa93332480bc0ce", "lat": 38.949638666666665, "lon": -76.96100133333333, "rental_uris": {"android": "https://dc.lft.to/lastmile_qr_scan", "ios": "https://dc.lft.to/lastmile_qr_scan"}, "is_disabled": 0, "fusion_lat": 0.0, "name": "bd038daabbb3b3241aa93332480bc0ce", "fusion_lon": 0.0}, {"is_reserved": 0, "type": "electric_scooter", "bike_id": "36c67be1f703765dfa75c97ca2364716", "lat": 38.90679516666667, "lon": -77.06261366666666, "rental_uris": {"android": "https://dc.lft.to/lastmile_qr_scan", "ios": "https://dc.lft.to/lastmile_qr_scan"}, "is_disabled": 0, "fusion_lat": 0.0, "name": "36c67be1f703765dfa75c97ca2364716", "fusion_lon": 0.0}, {"is_reserved": 0, "type": "electric_scooter", "bike_id": "b0cd811a8b392393e96d7170369f5344", "lat": 38.90391916666667, "lon": -77.01846816666666, "rental_uris": {"android": "https://dc.lft.to/lastmile_qr_scan", "ios": "https://dc.lft.to/lastmile_qr_scan"}, "is_disabled": 0, "fusion_lat": 0.0, "name": "b0cd811a8b392393e96d7170369f5344", "fusion_lon": 0.0}, {"is_reserved": 0, "type": "electric_scooter", "bike_id": "cdbb5147118e20ad9a1a2771ddd8eba5", "lat": 38.9335365, "lon": -77.03422533333334, "rental_uris": {"android": "https://dc.lft.to/lastmile_qr_scan", "ios": "https://dc.lft.to/lastmile_qr_scan"}, "is_disabled": 0, "fusion_lat": 0.0, "name": "cdbb5147118e20ad9a1a2771ddd8eba5", "fusion_lon": 0.0}, {"is_reserved": 0, "type": "electric_bike", "bike_id": "c71e16c6ad641d60f92330ec05449d10", "lat": 38.94475, "lon": -76.98690066666667, "rental_uris": {"android": "https://dc.lft.to/lastmile_qr_scan", "ios": "https://dc.lft.to/lastmile_qr_scan"}, "is_disabled": 0, "fusion_lat": 0.0, "name": "c71e16c6ad641d60f92330ec05449d10", "fusion_lon": 0.0}, {"is_reserved": 0, "type": "electric_scooter", "bike_id": "7f4500257c35b92714501adf30f50d3d", "lat": 38.91915766666666, "lon": -77.04807616666666, "rental_uris": {"android": "https://dc.lft.to/lastmile_qr_scan", "ios": "https://dc.lft.to/lastmile_qr_scan"}, "is_disabled": 0, "fusion_lat": 0.0, "name": "7f4500257c35b92714501adf30f50d3d", "fusion_lon": 0.0}, {"is_reserved": 0, "type": "electric_bike", "bike_id": "7212f183cffa3fdf95fbb4a85cac3c7a", "lat": 38.836298666666664, "lon": -77.00282283333334, "rental_uris": {"android": "https://dc.lft.to/lastmile_qr_scan", "ios": "https://dc.lft.to/lastmile_qr_scan"}, "is_disabled": 0, "fusion_lat": 0.0, "name": "7212f183cffa3fdf95fbb4a85cac3c7a", "fusion_lon": 0.0}, {"is_reserved": 0, "type": "electric_scooter", "bike_id": "25d5c5c4ae3f4ecfda9629909a5d1615", "lat": 38.92336483333333, "lon": -77.05679516666666, "rental_uris": {"android": "https://dc.lft.to/lastmile_qr_scan", "ios": "https://dc.lft.to/lastmile_qr_scan"}, "is_disabled": 0, "fusion_lat": 0.0, "name": "25d5c5c4ae3f4ecfda9629909a5d1615", "fusion_lon": 0.0}, {"is_reserved": 0, "type": "electric_scooter", "bike_id": "dae1fe79693179fbc2452c8eebbd4fab", "lat": 38.89806983333333, "lon": -77.02349516666666, "rental_uris": {"android": "https://dc.lft.to/lastmile_qr_scan", "ios": "https://dc.lft.to/lastmile_qr_scan"}, "is_disabled": 0, "fusion_lat": 0.0, "name": "dae1fe79693179fbc2452c8eebbd4fab", "fusion_lon": 0.0}, {"is_reserved": 0, "type": "electric_scooter", "bike_id": "57a640d7f5ea2560df17245f4a534647", "lat": 38.90396283333333, "lon": -77.0162895, "rental_uris": {"android": "https://dc.lft.to/lastmile_qr_scan", "ios": "https://dc.lft.to/lastmile_qr_scan"}, "is_disabled": 0, "fusion_lat": 0.0, "name": "57a640d7f5ea2560df17245f4a534647", "fusion_lon": 0.0}, {"is_reserved": 0, "type": "electric_scooter", "bike_id": "d46014a31b2e9ac7fcc292ad5fe9bda0", "lat": 38.93124916666667, "lon": -77.02309666666666, "rental_uris": {"android": "https://dc.lft.to/lastmile_qr_scan", "ios": "https://dc.lft.to/lastmile_qr_scan"}, "is_disabled": 0, "fusion_lat": 0.0, "name": "d46014a31b2e9ac7fcc292ad5fe9bda0", "fusion_lon": 0.0}, {"is_reserved": 0, "type": "electric_scooter", "bike_id": "a300956c561ce61aaa9e3cbd3e75cba8", "lat": 38.960252, "lon": -77.07156516666667, "rental_uris": {"android": "https://dc.lft.to/lastmile_qr_scan", "ios": "https://dc.lft.to/lastmile_qr_scan"}, "is_disabled": 0, "fusion_lat": 0.0, "name": "a300956c561ce61aaa9e3cbd3e75cba8", "fusion_lon": 0.0}, {"is_reserved": 0, "type": "electric_scooter", "bike_id": "3a54a3ffc5a0dbe9e4be10bd8648b803", "lat": 38.9167945, "lon": -77.0294015, "rental_uris": {"android": "https://dc.lft.to/lastmile_qr_scan", "ios": "https://dc.lft.to/lastmile_qr_scan"}, "is_disabled": 0, "fusion_lat": 0.0, "name": "3a54a3ffc5a0dbe9e4be10bd8648b803", "fusion_lon": 0.0}, {"is_reserved": 0, "type": "electric_scooter", "bike_id": "bc78e08631b525c294d27498d363f87f", "lat": 38.884342833333335, "lon": -76.95763416666667, "rental_uris": {"android": "https://dc.lft.to/lastmile_qr_scan", "ios": "https://dc.lft.to/lastmile_qr_scan"}, "is_disabled": 0, "fusion_lat": 0.0, "name": "bc78e08631b525c294d27498d363f87f", "fusion_lon": 0.0}, {"is_reserved": 0, "type": "electric_scooter", "bike_id": "00c5a35b335502d3e5e633fe748ff21d", "lat": 38.92927, "lon": -77.02007033333334, "rental_uris": {"android": "https://dc.lft.to/lastmile_qr_scan", "ios": "https://dc.lft.to/lastmile_qr_scan"}, "is_disabled": 0, "fusion_lat": 0.0, "name": "00c5a35b335502d3e5e633fe748ff21d", "fusion_lon": 0.0}, {"is_reserved": 0, "type": "electric_bike", "bike_id": "65736bde11ba7ed09fb1bce3cc4b1d49", "lat": 38.832931, "lon": -77.08411766666667, "rental_uris": {"android": "https://dc.lft.to/lastmile_qr_scan", "ios": "https://dc.lft.to/lastmile_qr_scan"}, "is_disabled": 0, "fusion_lat": 0.0, "name": "65736bde11ba7ed09fb1bce3cc4b1d49", "fusion_lon": 0.0}, {"is_reserved": 0, "type": "electric_scooter", "bike_id": "2b0ce590198fd738b9b546a222fb9518", "lat": 38.86619433333333, "lon": -76.98200683333333, "rental_uris": {"android": "https://dc.lft.to/lastmile_qr_scan", "ios": "https://dc.lft.to/lastmile_qr_scan"}, "is_disabled": 0, "fusion_lat": 0.0, "name": "2b0ce590198fd738b9b546a222fb9518", "fusion_lon": 0.0}, {"is_reserved": 0, "type": "electric_scooter", "bike_id": "9092facc73d18a80591b60061784397b", "lat": 38.92383383333333, "lon": -77.03656566666666, "rental_uris": {"android": "https://dc.lft.to/lastmile_qr_scan", "ios": "https://dc.lft.to/lastmile_qr_scan"}, "is_disabled": 0, "fusion_lat": 0.0, "name": "9092facc73d18a80591b60061784397b", "fusion_lon": 0.0}, {"is_reserved": 0, "type": "electric_scooter", "bike_id": "defdf07220a102ee48b519e976e0c151", "lat": 38.92835916666667, "lon": -77.00605983333334, "rental_uris": {"android": "https://dc.lft.to/lastmile_qr_scan", "ios": "https://dc.lft.to/lastmile_qr_scan"}, "is_disabled": 0, "fusion_lat": 0.0, "name": "defdf07220a102ee48b519e976e0c151", "fusion_lon": 0.0}, {"is_reserved": 0, "type": "electric_scooter", "bike_id": "3d08c85dace0eb8c86fdbaf035785cb1", "lat": 38.89750216666667, "lon": -77.00776583333334, "rental_uris": {"android": "https://dc.lft.to/lastmile_qr_scan", "ios": "https://dc.lft.to/lastmile_qr_scan"}, "is_disabled": 0, "fusion_lat": 0.0, "name": "3d08c85dace0eb8c86fdbaf035785cb1", "fusion_lon": 0.0}, {"is_reserved": 0, "type": "electric_scooter", "bike_id": "ed0e4619f5f643adaac164163dbc8cd2", "lat": 38.8860675, "lon": -76.98819183333333, "rental_uris": {"android": "https://dc.lft.to/lastmile_qr_scan", "ios": "https://dc.lft.to/lastmile_qr_scan"}, "is_disabled": 0, "fusion_lat": 0.0, "name": "ed0e4619f5f643adaac164163dbc8cd2", "fusion_lon": 0.0}, {"is_reserved": 0, "type": "electric_bike", "bike_id": "516c4a3200c62e6007b38631816a9101", "lat": 38.95950216666667, "lon": -77.01980366666666, "rental_uris": {"android": "https://dc.lft.to/lastmile_qr_scan", "ios": "https://dc.lft.to/lastmile_qr_scan"}, "is_disabled": 0, "fusion_lat": 0.0, "name": "516c4a3200c62e6007b38631816a9101", "fusion_lon": 0.0}, {"is_reserved": 0, "type": "electric_scooter", "bike_id": "733eef2994b5d3eb9cc412ea55414a7e", "lat": 38.9004815, "lon": -77.0402745, "rental_uris": {"android": "https://dc.lft.to/lastmile_qr_scan", "ios": "https://dc.lft.to/lastmile_qr_scan"}, "is_disabled": 0, "fusion_lat": 0.0, "name": "733eef2994b5d3eb9cc412ea55414a7e", "fusion_lon": 0.0}, {"is_reserved": 0, "type": "electric_scooter", "bike_id": "8a07c6b5f8e95605d99d4e1b29b8b0c5", "lat": 38.90171766666667, "lon": -77.02485416666667, "rental_uris": {"android": "https://dc.lft.to/lastmile_qr_scan", "ios": "https://dc.lft.to/lastmile_qr_scan"}, "is_disabled": 0, "fusion_lat": 0.0, "name": "8a07c6b5f8e95605d99d4e1b29b8b0c5", "fusion_lon": 0.0}, {"is_reserved": 0, "type": "electric_scooter", "bike_id": "dd8021a0b7026db820fcd7a1dfe23b58", "lat": 38.91814766666667, "lon": -77.02881383333333, "rental_uris": {"android": "https://dc.lft.to/lastmile_qr_scan", "ios": "https://dc.lft.to/lastmile_qr_scan"}, "is_disabled": 0, "fusion_lat": 0.0, "name": "dd8021a0b7026db820fcd7a1dfe23b58", "fusion_lon": 0.0}, {"is_reserved": 0, "type": "electric_scooter", "bike_id": "7435d564aea0b05081f92d50822f877c", "lat": 38.935241833333336, "lon": -77.0193695, "rental_uris": {"android": "https://dc.lft.to/lastmile_qr_scan", "ios": "https://dc.lft.to/lastmile_qr_scan"}, "is_disabled": 0, "fusion_lat": 0.0, "name": "7435d564aea0b05081f92d50822f877c", "fusion_lon": 0.0},