{"data": {"bikes": [{"rental_uris": {"ios": "https://dc.lft.to/lastmile_qr_scan", "android": "https://dc.lft.to/lastmile_qr_scan"}, "lat": 38.9241255, "lon": -77.01956733333333, "fusion_lat": 0.0, "name": "d0f4bacb0357e3c6ecde76e80ec671da", "is_disabled": 0, "is_reserved": 0, "bike_id": "d0f4bacb0357e3c6ecde76e80ec671da", "fusion_lon": 0.0, "type": "electric_scooter"}, {"rental_uris": {"ios": "https://dc.lft.to/lastmile_qr_scan", "android": "https://dc.lft.to/lastmile_qr_scan"}, "lat": 38.94323216666667, "lon": -77.07651133333333, "fusion_lat": 0.0, "name": "4c0cfc8161891265552e82fdef64735a", "is_disabled": 0, "is_reserved": 0, "bike_id": "4c0cfc8161891265552e82fdef64735a", "fusion_lon": 0.0, "type": "electric_scooter"}, {"rental_uris": {"ios": "https://dc.lft.to/lastmile_qr_scan", "android": "https://dc.lft.to/lastmile_qr_scan"}, "lat": 38.9342495, "lon": -77.04003666666667, "fusion_lat": 0.0, "name": "6d15958fd99470dd11538d44f207679f", "is_disabled": 0, "is_reserved": 0, "bike_id": "6d15958fd99470dd11538d44f207679f", "fusion_lon": 0.0, "type": "electric_scooter"}, {"rental_uris": {"ios": "https://dc.lft.to/lastmile_qr_scan", "android": "https://dc.lft.to/lastmile_qr_scan"}, "lat": 38.921415, "lon": -77.035046, "fusion_lat": 0.0, "name": "42b091c4f3db393894dbec25634031ad", "is_disabled": 0, "is_reserved": 0, "bike_id": "42b091c4f3db393894dbec25634031ad", "fusion_lon": 0.0, "type": "electric_scooter"}, {"rental_uris": {"ios": "https://dc.lft.to/lastmile_qr_scan", "android": "https://dc.lft.to/lastmile_qr_scan"}, "lat": 38.915384333333336, "lon": -77.04452783333333, "fusion_lat": 0.0, "name": "107d4efcfb795d259bf6e51fac2acd0d", "is_disabled": 0, "is_reserved": 0, "bike_id": "107d4efcfb795d259bf6e51fac2acd0d", "fusion_lon": 0.0, "type": "electric_scooter"}, {"rental_uris": {"ios": "https://dc.lft.to/lastmile_qr_scan", "android": "https://dc.lft.to/lastmile_qr_scan"}, "lat": 38.897095166666666, "lon": -77.027323, "fusion_lat": 0.0, "name": "3b253d26c1040034809f6ee254a586b8", "is_disabled": 0, "is_reserved": 0, "bike_id": "3b253d26c1040034809f6ee254a586b8", "fusion_lon": 0.0, "type": "electric_scooter"}, {"rental_uris": {"ios": "https://dc.lft.to/lastmile_qr_scan", "android": "https://dc.lft.to/lastmile_qr_scan"}, "lat": 38.873633166666664, "lon": -77.00107083333333, "fusion_lat": 0.0, "name": "2a5156bdc993e3ccc299e76ecfd27ea6", "is_disabled": 0, "is_reserved": 0, "bike_id": "2a5156bdc993e3ccc299e76ecfd27ea6", "fusion_lon": 0.0, "type": "electric_scooter"}, {"rental_uris": {"ios": "https://dc.lft.to/lastmile_qr_scan", "android": "https://dc.lft.to/lastmile_qr_scan"}, "lat": 38.92217866666667, "lon": -77.04334883333334, "fusion_lat": 0.0, "name": "a001767cf0e62ab3173da7f6d1857064", "is_disabled": 0, "is_reserved": 0, "bike_id": "a001767cf0e62ab3173da7f6d1857064", "fusion_lon": 0.0, "type": "electric_scooter"}, {"rental_uris": {"ios": "https://dc.lft.to/lastmile_qr_scan", "android": "https://dc.lft.to/lastmile_qr_scan"}, "lat": 38.9388615, "lon": -77.02155883333333, "fusion_lat": 0.0, "name": "ef0d656a73fe18c2502af1d81b6efd66", "is_disabled": 0, "is_reserved": 0, "bike_id": "ef0d656a73fe18c2502af1d81b6efd66", "fusion_lon": 0.0, "type": "electric_scooter"}, {"rental_uris": {"ios": "https://dc.lft.to/lastmile_qr_scan", "android": "https://dc.lft.to/lastmile_qr_scan"}, "lat": 38.910267166666664, "lon": -77.02910516666667, "fusion_lat": 0.0, "name": "80c55fe51995c71d3da5b52be33b700d", "is_disabled": 0, "is_reserved": 0, "bike_id": "80c55fe51995c71d3da5b52be33b700d", "fusion_lon": 0.0, "type": "electric_scooter"}, {"rental_uris": {"ios": "https://dc.lft.to/lastmile_qr_scan", "android": "https://dc.lft.to/lastmile_qr_scan"}, "lat": 38.89286416666667, "lon": -77.04483966666666, "fusion_lat": 0.0, "name": "a970dc23bbd16730d4e18529be93108e", "is_disabled": 0, "is_reserved": 0, "bike_id": "a970dc23bbd16730d4e18529be93108e", "fusion_lon": 0.0, "type": "electric_scooter"}, {"rental_uris": {"ios": "https://dc.lft.to/lastmile_qr_scan", "android": "https://dc.lft.to/lastmile_qr_scan"}, "lat": 38.86621516666666, "lon": -76.98714633333333, "fusion_lat": 0.0, "name": "be07cbdb389bb376e6adfb190d127931", "is_disabled": 0, "is_reserved": 0, "bike_id": "be07cbdb389bb376e6adfb190d127931", "fusion_lon": 0.0, "type": "electric_scooter"}, {"rental_uris": {"ios": "https://dc.lft.to/lastmile_qr_scan", "android": "https://dc.lft.to/lastmile_qr_scan"}, "lat": 38.9051705, "lon": -77.05676833333334, "fusion_lat": 0.0, "name": "3157151f4114d8bcf5b8b1948b587a27", "is_disabled": 0, "is_reserved": 0, "bike_id": "3157151f4114d8bcf5b8b1948b587a27", "fusion_lon": 0.0, "type": "electric_scooter"}, {"rental_uris": {"ios": "https://dc.lft.to/lastmile_qr_scan", "android": "https://dc.lft.to/lastmile_qr_scan"}, "lat": 38.916722, "lon": -77.0271335, "fusion_lat": 0.0, "name": "d8b149d55bf7b068f5d3f13a404f2dde", "is_disabled": 0, "is_reserved": 0, "bike_id": "d8b149d55bf7b068f5d3f13a404f2dde", "fusion_lon": 0.0, "type": "electric_scooter"}, {"rental_uris": {"ios": "https://dc.lft.to/lastmile_qr_scan", "android": "https://dc.lft.to/lastmile_qr_scan"}, "lat": 38.88712366666667, "lon": -77.02182133333334, "fusion_lat": 0.0, "name": "c1c32b048a7147d6664bfcdc21b9d0ab", "is_disabled": 0, "is_reserved": 0, "bike_id": "c1c32b048a7147d6664bfcdc21b9d0ab", "fusion_lon": 0.0, "type": "electric_scooter"}, {"rental_uris": {"ios": "https://dc.lft.to/lastmile_qr_scan", "android": "https://dc.lft.to/lastmile_qr_scan"}, "lat": 38.971992666666665, "lon": -77.026575, "fusion_lat": 0.0, "name": "0fdc860dcba1959838ff317972fd9ede", "is_disabled": 0, "is_reserved": 0, "bike_id": "0fdc860dcba1959838ff317972fd9ede", "fusion_lon": 0.0, "type": "electric_scooter"}, {"rental_uris": {"ios": "https://dc.lft.to/lastmile_qr_scan", "android": "https://dc.lft.to/lastmile_qr_scan"}, "lat": 38.902662166666666, "lon": -77.0380155, "fusion_lat": 0.0, "name": "8e09779c3aae6b2bcee2bc9af97d0def", "is_disabled": 0, "is_reserved": 0, "bike_id": "8e09779c3aae6b2bcee2bc9af97d0def", "fusion_lon": 0.0, "type": "electric_scooter"}, {"rental_uris": {"ios": "https://dc.lft.to/lastmile_qr_scan", "android": "https://dc.lft.to/lastmile_qr_scan"}, "lat": 38.92841266666667, "lon": -77.01405283333334, "fusion_lat": 0.0, "name": "f6914d7edafea24433d0ef033f2c4bad", "is_disabled": 0, "is_reserved": 0, "bike_id": "f6914d7edafea24433d0ef033f2c4bad", "fusion_lon": 0.0, "type": "electric_scooter"}, {"rental_uris": {"ios": "https://dc.lft.to/lastmile_qr_scan", "android": "https://dc.lft.to/lastmile_qr_scan"}, "lat": 38.91171683333334, "lon": -77.00447733333333, "fusion_lat": 0.0, "name": "50dd7c0a493434e75a43539f7e4ba321", "is_disabled": 0, "is_reserved": 0, "bike_id": "50dd7c0a493434e75a43539f7e4ba321", "fusion_lon": 0.0, "type": "electric_scooter"}, {"rental_uris": {"ios": "https://dc.lft.to/lastmile_qr_scan", "android": "https://dc.lft.to/lastmile_qr_scan"}, "lat": 38.89775566666667, "lon": -77.01223083333333, "fusion_lat": 0.0, "name": "da218ddc96f6c0fcb1bf27633427cf0b", "is_disabled": 0, "is_reserved": 0, "bike_id": "da218ddc96f6c0fcb1bf27633427cf0b", "fusion_lon": 0.0, "type": "electric_scooter"}, {"rental_uris": {"ios": "https://dc.lft.to/lastmile_qr_scan", "android": "https://dc.lft.to/lastmile_qr_scan"}, "lat": 38.931794333333336, "lon": -77.023442, "fusion_lat": 0.0, "name": "0c7132e399237e124f0482f5680c52b3", "is_disabled": 0, "is_reserved": 0, "bike_id": "0c7132e399237e124f0482f5680c52b3", "fusion_lon": 0.0, "type": "electric_scooter"}, {"rental_uris": {"ios": "https://dc.lft.to/lastmile_qr_scan", "android": "https://dc.lft.to/lastmile_qr_scan"}, "lat": 38.91328, "lon": -77.04543316666667, "fusion_lat": 0.0, "name": "720de705eae7ee727f368f9a81a2fcc2", "is_disabled": 0, "is_reserved": 0, "bike_id": "720de705eae7ee727f368f9a81a2fcc2", "fusion_lon": 0.0, "type": "electric_scooter"}, {"rental_uris": {"ios": "https://dc.lft.to/lastmile_qr_scan", "android": "https://dc.lft.to/lastmile_qr_scan"}, "lat": 38.915502333333336, "lon": -77.02395, "fusion_lat": 0.0, "name": "5ffbf5a4008107c9f6e621e337738f61", "is_disabled": 0, "is_reserved": 0, "bike_id": "5ffbf5a4008107c9f6e621e337738f61", "fusion_lon": 0.0, "type": "electric_scooter"}, {"rental_uris": {"ios": "https://dc.lft.to/lastmile_qr_scan", "android": "https://dc.lft.to/lastmile_qr_scan"}, "lat": 38.91915616666667, "lon": -77.00283416666667, "fusion_lat": 0.0, "name": "d91f85d4e1a7d840c486e7e2993e3ecf", "is_disabled": 0, "is_reserved": 0, "bike_id": "d91f85d4e1a7d840c486e7e2993e3ecf", "fusion_lon": 0.0, "type": "electric_scooter"}, {"rental_uris": {"ios": "https://dc.lft.to/lastmile_qr_scan", "android": "https://dc.lft.to/lastmile_qr_scan"}, "lat": 38.91410583333333, "lon": -77.02116216666667, "fusion_lat": 0.0, "name": "fc424868713fef127f16e3b35fbe4bd6", "is_disabled": 0, "is_reserved": 0, "bike_id": "fc424868713fef127f16e3b35fbe4bd6", "fusion_lon": 0.0, "type": "electric_scooter"}, {"rental_uris": {"ios": "https://dc.lft.to/lastmile_qr_scan", "android": "https://dc.lft.to/lastmile_qr_scan"}, "lat": 38.8853825, "lon": -77.00578583333333, "fusion_lat": 0.0, "name": "25b2c9faf547276d6d9ee1d6cb524e32", "is_disabled": 0, "is_reserved": 0, "bike_id": "25b2c9faf547276d6d9ee1d6cb524e32", "fusion_lon": 0.0, "type": "electric_scooter"}, {"rental_uris": {"ios": "https://dc.lft.to/lastmile_qr_scan", "android": "https://dc.lft.to/lastmile_qr_scan"}, "lat": 38.887107666666665, "lon": -77.0177605, "fusion_lat": 0.0, "name": "085df7586e95aa4d7022deab71528535", "is_disabled": 0, "is_reserved": 0, "bike_id": "085df7586e95aa4d7022deab71528535", "fusion_lon": 0.0, "type": "electric_scooter"}, {"rental_uris": {"ios": "https://dc.lft.to/lastmile_qr_scan", "android": "https://dc.lft.to/lastmile_qr_scan"}, "lat": 38.90307, "lon": -77.04859, "fusion_lat": 0.0, "name": "615eb95bb58f0f06563b7a0371c58657", "is_disabled": 0, "is_reserved": 0, "bike_id": "615eb95bb58f0f06563b7a0371c58657", "fusion_lon": 0.0, "type": "electric_scooter"}, {"rental_uris": {"ios": "https://dc.lft.to/lastmile_qr_scan", "android": "https://dc.lft.to/lastmile_qr_scan"}, "lat": 39.013636166666664, "lon": -76.9213265, "fusion_lat": 0.0, "name": "f819c4d63ffe6ada0a4658a12c4c3192", "is_disabled": 0, "is_reserved": 0, "bike_id": "f819c4d63ffe6ada0a4658a12c4c3192", "fusion_lon": 0.0, "type": "electric_bike"}, {"rental_uris": {"ios": "https://dc.lft.to/lastmile_qr_scan", "android": "https://dc.lft.to/lastmile_qr_scan"}, "lat": 38.9291625, "lon": -77.02383383333333, "fusion_lat": 0.0, "name": "3563a823c892cc825f2ede2be64b65e3", "is_disabled": 0, "is_reserved": 0, "bike_id": "3563a823c892cc825f2ede2be64b65e3", "fusion_lon": 0.0, "type": "electric_bike"}, {"rental_uris": {"ios": "https://dc.lft.to/lastmile_qr_scan", "android": "https://dc.lft.to/lastmile_qr_scan"}, "lat": 38.921621333333334, "lon": -77.02021483333333, "fusion_lat": 0.0, "name": "8af1bac758424ecd39603b28e48a0d9c", "is_disabled": 0, "is_reserved": 0, "bike_id": "8af1bac758424ecd39603b28e48a0d9c", "fusion_lon": 0.0, "type": "electric_scooter"}, {"rental_uris": {"ios": "https://dc.lft.to/lastmile_qr_scan", "android": "https://dc.lft.to/lastmile_qr_scan"}, "lat": 38.90462866666667, "lon": -77.01944933333333, "fusion_lat": 0.0, "name": "cb7a1a726234db152931d5e7226fd2bd", "is_disabled": 0, "is_reserved": 0, "bike_id": "cb7a1a726234db152931d5e7226fd2bd", "fusion_lon": 0.0, "type": "electric_scooter"}, {"rental_uris": {"ios": "https://dc.lft.to/lastmile_qr_scan", "android": "https://dc.lft.to/lastmile_qr_scan"}, "lat": 38.9081935, "lon": -76.99707266666667, "fusion_lat": 0.0, "name": "567c6b10ec504cc5335ad6e6fc783e84", "is_disabled": 0, "is_reserved": 0, "bike_id": "567c6b10ec504cc5335ad6e6fc783e84", "fusion_lon": 0.0, "type": "electric_scooter"}, {"rental_uris": {"ios": "https://dc.lft.to/lastmile_qr_scan", "android": "https://dc.lft.to/lastmile_qr_scan"}, "lat": 38.90528666666667, "lon": -77.0474995, "fusion_lat": 0.0, "name": "01a53c386866bcc8eaf573f9fee11cb5", "is_disabled": 0, "is_reserved": 0, "bike_id": "01a53c386866bcc8eaf573f9fee11cb5", "fusion_lon": 0.0, "type": "electric_scooter"}, {"rental_uris": {"ios": "https://dc.lft.to/lastmile_qr_scan", "android": "https://dc.lft.to/lastmile_qr_scan"}, "lat": 38.928688666666666, "lon": -76.9902965, "fusion_lat": 0.0, "name": "656c9047802fd102019c723def36fb35", "is_disabled": 0, "is_reserved": 0, "bike_id": "656c9047802fd102019c723def36fb35", "fusion_lon": 0.0, "type": "electric_scooter"}, {"rental_uris": {"ios": "https://dc.lft.to/lastmile_qr_scan", "android": "https://dc.lft.to/lastmile_qr_scan"}, "lat": 38.91108066666666, "lon": -77.02170883333334, "fusion_lat": 0.0, "name": "ae3339b2cc0734a36185aa76581e7429", "is_disabled": 0, "is_reserved": 0, "bike_id": "ae3339b2cc0734a36185aa76581e7429", "fusion_lon": 0.0, "type": "electric_scooter"}, {"rental_uris": {"ios": "https://dc.lft.to/lastmile_qr_scan", "android": "https://dc.lft.to/lastmile_qr_scan"}, "lat": 38.91418066666667, "lon": -77.01987583333333, "fusion_lat": 0.0, "name": "f832d6a1194a07f42e25da48f771d075", "is_disabled": 0, "is_reserved": 0, "bike_id": "f832d6a1194a07f42e25da48f771d075", "fusion_lon": 0.0, "type": "electric_scooter"}, {"rental_uris": {"ios": "https://dc.lft.to/lastmile_qr_scan", "android": "https://dc.lft.to/lastmile_qr_scan"}, "lat": 38.91508833333333, "lon": -77.04173066666667, "fusion_lat": 0.0, "name": "d59e4b724ac72a590da3fd5b273b9b5c", "is_disabled": 0, "is_reserved": 0, "bike_id": "d59e4b724ac72a590da3fd5b273b9b5c", "fusion_lon": 0.0, "type": "electric_scooter"}, {"rental_uris": {"ios": "https://dc.lft.to/lastmile_qr_scan", "android": "https://dc.lft.to/lastmile_qr_scan"}, "lat": 38.91704516666667, "lon": -77.0241495, "fusion_lat": 0.0, "name": "f6f03ce572a60dc70276a6b83808e26d", "is_disabled": 0, "is_reserved": 0, "bike_id": "f6f03ce572a60dc70276a6b83808e26d", "fusion_lon": 0.0, "type": "electric_scooter"}, {"rental_uris": {"ios": "https://dc.lft.to/lastmile_qr_scan", "android": "https://dc.lft.to/lastmile_qr_scan"}, "lat": 38.93047716666667, "lon": -77.03275216666667, "fusion_lat": 0.0, "name": "da5e140288cb6d2b641e77329306a215", "is_disabled": 0, "is_reserved": 0, "bike_id": "da5e140288cb6d2b641e77329306a215", "fusion_lon": 0.0, "type": "electric_scooter"}, {"rental_uris": {"ios": "https://dc.lft.to/lastmile_qr_scan", "android": "https://dc.lft.to/lastmile_qr_scan"}, "lat": 38.91766633333334, "lon": -77.02955933333334, "fusion_lat": 0.0, "name": "7291b8f5956f4e6f41aede04bb926a96", "is_disabled": 0, "is_reserved": 0, "bike_id": "7291b8f5956f4e6f41aede04bb926a96", "fusion_lon": 0.0, "type": "electric_scooter"}, {"rental_uris": {"ios": "https://dc.lft.to/lastmile_qr_scan", "android": "https://dc.lft.to/lastmile_qr_scan"}, "lat": 38.916758, "lon": -77.02397966666666, "fusion_lat": 0.0, "name": "ce984e4c63c0d8a68dbdcf55973599fc", "is_disabled": 0, "is_reserved": 0, "bike_id": "ce984e4c63c0d8a68dbdcf55973599fc", "fusion_lon": 0.0, "type": "electric_scooter"}, {"rental_uris": {"ios": "https://dc.lft.to/lastmile_qr_scan", "android": "https://dc.lft.to/lastmile_qr_scan"}, "lat": 38.80035183333333, "lon": -77.0631985, "fusion_lat": 0.0, "name": "5c20679d75fb6569561c16bf8570f58a", "is_disabled": 0, "is_reserved": 0, "bike_id": "5c20679d75fb6569561c16bf8570f58a", "fusion_lon": 0.0, "type": "electric_bike"}, {"rental_uris": {"ios": "https://dc.lft.to/lastmile_qr_scan", "android": "https://dc.lft.to/lastmile_qr_scan"}, "lat": 38.916076, "lon": -77.03378516666666, "fusion_lat": 0.0, "name": "9a2d66e13f6de867b27b542417384855", "is_disabled": 0, "is_reserved": 0, "bike_id": "9a2d66e13f6de867b27b542417384855", "fusion_lon": 0.0, "type": "electric_scooter"}, {"rental_uris": {"ios": "https://dc.lft.to/lastmile_qr_scan", "android": "https://dc.lft.to/lastmile_qr_scan"}, "lat": 38.8624705, "lon": -76.99501483333333, "fusion_lat": 0.0, "name": "6fe0eb45f10807d4f7c0bb4d6215fac9", "is_disabled": 0, "is_reserved": 0, "bike_id": "6fe0eb45f10807d4f7c0bb4d6215fac9", "fusion_lon": 0.0, "type": "electric_scooter"}, {"rental_uris": {"ios": "https://dc.lft.to/lastmile_qr_scan", "android": "https://dc.lft.to/lastmile_qr_scan"}, "lat": 38.913431333333335, "lon": -77.03854666666666, "fusion_lat": 0.0, "name": "ae6d7ba1c00560b932e0e26df839ccad", "is_disabled": 0, "is_reserved": 0, "bike_id": "ae6d7ba1c00560b932e0e26df839ccad", "fusion_lon": 0.0, "type": "electric_scooter"}, {"rental_uris": {"ios": "https://dc.lft.to/lastmile_qr_scan", "android": "https://dc.lft.to/lastmile_qr_scan"}, "lat": 38.934513, "lon": -77.03878266666666, "fusion_lat": 0.0, "name": "e9d070562e9a73f878b02d39985ee548", "is_disabled": 0, "is_reserved": 0, "bike_id": "e9d070562e9a73f878b02d39985ee548", "fusion_lon": 0.0, "type": "electric_scooter"}, {"rental_uris": {"ios": "https://dc.lft.to/lastmile_qr_scan", "android": "https://dc.lft.to/lastmile_qr_scan"}, "lat": 38.91711766666667, "lon": -77.02339233333333, "fusion_lat": 0.0, "name": "3db5d5566b3efed2ff263ef5146063f1", "is_disabled": 0, "is_reserved": 0, "bike_id": "3db5d5566b3efed2ff263ef5146063f1", "fusion_lon": 0.0, "type": "electric_scooter"}, {"rental_uris": {"ios": "https://dc.lft.to/lastmile_qr_scan", "android": "https://dc.lft.to/lastmile_qr_scan"}, "lat": 38.80750183333333, "lon": -77.09451333333334, "fusion_lat": 0.0, "name": "f927f34cc8621e7ea556c535b004f131", "is_disabled": 0, "is_reserved": 0, "bike_id": "f927f34cc8621e7ea556c535b004f131", "fusion_lon": 0.0, "type": "electric_bike"}, {"rental_uris": {"ios": "https://dc.lft.to/lastmile_qr_scan", "android": "https://dc.lft.to/lastmile_qr_scan"}, "lat": 38.8668515, "lon": -76.98564166666667, "fusion_lat": 0.0, "name": "9bf0850e9082642ec78d960660e47c1d", "is_disabled": 0, "is_reserved": 0, "bike_id": "9bf0850e9082642ec78d960660e47c1d", "fusion_lon": 0.0, "type": "electric_scooter"}, {"rental_uris": {"ios": "https://dc.lft.to/lastmile_qr_scan", "android": "https://dc.lft.to/lastmile_qr_scan"}, "lat": 38.8981055, "lon": -77.02566116666667, "fusion_lat": 0.0, "name": "39576241956c8586a837bd2f1b716696", "is_disabled": 0, "is_reserved": 0, "bike_id": "39576241956c8586a837bd2f1b716696", "fusion_lon": 0.0, "type": "electric_scooter"}, {"rental_uris": {"ios": "https://dc.lft.to/lastmile_qr_scan", "android": "https://dc.lft.to/lastmile_qr_scan"}, "lat": 38.90032316666667, "lon": -77.00061133333334, "fusion_lat": 0.0, "name": "7cc95be259e7bbb485740cf995db23a8", "is_disabled": 0, "is_reserved": 0, "bike_id": "7cc95be259e7bbb485740cf995db23a8", "fusion_lon": 0.0, "type": "electric_scooter"}, {"rental_uris": {"ios": "https://dc.lft.to/lastmile_qr_scan", "android": "https://dc.lft.to/lastmile_qr_scan"}, "lat": 38.93353366666667, "lon": -77.04117233333334, "fusion_lat": 0.0, "name": "e6651043e189b12abaa30a0b5187ca5a", "is_disabled": 0, "is_reserved": 0, "bike_id": "e6651043e189b12abaa30a0b5187ca5a", "fusion_lon": 0.0, "type": "electric_scooter"}, {"rental_uris": {"ios": "https://dc.lft.to/lastmile_qr_scan", "android": "https://dc.lft.to/lastmile_qr_scan"}, "lat": 38.8983785, "lon": -77.0076065, "fusion_lat": 0.0, "name": "181525f5cf6339acf490dee022047812", "is_disabled": 0, "is_reserved": 0, "bike_id": "181525f5cf6339acf490dee022047812", "fusion_lon": 0.0, "type": "electric_scooter"}, {"rental_uris": {"ios": "https://dc.lft.to/lastmile_qr_scan", "android": "https://dc.lft.to/lastmile_qr_scan"}, "lat": 38.928759, "lon": -77.01834316666667, "fusion_lat": 0.0, "name": "e188ef1a489cba4fbf0afb22e875624c", "is_disabled": 0, "is_reserved": 0, "bike_id": "e188ef1a489cba4fbf0afb22e875624c", "fusion_lon": 0.0, "type": "electric_scooter"}, {"rental_uris": {"ios": "https://dc.lft.to/lastmile_qr_scan", "android": "https://dc.lft.to/lastmile_qr_scan"}, "lat": 38.92440633333333, "lon": -77.0335325, "fusion_lat": 0.0, "name": "6773bbdd0ca237e19b8d986d07d8ceb7", "is_disabled": 0, "is_reserved": 0, "bike_id": "6773bbdd0ca237e19b8d986d07d8ceb7", "fusion_lon": 0.0, "type": "electric_scooter"}, {"rental_uris": {"ios": "https://dc.lft.to/lastmile_qr_scan", "android": "https://dc.lft.to/lastmile_qr_scan"}, "lat": 38.85933766666667, "lon": -77.11824366666667, "fusion_lat": 0.0, "name": "2c564e5aff894e38e888eaaf5a7df2a1", "is_disabled": 0, "is_reserved": 0, "bike_id": "2c564e5aff894e38e888eaaf5a7df2a1", "fusion_lon": 0.0, "type": "electric_bike"}, {"rental_uris": {"ios": "https://dc.lft.to/lastmile_qr_scan", "android": "https://dc.lft.to/lastmile_qr_scan"}, "lat": 38.8928725, "lon": -76.9761315, "fusion_lat": 0.0, "name": "b82595d1b27c9efd269bac9bcb8d1017", "is_disabled": 0, "is_reserved": 0, "bike_id": "b82595d1b27c9efd269bac9bcb8d1017", "fusion_lon": 0.0, "type": "electric_bike"}, {"rental_uris": {"ios": "https://dc.lft.to/lastmile_qr_scan", "android": "https://dc.lft.to/lastmile_qr_scan"}, "lat": 38.9023015, "lon": -77.03722283333333, "fusion_lat": 0.0, "name": "3e32b573a8fa44e37a72ebadc1dd9614", "is_disabled": 0, "is_reserved": 0, "bike_id": "3e32b573a8fa44e37a72ebadc1dd9614", "fusion_lon": 0.0, "type": "electric_scooter"}, {"rental_uris": {"ios": "https://dc.lft.to/lastmile_qr_scan", "android": "https://dc.lft.to/lastmile_qr_scan"}, "lat": 38.82365183333334, "lon": -77.00216733333333, "fusion_lat": 0.0, "name": "e4ff244b0f244ab70a4cf23e0440e372", "is_disabled": 0, "is_reserved": 0, "bike_id": "e4ff244b0f244ab70a4cf23e0440e372", "fusion_lon": 0.0, "type": "electric_bike"}, {"rental_uris": {"ios": "https://dc.lft.to/lastmile_qr_scan", "android": "https://dc.lft.to/lastmile_qr_scan"}, "lat": 38.90028933333333, "lon": -77.0007375, "fusion_lat": 0.0, "name": "389d14d06ea69430f721f63b4423ca5a", "is_disabled": 0, "is_reserved": 0, "bike_id": "389d14d06ea69430f721f63b4423ca5a", "fusion_lon": 0.0, "type": "electric_scooter"}, {"rental_uris": {"ios": "https://dc.lft.to/lastmile_qr_scan", "android": "https://dc.lft.to/lastmile_qr_scan"}, "lat": 38.919244, "lon": -77.0092925, "fusion_lat": 0.0, "name": "b866c3b6b44d55d32976caa2081b37a8", "is_disabled": 0, "is_reserved": 0, "bike_id": "b866c3b6b44d55d32976caa2081b37a8", "fusion_lon": 0.0, "type": "electric_scooter"}, {"rental_uris": {"ios": "https://dc.lft.to/lastmile_qr_scan", "android": "https://dc.lft.to/lastmile_qr_scan"}, "lat": 38.87482133333334, "lon": -76.99973633333333, "fusion_lat": 0.0, "name": "cb8e616d1deadfd1df9cd6809500446d", "is_disabled": 0, "is_reserved": 0, "bike_id": "cb8e616d1deadfd1df9cd6809500446d", "fusion_lon": 0.0, "type": "electric_scooter"}, {"rental_uris": {"ios": "https://dc.lft.to/lastmile_qr_scan", "android": "https://dc.lft.to/lastmile_qr_scan"}, "lat": 38.907332833333335, "lon": -77.068926, "fusion_lat": 0.0, "name": "3f5613a04f439cf9d1242ae04e9f56d1", "is_disabled": 0, "is_reserved": 0, "bike_id": "3f5613a04f439cf9d1242ae04e9f56d1", "fusion_lon": 0.0, "type": "electric_scooter"}, {"rental_uris": {"ios": "https://dc.lft.to/lastmile_qr_scan", "android": "https://dc.lft.to/lastmile_qr_scan"}, "lat": 38.9140035, "lon": -77.02007, "fusion_lat": 0.0, "name": "d1b169febdb31b3714344cbd7c2fbf01", "is_disabled": 0, "is_reserved": 0, "bike_id": "d1b169febdb31b3714344cbd7c2fbf01", "fusion_lon": 0.0, "type": "electric_scooter"}, {"rental_uris": {"ios": "https://dc.lft.to/lastmile_qr_scan", "android": "https://dc.lft.to/lastmile_qr_scan"}, "lat": 38.90523566666667, "lon": -77.05987866666666, "fusion_lat": 0.0, "name": "e912ad4802cce23d3df51ef87a89a6e0", "is_disabled": 0, "is_reserved": 0, "bike_id": "e912ad4802cce23d3df51ef87a89a6e0", "fusion_lon": 0.0, "type": "electric_scooter"}, {"rental_uris": {"ios": "https://dc.lft.to/lastmile_qr_scan", "android": "https://dc.lft.to/lastmile_qr_scan"}, "lat": 38.866900333333334, "lon": -76.98543766666667, "fusion_lat": 0.0, "name": "92cf3c385bacf15f22251f60fbb76c89", "is_disabled": 0, "is_reserved": 0, "bike_id": "92cf3c385bacf15f22251f60fbb76c89", "fusion_lon": 0.0, "type": "electric_scooter"}, {"rental_uris": {"ios": "https://dc.lft.to/lastmile_qr_scan", "android": "https://dc.lft.to/lastmile_qr_scan"}, "lat": 38.90524416666667, "lon": -77.0512025, "fusion_lat": 0.0, "name": "41edf5b0ca1d6824151cf9e54d6ec459", "is_disabled": 0, "is_reserved": 0, "bike_id": "41edf5b0ca1d6824151cf9e54d6ec459", "fusion_lon": 0.0, "type": "electric_scooter"}, {"rental_uris": {"ios": "https://dc.lft.to/lastmile_qr_scan", "android": "https://dc.lft.to/lastmile_qr_scan"}, "lat": 38.9418475, "lon": -77.02488666666666, "fusion_lat": 0.0, "name": "a756cf5f821d6d035326ff08047a80a9", "is_disabled": 0, "is_reserved": 0, "bike_id": "a756cf5f821d6d035326ff08047a80a9", "fusion_lon": 0.0, "type": "electric_scooter"}, {"rental_uris": {"ios": "https://dc.lft.to/lastmile_qr_scan", "android": "https://dc.lft.to/lastmile_qr_scan"}, "lat": 38.90955816666666, "lon": -77.02300583333333, "fusion_lat": 0.0, "name": "9826bca447ced7f8ab481285bfaeae57", "is_disabled": 0, "is_reserved": 0, "bike_id": "9826bca447ced7f8ab481285bfaeae57", "fusion_lon": 0.0, "type": "electric_scooter"}, {"rental_uris": {"ios": "https://dc.lft.to/lastmile_qr_scan", "android": "https://dc.lft.to/lastmile_qr_scan"}, "lat": 38.87711066666667, "lon": -77.0028655, "fusion_lat": 0.0, "name": "8216ea3763c97aad2914bbad15c8dcfc", "is_disabled": 0, "is_reserved": 0, "bike_id": "8216ea3763c97aad2914bbad15c8dcfc", "fusion_lon": 0.0, "type": "electric_scooter"}, {"rental_uris": {"ios": "https://dc.lft.to/lastmile_qr_scan", "android": "https://dc.lft.to/lastmile_qr_scan"}, "lat": 38.903641666666665, "lon": -77.04009216666667, "fusion_lat": 0.0, "name": "4e9ac497fd780b257c82d38cbb6fe014", "is_disabled": 0, "is_reserved": 0, "bike_id": "4e9ac497fd780b257c82d38cbb6fe014", "fusion_lon": 0.0, "type": "electric_scooter"}, {"rental_uris": {"ios": "https://dc.lft.to/lastmile_qr_scan", "android": "https://dc.lft.to/lastmile_qr_scan"}, "lat": 38.895982333333336, "lon": -77.02351066666667, "fusion_lat": 0.0, "name": "b5e2c04342a8a3423c43c7c777cd8f7c", "is_disabled": 0, "is_reserved": 0, "bike_id": "b5e2c04342a8a3423c43c7c777cd8f7c", "fusion_lon": 0.0, "type": "electric_scooter"}, {"rental_uris": {"ios": "https://dc.lft.to/lastmile_qr_scan", "android": "https://dc.lft.to/lastmile_qr_scan"}, "lat": 38.92714566666667, "lon": -77.0535815, "fusion_lat": 0.0, "name": "80d1f911fa48ccb3a007b935c35ef42e", "is_disabled": 0, "is_reserved": 0, "bike_id": "80d1f911fa48ccb3a007b935c35ef42e", "fusion_lon": 0.0, "type": "electric_scooter"}, {"rental_uris": {"ios": "https://dc.lft.to/lastmile_qr_scan", "android": "https://dc.lft.to/lastmile_qr_scan"}, "lat": 38.9156675, "lon": -77.02288, "fusion_lat": 0.0, "name": "5bfd545f4fa3161d390688d3ae305eaf", "is_disabled": 0, "is_reserved": 0, "bike_id": "5bfd545f4fa3161d390688d3ae305eaf", "fusion_lon": 0.0, "type": "electric_scooter"}, {"rental_uris": {"ios": "https://dc.lft.to/lastmile_qr_scan", "android": "https://dc.lft.to/lastmile_qr_scan"}, "lat": 38.872952833333336, "lon": -77.13929066666667, "fusion_lat": 0.0, "name": "f568d92e32215b54ce5e2b9106eb445f", "is_disabled": 0, "is_reserved": 0, "bike_id": "f568d92e32215b54ce5e2b9106eb445f", "fusion_lon": 0.0, "type": "electric_bike"}, {"rental_uris": {"ios": "https://dc.lft.to/lastmile_qr_scan", "android": "https://dc.lft.to/lastmile_qr_scan"}, "lat": 38.89377666666667, "lon": -77.02272116666667, "fusion_lat": 0.0, "name": "bd3c17b22c95893db2df2d5cbb123620", "is_disabled": 0, "is_reserved": 0, "bike_id": "bd3c17b22c95893db2df2d5cbb123620", "fusion_lon": 0.0, "type": "electric_scooter"}, {"rental_uris": {"ios": "https://dc.lft.to/lastmile_qr_scan", "android": "https://dc.lft.to/lastmile_qr_scan"}, "lat": 38.894679333333336, "lon": -77.02172783333333, "fusion_lat": 0.0, "name": "cb410f1485cd0c8efe9528beef6af3ba", "is_disabled": 0, "is_reserved": 0, "bike_id": "cb410f1485cd0c8efe9528beef6af3ba", "fusion_lon": 0.0, "type": "electric_scooter"}, {"rental_uris": {"ios": "https://dc.lft.to/lastmile_qr_scan", "android": "https://dc.lft.to/lastmile_qr_scan"}, "lat": 38.87359716666667, "lon": -76.97028016666667, "fusion_lat": 0.0, "name": "2ac57d2c8ea1ca87c0e843d73342a07a", "is_disabled": 0, "is_reserved": 0, "bike_id": "2ac57d2c8ea1ca87c0e843d73342a07a", "fusion_lon": 0.0, "type": "electric_scooter"}, {"rental_uris": {"ios": "https://dc.lft.to/lastmile_qr_scan", "android": "https://dc.lft.to/lastmile_qr_scan"}, "lat": 38.9218675, "lon": -77.04338866666667, "fusion_lat": 0.0, "name": "d7ed8f87fd0f6ad9d1037a18ca8e519a", "is_disabled": 0, "is_reserved": 0, "bike_id": "d7ed8f87fd0f6ad9d1037a18ca8e519a", "fusion_lon": 0.0, "type": "electric_scooter"}, {"rental_uris": {"ios": "https://dc.lft.to/lastmile_qr_scan", "android": "https://dc.lft.to/lastmile_qr_scan"}, "lat": 38.921533333333336, "lon": -77.03825483333334, "fusion_lat": 0.0, "name": "1bd919dee3b29bd22d38ec7985f42a6f", "is_disabled": 0, "is_reserved": 0, "bike_id": "1bd919dee3b29bd22d38ec7985f42a6f", "fusion_lon": 0.0, "type": "electric_scooter"}, {"rental_uris": {"ios": "https://dc.lft.to/lastmile_qr_scan", "android": "https://dc.lft.to/lastmile_qr_scan"}, "lat": 38.91911666666667, "lon": -77.02547383333334, "fusion_lat": 0.0, "name": "9730018f838ce480a4fde408cb26a4f9", "is_disabled": 0, "is_reserved": 0, "bike_id": "9730018f838ce480a4fde408cb26a4f9", "fusion_lon": 0.0, "type": "electric_scooter"}, {"rental_uris": {"ios": "https://dc.lft.to/lastmile_qr_scan", "android": "https://dc.lft.to/lastmile_qr_scan"}, "lat": 38.923103, "lon": -77.04105566666667, "fusion_lat": 0.0, "name": "030462afa176019850f623d6c9447a91", "is_disabled": 0, "is_reserved": 0, "bike_id": "030462afa176019850f623d6c9447a91", "fusion_lon": 0.0, "type": "electric_scooter"}, {"rental_uris": {"ios": "https://dc.lft.to/lastmile_qr_scan", "android": "https://dc.lft.to/lastmile_qr_scan"}, "lat": 38.917083833333336, "lon": -77.02843383333334, "fusion_lat": 0.0, "name": "c9a7b83de9870c393bb51cbd983c701a", "is_disabled": 0, "is_reserved": 0, "bike_id": "c9a7b83de9870c393bb51cbd983c701a", "fusion_lon": 0.0, "type": "electric_scooter"}, {"rental_uris": {"ios": "https://dc.lft.to/lastmile_qr_scan", "android": "https://dc.lft.to/lastmile_qr_scan"}, "lat": 38.92434766666667, "lon": -77.02014366666667, "fusion_lat": 0.0, "name": "8e1631a62bdca004ce670b56ebfc23d3", "is_disabled": 0, "is_reserved": 0, "bike_id": "8e1631a62bdca004ce670b56ebfc23d3", "fusion_lon": 0.0, "type": "electric_scooter"}, {"rental_uris": {"ios": "https://dc.lft.to/lastmile_qr_scan", "android": "https://dc.lft.to/lastmile_qr_scan"}, "lat": 38.913016, "lon": -77.03866966666666, "fusion_lat": 0.0, "name": "62f0a746d12c6e5c2562b279e858588f", "is_disabled": 0, "is_reserved": 0, "bike_id": "62f0a746d12c6e5c2562b279e858588f", "fusion_lon": 0.0, "type": "electric_scooter"}, {"rental_uris": {"ios": "https://dc.lft.to/lastmile_qr_scan", "android": "https://dc.lft.to/lastmile_qr_scan"}, "lat": 38.842782166666666, "lon": -76.9884125, "fusion_lat": 0.0, "name": "8ce1fb949453bda447f43c75d0cd2bdf", "is_disabled": 0, "is_reserved": 0, "bike_id": "8ce1fb949453bda447f43c75d0cd2bdf", "fusion_lon": 0.0, "type": "electric_bike"}, {"rental_uris": {"ios": "https://dc.lft.to/lastmile_qr_scan", "android": "https://dc.lft.to/lastmile_qr_scan"}, "lat": 38.90633733333333, "lon": -77.048693, "fusion_lat": 0.0, "name": "53977325adc729dc29296619d088c533", "is_disabled": 0, "is_reserved": 0, "bike_id": "53977325adc729dc29296619d088c533", "fusion_lon": 0.0, "type": "electric_scooter"}, {"rental_uris": {"ios": "https://dc.lft.to/lastmile_qr_scan", "android": "https://dc.lft.to/lastmile_qr_scan"}, "lat": 38.9181515, "lon": -77.02443733333334, "fusion_lat": 0.0, "name": "75c51d49d1da46fff0c551384a17f603", "is_disabled": 0, "is_reserved": 0, "bike_id": "75c51d49d1da46fff0c551384a17f603", "fusion_lon": 0.0, "type": "electric_scooter"}, {"rental_uris": {"ios": "https://dc.lft.to/lastmile_qr_scan", "android": "https://dc.lft.to/lastmile_qr_scan"}, "lat": 38.898261, "lon": -77.031017, "fusion_lat": 0.0, "name": "7583c4f35eafac8932d3ea2a2c9a1d74", "is_disabled": 0, "is_reserved": 0, "bike_id": "7583c4f35eafac8932d3ea2a2c9a1d74", "fusion_lon": 0.0, "type": "electric_scooter"}, {"rental_uris": {"ios": "https://dc.lft.to/lastmile_qr_scan", "android": "https://dc.lft.to/lastmile_qr_scan"}, "lat": 38.899144, "lon": -76.933671, "fusion_lat": 0.0, "name": "e487500e2f7a392a08cc4aef6b240220", "is_disabled": 0, "is_reserved": 0, "bike_id": "e487500e2f7a392a08cc4aef6b240220", "fusion_lon": 0.0, "type": "electric_scooter"}, {"rental_uris": {"ios": "https://dc.lft.to/lastmile_qr_scan", "android": "https://dc.lft.to/lastmile_qr_scan"}, "lat": 38.90954933333333, "lon": -77.03418683333334, "fusion_lat": 0.0, "name": "163a231a3a3c802a646df0479d13548f", "is_disabled": 0, "is_reserved": 0, "bike_id": "163a231a3a3c802a646df0479d13548f", "fusion_lon": 0.0, "type": "electric_scooter"}, {"rental_uris": {"ios": "https://dc.lft.to/lastmile_qr_scan", "android": "https://dc.lft.to/lastmile_qr_scan"}, "lat": 38.929280166666665, "lon": -77.03758866666666, "fusion_lat": 0.0, "name": "c14c45265bfc6b42086682ba0cf22eec", "is_disabled": 0, "is_reserved": 0, "bike_id": "c14c45265bfc6b42086682ba0cf22eec", "fusion_lon": 0.0, "type": "electric_scooter"}, {"rental_uris": {"ios": "https://dc.lft.to/lastmile_qr_scan", "android": "https://dc.lft.to/lastmile_qr_scan"}, "lat": 38.885723166666665, "lon": -77.01543333333333, "fusion_lat": 0.0, "name": "7e28755d2ea6ef144bd31d89a691843f", "is_disabled": 0, "is_reserved": 0, "bike_id": "7e28755d2ea6ef144bd31d89a691843f", "fusion_lon": 0.0, "type": "electric_scooter"}, {"rental_uris": {"ios": "https://dc.lft.to/lastmile_qr_scan", "android": "https://dc.lft.to/lastmile_qr_scan"}, "lat": 38.897394166666665, "lon": -76.97978133333334, "fusion_lat": 0.0, "name": "f22f17b5b909d695ed9701e35281d9f9", "is_disabled": 0, "is_reserved": 0, "bike_id": "f22f17b5b909d695ed9701e35281d9f9", "fusion_lon": 0.0, "type": "electric_scooter"}, {"rental_uris": {"ios": "https://dc.lft.to/lastmile_qr_scan", "android": "https://dc.lft.to/lastmile_qr_scan"}, "lat": 38.95878366666667, "lon": -77.02808433333334, "fusion_lat": 0.0, "name": "c0d2944221c82a883c7844af5d77b9b5", "is_disabled": 0, "is_reserved": 0, "bike_id": "c0d2944221c82a883c7844af5d77b9b5", "fusion_lon": 0.0, "type": "electric_scooter"}, {"rental_uris": {"ios": "https://dc.lft.to/lastmile_qr_scan", "android": "https://dc.lft.to/lastmile_qr_scan"}, "lat": 38.866801333333335, "lon": -76.98567883333334, "fusion_lat": 0.0, "name": "613cf46fee5c371a79d5cdcd5250dd6e", "is_disabled": 0, "is_reserved": 0, "bike_id": "613cf46fee5c371a79d5cdcd5250dd6e", "fusion_lon": 0.0, "type": "electric_scooter"}, {"rental_uris": {"ios": "https://dc.lft.to/lastmile_qr_scan", "android": "https://dc.lft.to/lastmile_qr_scan"}, "lat": 38.93649283333333, "lon": -77.0365195, "fusion_lat": 0.0, "name": "593e4b215e329b1223779c02cfae43cd", "is_disabled": 0, "is_reserved": 0, "bike_id": "593e4b215e329b1223779c02cfae43cd", "fusion_lon": 0.0, "type": "electric_scooter"}, {"rental_uris": {"ios": "https://dc.lft.to/lastmile_qr_scan", "android": "https://dc.lft.to/lastmile_qr_scan"}, "lat": 38.90702533333334, "lon": -77.03193633333333, "fusion_lat": 0.0, "name": "e0aed1dd397fac40e8304c499b759c0a", "is_disabled": 0, "is_reserved": 0, "bike_id": "e0aed1dd397fac40e8304c499b759c0a", "fusion_lon": 0.0, "type": "electric_scooter"}, {"rental_uris": {"ios": "https://dc.lft.to/lastmile_qr_scan", "android": "https://dc.lft.to/lastmile_qr_scan"}, "lat": 38.94289166666667, "lon": -77.02166683333333, "fusion_lat": 0.0, "name": "fa41121ba4e1bf4c70296fb40ffb31de", "is_disabled": 0, "is_reserved": 0, "bike_id": "fa41121ba4e1bf4c70296fb40ffb31de", "fusion_lon": 0.0, "type": "electric_scooter"}, {"rental_uris": {"ios": "https://dc.lft.to/lastmile_qr_scan", "android": "https://dc.lft.to/lastmile_qr_scan"}, "lat": 38.926429166666665, "lon": -77.03401266666667, "fusion_lat": 0.0, "name": "6d34288151173fc844dedc4f77b13293", "is_disabled": 0, "is_reserved": 0, "bike_id": "6d34288151173fc844dedc4f77b13293", "fusion_lon": 0.0, "type": "electric_scooter"}, {"rental_uris": {"ios": "https://dc.lft.to/lastmile_qr_scan", "android": "https://dc.lft.to/lastmile_qr_scan"}, "lat": 38.8535, "lon": -77.13469416666666, "fusion_lat": 0.0, "name": "a4c668f1585db1d6f7aa2dd5c318f83c", "is_disabled": 0, "is_reserved": 0, "bike_id": "a4c668f1585db1d6f7aa2dd5c318f83c", "fusion_lon": 0.0, "type": "electric_bike"}, {"rental_uris": {"ios": "https://dc.lft.to/lastmile_qr_scan", "android": "https://dc.lft.to/lastmile_qr_scan"}, "lat": 38.916325666666665, "lon": -77.04807416666667, "fusion_lat": 0.0, "name": "57bb2ac1314f50cd3d4cf5291b777307", "is_disabled": 0, "is_reserved": 0, "bike_id": "57bb2ac1314f50cd3d4cf5291b777307", "fusion_lon": 0.0, "type": "electric_scooter"}, {"rental_uris": {"ios": "https://dc.lft.to/lastmile_qr_scan", "android": "https://dc.lft.to/lastmile_qr_scan"}, "lat": 38.89884383333333, "lon": -77.021682, "fusion_lat": 0.0, "name": "748941b5576adbd45112f9a26132a66b", "is_disabled": 0, "is_reserved": 0, "bike_id": "748941b5576adbd45112f9a26132a66b", "fusion_lon": 0.0, "type": "electric_scooter"}, {"rental_uris": {"ios": "https://dc.lft.to/lastmile_qr_scan", "android": "https://dc.lft.to/lastmile_qr_scan"}, "lat": 38.924918166666664, "lon": -77.05111233333334, "fusion_lat": 0.0, "name": "32f87aba4a2121b3aecb72831308a219", "is_disabled": 0, "is_reserved": 0, "bike_id": "32f87aba4a2121b3aecb72831308a219", "fusion_lon": 0.0, "type": "electric_scooter"}, {"rental_uris": {"ios": "https://dc.lft.to/lastmile_qr_scan", "android": "https://dc.lft.to/lastmile_qr_scan"}, "lat": 38.908608, "lon": -77.04526216666666, "fusion_lat": 0.0, "name": "5eebc38cf90d73ec36e44aa8539a0398", "is_disabled": 0, "is_reserved": 0, "bike_id": "5eebc38cf90d73ec36e44aa8539a0398", "fusion_lon": 0.0, "type": "electric_scooter"}, {"rental_uris": {"ios": "https://dc.lft.to/lastmile_qr_scan", "android": "https://dc.lft.to/lastmile_qr_scan"}, "lat": 38.9105845, "lon": -77.030914, "fusion_lat": 0.0, "name": "906cfc0c83304d9549eb8948b6182903", "is_disabled": 0, "is_reserved": 0, "bike_id": "906cfc0c83304d9549eb8948b6182903", "fusion_lon": 0.0, "type": "electric_scooter"}, {"rental_uris": {"ios": "https://dc.lft.to/lastmile_qr_scan", "android": "https://dc.lft.to/lastmile_qr_scan"}, "lat": 38.903710333333336, "lon": -76.985917, "fusion_lat": 0.0, "name": "091c1cdd9a159236c4e00d544ce203fa", "is_disabled": 0, "is_reserved": 0, "bike_id": "091c1cdd9a159236c4e00d544ce203fa", "fusion_lon": 0.0, "type": "electric_scooter"}, {"rental_uris": {"ios": "https://dc.lft.to/lastmile_qr_scan", "android": "https://dc.lft.to/lastmile_qr_scan"}, "lat": 38.92358383333333, "lon": -77.05270466666667, "fusion_lat": 0.0, "name": "3ff3b573934f69066283ce46ee6c86c2", "is_disabled": 0, "is_reserved": 0, "bike_id": "3ff3b573934f69066283ce46ee6c86c2", "fusion_lon": 0.0, "type": "electric_scooter"}, {"rental_uris": {"ios": "https://dc.lft.to/lastmile_qr_scan", "android": "https://dc.lft.to/lastmile_qr_scan"}, "lat": 38.9155065, "lon": -77.02135316666667, "fusion_lat": 0.0, "name": "1a513da0995aab2150d68aaa7ae0031a", "is_disabled": 0, "is_reserved": 0, "bike_id": "1a513da0995aab2150d68aaa7ae0031a", "fusion_lon": 0.0, "type": "electric_scooter"}, {"rental_uris": {"ios": "https://dc.lft.to/lastmile_qr_scan", "android": "https://dc.lft.to/lastmile_qr_scan"}, "lat": 38.918332166666666, "lon": -77.0402795, "fusion_lat": 0.0, "name": "7f48643f0a628d60a9842b38cc46cc88", "is_disabled": 0, "is_reserved": 0, "bike_id": "7f48643f0a628d60a9842b38cc46cc88", "fusion_lon": 0.0, "type": "electric_scooter"}, {"rental_uris": {"ios": "https://dc.lft.to/lastmile_qr_scan", "android": "https://dc.lft.to/lastmile_qr_scan"}, "lat": 38.906012, "lon": -77.02677716666666, "fusion_lat": 0.0, "name": "855145a9023aeda1007efdb5df055b3f", "is_disabled": 0, "is_reserved": 0, "bike_id": "855145a9023aeda1007efdb5df055b3f", "fusion_lon": 0.0, "type": "electric_scooter"}, {"rental_uris": {"ios": "https://dc.lft.to/lastmile_qr_scan", "android": "https://dc.lft.to/lastmile_qr_scan"}, "lat": 38.892266666666664, "lon": -77.0148975, "fusion_lat": 0.0, "name": "51ecaea93e1c6fb85447dc01f4253d75", "is_disabled": 0, "is_reserved": 0, "bike_id": "51ecaea93e1c6fb85447dc01f4253d75", "fusion_lon": 0.0, "type": "electric_scooter"}, {"rental_uris": {"ios": "https://dc.lft.to/lastmile_qr_scan", "android": "https://dc.lft.to/lastmile_qr_scan"}, "lat": 38.92490133333333, "lon": -77.03802066666667, "fusion_lat": 0.0, "name": "116650f873510ba130cc48c98921ff9a", "is_disabled": 0, "is_reserved": 0, "bike_id": "116650f873510ba130cc48c98921ff9a", "fusion_lon": 0.0, "type": "electric_scooter"}, {"rental_uris": {"ios": "https://dc.lft.to/lastmile_qr_scan", "android": "https://dc.lft.to/lastmile_qr_scan"}, "lat": 38.9177015, "lon": -77.04769616666667, "fusion_lat": 0.0, "name": "e946ff414429de8a16507cfd7d031f2d", "is_disabled": 0, "is_reserved": 0, "bike_id": "e946ff414429de8a16507cfd7d031f2d", "fusion_lon": 0.0, "type": "electric_scooter"}, {"rental_uris": {"ios": "https://dc.lft.to/lastmile_qr_scan", "android": "https://dc.lft.to/lastmile_qr_scan"}, "lat": 38.916621, "lon": -76.98171483333333, "fusion_lat": 0.0, "name": "1a825c4783144d0c30e8a0ed0969d94d", "is_disabled": 0, "is_reserved": 0, "bike_id": "1a825c4783144d0c30e8a0ed0969d94d", "fusion_lon": 0.0, "type": "electric_scooter"}, {"rental_uris": {"ios": "https://dc.lft.to/lastmile_qr_scan", "android": "https://dc.lft.to/lastmile_qr_scan"}, "lat": 38.937607166666666, "lon": -77.02400033333333, "fusion_lat": 0.0, "name": "aff1747e072b1a799f9ac548c87671cf", "is_disabled": 0, "is_reserved": 0, "bike_id": "aff1747e072b1a799f9ac548c87671cf", "fusion_lon": 0.0, "type": "electric_scooter"}, {"rental_uris": {"ios": "https://dc.lft.to/lastmile_qr_scan", "android": "https://dc.lft.to/lastmile_qr_scan"}, "lat": 38.91667266666666, "lon": -77.02313066666666, "fusion_lat": 0.0, "name": "8152e7b26e66a717bdf139f3da0d53bd", "is_disabled": 0, "is_reserved": 0, "bike_id": "8152e7b26e66a717bdf139f3da0d53bd", "fusion_lon": 0.0, "type": "electric_scooter"}, {"rental_uris": {"ios": "https://dc.lft.to/lastmile_qr_scan", "android": "https://dc.lft.to/lastmile_qr_scan"}, "lat": 38.90680483333333, "lon": -77.02690833333334, "fusion_lat": 0.0, "name": "c355c7842d49f3d03bfa14344b462841", "is_disabled": 0, "is_reserved": 0, "bike_id": "c355c7842d49f3d03bfa14344b462841", "fusion_lon": 0.0, "type": "electric_scooter"}, {"rental_uris": {"ios": "https://dc.lft.to/lastmile_qr_scan", "android": "https://dc.lft.to/lastmile_qr_scan"}, "lat": 38.93165783333333, "lon": -77.02343833333333, "fusion_lat": 0.0, "name": "1fb419e0887cee8f9e6e6a8d57b470d6", "is_disabled": 0, "is_reserved": 0, "bike_id": "1fb419e0887cee8f9e6e6a8d57b470d6", "fusion_lon": 0.0, "type": "electric_scooter"}, {"rental_uris": {"ios": "https://dc.lft.to/lastmile_qr_scan", "android": "https://dc.lft.to/lastmile_qr_scan"}, "lat": 38.9099665, "lon": -77.04007283333334, "fusion_lat": 0.0, "name": "967d7e1e09ea4f628a0d6fbcee54a8ae", "is_disabled": 0, "is_reserved": 0, "bike_id": "967d7e1e09ea4f628a0d6fbcee54a8ae", "fusion_lon": 0.0, "type": "electric_scooter"}, {"rental_uris": {"ios": "https://dc.lft.to/lastmile_qr_scan", "android": "https://dc.lft.to/lastmile_qr_scan"}, "lat": 38.89910066666667, "lon": -76.933689, "fusion_lat": 0.0, "name": "e1f4e03fa94b83f4133014494f85fafe", "is_disabled": 0, "is_reserved": 0, "bike_id": "e1f4e03fa94b83f4133014494f85fafe", "fusion_lon": 0.0, "type": "electric_scooter"}, {"rental_uris": {"ios": "https://dc.lft.to/lastmile_qr_scan", "android": "https://dc.lft.to/lastmile_qr_scan"}, "lat": 38.90442433333333, "lon": -76.97995683333333, "fusion_lat": 0.0, "name": "0096143887d7da6062f219c31a164a4f", "is_disabled": 0, "is_reserved": 0, "bike_id": "0096143887d7da6062f219c31a164a4f", "fusion_lon": 0.0, "type": "electric_scooter"}, {"rental_uris": {"ios": "https://dc.lft.to/lastmile_qr_scan", "android": "https://dc.lft.to/lastmile_qr_scan"}, "lat": 38.91171466666667, "lon": -77.031744, "fusion_lat": 0.0, "name": "29e1dee63e88c0e5e94a85da29ee1555", "is_disabled": 0, "is_reserved": 0, "bike_id": "29e1dee63e88c0e5e94a85da29ee1555", "fusion_lon": 0.0, "type": "electric_scooter"}, {"rental_uris": {"ios": "https://dc.lft.to/lastmile_qr_scan", "android": "https://dc.lft.to/lastmile_qr_scan"}, "lat": 38.915913333333336, "lon": -77.03168716666667, "fusion_lat": 0.0, "name": "83e8f3a5ae1bcc4e63a95a22314aefc0", "is_disabled": 0, "is_reserved": 0, "bike_id": "83e8f3a5ae1bcc4e63a95a22314aefc0", "fusion_lon": 0.0, "type": "electric_scooter"}, {"rental_uris": {"ios": "https://dc.lft.to/lastmile_qr_scan", "android": "https://dc.lft.to/lastmile_qr_scan"}, "lat": 38.9068865, "lon": -77.02390766666667, "fusion_lat": 0.0, "name": "28f442c7ec9a173ac5970d92317d762f", "is_disabled": 0, "is_reserved": 0, "bike_id": "28f442c7ec9a173ac5970d92317d762f", "fusion_lon": 0.0, "type": "electric_scooter"}, {"rental_uris": {"ios": "https://dc.lft.to/lastmile_qr_scan", "android": "https://dc.lft.to/lastmile_qr_scan"}, "lat": 38.86242816666667, "lon": -76.99499116666667, "fusion_lat": 0.0, "name": "0f9410a31d8fd790da22eee1c3b5035d", "is_disabled": 0, "is_reserved": 0, "bike_id": "0f9410a31d8fd790da22eee1c3b5035d", "fusion_lon": 0.0, "type": "electric_scooter"}, {"rental_uris": {"ios": "https://dc.lft.to/lastmile_qr_scan", "android": "https://dc.lft.to/lastmile_qr_scan"}, "lat": 38.909727333333336, "lon": -77.02413066666666, "fusion_lat": 0.0, "name": "394f61fd566fd67e05901379d9cb2f37", "is_disabled": 0, "is_reserved": 0, "bike_id": "394f61fd566fd67e05901379d9cb2f37", "fusion_lon": 0.0, "type": "electric_scooter"}, {"rental_uris": {"ios": "https://dc.lft.to/lastmile_qr_scan", "android": "https://dc.lft.to/lastmile_qr_scan"}, "lat": 38.90642066666667, "lon": -77.01142583333333, "fusion_lat": 0.0, "name": "363ea47690a5a7c4973038114fc6f5f4", "is_disabled": 0, "is_reserved": 0, "bike_id": "363ea47690a5a7c4973038114fc6f5f4", "fusion_lon": 0.0, "type": "electric_scooter"}, {"rental_uris": {"ios": "https://dc.lft.to/lastmile_qr_scan", "android": "https://dc.lft.to/lastmile_qr_scan"}, "lat": 38.91258766666667, "lon": -77.035389, "fusion_lat": 0.0, "name": "1d3074cb891af5d3122ad43dc8f3f02b", "is_disabled": 0, "is_reserved": 0, "bike_id": "1d3074cb891af5d3122ad43dc8f3f02b", "fusion_lon": 0.0, "type": "electric_scooter"}, {"rental_uris": {"ios": "https://dc.lft.to/lastmile_qr_scan", "android": "https://dc.lft.to/lastmile_qr_scan"}, "lat": 38.871674666666664, "lon": -77.00678083333334, "fusion_lat": 0.0, "name": "bea65882d410f3e00a86a2ac2d889fed", "is_disabled": 0, "is_reserved": 0, "bike_id": "bea65882d410f3e00a86a2ac2d889fed", "fusion_lon": 0.0, "type": "electric_scooter"}, {"rental_uris": {"ios": "https://dc.lft.to/lastmile_qr_scan", "android": "https://dc.lft.to/lastmile_qr_scan"}, "lat": 38.9169285, "lon": -77.0408515, "fusion_lat": 0.0, "name": "9553e43134ec3da79a17bb0febe4aab5", "is_disabled": 0, "is_reserved": 0, "bike_id": "9553e43134ec3da79a17bb0febe4aab5", "fusion_lon": 0.0, "type": "electric_scooter"}, {"rental_uris": {"ios": "https://dc.lft.to/lastmile_qr_scan", "android": "https://dc.lft.to/lastmile_qr_scan"}, "lat": 38.866831, "lon": -76.985759, "fusion_lat": 0.0, "name": "64d0413639fd3b8432d5a951c5feb949", "is_disabled": 0, "is_reserved": 0, "bike_id": "64d0413639fd3b8432d5a951c5feb949", "fusion_lon": 0.0, "type": "electric_scooter"}, {"rental_uris": {"ios": "https://dc.lft.to/lastmile_qr_scan", "android": "https://dc.lft.to/lastmile_qr_scan"}, "lat": 38.922655, "lon": -77.03680366666667, "fusion_lat": 0.0, "name": "e7f35867ade9b33aa74364990c62cea2", "is_disabled": 0, "is_reserved": 0, "bike_id": "e7f35867ade9b33aa74364990c62cea2", "fusion_lon": 0.0, "type": "electric_scooter"}, {"rental_uris": {"ios": "https://dc.lft.to/lastmile_qr_scan", "android": "https://dc.lft.to/lastmile_qr_scan"}, "lat": 38.92611566666667, "lon": -77.0216165, "fusion_lat": 0.0, "name": "b0d979af0a199f7d2384a5b53071b0fb", "is_disabled": 0, "is_reserved": 0, "bike_id": "b0d979af0a199f7d2384a5b53071b0fb", "fusion_lon": 0.0, "type": "electric_scooter"}, {"rental_uris": {"ios": "https://dc.lft.to/lastmile_qr_scan", "android": "https://dc.lft.to/lastmile_qr_scan"}, "lat": 38.95426583333333, "lon": -76.98148866666666, "fusion_lat": 0.0, "name": "6735c974a277be6da73088d6260bdd41", "is_disabled": 0, "is_reserved": 0, "bike_id": "6735c974a277be6da73088d6260bdd41", "fusion_lon": 0.0, "type": "electric_bike"}, {"rental_uris": {"ios": "https://dc.lft.to/lastmile_qr_scan", "android": "https://dc.lft.to/lastmile_qr_scan"}, "lat": 38.9096225, "lon": -77.039411, "fusion_lat": 0.0, "name": "5a1e8d882eda0d895e7b35b4d0f5aee0", "is_disabled": 0, "is_reserved": 0, "bike_id": "5a1e8d882eda0d895e7b35b4d0f5aee0", "fusion_lon": 0.0, "type": "electric_scooter"}, {"rental_uris": {"ios": "https://dc.lft.to/lastmile_qr_scan", "android": "https://dc.lft.to/lastmile_qr_scan"}, "lat": 38.9062375, "lon": -77.00578933333334, "fusion_lat": 0.0, "name": "50ef9ad1091fdb3c8c6054cedf646333", "is_disabled": 0, "is_reserved": 0, "bike_id": "50ef9ad1091fdb3c8c6054cedf646333", "fusion_lon": 0.0, "type": "electric_scooter"}, {"rental_uris": {"ios": "https://dc.lft.to/lastmile_qr_scan", "android": "https://dc.lft.to/lastmile_qr_scan"}, "lat": 38.9334255, "lon": -77.06200016666666, "fusion_lat": 0.0, "name": "c53e57063ff4ac5711847dedf36e0dea", "is_disabled": 0, "is_reserved": 0, "bike_id": "c53e57063ff4ac5711847dedf36e0dea", "fusion_lon": 0.0, "type": "electric_scooter"}, {"rental_uris": {"ios": "https://dc.lft.to/lastmile_qr_scan", "android": "https://dc.lft.to/lastmile_qr_scan"}, "lat": 38.927587333333335, "lon": -77.05637383333334, "fusion_lat": 0.0, "name": "983bb139c221c0e00e926a84527bbfde", "is_disabled": 0, "is_reserved": 0, "bike_id": "983bb139c221c0e00e926a84527bbfde", "fusion_lon": 0.0, "type": "electric_scooter"}, {"rental_uris": {"ios": "https://dc.lft.to/lastmile_qr_scan", "android": "https://dc.lft.to/lastmile_qr_scan"}, "lat": 38.89731866666666, "lon": -77.04448916666666, "fusion_lat": 0.0, "name": "1342fa19d05cb3f2445000bcf92be0cd", "is_disabled": 0, "is_reserved": 0, "bike_id": "1342fa19d05cb3f2445000bcf92be0cd", "fusion_lon": 0.0, "type": "electric_scooter"}, {"rental_uris": {"ios": "https://dc.lft.to/lastmile_qr_scan", "android": "https://dc.lft.to/lastmile_qr_scan"}, "lat": 38.91230266666667, "lon": -77.012336, "fusion_lat": 0.0, "name": "6631f3067f953739c93cc494ff9c2258", "is_disabled": 0, "is_reserved": 0, "bike_id": "6631f3067f953739c93cc494ff9c2258", "fusion_lon": 0.0, "type": "electric_scooter"}, {"rental_uris": {"ios": "https://dc.lft.to/lastmile_qr_scan", "android": "https://dc.lft.to/lastmile_qr_scan"}, "lat": 38.900276, "lon": -76.99842116666667, "fusion_lat": 0.0, "name": "b2a88622c7b376ec43a76889a9251280", "is_disabled": 0, "is_reserved": 0, "bike_id": "b2a88622c7b376ec43a76889a9251280", "fusion_lon": 0.0, "type": "electric_scooter"}, {"rental_uris": {"ios": "https://dc.lft.to/lastmile_qr_scan", "android": "https://dc.lft.to/lastmile_qr_scan"}, "lat": 38.90577666666667, "lon": -77.03017166666666, "fusion_lat": 0.0, "name": "b48199bfbf29229c0eaa6435e9059c5a", "is_disabled": 0, "is_reserved": 0, "bike_id": "b48199bfbf29229c0eaa6435e9059c5a", "fusion_lon": 0.0, "type": "electric_scooter"}, {"rental_uris": {"ios": "https://dc.lft.to/lastmile_qr_scan", "android": "https://dc.lft.to/lastmile_qr_scan"}, "lat": 38.92156133333334, "lon": -77.033817, "fusion_lat": 0.0, "name": "d61947c6a533a1d7578f758d2eafbc64", "is_disabled": 0, "is_reserved": 0, "bike_id": "d61947c6a533a1d7578f758d2eafbc64", "fusion_lon": 0.0, "type": "electric_scooter"}, {"rental_uris": {"ios": "https://dc.lft.to/lastmile_qr_scan", "android": "https://dc.lft.to/lastmile_qr_scan"}, "lat": 38.871727166666666, "lon": -77.00622883333334, "fusion_lat": 0.0, "name": "1e5a4ed976585d1cbe363fc3eca13313", "is_disabled": 0, "is_reserved": 0, "bike_id": "1e5a4ed976585d1cbe363fc3eca13313", "fusion_lon": 0.0, "type": "electric_scooter"}, {"rental_uris": {"ios": "https://dc.lft.to/lastmile_qr_scan", "android": "https://dc.lft.to/lastmile_qr_scan"}, "lat": 38.9231475, "lon": -77.04613866666666, "fusion_lat": 0.0, "name": "70f1ef8a5a0d6ab89ea808d853547b53", "is_disabled": 0, "is_reserved": 0, "bike_id": "70f1ef8a5a0d6ab89ea808d853547b53", "fusion_lon": 0.0, "type": "electric_scooter"}, {"rental_uris": {"ios": "https://dc.lft.to/lastmile_qr_scan", "android": "https://dc.lft.to/lastmile_qr_scan"}, "lat": 38.913979166666664, "lon": -77.02404233333333, "fusion_lat": 0.0, "name": "3c7b2511f129fd3a323655233d9a9ecc", "is_disabled": 0, "is_reserved": 0, "bike_id": "3c7b2511f129fd3a323655233d9a9ecc", "fusion_lon": 0.0, "type": "electric_scooter"}, {"rental_uris": {"ios": "https://dc.lft.to/lastmile_qr_scan", "android": "https://dc.lft.to/lastmile_qr_scan"}, "lat": 38.93984433333333, "lon": -77.01886566666667, "fusion_lat": 0.0, "name": "ecedb8267db61a52c76e4d5348a11a12", "is_disabled": 0, "is_reserved": 0, "bike_id": "ecedb8267db61a52c76e4d5348a11a12", "fusion_lon": 0.0, "type": "electric_scooter"}, {"rental_uris": {"ios": "https://dc.lft.to/lastmile_qr_scan", "android": "https://dc.lft.to/lastmile_qr_scan"}, "lat": 38.87665766666667, "lon": -77.0156855, "fusion_lat": 0.0, "name": "f5efa0f7c437924f5e6f800a06dc0556", "is_disabled": 0, "is_reserved": 0, "bike_id": "f5efa0f7c437924f5e6f800a06dc0556", "fusion_lon": 0.0, "type": "electric_scooter"}, {"rental_uris": {"ios": "https://dc.lft.to/lastmile_qr_scan", "android": "https://dc.lft.to/lastmile_qr_scan"}, "lat": 38.917477, "lon": -77.041531, "fusion_lat": 0.0, "name": "470f62001f282f29ed5be2bc22212d28", "is_disabled": 0, "is_reserved": 0, "bike_id": "470f62001f282f29ed5be2bc22212d28", "fusion_lon": 0.0, "type": "electric_scooter"}, {"rental_uris": {"ios": "https://dc.lft.to/lastmile_qr_scan", "android": "https://dc.lft.to/lastmile_qr_scan"}, "lat": 38.9065105, "lon": -77.04281683333333, "fusion_lat": 0.0, "name": "e9b29d37f2a667d73e1c5eaa9fe3b9ac", "is_disabled": 0, "is_reserved": 0, "bike_id": "e9b29d37f2a667d73e1c5eaa9fe3b9ac", "fusion_lon": 0.0, "type": "electric_scooter"}, {"rental_uris": {"ios": "https://dc.lft.to/lastmile_qr_scan", "android": "https://dc.lft.to/lastmile_qr_scan"}, "lat": 38.91139866666666, "lon": -77.02402066666667, "fusion_lat": 0.0, "name": "1a476fa629fe61b2ff83307a70f8141c", "is_disabled": 0, "is_reserved": 0, "bike_id": "1a476fa629fe61b2ff83307a70f8141c", "fusion_lon": 0.0, "type": "electric_scooter"}, {"rental_uris": {"ios": "https://dc.lft.to/lastmile_qr_scan", "android": "https://dc.lft.to/lastmile_qr_scan"}, "lat": 38.891307833333336, "lon": -76.95181866666667, "fusion_lat": 0.0, "name": "0eac986665cd9d54ce4e6bfb299d7e74", "is_disabled": 0, "is_reserved": 0, "bike_id": "0eac986665cd9d54ce4e6bfb299d7e74", "fusion_lon": 0.0, "type": "electric_scooter"}, {"rental_uris": {"ios": "https://dc.lft.to/lastmile_qr_scan", "android": "https://dc.lft.to/lastmile_qr_scan"}, "lat": 38.903528333333334, "lon": -77.00738766666667, "fusion_lat": 0.0, "name": "313b79f6e37675567c1528c54b7fe06d", "is_disabled": 0, "is_reserved": 0, "bike_id": "313b79f6e37675567c1528c54b7fe06d", "fusion_lon": 0.0, "type": "electric_scooter"}, {"rental_uris": {"ios": "https://dc.lft.to/lastmile_qr_scan", "android": "https://dc.lft.to/lastmile_qr_scan"}, "lat": 38.908873666666665, "lon": -76.98235366666667, "fusion_lat": 0.0, "name": "9beb4ee622ebce45f969018f897fa622", "is_disabled": 0, "is_reserved": 0, "bike_id": "9beb4ee622ebce45f969018f897fa622", "fusion_lon": 0.0, "type": "electric_scooter"}, {"rental_uris": {"ios": "https://dc.lft.to/lastmile_qr_scan", "android": "https://dc.lft.to/lastmile_qr_scan"}, "lat": 38.9116935, "lon": -77.03181316666667, "fusion_lat": 0.0, "name": "55b87b708127b06fbba82f3171cdb37c", "is_disabled": 0, "is_reserved": 0, "bike_id": "55b87b708127b06fbba82f3171cdb37c", "fusion_lon": 0.0, "type": "electric_scooter"}, {"rental_uris": {"ios": "https://dc.lft.to/lastmile_qr_scan", "android": "https://dc.lft.to/lastmile_qr_scan"}, "lat": 38.918584, "lon": -77.0417495, "fusion_lat": 0.0, "name": "35df399cc008baf9d1e361814bd43de0", "is_disabled": 0, "is_reserved": 0, "bike_id": "35df399cc008baf9d1e361814bd43de0", "fusion_lon": 0.0, "type": "electric_scooter"}, {"rental_uris": {"ios": "https://dc.lft.to/lastmile_qr_scan", "android": "https://dc.lft.to/lastmile_qr_scan"}, "lat": 38.92762583333333, "lon": -77.02728683333333, "fusion_lat": 0.0, "name": "bea997bbc1adbdff972e65a176c4c80d", "is_disabled": 0, "is_reserved": 0, "bike_id": "bea997bbc1adbdff972e65a176c4c80d", "fusion_lon": 0.0, "type": "electric_scooter"}, {"rental_uris": {"ios": "https://dc.lft.to/lastmile_qr_scan", "android": "https://dc.lft.to/lastmile_qr_scan"}, "lat": 38.99219766666667, "lon": -76.94432783333333, "fusion_lat": 0.0, "name": "f11711a2e053e02443497536cb581f56", "is_disabled": 0, "is_reserved": 0, "bike_id": "f11711a2e053e02443497536cb581f56", "fusion_lon": 0.0, "type": "electric_bike"}, {"rental_uris": {"ios": "https://dc.lft.to/lastmile_qr_scan", "android": "https://dc.lft.to/lastmile_qr_scan"}, "lat": 38.855629666666665, "lon": -77.11315433333333, "fusion_lat": 0.0, "name": "2312f37b33125cce8a2225a68a439314", "is_disabled": 0, "is_reserved": 0, "bike_id": "2312f37b33125cce8a2225a68a439314", "fusion_lon": 0.0, "type": "electric_bike"}, {"rental_uris": {"ios": "https://dc.lft.to/lastmile_qr_scan", "android": "https://dc.lft.to/lastmile_qr_scan"}, "lat": 38.920454166666666, "lon": -77.03249383333333, "fusion_lat": 0.0, "name": "0f1e65b9acdd6035134459f86aa323ee", "is_disabled": 0, "is_reserved": 0, "bike_id": "0f1e65b9acdd6035134459f86aa323ee", "fusion_lon": 0.0, "type": "electric_scooter"}, {"rental_uris": {"ios": "https://dc.lft.to/lastmile_qr_scan", "android": "https://dc.lft.to/lastmile_qr_scan"}, "lat": 38.905636, "lon": -77.01677633333334, "fusion_lat": 0.0, "name": "22bc09a726738a99fdeef16b472e8072", "is_disabled": 0, "is_reserved": 0, "bike_id": "22bc09a726738a99fdeef16b472e8072", "fusion_lon": 0.0, "type": "electric_scooter"}, {"rental_uris": {"ios": "https://dc.lft.to/lastmile_qr_scan", "android": "https://dc.lft.to/lastmile_qr_scan"}, "lat": 38.91404466666667, "lon": -77.0200905, "fusion_lat": 0.0, "name": "2e72aad38fc22883928f4f92af73e960", "is_disabled": 0, "is_reserved": 0, "bike_id": "2e72aad38fc22883928f4f92af73e960", "fusion_lon": 0.0, "type": "electric_scooter"}, {"rental_uris": {"ios": "https://dc.lft.to/lastmile_qr_scan", "android": "https://dc.lft.to/lastmile_qr_scan"}, "lat": 38.93402433333333, "lon": -77.02210766666667, "fusion_lat": 0.0, "name": "42506d33aad9579d73d4898ae5a87273", "is_disabled": 0, "is_reserved": 0, "bike_id": "42506d33aad9579d73d4898ae5a87273", "fusion_lon": 0.0, "type": "electric_scooter"}, {"rental_uris": {"ios": "https://dc.lft.to/lastmile_qr_scan", "android": "https://dc.lft.to/lastmile_qr_scan"}, "lat": 38.854752, "lon": -77.11603566666666, "fusion_lat": 0.0, "name": "e0204ec07d49503f494930d639aeba62", "is_disabled": 0, "is_reserved": 0, "bike_id": "e0204ec07d49503f494930d639aeba62", "fusion_lon": 0.0, "type": "electric_bike"}, {"rental_uris": {"ios": "https://dc.lft.to/lastmile_qr_scan", "android": "https://dc.lft.to/lastmile_qr_scan"}, "lat": 38.90684066666667, "lon": -77.025933, "fusion_lat": 0.0, "name": "70388755fde072e41ef605a006666281", "is_disabled": 0, "is_reserved": 0, "bike_id": "70388755fde072e41ef605a006666281", "fusion_lon": 0.0, "type": "electric_scooter"}, {"rental_uris": {"ios": "https://dc.lft.to/lastmile_qr_scan", "android": "https://dc.lft.to/lastmile_qr_scan"}, "lat": 38.841439333333334, "lon": -77.11463633333334, "fusion_lat": 0.0, "name": "a6aa1ea33d640de2b41ba41110e88a5d", "is_disabled": 0, "is_reserved": 0, "bike_id": "a6aa1ea33d640de2b41ba41110e88a5d", "fusion_lon": 0.0, "type": "electric_bike"}, {"rental_uris": {"ios": "https://dc.lft.to/lastmile_qr_scan", "android": "https://dc.lft.to/lastmile_qr_scan"}, "lat": 38.89195083333333, "lon": -76.99855283333333, "fusion_lat": 0.0, "name": "9e8d0bbc9befedbfda3d97cc87735bc9", "is_disabled": 0, "is_reserved": 0, "bike_id": "9e8d0bbc9befedbfda3d97cc87735bc9", "fusion_lon": 0.0, "type": "electric_scooter"}, {"rental_uris": {"ios": "https://dc.lft.to/lastmile_qr_scan", "android": "https://dc.lft.to/lastmile_qr_scan"}, "lat": 38.871707666666666, "lon": -77.006757, "fusion_lat": 0.0, "name": "b5c2708b4e43b260bd6606aa03634f4c", "is_disabled": 0, "is_reserved": 0, "bike_id": "b5c2708b4e43b260bd6606aa03634f4c", "fusion_lon": 0.0, "type": "electric_scooter"}, {"rental_uris": {"ios": "https://dc.lft.to/lastmile_qr_scan", "android": "https://dc.lft.to/lastmile_qr_scan"}, "lat": 38.874649, "lon": -77.00510566666667, "fusion_lat": 0.0, "name": "f6257be3e52ab5cee977997541da1302", "is_disabled": 0, "is_reserved": 0, "bike_id": "f6257be3e52ab5cee977997541da1302", "fusion_lon": 0.0, "type": "electric_scooter"}, {"rental_uris": {"ios": "https://dc.lft.to/lastmile_qr_scan", "android": "https://dc.lft.to/lastmile_qr_scan"}, "lat": 38.9318165, "lon": -77.08426583333333, "fusion_lat": 0.0, "name": "771a4dace3a58c9b574f96fe651c8154", "is_disabled": 0, "is_reserved": 0, "bike_id": "771a4dace3a58c9b574f96fe651c8154", "fusion_lon": 0.0, "type": "electric_scooter"}, {"rental_uris": {"ios": "https://dc.lft.to/lastmile_qr_scan", "android": "https://dc.lft.to/lastmile_qr_scan"}, "lat": 38.9175595, "lon": -77.039101, "fusion_lat": 0.0, "name": "b163c37d80e86a571629ade109155ff2", "is_disabled": 0, "is_reserved": 0, "bike_id": "b163c37d80e86a571629ade109155ff2", "fusion_lon": 0.0, "type": "electric_scooter"}, {"rental_uris": {"ios": "https://dc.lft.to/lastmile_qr_scan", "android": "https://dc.lft.to/lastmile_qr_scan"}, "lat": 38.901307, "lon": -77.0414215, "fusion_lat": 0.0, "name": "153c7764ba191993f2f390790041617f", "is_disabled": 0, "is_reserved": 0, "bike_id": "153c7764ba191993f2f390790041617f", "fusion_lon": 0.0, "type": "electric_scooter"}, {"rental_uris": {"ios": "https://dc.lft.to/lastmile_qr_scan", "android": "https://dc.lft.to/lastmile_qr_scan"}, "lat": 38.91667733333333, "lon": -77.02962033333333, "fusion_lat": 0.0, "name": "f087d824891105d5fda9250178af30a9", "is_disabled": 0, "is_reserved": 0, "bike_id": "f087d824891105d5fda9250178af30a9", "fusion_lon": 0.0, "type": "electric_scooter"}, {"rental_uris": {"ios": "https://dc.lft.to/lastmile_qr_scan", "android": "https://dc.lft.to/lastmile_qr_scan"}, "lat": 38.874699166666666, "lon": -77.01882883333333, "fusion_lat": 0.0, "name": "5dbb1325fbcdb8a2518e15f623c3628b", "is_disabled": 0, "is_reserved": 0, "bike_id": "5dbb1325fbcdb8a2518e15f623c3628b", "fusion_lon": 0.0, "type": "electric_scooter"}, {"rental_uris": {"ios": "https://dc.lft.to/lastmile_qr_scan", "android": "https://dc.lft.to/lastmile_qr_scan"}, "lat": 38.911140833333334, "lon": -77.04333966666667, "fusion_lat": 0.0, "name": "3cb181904d4a6d75b8378c33744613bd", "is_disabled": 0, "is_reserved": 0, "bike_id": "3cb181904d4a6d75b8378c33744613bd", "fusion_lon": 0.0, "type": "electric_scooter"}, {"rental_uris": {"ios": "https://dc.lft.to/lastmile_qr_scan", "android": "https://dc.lft.to/lastmile_qr_scan"}, "lat": 38.898795666666665, "lon": -76.9768245, "fusion_lat": 0.0, "name": "3cb63c0ebb50ec8c4fcce5ab67d16370", "is_disabled": 0, "is_reserved": 0, "bike_id": "3cb63c0ebb50ec8c4fcce5ab67d16370", "fusion_lon": 0.0, "type": "electric_scooter"}, {"rental_uris": {"ios": "https://dc.lft.to/lastmile_qr_scan", "android": "https://dc.lft.to/lastmile_qr_scan"}, "lat": 38.90267333333333, "lon": -77.0468675, "fusion_lat": 0.0, "name": "9292c0885e57b66f9e7164bf10e2d30f", "is_disabled": 0, "is_reserved": 0, "bike_id": "9292c0885e57b66f9e7164bf10e2d30f", "fusion_lon": 0.0, "type": "electric_scooter"}, {"rental_uris": {"ios": "https://dc.lft.to/lastmile_qr_scan", "android": "https://dc.lft.to/lastmile_qr_scan"}, "lat": 38.94915833333334, "lon": -77.00799, "fusion_lat": 0.0, "name": "3cbca894510d5809db79c5a868e5a28f", "is_disabled": 0, "is_reserved": 0, "bike_id": "3cbca894510d5809db79c5a868e5a28f", "fusion_lon": 0.0, "type": "electric_bike"}, {"rental_uris": {"ios": "https://dc.lft.to/lastmile_qr_scan", "android": "https://dc.lft.to/lastmile_qr_scan"}, "lat": 38.93068483333333, "lon": -77.03876266666667, "fusion_lat": 0.0, "name": "475e6035f79a239cb7eb20616048ced8", "is_disabled": 0, "is_reserved": 0, "bike_id": "475e6035f79a239cb7eb20616048ced8", "fusion_lon": 0.0, "type": "electric_scooter"}, {"rental_uris": {"ios": "https://dc.lft.to/lastmile_qr_scan", "android": "https://dc.lft.to/lastmile_qr_scan"}, "lat": 38.913217, "lon": -77.045379, "fusion_lat": 0.0, "name": "a4d7fb54a25bc2067a171b2eb9f1b26f", "is_disabled": 0, "is_reserved": 0, "bike_id": "a4d7fb54a25bc2067a171b2eb9f1b26f", "fusion_lon": 0.0, "type": "electric_scooter"}, {"rental_uris": {"ios": "https://dc.lft.to/lastmile_qr_scan", "android": "https://dc.lft.to/lastmile_qr_scan"}, "lat": 38.915468, "lon": -77.0239455, "fusion_lat": 0.0, "name": "03e3751f3c20e8184769d6d5f6f0597b", "is_disabled": 0, "is_reserved": 0, "bike_id": "03e3751f3c20e8184769d6d5f6f0597b", "fusion_lon": 0.0, "type": "electric_scooter"}, {"rental_uris": {"ios": "https://dc.lft.to/lastmile_qr_scan", "android": "https://dc.lft.to/lastmile_qr_scan"}, "lat": 38.8959655, "lon": -76.98859433333334, "fusion_lat": 0.0, "name": "e9bfb0705fcac31185ba714fc705eab2", "is_disabled": 0, "is_reserved": 0, "bike_id": "e9bfb0705fcac31185ba714fc705eab2", "fusion_lon": 0.0, "type": "electric_scooter"}, {"rental_uris": {"ios": "https://dc.lft.to/lastmile_qr_scan", "android": "https://dc.lft.to/lastmile_qr_scan"}, "lat": 38.904074333333334, "lon": -76.97327716666666, "fusion_lat": 0.0, "name": "e1c4472961855fac0fb2f45602688cc6", "is_disabled": 0, "is_reserved": 0, "bike_id": "e1c4472961855fac0fb2f45602688cc6", "fusion_lon": 0.0, "type": "electric_scooter"}, {"rental_uris": {"ios": "https://dc.lft.to/lastmile_qr_scan", "android": "https://dc.lft.to/lastmile_qr_scan"}, "lat": 38.886681333333335, "lon": -77.0197615, "fusion_lat": 0.0, "name": "6df457b0eaf4b6750be754c78ad9f18f", "is_disabled": 0, "is_reserved": 0, "bike_id": "6df457b0eaf4b6750be754c78ad9f18f", "fusion_lon": 0.0, "type": "electric_scooter"}, {"rental_uris": {"ios": "https://dc.lft.to/lastmile_qr_scan", "android": "https://dc.lft.to/lastmile_qr_scan"}, "lat": 38.918639166666665, "lon": -77.04028683333334, "fusion_lat": 0.0, "name": "e3e32c79e3662b0e15e714bb73c76271", "is_disabled": 0, "is_reserved": 0, "bike_id": "e3e32c79e3662b0e15e714bb73c76271", "fusion_lon": 0.0, "type": "electric_scooter"}, {"rental_uris": {"ios": "https://dc.lft.to/lastmile_qr_scan", "android": "https://dc.lft.to/lastmile_qr_scan"}, "lat": 38.9173585, "lon": -77.03175866666666, "fusion_lat": 0.0, "name": "beaf003e4139c6ccacede33b529c10af", "is_disabled": 0, "is_reserved": 0, "bike_id": "beaf003e4139c6ccacede33b529c10af", "fusion_lon": 0.0, "type": "electric_scooter"}, {"rental_uris": {"ios": "https://dc.lft.to/lastmile_qr_scan", "android": "https://dc.lft.to/lastmile_qr_scan"}, "lat": 38.85885316666667, "lon": -77.11857766666667, "fusion_lat": 0.0, "name": "899cd1870d1029efc3d4aac3a5ad17f3", "is_disabled": 0, "is_reserved": 0, "bike_id": "899cd1870d1029efc3d4aac3a5ad17f3", "fusion_lon": 0.0, "type": "electric_bike"}, {"rental_uris": {"ios": "https://dc.lft.to/lastmile_qr_scan", "android": "https://dc.lft.to/lastmile_qr_scan"}, "lat": 38.89983983333333, "lon": -77.0403825, "fusion_lat": 0.0, "name": "e1caf2669d9678e21d8863c51d2beb16", "is_disabled": 0, "is_reserved": 0, "bike_id": "e1caf2669d9678e21d8863c51d2beb16", "fusion_lon": 0.0, "type": "electric_scooter"}, {"rental_uris": {"ios": "https://dc.lft.to/lastmile_qr_scan", "android": "https://dc.lft.to/lastmile_qr_scan"}, "lat": 38.87463483333333, "lon": -77.0048675, "fusion_lat": 0.0, "name": "eb03582a1948aa20e85536c249f632da", "is_disabled": 0, "is_reserved": 0, "bike_id": "eb03582a1948aa20e85536c249f632da", "fusion_lon": 0.0, "type": "electric_scooter"}, {"rental_uris": {"ios": "https://dc.lft.to/lastmile_qr_scan", "android": "https://dc.lft.to/lastmile_qr_scan"}, "lat": 38.911764833333336, "lon": -77.0282625, "fusion_lat": 0.0, "name": "9ae391e305ef19afa4acc2b6e162cb1f", "is_disabled": 0, "is_reserved": 0, "bike_id": "9ae391e305ef19afa4acc2b6e162cb1f", "fusion_lon": 0.0, "type": "electric_scooter"}, {"rental_uris": {"ios": "https://dc.lft.to/lastmile_qr_scan", "android": "https://dc.lft.to/lastmile_qr_scan"}, "lat": 38.896687166666666, "lon": -77.03217983333333, "fusion_lat": 0.0, "name": "9a1be6df36f1c00ea28738ba52acdbbc", "is_disabled": 0, "is_reserved": 0, "bike_id": "9a1be6df36f1c00ea28738ba52acdbbc", "fusion_lon": 0.0, "type": "electric_scooter"}, {"rental_uris": {"ios": "https://dc.lft.to/lastmile_qr_scan", "android": "https://dc.lft.to/lastmile_qr_scan"}, "lat": 38.89684333333334, "lon": -77.03230916666666, "fusion_lat": 0.0, "name": "587520c66b67bf4ff394f6ae8d280b6e", "is_disabled": 0, "is_reserved": 0, "bike_id": "587520c66b67bf4ff394f6ae8d280b6e", "fusion_lon": 0.0, "type": "electric_scooter"}, {"rental_uris": {"ios": "https://dc.lft.to/lastmile_qr_scan", "android": "https://dc.lft.to/lastmile_qr_scan"}, "lat": 38.91900966666667, "lon": -77.03183683333333, "fusion_lat": 0.0, "name": "b2f0926b81d59a386a1351ff434963e0", "is_disabled": 0, "is_reserved": 0, "bike_id": "b2f0926b81d59a386a1351ff434963e0", "fusion_lon": 0.0, "type": "electric_scooter"}, {"rental_uris": {"ios": "https://dc.lft.to/lastmile_qr_scan", "android": "https://dc.lft.to/lastmile_qr_scan"}, "lat": 38.873690333333336, "lon": -77.00067766666666, "fusion_lat": 0.0, "name": "ecbb618a4d6bfc45a967532b41359dc6", "is_disabled": 0, "is_reserved": 0, "bike_id": "ecbb618a4d6bfc45a967532b41359dc6", "fusion_lon": 0.0, "type": "electric_scooter"}, {"rental_uris": {"ios": "https://dc.lft.to/lastmile_qr_scan", "android": "https://dc.lft.to/lastmile_qr_scan"}, "lat": 38.90378833333333, "lon": -77.01639783333333, "fusion_lat": 0.0, "name": "4dfd3d90af63b1a319b615d984aa7619", "is_disabled": 0, "is_reserved": 0, "bike_id": "4dfd3d90af63b1a319b615d984aa7619", "fusion_lon": 0.0, "type": "electric_scooter"}, {"rental_uris": {"ios": "https://dc.lft.to/lastmile_qr_scan", "android": "https://dc.lft.to/lastmile_qr_scan"}, "lat": 38.913984166666665, "lon": -77.0316015, "fusion_lat": 0.0, "name": "a4a9d4b78ec153da3e777283f34c40be", "is_disabled": 0, "is_reserved": 0, "bike_id": "a4a9d4b78ec153da3e777283f34c40be", "fusion_lon": 0.0, "type": "electric_scooter"}, {"rental_uris": {"ios": "https://dc.lft.to/lastmile_qr_scan", "android": "https://dc.lft.to/lastmile_qr_scan"}, "lat": 38.9213715, "lon": -77.043484, "fusion_lat": 0.0, "name": "b129bb666dd428e5e16989dc02f75721", "is_disabled": 0, "is_reserved": 0, "bike_id": "b129bb666dd428e5e16989dc02f75721", "fusion_lon": 0.0, "type": "electric_scooter"}, {"rental_uris": {"ios": "https://dc.lft.to/lastmile_qr_scan", "android": "https://dc.lft.to/lastmile_qr_scan"}, "lat": 38.9176895, "lon": -77.04161083333334, "fusion_lat": 0.0, "name": "b0b2417b3da7e6c5259c3c24185e508b", "is_disabled": 0, "is_reserved": 0, "bike_id": "b0b2417b3da7e6c5259c3c24185e508b", "fusion_lon": 0.0, "type": "electric_scooter"}, {"rental_uris": {"ios": "https://dc.lft.to/lastmile_qr_scan", "android": "https://dc.lft.to/lastmile_qr_scan"}, "lat": 38.934784, "lon": -77.02138666666667, "fusion_lat": 0.0, "name": "226500dc7024eba0a7e2a2999ca83642", "is_disabled": 0, "is_reserved": 0, "bike_id": "226500dc7024eba0a7e2a2999ca83642", "fusion_lon": 0.0, "type": "electric_bike"}, {"rental_uris": {"ios": "https://dc.lft.to/lastmile_qr_scan", "android": "https://dc.lft.to/lastmile_qr_scan"}, "lat": 38.912530833333335, "lon": -77.047354, "fusion_lat": 0.0, "name": "9064f4aa78058239e42ebe019f2e58cd", "is_disabled": 0, "is_reserved": 0, "bike_id": "9064f4aa78058239e42ebe019f2e58cd", "fusion_lon": 0.0, "type": "electric_scooter"}, {"rental_uris": {"ios": "https://dc.lft.to/lastmile_qr_scan", "android": "https://dc.lft.to/lastmile_qr_scan"}, "lat": 39.04077133333333, "lon": -77.0533785, "fusion_lat": 0.0, "name": "138a3bc04f34911c17d9ca4d62deec33", "is_disabled": 0, "is_reserved": 0, "bike_id": "138a3bc04f34911c17d9ca4d62deec33", "fusion_lon": 0.0, "type": "electric_bike"}, {"rental_uris": {"ios": "https://dc.lft.to/lastmile_qr_scan", "android": "https://dc.lft.to/lastmile_qr_scan"}, "lat": 38.92884633333333, "lon": -77.032901, "fusion_lat": 0.0, "name": "d074a9d372dee62f370423f762b4df67", "is_disabled": 0, "is_reserved": 0, "bike_id": "d074a9d372dee62f370423f762b4df67", "fusion_lon": 0.0, "type": "electric_scooter"}, {"rental_uris": {"ios": "https://dc.lft.to/lastmile_qr_scan", "android": "https://dc.lft.to/lastmile_qr_scan"}, "lat": 38.88444, "lon": -76.95092966666667, "fusion_lat": 0.0, "name": "0395f4be4ca41b694f5a08bcd05b520e", "is_disabled": 0, "is_reserved": 0, "bike_id": "0395f4be4ca41b694f5a08bcd05b520e", "fusion_lon": 0.0, "type": "electric_scooter"}, {"rental_uris": {"ios": "https://dc.lft.to/lastmile_qr_scan", "android": "https://dc.lft.to/lastmile_qr_scan"}, "lat": 38.93338116666666, "lon": -77.06201833333333, "fusion_lat": 0.0, "name": "5d8fd5a678c487273bea3b2d7a4e475e", "is_disabled": 0, "is_reserved": 0, "bike_id": "5d8fd5a678c487273bea3b2d7a4e475e", "fusion_lon": 0.0, "type": "electric_scooter"}, {"rental_uris": {"ios": "https://dc.lft.to/lastmile_qr_scan", "android": "https://dc.lft.to/lastmile_qr_scan"}, "lat": 38.85837383333333, "lon": -76.9872735, "fusion_lat": 0.0, "name": "3dffefe4ce523e77773156a7f9658ea4", "is_disabled": 0, "is_reserved": 0, "bike_id": "3dffefe4ce523e77773156a7f9658ea4", "fusion_lon": 0.0, "type": "electric_scooter"}, {"rental_uris": {"ios": "https://dc.lft.to/lastmile_qr_scan", "android": "https://dc.lft.to/lastmile_qr_scan"}, "lat": 38.92154566666667, "lon": -77.0386815, "fusion_lat": 0.0, "name": "d198d7cb835e8a751a86b6fad0f66f0b", "is_disabled": 0, "is_reserved": 0, "bike_id": "d198d7cb835e8a751a86b6fad0f66f0b", "fusion_lon": 0.0, "type": "electric_scooter"}, {"rental_uris": {"ios": "https://dc.lft.to/lastmile_qr_scan", "android": "https://dc.lft.to/lastmile_qr_scan"}, "lat": 38.934179, "lon": -77.03287966666667, "fusion_lat": 0.0, "name": "a8070f2bded371dfa3bf782b12a20508", "is_disabled": 0, "is_reserved": 0, "bike_id": "a8070f2bded371dfa3bf782b12a20508", "fusion_lon": 0.0, "type": "electric_scooter"}, {"rental_uris": {"ios": "https://dc.lft.to/lastmile_qr_scan", "android": "https://dc.lft.to/lastmile_qr_scan"}, "lat": 38.909790666666666, "lon": -77.03384216666667, "fusion_lat": 0.0, "name": "57ed1a5a6f328be4ffbb2e19c59add8e", "is_disabled": 0, "is_reserved": 0, "bike_id": "57ed1a5a6f328be4ffbb2e19c59add8e", "fusion_lon": 0.0, "type": "electric_scooter"}, {"rental_uris": {"ios": "https://dc.lft.to/lastmile_qr_scan", "android": "https://dc.lft.to/lastmile_qr_scan"}, "lat": 38.918431166666664, "lon": -77.03189533333334, "fusion_lat": 0.0, "name": "8f4b022ff2df509b994ed36d5018a86d", "is_disabled": 0, "is_reserved": 0, "bike_id": "8f4b022ff2df509b994ed36d5018a86d", "fusion_lon": 0.0, "type": "electric_scooter"}, {"rental_uris": {"ios": "https://dc.lft.to/lastmile_qr_scan", "android": "https://dc.lft.to/lastmile_qr_scan"}, "lat": 38.9169545, "lon": -77.023023, "fusion_lat": 0.0, "name": "9482ee8f7570a3450fa6ae200bc90980", "is_disabled": 0, "is_reserved": 0, "bike_id": "9482ee8f7570a3450fa6ae200bc90980", "fusion_lon": 0.0, "type": "electric_scooter"}, {"rental_uris": {"ios": "https://dc.lft.to/lastmile_qr_scan", "android": "https://dc.lft.to/lastmile_qr_scan"}, "lat": 38.857668, "lon": -76.99293833333333, "fusion_lat": 0.0, "name": "b7731cb5c663b7c474efe789fe8c5fb3", "is_disabled": 0, "is_reserved": 0, "bike_id": "b7731cb5c663b7c474efe789fe8c5fb3", "fusion_lon": 0.0, "type": "electric_scooter"}, {"rental_uris": {"ios": "https://dc.lft.to/lastmile_qr_scan", "android": "https://dc.lft.to/lastmile_qr_scan"}, "lat": 38.905106833333335, "lon": -77.04775533333333, "fusion_lat": 0.0, "name": "00d9626affabc800e471d3f6f8e35f00", "is_disabled": 0, "is_reserved": 0, "bike_id": "00d9626affabc800e471d3f6f8e35f00", "fusion_lon": 0.0, "type": "electric_scooter"}, {"rental_uris": {"ios": "https://dc.lft.to/lastmile_qr_scan", "android": "https://dc.lft.to/lastmile_qr_scan"}, "lat": 38.933527, "lon": -77.073556, "fusion_lat": 0.0, "name": "4303117337f84de3c1068069a2256e8c", "is_disabled": 0, "is_reserved": 0, "bike_id": "4303117337f84de3c1068069a2256e8c", "fusion_lon": 0.0, "type": "electric_scooter"}, {"rental_uris": {"ios": "https://dc.lft.to/lastmile_qr_scan", "android": "https://dc.lft.to/lastmile_qr_scan"}, "lat": 38.866947, "lon": -76.98712483333334, "fusion_lat": 0.0, "name": "3bf69e12aa5f6994a8b1711086fc8eb3", "is_disabled": 0, "is_reserved": 0, "bike_id": "3bf69e12aa5f6994a8b1711086fc8eb3", "fusion_lon": 0.0, "type": "electric_scooter"}, {"rental_uris": {"ios": "https://dc.lft.to/lastmile_qr_scan", "android": "https://dc.lft.to/lastmile_qr_scan"}, "lat": 38.89621483333333, "lon": -76.99850716666667, "fusion_lat": 0.0, "name": "72733fca7a4b25e637a765e3eeb0c7b3", "is_disabled": 0, "is_reserved": 0, "bike_id": "72733fca7a4b25e637a765e3eeb0c7b3", "fusion_lon": 0.0, "type": "electric_scooter"}, {"rental_uris": {"ios": "https://dc.lft.to/lastmile_qr_scan", "android": "https://dc.lft.to/lastmile_qr_scan"}, "lat": 38.909328, "lon": -77.044221, "fusion_lat": 0.0, "name": "018b68b41e5227becbcacd116dfb8f4f", "is_disabled": 0, "is_reserved": 0, "bike_id": "018b68b41e5227becbcacd116dfb8f4f", "fusion_lon": 0.0, "type": "electric_scooter"}, {"rental_uris": {"ios": "https://dc.lft.to/lastmile_qr_scan", "android": "https://dc.lft.to/lastmile_qr_scan"}, "lat": 38.90564066666666, "lon": -77.04300016666667, "fusion_lat": 0.0, "name": "a9066aed1234bd3d969c3b20a7bf72ef", "is_disabled": 0, "is_reserved": 0, "bike_id": "a9066aed1234bd3d969c3b20a7bf72ef", "fusion_lon": 0.0, "type": "electric_scooter"}, {"rental_uris": {"ios": "https://dc.lft.to/lastmile_qr_scan", "android": "https://dc.lft.to/lastmile_qr_scan"}, "lat": 38.9426735, "lon": -77.025025, "fusion_lat": 0.0, "name": "aff5a9ffd04e1683f663ea35ebc54547", "is_disabled": 0, "is_reserved": 0, "bike_id": "aff5a9ffd04e1683f663ea35ebc54547", "fusion_lon": 0.0, "type": "electric_scooter"}, {"rental_uris": {"ios": "https://dc.lft.to/lastmile_qr_scan", "android": "https://dc.lft.to/lastmile_qr_scan"}, "lat": 38.9167805, "lon": -77.0240335, "fusion_lat": 0.0, "name": "75bfe6964597c2759536531a10f6ad22", "is_disabled": 0, "is_reserved": 0, "bike_id": "75bfe6964597c2759536531a10f6ad22", "fusion_lon": 0.0, "type": "electric_scooter"}, {"rental_uris": {"ios": "https://dc.lft.to/lastmile_qr_scan", "android": "https://dc.lft.to/lastmile_qr_scan"}, "lat": 38.924390333333335, "lon": -77.0194375, "fusion_lat": 0.0, "name": "e30d50d683ef6fef075581d04f29ee4f", "is_disabled": 0, "is_reserved": 0, "bike_id": "e30d50d683ef6fef075581d04f29ee4f", "fusion_lon": 0.0, "type": "electric_scooter"}, {"rental_uris": {"ios": "https://dc.lft.to/lastmile_qr_scan", "android": "https://dc.lft.to/lastmile_qr_scan"}, "lat": 38.894951166666665, "lon": -77.022968, "fusion_lat": 0.0, "name": "9fb09d18e2b6f01e320668c97f4f48b1", "is_disabled": 0, "is_reserved": 0, "bike_id": "9fb09d18e2b6f01e320668c97f4f48b1", "fusion_lon": 0.0, "type": "electric_scooter"}, {"rental_uris": {"ios": "https://dc.lft.to/lastmile_qr_scan", "android": "https://dc.lft.to/lastmile_qr_scan"}, "lat": 38.80906616666667, "lon": -77.086474, "fusion_lat": 0.0, "name": "542108077b30ee4fb60c8d5f61e4310f", "is_disabled": 0, "is_reserved": 0, "bike_id": "542108077b30ee4fb60c8d5f61e4310f", "fusion_lon": 0.0, "type": "electric_bike"}, {"rental_uris": {"ios": "https://dc.lft.to/lastmile_qr_scan", "android": "https://dc.lft.to/lastmile_qr_scan"}, "lat": 38.901964, "lon": -77.06119933333333, "fusion_lat": 0.0, "name": "9b152e61d422d7aabde359b0f71396ba", "is_disabled": 0, "is_reserved": 0, "bike_id": "9b152e61d422d7aabde359b0f71396ba", "fusion_lon": 0.0, "type": "electric_scooter"}, {"rental_uris": {"ios": "https://dc.lft.to/lastmile_qr_scan", "android": "https://dc.lft.to/lastmile_qr_scan"}, "lat": 38.89247866666667, "lon": -77.048738, "fusion_lat": 0.0, "name": "f3c9b166243298f3b1331c9f81a019bf", "is_disabled": 0, "is_reserved": 0, "bike_id": "f3c9b166243298f3b1331c9f81a019bf", "fusion_lon": 0.0, "type": "electric_scooter"}, {"rental_uris": {"ios": "https://dc.lft.to/lastmile_qr_scan", "android": "https://dc.lft.to/lastmile_qr_scan"}, "lat": 38.933516833333336, "lon": -77.0857535, "fusion_lat": 0.0, "name": "10358e6194de132025d9276bd795c45c", "is_disabled": 0, "is_reserved": 0, "bike_id": "10358e6194de132025d9276bd795c45c", "fusion_lon": 0.0, "type": "electric_scooter"}, {"rental_uris": {"ios": "https://dc.lft.to/lastmile_qr_scan", "android": "https://dc.lft.to/lastmile_qr_scan"}, "lat": 38.8749975, "lon": -77.012286, "fusion_lat": 0.0, "name": "353511b65a1d72f2f0158d11bb9f6e27", "is_disabled": 0, "is_reserved": 0, "bike_id": "353511b65a1d72f2f0158d11bb9f6e27", "fusion_lon": 0.0, "type": "electric_scooter"}, {"rental_uris": {"ios": "https://dc.lft.to/lastmile_qr_scan", "android": "https://dc.lft.to/lastmile_qr_scan"}, "lat": 38.907481, "lon": -77.0321835, "fusion_lat": 0.0, "name": "85b1a45d7ff1c0f09dfa98847d2611a4", "is_disabled": 0, "is_reserved": 0, "bike_id": "85b1a45d7ff1c0f09dfa98847d2611a4", "fusion_lon": 0.0, "type": "electric_scooter"}, {"rental_uris": {"ios": "https://dc.lft.to/lastmile_qr_scan", "android": "https://dc.lft.to/lastmile_qr_scan"}, "lat": 38.8924035, "lon": -76.9532975, "fusion_lat": 0.0, "name": "3570f88ba5db0c30cc80e42f5c06c248", "is_disabled": 0, "is_reserved": 0, "bike_id": "3570f88ba5db0c30cc80e42f5c06c248", "fusion_lon": 0.0, "type": "electric_scooter"}, {"rental_uris": {"ios": "https://dc.lft.to/lastmile_qr_scan", "android": "https://dc.lft.to/lastmile_qr_scan"}, "lat": 38.900923666666664, "lon": -76.98335216666666, "fusion_lat": 0.0, "name": "380b437a297e2885a3fcc139eb308580", "is_disabled": 0, "is_reserved": 0, "bike_id": "380b437a297e2885a3fcc139eb308580", "fusion_lon": 0.0, "type": "electric_scooter"}, {"rental_uris": {"ios": "https://dc.lft.to/lastmile_qr_scan", "android": "https://dc.lft.to/lastmile_qr_scan"}, "lat": 38.90356533333333, "lon": -77.04861066666666, "fusion_lat": 0.0, "name": "d50f0e7f92fde57a306b199878d25063", "is_disabled": 0, "is_reserved": 0, "bike_id": "d50f0e7f92fde57a306b199878d25063", "fusion_lon": 0.0, "type": "electric_scooter"}, {"rental_uris": {"ios": "https://dc.lft.to/lastmile_qr_scan", "android": "https://dc.lft.to/lastmile_qr_scan"}, "lat": 38.86505066666667, "lon": -76.9900715, "fusion_lat": 0.0, "name": "1dc90f9e69c34268bd34de90dafcf47f", "is_disabled": 0, "is_reserved": 0, "bike_id": "1dc90f9e69c34268bd34de90dafcf47f", "fusion_lon": 0.0, "type": "electric_scooter"}, {"rental_uris": {"ios": "https://dc.lft.to/lastmile_qr_scan", "android": "https://dc.lft.to/lastmile_qr_scan"}, "lat": 38.87854133333333, "lon": -77.01755016666667, "fusion_lat": 0.0, "name": "1eb671defe4d6a02025fbc28fef858d0", "is_disabled": 0, "is_reserved": 0, "bike_id": "1eb671defe4d6a02025fbc28fef858d0", "fusion_lon": 0.0, "type": "electric_scooter"}, {"rental_uris": {"ios": "https://dc.lft.to/lastmile_qr_scan", "android": "https://dc.lft.to/lastmile_qr_scan"}, "lat": 38.90147983333333, "lon": -77.05917683333334, "fusion_lat": 0.0, "name": "b5187fe944ec5914bc815bdc72edef05", "is_disabled": 0, "is_reserved": 0, "bike_id": "b5187fe944ec5914bc815bdc72edef05", "fusion_lon": 0.0, "type": "electric_scooter"}, {"rental_uris": {"ios": "https://dc.lft.to/lastmile_qr_scan", "android": "https://dc.lft.to/lastmile_qr_scan"}, "lat": 38.92331183333334, "lon": -77.01905416666666, "fusion_lat": 0.0, "name": "8ffdd39b541bf724ec1d8f9981157612", "is_disabled": 0, "is_reserved": 0, "bike_id": "8ffdd39b541bf724ec1d8f9981157612", "fusion_lon": 0.0, "type": "electric_scooter"}, {"rental_uris": {"ios": "https://dc.lft.to/lastmile_qr_scan", "android": "https://dc.lft.to/lastmile_qr_scan"}, "lat": 38.917675333333335, "lon": -77.02952516666667, "fusion_lat": 0.0, "name": "473d6956172db4ea4bffc7d93214a9f3", "is_disabled": 0, "is_reserved": 0, "bike_id": "473d6956172db4ea4bffc7d93214a9f3", "fusion_lon": 0.0, "type": "electric_scooter"}, {"rental_uris": {"ios": "https://dc.lft.to/lastmile_qr_scan", "android": "https://dc.lft.to/lastmile_qr_scan"}, "lat": 38.9024755, "lon": -77.03960983333333, "fusion_lat": 0.0, "name": "c05155dcf555f8ffc31a666bf0007e46", "is_disabled": 0, "is_reserved": 0, "bike_id": "c05155dcf555f8ffc31a666bf0007e46", "fusion_lon": 0.0, "type": "electric_scooter"}, {"rental_uris": {"ios": "https://dc.lft.to/lastmile_qr_scan", "android": "https://dc.lft.to/lastmile_qr_scan"}, "lat": 38.92640866666667, "lon": -77.04137816666666, "fusion_lat": 0.0, "name": "1c834b94fbd887f31af304f5afafa07f", "is_disabled": 0, "is_reserved": 0, "bike_id": "1c834b94fbd887f31af304f5afafa07f", "fusion_lon": 0.0, "type": "electric_scooter"}, {"rental_uris": {"ios": "https://dc.lft.to/lastmile_qr_scan", "android": "https://dc.lft.to/lastmile_qr_scan"}, "lat": 38.92225716666667, "lon": -77.04374083333333, "fusion_lat": 0.0, "name": "20426019cdcfb7dd027d410ea40dd0c1", "is_disabled": 0, "is_reserved": 0, "bike_id": "20426019cdcfb7dd027d410ea40dd0c1", "fusion_lon": 0.0, "type": "electric_scooter"}, {"rental_uris": {"ios": "https://dc.lft.to/lastmile_qr_scan", "android": "https://dc.lft.to/lastmile_qr_scan"}, "lat": 38.884572666666664, "lon": -77.00051583333334, "fusion_lat": 0.0, "name": "a0170a7297c9eab31e96dde514ca78d1", "is_disabled": 0, "is_reserved": 0, "bike_id": "a0170a7297c9eab31e96dde514ca78d1", "fusion_lon": 0.0, "type": "electric_scooter"}, {"rental_uris": {"ios": "https://dc.lft.to/lastmile_qr_scan", "android": "https://dc.lft.to/lastmile_qr_scan"}, "lat": 38.899895666666666, "lon": -77.0269685, "fusion_lat": 0.0, "name": "b9bfb59f7dc4d91c99847511cc66638d", "is_disabled": 0, "is_reserved": 0, "bike_id": "b9bfb59f7dc4d91c99847511cc66638d", "fusion_lon": 0.0, "type": "electric_scooter"}, {"rental_uris": {"ios": "https://dc.lft.to/lastmile_qr_scan", "android": "https://dc.lft.to/lastmile_qr_scan"}, "lat": 38.902680833333335, "lon": -77.0465615, "fusion_lat": 0.0, "name": "87679d6567486fac0251c8af70c435d1", "is_disabled": 0, "is_reserved": 0, "bike_id": "87679d6567486fac0251c8af70c435d1", "fusion_lon": 0.0, "type": "electric_scooter"}, {"rental_uris": {"ios": "https://dc.lft.to/lastmile_qr_scan", "android": "https://dc.lft.to/lastmile_qr_scan"}, "lat": 38.898643166666666, "lon": -77.01242233333333, "fusion_lat": 0.0, "name": "6130af5521031d8f8ff1f9628cbba1f3", "is_disabled": 0, "is_reserved": 0, "bike_id": "6130af5521031d8f8ff1f9628cbba1f3", "fusion_lon": 0.0, "type": "electric_scooter"}, {"rental_uris": {"ios": "https://dc.lft.to/lastmile_qr_scan", "android": "https://dc.lft.to/lastmile_qr_scan"}, "lat": 38.896975166666664, "lon": -77.02802666666666, "fusion_lat": 0.0, "name": "07aaba84ec641f56878b124a1306f2a7", "is_disabled": 0, "is_reserved": 0, "bike_id": "07aaba84ec641f56878b124a1306f2a7", "fusion_lon": 0.0, "type": "electric_scooter"}, {"rental_uris": {"ios": "https://dc.lft.to/lastmile_qr_scan", "android": "https://dc.lft.to/lastmile_qr_scan"}, "lat": 38.89652616666667, "lon": -77.05021133333334, "fusion_lat": 0.0, "name": "e776304becb2c9e56a79b2e1fd48552e", "is_disabled": 0, "is_reserved": 0, "bike_id": "e776304becb2c9e56a79b2e1fd48552e", "fusion_lon": 0.0, "type": "electric_scooter"}, {"rental_uris": {"ios": "https://dc.lft.to/lastmile_qr_scan", "android": "https://dc.lft.to/lastmile_qr_scan"}, "lat": 38.915173833333334, "lon": -77.048539, "fusion_lat": 0.0, "name": "1d0f0ca3a21feeb049bf22101767d175", "is_disabled": 0, "is_reserved": 0, "bike_id": "1d0f0ca3a21feeb049bf22101767d175", "fusion_lon": 0.0, "type": "electric_scooter"}, {"rental_uris": {"ios": "https://dc.lft.to/lastmile_qr_scan", "android": "https://dc.lft.to/lastmile_qr_scan"}, "lat": 38.912256666666664, "lon": -77.0278985, "fusion_lat": 0.0, "name": "fd144dddaed9b68c9fa9bde751af7652", "is_disabled": 0, "is_reserved": 0, "bike_id": "fd144dddaed9b68c9fa9bde751af7652", "fusion_lon": 0.0, "type": "electric_scooter"}, {"rental_uris": {"ios": "https://dc.lft.to/lastmile_qr_scan", "android": "https://dc.lft.to/lastmile_qr_scan"}, "lat": 38.91959283333333, "lon": -77.02380633333334, "fusion_lat": 0.0, "name": "6dd7126d649fd445bd18e690f9dedd6b", "is_disabled": 0, "is_reserved": 0, "bike_id": "6dd7126d649fd445bd18e690f9dedd6b", "fusion_lon": 0.0, "type": "electric_scooter"}, {"rental_uris": {"ios": "https://dc.lft.to/lastmile_qr_scan", "android": "https://dc.lft.to/lastmile_qr_scan"}, "lat": 38.9051705, "lon": -77.04100216666667, "fusion_lat": 0.0, "name": "991a45375d6592254c504b6160b16dfe", "is_disabled": 0, "is_reserved": 0, "bike_id": "991a45375d6592254c504b6160b16dfe", "fusion_lon": 0.0, "type": "electric_scooter"}, {"rental_uris": {"ios": "https://dc.lft.to/lastmile_qr_scan", "android": "https://dc.lft.to/lastmile_qr_scan"}, "lat": 38.917037, "lon": -77.09576133333333, "fusion_lat": 0.0, "name": "2acb890f8d42e8334d3d8ae455b486c8", "is_disabled": 0, "is_reserved": 0, "bike_id": "2acb890f8d42e8334d3d8ae455b486c8", "fusion_lon": 0.0, "type": "electric_scooter"}, {"rental_uris": {"ios": "https://dc.lft.to/lastmile_qr_scan", "android": "https://dc.lft.to/lastmile_qr_scan"}, "lat": 38.8837085, "lon": -77.01775766666667, "fusion_lat": 0.0, "name": "cdb21f87fe0ee92a29ec9285c3092094", "is_disabled": 0, "is_reserved": 0, "bike_id": "cdb21f87fe0ee92a29ec9285c3092094", "fusion_lon": 0.0, "type": "electric_scooter"}, {"rental_uris": {"ios": "https://dc.lft.to/lastmile_qr_scan", "android": "https://dc.lft.to/lastmile_qr_scan"}, "lat": 38.929587166666664, "lon": -77.02337866666667, "fusion_lat": 0.0, "name": "c45b35445727784412a95c20464551f5", "is_disabled": 0, "is_reserved": 0, "bike_id": "c45b35445727784412a95c20464551f5", "fusion_lon": 0.0, "type": "electric_scooter"}, {"rental_uris": {"ios": "https://dc.lft.to/lastmile_qr_scan", "android": "https://dc.lft.to/lastmile_qr_scan"}, "lat": 38.90229, "lon": -77.05894033333334, "fusion_lat": 0.0, "name": "39b327412f72175aa304c5289f624d3f", "is_disabled": 0, "is_reserved": 0, "bike_id": "39b327412f72175aa304c5289f624d3f", "fusion_lon": 0.0, "type": "electric_scooter"}, {"rental_uris": {"ios": "https://dc.lft.to/lastmile_qr_scan", "android": "https://dc.lft.to/lastmile_qr_scan"}, "lat": 38.94347616666667, "lon": -77.03763233333333, "fusion_lat": 0.0, "name": "598feedd4eb39525da5271acd223d6b0", "is_disabled": 0, "is_reserved": 0, "bike_id": "598feedd4eb39525da5271acd223d6b0", "fusion_lon": 0.0, "type": "electric_scooter"}, {"rental_uris": {"ios": "https://dc.lft.to/lastmile_qr_scan", "android": "https://dc.lft.to/lastmile_qr_scan"}, "lat": 38.866839, "lon": -76.98572816666666, "fusion_lat": 0.0, "name": "7c5d1189c1ff05af67da30b8de2de950", "is_disabled": 0, "is_reserved": 0, "bike_id": "7c5d1189c1ff05af67da30b8de2de950", "fusion_lon": 0.0, "type": "electric_scooter"}, {"rental_uris": {"ios": "https://dc.lft.to/lastmile_qr_scan", "android": "https://dc.lft.to/lastmile_qr_scan"}, "lat": 38.917285166666666, "lon": -77.0683565, "fusion_lat": 0.0, "name": "5fc8be5bbe312cc678a56f1c63b905d8", "is_disabled": 0, "is_reserved": 0, "bike_id": "5fc8be5bbe312cc678a56f1c63b905d8", "fusion_lon": 0.0, "type": "electric_scooter"}, {"rental_uris": {"ios": "https://dc.lft.to/lastmile_qr_scan", "android": "https://dc.lft.to/lastmile_qr_scan"}, "lat": 38.915476, "lon": -77.04441166666666, "fusion_lat": 0.0, "name": "89a98cd25c24f1ab8ccf1c45cf3b07c3", "is_disabled": 0, "is_reserved": 0, "bike_id": "89a98cd25c24f1ab8ccf1c45cf3b07c3", "fusion_lon": 0.0, "type": "electric_scooter"}, {"rental_uris": {"ios": "https://dc.lft.to/lastmile_qr_scan", "android": "https://dc.lft.to/lastmile_qr_scan"}, "lat": 38.91968833333333, "lon": -77.01206883333333, "fusion_lat": 0.0, "name": "d6c5d2a35f5625c95c650d1350f7d44c", "is_disabled": 0, "is_reserved": 0, "bike_id": "d6c5d2a35f5625c95c650d1350f7d44c", "fusion_lon": 0.0, "type": "electric_scooter"}, {"rental_uris": {"ios": "https://dc.lft.to/lastmile_qr_scan", "android": "https://dc.lft.to/lastmile_qr_scan"}, "lat": 38.905354, "lon": -77.04138416666666, "fusion_lat": 0.0, "name": "47ae86c7c54a2ad5d2f32c962f998110", "is_disabled": 0, "is_reserved": 0, "bike_id": "47ae86c7c54a2ad5d2f32c962f998110", "fusion_lon": 0.0, "type": "electric_scooter"}, {"rental_uris": {"ios": "https://dc.lft.to/lastmile_qr_scan", "android": "https://dc.lft.to/lastmile_qr_scan"}, "lat": 38.91923583333333, "lon": -77.02410083333334, "fusion_lat": 0.0, "name": "472f6fa6923193daaa4901235ac56d1b", "is_disabled": 0, "is_reserved": 0, "bike_id": "472f6fa6923193daaa4901235ac56d1b", "fusion_lon": 0.0, "type": "electric_scooter"}, {"rental_uris": {"ios": "https://dc.lft.to/lastmile_qr_scan", "android": "https://dc.lft.to/lastmile_qr_scan"}, "lat": 38.8650365, "lon": -76.99007583333334, "fusion_lat": 0.0, "name": "8c9a0ef89dcd911cda1797c0a515627f", "is_disabled": 0, "is_reserved": 0, "bike_id": "8c9a0ef89dcd911cda1797c0a515627f", "fusion_lon": 0.0, "type": "electric_scooter"}, {"rental_uris": {"ios": "https://dc.lft.to/lastmile_qr_scan", "android": "https://dc.lft.to/lastmile_qr_scan"}, "lat": 38.92761216666667, "lon": -77.0277785, "fusion_lat": 0.0, "name": "7c9142c6634c7b982913182f504ad192", "is_disabled": 0, "is_reserved": 0, "bike_id": "7c9142c6634c7b982913182f504ad192", "fusion_lon": 0.0, "type": "electric_scooter"}, {"rental_uris": {"ios": "https://dc.lft.to/lastmile_qr_scan", "android": "https://dc.lft.to/lastmile_qr_scan"}, "lat": 38.9021875, "lon": -77.0605455, "fusion_lat": 0.0, "name": "5efd48617d110892b5b31e9df015aeec", "is_disabled": 0, "is_reserved": 0, "bike_id": "5efd48617d110892b5b31e9df015aeec", "fusion_lon": 0.0, "type": "electric_scooter"}, {"rental_uris": {"ios": "https://dc.lft.to/lastmile_qr_scan", "android": "https://dc.lft.to/lastmile_qr_scan"}, "lat": 38.87363933333334, "lon": -77.00066916666667, "fusion_lat": 0.0, "name": "1bfb615f2a2c4706aa5249e131c29230", "is_disabled": 0, "is_reserved": 0, "bike_id": "1bfb615f2a2c4706aa5249e131c29230", "fusion_lon": 0.0, "type": "electric_scooter"}, {"rental_uris": {"ios": "https://dc.lft.to/lastmile_qr_scan", "android": "https://dc.lft.to/lastmile_qr_scan"}, "lat": 38.892338333333335, "lon": -77.03349416666667, "fusion_lat": 0.0, "name": "58b4fb00925e13732d8de8f950d88910", "is_disabled": 0, "is_reserved": 0, "bike_id": "58b4fb00925e13732d8de8f950d88910", "fusion_lon": 0.0, "type": "electric_scooter"}, {"rental_uris": {"ios": "https://dc.lft.to/lastmile_qr_scan", "android": "https://dc.lft.to/lastmile_qr_scan"}, "lat": 38.915562333333334, "lon": -77.02200466666666, "fusion_lat": 0.0, "name": "ecf71782b6d1932fb4d777735daefaef", "is_disabled": 0, "is_reserved": 0, "bike_id": "ecf71782b6d1932fb4d777735daefaef", "fusion_lon": 0.0, "type": "electric_scooter"}, {"rental_uris": {"ios": "https://dc.lft.to/lastmile_qr_scan", "android": "https://dc.lft.to/lastmile_qr_scan"}, "lat": 38.9064155, "lon": -77.01631766666667, "fusion_lat": 0.0, "name": "58d0da79f52adaa799538e80fb0a4ad7", "is_disabled": 0, "is_reserved": 0, "bike_id": "58d0da79f52adaa799538e80fb0a4ad7", "fusion_lon": 0.0, "type": "electric_scooter"}, {"rental_uris": {"ios": "https://dc.lft.to/lastmile_qr_scan", "android": "https://dc.lft.to/lastmile_qr_scan"}, "lat": 38.919106, "lon": -77.03177633333334, "fusion_lat": 0.0, "name": "0e129967abaf984fa1b055a32e01e525", "is_disabled": 0, "is_reserved": 0, "bike_id": "0e129967abaf984fa1b055a32e01e525", "fusion_lon": 0.0, "type": "electric_scooter"}, {"rental_uris": {"ios": "https://dc.lft.to/lastmile_qr_scan", "android": "https://dc.lft.to/lastmile_qr_scan"}, "lat": 38.91744666666666, "lon": -77.03187066666666, "fusion_lat": 0.0, "name": "6b6e922a0b948d859add5fef9f5d1f19", "is_disabled": 0, "is_reserved": 0, "bike_id": "6b6e922a0b948d859add5fef9f5d1f19", "fusion_lon": 0.0, "type": "electric_scooter"}, {"rental_uris": {"ios": "https://dc.lft.to/lastmile_qr_scan", "android": "https://dc.lft.to/lastmile_qr_scan"}, "lat": 38.90543366666667, "lon": -77.04661066666667, "fusion_lat": 0.0, "name": "b6e249f9bfe5125fcb33ebe697bd8f66", "is_disabled": 0, "is_reserved": 0, "bike_id": "b6e249f9bfe5125fcb33ebe697bd8f66", "fusion_lon": 0.0, "type": "electric_scooter"}, {"rental_uris": {"ios": "https://dc.lft.to/lastmile_qr_scan", "android": "https://dc.lft.to/lastmile_qr_scan"}, "lat": 38.921947833333334, "lon": -77.033992, "fusion_lat": 0.0, "name": "7ca7098d7b23428e3f968a06b1762753", "is_disabled": 0, "is_reserved": 0, "bike_id": "7ca7098d7b23428e3f968a06b1762753", "fusion_lon": 0.0, "type": "electric_scooter"}, {"rental_uris": {"ios": "https://dc.lft.to/lastmile_qr_scan", "android": "https://dc.lft.to/lastmile_qr_scan"}, "lat": 38.90354333333333, "lon": -77.00741016666667, "fusion_lat": 0.0, "name": "82bd2316e0c44efae90b6adade835b04", "is_disabled": 0, "is_reserved": 0, "bike_id": "82bd2316e0c44efae90b6adade835b04", "fusion_lon": 0.0, "type": "electric_scooter"}, {"rental_uris": {"ios": "https://dc.lft.to/lastmile_qr_scan", "android": "https://dc.lft.to/lastmile_qr_scan"}, "lat": 38.91615866666667, "lon": -77.03037133333333, "fusion_lat": 0.0, "name": "b5b09b863e24a42f1fdbbf15a9663f34", "is_disabled": 0, "is_reserved": 0, "bike_id": "b5b09b863e24a42f1fdbbf15a9663f34", "fusion_lon": 0.0, "type": "electric_scooter"}, {"rental_uris": {"ios": "https://dc.lft.to/lastmile_qr_scan", "android": "https://dc.lft.to/lastmile_qr_scan"}, "lat": 38.914737333333335, "lon": -77.04347516666667, "fusion_lat": 0.0, "name": "955556db05c832717d2bb8fb40decb35", "is_disabled": 0, "is_reserved": 0, "bike_id": "955556db05c832717d2bb8fb40decb35", "fusion_lon": 0.0, "type": "electric_scooter"}, {"rental_uris": {"ios": "https://dc.lft.to/lastmile_qr_scan", "android": "https://dc.lft.to/lastmile_qr_scan"}, "lat": 38.916796166666664, "lon": -77.02954133333333, "fusion_lat": 0.0, "name": "b6eceebf5b1a8010c338654fd553aad6", "is_disabled": 0, "is_reserved": 0, "bike_id": "b6eceebf5b1a8010c338654fd553aad6", "fusion_lon": 0.0, "type": "electric_scooter"}, {"rental_uris": {"ios": "https://dc.lft.to/lastmile_qr_scan", "android": "https://dc.lft.to/lastmile_qr_scan"}, "lat": 38.905174833333334, "lon": -77.04180266666667, "fusion_lat": 0.0, "name": "b2d8e6d06fac66a9d2d0459c12996d29", "is_disabled": 0, "is_reserved": 0, "bike_id": "b2d8e6d06fac66a9d2d0459c12996d29", "fusion_lon": 0.0, "type": "electric_scooter"}, {"rental_uris": {"ios": "https://dc.lft.to/lastmile_qr_scan", "android": "https://dc.lft.to/lastmile_qr_scan"}, "lat": 38.957600666666664, "lon": -77.01145666666666, "fusion_lat": 0.0, "name": "bb04274009cf706d4eaa017595e65002", "is_disabled": 0, "is_reserved": 0, "bike_id": "bb04274009cf706d4eaa017595e65002", "fusion_lon": 0.0, "type": "electric_scooter"}, {"rental_uris": {"ios": "https://dc.lft.to/lastmile_qr_scan", "android": "https://dc.lft.to/lastmile_qr_scan"}, "lat": 38.927251166666665, "lon": -77.00558233333334, "fusion_lat": 0.0, "name": "d52baa2244359521783d817d2b6dc406", "is_disabled": 0, "is_reserved": 0, "bike_id": "d52baa2244359521783d817d2b6dc406", "fusion_lon": 0.0, "type": "electric_scooter"}, {"rental_uris": {"ios": "https://dc.lft.to/lastmile_qr_scan", "android": "https://dc.lft.to/lastmile_qr_scan"}, "lat": 38.994786166666664, "lon": -77.02874016666667, "fusion_lat": 0.0, "name": "3cf255ba8a03cdf1f430c0bd4745c20a", "is_disabled": 0, "is_reserved": 0, "bike_id": "3cf255ba8a03cdf1f430c0bd4745c20a", "fusion_lon": 0.0, "type": "electric_bike"}, {"rental_uris": {"ios": "https://dc.lft.to/lastmile_qr_scan", "android": "https://dc.lft.to/lastmile_qr_scan"}, "lat": 38.9264085, "lon": -76.9841875, "fusion_lat": 0.0, "name": "b42dba0647dd9cba8b6297a0643ffb84", "is_disabled": 0, "is_reserved": 0, "bike_id": "b42dba0647dd9cba8b6297a0643ffb84", "fusion_lon": 0.0, "type": "electric_bike"}, {"rental_uris": {"ios": "https://dc.lft.to/lastmile_qr_scan", "android": "https://dc.lft.to/lastmile_qr_scan"}, "lat": 38.90512116666667, "lon": -77.03171966666666, "fusion_lat": 0.0, "name": "40859355b2ba0087abca9243363a9f74", "is_disabled": 0, "is_reserved": 0, "bike_id": "40859355b2ba0087abca9243363a9f74", "fusion_lon": 0.0, "type": "electric_scooter"},