{"data": {"bikes": [{"fusion_lat": 0.0, "name": "9ca01d5a0043a1cba8689274f0633cd4", "is_disabled": 0, "rental_uris": {"android": "https://dc.lft.to/lastmile_qr_scan", "ios": "https://dc.lft.to/lastmile_qr_scan"}, "fusion_lon": 0.0, "lat": 38.804462, "bike_id": "9ca01d5a0043a1cba8689274f0633cd4", "type": "electric_bike", "is_reserved": 0, "lon": -77.1322895}, {"fusion_lat": 0.0, "name": "072077feadd2e81cb618cd002a4eef92", "is_disabled": 0, "rental_uris": {"android": "https://dc.lft.to/lastmile_qr_scan", "ios": "https://dc.lft.to/lastmile_qr_scan"}, "fusion_lon": 0.0, "lat": 38.912558833333335, "bike_id": "072077feadd2e81cb618cd002a4eef92", "type": "electric_scooter", "is_reserved": 0, "lon": -77.031607}, {"fusion_lat": 0.0, "name": "b4377e7b146480c37a6c90541056559a", "is_disabled": 0, "rental_uris": {"android": "https://dc.lft.to/lastmile_qr_scan", "ios": "https://dc.lft.to/lastmile_qr_scan"}, "fusion_lon": 0.0, "lat": 38.896108166666664, "bike_id": "b4377e7b146480c37a6c90541056559a", "type": "electric_scooter", "is_reserved": 0, "lon": -76.94814616666666}, {"fusion_lat": 0.0, "name": "21047222e957514fc034c4cf26622bde", "is_disabled": 0, "rental_uris": {"android": "https://dc.lft.to/lastmile_qr_scan", "ios": "https://dc.lft.to/lastmile_qr_scan"}, "fusion_lon": 0.0, "lat": 38.908754, "bike_id": "21047222e957514fc034c4cf26622bde", "type": "electric_scooter", "is_reserved": 0, "lon": -77.0231385}, {"fusion_lat": 0.0, "name": "6b9df0e2be2e1d2e34cc23c27beb8624", "is_disabled": 0, "rental_uris": {"android": "https://dc.lft.to/lastmile_qr_scan", "ios": "https://dc.lft.to/lastmile_qr_scan"}, "fusion_lon": 0.0, "lat": 38.901211833333335, "bike_id": "6b9df0e2be2e1d2e34cc23c27beb8624", "type": "electric_scooter", "is_reserved": 0, "lon": -77.0603705}, {"fusion_lat": 0.0, "name": "5ee6618b18d26c494a35ea65b2fe2c1d", "is_disabled": 0, "rental_uris": {"android": "https://dc.lft.to/lastmile_qr_scan", "ios": "https://dc.lft.to/lastmile_qr_scan"}, "fusion_lon": 0.0, "lat": 38.930606833333336, "bike_id": "5ee6618b18d26c494a35ea65b2fe2c1d", "type": "electric_scooter", "is_reserved": 0, "lon": -77.02981133333333}, {"fusion_lat": 0.0, "name": "8a6ed96f29ebec8311a77c76dc26d874", "is_disabled": 0, "rental_uris": {"android": "https://dc.lft.to/lastmile_qr_scan", "ios": "https://dc.lft.to/lastmile_qr_scan"}, "fusion_lon": 0.0, "lat": 38.9324825, "bike_id": "8a6ed96f29ebec8311a77c76dc26d874", "type": "electric_scooter", "is_reserved": 0, "lon": -77.028559}, {"fusion_lat": 0.0, "name": "b94fc0a96846089e22130ad8cfc00a8f", "is_disabled": 0, "rental_uris": {"android": "https://dc.lft.to/lastmile_qr_scan", "ios": "https://dc.lft.to/lastmile_qr_scan"}, "fusion_lon": 0.0, "lat": 38.90370083333333, "bike_id": "b94fc0a96846089e22130ad8cfc00a8f", "type": "electric_scooter", "is_reserved": 0, "lon": -77.03976316666666}, {"fusion_lat": 0.0, "name": "2b8871e0e568570fe5bc233752e71d9d", "is_disabled": 0, "rental_uris": {"android": "https://dc.lft.to/lastmile_qr_scan", "ios": "https://dc.lft.to/lastmile_qr_scan"}, "fusion_lon": 0.0, "lat": 38.90381933333333, "bike_id": "2b8871e0e568570fe5bc233752e71d9d", "type": "electric_scooter", "is_reserved": 0, "lon": -77.038661}, {"fusion_lat": 0.0, "name": "63454e8196ebd4f1bf67ab40f0e67748", "is_disabled": 0, "rental_uris": {"android": "https://dc.lft.to/lastmile_qr_scan", "ios": "https://dc.lft.to/lastmile_qr_scan"}, "fusion_lon": 0.0, "lat": 38.9356545, "bike_id": "63454e8196ebd4f1bf67ab40f0e67748", "type": "electric_scooter", "is_reserved": 0, "lon": -77.034849}, {"fusion_lat": 0.0, "name": "826142a7f2e502a537b5fa6c0f25876e", "is_disabled": 0, "rental_uris": {"android": "https://dc.lft.to/lastmile_qr_scan", "ios": "https://dc.lft.to/lastmile_qr_scan"}, "fusion_lon": 0.0, "lat": 38.857974166666665, "bike_id": "826142a7f2e502a537b5fa6c0f25876e", "type": "electric_bike", "is_reserved": 0, "lon": -77.12014466666666}, {"fusion_lat": 0.0, "name": "9baa312c7fd7328922f88bac310fa4af", "is_disabled": 0, "rental_uris": {"android": "https://dc.lft.to/lastmile_qr_scan", "ios": "https://dc.lft.to/lastmile_qr_scan"}, "fusion_lon": 0.0, "lat": 38.930479, "bike_id": "9baa312c7fd7328922f88bac310fa4af", "type": "electric_scooter", "is_reserved": 0, "lon": -77.0361125}, {"fusion_lat": 0.0, "name": "40e8c20f2fa67f3f2c94d9bec45f1136", "is_disabled": 0, "rental_uris": {"android": "https://dc.lft.to/lastmile_qr_scan", "ios": "https://dc.lft.to/lastmile_qr_scan"}, "fusion_lon": 0.0, "lat": 38.86267, "bike_id": "40e8c20f2fa67f3f2c94d9bec45f1136", "type": "electric_bike", "is_reserved": 0, "lon": -76.9834705}, {"fusion_lat": 0.0, "name": "754eae08afe35dc33f26defd797821f9", "is_disabled": 0, "rental_uris": {"android": "https://dc.lft.to/lastmile_qr_scan", "ios": "https://dc.lft.to/lastmile_qr_scan"}, "fusion_lon": 0.0, "lat": 38.8717905, "bike_id": "754eae08afe35dc33f26defd797821f9", "type": "electric_scooter", "is_reserved": 0, "lon": -77.00617283333334}, {"fusion_lat": 0.0, "name": "6d27a6dbf3a2e66bb252d645d10f3217", "is_disabled": 0, "rental_uris": {"android": "https://dc.lft.to/lastmile_qr_scan", "ios": "https://dc.lft.to/lastmile_qr_scan"}, "fusion_lon": 0.0, "lat": 38.905629, "bike_id": "6d27a6dbf3a2e66bb252d645d10f3217", "type": "electric_scooter", "is_reserved": 0, "lon": -77.013103}, {"fusion_lat": 0.0, "name": "5db785b8334ab4f2856bdd5c70ac59b0", "is_disabled": 0, "rental_uris": {"android": "https://dc.lft.to/lastmile_qr_scan", "ios": "https://dc.lft.to/lastmile_qr_scan"}, "fusion_lon": 0.0, "lat": 38.9103115, "bike_id": "5db785b8334ab4f2856bdd5c70ac59b0", "type": "electric_scooter", "is_reserved": 0, "lon": -77.00757883333333}, {"fusion_lat": 0.0, "name": "ee779cf2a145b104911096a1cc89ab45", "is_disabled": 0, "rental_uris": {"android": "https://dc.lft.to/lastmile_qr_scan", "ios": "https://dc.lft.to/lastmile_qr_scan"}, "fusion_lon": 0.0, "lat": 38.9313845, "bike_id": "ee779cf2a145b104911096a1cc89ab45", "type": "electric_scooter", "is_reserved": 0, "lon": -77.03831233333334}, {"fusion_lat": 0.0, "name": "2fb690e41a67b18847f9c8241db141d3", "is_disabled": 0, "rental_uris": {"android": "https://dc.lft.to/lastmile_qr_scan", "ios": "https://dc.lft.to/lastmile_qr_scan"}, "fusion_lon": 0.0, "lat": 38.942051, "bike_id": "2fb690e41a67b18847f9c8241db141d3", "type": "electric_bike", "is_reserved": 0, "lon": -77.01828233333333}, {"fusion_lat": 0.0, "name": "d21f6293c395060296af2b9938a4bb6b", "is_disabled": 0, "rental_uris": {"android": "https://dc.lft.to/lastmile_qr_scan", "ios": "https://dc.lft.to/lastmile_qr_scan"}, "fusion_lon": 0.0, "lat": 38.9111955, "bike_id": "d21f6293c395060296af2b9938a4bb6b", "type": "electric_scooter", "is_reserved": 0, "lon": -77.022051}, {"fusion_lat": 0.0, "name": "94e1cd46d9b7bba079b456f594e84ff6", "is_disabled": 0, "rental_uris": {"android": "https://dc.lft.to/lastmile_qr_scan", "ios": "https://dc.lft.to/lastmile_qr_scan"}, "fusion_lon": 0.0, "lat": 38.881535666666664, "bike_id": "94e1cd46d9b7bba079b456f594e84ff6", "type": "electric_scooter", "is_reserved": 0, "lon": -77.02752233333334}, {"fusion_lat": 0.0, "name": "542c4b6f1bbe28720aba633025c027e3", "is_disabled": 0, "rental_uris": {"android": "https://dc.lft.to/lastmile_qr_scan", "ios": "https://dc.lft.to/lastmile_qr_scan"}, "fusion_lon": 0.0, "lat": 38.8872955, "bike_id": "542c4b6f1bbe28720aba633025c027e3", "type": "electric_scooter", "is_reserved": 0, "lon": -76.9835735}, {"fusion_lat": 0.0, "name": "4f5f0fe86d8f7ec473192e6cd0061f54", "is_disabled": 0, "rental_uris": {"android": "https://dc.lft.to/lastmile_qr_scan", "ios": "https://dc.lft.to/lastmile_qr_scan"}, "fusion_lon": 0.0, "lat": 38.944497166666665, "bike_id": "4f5f0fe86d8f7ec473192e6cd0061f54", "type": "electric_scooter", "is_reserved": 0, "lon": -77.0234535}, {"fusion_lat": 0.0, "name": "2c294c8a8f7da0077ef221da0847da64", "is_disabled": 0, "rental_uris": {"android": "https://dc.lft.to/lastmile_qr_scan", "ios": "https://dc.lft.to/lastmile_qr_scan"}, "fusion_lon": 0.0, "lat": 38.931434333333335, "bike_id": "2c294c8a8f7da0077ef221da0847da64", "type": "electric_scooter", "is_reserved": 0, "lon": -77.07837933333333}, {"fusion_lat": 0.0, "name": "3a3156caee23dc5276380a8b452e45d9", "is_disabled": 0, "rental_uris": {"android": "https://dc.lft.to/lastmile_qr_scan", "ios": "https://dc.lft.to/lastmile_qr_scan"}, "fusion_lon": 0.0, "lat": 38.9111235, "bike_id": "3a3156caee23dc5276380a8b452e45d9", "type": "electric_scooter", "is_reserved": 0, "lon": -77.017617}, {"fusion_lat": 0.0, "name": "84f0fb90400b3edc6c72681a95ddfc1c", "is_disabled": 0, "rental_uris": {"android": "https://dc.lft.to/lastmile_qr_scan", "ios": "https://dc.lft.to/lastmile_qr_scan"}, "fusion_lon": 0.0, "lat": 38.90260633333333, "bike_id": "84f0fb90400b3edc6c72681a95ddfc1c", "type": "electric_scooter", "is_reserved": 0, "lon": -77.04355666666666}, {"fusion_lat": 0.0, "name": "ac5ba5ed55d1dfdff763e3b477648d8a", "is_disabled": 0, "rental_uris": {"android": "https://dc.lft.to/lastmile_qr_scan", "ios": "https://dc.lft.to/lastmile_qr_scan"}, "fusion_lon": 0.0, "lat": 38.900925666666666, "bike_id": "ac5ba5ed55d1dfdff763e3b477648d8a", "type": "electric_scooter", "is_reserved": 0, "lon": -77.0583065}, {"fusion_lat": 0.0, "name": "15841e157f5235c57baaef4f0514ee89", "is_disabled": 0, "rental_uris": {"android": "https://dc.lft.to/lastmile_qr_scan", "ios": "https://dc.lft.to/lastmile_qr_scan"}, "fusion_lon": 0.0, "lat": 38.866279166666665, "bike_id": "15841e157f5235c57baaef4f0514ee89", "type": "electric_scooter", "is_reserved": 0, "lon": -76.98716183333333}, {"fusion_lat": 0.0, "name": "810b1252b565b474c0f5e65887bce61e", "is_disabled": 0, "rental_uris": {"android": "https://dc.lft.to/lastmile_qr_scan", "ios": "https://dc.lft.to/lastmile_qr_scan"}, "fusion_lon": 0.0, "lat": 38.92409683333333, "bike_id": "810b1252b565b474c0f5e65887bce61e", "type": "electric_scooter", "is_reserved": 0, "lon": -77.0200475}, {"fusion_lat": 0.0, "name": "0152ed8e45be6a3a43fa8bcd433c5714", "is_disabled": 0, "rental_uris": {"android": "https://dc.lft.to/lastmile_qr_scan", "ios": "https://dc.lft.to/lastmile_qr_scan"}, "fusion_lon": 0.0, "lat": 38.911175166666666, "bike_id": "0152ed8e45be6a3a43fa8bcd433c5714", "type": "electric_scooter", "is_reserved": 0, "lon": -77.02244516666667}, {"fusion_lat": 0.0, "name": "8fb2c659369bd4f7eb9843b9eee1800b", "is_disabled": 0, "rental_uris": {"android": "https://dc.lft.to/lastmile_qr_scan", "ios": "https://dc.lft.to/lastmile_qr_scan"}, "fusion_lon": 0.0, "lat": 38.904124833333334, "bike_id": "8fb2c659369bd4f7eb9843b9eee1800b", "type": "electric_scooter", "is_reserved": 0, "lon": -76.97329666666667}, {"fusion_lat": 0.0, "name": "f17f00b362d8e09027a62d7c169b1ef9", "is_disabled": 0, "rental_uris": {"android": "https://dc.lft.to/lastmile_qr_scan", "ios": "https://dc.lft.to/lastmile_qr_scan"}, "fusion_lon": 0.0, "lat": 38.919809666666666, "bike_id": "f17f00b362d8e09027a62d7c169b1ef9", "type": "electric_scooter", "is_reserved": 0, "lon": -77.02506233333334}, {"fusion_lat": 0.0, "name": "301f11911c7869be15a1ae4bb0b47327", "is_disabled": 0, "rental_uris": {"android": "https://dc.lft.to/lastmile_qr_scan", "ios": "https://dc.lft.to/lastmile_qr_scan"}, "fusion_lon": 0.0, "lat": 38.89939733333333, "bike_id": "301f11911c7869be15a1ae4bb0b47327", "type": "electric_scooter", "is_reserved": 0, "lon": -77.05002416666666}, {"fusion_lat": 0.0, "name": "ab7bf0c3c69a1d378f3e2bc763c91a50", "is_disabled": 0, "rental_uris": {"android": "https://dc.lft.to/lastmile_qr_scan", "ios": "https://dc.lft.to/lastmile_qr_scan"}, "fusion_lon": 0.0, "lat": 38.917925333333336, "bike_id": "ab7bf0c3c69a1d378f3e2bc763c91a50", "type": "electric_scooter", "is_reserved": 0, "lon": -77.03214833333334}, {"fusion_lat": 0.0, "name": "b551445d6426e0cf0d349a26bf4dde30", "is_disabled": 0, "rental_uris": {"android": "https://dc.lft.to/lastmile_qr_scan", "ios": "https://dc.lft.to/lastmile_qr_scan"}, "fusion_lon": 0.0, "lat": 38.98792483333333, "bike_id": "b551445d6426e0cf0d349a26bf4dde30", "type": "electric_bike", "is_reserved": 0, "lon": -77.14092933333333}, {"fusion_lat": 0.0, "name": "812da432fb64406d546549db4aeb68c5", "is_disabled": 0, "rental_uris": {"android": "https://dc.lft.to/lastmile_qr_scan", "ios": "https://dc.lft.to/lastmile_qr_scan"}, "fusion_lon": 0.0, "lat": 38.9415265, "bike_id": "812da432fb64406d546549db4aeb68c5", "type": "electric_bike", "is_reserved": 0, "lon": -77.0020075}, {"fusion_lat": 0.0, "name": "468483eee87c5b3d1856694f826075c5", "is_disabled": 0, "rental_uris": {"android": "https://dc.lft.to/lastmile_qr_scan", "ios": "https://dc.lft.to/lastmile_qr_scan"}, "fusion_lon": 0.0, "lat": 38.90423666666667, "bike_id": "468483eee87c5b3d1856694f826075c5", "type": "electric_scooter", "is_reserved": 0, "lon": -77.0188995}, {"fusion_lat": 0.0, "name": "ad7c8b77ff7fe14eeb2ffb9fa4a4cbdd", "is_disabled": 0, "rental_uris": {"android": "https://dc.lft.to/lastmile_qr_scan", "ios": "https://dc.lft.to/lastmile_qr_scan"}, "fusion_lon": 0.0, "lat": 38.955940166666664, "bike_id": "ad7c8b77ff7fe14eeb2ffb9fa4a4cbdd", "type": "electric_bike", "is_reserved": 0, "lon": -77.01008433333334}, {"fusion_lat": 0.0, "name": "7a74852099b850f01a878f4bdc3873fe", "is_disabled": 0, "rental_uris": {"android": "https://dc.lft.to/lastmile_qr_scan", "ios": "https://dc.lft.to/lastmile_qr_scan"}, "fusion_lon": 0.0, "lat": 38.90450416666667, "bike_id": "7a74852099b850f01a878f4bdc3873fe", "type": "electric_bike", "is_reserved": 0, "lon": -76.97426283333333}, {"fusion_lat": 0.0, "name": "08172be1a8466ee9cf3302b02c990b5f", "is_disabled": 0, "rental_uris": {"android": "https://dc.lft.to/lastmile_qr_scan", "ios": "https://dc.lft.to/lastmile_qr_scan"}, "fusion_lon": 0.0, "lat": 38.903921, "bike_id": "08172be1a8466ee9cf3302b02c990b5f", "type": "electric_scooter", "is_reserved": 0, "lon": -77.034251}, {"fusion_lat": 0.0, "name": "9d493f042654e1c178c0fe0789c4d3c8", "is_disabled": 0, "rental_uris": {"android": "https://dc.lft.to/lastmile_qr_scan", "ios": "https://dc.lft.to/lastmile_qr_scan"}, "fusion_lon": 0.0, "lat": 38.902236, "bike_id": "9d493f042654e1c178c0fe0789c4d3c8", "type": "electric_scooter", "is_reserved": 0, "lon": -77.02370116666667}, {"fusion_lat": 0.0, "name": "9883b6512a0ad78162bae91bc6632764", "is_disabled": 0, "rental_uris": {"android": "https://dc.lft.to/lastmile_qr_scan", "ios": "https://dc.lft.to/lastmile_qr_scan"}, "fusion_lon": 0.0, "lat": 38.89850366666667, "bike_id": "9883b6512a0ad78162bae91bc6632764", "type": "electric_scooter", "is_reserved": 0, "lon": -76.93181216666666}, {"fusion_lat": 0.0, "name": "a23318abb0e7be52b5543eb69f810d4c", "is_disabled": 0, "rental_uris": {"android": "https://dc.lft.to/lastmile_qr_scan", "ios": "https://dc.lft.to/lastmile_qr_scan"}, "fusion_lon": 0.0, "lat": 38.911304333333334, "bike_id": "a23318abb0e7be52b5543eb69f810d4c", "type": "electric_scooter", "is_reserved": 0, "lon": -77.02199533333334}, {"fusion_lat": 0.0, "name": "07a4ddc6b492522a70da39fe5b35445a", "is_disabled": 0, "rental_uris": {"android": "https://dc.lft.to/lastmile_qr_scan", "ios": "https://dc.lft.to/lastmile_qr_scan"}, "fusion_lon": 0.0, "lat": 38.840552333333335, "bike_id": "07a4ddc6b492522a70da39fe5b35445a", "type": "electric_scooter", "is_reserved": 0, "lon": -76.97666316666667}, {"fusion_lat": 0.0, "name": "988aabebeca623b31dda0dc903a16154", "is_disabled": 0, "rental_uris": {"android": "https://dc.lft.to/lastmile_qr_scan", "ios": "https://dc.lft.to/lastmile_qr_scan"}, "fusion_lon": 0.0, "lat": 38.901092, "bike_id": "988aabebeca623b31dda0dc903a16154", "type": "electric_scooter", "is_reserved": 0, "lon": -77.02657333333333}, {"fusion_lat": 0.0, "name": "c2ecafdc0a6ccdb035585b6018f1941c", "is_disabled": 0, "rental_uris": {"android": "https://dc.lft.to/lastmile_qr_scan", "ios": "https://dc.lft.to/lastmile_qr_scan"}, "fusion_lon": 0.0, "lat": 38.898287, "bike_id": "c2ecafdc0a6ccdb035585b6018f1941c", "type": "electric_scooter", "is_reserved": 0, "lon": -76.946511}, {"fusion_lat": 0.0, "name": "975d2e5efeccd927481926d37c76148a", "is_disabled": 0, "rental_uris": {"android": "https://dc.lft.to/lastmile_qr_scan", "ios": "https://dc.lft.to/lastmile_qr_scan"}, "fusion_lon": 0.0, "lat": 38.92764566666666, "bike_id": "975d2e5efeccd927481926d37c76148a", "type": "electric_scooter", "is_reserved": 0, "lon": -77.01618216666667}, {"fusion_lat": 0.0, "name": "82ca55daca2ea2a4cbf60c1b6edfa956", "is_disabled": 0, "rental_uris": {"android": "https://dc.lft.to/lastmile_qr_scan", "ios": "https://dc.lft.to/lastmile_qr_scan"}, "fusion_lon": 0.0, "lat": 38.913322666666666, "bike_id": "82ca55daca2ea2a4cbf60c1b6edfa956", "type": "electric_scooter", "is_reserved": 0, "lon": -77.05037166666666}, {"fusion_lat": 0.0, "name": "3f01c94c89c57bbb14ac5bdcc2f58cdc", "is_disabled": 0, "rental_uris": {"android": "https://dc.lft.to/lastmile_qr_scan", "ios": "https://dc.lft.to/lastmile_qr_scan"}, "fusion_lon": 0.0, "lat": 38.91050033333333, "bike_id": "3f01c94c89c57bbb14ac5bdcc2f58cdc", "type": "electric_scooter", "is_reserved": 0, "lon": -77.03418983333333}, {"fusion_lat": 0.0, "name": "2807241b31ac469238f46484ebf65177", "is_disabled": 0, "rental_uris": {"android": "https://dc.lft.to/lastmile_qr_scan", "ios": "https://dc.lft.to/lastmile_qr_scan"}, "fusion_lon": 0.0, "lat": 38.91563933333333, "bike_id": "2807241b31ac469238f46484ebf65177", "type": "electric_scooter", "is_reserved": 0, "lon": -77.06752783333333}, {"fusion_lat": 0.0, "name": "8e5b1165511d6ce515669042e8693674", "is_disabled": 0, "rental_uris": {"android": "https://dc.lft.to/lastmile_qr_scan", "ios": "https://dc.lft.to/lastmile_qr_scan"}, "fusion_lon": 0.0, "lat": 38.94409533333334, "bike_id": "8e5b1165511d6ce515669042e8693674", "type": "electric_scooter", "is_reserved": 0, "lon": -77.03200933333333}, {"fusion_lat": 0.0, "name": "d438736f8bb13c7e563077f50f03640e", "is_disabled": 0, "rental_uris": {"android": "https://dc.lft.to/lastmile_qr_scan", "ios": "https://dc.lft.to/lastmile_qr_scan"}, "fusion_lon": 0.0, "lat": 38.87896166666667, "bike_id": "d438736f8bb13c7e563077f50f03640e", "type": "electric_scooter", "is_reserved": 0, "lon": -77.01365583333333}, {"fusion_lat": 0.0, "name": "2d4655efd6dc5f36fa66e21a04234342", "is_disabled": 0, "rental_uris": {"android": "https://dc.lft.to/lastmile_qr_scan", "ios": "https://dc.lft.to/lastmile_qr_scan"}, "fusion_lon": 0.0, "lat": 38.926002, "bike_id": "2d4655efd6dc5f36fa66e21a04234342", "type": "electric_scooter", "is_reserved": 0, "lon": -77.02155883333333}, {"fusion_lat": 0.0, "name": "e9fd6a6d13ab4e3de07adb8b0934fd56", "is_disabled": 0, "rental_uris": {"android": "https://dc.lft.to/lastmile_qr_scan", "ios": "https://dc.lft.to/lastmile_qr_scan"}, "fusion_lon": 0.0, "lat": 38.897388166666666, "bike_id": "e9fd6a6d13ab4e3de07adb8b0934fd56", "type": "electric_scooter", "is_reserved": 0, "lon": -76.94720133333334}, {"fusion_lat": 0.0, "name": "65fe93f83819ba04aeaf8745239162e8", "is_disabled": 0, "rental_uris": {"android": "https://dc.lft.to/lastmile_qr_scan", "ios": "https://dc.lft.to/lastmile_qr_scan"}, "fusion_lon": 0.0, "lat": 38.91265216666667, "bike_id": "65fe93f83819ba04aeaf8745239162e8", "type": "electric_scooter", "is_reserved": 0, "lon": -77.03212133333334}, {"fusion_lat": 0.0, "name": "33b9799e79b366e651c75eb3bb9989d1", "is_disabled": 0, "rental_uris": {"android": "https://dc.lft.to/lastmile_qr_scan", "ios": "https://dc.lft.to/lastmile_qr_scan"}, "fusion_lon": 0.0, "lat": 38.92070733333333, "bike_id": "33b9799e79b366e651c75eb3bb9989d1", "type": "electric_scooter", "is_reserved": 0, "lon": -77.0021685}, {"fusion_lat": 0.0, "name": "57dd24ff14eebf5d0fb1e84a65354855", "is_disabled": 0, "rental_uris": {"android": "https://dc.lft.to/lastmile_qr_scan", "ios": "https://dc.lft.to/lastmile_qr_scan"}, "fusion_lon": 0.0, "lat": 38.90880033333333, "bike_id": "57dd24ff14eebf5d0fb1e84a65354855", "type": "electric_scooter", "is_reserved": 0, "lon": -77.03281916666667}, {"fusion_lat": 0.0, "name": "62e93ad08a27c7ab403de673bb42c39a", "is_disabled": 0, "rental_uris": {"android": "https://dc.lft.to/lastmile_qr_scan", "ios": "https://dc.lft.to/lastmile_qr_scan"}, "fusion_lon": 0.0, "lat": 38.906438666666666, "bike_id": "62e93ad08a27c7ab403de673bb42c39a", "type": "electric_scooter", "is_reserved": 0, "lon": -77.0179845}, {"fusion_lat": 0.0, "name": "f9ddb6d9b71c83662d6967de960c85e4", "is_disabled": 0, "rental_uris": {"android": "https://dc.lft.to/lastmile_qr_scan", "ios": "https://dc.lft.to/lastmile_qr_scan"}, "fusion_lon": 0.0, "lat": 38.908188, "bike_id": "f9ddb6d9b71c83662d6967de960c85e4", "type": "electric_scooter", "is_reserved": 0, "lon": -76.99986166666666}, {"fusion_lat": 0.0, "name": "3e71770da272b0381d5ec20363cc08ad", "is_disabled": 0, "rental_uris": {"android": "https://dc.lft.to/lastmile_qr_scan", "ios": "https://dc.lft.to/lastmile_qr_scan"}, "fusion_lon": 0.0, "lat": 38.90384783333333, "bike_id": "3e71770da272b0381d5ec20363cc08ad", "type": "electric_scooter", "is_reserved": 0, "lon": -77.01832433333334}, {"fusion_lat": 0.0, "name": "11359f417fa96baf719fe50a77226473", "is_disabled": 0, "rental_uris": {"android": "https://dc.lft.to/lastmile_qr_scan", "ios": "https://dc.lft.to/lastmile_qr_scan"}, "fusion_lon": 0.0, "lat": 38.927975, "bike_id": "11359f417fa96baf719fe50a77226473", "type": "electric_scooter", "is_reserved": 0, "lon": -77.03213566666666}, {"fusion_lat": 0.0, "name": "6707d5b352cec0db11809bd855b88812", "is_disabled": 0, "rental_uris": {"android": "https://dc.lft.to/lastmile_qr_scan", "ios": "https://dc.lft.to/lastmile_qr_scan"}, "fusion_lon": 0.0, "lat": 38.9130355, "bike_id": "6707d5b352cec0db11809bd855b88812", "type": "electric_scooter", "is_reserved": 0, "lon": -77.04879383333333}, {"fusion_lat": 0.0, "name": "86b4ff084101f058f62668456bebdf49", "is_disabled": 0, "rental_uris": {"android": "https://dc.lft.to/lastmile_qr_scan", "ios": "https://dc.lft.to/lastmile_qr_scan"}, "fusion_lon": 0.0, "lat": 38.91758683333333, "bike_id": "86b4ff084101f058f62668456bebdf49", "type": "electric_scooter", "is_reserved": 0, "lon": -77.03645783333333}, {"fusion_lat": 0.0, "name": "3c422c41a90c2265ad74439d93cc858e", "is_disabled": 0, "rental_uris": {"android": "https://dc.lft.to/lastmile_qr_scan", "ios": "https://dc.lft.to/lastmile_qr_scan"}, "fusion_lon": 0.0, "lat": 38.804959833333335, "bike_id": "3c422c41a90c2265ad74439d93cc858e", "type": "electric_bike", "is_reserved": 0, "lon": -77.10160333333333}, {"fusion_lat": 0.0, "name": "5f2d7e392f7abc9c2a7e1a269c23720c", "is_disabled": 0, "rental_uris": {"android": "https://dc.lft.to/lastmile_qr_scan", "ios": "https://dc.lft.to/lastmile_qr_scan"}, "fusion_lon": 0.0, "lat": 38.91971216666666, "bike_id": "5f2d7e392f7abc9c2a7e1a269c23720c", "type": "electric_scooter", "is_reserved": 0, "lon": -77.07082366666667}, {"fusion_lat": 0.0, "name": "900f923ff8d768b1669a8c79d564b689", "is_disabled": 0, "rental_uris": {"android": "https://dc.lft.to/lastmile_qr_scan", "ios": "https://dc.lft.to/lastmile_qr_scan"}, "fusion_lon": 0.0, "lat": 38.861678166666664, "bike_id": "900f923ff8d768b1669a8c79d564b689", "type": "electric_scooter", "is_reserved": 0, "lon": -76.98370083333333}, {"fusion_lat": 0.0, "name": "7b394b46725a83280e151a740ca65bd7", "is_disabled": 0, "rental_uris": {"android": "https://dc.lft.to/lastmile_qr_scan", "ios": "https://dc.lft.to/lastmile_qr_scan"}, "fusion_lon": 0.0, "lat": 38.89286533333333, "bike_id": "7b394b46725a83280e151a740ca65bd7", "type": "electric_scooter", "is_reserved": 0, "lon": -76.98312566666667}, {"fusion_lat": 0.0, "name": "1cba5584295155fb9160896cc6beafe1", "is_disabled": 0, "rental_uris": {"android": "https://dc.lft.to/lastmile_qr_scan", "ios": "https://dc.lft.to/lastmile_qr_scan"}, "fusion_lon": 0.0, "lat": 38.94897616666667, "bike_id": "1cba5584295155fb9160896cc6beafe1", "type": "electric_bike", "is_reserved": 0, "lon": -76.96371966666666}, {"fusion_lat": 0.0, "name": "cbcc7ee46030d25b0a477a4364a181f3", "is_disabled": 0, "rental_uris": {"android": "https://dc.lft.to/lastmile_qr_scan", "ios": "https://dc.lft.to/lastmile_qr_scan"}, "fusion_lon": 0.0, "lat": 38.90464766666667, "bike_id": "cbcc7ee46030d25b0a477a4364a181f3", "type": "electric_scooter", "is_reserved": 0, "lon": -77.03210033333333}, {"fusion_lat": 0.0, "name": "ee75d53ee0891bdec2750ac153a225a0", "is_disabled": 0, "rental_uris": {"android": "https://dc.lft.to/lastmile_qr_scan", "ios": "https://dc.lft.to/lastmile_qr_scan"}, "fusion_lon": 0.0, "lat": 38.9168455, "bike_id": "ee75d53ee0891bdec2750ac153a225a0", "type": "electric_scooter", "is_reserved": 0, "lon": -77.0368605}, {"fusion_lat": 0.0, "name": "327ce8f98574e8816c5faf22798defc6", "is_disabled": 0, "rental_uris": {"android": "https://dc.lft.to/lastmile_qr_scan", "ios": "https://dc.lft.to/lastmile_qr_scan"}, "fusion_lon": 0.0, "lat": 38.89526333333333, "bike_id": "327ce8f98574e8816c5faf22798defc6", "type": "electric_scooter", "is_reserved": 0, "lon": -77.0121345}, {"fusion_lat": 0.0, "name": "ba4600dccd3477335bcaba34a03adf05", "is_disabled": 0, "rental_uris": {"android": "https://dc.lft.to/lastmile_qr_scan", "ios": "https://dc.lft.to/lastmile_qr_scan"}, "fusion_lon": 0.0, "lat": 38.91268183333333, "bike_id": "ba4600dccd3477335bcaba34a03adf05", "type": "electric_scooter", "is_reserved": 0, "lon": -77.0297705}, {"fusion_lat": 0.0, "name": "484d1c76a435f6659a667d721460f137", "is_disabled": 0, "rental_uris": {"android": "https://dc.lft.to/lastmile_qr_scan", "ios": "https://dc.lft.to/lastmile_qr_scan"}, "fusion_lon": 0.0, "lat": 38.91391566666667, "bike_id": "484d1c76a435f6659a667d721460f137", "type": "electric_scooter", "is_reserved": 0, "lon": -77.033207}, {"fusion_lat": 0.0, "name": "e7ce8206f1e2caed92e178051bbc0535", "is_disabled": 0, "rental_uris": {"android": "https://dc.lft.to/lastmile_qr_scan", "ios": "https://dc.lft.to/lastmile_qr_scan"}, "fusion_lon": 0.0, "lat": 38.91790916666667, "bike_id": "e7ce8206f1e2caed92e178051bbc0535", "type": "electric_scooter", "is_reserved": 0, "lon": -77.009296}, {"fusion_lat": 0.0, "name": "de9fd74db5ed9146770aa1bf5305a1b4", "is_disabled": 0, "rental_uris": {"android": "https://dc.lft.to/lastmile_qr_scan", "ios": "https://dc.lft.to/lastmile_qr_scan"}, "fusion_lon": 0.0, "lat": 38.899035833333336, "bike_id": "de9fd74db5ed9146770aa1bf5305a1b4", "type": "electric_scooter", "is_reserved": 0, "lon": -77.05673933333334}, {"fusion_lat": 0.0, "name": "d27ed902a545ba89eeab429a2f5f25dd", "is_disabled": 0, "rental_uris": {"android": "https://dc.lft.to/lastmile_qr_scan", "ios": "https://dc.lft.to/lastmile_qr_scan"}, "fusion_lon": 0.0, "lat": 38.89174083333333, "bike_id": "d27ed902a545ba89eeab429a2f5f25dd", "type": "electric_scooter", "is_reserved": 0, "lon": -76.99462233333334}, {"fusion_lat": 0.0, "name": "532d0b112eb0918e559c91ebb43d483d", "is_disabled": 0, "rental_uris": {"android": "https://dc.lft.to/lastmile_qr_scan", "ios": "https://dc.lft.to/lastmile_qr_scan"}, "fusion_lon": 0.0, "lat": 38.890616, "bike_id": "532d0b112eb0918e559c91ebb43d483d", "type": "electric_scooter", "is_reserved": 0, "lon": -76.94458916666666}, {"fusion_lat": 0.0, "name": "47e0acb92e437c36f3302512ced50d54", "is_disabled": 0, "rental_uris": {"android": "https://dc.lft.to/lastmile_qr_scan", "ios": "https://dc.lft.to/lastmile_qr_scan"}, "fusion_lon": 0.0, "lat": 38.899206166666666, "bike_id": "47e0acb92e437c36f3302512ced50d54", "type": "electric_scooter", "is_reserved": 0, "lon": -77.00369216666667}, {"fusion_lat": 0.0, "name": "55134235a3eefd27ae9825502867d07e", "is_disabled": 0, "rental_uris": {"android": "https://dc.lft.to/lastmile_qr_scan", "ios": "https://dc.lft.to/lastmile_qr_scan"}, "fusion_lon": 0.0, "lat": 38.931999, "bike_id": "55134235a3eefd27ae9825502867d07e", "type": "electric_scooter", "is_reserved": 0, "lon": -77.0279445}, {"fusion_lat": 0.0, "name": "d25e091b8a0ea9f3019016abecc4e755", "is_disabled": 0, "rental_uris": {"android": "https://dc.lft.to/lastmile_qr_scan", "ios": "https://dc.lft.to/lastmile_qr_scan"}, "fusion_lon": 0.0, "lat": 38.956396, "bike_id": "d25e091b8a0ea9f3019016abecc4e755", "type": "electric_scooter", "is_reserved": 0, "lon": -77.02415616666667}, {"fusion_lat": 0.0, "name": "2617470ed8c204c91f9767e87da28d7e", "is_disabled": 0, "rental_uris": {"android": "https://dc.lft.to/lastmile_qr_scan", "ios": "https://dc.lft.to/lastmile_qr_scan"}, "fusion_lon": 0.0, "lat": 38.926054666666666, "bike_id": "2617470ed8c204c91f9767e87da28d7e", "type": "electric_scooter", "is_reserved": 0, "lon": -77.03763716666667}, {"fusion_lat": 0.0, "name": "e6c94e2ded9971ac4c75ab30c23aacd2", "is_disabled": 0, "rental_uris": {"android": "https://dc.lft.to/lastmile_qr_scan", "ios": "https://dc.lft.to/lastmile_qr_scan"}, "fusion_lon": 0.0, "lat": 39.036075333333336, "bike_id": "e6c94e2ded9971ac4c75ab30c23aacd2", "type": "electric_bike", "is_reserved": 0, "lon": -77.055489}, {"fusion_lat": 0.0, "name": "3b1e054c2d67bfc221d805f535bc47c7", "is_disabled": 0, "rental_uris": {"android": "https://dc.lft.to/lastmile_qr_scan", "ios": "https://dc.lft.to/lastmile_qr_scan"}, "fusion_lon": 0.0, "lat": 38.916273833333335, "bike_id": "3b1e054c2d67bfc221d805f535bc47c7", "type": "electric_scooter", "is_reserved": 0, "lon": -77.0479745}, {"fusion_lat": 0.0, "name": "2d58548a0dcceaf3df478d752fd27af8", "is_disabled": 0, "rental_uris": {"android": "https://dc.lft.to/lastmile_qr_scan", "ios": "https://dc.lft.to/lastmile_qr_scan"}, "fusion_lon": 0.0, "lat": 38.8999005, "bike_id": "2d58548a0dcceaf3df478d752fd27af8", "type": "electric_scooter", "is_reserved": 0, "lon": -76.98441783333334}, {"fusion_lat": 0.0, "name": "c988c52603212a2fbdda78e203d9a8dc", "is_disabled": 0, "rental_uris": {"android": "https://dc.lft.to/lastmile_qr_scan", "ios": "https://dc.lft.to/lastmile_qr_scan"}, "fusion_lon": 0.0, "lat": 38.910456333333336, "bike_id": "c988c52603212a2fbdda78e203d9a8dc", "type": "electric_scooter", "is_reserved": 0, "lon": -77.038311}, {"fusion_lat": 0.0, "name": "884a50871375ba2185bad82c4f5364e8", "is_disabled": 0, "rental_uris": {"android": "https://dc.lft.to/lastmile_qr_scan", "ios": "https://dc.lft.to/lastmile_qr_scan"}, "fusion_lon": 0.0, "lat": 38.923427, "bike_id": "884a50871375ba2185bad82c4f5364e8", "type": "electric_scooter", "is_reserved": 0, "lon": -77.03540916666667}, {"fusion_lat": 0.0, "name": "617ae6a9520ae7072a2126b0fbab44b6", "is_disabled": 0, "rental_uris": {"android": "https://dc.lft.to/lastmile_qr_scan", "ios": "https://dc.lft.to/lastmile_qr_scan"}, "fusion_lon": 0.0, "lat": 38.9053015, "bike_id": "617ae6a9520ae7072a2126b0fbab44b6", "type": "electric_scooter", "is_reserved": 0, "lon": -77.05931366666667}, {"fusion_lat": 0.0, "name": "1ad9ebe5dedce13284b718b9d5a5cc62", "is_disabled": 0, "rental_uris": {"android": "https://dc.lft.to/lastmile_qr_scan", "ios": "https://dc.lft.to/lastmile_qr_scan"}, "fusion_lon": 0.0, "lat": 38.90011283333333, "bike_id": "1ad9ebe5dedce13284b718b9d5a5cc62", "type": "electric_scooter", "is_reserved": 0, "lon": -77.00185683333333}, {"fusion_lat": 0.0, "name": "d19c0dc19b638ed153559f5fff72d6be", "is_disabled": 0, "rental_uris": {"android": "https://dc.lft.to/lastmile_qr_scan", "ios": "https://dc.lft.to/lastmile_qr_scan"}, "fusion_lon": 0.0, "lat": 38.929815833333336, "bike_id": "d19c0dc19b638ed153559f5fff72d6be", "type": "electric_scooter", "is_reserved": 0, "lon": -77.02525433333334}, {"fusion_lat": 0.0, "name": "a6e91824081d05fee78ceace105cda00", "is_disabled": 0, "rental_uris": {"android": "https://dc.lft.to/lastmile_qr_scan", "ios": "https://dc.lft.to/lastmile_qr_scan"}, "fusion_lon": 0.0, "lat": 38.912549, "bike_id": "a6e91824081d05fee78ceace105cda00", "type": "electric_scooter", "is_reserved": 0, "lon": -77.04453883333333}, {"fusion_lat": 0.0, "name": "8719b5c53c96cc0ecdacd5b75e99aa3a", "is_disabled": 0, "rental_uris": {"android": "https://dc.lft.to/lastmile_qr_scan", "ios": "https://dc.lft.to/lastmile_qr_scan"}, "fusion_lon": 0.0, "lat": 38.923626, "bike_id": "8719b5c53c96cc0ecdacd5b75e99aa3a", "type": "electric_scooter", "is_reserved": 0, "lon": -77.04326933333333}, {"fusion_lat": 0.0, "name": "d71e7ecbb5bbb352463e2d9edeaf63eb", "is_disabled": 0, "rental_uris": {"android": "https://dc.lft.to/lastmile_qr_scan", "ios": "https://dc.lft.to/lastmile_qr_scan"}, "fusion_lon": 0.0, "lat": 38.87845316666667, "bike_id": "d71e7ecbb5bbb352463e2d9edeaf63eb", "type": "electric_bike", "is_reserved": 0, "lon": -77.03022316666667}, {"fusion_lat": 0.0, "name": "b1f32fbef54ded0d49fd732d7a4da491", "is_disabled": 0, "rental_uris": {"android": "https://dc.lft.to/lastmile_qr_scan", "ios": "https://dc.lft.to/lastmile_qr_scan"}, "fusion_lon": 0.0, "lat": 38.84357383333333, "bike_id": "b1f32fbef54ded0d49fd732d7a4da491", "type": "electric_bike", "is_reserved": 0, "lon": -76.978229}, {"fusion_lat": 0.0, "name": "0ad39a563dd4632bbd7a5c0f2553e817", "is_disabled": 0, "rental_uris": {"android": "https://dc.lft.to/lastmile_qr_scan", "ios": "https://dc.lft.to/lastmile_qr_scan"}, "fusion_lon": 0.0, "lat": 38.919727333333334, "bike_id": "0ad39a563dd4632bbd7a5c0f2553e817", "type": "electric_scooter", "is_reserved": 0, "lon": -77.01804333333334}, {"fusion_lat": 0.0, "name": "479ab9e8a565d812f8767708c4f97510", "is_disabled": 0, "rental_uris": {"android": "https://dc.lft.to/lastmile_qr_scan", "ios": "https://dc.lft.to/lastmile_qr_scan"}, "fusion_lon": 0.0, "lat": 38.8788875, "bike_id": "479ab9e8a565d812f8767708c4f97510", "type": "electric_scooter", "is_reserved": 0, "lon": -76.99497883333333}, {"fusion_lat": 0.0, "name": "fab9c8e093bdf90b105d0162d50f813f", "is_disabled": 0, "rental_uris": {"android": "https://dc.lft.to/lastmile_qr_scan", "ios": "https://dc.lft.to/lastmile_qr_scan"}, "fusion_lon": 0.0, "lat": 38.95887366666667, "bike_id": "fab9c8e093bdf90b105d0162d50f813f", "type": "electric_bike", "is_reserved": 0, "lon": -76.92484883333333}, {"fusion_lat": 0.0, "name": "dae4141ebf9fdf63e8154880de7c95b3", "is_disabled": 0, "rental_uris": {"android": "https://dc.lft.to/lastmile_qr_scan", "ios": "https://dc.lft.to/lastmile_qr_scan"}, "fusion_lon": 0.0, "lat": 38.9265555, "bike_id": "dae4141ebf9fdf63e8154880de7c95b3", "type": "electric_scooter", "is_reserved": 0, "lon": -77.05359033333333}, {"fusion_lat": 0.0, "name": "db181ad6ab20820b28d3572ab069d91f", "is_disabled": 0, "rental_uris": {"android": "https://dc.lft.to/lastmile_qr_scan", "ios": "https://dc.lft.to/lastmile_qr_scan"}, "fusion_lon": 0.0, "lat": 38.926767166666664, "bike_id": "db181ad6ab20820b28d3572ab069d91f", "type": "electric_scooter", "is_reserved": 0, "lon": -77.036325}, {"fusion_lat": 0.0, "name": "f28fac9da8eadd431ff1a4e62cc8f08c", "is_disabled": 0, "rental_uris": {"android": "https://dc.lft.to/lastmile_qr_scan", "ios": "https://dc.lft.to/lastmile_qr_scan"}, "fusion_lon": 0.0, "lat": 38.96189966666667, "bike_id": "f28fac9da8eadd431ff1a4e62cc8f08c", "type": "electric_bike", "is_reserved": 0, "lon": -77.0527}, {"fusion_lat": 0.0, "name": "b9acae5616d9b318ec04a4f8cb341920", "is_disabled": 0, "rental_uris": {"android": "https://dc.lft.to/lastmile_qr_scan", "ios": "https://dc.lft.to/lastmile_qr_scan"}, "fusion_lon": 0.0, "lat": 38.896163333333334, "bike_id": "b9acae5616d9b318ec04a4f8cb341920", "type": "electric_bike", "is_reserved": 0, "lon": -76.90746516666667}, {"fusion_lat": 0.0, "name": "9f5d2a1ce78599feb1fd89577f3e9c54", "is_disabled": 0, "rental_uris": {"android": "https://dc.lft.to/lastmile_qr_scan", "ios": "https://dc.lft.to/lastmile_qr_scan"}, "fusion_lon": 0.0, "lat": 38.9462915, "bike_id": "9f5d2a1ce78599feb1fd89577f3e9c54", "type": "electric_scooter", "is_reserved": 0, "lon": -77.08018266666667}, {"fusion_lat": 0.0, "name": "e17e12f70e0e86810aa67c5bd0ef7642", "is_disabled": 0, "rental_uris": {"android": "https://dc.lft.to/lastmile_qr_scan", "ios": "https://dc.lft.to/lastmile_qr_scan"}, "fusion_lon": 0.0, "lat": 38.928211833333336, "bike_id": "e17e12f70e0e86810aa67c5bd0ef7642", "type": "electric_scooter", "is_reserved": 0, "lon": -77.01405833333334}, {"fusion_lat": 0.0, "name": "5fb936c88d2bf8605a86852a75126e71", "is_disabled": 0, "rental_uris": {"android": "https://dc.lft.to/lastmile_qr_scan", "ios": "https://dc.lft.to/lastmile_qr_scan"}, "fusion_lon": 0.0, "lat": 38.922355833333334, "bike_id": "5fb936c88d2bf8605a86852a75126e71", "type": "electric_scooter", "is_reserved": 0, "lon": -77.01843866666667}, {"fusion_lat": 0.0, "name": "bdb184e765b98af22fdfbec93df7616b", "is_disabled": 0, "rental_uris": {"android": "https://dc.lft.to/lastmile_qr_scan", "ios": "https://dc.lft.to/lastmile_qr_scan"}, "fusion_lon": 0.0, "lat": 38.9482825, "bike_id": "bdb184e765b98af22fdfbec93df7616b", "type": "electric_scooter", "is_reserved": 0, "lon": -77.08001433333334}, {"fusion_lat": 0.0, "name": "14dd893cddad49b182fe10b842d07bc4", "is_disabled": 0, "rental_uris": {"android": "https://dc.lft.to/lastmile_qr_scan", "ios": "https://dc.lft.to/lastmile_qr_scan"}, "fusion_lon": 0.0, "lat": 38.917768833333334, "bike_id": "14dd893cddad49b182fe10b842d07bc4", "type": "electric_scooter", "is_reserved": 0, "lon": -77.03227216666667}, {"fusion_lat": 0.0, "name": "915e623effc3168fcaa2977fd5deab12", "is_disabled": 0, "rental_uris": {"android": "https://dc.lft.to/lastmile_qr_scan", "ios": "https://dc.lft.to/lastmile_qr_scan"}, "fusion_lon": 0.0, "lat": 38.883657, "bike_id": "915e623effc3168fcaa2977fd5deab12", "type": "electric_scooter", "is_reserved": 0, "lon": -76.94155216666667}, {"fusion_lat": 0.0, "name": "122a6e10e34486fcfa72fa546eb1383e", "is_disabled": 0, "rental_uris": {"android": "https://dc.lft.to/lastmile_qr_scan", "ios": "https://dc.lft.to/lastmile_qr_scan"}, "fusion_lon": 0.0, "lat": 38.87490483333333, "bike_id": "122a6e10e34486fcfa72fa546eb1383e", "type": "electric_bike", "is_reserved": 0, "lon": -77.21124583333334}, {"fusion_lat": 0.0, "name": "f4883b48304486423eff719530e940e5", "is_disabled": 0, "rental_uris": {"android": "https://dc.lft.to/lastmile_qr_scan", "ios": "https://dc.lft.to/lastmile_qr_scan"}, "fusion_lon": 0.0, "lat": 38.90164733333334, "bike_id": "f4883b48304486423eff719530e940e5", "type": "electric_scooter", "is_reserved": 0, "lon": -77.02304366666667}, {"fusion_lat": 0.0, "name": "f6ec9dbc3b7ff07556a7ca157d2cc334", "is_disabled": 0, "rental_uris": {"android": "https://dc.lft.to/lastmile_qr_scan", "ios": "https://dc.lft.to/lastmile_qr_scan"}, "fusion_lon": 0.0, "lat": 38.883236, "bike_id": "f6ec9dbc3b7ff07556a7ca157d2cc334", "type": "electric_scooter", "is_reserved": 0, "lon": -77.01715033333333}, {"fusion_lat": 0.0, "name": "3b149a71e92fa689497be6010e4cdab9", "is_disabled": 0, "rental_uris": {"android": "https://dc.lft.to/lastmile_qr_scan", "ios": "https://dc.lft.to/lastmile_qr_scan"}, "fusion_lon": 0.0, "lat": 38.87403183333333, "bike_id": "3b149a71e92fa689497be6010e4cdab9", "type": "electric_scooter", "is_reserved": 0, "lon": -76.999955}, {"fusion_lat": 0.0, "name": "77e42f8416fa408fb4f7c449928ad771", "is_disabled": 0, "rental_uris": {"android": "https://dc.lft.to/lastmile_qr_scan", "ios": "https://dc.lft.to/lastmile_qr_scan"}, "fusion_lon": 0.0, "lat": 38.914719166666664, "bike_id": "77e42f8416fa408fb4f7c449928ad771", "type": "electric_scooter", "is_reserved": 0, "lon": -77.02399433333333}, {"fusion_lat": 0.0, "name": "1ed63e4907897238d5e23efe0ca641ae", "is_disabled": 0, "rental_uris": {"android": "https://dc.lft.to/lastmile_qr_scan", "ios": "https://dc.lft.to/lastmile_qr_scan"}, "fusion_lon": 0.0, "lat": 38.91687183333333, "bike_id": "1ed63e4907897238d5e23efe0ca641ae", "type": "electric_scooter", "is_reserved": 0, "lon": -77.0289325}, {"fusion_lat": 0.0, "name": "883126635bca2757faaaf577687d1a49", "is_disabled": 0, "rental_uris": {"android": "https://dc.lft.to/lastmile_qr_scan", "ios": "https://dc.lft.to/lastmile_qr_scan"}, "fusion_lon": 0.0, "lat": 38.90425616666667, "bike_id": "883126635bca2757faaaf577687d1a49", "type": "electric_scooter", "is_reserved": 0, "lon": -77.0234095}, {"fusion_lat": 0.0, "name": "5bc85412a6cbecdd6fc2ca50c3d6b81e", "is_disabled": 0, "rental_uris": {"android": "https://dc.lft.to/lastmile_qr_scan", "ios": "https://dc.lft.to/lastmile_qr_scan"}, "fusion_lon": 0.0, "lat": 38.896215833333336, "bike_id": "5bc85412a6cbecdd6fc2ca50c3d6b81e", "type": "electric_scooter", "is_reserved": 0, "lon": -77.0090625}, {"fusion_lat": 0.0, "name": "c2841083ec44bd75d555741a6c3b6742", "is_disabled": 0, "rental_uris": {"android": "https://dc.lft.to/lastmile_qr_scan", "ios": "https://dc.lft.to/lastmile_qr_scan"}, "fusion_lon": 0.0, "lat": 38.9352485, "bike_id": "c2841083ec44bd75d555741a6c3b6742", "type": "electric_scooter", "is_reserved": 0, "lon": -77.07261566666666}, {"fusion_lat": 0.0, "name": "68ebbc8b76b29784e9c0b1c19a643a97", "is_disabled": 0, "rental_uris": {"android": "https://dc.lft.to/lastmile_qr_scan", "ios": "https://dc.lft.to/lastmile_qr_scan"}, "fusion_lon": 0.0, "lat": 38.87885333333333, "bike_id": "68ebbc8b76b29784e9c0b1c19a643a97", "type": "electric_scooter", "is_reserved": 0, "lon": -77.022508}, {"fusion_lat": 0.0, "name": "ff1f00f7a19ca0b307b843f22911a0f5", "is_disabled": 0, "rental_uris": {"android": "https://dc.lft.to/lastmile_qr_scan", "ios": "https://dc.lft.to/lastmile_qr_scan"}, "fusion_lon": 0.0, "lat": 38.84757616666667, "bike_id": "ff1f00f7a19ca0b307b843f22911a0f5", "type": "electric_scooter", "is_reserved": 0, "lon": -76.99496966666666}, {"fusion_lat": 0.0, "name": "70ad6b69f69fb4a6ba478afcd07afc69", "is_disabled": 0, "rental_uris": {"android": "https://dc.lft.to/lastmile_qr_scan", "ios": "https://dc.lft.to/lastmile_qr_scan"}, "fusion_lon": 0.0, "lat": 39.05254133333333, "bike_id": "70ad6b69f69fb4a6ba478afcd07afc69", "type": "electric_bike", "is_reserved": 0, "lon": -77.08068783333333}, {"fusion_lat": 0.0, "name": "c5ab72648ea4e0c1c34998e91d214798", "is_disabled": 0, "rental_uris": {"android": "https://dc.lft.to/lastmile_qr_scan", "ios": "https://dc.lft.to/lastmile_qr_scan"}, "fusion_lon": 0.0, "lat": 38.89876233333333, "bike_id": "c5ab72648ea4e0c1c34998e91d214798", "type": "electric_scooter", "is_reserved": 0, "lon": -76.93186983333334}, {"fusion_lat": 0.0, "name": "4ba2cb6410d8cc7e8950f5e3affc5edc", "is_disabled": 0, "rental_uris": {"android": "https://dc.lft.to/lastmile_qr_scan", "ios": "https://dc.lft.to/lastmile_qr_scan"}, "fusion_lon": 0.0, "lat": 38.90536916666667, "bike_id": "4ba2cb6410d8cc7e8950f5e3affc5edc", "type": "electric_scooter", "is_reserved": 0, "lon": -77.0220425}, {"fusion_lat": 0.0, "name": "51dc322eaa7c67a14d4c4273b807acb2", "is_disabled": 0, "rental_uris": {"android": "https://dc.lft.to/lastmile_qr_scan", "ios": "https://dc.lft.to/lastmile_qr_scan"}, "fusion_lon": 0.0, "lat": 38.9308765, "bike_id": "51dc322eaa7c67a14d4c4273b807acb2", "type": "electric_scooter", "is_reserved": 0, "lon": -76.99608433333333}, {"fusion_lat": 0.0, "name": "f638d2d18b08707017eda284ece8eb61", "is_disabled": 0, "rental_uris": {"android": "https://dc.lft.to/lastmile_qr_scan", "ios": "https://dc.lft.to/lastmile_qr_scan"}, "fusion_lon": 0.0, "lat": 38.906568666666665, "bike_id": "f638d2d18b08707017eda284ece8eb61", "type": "electric_scooter", "is_reserved": 0, "lon": -77.00925933333333}, {"fusion_lat": 0.0, "name": "6ecc21df2d2dfda67f1dbfdad87c19e8", "is_disabled": 0, "rental_uris": {"android": "https://dc.lft.to/lastmile_qr_scan", "ios": "https://dc.lft.to/lastmile_qr_scan"}, "fusion_lon": 0.0, "lat": 38.90900116666667, "bike_id": "6ecc21df2d2dfda67f1dbfdad87c19e8", "type": "electric_scooter", "is_reserved": 0, "lon": -77.0321535}, {"fusion_lat": 0.0, "name": "e119b96c356278b6dfab64bc78ca5ff3", "is_disabled": 0, "rental_uris": {"android": "https://dc.lft.to/lastmile_qr_scan", "ios": "https://dc.lft.to/lastmile_qr_scan"}, "fusion_lon": 0.0, "lat": 38.90446466666667, "bike_id": "e119b96c356278b6dfab64bc78ca5ff3", "type": "electric_scooter", "is_reserved": 0, "lon": -77.02977783333333}, {"fusion_lat": 0.0, "name": "2e093ff4d7bede05729d32356dbe1972", "is_disabled": 0, "rental_uris": {"android": "https://dc.lft.to/lastmile_qr_scan", "ios": "https://dc.lft.to/lastmile_qr_scan"}, "fusion_lon": 0.0, "lat": 38.983923, "bike_id": "2e093ff4d7bede05729d32356dbe1972", "type": "electric_scooter", "is_reserved": 0, "lon": -77.0263315}, {"fusion_lat": 0.0, "name": "19a106849177dc9d1fac68b7b84adc6f", "is_disabled": 0, "rental_uris": {"android": "https://dc.lft.to/lastmile_qr_scan", "ios": "https://dc.lft.to/lastmile_qr_scan"}, "fusion_lon": 0.0, "lat": 38.903732166666664, "bike_id": "19a106849177dc9d1fac68b7b84adc6f", "type": "electric_scooter", "is_reserved": 0, "lon": -77.0073655}, {"fusion_lat": 0.0, "name": "7bcd71657dfc76d0fdcf48257430b5d4", "is_disabled": 0, "rental_uris": {"android": "https://dc.lft.to/lastmile_qr_scan", "ios": "https://dc.lft.to/lastmile_qr_scan"}, "fusion_lon": 0.0, "lat": 38.9452065, "bike_id": "7bcd71657dfc76d0fdcf48257430b5d4", "type": "electric_scooter", "is_reserved": 0, "lon": -77.02273333333333}, {"fusion_lat": 0.0, "name": "b15be3dde69ade87c13d9d8d1150e828", "is_disabled": 0, "rental_uris": {"android": "https://dc.lft.to/lastmile_qr_scan", "ios": "https://dc.lft.to/lastmile_qr_scan"}, "fusion_lon": 0.0, "lat": 38.904908166666665, "bike_id": "b15be3dde69ade87c13d9d8d1150e828", "type": "electric_scooter", "is_reserved": 0, "lon": -77.02957683333334}, {"fusion_lat": 0.0, "name": "10fc59194069a0df073d909887b915f0", "is_disabled": 0, "rental_uris": {"android": "https://dc.lft.to/lastmile_qr_scan", "ios": "https://dc.lft.to/lastmile_qr_scan"}, "fusion_lon": 0.0, "lat": 38.921531333333334, "bike_id": "10fc59194069a0df073d909887b915f0", "type": "electric_scooter", "is_reserved": 0, "lon": -77.03869883333333}, {"fusion_lat": 0.0, "name": "72a0ecbd0e46d01f324d3e42aeb54127", "is_disabled": 0, "rental_uris": {"android": "https://dc.lft.to/lastmile_qr_scan", "ios": "https://dc.lft.to/lastmile_qr_scan"}, "fusion_lon": 0.0, "lat": 38.919055666666665, "bike_id": "72a0ecbd0e46d01f324d3e42aeb54127", "type": "electric_scooter", "is_reserved": 0, "lon": -77.01214883333333}, {"fusion_lat": 0.0, "name": "eb58e509786ecc185bd8a8b205c9ba32", "is_disabled": 0, "rental_uris": {"android": "https://dc.lft.to/lastmile_qr_scan", "ios": "https://dc.lft.to/lastmile_qr_scan"}, "fusion_lon": 0.0, "lat": 38.890194, "bike_id": "eb58e509786ecc185bd8a8b205c9ba32", "type": "electric_scooter", "is_reserved": 0, "lon": -76.9371825}, {"fusion_lat": 0.0, "name": "971a53d6183b54c723f4e664a865bd0b", "is_disabled": 0, "rental_uris": {"android": "https://dc.lft.to/lastmile_qr_scan", "ios": "https://dc.lft.to/lastmile_qr_scan"}, "fusion_lon": 0.0, "lat": 38.935033, "bike_id": "971a53d6183b54c723f4e664a865bd0b", "type": "electric_scooter", "is_reserved": 0, "lon": -77.07364733333333}, {"fusion_lat": 0.0, "name": "a64b04100eda062f8c05bd976eedc142", "is_disabled": 0, "rental_uris": {"android": "https://dc.lft.to/lastmile_qr_scan", "ios": "https://dc.lft.to/lastmile_qr_scan"}, "fusion_lon": 0.0, "lat": 38.8871435, "bike_id": "a64b04100eda062f8c05bd976eedc142", "type": "electric_scooter", "is_reserved": 0, "lon": -77.017733}, {"fusion_lat": 0.0, "name": "138a642ccc54de27ce9dbec2af4fd009", "is_disabled": 0, "rental_uris": {"android": "https://dc.lft.to/lastmile_qr_scan", "ios": "https://dc.lft.to/lastmile_qr_scan"}, "fusion_lon": 0.0, "lat": 38.87379683333333, "bike_id": "138a642ccc54de27ce9dbec2af4fd009", "type": "electric_scooter", "is_reserved": 0, "lon": -77.001391}, {"fusion_lat": 0.0, "name": "8effb0188f1eb0c99ca2ddc6d9882319", "is_disabled": 0, "rental_uris": {"android": "https://dc.lft.to/lastmile_qr_scan", "ios": "https://dc.lft.to/lastmile_qr_scan"}, "fusion_lon": 0.0, "lat": 38.89490083333333, "bike_id": "8effb0188f1eb0c99ca2ddc6d9882319", "type": "electric_scooter", "is_reserved": 0, "lon": -77.00307616666667}, {"fusion_lat": 0.0, "name": "a170cc5ddc81bffe897e76543d5a06ce", "is_disabled": 0, "rental_uris": {"android": "https://dc.lft.to/lastmile_qr_scan", "ios": "https://dc.lft.to/lastmile_qr_scan"}, "fusion_lon": 0.0, "lat": 38.8948345, "bike_id": "a170cc5ddc81bffe897e76543d5a06ce", "type": "electric_scooter", "is_reserved": 0, "lon": -77.02013216666667}, {"fusion_lat": 0.0, "name": "d7510a06d910b76e651691fecbbe3c83", "is_disabled": 0, "rental_uris": {"android": "https://dc.lft.to/lastmile_qr_scan", "ios": "https://dc.lft.to/lastmile_qr_scan"}, "fusion_lon": 0.0, "lat": 38.9215085, "bike_id": "d7510a06d910b76e651691fecbbe3c83", "type": "electric_scooter", "is_reserved": 0, "lon": -77.02429633333334}, {"fusion_lat": 0.0, "name": "d8edd52ec2a4a88e4c8ff178b21a0431", "is_disabled": 0, "rental_uris": {"android": "https://dc.lft.to/lastmile_qr_scan", "ios": "https://dc.lft.to/lastmile_qr_scan"}, "fusion_lon": 0.0, "lat": 38.867639833333335, "bike_id": "d8edd52ec2a4a88e4c8ff178b21a0431", "type": "electric_scooter", "is_reserved": 0, "lon": -76.98271733333333}, {"fusion_lat": 0.0, "name": "db6dd5dfbca7656376791568a6fc7ab8", "is_disabled": 0, "rental_uris": {"android": "https://dc.lft.to/lastmile_qr_scan", "ios": "https://dc.lft.to/lastmile_qr_scan"}, "fusion_lon": 0.0, "lat": 38.88985783333333, "bike_id": "db6dd5dfbca7656376791568a6fc7ab8", "type": "electric_scooter", "is_reserved": 0, "lon": -76.977927}, {"fusion_lat": 0.0, "name": "1b210c102c386d8fb7a664d4e9bb8f18", "is_disabled": 0, "rental_uris": {"android": "https://dc.lft.to/lastmile_qr_scan", "ios": "https://dc.lft.to/lastmile_qr_scan"}, "fusion_lon": 0.0, "lat": 38.9162785, "bike_id": "1b210c102c386d8fb7a664d4e9bb8f18", "type": "electric_scooter", "is_reserved": 0, "lon": -77.02958083333333}, {"fusion_lat": 0.0, "name": "cc97de302f1efd94f1195faa05504301", "is_disabled": 0, "rental_uris": {"android": "https://dc.lft.to/lastmile_qr_scan", "ios": "https://dc.lft.to/lastmile_qr_scan"}, "fusion_lon": 0.0, "lat": 38.900573, "bike_id": "cc97de302f1efd94f1195faa05504301", "type": "electric_scooter", "is_reserved": 0, "lon": -76.98694883333333}, {"fusion_lat": 0.0, "name": "f975bda76ffd3c2bcac2d520929f426a", "is_disabled": 0, "rental_uris": {"android": "https://dc.lft.to/lastmile_qr_scan", "ios": "https://dc.lft.to/lastmile_qr_scan"}, "fusion_lon": 0.0, "lat": 39.01416616666667, "bike_id": "f975bda76ffd3c2bcac2d520929f426a", "type": "electric_bike", "is_reserved": 0, "lon": -77.044992}, {"fusion_lat": 0.0, "name": "1d1b1aa12920b012a72871e31cbfd754", "is_disabled": 0, "rental_uris": {"android": "https://dc.lft.to/lastmile_qr_scan", "ios": "https://dc.lft.to/lastmile_qr_scan"}, "fusion_lon": 0.0, "lat": 38.8161095, "bike_id": "1d1b1aa12920b012a72871e31cbfd754", "type": "electric_bike", "is_reserved": 0, "lon": -76.99656833333333}, {"fusion_lat": 0.0, "name": "e9b6dcc8896d60342dd7eaa9baa96902", "is_disabled": 0, "rental_uris": {"android": "https://dc.lft.to/lastmile_qr_scan", "ios": "https://dc.lft.to/lastmile_qr_scan"}, "fusion_lon": 0.0, "lat": 38.88507033333333, "bike_id": "e9b6dcc8896d60342dd7eaa9baa96902", "type": "electric_scooter", "is_reserved": 0, "lon": -76.997486}, {"fusion_lat": 0.0, "name": "7b77ff430390c75212519c7e0d3e79e4", "is_disabled": 0, "rental_uris": {"android": "https://dc.lft.to/lastmile_qr_scan", "ios": "https://dc.lft.to/lastmile_qr_scan"}, "fusion_lon": 0.0, "lat": 38.909583833333336, "bike_id": "7b77ff430390c75212519c7e0d3e79e4", "type": "electric_scooter", "is_reserved": 0, "lon": -77.03330433333333}, {"fusion_lat": 0.0, "name": "b77994dcf1744da9ff92be8ef916f192", "is_disabled": 0, "rental_uris": {"android": "https://dc.lft.to/lastmile_qr_scan", "ios": "https://dc.lft.to/lastmile_qr_scan"}, "fusion_lon": 0.0, "lat": 38.921655, "bike_id": "b77994dcf1744da9ff92be8ef916f192", "type": "electric_scooter", "is_reserved": 0, "lon": -77.0209295}, {"fusion_lat": 0.0, "name": "2dd18ed9d1d0edd7448c7c45ca89c7d8", "is_disabled": 0, "rental_uris": {"android": "https://dc.lft.to/lastmile_qr_scan", "ios": "https://dc.lft.to/lastmile_qr_scan"}, "fusion_lon": 0.0, "lat": 38.87935866666667, "bike_id": "2dd18ed9d1d0edd7448c7c45ca89c7d8", "type": "electric_scooter", "is_reserved": 0, "lon": -77.02364433333334}, {"fusion_lat": 0.0, "name": "b7ed3c06da5c8154a225599d7e9004db", "is_disabled": 0, "rental_uris": {"android": "https://dc.lft.to/lastmile_qr_scan", "ios": "https://dc.lft.to/lastmile_qr_scan"}, "fusion_lon": 0.0, "lat": 38.8491795, "bike_id": "b7ed3c06da5c8154a225599d7e9004db", "type": "electric_bike", "is_reserved": 0, "lon": -77.07929066666667}, {"fusion_lat": 0.0, "name": "6c4d8e5de6c11b9f63ea23f105c5d407", "is_disabled": 0, "rental_uris": {"android": "https://dc.lft.to/lastmile_qr_scan", "ios": "https://dc.lft.to/lastmile_qr_scan"}, "fusion_lon": 0.0, "lat": 38.89086533333333, "bike_id": "6c4d8e5de6c11b9f63ea23f105c5d407", "type": "electric_scooter", "is_reserved": 0, "lon": -76.91927316666667}, {"fusion_lat": 0.0, "name": "c4d9a08d83717464af20614e21c4d738", "is_disabled": 0, "rental_uris": {"android": "https://dc.lft.to/lastmile_qr_scan", "ios": "https://dc.lft.to/lastmile_qr_scan"}, "fusion_lon": 0.0, "lat": 38.938139, "bike_id": "c4d9a08d83717464af20614e21c4d738", "type": "electric_scooter", "is_reserved": 0, "lon": -76.99689883333333}, {"fusion_lat": 0.0, "name": "8eacbd11b20753f4b4d83c9ec39f019b", "is_disabled": 0, "rental_uris": {"android": "https://dc.lft.to/lastmile_qr_scan", "ios": "https://dc.lft.to/lastmile_qr_scan"}, "fusion_lon": 0.0, "lat": 38.90886966666667, "bike_id": "8eacbd11b20753f4b4d83c9ec39f019b", "type": "electric_scooter", "is_reserved": 0, "lon": -77.0434025}, {"fusion_lat": 0.0, "name": "6be66c994883e3188c7cbef9129fbea2", "is_disabled": 0, "rental_uris": {"android": "https://dc.lft.to/lastmile_qr_scan", "ios": "https://dc.lft.to/lastmile_qr_scan"}, "fusion_lon": 0.0, "lat": 38.94432783333333, "bike_id": "6be66c994883e3188c7cbef9129fbea2", "type": "electric_bike", "is_reserved": 0, "lon": -77.026024}, {"fusion_lat": 0.0, "name": "a2ab08d3c81e547e2eef02523283f397", "is_disabled": 0, "rental_uris": {"android": "https://dc.lft.to/lastmile_qr_scan", "ios": "https://dc.lft.to/lastmile_qr_scan"}, "fusion_lon": 0.0, "lat": 38.93244766666667, "bike_id": "a2ab08d3c81e547e2eef02523283f397", "type": "electric_scooter", "is_reserved": 0, "lon": -77.03423983333333}, {"fusion_lat": 0.0, "name": "bfb1de462b96aa38afdba71028bbd951", "is_disabled": 0, "rental_uris": {"android": "https://dc.lft.to/lastmile_qr_scan", "ios": "https://dc.lft.to/lastmile_qr_scan"}, "fusion_lon": 0.0, "lat": 38.91406583333333, "bike_id": "bfb1de462b96aa38afdba71028bbd951", "type": "electric_scooter", "is_reserved": 0, "lon": -77.03230133333334}, {"fusion_lat": 0.0, "name": "968196161eae42a973c2b10f632a1fe6", "is_disabled": 0, "rental_uris": {"android": "https://dc.lft.to/lastmile_qr_scan", "ios": "https://dc.lft.to/lastmile_qr_scan"}, "fusion_lon": 0.0, "lat": 38.92614, "bike_id": "968196161eae42a973c2b10f632a1fe6", "type": "electric_scooter", "is_reserved": 0, "lon": -77.021643}, {"fusion_lat": 0.0, "name": "e2380229251fc14066aff4d7dd501ec3", "is_disabled": 0, "rental_uris": {"android": "https://dc.lft.to/lastmile_qr_scan", "ios": "https://dc.lft.to/lastmile_qr_scan"}, "fusion_lon": 0.0, "lat": 38.88575633333333, "bike_id": "e2380229251fc14066aff4d7dd501ec3", "type": "electric_scooter", "is_reserved": 0, "lon": -77.012137}, {"fusion_lat": 0.0, "name": "284f56678e8817b8abec5b2f1d2ef590", "is_disabled": 0, "rental_uris": {"android": "https://dc.lft.to/lastmile_qr_scan", "ios": "https://dc.lft.to/lastmile_qr_scan"}, "fusion_lon": 0.0, "lat": 38.90606833333333, "bike_id": "284f56678e8817b8abec5b2f1d2ef590", "type": "electric_scooter", "is_reserved": 0, "lon": -77.06481266666667}, {"fusion_lat": 0.0, "name": "d04b1232dc511afa426d5e2c43f03836", "is_disabled": 0, "rental_uris": {"android": "https://dc.lft.to/lastmile_qr_scan", "ios": "https://dc.lft.to/lastmile_qr_scan"}, "fusion_lon": 0.0, "lat": 38.922548, "bike_id": "d04b1232dc511afa426d5e2c43f03836", "type": "electric_scooter", "is_reserved": 0, "lon": -77.038951}, {"fusion_lat": 0.0, "name": "424c24baade06b96b7ede9149cc4a456", "is_disabled": 0, "rental_uris": {"android": "https://dc.lft.to/lastmile_qr_scan", "ios": "https://dc.lft.to/lastmile_qr_scan"}, "fusion_lon": 0.0, "lat": 38.898567166666666, "bike_id": "424c24baade06b96b7ede9149cc4a456", "type": "electric_scooter", "is_reserved": 0, "lon": -76.97668866666666}, {"fusion_lat": 0.0, "name": "33c939857faa4a4a0f6ce38b9b055b04", "is_disabled": 0, "rental_uris": {"android": "https://dc.lft.to/lastmile_qr_scan", "ios": "https://dc.lft.to/lastmile_qr_scan"}, "fusion_lon": 0.0, "lat": 38.7985225, "bike_id": "33c939857faa4a4a0f6ce38b9b055b04", "type": "electric_bike", "is_reserved": 0, "lon": -77.06311616666666}, {"fusion_lat": 0.0, "name": "ce16d67418a0e64097149612f1d315bd", "is_disabled": 0, "rental_uris": {"android": "https://dc.lft.to/lastmile_qr_scan", "ios": "https://dc.lft.to/lastmile_qr_scan"}, "fusion_lon": 0.0, "lat": 38.91249283333333, "bike_id": "ce16d67418a0e64097149612f1d315bd", "type": "electric_scooter", "is_reserved": 0, "lon": -77.0199555}, {"fusion_lat": 0.0, "name": "41fc89240eecc28774803b5bb4838922", "is_disabled": 0, "rental_uris": {"android": "https://dc.lft.to/lastmile_qr_scan", "ios": "https://dc.lft.to/lastmile_qr_scan"}, "fusion_lon": 0.0, "lat": 38.896741666666664, "bike_id": "41fc89240eecc28774803b5bb4838922", "type": "electric_bike", "is_reserved": 0, "lon": -76.98689983333334}, {"fusion_lat": 0.0, "name": "189e20d2e9029c8f2c205484b663e89f", "is_disabled": 0, "rental_uris": {"android": "https://dc.lft.to/lastmile_qr_scan", "ios": "https://dc.lft.to/lastmile_qr_scan"}, "fusion_lon": 0.0, "lat": 38.88189766666667, "bike_id": "189e20d2e9029c8f2c205484b663e89f", "type": "electric_scooter", "is_reserved": 0, "lon": -77.0287515}, {"fusion_lat": 0.0, "name": "af3deb991f241d404948af62dda5f2c8", "is_disabled": 0, "rental_uris": {"android": "https://dc.lft.to/lastmile_qr_scan", "ios": "https://dc.lft.to/lastmile_qr_scan"}, "fusion_lon": 0.0, "lat": 38.884922833333334, "bike_id": "af3deb991f241d404948af62dda5f2c8", "type": "electric_scooter", "is_reserved": 0, "lon": -77.010855}, {"fusion_lat": 0.0, "name": "82d202cddd4ee8b1d8b84d6bed7e768e", "is_disabled": 0, "rental_uris": {"android": "https://dc.lft.to/lastmile_qr_scan", "ios": "https://dc.lft.to/lastmile_qr_scan"}, "fusion_lon": 0.0, "lat": 38.913207, "bike_id": "82d202cddd4ee8b1d8b84d6bed7e768e", "type": "electric_scooter", "is_reserved": 0, "lon": -77.021239}, {"fusion_lat": 0.0, "name": "64bd60ab92f5d6694e8173db5bafa275", "is_disabled": 0, "rental_uris": {"android": "https://dc.lft.to/lastmile_qr_scan", "ios": "https://dc.lft.to/lastmile_qr_scan"}, "fusion_lon": 0.0, "lat": 38.89722883333334, "bike_id": "64bd60ab92f5d6694e8173db5bafa275", "type": "electric_scooter", "is_reserved": 0, "lon": -77.02603333333333}, {"fusion_lat": 0.0, "name": "4780c7b2234552f621d7abbb5d3854c3", "is_disabled": 0, "rental_uris": {"android": "https://dc.lft.to/lastmile_qr_scan", "ios": "https://dc.lft.to/lastmile_qr_scan"}, "fusion_lon": 0.0, "lat": 38.908642666666665, "bike_id": "4780c7b2234552f621d7abbb5d3854c3", "type": "electric_scooter", "is_reserved": 0, "lon": -76.99957383333333}, {"fusion_lat": 0.0, "name": "2fc608d41ab154d2bab5cad4ea3d756d", "is_disabled": 0, "rental_uris": {"android": "https://dc.lft.to/lastmile_qr_scan", "ios": "https://dc.lft.to/lastmile_qr_scan"}, "fusion_lon": 0.0, "lat": 38.8833785, "bike_id": "2fc608d41ab154d2bab5cad4ea3d756d", "type": "electric_scooter", "is_reserved": 0, "lon": -77.016483}, {"fusion_lat": 0.0, "name": "4ebf3969473d2e1ee3f3858df00cd4cc", "is_disabled": 0, "rental_uris": {"android": "https://dc.lft.to/lastmile_qr_scan", "ios": "https://dc.lft.to/lastmile_qr_scan"}, "fusion_lon": 0.0, "lat": 38.92133183333333, "bike_id": "4ebf3969473d2e1ee3f3858df00cd4cc", "type": "electric_scooter", "is_reserved": 0, "lon": -77.04353683333333}, {"fusion_lat": 0.0, "name": "62aca31d9df2a1caf1d6d903f9b01ba6", "is_disabled": 0, "rental_uris": {"android": "https://dc.lft.to/lastmile_qr_scan", "ios": "https://dc.lft.to/lastmile_qr_scan"}, "fusion_lon": 0.0, "lat": 38.923288666666664, "bike_id": "62aca31d9df2a1caf1d6d903f9b01ba6", "type": "electric_scooter", "is_reserved": 0, "lon": -77.042953}, {"fusion_lat": 0.0, "name": "80bee5236add724ba579c00f99022840", "is_disabled": 0, "rental_uris": {"android": "https://dc.lft.to/lastmile_qr_scan", "ios": "https://dc.lft.to/lastmile_qr_scan"}, "fusion_lon": 0.0, "lat": 38.890170833333336, "bike_id": "80bee5236add724ba579c00f99022840", "type": "electric_scooter", "is_reserved": 0, "lon": -76.93726516666666}, {"fusion_lat": 0.0, "name": "2bf362b8d78b2f971b6bfb39cf2e5ceb", "is_disabled": 0, "rental_uris": {"android": "https://dc.lft.to/lastmile_qr_scan", "ios": "https://dc.lft.to/lastmile_qr_scan"}, "fusion_lon": 0.0, "lat": 38.870897166666666, "bike_id": "2bf362b8d78b2f971b6bfb39cf2e5ceb", "type": "electric_scooter", "is_reserved": 0, "lon": -77.0121375}, {"fusion_lat": 0.0, "name": "83e4eddf44504e50572fb8ba3b4ef2cc", "is_disabled": 0, "rental_uris": {"android": "https://dc.lft.to/lastmile_qr_scan", "ios": "https://dc.lft.to/lastmile_qr_scan"}, "fusion_lon": 0.0, "lat": 38.92997916666667, "bike_id": "83e4eddf44504e50572fb8ba3b4ef2cc", "type": "electric_scooter", "is_reserved": 0, "lon": -77.03805366666667}, {"fusion_lat": 0.0, "name": "835ecc412c52fece1f5093ece33aa1ad", "is_disabled": 0, "rental_uris": {"android": "https://dc.lft.to/lastmile_qr_scan", "ios": "https://dc.lft.to/lastmile_qr_scan"}, "fusion_lon": 0.0, "lat": 38.920774, "bike_id": "835ecc412c52fece1f5093ece33aa1ad", "type": "electric_scooter", "is_reserved": 0, "lon": -77.02310933333334}, {"fusion_lat": 0.0, "name": "5f9e580b303061170d5d089d3b4dc43f", "is_disabled": 0, "rental_uris": {"android": "https://dc.lft.to/lastmile_qr_scan", "ios": "https://dc.lft.to/lastmile_qr_scan"}, "fusion_lon": 0.0, "lat": 38.898636333333336, "bike_id": "5f9e580b303061170d5d089d3b4dc43f", "type": "electric_scooter", "is_reserved": 0, "lon": -77.02823216666667}, {"fusion_lat": 0.0, "name": "19d2aad31b4f18743ef8a4ab035abc59", "is_disabled": 0, "rental_uris": {"android": "https://dc.lft.to/lastmile_qr_scan", "ios": "https://dc.lft.to/lastmile_qr_scan"}, "fusion_lon": 0.0, "lat": 38.909678666666665, "bike_id": "19d2aad31b4f18743ef8a4ab035abc59", "type": "electric_scooter", "is_reserved": 0, "lon": -77.04732716666666}, {"fusion_lat": 0.0, "name": "faa409c48e5d4c8d08500cd5ea8bfc43", "is_disabled": 0, "rental_uris": {"android": "https://dc.lft.to/lastmile_qr_scan", "ios": "https://dc.lft.to/lastmile_qr_scan"}, "fusion_lon": 0.0, "lat": 38.920697833333335, "bike_id": "faa409c48e5d4c8d08500cd5ea8bfc43", "type": "electric_scooter", "is_reserved": 0, "lon": -77.04378883333334}, {"fusion_lat": 0.0, "name": "172c9263b7e70eb24880a629b7c9e15e", "is_disabled": 0, "rental_uris": {"android": "https://dc.lft.to/lastmile_qr_scan", "ios": "https://dc.lft.to/lastmile_qr_scan"}, "fusion_lon": 0.0, "lat": 38.91565116666666, "bike_id": "172c9263b7e70eb24880a629b7c9e15e", "type": "electric_scooter", "is_reserved": 0, "lon": -77.031471}, {"fusion_lat": 0.0, "name": "60271e77e2ad171bda54b43c2441452b", "is_disabled": 0, "rental_uris": {"android": "https://dc.lft.to/lastmile_qr_scan", "ios": "https://dc.lft.to/lastmile_qr_scan"}, "fusion_lon": 0.0, "lat": 38.92081833333334, "bike_id": "60271e77e2ad171bda54b43c2441452b", "type": "electric_scooter", "is_reserved": 0, "lon": -77.02403}, {"fusion_lat": 0.0, "name": "28e45eb17d96bb54390786853a86eada", "is_disabled": 0, "rental_uris": {"android": "https://dc.lft.to/lastmile_qr_scan", "ios": "https://dc.lft.to/lastmile_qr_scan"}, "fusion_lon": 0.0, "lat": 38.883924, "bike_id": "28e45eb17d96bb54390786853a86eada", "type": "electric_scooter", "is_reserved": 0, "lon": -77.03038566666666}, {"fusion_lat": 0.0, "name": "48071660cb2f4714d382d0b35cf316dd", "is_disabled": 0, "rental_uris": {"android": "https://dc.lft.to/lastmile_qr_scan", "ios": "https://dc.lft.to/lastmile_qr_scan"}, "fusion_lon": 0.0, "lat": 38.93199333333333, "bike_id": "48071660cb2f4714d382d0b35cf316dd", "type": "electric_scooter", "is_reserved": 0, "lon": -77.02503416666667}, {"fusion_lat": 0.0, "name": "9dad71068b48f134281aa8d377b5b138", "is_disabled": 0, "rental_uris": {"android": "https://dc.lft.to/lastmile_qr_scan", "ios": "https://dc.lft.to/lastmile_qr_scan"}, "fusion_lon": 0.0, "lat": 38.87817883333334, "bike_id": "9dad71068b48f134281aa8d377b5b138", "type": "electric_scooter", "is_reserved": 0, "lon": -76.99008733333334}, {"fusion_lat": 0.0, "name": "5f2d4d46c6f59047a09333a9faf266f6", "is_disabled": 0, "rental_uris": {"android": "https://dc.lft.to/lastmile_qr_scan", "ios": "https://dc.lft.to/lastmile_qr_scan"}, "fusion_lon": 0.0, "lat": 39.041823666666666, "bike_id": "5f2d4d46c6f59047a09333a9faf266f6", "type": "electric_bike", "is_reserved": 0, "lon": -77.05238633333333}, {"fusion_lat": 0.0, "name": "9295497f72ebeb749fb60b2bcff5ab00", "is_disabled": 0, "rental_uris": {"android": "https://dc.lft.to/lastmile_qr_scan", "ios": "https://dc.lft.to/lastmile_qr_scan"}, "fusion_lon": 0.0, "lat": 38.923230333333336, "bike_id": "9295497f72ebeb749fb60b2bcff5ab00", "type": "electric_scooter", "is_reserved": 0, "lon": -77.02969866666666}, {"fusion_lat": 0.0, "name": "0780dbc138df63a6f2d7b9da06ec03fd", "is_disabled": 0, "rental_uris": {"android": "https://dc.lft.to/lastmile_qr_scan", "ios": "https://dc.lft.to/lastmile_qr_scan"}, "fusion_lon": 0.0, "lat": 38.838564833333336, "bike_id": "0780dbc138df63a6f2d7b9da06ec03fd", "type": "electric_scooter", "is_reserved": 0, "lon": -76.99703983333333}, {"fusion_lat": 0.0, "name": "cb8b0a4bac70f724cd7a9f49a9c03879", "is_disabled": 0, "rental_uris": {"android": "https://dc.lft.to/lastmile_qr_scan", "ios": "https://dc.lft.to/lastmile_qr_scan"}, "fusion_lon": 0.0, "lat": 38.883273, "bike_id": "cb8b0a4bac70f724cd7a9f49a9c03879", "type": "electric_scooter", "is_reserved": 0, "lon": -77.01823566666667}, {"fusion_lat": 0.0, "name": "3ce96d3b37eed77e1a659eb434a8d7ce", "is_disabled": 0, "rental_uris": {"android": "https://dc.lft.to/lastmile_qr_scan", "ios": "https://dc.lft.to/lastmile_qr_scan"}, "fusion_lon": 0.0, "lat": 38.91328466666667, "bike_id": "3ce96d3b37eed77e1a659eb434a8d7ce", "type": "electric_scooter", "is_reserved": 0, "lon": -77.031849}, {"fusion_lat": 0.0, "name": "ce5df7dee407f6e24c4330962969dfd6", "is_disabled": 0, "rental_uris": {"android": "https://dc.lft.to/lastmile_qr_scan", "ios": "https://dc.lft.to/lastmile_qr_scan"}, "fusion_lon": 0.0, "lat": 38.909982, "bike_id": "ce5df7dee407f6e24c4330962969dfd6", "type": "electric_scooter", "is_reserved": 0, "lon": -77.030856}, {"fusion_lat": 0.0, "name": "897547717b9a1165cf88341b696b1d6e", "is_disabled": 0, "rental_uris": {"android": "https://dc.lft.to/lastmile_qr_scan", "ios": "https://dc.lft.to/lastmile_qr_scan"}, "fusion_lon": 0.0, "lat": 38.9182015, "bike_id": "897547717b9a1165cf88341b696b1d6e", "type": "electric_scooter", "is_reserved": 0, "lon": -77.0252475}, {"fusion_lat": 0.0, "name": "03afdb6ab846952d646fba1e1ad5f532", "is_disabled": 0, "rental_uris": {"android": "https://dc.lft.to/lastmile_qr_scan", "ios": "https://dc.lft.to/lastmile_qr_scan"}, "fusion_lon": 0.0, "lat": 38.9037185, "bike_id": "03afdb6ab846952d646fba1e1ad5f532", "type": "electric_scooter", "is_reserved": 0, "lon": -77.00734966666667}, {"fusion_lat": 0.0, "name": "c2ecae4e90edf8862780b45689fc8d23", "is_disabled": 0, "rental_uris": {"android": "https://dc.lft.to/lastmile_qr_scan", "ios": "https://dc.lft.to/lastmile_qr_scan"}, "fusion_lon": 0.0, "lat": 38.92456216666667, "bike_id": "c2ecae4e90edf8862780b45689fc8d23", "type": "electric_scooter", "is_reserved": 0, "lon": -77.08029933333333}, {"fusion_lat": 0.0, "name": "bba85d0afeba3a2c70532b447b1e6cf8", "is_disabled": 0, "rental_uris": {"android": "https://dc.lft.to/lastmile_qr_scan", "ios": "https://dc.lft.to/lastmile_qr_scan"}, "fusion_lon": 0.0, "lat": 38.9673065, "bike_id": "bba85d0afeba3a2c70532b447b1e6cf8", "type": "electric_scooter", "is_reserved": 0, "lon": -77.009187}, {"fusion_lat": 0.0, "name": "eac7a9d2d6015c3d7d935b512edeb03c", "is_disabled": 0, "rental_uris": {"android": "https://dc.lft.to/lastmile_qr_scan", "ios": "https://dc.lft.to/lastmile_qr_scan"}, "fusion_lon": 0.0, "lat": 38.90501833333333, "bike_id": "eac7a9d2d6015c3d7d935b512edeb03c", "type": "electric_scooter", "is_reserved": 0, "lon": -77.0575175}, {"fusion_lat": 0.0, "name": "d09c2ba8d6b760a5e938e23db098a918", "is_disabled": 0, "rental_uris": {"android": "https://dc.lft.to/lastmile_qr_scan", "ios": "https://dc.lft.to/lastmile_qr_scan"}, "fusion_lon": 0.0, "lat": 38.89259033333333, "bike_id": "d09c2ba8d6b760a5e938e23db098a918", "type": "electric_bike", "is_reserved": 0, "lon": -76.9511735}, {"fusion_lat": 0.0, "name": "f543908df505b5476359c6b1218d99de", "is_disabled": 0, "rental_uris": {"android": "https://dc.lft.to/lastmile_qr_scan", "ios": "https://dc.lft.to/lastmile_qr_scan"}, "fusion_lon": 0.0, "lat": 38.9524515, "bike_id": "f543908df505b5476359c6b1218d99de", "type": "electric_scooter", "is_reserved": 0, "lon": -77.02374733333333}, {"fusion_lat": 0.0, "name": "d3f2ab06f705f425d75b8119ce468cb1", "is_disabled": 0, "rental_uris": {"android": "https://dc.lft.to/lastmile_qr_scan", "ios": "https://dc.lft.to/lastmile_qr_scan"}, "fusion_lon": 0.0, "lat": 38.893491166666664, "bike_id": "d3f2ab06f705f425d75b8119ce468cb1", "type": "electric_scooter", "is_reserved": 0, "lon": -77.0007145}, {"fusion_lat": 0.0, "name": "62286b0a16bf4888f276f932b35703c4", "is_disabled": 0, "rental_uris": {"android": "https://dc.lft.to/lastmile_qr_scan", "ios": "https://dc.lft.to/lastmile_qr_scan"}, "fusion_lon": 0.0, "lat": 38.9057605, "bike_id": "62286b0a16bf4888f276f932b35703c4", "type": "electric_scooter", "is_reserved": 0, "lon": -77.04286166666667}, {"fusion_lat": 0.0, "name": "1415f2f1de29c12eb2dc63cacd8b1d82", "is_disabled": 0, "rental_uris": {"android": "https://dc.lft.to/lastmile_qr_scan", "ios": "https://dc.lft.to/lastmile_qr_scan"}, "fusion_lon": 0.0, "lat": 38.9135895, "bike_id": "1415f2f1de29c12eb2dc63cacd8b1d82", "type": "electric_scooter", "is_reserved": 0, "lon": -77.02051833333333}, {"fusion_lat": 0.0, "name": "0a353f46ae51983579c307a20f7ec8a0", "is_disabled": 0, "rental_uris": {"android": "https://dc.lft.to/lastmile_qr_scan", "ios": "https://dc.lft.to/lastmile_qr_scan"}, "fusion_lon": 0.0, "lat": 38.896246166666664, "bike_id": "0a353f46ae51983579c307a20f7ec8a0", "type": "electric_scooter", "is_reserved": 0, "lon": -77.02639616666667}, {"fusion_lat": 0.0, "name": "6d4b0b88621e75824f8397b9bc1aea43", "is_disabled": 0, "rental_uris": {"android": "https://dc.lft.to/lastmile_qr_scan", "ios": "https://dc.lft.to/lastmile_qr_scan"}, "fusion_lon": 0.0, "lat": 38.91914766666667, "bike_id": "6d4b0b88621e75824f8397b9bc1aea43", "type": "electric_scooter", "is_reserved": 0, "lon": -77.026176}, {"fusion_lat": 0.0, "name": "39fa4836f67c6e8f114349af8ff77e42", "is_disabled": 0, "rental_uris": {"android": "https://dc.lft.to/lastmile_qr_scan", "ios": "https://dc.lft.to/lastmile_qr_scan"}, "fusion_lon": 0.0, "lat": 38.89329, "bike_id": "39fa4836f67c6e8f114349af8ff77e42", "type": "electric_scooter", "is_reserved": 0, "lon": -77.02247666666666}, {"fusion_lat": 0.0, "name": "b8cd25099af12a01333593d4d300eb1a", "is_disabled": 0, "rental_uris": {"android": "https://dc.lft.to/lastmile_qr_scan", "ios": "https://dc.lft.to/lastmile_qr_scan"}, "fusion_lon": 0.0, "lat": 38.924502333333336, "bike_id": "b8cd25099af12a01333593d4d300eb1a", "type": "electric_scooter", "is_reserved": 0, "lon": -77.0402225}, {"fusion_lat": 0.0, "name": "44a35a3ffe4a5fa35bb4b0bb8100f693", "is_disabled": 0, "rental_uris": {"android": "https://dc.lft.to/lastmile_qr_scan", "ios": "https://dc.lft.to/lastmile_qr_scan"}, "fusion_lon": 0.0, "lat": 38.897374666666664, "bike_id": "44a35a3ffe4a5fa35bb4b0bb8100f693", "type": "electric_scooter", "is_reserved": 0, "lon": -77.00331983333334}, {"fusion_lat": 0.0, "name": "71babb6fc58306e5362d3c613ac5fe63", "is_disabled": 0, "rental_uris": {"android": "https://dc.lft.to/lastmile_qr_scan", "ios": "https://dc.lft.to/lastmile_qr_scan"}, "fusion_lon": 0.0, "lat": 38.94227016666667, "bike_id": "71babb6fc58306e5362d3c613ac5fe63", "type": "electric_scooter", "is_reserved": 0, "lon": -77.01384416666667}, {"fusion_lat": 0.0, "name": "e3f88e842b15e083ebf1b5c9cf44721f", "is_disabled": 0, "rental_uris": {"android": "https://dc.lft.to/lastmile_qr_scan", "ios": "https://dc.lft.to/lastmile_qr_scan"}, "fusion_lon": 0.0, "lat": 38.920770833333336, "bike_id": "e3f88e842b15e083ebf1b5c9cf44721f", "type": "electric_bike", "is_reserved": 0, "lon": -76.98947966666667}, {"fusion_lat": 0.0, "name": "05392ac0185dee1f6e0a2de01aae9b81", "is_disabled": 0, "rental_uris": {"android": "https://dc.lft.to/lastmile_qr_scan", "ios": "https://dc.lft.to/lastmile_qr_scan"}, "fusion_lon": 0.0, "lat": 38.905054666666665, "bike_id": "05392ac0185dee1f6e0a2de01aae9b81", "type": "electric_scooter", "is_reserved": 0, "lon": -77.06509716666666}, {"fusion_lat": 0.0, "name": "99402890adb51841ee70aa0823c34091", "is_disabled": 0, "rental_uris": {"android": "https://dc.lft.to/lastmile_qr_scan", "ios": "https://dc.lft.to/lastmile_qr_scan"}, "fusion_lon": 0.0, "lat": 38.88530083333333, "bike_id": "99402890adb51841ee70aa0823c34091", "type": "electric_scooter", "is_reserved": 0, "lon": -77.01517}, {"fusion_lat": 0.0, "name": "f5eba3cc596051781e329efdc73389a1", "is_disabled": 0, "rental_uris": {"android": "https://dc.lft.to/lastmile_qr_scan", "ios": "https://dc.lft.to/lastmile_qr_scan"}, "fusion_lon": 0.0, "lat": 38.928241666666665, "bike_id": "f5eba3cc596051781e329efdc73389a1", "type": "electric_scooter", "is_reserved": 0, "lon": -77.02257616666667}, {"fusion_lat": 0.0, "name": "e811578c5139fb46cd3ff8589055cce7", "is_disabled": 0, "rental_uris": {"android": "https://dc.lft.to/lastmile_qr_scan", "ios": "https://dc.lft.to/lastmile_qr_scan"}, "fusion_lon": 0.0, "lat": 38.887264, "bike_id": "e811578c5139fb46cd3ff8589055cce7", "type": "electric_scooter", "is_reserved": 0, "lon": -76.9835665}, {"fusion_lat": 0.0, "name": "d8bd7e49fa66f0611022a363d73e27b3", "is_disabled": 0, "rental_uris": {"android": "https://dc.lft.to/lastmile_qr_scan", "ios": "https://dc.lft.to/lastmile_qr_scan"}, "fusion_lon": 0.0, "lat": 38.90260633333333, "bike_id": "d8bd7e49fa66f0611022a363d73e27b3", "type": "electric_scooter", "is_reserved": 0, "lon": -77.01721583333334}, {"fusion_lat": 0.0, "name": "a193a0513980621be33db2c49a896339", "is_disabled": 0, "rental_uris": {"android": "https://dc.lft.to/lastmile_qr_scan", "ios": "https://dc.lft.to/lastmile_qr_scan"}, "fusion_lon": 0.0, "lat": 38.90698583333333, "bike_id": "a193a0513980621be33db2c49a896339", "type": "electric_scooter", "is_reserved": 0, "lon": -76.99974766666666}, {"fusion_lat": 0.0, "name": "427890f2c00b319cc53bd1f08746e92a", "is_disabled": 0, "rental_uris": {"android": "https://dc.lft.to/lastmile_qr_scan", "ios": "https://dc.lft.to/lastmile_qr_scan"}, "fusion_lon": 0.0, "lat": 38.93649083333333, "bike_id": "427890f2c00b319cc53bd1f08746e92a", "type": "electric_scooter", "is_reserved": 0, "lon": -77.03049683333333}, {"fusion_lat": 0.0, "name": "4e10e5b1228e8b83dc946b19a2e3cbef", "is_disabled": 0, "rental_uris": {"android": "https://dc.lft.to/lastmile_qr_scan", "ios": "https://dc.lft.to/lastmile_qr_scan"}, "fusion_lon": 0.0, "lat": 38.88524533333333, "bike_id": "4e10e5b1228e8b83dc946b19a2e3cbef", "type": "electric_scooter", "is_reserved": 0, "lon": -76.9292045}, {"fusion_lat": 0.0, "name": "fd4c54bbfd2dcd6a3c23d7b47687263b", "is_disabled": 0, "rental_uris": {"android": "https://dc.lft.to/lastmile_qr_scan", "ios": "https://dc.lft.to/lastmile_qr_scan"}, "fusion_lon": 0.0, "lat": 38.90513, "bike_id": "fd4c54bbfd2dcd6a3c23d7b47687263b", "type": "electric_scooter", "is_reserved": 0, "lon": -77.056769}, {"fusion_lat": 0.0, "name": "0c9dacc09b957f67809d033e87478064", "is_disabled": 0, "rental_uris": {"android": "https://dc.lft.to/lastmile_qr_scan", "ios": "https://dc.lft.to/lastmile_qr_scan"}, "fusion_lon": 0.0, "lat": 38.91963633333334, "bike_id": "0c9dacc09b957f67809d033e87478064", "type": "electric_scooter", "is_reserved": 0, "lon": -77.02471416666667}, {"fusion_lat": 0.0, "name": "b44c56fed15375a815cca9bcc687fbc3", "is_disabled": 0, "rental_uris": {"android": "https://dc.lft.to/lastmile_qr_scan", "ios": "https://dc.lft.to/lastmile_qr_scan"}, "fusion_lon": 0.0, "lat": 38.899119166666665, "bike_id": "b44c56fed15375a815cca9bcc687fbc3", "type": "electric_scooter", "is_reserved": 0, "lon": -76.94587883333334}, {"fusion_lat": 0.0, "name": "ec0627aa6452e390264bbc44d4b06cf3", "is_disabled": 0, "rental_uris": {"android": "https://dc.lft.to/lastmile_qr_scan", "ios": "https://dc.lft.to/lastmile_qr_scan"}, "fusion_lon": 0.0, "lat": 38.921447, "bike_id": "ec0627aa6452e390264bbc44d4b06cf3", "type": "electric_scooter", "is_reserved": 0, "lon": -77.01801283333333}, {"fusion_lat": 0.0, "name": "d77c6958fe69cb26e97c3b4ec54f48c1", "is_disabled": 0, "rental_uris": {"android": "https://dc.lft.to/lastmile_qr_scan", "ios": "https://dc.lft.to/lastmile_qr_scan"}, "fusion_lon": 0.0, "lat": 38.919953, "bike_id": "d77c6958fe69cb26e97c3b4ec54f48c1", "type": "electric_scooter", "is_reserved": 0, "lon": -77.0239695}, {"fusion_lat": 0.0, "name": "c3d02ea386f0899449927a5a6f59390f", "is_disabled": 0, "rental_uris": {"android": "https://dc.lft.to/lastmile_qr_scan", "ios": "https://dc.lft.to/lastmile_qr_scan"}, "fusion_lon": 0.0, "lat": 38.91683, "bike_id": "c3d02ea386f0899449927a5a6f59390f", "type": "electric_scooter", "is_reserved": 0, "lon": -77.02306533333334}, {"fusion_lat": 0.0, "name": "0624234b1b3fc8e278c1b740324cd5a6", "is_disabled": 0, "rental_uris": {"android": "https://dc.lft.to/lastmile_qr_scan", "ios": "https://dc.lft.to/lastmile_qr_scan"}, "fusion_lon": 0.0, "lat": 38.916929833333334, "bike_id": "0624234b1b3fc8e278c1b740324cd5a6", "type": "electric_scooter", "is_reserved": 0, "lon": -77.03226033333333}, {"fusion_lat": 0.0, "name": "ad66c5ee7c1f9542e65798122c11d4d3", "is_disabled": 0, "rental_uris": {"android": "https://dc.lft.to/lastmile_qr_scan", "ios": "https://dc.lft.to/lastmile_qr_scan"}, "fusion_lon": 0.0, "lat": 38.89911333333333, "bike_id": "ad66c5ee7c1f9542e65798122c11d4d3", "type": "electric_scooter", "is_reserved": 0, "lon": -76.93353183333333}, {"fusion_lat": 0.0, "name": "ea7bc9eb63c6a56c86e0fe7d7846b8a1", "is_disabled": 0, "rental_uris": {"android": "https://dc.lft.to/lastmile_qr_scan", "ios": "https://dc.lft.to/lastmile_qr_scan"}, "fusion_lon": 0.0, "lat": 38.8757965, "bike_id": "ea7bc9eb63c6a56c86e0fe7d7846b8a1", "type": "electric_bike", "is_reserved": 0, "lon": -77.23411533333334}, {"fusion_lat": 0.0, "name": "961d6ea28904057747e09f21c658b17b", "is_disabled": 0, "rental_uris": {"android": "https://dc.lft.to/lastmile_qr_scan", "ios": "https://dc.lft.to/lastmile_qr_scan"}, "fusion_lon": 0.0, "lat": 38.950557, "bike_id": "961d6ea28904057747e09f21c658b17b", "type": "electric_scooter", "is_reserved": 0, "lon": -77.08029383333333}, {"fusion_lat": 0.0, "name": "aa73ec8d9be33acd979f7d59691f4e49", "is_disabled": 0, "rental_uris": {"android": "https://dc.lft.to/lastmile_qr_scan", "ios": "https://dc.lft.to/lastmile_qr_scan"}, "fusion_lon": 0.0, "lat": 38.895177, "bike_id": "aa73ec8d9be33acd979f7d59691f4e49", "type": "electric_scooter", "is_reserved": 0, "lon": -76.98089083333333}, {"fusion_lat": 0.0, "name": "954bab5547c539df16c0fcad05c21be0", "is_disabled": 0, "rental_uris": {"android": "https://dc.lft.to/lastmile_qr_scan", "ios": "https://dc.lft.to/lastmile_qr_scan"}, "fusion_lon": 0.0, "lat": 38.901809, "bike_id": "954bab5547c539df16c0fcad05c21be0", "type": "electric_scooter", "is_reserved": 0, "lon": -76.9414545}, {"fusion_lat": 0.0, "name": "62f340da1260a0073044c02881711094", "is_disabled": 0, "rental_uris": {"android": "https://dc.lft.to/lastmile_qr_scan", "ios": "https://dc.lft.to/lastmile_qr_scan"}, "fusion_lon": 0.0, "lat": 38.91786583333333, "bike_id": "62f340da1260a0073044c02881711094", "type": "electric_scooter", "is_reserved": 0, "lon": -77.02313433333333}, {"fusion_lat": 0.0, "name": "182e7a10b80dd1ecb9517eb8947b6b62", "is_disabled": 0, "rental_uris": {"android": "https://dc.lft.to/lastmile_qr_scan", "ios": "https://dc.lft.to/lastmile_qr_scan"}, "fusion_lon": 0.0, "lat": 38.902467333333334, "bike_id": "182e7a10b80dd1ecb9517eb8947b6b62", "type": "electric_scooter", "is_reserved": 0, "lon": -77.03966883333334}, {"fusion_lat": 0.0, "name": "7e5066fbc40a609a7e756304be7b9729", "is_disabled": 0, "rental_uris": {"android": "https://dc.lft.to/lastmile_qr_scan", "ios": "https://dc.lft.to/lastmile_qr_scan"}, "fusion_lon": 0.0, "lat": 38.905662166666666, "bike_id": "7e5066fbc40a609a7e756304be7b9729", "type": "electric_scooter", "is_reserved": 0, "lon": -77.0265415}, {"fusion_lat": 0.0, "name": "6d7a25f25894ffd32aaafc6f26d39756", "is_disabled": 0, "rental_uris": {"android": "https://dc.lft.to/lastmile_qr_scan", "ios": "https://dc.lft.to/lastmile_qr_scan"}, "fusion_lon": 0.0, "lat": 38.907889833333336, "bike_id": "6d7a25f25894ffd32aaafc6f26d39756", "type": "electric_scooter", "is_reserved": 0, "lon": -77.0320195}, {"fusion_lat": 0.0, "name": "77617d2061eddceeed06efb51875d796", "is_disabled": 0, "rental_uris": {"android": "https://dc.lft.to/lastmile_qr_scan", "ios": "https://dc.lft.to/lastmile_qr_scan"}, "fusion_lon": 0.0, "lat": 38.92036233333333, "bike_id": "77617d2061eddceeed06efb51875d796", "type": "electric_bike", "is_reserved": 0, "lon": -76.9796215}, {"fusion_lat": 0.0, "name": "1057ccc1debb0a4ad17664b00739c3df", "is_disabled": 0, "rental_uris": {"android": "https://dc.lft.to/lastmile_qr_scan", "ios": "https://dc.lft.to/lastmile_qr_scan"}, "fusion_lon": 0.0, "lat": 38.95732683333333, "bike_id": "1057ccc1debb0a4ad17664b00739c3df", "type": "electric_scooter", "is_reserved": 0, "lon": -77.0240025}, {"fusion_lat": 0.0, "name": "8de9ad1b02290effc827cea0a72b9c2e", "is_disabled": 0, "rental_uris": {"android": "https://dc.lft.to/lastmile_qr_scan", "ios": "https://dc.lft.to/lastmile_qr_scan"}, "fusion_lon": 0.0, "lat": 38.9355265, "bike_id": "8de9ad1b02290effc827cea0a72b9c2e", "type": "electric_scooter", "is_reserved": 0, "lon": -77.0818605}, {"fusion_lat": 0.0, "name": "8beaca843e230a538059e187ddf9423a", "is_disabled": 0, "rental_uris": {"android": "https://dc.lft.to/lastmile_qr_scan", "ios": "https://dc.lft.to/lastmile_qr_scan"}, "fusion_lon": 0.0, "lat": 38.91654833333333, "bike_id": "8beaca843e230a538059e187ddf9423a", "type": "electric_bike", "is_reserved": 0, "lon": -76.98225683333334}, {"fusion_lat": 0.0, "name": "ad4ccbad07216d9eb07b79a5fd8c82ee", "is_disabled": 0, "rental_uris": {"android": "https://dc.lft.to/lastmile_qr_scan", "ios": "https://dc.lft.to/lastmile_qr_scan"}, "fusion_lon": 0.0, "lat": 38.9306265, "bike_id": "ad4ccbad07216d9eb07b79a5fd8c82ee", "type": "electric_scooter", "is_reserved": 0, "lon": -77.03945566666667}, {"fusion_lat": 0.0, "name": "45fbf3a1021197054a7e51956c017d10", "is_disabled": 0, "rental_uris": {"android": "https://dc.lft.to/lastmile_qr_scan", "ios": "https://dc.lft.to/lastmile_qr_scan"}, "fusion_lon": 0.0, "lat": 38.899662, "bike_id": "45fbf3a1021197054a7e51956c017d10", "type": "electric_bike", "is_reserved": 0, "lon": -76.98670366666667}, {"fusion_lat": 0.0, "name": "c0778ddd3cefecc05e582216f51d0113", "is_disabled": 0, "rental_uris": {"android": "https://dc.lft.to/lastmile_qr_scan", "ios": "https://dc.lft.to/lastmile_qr_scan"}, "fusion_lon": 0.0, "lat": 38.87647233333333, "bike_id": "c0778ddd3cefecc05e582216f51d0113", "type": "electric_scooter", "is_reserved": 0, "lon": -77.001103}, {"fusion_lat": 0.0, "name": "a98d1e077fd93b548821f32c83bd76ba", "is_disabled": 0, "rental_uris": {"android": "https://dc.lft.to/lastmile_qr_scan", "ios": "https://dc.lft.to/lastmile_qr_scan"}, "fusion_lon": 0.0, "lat": 38.88122466666667, "bike_id": "a98d1e077fd93b548821f32c83bd76ba", "type": "electric_scooter", "is_reserved": 0, "lon": -76.99284133333333}, {"fusion_lat": 0.0, "name": "8964f2a5fc61f0f73236739fdefadb48", "is_disabled": 0, "rental_uris": {"android": "https://dc.lft.to/lastmile_qr_scan", "ios": "https://dc.lft.to/lastmile_qr_scan"}, "fusion_lon": 0.0, "lat": 38.91930416666667, "bike_id": "8964f2a5fc61f0f73236739fdefadb48", "type": "electric_scooter", "is_reserved": 0, "lon": -77.02488}, {"fusion_lat": 0.0, "name": "7d9c250ae4c8e22af68b5d38195e61d5", "is_disabled": 0, "rental_uris": {"android": "https://dc.lft.to/lastmile_qr_scan", "ios": "https://dc.lft.to/lastmile_qr_scan"}, "fusion_lon": 0.0, "lat": 38.87633816666666, "bike_id": "7d9c250ae4c8e22af68b5d38195e61d5", "type": "electric_scooter", "is_reserved": 0, "lon": -77.00948616666666}, {"fusion_lat": 0.0, "name": "8b64d7989196c8b69ff01861f9efe5b8", "is_disabled": 0, "rental_uris": {"android": "https://dc.lft.to/lastmile_qr_scan", "ios": "https://dc.lft.to/lastmile_qr_scan"}, "fusion_lon": 0.0, "lat": 38.91813716666667, "bike_id": "8b64d7989196c8b69ff01861f9efe5b8", "type": "electric_scooter", "is_reserved": 0, "lon": -77.033344}, {"fusion_lat": 0.0, "name": "510ddb729b217f368d9c4c7b3ec398e0", "is_disabled": 0, "rental_uris": {"android": "https://dc.lft.to/lastmile_qr_scan", "ios": "https://dc.lft.to/lastmile_qr_scan"}, "fusion_lon": 0.0, "lat": 38.923629, "bike_id": "510ddb729b217f368d9c4c7b3ec398e0", "type": "electric_scooter", "is_reserved": 0, "lon": -77.019557}, {"fusion_lat": 0.0, "name": "c66154f0c8c86805d4b79de2acb25bc6", "is_disabled": 0, "rental_uris": {"android": "https://dc.lft.to/lastmile_qr_scan", "ios": "https://dc.lft.to/lastmile_qr_scan"}, "fusion_lon": 0.0, "lat": 38.879354666666664, "bike_id": "c66154f0c8c86805d4b79de2acb25bc6", "type": "electric_scooter", "is_reserved": 0, "lon": -77.023794}, {"fusion_lat": 0.0, "name": "77acba865ad01ec4c9f62d23e12e4513", "is_disabled": 0, "rental_uris": {"android": "https://dc.lft.to/lastmile_qr_scan", "ios": "https://dc.lft.to/lastmile_qr_scan"}, "fusion_lon": 0.0, "lat": 38.919095, "bike_id": "77acba865ad01ec4c9f62d23e12e4513", "type": "electric_scooter", "is_reserved": 0, "lon": -77.01221933333333}, {"fusion_lat": 0.0, "name": "a5e5b4e1726981374e3e40c7e94eb267", "is_disabled": 0, "rental_uris": {"android": "https://dc.lft.to/lastmile_qr_scan", "ios": "https://dc.lft.to/lastmile_qr_scan"}, "fusion_lon": 0.0, "lat": 38.92612283333333, "bike_id": "a5e5b4e1726981374e3e40c7e94eb267", "type": "electric_scooter", "is_reserved": 0, "lon": -77.02214833333333}, {"fusion_lat": 0.0, "name": "63c2f9207c4bf492d853559f72dae47a", "is_disabled": 0, "rental_uris": {"android": "https://dc.lft.to/lastmile_qr_scan", "ios": "https://dc.lft.to/lastmile_qr_scan"}, "fusion_lon": 0.0, "lat": 38.94018366666667, "bike_id": "63c2f9207c4bf492d853559f72dae47a", "type": "electric_scooter", "is_reserved": 0, "lon": -77.02767016666667}, {"fusion_lat": 0.0, "name": "e734adfc931724bd752d10d57841b1e3", "is_disabled": 0, "rental_uris": {"android": "https://dc.lft.to/lastmile_qr_scan", "ios": "https://dc.lft.to/lastmile_qr_scan"}, "fusion_lon": 0.0, "lat": 38.88758716666667, "bike_id": "e734adfc931724bd752d10d57841b1e3", "type": "electric_scooter", "is_reserved": 0, "lon": -77.00170283333334}, {"fusion_lat": 0.0, "name": "38b7fa44c763d9f5281ffb04d38d55ba", "is_disabled": 0, "rental_uris": {"android": "https://dc.lft.to/lastmile_qr_scan", "ios": "https://dc.lft.to/lastmile_qr_scan"}, "fusion_lon": 0.0, "lat": 38.92619166666667, "bike_id": "38b7fa44c763d9f5281ffb04d38d55ba", "type": "electric_scooter", "is_reserved": 0, "lon": -77.02157583333333}, {"fusion_lat": 0.0, "name": "c4115da05f47087017de971b429e78ae", "is_disabled": 0, "rental_uris": {"android": "https://dc.lft.to/lastmile_qr_scan", "ios": "https://dc.lft.to/lastmile_qr_scan"}, "fusion_lon": 0.0, "lat": 38.89486683333333, "bike_id": "c4115da05f47087017de971b429e78ae", "type": "electric_scooter", "is_reserved": 0, "lon": -77.03376016666667}, {"fusion_lat": 0.0, "name": "91d34c7f77538fbe51db16c71619100a", "is_disabled": 0, "rental_uris": {"android": "https://dc.lft.to/lastmile_qr_scan", "ios": "https://dc.lft.to/lastmile_qr_scan"}, "fusion_lon": 0.0, "lat": 38.90408133333333, "bike_id": "91d34c7f77538fbe51db16c71619100a", "type": "electric_scooter", "is_reserved": 0, "lon": -76.97331666666666}, {"fusion_lat": 0.0, "name": "52d0209740d39e982956df04ed227065", "is_disabled": 0, "rental_uris": {"android": "https://dc.lft.to/lastmile_qr_scan", "ios": "https://dc.lft.to/lastmile_qr_scan"}, "fusion_lon": 0.0, "lat": 38.899838833333334, "bike_id": "52d0209740d39e982956df04ed227065", "type": "electric_scooter", "is_reserved": 0, "lon": -77.02215216666667}, {"fusion_lat": 0.0, "name": "a3fa118d2fc5e35ca92d3ac3e6c97d87", "is_disabled": 0, "rental_uris": {"android": "https://dc.lft.to/lastmile_qr_scan", "ios": "https://dc.lft.to/lastmile_qr_scan"}, "fusion_lon": 0.0, "lat": 38.89441733333334, "bike_id": "a3fa118d2fc5e35ca92d3ac3e6c97d87", "type": "electric_scooter", "is_reserved": 0, "lon": -76.9748995}, {"fusion_lat": 0.0, "name": "0c943ef930982d82c5e9174796d7e7b6", "is_disabled": 0, "rental_uris": {"android": "https://dc.lft.to/lastmile_qr_scan", "ios": "https://dc.lft.to/lastmile_qr_scan"}, "fusion_lon": 0.0, "lat": 38.904930666666665, "bike_id": "0c943ef930982d82c5e9174796d7e7b6", "type": "electric_scooter", "is_reserved": 0, "lon": -77.051222}, {"fusion_lat": 0.0, "name": "9eea7ee52faad26530465b02d685b75d", "is_disabled": 0, "rental_uris": {"android": "https://dc.lft.to/lastmile_qr_scan", "ios": "https://dc.lft.to/lastmile_qr_scan"}, "fusion_lon": 0.0, "lat": 38.9070825, "bike_id": "9eea7ee52faad26530465b02d685b75d", "type": "electric_scooter", "is_reserved": 0, "lon": -77.05152883333334}, {"fusion_lat": 0.0, "name": "d2101bc56df3efc35b830ff311bca2c0", "is_disabled": 0, "rental_uris": {"android": "https://dc.lft.to/lastmile_qr_scan", "ios": "https://dc.lft.to/lastmile_qr_scan"}, "fusion_lon": 0.0, "lat": 38.933042, "bike_id": "d2101bc56df3efc35b830ff311bca2c0", "type": "electric_scooter", "is_reserved": 0, "lon": -77.03086666666667}, {"fusion_lat": 0.0, "name": "985037f76422b31267f45eee707922a3", "is_disabled": 0, "rental_uris": {"android": "https://dc.lft.to/lastmile_qr_scan", "ios": "https://dc.lft.to/lastmile_qr_scan"}, "fusion_lon": 0.0, "lat": 38.8340245, "bike_id": "985037f76422b31267f45eee707922a3", "type": "electric_bike", "is_reserved": 0, "lon": -77.00334333333333}, {"fusion_lat": 0.0, "name": "8be93da2759e909b76cfdf72ec328dff", "is_disabled": 0, "rental_uris": {"android": "https://dc.lft.to/lastmile_qr_scan", "ios": "https://dc.lft.to/lastmile_qr_scan"}, "fusion_lon": 0.0, "lat": 38.87761416666667, "bike_id": "8be93da2759e909b76cfdf72ec328dff", "type": "electric_scooter", "is_reserved": 0, "lon": -76.9938955}, {"fusion_lat": 0.0, "name": "b9aee50e25cf4dea14cb69ebae1b0648", "is_disabled": 0, "rental_uris": {"android": "https://dc.lft.to/lastmile_qr_scan", "ios": "https://dc.lft.to/lastmile_qr_scan"}, "fusion_lon": 0.0, "lat": 38.922549833333335, "bike_id": "b9aee50e25cf4dea14cb69ebae1b0648", "type": "electric_scooter", "is_reserved": 0, "lon": -77.018409}, {"fusion_lat": 0.0, "name": "07c2f422eb8ead538412c5903b9a5122", "is_disabled": 0, "rental_uris": {"android": "https://dc.lft.to/lastmile_qr_scan", "ios": "https://dc.lft.to/lastmile_qr_scan"}, "fusion_lon": 0.0, "lat": 38.904010666666665, "bike_id": "07c2f422eb8ead538412c5903b9a5122", "type": "electric_scooter", "is_reserved": 0, "lon": -76.98094083333334}, {"fusion_lat": 0.0, "name": "94524ca12c60f6174c1d5e3782c2d715", "is_disabled": 0, "rental_uris": {"android": "https://dc.lft.to/lastmile_qr_scan", "ios": "https://dc.lft.to/lastmile_qr_scan"}, "fusion_lon": 0.0, "lat": 38.887559, "bike_id": "94524ca12c60f6174c1d5e3782c2d715", "type": "electric_scooter", "is_reserved": 0, "lon": -77.00257516666667}, {"fusion_lat": 0.0, "name": "4aba30d4e805fe0500697bf2c1b10db4", "is_disabled": 0, "rental_uris": {"android": "https://dc.lft.to/lastmile_qr_scan", "ios": "https://dc.lft.to/lastmile_qr_scan"}, "fusion_lon": 0.0, "lat": 38.92435316666667, "bike_id": "4aba30d4e805fe0500697bf2c1b10db4", "type": "electric_scooter", "is_reserved": 0, "lon": -77.00068816666666}, {"fusion_lat": 0.0, "name": "63f939a1766044c3fecf7d5c5a3d1e56", "is_disabled": 0, "rental_uris": {"android": "https://dc.lft.to/lastmile_qr_scan", "ios": "https://dc.lft.to/lastmile_qr_scan"}, "fusion_lon": 0.0, "lat": 38.8413845, "bike_id": "63f939a1766044c3fecf7d5c5a3d1e56", "type": "electric_bike", "is_reserved": 0, "lon": -76.94761666666666}, {"fusion_lat": 0.0, "name": "e439a373728ada6d2ca58235e63a8302", "is_disabled": 0, "rental_uris": {"android": "https://dc.lft.to/lastmile_qr_scan", "ios": "https://dc.lft.to/lastmile_qr_scan"}, "fusion_lon": 0.0, "lat": 38.92196033333333, "bike_id": "e439a373728ada6d2ca58235e63a8302", "type": "electric_scooter", "is_reserved": 0, "lon": -77.05049733333334}, {"fusion_lat": 0.0, "name": "3501f535e016b99ac6a43ee18c741ae3", "is_disabled": 0, "rental_uris": {"android": "https://dc.lft.to/lastmile_qr_scan", "ios": "https://dc.lft.to/lastmile_qr_scan"}, "fusion_lon": 0.0, "lat": 38.905648, "bike_id": "3501f535e016b99ac6a43ee18c741ae3", "type": "electric_scooter", "is_reserved": 0, "lon": -77.062597}, {"fusion_lat": 0.0, "name": "2abf6ee9b66d576804836bb5778eb21c", "is_disabled": 0, "rental_uris": {"android": "https://dc.lft.to/lastmile_qr_scan", "ios": "https://dc.lft.to/lastmile_qr_scan"}, "fusion_lon": 0.0, "lat": 38.911197666666666, "bike_id": "2abf6ee9b66d576804836bb5778eb21c", "type": "electric_scooter", "is_reserved": 0, "lon": -77.03169983333333}, {"fusion_lat": 0.0, "name": "bacc7d7d02aaf053219d44c91d221b74", "is_disabled": 0, "rental_uris": {"android": "https://dc.lft.to/lastmile_qr_scan", "ios": "https://dc.lft.to/lastmile_qr_scan"}, "fusion_lon": 0.0, "lat": 38.88514, "bike_id": "bacc7d7d02aaf053219d44c91d221b74", "type": "electric_scooter", "is_reserved": 0, "lon": -77.02108116666666}, {"fusion_lat": 0.0, "name": "14d0159bfc6d947ee6e52aaa24182a1f", "is_disabled": 0, "rental_uris": {"android": "https://dc.lft.to/lastmile_qr_scan", "ios": "https://dc.lft.to/lastmile_qr_scan"}, "fusion_lon": 0.0, "lat": 38.876364833333334, "bike_id": "14d0159bfc6d947ee6e52aaa24182a1f", "type": "electric_scooter", "is_reserved": 0, "lon": -77.00908133333333}, {"fusion_lat": 0.0, "name": "62bed0685713ea87ba2a9f52390e1506", "is_disabled": 0, "rental_uris": {"android": "https://dc.lft.to/lastmile_qr_scan", "ios": "https://dc.lft.to/lastmile_qr_scan"}, "fusion_lon": 0.0, "lat": 38.91856716666667, "bike_id": "62bed0685713ea87ba2a9f52390e1506", "type": "electric_scooter", "is_reserved": 0, "lon": -77.03660883333333}, {"fusion_lat": 0.0, "name": "166ea4c003128bdd4f9485269f410961", "is_disabled": 0, "rental_uris": {"android": "https://dc.lft.to/lastmile_qr_scan", "ios": "https://dc.lft.to/lastmile_qr_scan"}, "fusion_lon": 0.0, "lat": 38.88727183333334, "bike_id": "166ea4c003128bdd4f9485269f410961", "type": "electric_scooter", "is_reserved": 0, "lon": -76.98354983333333}, {"fusion_lat": 0.0, "name": "cfdaa8b5dd8b2123170bf8dda218963c", "is_disabled": 0, "rental_uris": {"android": "https://dc.lft.to/lastmile_qr_scan", "ios": "https://dc.lft.to/lastmile_qr_scan"}, "fusion_lon": 0.0, "lat": 38.931915833333335, "bike_id": "cfdaa8b5dd8b2123170bf8dda218963c", "type": "electric_scooter", "is_reserved": 0, "lon": -77.04297466666667}, {"fusion_lat": 0.0, "name": "bc3bdb37e7df61f2d46be6a07cc66b38", "is_disabled": 0, "rental_uris": {"android": "https://dc.lft.to/lastmile_qr_scan", "ios": "https://dc.lft.to/lastmile_qr_scan"}, "fusion_lon": 0.0, "lat": 38.938167666666665, "bike_id": "bc3bdb37e7df61f2d46be6a07cc66b38", "type": "electric_scooter", "is_reserved": 0, "lon": -77.06018766666666}, {"fusion_lat": 0.0, "name": "2fef2ed2a961299577563c2663fb37f9", "is_disabled": 0, "rental_uris": {"android": "https://dc.lft.to/lastmile_qr_scan", "ios": "https://dc.lft.to/lastmile_qr_scan"}, "fusion_lon": 0.0, "lat": 38.902227333333336, "bike_id": "2fef2ed2a961299577563c2663fb37f9", "type": "electric_scooter", "is_reserved": 0, "lon": -76.995059}, {"fusion_lat": 0.0, "name": "96259a8a33bf6b92388f700c5919bae7", "is_disabled": 0, "rental_uris": {"android": "https://dc.lft.to/lastmile_qr_scan", "ios": "https://dc.lft.to/lastmile_qr_scan"}, "fusion_lon": 0.0, "lat": 38.907726, "bike_id": "96259a8a33bf6b92388f700c5919bae7", "type": "electric_scooter", "is_reserved": 0, "lon": -77.03863216666667}, {"fusion_lat": 0.0, "name": "fd4d44d38e2be5dddd152e4541706c1c", "is_disabled": 0, "rental_uris": {"android": "https://dc.lft.to/lastmile_qr_scan", "ios": "https://dc.lft.to/lastmile_qr_scan"}, "fusion_lon": 0.0, "lat": 38.93394116666666, "bike_id": "fd4d44d38e2be5dddd152e4541706c1c", "type": "electric_scooter", "is_reserved": 0, "lon": -77.05772683333333}, {"fusion_lat": 0.0, "name": "3b2343623230f94565620da13d2943e4", "is_disabled": 0, "rental_uris": {"android": "https://dc.lft.to/lastmile_qr_scan", "ios": "https://dc.lft.to/lastmile_qr_scan"}, "fusion_lon": 0.0, "lat": 38.874666, "bike_id": "3b2343623230f94565620da13d2943e4", "type": "electric_scooter", "is_reserved": 0, "lon": -77.01699316666667}, {"fusion_lat": 0.0, "name": "27f1ea790d2f91dc23dc4d58a70fdea3", "is_disabled": 0, "rental_uris": {"android": "https://dc.lft.to/lastmile_qr_scan", "ios": "https://dc.lft.to/lastmile_qr_scan"}, "fusion_lon": 0.0, "lat": 38.9180125, "bike_id": "27f1ea790d2f91dc23dc4d58a70fdea3", "type": "electric_scooter", "is_reserved": 0, "lon": -77.03211683333333}, {"fusion_lat": 0.0, "name": "d8f40462ed40d94a077553474bbf2888", "is_disabled": 0, "rental_uris": {"android": "https://dc.lft.to/lastmile_qr_scan", "ios": "https://dc.lft.to/lastmile_qr_scan"}, "fusion_lon": 0.0, "lat": 38.9143015, "bike_id": "d8f40462ed40d94a077553474bbf2888", "type": "electric_scooter", "is_reserved": 0, "lon": -77.02215516666666}, {"fusion_lat": 0.0, "name": "92b16126ee8a77eaa2fb328c0cbbf965", "is_disabled": 0, "rental_uris": {"android": "https://dc.lft.to/lastmile_qr_scan", "ios": "https://dc.lft.to/lastmile_qr_scan"}, "fusion_lon": 0.0, "lat": 38.9056745, "bike_id": "92b16126ee8a77eaa2fb328c0cbbf965", "type": "electric_scooter", "is_reserved": 0, "lon": -77.03462316666666}, {"fusion_lat": 0.0, "name": "436485753394b5d25666bb5cfbbce2eb", "is_disabled": 0, "rental_uris": {"android": "https://dc.lft.to/lastmile_qr_scan", "ios": "https://dc.lft.to/lastmile_qr_scan"}, "fusion_lon": 0.0, "lat": 38.90562333333333, "bike_id": "436485753394b5d25666bb5cfbbce2eb", "type": "electric_scooter", "is_reserved": 0, "lon": -77.02956516666667}, {"fusion_lat": 0.0, "name": "bbb02f1289af7990193df03c8e7c3c72", "is_disabled": 0, "rental_uris": {"android": "https://dc.lft.to/lastmile_qr_scan", "ios": "https://dc.lft.to/lastmile_qr_scan"}, "fusion_lon": 0.0, "lat": 38.906643833333334, "bike_id": "bbb02f1289af7990193df03c8e7c3c72", "type": "electric_scooter", "is_reserved": 0, "lon": -77.07506816666667}, {"fusion_lat": 0.0, "name": "97bd11011d96e1e512b9e4df466db7d8", "is_disabled": 0, "rental_uris": {"android": "https://dc.lft.to/lastmile_qr_scan", "ios": "https://dc.lft.to/lastmile_qr_scan"}, "fusion_lon": 0.0, "lat": 38.865206666666666, "bike_id": "97bd11011d96e1e512b9e4df466db7d8", "type": "electric_bike", "is_reserved": 0, "lon": -77.12935716666667}, {"fusion_lat": 0.0, "name": "490083958d0affb23adb346dd6103738", "is_disabled": 0, "rental_uris": {"android": "https://dc.lft.to/lastmile_qr_scan", "ios": "https://dc.lft.to/lastmile_qr_scan"}, "fusion_lon": 0.0, "lat": 38.91685733333333, "bike_id": "490083958d0affb23adb346dd6103738", "type": "electric_scooter", "is_reserved": 0, "lon": -77.03634266666667}, {"fusion_lat": 0.0, "name": "e0f7f80fd8a5ee75f56a53da0aa90c67", "is_disabled": 0, "rental_uris": {"android": "https://dc.lft.to/lastmile_qr_scan", "ios": "https://dc.lft.to/lastmile_qr_scan"}, "fusion_lon": 0.0, "lat": 38.993533, "bike_id": "e0f7f80fd8a5ee75f56a53da0aa90c67", "type": "electric_bike", "is_reserved": 0, "lon": -77.03187766666667}, {"fusion_lat": 0.0, "name": "5ead9e9909e380426537047823eec908", "is_disabled": 0, "rental_uris": {"android": "https://dc.lft.to/lastmile_qr_scan", "ios": "https://dc.lft.to/lastmile_qr_scan"}, "fusion_lon": 0.0, "lat": 38.9156175, "bike_id": "5ead9e9909e380426537047823eec908", "type": "electric_scooter", "is_reserved": 0, "lon": -77.0450745}, {"fusion_lat": 0.0, "name": "6c3f38c3fed69a7ae0289512e5147dec", "is_disabled": 0, "rental_uris": {"android": "https://dc.lft.to/lastmile_qr_scan", "ios": "https://dc.lft.to/lastmile_qr_scan"},