{"data": {"bikes": [{"lon": -77.03037666666667, "lat": 38.902727666666664, "name": "5ef0d7a1d1f552a73f2223321f5da8a5", "fusion_lat": 0.0, "fusion_lon": 0.0, "rental_uris": {"android": "https://dc.lft.to/lastmile_qr_scan", "ios": "https://dc.lft.to/lastmile_qr_scan"}, "is_reserved": 0, "is_disabled": 0, "type": "electric_scooter", "bike_id": "5ef0d7a1d1f552a73f2223321f5da8a5"}, {"lon": -77.17847983333333, "lat": 39.08899, "name": "4237d2b1c881cc2c560d9ce36d63776c", "fusion_lat": 0.0, "fusion_lon": 0.0, "rental_uris": {"android": "https://dc.lft.to/lastmile_qr_scan", "ios": "https://dc.lft.to/lastmile_qr_scan"}, "is_reserved": 0, "is_disabled": 0, "type": "electric_bike", "bike_id": "4237d2b1c881cc2c560d9ce36d63776c"}, {"lon": -77.08543233333333, "lat": 38.85623533333333, "name": "ca1111fe83e54110d2ce60ac4c20fdbb", "fusion_lat": 0.0, "fusion_lon": 0.0, "rental_uris": {"android": "https://dc.lft.to/lastmile_qr_scan", "ios": "https://dc.lft.to/lastmile_qr_scan"}, "is_reserved": 0, "is_disabled": 0, "type": "electric_bike", "bike_id": "ca1111fe83e54110d2ce60ac4c20fdbb"}, {"lon": -77.04039416666667, "lat": 38.918813, "name": "4e6566c41d6799ac3c229a01d889d91e", "fusion_lat": 0.0, "fusion_lon": 0.0, "rental_uris": {"android": "https://dc.lft.to/lastmile_qr_scan", "ios": "https://dc.lft.to/lastmile_qr_scan"}, "is_reserved": 0, "is_disabled": 0, "type": "electric_scooter", "bike_id": "4e6566c41d6799ac3c229a01d889d91e"}, {"lon": -77.0319765, "lat": 38.91578583333333, "name": "45b010dfdd51320ec86361e6e0e89203", "fusion_lat": 0.0, "fusion_lon": 0.0, "rental_uris": {"android": "https://dc.lft.to/lastmile_qr_scan", "ios": "https://dc.lft.to/lastmile_qr_scan"}, "is_reserved": 0, "is_disabled": 0, "type": "electric_scooter", "bike_id": "45b010dfdd51320ec86361e6e0e89203"}, {"lon": -77.03458966666666, "lat": 38.945713, "name": "04ee22bbf84fa6ce46f4a66bd7635c99", "fusion_lat": 0.0, "fusion_lon": 0.0, "rental_uris": {"android": "https://dc.lft.to/lastmile_qr_scan", "ios": "https://dc.lft.to/lastmile_qr_scan"}, "is_reserved": 0, "is_disabled": 0, "type": "electric_scooter", "bike_id": "04ee22bbf84fa6ce46f4a66bd7635c99"}, {"lon": -77.044288, "lat": 38.891774833333336, "name": "4cd3b2cc6d6466353e9f683983a19354", "fusion_lat": 0.0, "fusion_lon": 0.0, "rental_uris": {"android": "https://dc.lft.to/lastmile_qr_scan", "ios": "https://dc.lft.to/lastmile_qr_scan"}, "is_reserved": 0, "is_disabled": 0, "type": "electric_scooter", "bike_id": "4cd3b2cc6d6466353e9f683983a19354"}, {"lon": -77.02633883333333, "lat": 38.96215083333333, "name": "385c458a3d411686dabbee0d2524d717", "fusion_lat": 0.0, "fusion_lon": 0.0, "rental_uris": {"android": "https://dc.lft.to/lastmile_qr_scan", "ios": "https://dc.lft.to/lastmile_qr_scan"}, "is_reserved": 0, "is_disabled": 0, "type": "electric_bike", "bike_id": "385c458a3d411686dabbee0d2524d717"}, {"lon": -76.99503233333333, "lat": 38.862442, "name": "c6f8d2e4b12bada75853eecd338935af", "fusion_lat": 0.0, "fusion_lon": 0.0, "rental_uris": {"android": "https://dc.lft.to/lastmile_qr_scan", "ios": "https://dc.lft.to/lastmile_qr_scan"}, "is_reserved": 0, "is_disabled": 0, "type": "electric_scooter", "bike_id": "c6f8d2e4b12bada75853eecd338935af"}, {"lon": -77.00724483333333, "lat": 38.884913833333336, "name": "4c11dd5746ef14d08ff779a5c9451270", "fusion_lat": 0.0, "fusion_lon": 0.0, "rental_uris": {"android": "https://dc.lft.to/lastmile_qr_scan", "ios": "https://dc.lft.to/lastmile_qr_scan"}, "is_reserved": 0, "is_disabled": 0, "type": "electric_scooter", "bike_id": "4c11dd5746ef14d08ff779a5c9451270"}, {"lon": -77.03355033333334, "lat": 38.885067166666666, "name": "193386b0c7235c5523228e8f0731633d", "fusion_lat": 0.0, "fusion_lon": 0.0, "rental_uris": {"android": "https://dc.lft.to/lastmile_qr_scan", "ios": "https://dc.lft.to/lastmile_qr_scan"}, "is_reserved": 0, "is_disabled": 0, "type": "electric_scooter", "bike_id": "193386b0c7235c5523228e8f0731633d"}, {"lon": -77.0307065, "lat": 38.91259316666667, "name": "aeb1182b5ce2e35ec09e88732cccc26c", "fusion_lat": 0.0, "fusion_lon": 0.0, "rental_uris": {"android": "https://dc.lft.to/lastmile_qr_scan", "ios": "https://dc.lft.to/lastmile_qr_scan"}, "is_reserved": 0, "is_disabled": 0, "type": "electric_scooter", "bike_id": "aeb1182b5ce2e35ec09e88732cccc26c"}, {"lon": -76.995564, "lat": 38.885986, "name": "18c220ebcd8ce7ae58897b27a57af996", "fusion_lat": 0.0, "fusion_lon": 0.0, "rental_uris": {"android": "https://dc.lft.to/lastmile_qr_scan", "ios": "https://dc.lft.to/lastmile_qr_scan"}, "is_reserved": 0, "is_disabled": 0, "type": "electric_scooter", "bike_id": "18c220ebcd8ce7ae58897b27a57af996"}, {"lon": -77.02213783333333, "lat": 38.915535166666665, "name": "c977252cac10fdf4fa5bc0aa00369dce", "fusion_lat": 0.0, "fusion_lon": 0.0, "rental_uris": {"android": "https://dc.lft.to/lastmile_qr_scan", "ios": "https://dc.lft.to/lastmile_qr_scan"}, "is_reserved": 0, "is_disabled": 0, "type": "electric_scooter", "bike_id": "c977252cac10fdf4fa5bc0aa00369dce"}, {"lon": -77.04152933333333, "lat": 38.923351833333335, "name": "ec90362b968cbddc3aec9d0e355224e4", "fusion_lat": 0.0, "fusion_lon": 0.0, "rental_uris": {"android": "https://dc.lft.to/lastmile_qr_scan", "ios": "https://dc.lft.to/lastmile_qr_scan"}, "is_reserved": 0, "is_disabled": 0, "type": "electric_scooter", "bike_id": "ec90362b968cbddc3aec9d0e355224e4"}, {"lon": -76.99908216666667, "lat": 38.90946516666666, "name": "98870c7fe98b312c240bd0696ca7bdde", "fusion_lat": 0.0, "fusion_lon": 0.0, "rental_uris": {"android": "https://dc.lft.to/lastmile_qr_scan", "ios": "https://dc.lft.to/lastmile_qr_scan"}, "is_reserved": 0, "is_disabled": 0, "type": "electric_scooter", "bike_id": "98870c7fe98b312c240bd0696ca7bdde"}, {"lon": -77.03407533333333, "lat": 38.91924933333333, "name": "ba97f8ea0f167845c3dbb938e97c4234", "fusion_lat": 0.0, "fusion_lon": 0.0, "rental_uris": {"android": "https://dc.lft.to/lastmile_qr_scan", "ios": "https://dc.lft.to/lastmile_qr_scan"}, "is_reserved": 0, "is_disabled": 0, "type": "electric_scooter", "bike_id": "ba97f8ea0f167845c3dbb938e97c4234"}, {"lon": -77.00741366666666, "lat": 38.87677683333333, "name": "c1668d36d3e3cdba6d8adb27de9a1a5b", "fusion_lat": 0.0, "fusion_lon": 0.0, "rental_uris": {"android": "https://dc.lft.to/lastmile_qr_scan", "ios": "https://dc.lft.to/lastmile_qr_scan"}, "is_reserved": 0, "is_disabled": 0, "type": "electric_scooter", "bike_id": "c1668d36d3e3cdba6d8adb27de9a1a5b"}, {"lon": -76.99470116666667, "lat": 38.861897166666665, "name": "2527caeb95e8a0b3a7c5e74c9e8d21b7", "fusion_lat": 0.0, "fusion_lon": 0.0, "rental_uris": {"android": "https://dc.lft.to/lastmile_qr_scan", "ios": "https://dc.lft.to/lastmile_qr_scan"}, "is_reserved": 0, "is_disabled": 0, "type": "electric_scooter", "bike_id": "2527caeb95e8a0b3a7c5e74c9e8d21b7"}, {"lon": -77.06844216666667, "lat": 38.91711733333333, "name": "8aeb6a7768a313999b6cb8fe025c1df6", "fusion_lat": 0.0, "fusion_lon": 0.0, "rental_uris": {"android": "https://dc.lft.to/lastmile_qr_scan", "ios": "https://dc.lft.to/lastmile_qr_scan"}, "is_reserved": 0, "is_disabled": 0, "type": "electric_scooter", "bike_id": "8aeb6a7768a313999b6cb8fe025c1df6"}, {"lon": -77.106269, "lat": 38.87324066666667, "name": "39c385b1ed59a48a4e6280079ce2d37d", "fusion_lat": 0.0, "fusion_lon": 0.0, "rental_uris": {"android": "https://dc.lft.to/lastmile_qr_scan", "ios": "https://dc.lft.to/lastmile_qr_scan"}, "is_reserved": 0, "is_disabled": 0, "type": "electric_bike", "bike_id": "39c385b1ed59a48a4e6280079ce2d37d"}, {"lon": -77.0385595, "lat": 38.932344, "name": "dde67bdf10b1cd3270be494cf291b6d5", "fusion_lat": 0.0, "fusion_lon": 0.0, "rental_uris": {"android": "https://dc.lft.to/lastmile_qr_scan", "ios": "https://dc.lft.to/lastmile_qr_scan"}, "is_reserved": 0, "is_disabled": 0, "type": "electric_scooter", "bike_id": "dde67bdf10b1cd3270be494cf291b6d5"}, {"lon": -77.034757, "lat": 38.9170855, "name": "703a1e2b3df7869730e8dda004169e45", "fusion_lat": 0.0, "fusion_lon": 0.0, "rental_uris": {"android": "https://dc.lft.to/lastmile_qr_scan", "ios": "https://dc.lft.to/lastmile_qr_scan"}, "is_reserved": 0, "is_disabled": 0, "type": "electric_scooter", "bike_id": "703a1e2b3df7869730e8dda004169e45"}, {"lon": -77.02410783333333, "lat": 38.9190005, "name": "c7ec1a9f74ebbed1b77eb7204c7b9ba4", "fusion_lat": 0.0, "fusion_lon": 0.0, "rental_uris": {"android": "https://dc.lft.to/lastmile_qr_scan", "ios": "https://dc.lft.to/lastmile_qr_scan"}, "is_reserved": 0, "is_disabled": 0, "type": "electric_scooter", "bike_id": "c7ec1a9f74ebbed1b77eb7204c7b9ba4"}, {"lon": -77.02353633333334, "lat": 38.91104083333333, "name": "6369df68560557c42880a7a1655c04fe", "fusion_lat": 0.0, "fusion_lon": 0.0, "rental_uris": {"android": "https://dc.lft.to/lastmile_qr_scan", "ios": "https://dc.lft.to/lastmile_qr_scan"}, "is_reserved": 0, "is_disabled": 0, "type": "electric_scooter", "bike_id": "6369df68560557c42880a7a1655c04fe"}, {"lon": -77.02836033333334, "lat": 38.887669333333335, "name": "2a91ce01c008853ec199e30102888a61", "fusion_lat": 0.0, "fusion_lon": 0.0, "rental_uris": {"android": "https://dc.lft.to/lastmile_qr_scan", "ios": "https://dc.lft.to/lastmile_qr_scan"}, "is_reserved": 0, "is_disabled": 0, "type": "electric_scooter", "bike_id": "2a91ce01c008853ec199e30102888a61"}, {"lon": -77.02470766666667, "lat": 38.93858433333333, "name": "99bebc126d7b658278ce0eede8c02030", "fusion_lat": 0.0, "fusion_lon": 0.0, "rental_uris": {"android": "https://dc.lft.to/lastmile_qr_scan", "ios": "https://dc.lft.to/lastmile_qr_scan"}, "is_reserved": 0, "is_disabled": 0, "type": "electric_scooter", "bike_id": "99bebc126d7b658278ce0eede8c02030"}, {"lon": -77.04400383333333, "lat": 38.910803666666666, "name": "08cb8aa1677b17390c4d6087807ec46a", "fusion_lat": 0.0, "fusion_lon": 0.0, "rental_uris": {"android": "https://dc.lft.to/lastmile_qr_scan", "ios": "https://dc.lft.to/lastmile_qr_scan"}, "is_reserved": 0, "is_disabled": 0, "type": "electric_scooter", "bike_id": "08cb8aa1677b17390c4d6087807ec46a"}, {"lon": -77.03224883333333, "lat": 38.892218, "name": "8093a9b9c3de15aeeff6bfb0b4de6a6e", "fusion_lat": 0.0, "fusion_lon": 0.0, "rental_uris": {"android": "https://dc.lft.to/lastmile_qr_scan", "ios": "https://dc.lft.to/lastmile_qr_scan"}, "is_reserved": 0, "is_disabled": 0, "type": "electric_scooter", "bike_id": "8093a9b9c3de15aeeff6bfb0b4de6a6e"}, {"lon": -76.9680225, "lat": 38.861417833333334, "name": "2dac0a126932bca1fdc041c5d1513c61", "fusion_lat": 0.0, "fusion_lon": 0.0, "rental_uris": {"android": "https://dc.lft.to/lastmile_qr_scan", "ios": "https://dc.lft.to/lastmile_qr_scan"}, "is_reserved": 0, "is_disabled": 0, "type": "electric_scooter", "bike_id": "2dac0a126932bca1fdc041c5d1513c61"}, {"lon": -76.97094166666666, "lat": 38.87874383333333, "name": "a004fde5899167cde8d36a829e13c9df", "fusion_lat": 0.0, "fusion_lon": 0.0, "rental_uris": {"android": "https://dc.lft.to/lastmile_qr_scan", "ios": "https://dc.lft.to/lastmile_qr_scan"}, "is_reserved": 0, "is_disabled": 0, "type": "electric_scooter", "bike_id": "a004fde5899167cde8d36a829e13c9df"}, {"lon": -77.03464966666667, "lat": 38.9205885, "name": "a5bbe2ec5b1e5b7ecd487be01a77ffdd", "fusion_lat": 0.0, "fusion_lon": 0.0, "rental_uris": {"android": "https://dc.lft.to/lastmile_qr_scan", "ios": "https://dc.lft.to/lastmile_qr_scan"}, "is_reserved": 0, "is_disabled": 0, "type": "electric_scooter", "bike_id": "a5bbe2ec5b1e5b7ecd487be01a77ffdd"}, {"lon": -77.02212366666667, "lat": 38.8876515, "name": "6b75f20e81b0a3d23f5c554444283c18", "fusion_lat": 0.0, "fusion_lon": 0.0, "rental_uris": {"android": "https://dc.lft.to/lastmile_qr_scan", "ios": "https://dc.lft.to/lastmile_qr_scan"}, "is_reserved": 0, "is_disabled": 0, "type": "electric_scooter", "bike_id": "6b75f20e81b0a3d23f5c554444283c18"}, {"lon": -76.98376583333334, "lat": 38.8647935, "name": "f3328e2e35bbea151eb8d3b48b380cf1", "fusion_lat": 0.0, "fusion_lon": 0.0, "rental_uris": {"android": "https://dc.lft.to/lastmile_qr_scan", "ios": "https://dc.lft.to/lastmile_qr_scan"}, "is_reserved": 0, "is_disabled": 0, "type": "electric_scooter", "bike_id": "f3328e2e35bbea151eb8d3b48b380cf1"}, {"lon": -77.11432466666666, "lat": 38.85243883333333, "name": "04e3833a392b8a38231f84ea1e505a48", "fusion_lat": 0.0, "fusion_lon": 0.0, "rental_uris": {"android": "https://dc.lft.to/lastmile_qr_scan", "ios": "https://dc.lft.to/lastmile_qr_scan"}, "is_reserved": 0, "is_disabled": 0, "type": "electric_bike", "bike_id": "04e3833a392b8a38231f84ea1e505a48"}, {"lon": -77.03648716666666, "lat": 38.91628566666667, "name": "946295ee24117e12b2018c5775f47b47", "fusion_lat": 0.0, "fusion_lon": 0.0, "rental_uris": {"android": "https://dc.lft.to/lastmile_qr_scan", "ios": "https://dc.lft.to/lastmile_qr_scan"}, "is_reserved": 0, "is_disabled": 0, "type": "electric_scooter", "bike_id": "946295ee24117e12b2018c5775f47b47"}, {"lon": -76.99954433333333, "lat": 38.908599833333334, "name": "42f5b27f6ad39057b688b0b39fde4c93", "fusion_lat": 0.0, "fusion_lon": 0.0, "rental_uris": {"android": "https://dc.lft.to/lastmile_qr_scan", "ios": "https://dc.lft.to/lastmile_qr_scan"}, "is_reserved": 0, "is_disabled": 0, "type": "electric_scooter", "bike_id": "42f5b27f6ad39057b688b0b39fde4c93"}, {"lon": -77.0288965, "lat": 38.907234833333334, "name": "5140fd40fb374ed88a42720544e3c3f2", "fusion_lat": 0.0, "fusion_lon": 0.0, "rental_uris": {"android": "https://dc.lft.to/lastmile_qr_scan", "ios": "https://dc.lft.to/lastmile_qr_scan"}, "is_reserved": 0, "is_disabled": 0, "type": "electric_scooter", "bike_id": "5140fd40fb374ed88a42720544e3c3f2"}, {"lon": -76.997663, "lat": 38.9226195, "name": "c1e1eefbef40f9b8e01ca85189f8afe7", "fusion_lat": 0.0, "fusion_lon": 0.0, "rental_uris": {"android": "https://dc.lft.to/lastmile_qr_scan", "ios": "https://dc.lft.to/lastmile_qr_scan"}, "is_reserved": 0, "is_disabled": 0, "type": "electric_scooter", "bike_id": "c1e1eefbef40f9b8e01ca85189f8afe7"}, {"lon": -77.0532845, "lat": 38.90493266666667, "name": "a403690a53dd1d25514610c51557f17f", "fusion_lat": 0.0, "fusion_lon": 0.0, "rental_uris": {"android": "https://dc.lft.to/lastmile_qr_scan", "ios": "https://dc.lft.to/lastmile_qr_scan"}, "is_reserved": 0, "is_disabled": 0, "type": "electric_scooter", "bike_id": "a403690a53dd1d25514610c51557f17f"}, {"lon": -77.04479316666666, "lat": 38.909009833333336, "name": "1fc0fe361e46320abc9c6c63993b2ec2", "fusion_lat": 0.0, "fusion_lon": 0.0, "rental_uris": {"android": "https://dc.lft.to/lastmile_qr_scan", "ios": "https://dc.lft.to/lastmile_qr_scan"}, "is_reserved": 0, "is_disabled": 0, "type": "electric_scooter", "bike_id": "1fc0fe361e46320abc9c6c63993b2ec2"}, {"lon": -76.97334883333333, "lat": 38.8505935, "name": "492d3cd19982418d6831f86b2e5ec409", "fusion_lat": 0.0, "fusion_lon": 0.0, "rental_uris": {"android": "https://dc.lft.to/lastmile_qr_scan", "ios": "https://dc.lft.to/lastmile_qr_scan"}, "is_reserved": 0, "is_disabled": 0, "type": "electric_bike", "bike_id": "492d3cd19982418d6831f86b2e5ec409"}, {"lon": -77.04535883333334, "lat": 38.9194375, "name": "20c441c0891202f13fe27340af1417c1", "fusion_lat": 0.0, "fusion_lon": 0.0, "rental_uris": {"android": "https://dc.lft.to/lastmile_qr_scan", "ios": "https://dc.lft.to/lastmile_qr_scan"}, "is_reserved": 0, "is_disabled": 0, "type": "electric_scooter", "bike_id": "20c441c0891202f13fe27340af1417c1"}, {"lon": -77.02572933333333, "lat": 38.88403783333333, "name": "bdda219a331fa630da61bcd387a77bf9", "fusion_lat": 0.0, "fusion_lon": 0.0, "rental_uris": {"android": "https://dc.lft.to/lastmile_qr_scan", "ios": "https://dc.lft.to/lastmile_qr_scan"}, "is_reserved": 0, "is_disabled": 0, "type": "electric_scooter", "bike_id": "bdda219a331fa630da61bcd387a77bf9"}, {"lon": -77.02067533333333, "lat": 38.90256866666667, "name": "90b47e23449702f994a08ae02b0b733b", "fusion_lat": 0.0, "fusion_lon": 0.0, "rental_uris": {"android": "https://dc.lft.to/lastmile_qr_scan", "ios": "https://dc.lft.to/lastmile_qr_scan"}, "is_reserved": 0, "is_disabled": 0, "type": "electric_scooter", "bike_id": "90b47e23449702f994a08ae02b0b733b"}, {"lon": -77.03811266666666, "lat": 38.914168, "name": "fa067a7407ae33ac7a95499ee3664324", "fusion_lat": 0.0, "fusion_lon": 0.0, "rental_uris": {"android": "https://dc.lft.to/lastmile_qr_scan", "ios": "https://dc.lft.to/lastmile_qr_scan"}, "is_reserved": 0, "is_disabled": 0, "type": "electric_scooter", "bike_id": "fa067a7407ae33ac7a95499ee3664324"}, {"lon": -77.01768416666667, "lat": 38.9126565, "name": "68a1bbcbdf11032672297088539f548c", "fusion_lat": 0.0, "fusion_lon": 0.0, "rental_uris": {"android": "https://dc.lft.to/lastmile_qr_scan", "ios": "https://dc.lft.to/lastmile_qr_scan"}, "is_reserved": 0, "is_disabled": 0, "type": "electric_scooter", "bike_id": "68a1bbcbdf11032672297088539f548c"}, {"lon": -77.04650416666667, "lat": 38.914202333333336, "name": "3762122292862c2758b3b054fcb55be2", "fusion_lat": 0.0, "fusion_lon": 0.0, "rental_uris": {"android": "https://dc.lft.to/lastmile_qr_scan", "ios": "https://dc.lft.to/lastmile_qr_scan"}, "is_reserved": 0, "is_disabled": 0, "type": "electric_scooter", "bike_id": "3762122292862c2758b3b054fcb55be2"}, {"lon": -77.052747, "lat": 38.910213166666665, "name": "b224b10f1a419788518cdfbd5ce89bec", "fusion_lat": 0.0, "fusion_lon": 0.0, "rental_uris": {"android": "https://dc.lft.to/lastmile_qr_scan", "ios": "https://dc.lft.to/lastmile_qr_scan"}, "is_reserved": 0, "is_disabled": 0, "type": "electric_scooter", "bike_id": "b224b10f1a419788518cdfbd5ce89bec"}, {"lon": -77.02207383333334, "lat": 38.911318, "name": "8fcce3e4090260d952a92d17ed5153ea", "fusion_lat": 0.0, "fusion_lon": 0.0, "rental_uris": {"android": "https://dc.lft.to/lastmile_qr_scan", "ios": "https://dc.lft.to/lastmile_qr_scan"}, "is_reserved": 0, "is_disabled": 0, "type": "electric_scooter", "bike_id": "8fcce3e4090260d952a92d17ed5153ea"}, {"lon": -77.0315985, "lat": 38.911819666666666, "name": "a52898c46d8aebe5cf1723493719f2ff", "fusion_lat": 0.0, "fusion_lon": 0.0, "rental_uris": {"android": "https://dc.lft.to/lastmile_qr_scan", "ios": "https://dc.lft.to/lastmile_qr_scan"}, "is_reserved": 0, "is_disabled": 0, "type": "electric_scooter", "bike_id": "a52898c46d8aebe5cf1723493719f2ff"}, {"lon": -76.99374166666666, "lat": 38.90057266666667, "name": "37fe31f9de48af21aae5512f0f6c35cf", "fusion_lat": 0.0, "fusion_lon": 0.0, "rental_uris": {"android": "https://dc.lft.to/lastmile_qr_scan", "ios": "https://dc.lft.to/lastmile_qr_scan"}, "is_reserved": 0, "is_disabled": 0, "type": "electric_scooter", "bike_id": "37fe31f9de48af21aae5512f0f6c35cf"}, {"lon": -77.03272183333333, "lat": 38.936871, "name": "bdab746506a4faf6c6af044a3693f065", "fusion_lat": 0.0, "fusion_lon": 0.0, "rental_uris": {"android": "https://dc.lft.to/lastmile_qr_scan", "ios": "https://dc.lft.to/lastmile_qr_scan"}, "is_reserved": 0, "is_disabled": 0, "type": "electric_scooter", "bike_id": "bdab746506a4faf6c6af044a3693f065"}, {"lon": -77.02718366666667, "lat": 38.909527, "name": "1827abc121d3f50ca43576d3433f9a39", "fusion_lat": 0.0, "fusion_lon": 0.0, "rental_uris": {"android": "https://dc.lft.to/lastmile_qr_scan", "ios": "https://dc.lft.to/lastmile_qr_scan"}, "is_reserved": 0, "is_disabled": 0, "type": "electric_scooter", "bike_id": "1827abc121d3f50ca43576d3433f9a39"}, {"lon": -77.0298805, "lat": 38.9563135, "name": "ecabbdad95a301c90aaf1d08e379d408", "fusion_lat": 0.0, "fusion_lon": 0.0, "rental_uris": {"android": "https://dc.lft.to/lastmile_qr_scan", "ios": "https://dc.lft.to/lastmile_qr_scan"}, "is_reserved": 0, "is_disabled": 0, "type": "electric_scooter", "bike_id": "ecabbdad95a301c90aaf1d08e379d408"}, {"lon": -77.04133366666667, "lat": 38.923467, "name": "5cbdf0ebe0fc86719924c01aa9d9cfd1", "fusion_lat": 0.0, "fusion_lon": 0.0, "rental_uris": {"android": "https://dc.lft.to/lastmile_qr_scan", "ios": "https://dc.lft.to/lastmile_qr_scan"}, "is_reserved": 0, "is_disabled": 0, "type": "electric_scooter", "bike_id": "5cbdf0ebe0fc86719924c01aa9d9cfd1"}, {"lon": -77.01895433333334, "lat": 38.91729616666667, "name": "40fa2eaa493c08c44248fe7cc0d8ea86", "fusion_lat": 0.0, "fusion_lon": 0.0, "rental_uris": {"android": "https://dc.lft.to/lastmile_qr_scan", "ios": "https://dc.lft.to/lastmile_qr_scan"}, "is_reserved": 0, "is_disabled": 0, "type": "electric_scooter", "bike_id": "40fa2eaa493c08c44248fe7cc0d8ea86"}, {"lon": -77.027148, "lat": 38.91817366666667, "name": "d21fcf16d9e834d4b88a054f71363ec2", "fusion_lat": 0.0, "fusion_lon": 0.0, "rental_uris": {"android": "https://dc.lft.to/lastmile_qr_scan", "ios": "https://dc.lft.to/lastmile_qr_scan"}, "is_reserved": 0, "is_disabled": 0, "type": "electric_scooter", "bike_id": "d21fcf16d9e834d4b88a054f71363ec2"}, {"lon": -77.03175433333334, "lat": 38.900184, "name": "70a81d8c9d3ad237bc91e3a04ff82e1c", "fusion_lat": 0.0, "fusion_lon": 0.0, "rental_uris": {"android": "https://dc.lft.to/lastmile_qr_scan", "ios": "https://dc.lft.to/lastmile_qr_scan"}, "is_reserved": 0, "is_disabled": 0, "type": "electric_scooter", "bike_id": "70a81d8c9d3ad237bc91e3a04ff82e1c"}, {"lon": -77.02256633333333, "lat": 38.9249945, "name": "0ecc7b9bd827878cb7e6efd628d83dcb", "fusion_lat": 0.0, "fusion_lon": 0.0, "rental_uris": {"android": "https://dc.lft.to/lastmile_qr_scan", "ios": "https://dc.lft.to/lastmile_qr_scan"}, "is_reserved": 0, "is_disabled": 0, "type": "electric_scooter", "bike_id": "0ecc7b9bd827878cb7e6efd628d83dcb"}, {"lon": -77.0365265, "lat": 38.95491783333333, "name": "5b29f9b6d1524e246f93cff37f5a19a2", "fusion_lat": 0.0, "fusion_lon": 0.0, "rental_uris": {"android": "https://dc.lft.to/lastmile_qr_scan", "ios": "https://dc.lft.to/lastmile_qr_scan"}, "is_reserved": 0, "is_disabled": 0, "type": "electric_scooter", "bike_id": "5b29f9b6d1524e246f93cff37f5a19a2"}, {"lon": -77.0894445, "lat": 38.84108483333333, "name": "d1b64396b53550f4ba9f4dd8e2f9e074", "fusion_lat": 0.0, "fusion_lon": 0.0, "rental_uris": {"android": "https://dc.lft.to/lastmile_qr_scan", "ios": "https://dc.lft.to/lastmile_qr_scan"}, "is_reserved": 0, "is_disabled": 0, "type": "electric_bike", "bike_id": "d1b64396b53550f4ba9f4dd8e2f9e074"}, {"lon": -77.02814666666667, "lat": 38.92374683333333, "name": "b5154e94e4c3b09e78c47ee9f87a8438", "fusion_lat": 0.0, "fusion_lon": 0.0, "rental_uris": {"android": "https://dc.lft.to/lastmile_qr_scan", "ios": "https://dc.lft.to/lastmile_qr_scan"}, "is_reserved": 0, "is_disabled": 0, "type": "electric_scooter", "bike_id": "b5154e94e4c3b09e78c47ee9f87a8438"}, {"lon": -77.02705016666667, "lat": 38.949988166666664, "name": "dd1593b1bf45a8e825c0972dc5b9d1c9", "fusion_lat": 0.0, "fusion_lon": 0.0, "rental_uris": {"android": "https://dc.lft.to/lastmile_qr_scan", "ios": "https://dc.lft.to/lastmile_qr_scan"}, "is_reserved": 0, "is_disabled": 0, "type": "electric_scooter", "bike_id": "dd1593b1bf45a8e825c0972dc5b9d1c9"}, {"lon": -77.00078033333334, "lat": 38.87497416666667, "name": "c832d4d772fa7d28a4a0fa9957a6a5e0", "fusion_lat": 0.0, "fusion_lon": 0.0, "rental_uris": {"android": "https://dc.lft.to/lastmile_qr_scan", "ios": "https://dc.lft.to/lastmile_qr_scan"}, "is_reserved": 0, "is_disabled": 0, "type": "electric_scooter", "bike_id": "c832d4d772fa7d28a4a0fa9957a6a5e0"}, {"lon": -77.01984683333333, "lat": 38.9023215, "name": "987f9ab36cd2ac058ba8ab0ef00fc489", "fusion_lat": 0.0, "fusion_lon": 0.0, "rental_uris": {"android": "https://dc.lft.to/lastmile_qr_scan", "ios": "https://dc.lft.to/lastmile_qr_scan"}, "is_reserved": 0, "is_disabled": 0, "type": "electric_scooter", "bike_id": "987f9ab36cd2ac058ba8ab0ef00fc489"}, {"lon": -77.04073583333333, "lat": 38.812370666666666, "name": "8e3f56adfeb51cbfb2cbd164fa58b77f", "fusion_lat": 0.0, "fusion_lon": 0.0, "rental_uris": {"android": "https://dc.lft.to/lastmile_qr_scan", "ios": "https://dc.lft.to/lastmile_qr_scan"}, "is_reserved": 0, "is_disabled": 0, "type": "electric_bike", "bike_id": "8e3f56adfeb51cbfb2cbd164fa58b77f"}, {"lon": -77.032921, "lat": 38.9564185, "name": "866334d09e5123779079ce3e7eb9e8e7", "fusion_lat": 0.0, "fusion_lon": 0.0, "rental_uris": {"android": "https://dc.lft.to/lastmile_qr_scan", "ios": "https://dc.lft.to/lastmile_qr_scan"}, "is_reserved": 0, "is_disabled": 0, "type": "electric_scooter", "bike_id": "866334d09e5123779079ce3e7eb9e8e7"}, {"lon": -76.93884433333334, "lat": 38.883298333333336, "name": "34a068ce7889352ce4a28403ed1395a5", "fusion_lat": 0.0, "fusion_lon": 0.0, "rental_uris": {"android": "https://dc.lft.to/lastmile_qr_scan", "ios": "https://dc.lft.to/lastmile_qr_scan"}, "is_reserved": 0, "is_disabled": 0, "type": "electric_bike", "bike_id": "34a068ce7889352ce4a28403ed1395a5"}, {"lon": -77.0027995, "lat": 38.90872566666667, "name": "f49a0586ebd4b8566c831a8bec4df8a1", "fusion_lat": 0.0, "fusion_lon": 0.0, "rental_uris": {"android": "https://dc.lft.to/lastmile_qr_scan", "ios": "https://dc.lft.to/lastmile_qr_scan"}, "is_reserved": 0, "is_disabled": 0, "type": "electric_scooter", "bike_id": "f49a0586ebd4b8566c831a8bec4df8a1"}, {"lon": -77.03290633333333, "lat": 38.905619, "name": "b766c93d6c59f58ec8e9c14f9befb207", "fusion_lat": 0.0, "fusion_lon": 0.0, "rental_uris": {"android": "https://dc.lft.to/lastmile_qr_scan", "ios": "https://dc.lft.to/lastmile_qr_scan"}, "is_reserved": 0, "is_disabled": 0, "type": "electric_scooter", "bike_id": "b766c93d6c59f58ec8e9c14f9befb207"}, {"lon": -77.04445016666666, "lat": 38.918784333333335, "name": "0693eb7a2c3db5a847b8ebc10d6c34f9", "fusion_lat": 0.0, "fusion_lon": 0.0, "rental_uris": {"android": "https://dc.lft.to/lastmile_qr_scan", "ios": "https://dc.lft.to/lastmile_qr_scan"}, "is_reserved": 0, "is_disabled": 0, "type": "electric_scooter", "bike_id": "0693eb7a2c3db5a847b8ebc10d6c34f9"}, {"lon": -77.07168616666667, "lat": 38.914531333333336, "name": "4d668d1913dda6a3b7ca6f162b922ee1", "fusion_lat": 0.0, "fusion_lon": 0.0, "rental_uris": {"android": "https://dc.lft.to/lastmile_qr_scan", "ios": "https://dc.lft.to/lastmile_qr_scan"}, "is_reserved": 0, "is_disabled": 0, "type": "electric_scooter", "bike_id": "4d668d1913dda6a3b7ca6f162b922ee1"}, {"lon": -77.02771716666666, "lat": 38.88158683333333, "name": "9afe61ddfa5f0e4c2b738d3687f663d6", "fusion_lat": 0.0, "fusion_lon": 0.0, "rental_uris": {"android": "https://dc.lft.to/lastmile_qr_scan", "ios": "https://dc.lft.to/lastmile_qr_scan"}, "is_reserved": 0, "is_disabled": 0, "type": "electric_scooter", "bike_id": "9afe61ddfa5f0e4c2b738d3687f663d6"}, {"lon": -76.996351, "lat": 38.846168166666665, "name": "b0378d4192ecd2ebfacb1ff4a85141f6", "fusion_lat": 0.0, "fusion_lon": 0.0, "rental_uris": {"android": "https://dc.lft.to/lastmile_qr_scan", "ios": "https://dc.lft.to/lastmile_qr_scan"}, "is_reserved": 0, "is_disabled": 0, "type": "electric_scooter", "bike_id": "b0378d4192ecd2ebfacb1ff4a85141f6"}, {"lon": -77.043455, "lat": 38.905531333333336, "name": "99ba242f864846eb29ce059e2bc4a0b1", "fusion_lat": 0.0, "fusion_lon": 0.0, "rental_uris": {"android": "https://dc.lft.to/lastmile_qr_scan", "ios": "https://dc.lft.to/lastmile_qr_scan"}, "is_reserved": 0, "is_disabled": 0, "type": "electric_scooter", "bike_id": "99ba242f864846eb29ce059e2bc4a0b1"}, {"lon": -77.03256266666666, "lat": 38.935218, "name": "7765ee761248293b9efc5e442c47d9bd", "fusion_lat": 0.0, "fusion_lon": 0.0, "rental_uris": {"android": "https://dc.lft.to/lastmile_qr_scan", "ios": "https://dc.lft.to/lastmile_qr_scan"}, "is_reserved": 0, "is_disabled": 0, "type": "electric_scooter", "bike_id": "7765ee761248293b9efc5e442c47d9bd"}, {"lon": -77.02207483333333, "lat": 38.905320333333336, "name": "43f05d996c727c057f6f007a68470b29", "fusion_lat": 0.0, "fusion_lon": 0.0, "rental_uris": {"android": "https://dc.lft.to/lastmile_qr_scan", "ios": "https://dc.lft.to/lastmile_qr_scan"}, "is_reserved": 0, "is_disabled": 0, "type": "electric_scooter", "bike_id": "43f05d996c727c057f6f007a68470b29"}, {"lon": -77.04031133333334, "lat": 38.91831416666667, "name": "6965c61316907511901566995cb31811", "fusion_lat": 0.0, "fusion_lon": 0.0, "rental_uris": {"android": "https://dc.lft.to/lastmile_qr_scan", "ios": "https://dc.lft.to/lastmile_qr_scan"}, "is_reserved": 0, "is_disabled": 0, "type": "electric_scooter", "bike_id": "6965c61316907511901566995cb31811"}, {"lon": -76.99788166666667, "lat": 38.84422283333333, "name": "35743542677180c1e1ade6f94a34df89", "fusion_lat": 0.0, "fusion_lon": 0.0, "rental_uris": {"android": "https://dc.lft.to/lastmile_qr_scan", "ios": "https://dc.lft.to/lastmile_qr_scan"}, "is_reserved": 0, "is_disabled": 0, "type": "electric_scooter", "bike_id": "35743542677180c1e1ade6f94a34df89"}, {"lon": -76.98093683333333, "lat": 38.963566666666665, "name": "f3cb616a6a7121d91c69c2ebb1c72119", "fusion_lat": 0.0, "fusion_lon": 0.0, "rental_uris": {"android": "https://dc.lft.to/lastmile_qr_scan", "ios": "https://dc.lft.to/lastmile_qr_scan"}, "is_reserved": 0, "is_disabled": 0, "type": "electric_bike", "bike_id": "f3cb616a6a7121d91c69c2ebb1c72119"}, {"lon": -76.99501583333333, "lat": 38.8805165, "name": "3e58ca607d23144ace0890c634853d02", "fusion_lat": 0.0, "fusion_lon": 0.0, "rental_uris": {"android": "https://dc.lft.to/lastmile_qr_scan", "ios": "https://dc.lft.to/lastmile_qr_scan"}, "is_reserved": 0, "is_disabled": 0, "type": "electric_bike", "bike_id": "3e58ca607d23144ace0890c634853d02"}, {"lon": -77.005518, "lat": 38.911866, "name": "bab27311e2234aafd64d0a76d2c1356b", "fusion_lat": 0.0, "fusion_lon": 0.0, "rental_uris": {"android": "https://dc.lft.to/lastmile_qr_scan", "ios": "https://dc.lft.to/lastmile_qr_scan"}, "is_reserved": 0, "is_disabled": 0, "type": "electric_scooter", "bike_id": "bab27311e2234aafd64d0a76d2c1356b"}, {"lon": -77.01686883333333, "lat": 38.9011425, "name": "c2e2f71a2b51b0546b90ab09a88bcb25", "fusion_lat": 0.0, "fusion_lon": 0.0, "rental_uris": {"android": "https://dc.lft.to/lastmile_qr_scan", "ios": "https://dc.lft.to/lastmile_qr_scan"}, "is_reserved": 0, "is_disabled": 0, "type": "electric_scooter", "bike_id": "c2e2f71a2b51b0546b90ab09a88bcb25"}, {"lon": -77.049041, "lat": 38.88841083333333, "name": "18c82c45861760865e164660352dfd70", "fusion_lat": 0.0, "fusion_lon": 0.0, "rental_uris": {"android": "https://dc.lft.to/lastmile_qr_scan", "ios": "https://dc.lft.to/lastmile_qr_scan"}, "is_reserved": 0, "is_disabled": 0, "type": "electric_scooter", "bike_id": "18c82c45861760865e164660352dfd70"}, {"lon": -77.02724716666667, "lat": 38.90148633333333, "name": "9aaf8c5b8147c78655cccc45943be169", "fusion_lat": 0.0, "fusion_lon": 0.0, "rental_uris": {"android": "https://dc.lft.to/lastmile_qr_scan", "ios": "https://dc.lft.to/lastmile_qr_scan"}, "is_reserved": 0, "is_disabled": 0, "type": "electric_scooter", "bike_id": "9aaf8c5b8147c78655cccc45943be169"}, {"lon": -77.12507233333334, "lat": 39.024225, "name": "e477db9b283d429b1aef9317ed9f9fe6", "fusion_lat": 0.0, "fusion_lon": 0.0, "rental_uris": {"android": "https://dc.lft.to/lastmile_qr_scan", "ios": "https://dc.lft.to/lastmile_qr_scan"}, "is_reserved": 0, "is_disabled": 0, "type": "electric_bike", "bike_id": "e477db9b283d429b1aef9317ed9f9fe6"}, {"lon": -76.99125466666666, "lat": 38.90009516666667, "name": "eabb4b64857630bc4ed93c100b825959", "fusion_lat": 0.0, "fusion_lon": 0.0, "rental_uris": {"android": "https://dc.lft.to/lastmile_qr_scan", "ios": "https://dc.lft.to/lastmile_qr_scan"}, "is_reserved": 0, "is_disabled": 0, "type": "electric_scooter", "bike_id": "eabb4b64857630bc4ed93c100b825959"}, {"lon": -77.0236385, "lat": 38.91971, "name": "7629ee773edca0847dc1c4af392a99d8", "fusion_lat": 0.0, "fusion_lon": 0.0, "rental_uris": {"android": "https://dc.lft.to/lastmile_qr_scan", "ios": "https://dc.lft.to/lastmile_qr_scan"}, "is_reserved": 0, "is_disabled": 0, "type": "electric_scooter", "bike_id": "7629ee773edca0847dc1c4af392a99d8"}, {"lon": -77.04464833333333, "lat": 38.89740483333333, "name": "4d764c284dea6032e94d98336f3872e7", "fusion_lat": 0.0, "fusion_lon": 0.0, "rental_uris": {"android": "https://dc.lft.to/lastmile_qr_scan", "ios": "https://dc.lft.to/lastmile_qr_scan"}, "is_reserved": 0, "is_disabled": 0, "type": "electric_bike", "bike_id": "4d764c284dea6032e94d98336f3872e7"}, {"lon": -77.035981, "lat": 38.906839, "name": "3ef7a5a9c56c71df40d934362c9a3745", "fusion_lat": 0.0, "fusion_lon": 0.0, "rental_uris": {"android": "https://dc.lft.to/lastmile_qr_scan", "ios": "https://dc.lft.to/lastmile_qr_scan"}, "is_reserved": 0, "is_disabled": 0, "type": "electric_bike", "bike_id": "3ef7a5a9c56c71df40d934362c9a3745"}, {"lon": -77.027132, "lat": 38.881347833333336, "name": "0c94a8e3c24c2e2508d8d33b9b9ec0c5", "fusion_lat": 0.0, "fusion_lon": 0.0, "rental_uris": {"android": "https://dc.lft.to/lastmile_qr_scan", "ios": "https://dc.lft.to/lastmile_qr_scan"}, "is_reserved": 0, "is_disabled": 0, "type": "electric_scooter", "bike_id": "0c94a8e3c24c2e2508d8d33b9b9ec0c5"}, {"lon": -77.07175066666667, "lat": 38.95835133333333, "name": "204bb505aebc4a47e1e832acdccd5a17", "fusion_lat": 0.0, "fusion_lon": 0.0, "rental_uris": {"android": "https://dc.lft.to/lastmile_qr_scan", "ios": "https://dc.lft.to/lastmile_qr_scan"}, "is_reserved": 0, "is_disabled": 0, "type": "electric_scooter", "bike_id": "204bb505aebc4a47e1e832acdccd5a17"}, {"lon": -77.043452, "lat": 38.898337833333336, "name": "0dbc2a469f148ab94a9952c3c6d8d2a6", "fusion_lat": 0.0, "fusion_lon": 0.0, "rental_uris": {"android": "https://dc.lft.to/lastmile_qr_scan", "ios": "https://dc.lft.to/lastmile_qr_scan"}, "is_reserved": 0, "is_disabled": 0, "type": "electric_scooter", "bike_id": "0dbc2a469f148ab94a9952c3c6d8d2a6"}, {"lon": -77.02406416666666, "lat": 38.9042405, "name": "edb5ce7ae8044370181cc296418315c7", "fusion_lat": 0.0, "fusion_lon": 0.0, "rental_uris": {"android": "https://dc.lft.to/lastmile_qr_scan", "ios": "https://dc.lft.to/lastmile_qr_scan"}, "is_reserved": 0, "is_disabled": 0, "type": "electric_scooter", "bike_id": "edb5ce7ae8044370181cc296418315c7"}, {"lon": -77.04658183333333, "lat": 38.8933475, "name": "db25022a9e77a69bcdd1bbdc36c979a1", "fusion_lat": 0.0, "fusion_lon": 0.0, "rental_uris": {"android": "https://dc.lft.to/lastmile_qr_scan", "ios": "https://dc.lft.to/lastmile_qr_scan"}, "is_reserved": 0, "is_disabled": 0, "type": "electric_scooter", "bike_id": "db25022a9e77a69bcdd1bbdc36c979a1"}, {"lon": -76.99151016666667, "lat": 38.90041933333333, "name": "1823082c25fb47e5807f409f448ff287", "fusion_lat": 0.0, "fusion_lon": 0.0, "rental_uris": {"android": "https://dc.lft.to/lastmile_qr_scan", "ios": "https://dc.lft.to/lastmile_qr_scan"}, "is_reserved": 0, "is_disabled": 0, "type": "electric_scooter", "bike_id": "1823082c25fb47e5807f409f448ff287"}, {"lon": -77.01089316666666, "lat": 38.893943166666666, "name": "0728057a066561ca459c7b2c10676051", "fusion_lat": 0.0, "fusion_lon": 0.0, "rental_uris": {"android": "https://dc.lft.to/lastmile_qr_scan", "ios": "https://dc.lft.to/lastmile_qr_scan"}, "is_reserved": 0, "is_disabled": 0, "type": "electric_scooter", "bike_id": "0728057a066561ca459c7b2c10676051"}, {"lon": -77.0322255, "lat": 38.89216233333333, "name": "d29adb7b75324159378f455de6693507", "fusion_lat": 0.0, "fusion_lon": 0.0, "rental_uris": {"android": "https://dc.lft.to/lastmile_qr_scan", "ios": "https://dc.lft.to/lastmile_qr_scan"}, "is_reserved": 0, "is_disabled": 0, "type": "electric_scooter", "bike_id": "d29adb7b75324159378f455de6693507"}, {"lon": -77.03077966666666, "lat": 38.90798866666667, "name": "e917f76dc7f6662fe69297bdfa9b5b1c", "fusion_lat": 0.0, "fusion_lon": 0.0, "rental_uris": {"android": "https://dc.lft.to/lastmile_qr_scan", "ios": "https://dc.lft.to/lastmile_qr_scan"}, "is_reserved": 0, "is_disabled": 0, "type": "electric_scooter", "bike_id": "e917f76dc7f6662fe69297bdfa9b5b1c"}, {"lon": -77.10685616666666, "lat": 38.935797, "name": "32bf6c2d94495b989152a79aae516acc", "fusion_lat": 0.0, "fusion_lon": 0.0, "rental_uris": {"android": "https://dc.lft.to/lastmile_qr_scan", "ios": "https://dc.lft.to/lastmile_qr_scan"}, "is_reserved": 0, "is_disabled": 0, "type": "electric_bike", "bike_id": "32bf6c2d94495b989152a79aae516acc"}, {"lon": -77.04467, "lat": 38.912046833333335, "name": "4066211812864f0a36cb57f5db966e47", "fusion_lat": 0.0, "fusion_lon": 0.0, "rental_uris": {"android": "https://dc.lft.to/lastmile_qr_scan", "ios": "https://dc.lft.to/lastmile_qr_scan"}, "is_reserved": 0, "is_disabled": 0, "type": "electric_scooter", "bike_id": "4066211812864f0a36cb57f5db966e47"}, {"lon": -77.02719283333333, "lat": 38.906709, "name": "51e57b8ee5b12686d5b72192079fc668", "fusion_lat": 0.0, "fusion_lon": 0.0, "rental_uris": {"android": "https://dc.lft.to/lastmile_qr_scan", "ios": "https://dc.lft.to/lastmile_qr_scan"}, "is_reserved": 0, "is_disabled": 0, "type": "electric_scooter", "bike_id": "51e57b8ee5b12686d5b72192079fc668"}, {"lon": -77.04914166666667, "lat": 38.9054205, "name": "4f835d15b8712b954b0eb5e458906592", "fusion_lat": 0.0, "fusion_lon": 0.0, "rental_uris": {"android": "https://dc.lft.to/lastmile_qr_scan", "ios": "https://dc.lft.to/lastmile_qr_scan"}, "is_reserved": 0, "is_disabled": 0, "type": "electric_scooter", "bike_id": "4f835d15b8712b954b0eb5e458906592"}, {"lon": -77.03367516666667, "lat": 38.9359075, "name": "dcdd6b31fbfc1ee8e25d4a7fbfc7210b", "fusion_lat": 0.0, "fusion_lon": 0.0, "rental_uris": {"android": "https://dc.lft.to/lastmile_qr_scan", "ios": "https://dc.lft.to/lastmile_qr_scan"}, "is_reserved": 0, "is_disabled": 0, "type": "electric_scooter", "bike_id": "dcdd6b31fbfc1ee8e25d4a7fbfc7210b"}, {"lon": -77.025984, "lat": 38.88735066666667, "name": "455565e3d987838963e2eef5e564a1a7", "fusion_lat": 0.0, "fusion_lon": 0.0, "rental_uris": {"android": "https://dc.lft.to/lastmile_qr_scan", "ios": "https://dc.lft.to/lastmile_qr_scan"}, "is_reserved": 0, "is_disabled": 0, "type": "electric_scooter", "bike_id": "455565e3d987838963e2eef5e564a1a7"}, {"lon": -77.04173716666666, "lat": 38.9023955, "name": "1fee30380e46c7cc049eb82ace77ea37", "fusion_lat": 0.0, "fusion_lon": 0.0, "rental_uris": {"android": "https://dc.lft.to/lastmile_qr_scan", "ios": "https://dc.lft.to/lastmile_qr_scan"}, "is_reserved": 0, "is_disabled": 0, "type": "electric_scooter", "bike_id": "1fee30380e46c7cc049eb82ace77ea37"}, {"lon": -77.03846033333333, "lat": 38.91036166666667, "name": "6b468900ba8a3862c359dcdb81c18411", "fusion_lat": 0.0, "fusion_lon": 0.0, "rental_uris": {"android": "https://dc.lft.to/lastmile_qr_scan", "ios": "https://dc.lft.to/lastmile_qr_scan"}, "is_reserved": 0, "is_disabled": 0, "type": "electric_scooter", "bike_id": "6b468900ba8a3862c359dcdb81c18411"}, {"lon": -77.03265066666667, "lat": 38.938968833333334, "name": "7652e6762515113c19738bbb764bab74", "fusion_lat": 0.0, "fusion_lon": 0.0, "rental_uris": {"android": "https://dc.lft.to/lastmile_qr_scan", "ios": "https://dc.lft.to/lastmile_qr_scan"}, "is_reserved": 0, "is_disabled": 0, "type": "electric_bike", "bike_id": "7652e6762515113c19738bbb764bab74"}, {"lon": -77.0499555, "lat": 38.90118666666667, "name": "a26dfff2f1c9213645617be2a662a2a7", "fusion_lat": 0.0, "fusion_lon": 0.0, "rental_uris": {"android": "https://dc.lft.to/lastmile_qr_scan", "ios": "https://dc.lft.to/lastmile_qr_scan"}, "is_reserved": 0, "is_disabled": 0, "type": "electric_scooter", "bike_id": "a26dfff2f1c9213645617be2a662a2a7"}, {"lon": -77.0333855, "lat": 38.902588333333334, "name": "1ef60e2ef726e0e9e0868b27c41ecbb1", "fusion_lat": 0.0, "fusion_lon": 0.0, "rental_uris": {"android": "https://dc.lft.to/lastmile_qr_scan", "ios": "https://dc.lft.to/lastmile_qr_scan"}, "is_reserved": 0, "is_disabled": 0, "type": "electric_scooter", "bike_id": "1ef60e2ef726e0e9e0868b27c41ecbb1"}, {"lon": -76.97597783333333, "lat": 38.90330566666667, "name": "2e58b2db5997332769f0331a443693de", "fusion_lat": 0.0, "fusion_lon": 0.0, "rental_uris": {"android": "https://dc.lft.to/lastmile_qr_scan", "ios": "https://dc.lft.to/lastmile_qr_scan"}, "is_reserved": 0, "is_disabled": 0, "type": "electric_scooter", "bike_id": "2e58b2db5997332769f0331a443693de"}, {"lon": -77.06437016666666, "lat": 38.910362, "name": "7f429e969222fe4cfa8eee2dcca70e8a", "fusion_lat": 0.0, "fusion_lon": 0.0, "rental_uris": {"android": "https://dc.lft.to/lastmile_qr_scan", "ios": "https://dc.lft.to/lastmile_qr_scan"}, "is_reserved": 0, "is_disabled": 0, "type": "electric_scooter", "bike_id": "7f429e969222fe4cfa8eee2dcca70e8a"}, {"lon": -77.00336633333333, "lat": 38.893537, "name": "29d92747398f3b32416fa73694bc3819", "fusion_lat": 0.0, "fusion_lon": 0.0, "rental_uris": {"android": "https://dc.lft.to/lastmile_qr_scan", "ios": "https://dc.lft.to/lastmile_qr_scan"}, "is_reserved": 0, "is_disabled": 0, "type": "electric_scooter", "bike_id": "29d92747398f3b32416fa73694bc3819"}, {"lon": -77.03216666666667, "lat": 38.89215166666666, "name": "b8feeba8899b29087a7e71a1b90dc8d2", "fusion_lat": 0.0, "fusion_lon": 0.0, "rental_uris": {"android": "https://dc.lft.to/lastmile_qr_scan", "ios": "https://dc.lft.to/lastmile_qr_scan"}, "is_reserved": 0, "is_disabled": 0, "type": "electric_scooter", "bike_id": "b8feeba8899b29087a7e71a1b90dc8d2"}, {"lon": -76.9982845, "lat": 38.84417766666667, "name": "4cfa6e370dae75faf7e4e8c5612e7da2", "fusion_lat": 0.0, "fusion_lon": 0.0, "rental_uris": {"android": "https://dc.lft.to/lastmile_qr_scan", "ios": "https://dc.lft.to/lastmile_qr_scan"}, "is_reserved": 0, "is_disabled": 0, "type": "electric_scooter", "bike_id": "4cfa6e370dae75faf7e4e8c5612e7da2"}, {"lon": -77.03285966666667, "lat": 38.898820666666666, "name": "9ed40e1961c05619b815d60c7e2bc802", "fusion_lat": 0.0, "fusion_lon": 0.0, "rental_uris": {"android": "https://dc.lft.to/lastmile_qr_scan", "ios": "https://dc.lft.to/lastmile_qr_scan"}, "is_reserved": 0, "is_disabled": 0, "type": "electric_scooter", "bike_id": "9ed40e1961c05619b815d60c7e2bc802"}, {"lon": -76.987424, "lat": 38.85790183333334, "name": "7449575dd9100d57f722e93251a224e9", "fusion_lat": 0.0, "fusion_lon": 0.0, "rental_uris": {"android": "https://dc.lft.to/lastmile_qr_scan", "ios": "https://dc.lft.to/lastmile_qr_scan"}, "is_reserved": 0, "is_disabled": 0, "type": "electric_bike", "bike_id": "7449575dd9100d57f722e93251a224e9"}, {"lon": -76.98401833333334, "lat": 38.921984333333334, "name": "6990a8907b787f7acd6a0f90aef81aad", "fusion_lat": 0.0, "fusion_lon": 0.0, "rental_uris": {"android": "https://dc.lft.to/lastmile_qr_scan", "ios": "https://dc.lft.to/lastmile_qr_scan"}, "is_reserved": 0, "is_disabled": 0, "type": "electric_bike", "bike_id": "6990a8907b787f7acd6a0f90aef81aad"}, {"lon": -77.029668, "lat": 38.892182, "name": "001879945ccc045b23e9fe3213b44198", "fusion_lat": 0.0, "fusion_lon": 0.0, "rental_uris": {"android": "https://dc.lft.to/lastmile_qr_scan", "ios": "https://dc.lft.to/lastmile_qr_scan"}, "is_reserved": 0, "is_disabled": 0, "type": "electric_scooter", "bike_id": "001879945ccc045b23e9fe3213b44198"}, {"lon": -77.03126116666667, "lat": 38.910317, "name": "b685ea5bfd03b45a190957f07a8403a5", "fusion_lat": 0.0, "fusion_lon": 0.0, "rental_uris": {"android": "https://dc.lft.to/lastmile_qr_scan", "ios": "https://dc.lft.to/lastmile_qr_scan"}, "is_reserved": 0, "is_disabled": 0, "type": "electric_scooter", "bike_id": "b685ea5bfd03b45a190957f07a8403a5"}, {"lon": -77.04008233333333, "lat": 38.898610833333336, "name": "2b8512a65666e280f840f06fdf20774c", "fusion_lat": 0.0, "fusion_lon": 0.0, "rental_uris": {"android": "https://dc.lft.to/lastmile_qr_scan", "ios": "https://dc.lft.to/lastmile_qr_scan"}, "is_reserved": 0, "is_disabled": 0, "type": "electric_scooter", "bike_id": "2b8512a65666e280f840f06fdf20774c"}, {"lon": -77.0433215, "lat": 38.903676, "name": "f3d1cb1e7a5a70b2387cb5e18e1a0838", "fusion_lat": 0.0, "fusion_lon": 0.0, "rental_uris": {"android": "https://dc.lft.to/lastmile_qr_scan", "ios": "https://dc.lft.to/lastmile_qr_scan"}, "is_reserved": 0, "is_disabled": 0, "type": "electric_scooter", "bike_id": "f3d1cb1e7a5a70b2387cb5e18e1a0838"}, {"lon": -77.126261, "lat": 39.058114333333336, "name": "76048aa566d24eb3f2df62d709b88318", "fusion_lat": 0.0, "fusion_lon": 0.0, "rental_uris": {"android": "https://dc.lft.to/lastmile_qr_scan", "ios": "https://dc.lft.to/lastmile_qr_scan"}, "is_reserved": 0, "is_disabled": 0, "type": "electric_bike", "bike_id": "76048aa566d24eb3f2df62d709b88318"}, {"lon": -77.07165416666666, "lat": 38.9077625, "name": "c387f844410a47138381b0bed6fbb2cc", "fusion_lat": 0.0, "fusion_lon": 0.0, "rental_uris": {"android": "https://dc.lft.to/lastmile_qr_scan", "ios": "https://dc.lft.to/lastmile_qr_scan"}, "is_reserved": 0, "is_disabled": 0, "type": "electric_scooter", "bike_id": "c387f844410a47138381b0bed6fbb2cc"}, {"lon": -77.03221283333333, "lat": 38.916401666666665, "name": "9a9201d46c6cca75924ca7cfe2737f1d", "fusion_lat": 0.0, "fusion_lon": 0.0, "rental_uris": {"android": "https://dc.lft.to/lastmile_qr_scan", "ios": "https://dc.lft.to/lastmile_qr_scan"}, "is_reserved": 0, "is_disabled": 0, "type": "electric_scooter", "bike_id": "9a9201d46c6cca75924ca7cfe2737f1d"}, {"lon": -77.03179466666667, "lat": 38.919124, "name": "4992824239df9d26379b532214293109", "fusion_lat": 0.0, "fusion_lon": 0.0, "rental_uris": {"android": "https://dc.lft.to/lastmile_qr_scan", "ios": "https://dc.lft.to/lastmile_qr_scan"}, "is_reserved": 0, "is_disabled": 0, "type": "electric_scooter", "bike_id": "4992824239df9d26379b532214293109"}, {"lon": -77.0793785, "lat": 38.948741166666665, "name": "1c165daaa0b88486f6e4f9901b77d74a", "fusion_lat": 0.0, "fusion_lon": 0.0, "rental_uris": {"android": "https://dc.lft.to/lastmile_qr_scan", "ios": "https://dc.lft.to/lastmile_qr_scan"}, "is_reserved": 0, "is_disabled": 0, "type": "electric_scooter", "bike_id": "1c165daaa0b88486f6e4f9901b77d74a"}, {"lon": -77.03330516666666, "lat": 38.8999545, "name": "645734eb0a14b4854eef963f3e60a7dd", "fusion_lat": 0.0, "fusion_lon": 0.0, "rental_uris": {"android": "https://dc.lft.to/lastmile_qr_scan", "ios": "https://dc.lft.to/lastmile_qr_scan"}, "is_reserved": 0, "is_disabled": 0, "type": "electric_scooter", "bike_id": "645734eb0a14b4854eef963f3e60a7dd"}, {"lon": -77.05275466666667, "lat": 38.91023166666667, "name": "734462efa7ff6d2caa1fea0a025a128f", "fusion_lat": 0.0, "fusion_lon": 0.0, "rental_uris": {"android": "https://dc.lft.to/lastmile_qr_scan", "ios": "https://dc.lft.to/lastmile_qr_scan"}, "is_reserved": 0, "is_disabled": 0, "type": "electric_scooter", "bike_id": "734462efa7ff6d2caa1fea0a025a128f"}, {"lon": -77.00719466666666, "lat": 38.91338866666667, "name": "de562465ea7df140c63f5a3295428a2e", "fusion_lat": 0.0, "fusion_lon": 0.0, "rental_uris": {"android": "https://dc.lft.to/lastmile_qr_scan", "ios": "https://dc.lft.to/lastmile_qr_scan"}, "is_reserved": 0, "is_disabled": 0, "type": "electric_scooter", "bike_id": "de562465ea7df140c63f5a3295428a2e"}, {"lon": -76.99027016666666, "lat": 38.86400866666666, "name": "948460fd0ae360f6c3f3e1d6e8136324", "fusion_lat": 0.0, "fusion_lon": 0.0, "rental_uris": {"android": "https://dc.lft.to/lastmile_qr_scan", "ios": "https://dc.lft.to/lastmile_qr_scan"}, "is_reserved": 0, "is_disabled": 0, "type": "electric_scooter", "bike_id": "948460fd0ae360f6c3f3e1d6e8136324"}, {"lon": -77.03968033333334, "lat": 38.91993766666667, "name": "78e154673a79363b6a2fb9e52c6621f0", "fusion_lat": 0.0, "fusion_lon": 0.0, "rental_uris": {"android": "https://dc.lft.to/lastmile_qr_scan", "ios": "https://dc.lft.to/lastmile_qr_scan"}, "is_reserved": 0, "is_disabled": 0, "type": "electric_scooter", "bike_id": "78e154673a79363b6a2fb9e52c6621f0"}, {"lon": -77.02797133333333, "lat": 38.95677466666667, "name": "340934339d5b0315abe440dda7216136", "fusion_lat": 0.0, "fusion_lon": 0.0, "rental_uris": {"android": "https://dc.lft.to/lastmile_qr_scan", "ios": "https://dc.lft.to/lastmile_qr_scan"}, "is_reserved": 0, "is_disabled": 0, "type": "electric_scooter", "bike_id": "340934339d5b0315abe440dda7216136"}, {"lon": -77.0137985, "lat": 38.875940166666666, "name": "f65d7f14cf29bc17cb8e79bfd76ef952", "fusion_lat": 0.0, "fusion_lon": 0.0, "rental_uris": {"android": "https://dc.lft.to/lastmile_qr_scan", "ios": "https://dc.lft.to/lastmile_qr_scan"}, "is_reserved": 0, "is_disabled": 0, "type": "electric_scooter", "bike_id": "f65d7f14cf29bc17cb8e79bfd76ef952"}, {"lon": -76.9300035, "lat": 38.8879995, "name": "28f1dc163375daf8c41edafece9cba49", "fusion_lat": 0.0, "fusion_lon": 0.0, "rental_uris": {"android": "https://dc.lft.to/lastmile_qr_scan", "ios": "https://dc.lft.to/lastmile_qr_scan"}, "is_reserved": 0, "is_disabled": 0, "type": "electric_bike", "bike_id": "28f1dc163375daf8c41edafece9cba49"}, {"lon": -77.01600233333333, "lat": 38.89612533333333, "name": "1bfdb184849c79368e28675813912bea", "fusion_lat": 0.0, "fusion_lon": 0.0, "rental_uris": {"android": "https://dc.lft.to/lastmile_qr_scan", "ios": "https://dc.lft.to/lastmile_qr_scan"}, "is_reserved": 0, "is_disabled": 0, "type": "electric_scooter", "bike_id": "1bfdb184849c79368e28675813912bea"}, {"lon": -77.02880483333334, "lat": 38.911269, "name": "94d3d1019204fa5702e9f52946c8cb53", "fusion_lat": 0.0, "fusion_lon": 0.0, "rental_uris": {"android": "https://dc.lft.to/lastmile_qr_scan", "ios": "https://dc.lft.to/lastmile_qr_scan"}, "is_reserved": 0, "is_disabled": 0, "type": "electric_scooter", "bike_id": "94d3d1019204fa5702e9f52946c8cb53"}, {"lon": -77.02509466666666, "lat": 38.93414966666667, "name": "75ef61577ed3b936fccc59ea1b376fe8", "fusion_lat": 0.0, "fusion_lon": 0.0, "rental_uris": {"android": "https://dc.lft.to/lastmile_qr_scan", "ios": "https://dc.lft.to/lastmile_qr_scan"}, "is_reserved": 0, "is_disabled": 0, "type": "electric_bike", "bike_id": "75ef61577ed3b936fccc59ea1b376fe8"}, {"lon": -77.04378, "lat": 38.892214, "name": "a0c0b4d139bc06ac41a7d385c0d88759", "fusion_lat": 0.0, "fusion_lon": 0.0, "rental_uris": {"android": "https://dc.lft.to/lastmile_qr_scan", "ios": "https://dc.lft.to/lastmile_qr_scan"}, "is_reserved": 0, "is_disabled": 0, "type": "electric_scooter", "bike_id": "a0c0b4d139bc06ac41a7d385c0d88759"}, {"lon": -77.01871983333334, "lat": 38.88745733333333, "name": "476c7d49ca5cf16e8bbf7466cfabc082", "fusion_lat": 0.0, "fusion_lon": 0.0, "rental_uris": {"android": "https://dc.lft.to/lastmile_qr_scan", "ios": "https://dc.lft.to/lastmile_qr_scan"}, "is_reserved": 0, "is_disabled": 0, "type": "electric_scooter", "bike_id": "476c7d49ca5cf16e8bbf7466cfabc082"}, {"lon": -76.99719283333333, "lat": 38.900284666666664, "name": "e4c970671c6f497272b27d5541819a23", "fusion_lat": 0.0, "fusion_lon": 0.0, "rental_uris": {"android": "https://dc.lft.to/lastmile_qr_scan", "ios": "https://dc.lft.to/lastmile_qr_scan"}, "is_reserved": 0, "is_disabled": 0, "type": "electric_scooter", "bike_id": "e4c970671c6f497272b27d5541819a23"}, {"lon": -77.02604766666667, "lat": 38.904805, "name": "58badc315f1cd56d36f2f2b4c39eeb74", "fusion_lat": 0.0, "fusion_lon": 0.0, "rental_uris": {"android": "https://dc.lft.to/lastmile_qr_scan", "ios": "https://dc.lft.to/lastmile_qr_scan"}, "is_reserved": 0, "is_disabled": 0, "type": "electric_scooter", "bike_id": "58badc315f1cd56d36f2f2b4c39eeb74"}, {"lon": -77.01942116666666, "lat": 38.90247133333333, "name": "3b42ca5c98f5245c8e484f654be011e7", "fusion_lat": 0.0, "fusion_lon": 0.0, "rental_uris": {"android": "https://dc.lft.to/lastmile_qr_scan", "ios": "https://dc.lft.to/lastmile_qr_scan"}, "is_reserved": 0, "is_disabled": 0, "type": "electric_scooter", "bike_id": "3b42ca5c98f5245c8e484f654be011e7"}, {"lon": -77.04911666666666, "lat": 38.88837683333333, "name": "1cd01e7458779eb82ad74cde45714465", "fusion_lat": 0.0, "fusion_lon": 0.0, "rental_uris": {"android": "https://dc.lft.to/lastmile_qr_scan", "ios": "https://dc.lft.to/lastmile_qr_scan"}, "is_reserved": 0, "is_disabled": 0, "type": "electric_scooter", "bike_id": "1cd01e7458779eb82ad74cde45714465"}, {"lon": -76.90965933333334, "lat": 38.854249833333334, "name": "6e811c1856782012575d5a477dee9134", "fusion_lat": 0.0, "fusion_lon": 0.0, "rental_uris": {"android": "https://dc.lft.to/lastmile_qr_scan", "ios": "https://dc.lft.to/lastmile_qr_scan"}, "is_reserved": 0, "is_disabled": 0, "type": "electric_bike", "bike_id": "6e811c1856782012575d5a477dee9134"}, {"lon": -77.03661416666667, "lat": 38.9363765, "name": "9679ee455cdeb1a1b85654e865dbe57a", "fusion_lat": 0.0, "fusion_lon": 0.0, "rental_uris": {"android": "https://dc.lft.to/lastmile_qr_scan", "ios": "https://dc.lft.to/lastmile_qr_scan"}, "is_reserved": 0, "is_disabled": 0, "type": "electric_scooter", "bike_id": "9679ee455cdeb1a1b85654e865dbe57a"}, {"lon": -77.04175566666666, "lat": 38.914607833333335, "name": "35e63e13481701432428ef760be2a22e", "fusion_lat": 0.0, "fusion_lon": 0.0, "rental_uris": {"android": "https://dc.lft.to/lastmile_qr_scan", "ios": "https://dc.lft.to/lastmile_qr_scan"}, "is_reserved": 0, "is_disabled": 0, "type": "electric_scooter", "bike_id": "35e63e13481701432428ef760be2a22e"}, {"lon": -77.02308883333333, "lat": 38.901573, "name": "b4db605ef9318d8c53fc333b21b12665", "fusion_lat": 0.0, "fusion_lon": 0.0, "rental_uris": {"android": "https://dc.lft.to/lastmile_qr_scan", "ios": "https://dc.lft.to/lastmile_qr_scan"}, "is_reserved": 0, "is_disabled": 0, "type": "electric_scooter", "bike_id": "b4db605ef9318d8c53fc333b21b12665"}, {"lon": -76.931594, "lat": 38.89875833333333, "name": "2800ed7c23c0d43df8759a801c6f9ac0", "fusion_lat": 0.0, "fusion_lon": 0.0, "rental_uris": {"android": "https://dc.lft.to/lastmile_qr_scan", "ios": "https://dc.lft.to/lastmile_qr_scan"}, "is_reserved": 0, "is_disabled": 0, "type": "electric_scooter", "bike_id": "2800ed7c23c0d43df8759a801c6f9ac0"}, {"lon": -77.026972, "lat": 38.9163605, "name": "4d8495a351178bd4cc09b1c862625592", "fusion_lat": 0.0, "fusion_lon": 0.0, "rental_uris": {"android": "https://dc.lft.to/lastmile_qr_scan", "ios": "https://dc.lft.to/lastmile_qr_scan"}, "is_reserved": 0, "is_disabled": 0, "type": "electric_scooter", "bike_id": "4d8495a351178bd4cc09b1c862625592"}, {"lon": -77.11224866666667, "lat": 38.82870616666666, "name": "3f542c03fb36352b5da6f32a80895afc", "fusion_lat": 0.0, "fusion_lon": 0.0, "rental_uris": {"android": "https://dc.lft.to/lastmile_qr_scan", "ios": "https://dc.lft.to/lastmile_qr_scan"}, "is_reserved": 0, "is_disabled": 0, "type": "electric_bike", "bike_id": "3f542c03fb36352b5da6f32a80895afc"}, {"lon": -77.03134666666666, "lat": 38.91562616666667, "name": "5a0b80c02525a5ab0b5df751d609e267", "fusion_lat": 0.0, "fusion_lon": 0.0, "rental_uris": {"android": "https://dc.lft.to/lastmile_qr_scan", "ios": "https://dc.lft.to/lastmile_qr_scan"}, "is_reserved": 0, "is_disabled": 0, "type": "electric_scooter", "bike_id": "5a0b80c02525a5ab0b5df751d609e267"}, {"lon": -76.98573666666667, "lat": 38.91436433333333, "name": "029bd6bbf42455c8940c27a9f8b4dd45", "fusion_lat": 0.0, "fusion_lon": 0.0, "rental_uris": {"android": "https://dc.lft.to/lastmile_qr_scan", "ios": "https://dc.lft.to/lastmile_qr_scan"}, "is_reserved": 0, "is_disabled": 0, "type": "electric_scooter", "bike_id": "029bd6bbf42455c8940c27a9f8b4dd45"}, {"lon": -76.874994, "lat": 38.990899, "name": "7f742f051cc7deb42739325673d0f16b", "fusion_lat": 0.0, "fusion_lon": 0.0, "rental_uris": {"android": "https://dc.lft.to/lastmile_qr_scan", "ios": "https://dc.lft.to/lastmile_qr_scan"}, "is_reserved": 0, "is_disabled": 0, "type": "electric_bike", "bike_id": "7f742f051cc7deb42739325673d0f16b"}, {"lon": -77.04391366666667, "lat": 38.907123166666665, "name": "4af078bf7b03808a77e77e629829bfa0", "fusion_lat": 0.0, "fusion_lon": 0.0, "rental_uris": {"android": "https://dc.lft.to/lastmile_qr_scan", "ios": "https://dc.lft.to/lastmile_qr_scan"}, "is_reserved": 0, "is_disabled": 0, "type": "electric_scooter", "bike_id": "4af078bf7b03808a77e77e629829bfa0"}, {"lon": -77.02961883333333, "lat": 38.93034883333333, "name": "c0fecb68149e9904a5c62a74f43538fc", "fusion_lat": 0.0, "fusion_lon": 0.0, "rental_uris": {"android": "https://dc.lft.to/lastmile_qr_scan", "ios": "https://dc.lft.to/lastmile_qr_scan"}, "is_reserved": 0, "is_disabled": 0, "type": "electric_scooter", "bike_id": "c0fecb68149e9904a5c62a74f43538fc"}, {"lon": -77.0319515, "lat": 38.91740866666667, "name": "5c7d382405651cee42c0f5b39c3d55b0", "fusion_lat": 0.0, "fusion_lon": 0.0, "rental_uris": {"android": "https://dc.lft.to/lastmile_qr_scan", "ios": "https://dc.lft.to/lastmile_qr_scan"}, "is_reserved": 0, "is_disabled": 0, "type": "electric_scooter", "bike_id": "5c7d382405651cee42c0f5b39c3d55b0"}, {"lon": -77.04509116666667, "lat": 38.9127615, "name": "5dde56048044771661f84f1f9638e509", "fusion_lat": 0.0, "fusion_lon": 0.0, "rental_uris": {"android": "https://dc.lft.to/lastmile_qr_scan", "ios": "https://dc.lft.to/lastmile_qr_scan"}, "is_reserved": 0, "is_disabled": 0, "type": "electric_scooter", "bike_id": "5dde56048044771661f84f1f9638e509"}, {"lon": -77.02697866666666, "lat": 38.9126705, "name": "a76b040d2c245ba9bc01f1918ba2217d", "fusion_lat": 0.0, "fusion_lon": 0.0, "rental_uris": {"android": "https://dc.lft.to/lastmile_qr_scan", "ios": "https://dc.lft.to/lastmile_qr_scan"}, "is_reserved": 0, "is_disabled": 0, "type": "electric_scooter", "bike_id": "a76b040d2c245ba9bc01f1918ba2217d"}, {"lon": -77.001326, "lat": 38.9000225, "name": "395c85d2780e25d6f8025083b80739b2", "fusion_lat": 0.0, "fusion_lon": 0.0, "rental_uris": {"android": "https://dc.lft.to/lastmile_qr_scan", "ios": "https://dc.lft.to/lastmile_qr_scan"}, "is_reserved": 0, "is_disabled": 0, "type": "electric_scooter", "bike_id": "395c85d2780e25d6f8025083b80739b2"}, {"lon": -77.03908266666667, "lat": 38.921727, "name": "8e647592852abd2fb7f1070bb437b0fe", "fusion_lat": 0.0, "fusion_lon": 0.0, "rental_uris": {"android": "https://dc.lft.to/lastmile_qr_scan", "ios": "https://dc.lft.to/lastmile_qr_scan"}, "is_reserved": 0, "is_disabled": 0, "type": "electric_scooter", "bike_id": "8e647592852abd2fb7f1070bb437b0fe"}, {"lon": -77.0334555, "lat": 38.92873733333333, "name": "57386f2332240058f793d58fd3ef112b", "fusion_lat": 0.0, "fusion_lon": 0.0, "rental_uris": {"android": "https://dc.lft.to/lastmile_qr_scan", "ios": "https://dc.lft.to/lastmile_qr_scan"}, "is_reserved": 0, "is_disabled": 0, "type": "electric_scooter", "bike_id": "57386f2332240058f793d58fd3ef112b"}, {"lon": -77.0283845, "lat": 38.8876655, "name": "ee1e3834b3815e97956e9479c382d12a", "fusion_lat": 0.0, "fusion_lon": 0.0, "rental_uris": {"android": "https://dc.lft.to/lastmile_qr_scan", "ios": "https://dc.lft.to/lastmile_qr_scan"}, "is_reserved": 0, "is_disabled": 0, "type": "electric_scooter", "bike_id": "ee1e3834b3815e97956e9479c382d12a"}, {"lon": -77.0185805, "lat": 38.93996416666667, "name": "f35eb2912a79ec21a30bebf94e99d7c0", "fusion_lat": 0.0, "fusion_lon": 0.0, "rental_uris": {"android": "https://dc.lft.to/lastmile_qr_scan", "ios": "https://dc.lft.to/lastmile_qr_scan"}, "is_reserved": 0, "is_disabled": 0, "type": "electric_scooter", "bike_id": "f35eb2912a79ec21a30bebf94e99d7c0"}, {"lon": -77.03822883333333, "lat": 38.907798, "name": "8df70d731d32385b64251941e802653d", "fusion_lat": 0.0, "fusion_lon": 0.0, "rental_uris": {"android": "https://dc.lft.to/lastmile_qr_scan", "ios": "https://dc.lft.to/lastmile_qr_scan"}, "is_reserved": 0, "is_disabled": 0, "type": "electric_scooter", "bike_id": "8df70d731d32385b64251941e802653d"}, {"lon": -77.02257566666667, "lat": 38.9126375, "name": "31a6b5b68ca17dd0007cbc14cf5dcd74", "fusion_lat": 0.0, "fusion_lon": 0.0, "rental_uris": {"android": "https://dc.lft.to/lastmile_qr_scan", "ios": "https://dc.lft.to/lastmile_qr_scan"}, "is_reserved": 0, "is_disabled": 0, "type": "electric_scooter", "bike_id": "31a6b5b68ca17dd0007cbc14cf5dcd74"}, {"lon": -77.02218433333333, "lat": 38.91555533333333, "name": "3c2ddbb192bb0053aea70e5a1db96abd", "fusion_lat": 0.0, "fusion_lon": 0.0, "rental_uris": {"android": "https://dc.lft.to/lastmile_qr_scan", "ios": "https://dc.lft.to/lastmile_qr_scan"}, "is_reserved": 0, "is_disabled": 0, "type": "electric_scooter", "bike_id": "3c2ddbb192bb0053aea70e5a1db96abd"}, {"lon": -77.02410316666666, "lat": 38.91104433333334, "name": "ba6a99e150265666601c2e34bb5a0d2e", "fusion_lat": 0.0, "fusion_lon": 0.0, "rental_uris": {"android": "https://dc.lft.to/lastmile_qr_scan", "ios": "https://dc.lft.to/lastmile_qr_scan"}, "is_reserved": 0, "is_disabled": 0, "type": "electric_scooter", "bike_id": "ba6a99e150265666601c2e34bb5a0d2e"}, {"lon": -77.01696366666667, "lat": 38.920015166666666, "name": "9c44e1608126ac4a91d5c5e62bf3b2b4", "fusion_lat": 0.0, "fusion_lon": 0.0, "rental_uris": {"android": "https://dc.lft.to/lastmile_qr_scan", "ios": "https://dc.lft.to/lastmile_qr_scan"}, "is_reserved": 0, "is_disabled": 0, "type": "electric_scooter", "bike_id": "9c44e1608126ac4a91d5c5e62bf3b2b4"}, {"lon": -77.06404583333334, "lat": 38.843432166666666, "name": "cf51d3408adca4a26b37fb2833a44931", "fusion_lat": 0.0, "fusion_lon": 0.0, "rental_uris": {"android": "https://dc.lft.to/lastmile_qr_scan", "ios": "https://dc.lft.to/lastmile_qr_scan"}, "is_reserved": 0, "is_disabled": 0, "type": "electric_bike", "bike_id": "cf51d3408adca4a26b37fb2833a44931"}, {"lon": -77.0434755, "lat": 38.90505733333333, "name": "97e436f990d0f5a68519cfbdcb202cfa", "fusion_lat": 0.0, "fusion_lon": 0.0, "rental_uris": {"android": "https://dc.lft.to/lastmile_qr_scan", "ios": "https://dc.lft.to/lastmile_qr_scan"}, "is_reserved": 0, "is_disabled": 0, "type": "electric_scooter", "bike_id": "97e436f990d0f5a68519cfbdcb202cfa"}, {"lon": -77.020013, "lat": 38.913438666666664, "name": "58987312c44d65a303c0a0362caae2be", "fusion_lat": 0.0, "fusion_lon": 0.0, "rental_uris": {"android": "https://dc.lft.to/lastmile_qr_scan", "ios": "https://dc.lft.to/lastmile_qr_scan"}, "is_reserved": 0, "is_disabled": 0, "type": "electric_scooter", "bike_id": "58987312c44d65a303c0a0362caae2be"}, {"lon": -77.03436266666667, "lat": 38.90724616666667, "name": "c14045b4db0e22e24117c18e80d3d1ad", "fusion_lat": 0.0, "fusion_lon": 0.0, "rental_uris": {"android": "https://dc.lft.to/lastmile_qr_scan", "ios": "https://dc.lft.to/lastmile_qr_scan"}, "is_reserved": 0, "is_disabled": 0, "type": "electric_scooter", "bike_id": "c14045b4db0e22e24117c18e80d3d1ad"}, {"lon": -77.02382766666666, "lat": 38.911498333333334, "name": "d7600d6fb3c43b6ab44c74f06a478c7a", "fusion_lat": 0.0, "fusion_lon": 0.0, "rental_uris": {"android": "https://dc.lft.to/lastmile_qr_scan", "ios": "https://dc.lft.to/lastmile_qr_scan"}, "is_reserved": 0, "is_disabled": 0, "type": "electric_scooter", "bike_id": "d7600d6fb3c43b6ab44c74f06a478c7a"}, {"lon": -76.95533566666667, "lat": 38.888677, "name": "d8287c54e505bc9c923b3d8b62e6700f", "fusion_lat": 0.0, "fusion_lon": 0.0, "rental_uris": {"android": "https://dc.lft.to/lastmile_qr_scan", "ios": "https://dc.lft.to/lastmile_qr_scan"}, "is_reserved": 0, "is_disabled": 0, "type": "electric_scooter", "bike_id": "d8287c54e505bc9c923b3d8b62e6700f"}, {"lon": -77.02342416666667, "lat": 38.89221666666667, "name": "0892275811b9a5bf44f731450b2452c6", "fusion_lat": 0.0, "fusion_lon": 0.0, "rental_uris": {"android": "https://dc.lft.to/lastmile_qr_scan", "ios": "https://dc.lft.to/lastmile_qr_scan"}, "is_reserved": 0, "is_disabled": 0, "type": "electric_scooter", "bike_id": "0892275811b9a5bf44f731450b2452c6"}, {"lon": -77.03008383333334, "lat": 38.89973416666667, "name": "dd8705f6208dae83077d29f0b8cbf228", "fusion_lat": 0.0, "fusion_lon": 0.0, "rental_uris": {"android": "https://dc.lft.to/lastmile_qr_scan", "ios": "https://dc.lft.to/lastmile_qr_scan"}, "is_reserved": 0, "is_disabled": 0, "type": "electric_scooter", "bike_id": "dd8705f6208dae83077d29f0b8cbf228"}, {"lon": -77.0301615, "lat": 38.9348485, "name": "5008d668fb99a6ce0bd289121856f747", "fusion_lat": 0.0, "fusion_lon": 0.0, "rental_uris": {"android": "https://dc.lft.to/lastmile_qr_scan", "ios": "https://dc.lft.to/lastmile_qr_scan"}, "is_reserved": 0, "is_disabled": 0, "type": "electric_bike", "bike_id": "5008d668fb99a6ce0bd289121856f747"}, {"lon": -77.03354616666667, "lat": 38.88756433333333, "name": "b312526ac839f33f7efa1434ae34022b", "fusion_lat": 0.0, "fusion_lon": 0.0, "rental_uris": {"android": "https://dc.lft.to/lastmile_qr_scan", "ios": "https://dc.lft.to/lastmile_qr_scan"}, "is_reserved": 0, "is_disabled": 0, "type": "electric_scooter", "bike_id": "b312526ac839f33f7efa1434ae34022b"}, {"lon": -77.046367, "lat": 38.892199166666664, "name": "afa873194207bb32c1dda89ad7bed66b", "fusion_lat": 0.0, "fusion_lon": 0.0, "rental_uris": {"android": "https://dc.lft.to/lastmile_qr_scan", "ios": "https://dc.lft.to/lastmile_qr_scan"}, "is_reserved": 0, "is_disabled": 0, "type": "electric_scooter", "bike_id": "afa873194207bb32c1dda89ad7bed66b"}, {"lon": -77.0222815, "lat": 38.91248366666667, "name": "d5c7c1140be7f4371d21032aeb3a15de", "fusion_lat": 0.0, "fusion_lon": 0.0, "rental_uris": {"android": "https://dc.lft.to/lastmile_qr_scan", "ios": "https://dc.lft.to/lastmile_qr_scan"}, "is_reserved": 0, "is_disabled": 0, "type": "electric_scooter", "bike_id": "d5c7c1140be7f4371d21032aeb3a15de"}, {"lon": -76.9969745, "lat": 38.90080183333333, "name": "09519989f0ef0decb7faf32ad055e182", "fusion_lat": 0.0, "fusion_lon": 0.0, "rental_uris": {"android": "https://dc.lft.to/lastmile_qr_scan", "ios": "https://dc.lft.to/lastmile_qr_scan"}, "is_reserved": 0, "is_disabled": 0, "type": "electric_scooter", "bike_id": "09519989f0ef0decb7faf32ad055e182"}, {"lon": -76.9323175, "lat": 38.86591883333333, "name": "6c7f7803984efb0e696b4027cf1d6e43", "fusion_lat": 0.0, "fusion_lon": 0.0, "rental_uris": {"android": "https://dc.lft.to/lastmile_qr_scan", "ios": "https://dc.lft.to/lastmile_qr_scan"}, "is_reserved": 0, "is_disabled": 0, "type": "electric_bike", "bike_id": "6c7f7803984efb0e696b4027cf1d6e43"}, {"lon": -77.09206166666667, "lat": 38.941311, "name": "777bac3dc135faf0436b725b4364f078", "fusion_lat": 0.0, "fusion_lon": 0.0, "rental_uris": {"android": "https://dc.lft.to/lastmile_qr_scan", "ios": "https://dc.lft.to/lastmile_qr_scan"}, "is_reserved": 0, "is_disabled": 0, "type": "electric_scooter", "bike_id": "777bac3dc135faf0436b725b4364f078"}, {"lon": -77.00671166666666, "lat": 38.9556645, "name": "a070bb4424fb9e6b5c82155d3c951f85", "fusion_lat": 0.0, "fusion_lon": 0.0, "rental_uris": {"android": "https://dc.lft.to/lastmile_qr_scan", "ios": "https://dc.lft.to/lastmile_qr_scan"}, "is_reserved": 0, "is_disabled": 0, "type": "electric_scooter", "bike_id": "a070bb4424fb9e6b5c82155d3c951f85"}, {"lon": -77.01197366666666, "lat": 38.900293, "name": "6eea48c8564a86628fc7a2cbf75be4c3", "fusion_lat": 0.0, "fusion_lon": 0.0, "rental_uris": {"android": "https://dc.lft.to/lastmile_qr_scan", "ios": "https://dc.lft.to/lastmile_qr_scan"}, "is_reserved": 0, "is_disabled": 0, "type": "electric_scooter", "bike_id": "6eea48c8564a86628fc7a2cbf75be4c3"}, {"lon": -77.04054866666667, "lat": 38.895362, "name": "3e0754d9175f589b181bdf227fca4498", "fusion_lat": 0.0, "fusion_lon": 0.0, "rental_uris": {"android": "https://dc.lft.to/lastmile_qr_scan", "ios": "https://dc.lft.to/lastmile_qr_scan"}, "is_reserved": 0, "is_disabled": 0, "type": "electric_scooter", "bike_id": "3e0754d9175f589b181bdf227fca4498"}, {"lon": -77.045221, "lat": 38.89217, "name": "9b57553e2d2b071627e3897a68cdae45", "fusion_lat": 0.0, "fusion_lon": 0.0, "rental_uris": {"android": "https://dc.lft.to/lastmile_qr_scan", "ios": "https://dc.lft.to/lastmile_qr_scan"}, "is_reserved": 0, "is_disabled": 0, "type": "electric_scooter", "bike_id": "9b57553e2d2b071627e3897a68cdae45"}, {"lon": -77.129633, "lat": 38.852171, "name": "ae4c71c8cf0a10fc245ed534ddd68775", "fusion_lat": 0.0, "fusion_lon": 0.0, "rental_uris": {"android": "https://dc.lft.to/lastmile_qr_scan", "ios": "https://dc.lft.to/lastmile_qr_scan"}, "is_reserved": 0, "is_disabled": 0, "type": "electric_bike", "bike_id": "ae4c71c8cf0a10fc245ed534ddd68775"}, {"lon": -77.03330383333333, "lat": 38.921616, "name": "da890236d9931c662f1ad9d959d7d700", "fusion_lat": 0.0, "fusion_lon": 0.0, "rental_uris": {"android": "https://dc.lft.to/lastmile_qr_scan", "ios": "https://dc.lft.to/lastmile_qr_scan"}, "is_reserved": 0, "is_disabled": 0, "type": "electric_scooter", "bike_id": "da890236d9931c662f1ad9d959d7d700"}, {"lon": -76.99616233333333, "lat": 38.902828166666666, "name": "95a7a013c481b836b290b7d8e80dd56d", "fusion_lat": 0.0, "fusion_lon": 0.0, "rental_uris": {"android": "https://dc.lft.to/lastmile_qr_scan", "ios": "https://dc.lft.to/lastmile_qr_scan"}, "is_reserved": 0, "is_disabled": 0, "type": "electric_scooter", "bike_id": "95a7a013c481b836b290b7d8e80dd56d"}, {"lon": -77.0169245, "lat": 38.876986, "name": "401342861620c52fd2dced35fb988268", "fusion_lat": 0.0, "fusion_lon": 0.0, "rental_uris": {"android": "https://dc.lft.to/lastmile_qr_scan", "ios": "https://dc.lft.to/lastmile_qr_scan"}, "is_reserved": 0, "is_disabled": 0, "type": "electric_scooter", "bike_id": "401342861620c52fd2dced35fb988268"}, {"lon": -76.94213233333333, "lat": 38.8966985, "name": "afb5b7aa2a23350d5a272db7ddfdc26c", "fusion_lat": 0.0, "fusion_lon": 0.0, "rental_uris": {"android": "https://dc.lft.to/lastmile_qr_scan", "ios": "https://dc.lft.to/lastmile_qr_scan"}, "is_reserved": 0, "is_disabled": 0, "type": "electric_scooter", "bike_id": "afb5b7aa2a23350d5a272db7ddfdc26c"}, {"lon": -77.04156266666666, "lat": 38.919231833333335, "name": "7649dff7e6cb9c3643b11d3736102ee0", "fusion_lat": 0.0, "fusion_lon": 0.0, "rental_uris": {"android": "https://dc.lft.to/lastmile_qr_scan", "ios": "https://dc.lft.to/lastmile_qr_scan"}, "is_reserved": 0, "is_disabled": 0, "type": "electric_scooter", "bike_id": "7649dff7e6cb9c3643b11d3736102ee0"}, {"lon": -76.9952255, "lat": 38.894839166666664, "name": "694d316426f5596dfb1d83c55afbe689", "fusion_lat": 0.0, "fusion_lon": 0.0, "rental_uris": {"android": "https://dc.lft.to/lastmile_qr_scan", "ios": "https://dc.lft.to/lastmile_qr_scan"}, "is_reserved": 0, "is_disabled": 0, "type": "electric_scooter", "bike_id": "694d316426f5596dfb1d83c55afbe689"}, {"lon": -77.00340383333334, "lat": 38.893526, "name": "6b0cd1e0f2a03a47a78d6bf7b2c9c2c9", "fusion_lat": 0.0, "fusion_lon": 0.0, "rental_uris": {"android": "https://dc.lft.to/lastmile_qr_scan", "ios": "https://dc.lft.to/lastmile_qr_scan"}, "is_reserved": 0, "is_disabled": 0, "type": "electric_scooter", "bike_id": "6b0cd1e0f2a03a47a78d6bf7b2c9c2c9"}, {"lon": -77.06762083333334, "lat": 38.91562966666667, "name": "dbc0caf270cc4a1fd22c6d7c01243ab8", "fusion_lat": 0.0, "fusion_lon": 0.0, "rental_uris": {"android": "https://dc.lft.to/lastmile_qr_scan", "ios": "https://dc.lft.to/lastmile_qr_scan"}, "is_reserved": 0, "is_disabled": 0, "type": "electric_scooter", "bike_id": "dbc0caf270cc4a1fd22c6d7c01243ab8"}, {"lon": -76.93757983333333, "lat": 38.890472333333335, "name": "788df523ea433674804b0ada0820946c", "fusion_lat": 0.0, "fusion_lon": 0.0, "rental_uris": {"android": "https://dc.lft.to/lastmile_qr_scan", "ios": "https://dc.lft.to/lastmile_qr_scan"}, "is_reserved": 0, "is_disabled": 0, "type": "electric_scooter", "bike_id": "788df523ea433674804b0ada0820946c"}, {"lon": -77.0470445, "lat": 38.9210105, "name": "978379f958eb5c8c0dddeafe712b2941", "fusion_lat": 0.0, "fusion_lon": 0.0, "rental_uris": {"android": "https://dc.lft.to/lastmile_qr_scan", "ios": "https://dc.lft.to/lastmile_qr_scan"}, "is_reserved": 0, "is_disabled": 0, "type": "electric_scooter", "bike_id": "978379f958eb5c8c0dddeafe712b2941"}, {"lon": -77.02995933333334, "lat": 38.916899666666666, "name": "8c409fe7ae83b1ad44b8feda8afa8263", "fusion_lat": 0.0, "fusion_lon": 0.0, "rental_uris": {"android": "https://dc.lft.to/lastmile_qr_scan", "ios": "https://dc.lft.to/lastmile_qr_scan"}, "is_reserved": 0, "is_disabled": 0, "type": "electric_scooter", "bike_id": "8c409fe7ae83b1ad44b8feda8afa8263"}, {"lon": -77.02189783333333, "lat": 38.913232666666666, "name": "14f569f8b79cb38ecb1f91ae642bef05", "fusion_lat": 0.0, "fusion_lon": 0.0, "rental_uris": {"android": "https://dc.lft.to/lastmile_qr_scan", "ios": "https://dc.lft.to/lastmile_qr_scan"}, "is_reserved": 0, "is_disabled": 0, "type": "electric_scooter", "bike_id": "14f569f8b79cb38ecb1f91ae642bef05"}, {"lon": -77.03699783333333, "lat": 38.91693216666667, "name": "36286a751ec11dd1146adbc8435ee120", "fusion_lat": 0.0, "fusion_lon": 0.0, "rental_uris": {"android": "https://dc.lft.to/lastmile_qr_scan", "ios": "https://dc.lft.to/lastmile_qr_scan"}, "is_reserved": 0, "is_disabled": 0, "type": "electric_scooter", "bike_id": "36286a751ec11dd1146adbc8435ee120"}, {"lon": -77.02406716666667, "lat": 38.909825166666664, "name": "8763395b02266286ac0c3b0dc401ecc1", "fusion_lat": 0.0, "fusion_lon": 0.0, "rental_uris": {"android": "https://dc.lft.to/lastmile_qr_scan", "ios": "https://dc.lft.to/lastmile_qr_scan"}, "is_reserved": 0, "is_disabled": 0, "type": "electric_scooter", "bike_id": "8763395b02266286ac0c3b0dc401ecc1"}, {"lon": -77.032075, "lat": 38.91796766666667, "name": "5cdb140df202a21c9368b5469240e667", "fusion_lat": 0.0, "fusion_lon": 0.0, "rental_uris": {"android": "https://dc.lft.to/lastmile_qr_scan", "ios": "https://dc.lft.to/lastmile_qr_scan"}, "is_reserved": 0, "is_disabled": 0, "type": "electric_scooter", "bike_id": "5cdb140df202a21c9368b5469240e667"}, {"lon": -77.02974966666666, "lat": 38.916753666666665, "name": "8ff438051b5d9c65f3dddf9d6f4b5724", "fusion_lat": 0.0, "fusion_lon": 0.0, "rental_uris": {"android": "https://dc.lft.to/lastmile_qr_scan", "ios": "https://dc.lft.to/lastmile_qr_scan"}, "is_reserved": 0, "is_disabled": 0, "type": "electric_scooter", "bike_id": "8ff438051b5d9c65f3dddf9d6f4b5724"}, {"lon": -77.02590533333333, "lat": 38.89596233333333, "name": "8ca205cfe14442dda77d3416d03b49ba", "fusion_lat": 0.0, "fusion_lon": 0.0, "rental_uris": {"android": "https://dc.lft.to/lastmile_qr_scan", "ios": "https://dc.lft.to/lastmile_qr_scan"}, "is_reserved": 0, "is_disabled": 0, "type": "electric_scooter", "bike_id": "8ca205cfe14442dda77d3416d03b49ba"}, {"lon": -77.02039083333334, "lat": 38.87933366666667, "name": "0a6b781644688175adbc4f395d1f5bf2", "fusion_lat": 0.0, "fusion_lon": 0.0, "rental_uris": {"android": "https://dc.lft.to/lastmile_qr_scan", "ios": "https://dc.lft.to/lastmile_qr_scan"}, "is_reserved": 0, "is_disabled": 0, "type": "electric_scooter", "bike_id": "0a6b781644688175adbc4f395d1f5bf2"}, {"lon": -77.028573, "lat": 38.93343683333333, "name": "424af3adbec490a154d01e531d8710b0", "fusion_lat": 0.0, "fusion_lon": 0.0, "rental_uris": {"android": "https://dc.lft.to/lastmile_qr_scan", "ios": "https://dc.lft.to/lastmile_qr_scan"}, "is_reserved": 0, "is_disabled": 0, "type": "electric_scooter", "bike_id": "424af3adbec490a154d01e531d8710b0"}, {"lon": -77.02653883333333, "lat": 38.938565, "name": "40734d8728c4eb444b5247703e7d0536", "fusion_lat": 0.0, "fusion_lon": 0.0, "rental_uris": {"android": "https://dc.lft.to/lastmile_qr_scan", "ios": "https://dc.lft.to/lastmile_qr_scan"}, "is_reserved": 0, "is_disabled": 0, "type": "electric_scooter", "bike_id": "40734d8728c4eb444b5247703e7d0536"}, {"lon": -77.09966783333333, "lat": 38.9224275, "name": "645546417d5a72382541c76eb88436b5", "fusion_lat": 0.0, "fusion_lon": 0.0, "rental_uris": {"android": "https://dc.lft.to/lastmile_qr_scan", "ios": "https://dc.lft.to/lastmile_qr_scan"}, "is_reserved": 0, "is_disabled": 0, "type": "electric_scooter", "bike_id": "645546417d5a72382541c76eb88436b5"}, {"lon": -76.96627766666667, "lat": 38.942005, "name": "0f4166b912c7caa99cdf2e94ad4fe5cc", "fusion_lat": 0.0, "fusion_lon": 0.0, "rental_uris": {"android": "https://dc.lft.to/lastmile_qr_scan", "ios": "https://dc.lft.to/lastmile_qr_scan"}, "is_reserved": 0, "is_disabled": 0, "type": "electric_bike", "bike_id": "0f4166b912c7caa99cdf2e94ad4fe5cc"}, {"lon": -77.03881516666667, "lat": 38.916891, "name": "408f15f82e1d12540289bb3b15aab664", "fusion_lat": 0.0, "fusion_lon": 0.0, "rental_uris": {"android": "https://dc.lft.to/lastmile_qr_scan", "ios": "https://dc.lft.to/lastmile_qr_scan"}, "is_reserved": 0, "is_disabled": 0, "type": "electric_scooter", "bike_id": "408f15f82e1d12540289bb3b15aab664"}, {"lon": -77.037938, "lat": 38.936103333333335, "name": "58b86bcabb1b1ee87cef44922165f73f", "fusion_lat": 0.0, "fusion_lon": 0.0, "rental_uris": {"android": "https://dc.lft.to/lastmile_qr_scan", "ios": "https://dc.lft.to/lastmile_qr_scan"}, "is_reserved": 0, "is_disabled": 0, "type": "electric_scooter", "bike_id": "58b86bcabb1b1ee87cef44922165f73f"}, {"lon": -77.02308233333333, "lat": 38.91775033333333, "name": "b823e70c1972077eefc2ad9259ea0819", "fusion_lat": 0.0, "fusion_lon": 0.0, "rental_uris": {"android": "https://dc.lft.to/lastmile_qr_scan", "ios": "https://dc.lft.to/lastmile_qr_scan"}, "is_reserved": 0, "is_disabled": 0, "type": "electric_scooter", "bike_id": "b823e70c1972077eefc2ad9259ea0819"}, {"lon": -77.03375, "lat": 38.910429, "name": "5e9e63aff1b0ac2b19771d7a10111a7f", "fusion_lat": 0.0, "fusion_lon": 0.0, "rental_uris": {"android": "https://dc.lft.to/lastmile_qr_scan", "ios": "https://dc.lft.to/lastmile_qr_scan"}, "is_reserved": 0, "is_disabled": 0, "type": "electric_scooter", "bike_id": "5e9e63aff1b0ac2b19771d7a10111a7f"}, {"lon": -77.05600616666666, "lat": 38.9369775, "name": "a81bba903dfb5152517f6b56e5d51ffa", "fusion_lat": 0.0, "fusion_lon": 0.0, "rental_uris": {"android": "https://dc.lft.to/lastmile_qr_scan", "ios": "https://dc.lft.to/lastmile_qr_scan"}, "is_reserved": 0, "is_disabled": 0, "type": "electric_scooter", "bike_id": "a81bba903dfb5152517f6b56e5d51ffa"}, {"lon": -77.13096333333333, "lat": 38.86161416666667, "name": "04e298af981abc55ffef96528a9dc110", "fusion_lat": 0.0, "fusion_lon": 0.0, "rental_uris": {"android": "https://dc.lft.to/lastmile_qr_scan", "ios": "https://dc.lft.to/lastmile_qr_scan"}, "is_reserved": 0, "is_disabled": 0, "type": "electric_bike", "bike_id": "04e298af981abc55ffef96528a9dc110"}, {"lon": -77.032292, "lat": 38.89634616666667, "name": "4fa882db89c0ebc46e79cbcc1689bf72", "fusion_lat": 0.0, "fusion_lon": 0.0, "rental_uris": {"android": "https://dc.lft.to/lastmile_qr_scan", "ios": "https://dc.lft.to/lastmile_qr_scan"}, "is_reserved": 0, "is_disabled": 0, "type": "electric_scooter", "bike_id": "4fa882db89c0ebc46e79cbcc1689bf72"}, {"lon": -77.04199833333334, "lat": 38.920518666666666, "name": "ec62f365784674dff0239966d5206b54", "fusion_lat": 0.0, "fusion_lon": 0.0, "rental_uris": {"android": "https://dc.lft.to/lastmile_qr_scan", "ios": "https://dc.lft.to/lastmile_qr_scan"}, "is_reserved": 0, "is_disabled": 0, "type": "electric_scooter", "bike_id": "ec62f365784674dff0239966d5206b54"}, {"lon": -77.04191216666666, "lat": 38.901287333333336, "name": "ca16b16d7ffb2ee1ed39eecc3ec9562a", "fusion_lat": 0.0, "fusion_lon": 0.0, "rental_uris": {"android": "https://dc.lft.to/lastmile_qr_scan", "ios": "https://dc.lft.to/lastmile_qr_scan"}, "is_reserved": 0, "is_disabled": 0, "type": "electric_scooter", "bike_id": "ca16b16d7ffb2ee1ed39eecc3ec9562a"}, {"lon": -77.02881766666667, "lat": 38.90721883333333, "name": "ccbfa935a38566ad440f1c78e087a0b1", "fusion_lat": 0.0, "fusion_lon": 0.0, "rental_uris": {"android": "https://dc.lft.to/lastmile_qr_scan", "ios": "https://dc.lft.to/lastmile_qr_scan"}, "is_reserved": 0, "is_disabled": 0, "type": "electric_scooter", "bike_id": "ccbfa935a38566ad440f1c78e087a0b1"}, {"lon": -77.02617833333333, "lat": 38.96198066666667, "name": "98f60b43d4c6257fe34b4ade5778ac0c", "fusion_lat": 0.0, "fusion_lon": 0.0, "rental_uris": {"android": "https://dc.lft.to/lastmile_qr_scan", "ios": "https://dc.lft.to/lastmile_qr_scan"}, "is_reserved": 0, "is_disabled": 0, "type": "electric_bike", "bike_id": "98f60b43d4c6257fe34b4ade5778ac0c"}, {"lon": -77.01336716666667, "lat": 38.966103, "name": "a8a480e1688d6a5afa97b04136edefa7", "fusion_lat": 0.0, "fusion_lon": 0.0, "rental_uris": {"android": "https://dc.lft.to/lastmile_qr_scan", "ios": "https://dc.lft.to/lastmile_qr_scan"}, "is_reserved": 0, "is_disabled": 0, "type": "electric_scooter", "bike_id": "a8a480e1688d6a5afa97b04136edefa7"}, {"lon": -77.0916285, "lat": 38.96758883333333, "name": "24a70aac22fd2a506531224305a41b38", "fusion_lat": 0.0, "fusion_lon": 0.0, "rental_uris": {"android": "https://dc.lft.to/lastmile_qr_scan", "ios": "https://dc.lft.to/lastmile_qr_scan"}, "is_reserved": 0, "is_disabled": 0, "type": "electric_bike", "bike_id": "24a70aac22fd2a506531224305a41b38"}, {"lon": -77.02301633333333, "lat": 38.883391, "name": "cf9f6adb82018f0469dd76274bba7f3e", "fusion_lat": 0.0, "fusion_lon": 0.0, "rental_uris": {"android": "https://dc.lft.to/lastmile_qr_scan", "ios": "https://dc.lft.to/lastmile_qr_scan"}, "is_reserved": 0, "is_disabled": 0, "type": "electric_scooter", "bike_id": "cf9f6adb82018f0469dd76274bba7f3e"}, {"lon": -76.96180583333333, "lat": 38.918565, "name": "a422be7f85871dcc3e73cd06bb6d6e9b", "fusion_lat": 0.0, "fusion_lon": 0.0, "rental_uris": {"android": "https://dc.lft.to/lastmile_qr_scan", "ios": "https://dc.lft.to/lastmile_qr_scan"}, "is_reserved": 0, "is_disabled": 0, "type": "electric_bike", "bike_id": "a422be7f85871dcc3e73cd06bb6d6e9b"}, {"lon": -77.04403416666666, "lat": 38.87428633333333, "name": "3e72b9c5758b34b586ff5bc9055a5274", "fusion_lat": 0.0, "fusion_lon": 0.0, "rental_uris": {"android": "https://dc.lft.to/lastmile_qr_scan", "ios": "https://dc.lft.to/lastmile_qr_scan"}, "is_reserved": 0, "is_disabled": 0, "type": "electric_scooter", "bike_id": "3e72b9c5758b34b586ff5bc9055a5274"}, {"lon": -77.03126433333334, "lat": 38.97375616666667, "name": "2003c31f5b306d786e5de1c2f7174b39", "fusion_lat": 0.0, "fusion_lon": 0.0, "rental_uris": {"android": "https://dc.lft.to/lastmile_qr_scan", "ios": "https://dc.lft.to/lastmile_qr_scan"}, "is_reserved": 0, "is_disabled": 0, "type": "electric_scooter", "bike_id": "2003c31f5b306d786e5de1c2f7174b39"}, {"lon": -77.0242345, "lat": 38.9096775, "name": "e0f5dab10515b88913ac0f2adab5aac7", "fusion_lat": 0.0, "fusion_lon": 0.0, "rental_uris": {"android": "https://dc.lft.to/lastmile_qr_scan", "ios": "https://dc.lft.to/lastmile_qr_scan"}, "is_reserved": 0, "is_disabled": 0, "type": "electric_scooter", "bike_id": "e0f5dab10515b88913ac0f2adab5aac7"}, {"lon": -77.03339066666666, "lat": 38.89836666666667, "name": "3887c909d254412ecb4eb7a9d1585dc4", "fusion_lat": 0.0, "fusion_lon": 0.0, "rental_uris": {"android": "https://dc.lft.to/lastmile_qr_scan", "ios": "https://dc.lft.to/lastmile_qr_scan"}, "is_reserved": 0, "is_disabled": 0, "type": "electric_scooter", "bike_id": "3887c909d254412ecb4eb7a9d1585dc4"}, {"lon": -77.02708433333333, "lat": 38.906711666666666, "name": "35c90247dc6199872b841c4be1610a75", "fusion_lat": 0.0, "fusion_lon": 0.0, "rental_uris": {"android": "https://dc.lft.to/lastmile_qr_scan", "ios": "https://dc.lft.to/lastmile_qr_scan"}, "is_reserved": 0, "is_disabled": 0, "type": "electric_scooter", "bike_id": "35c90247dc6199872b841c4be1610a75"}, {"lon": -77.04484033333334, "lat": 38.91062683333333, "name": "c0514a78eec41dfa37d5f012277cfd54", "fusion_lat": 0.0, "fusion_lon": 0.0, "rental_uris": {"android": "https://dc.lft.to/lastmile_qr_scan", "ios": "https://dc.lft.to/lastmile_qr_scan"}, "is_reserved": 0, "is_disabled": 0, "type": "electric_scooter", "bike_id": "c0514a78eec41dfa37d5f012277cfd54"}, {"lon": -77.02432316666666, "lat": 38.92704583333333, "name": "9f2e88a21e2691bbb2015fc41212529d", "fusion_lat": 0.0, "fusion_lon": 0.0, "rental_uris": {"android": "https://dc.lft.to/lastmile_qr_scan", "ios": "https://dc.lft.to/lastmile_qr_scan"}, "is_reserved": 0, "is_disabled": 0, "type": "electric_scooter", "bike_id": "9f2e88a21e2691bbb2015fc41212529d"}, {"lon": -77.03789583333334, "lat": 38.91208616666667, "name": "4946b1cc60dca818e37267e16ba8f729", "fusion_lat": 0.0, "fusion_lon": 0.0, "rental_uris": {"android": "https://dc.lft.to/lastmile_qr_scan", "ios": "https://dc.lft.to/lastmile_qr_scan"}, "is_reserved": 0, "is_disabled": 0, "type": "electric_scooter", "bike_id": "4946b1cc60dca818e37267e16ba8f729"}, {"lon": -77.04505966666666, "lat": 38.90369116666667, "name": "c90eb23f4d8ad3409caca3465625b1ad", "fusion_lat": 0.0, "fusion_lon": 0.0, "rental_uris": {"android": "https://dc.lft.to/lastmile_qr_scan", "ios": "https://dc.lft.to/lastmile_qr_scan"}, "is_reserved": 0, "is_disabled": 0, "type": "electric_scooter", "bike_id": "c90eb23f4d8ad3409caca3465625b1ad"}, {"lon": -77.05125116666666, "lat": 38.9055325, "name": "6f1b9fb110f6b57165cd2c8e8d02bf2c", "fusion_lat": 0.0, "fusion_lon": 0.0, "rental_uris": {"android": "https://dc.lft.to/lastmile_qr_scan", "ios": "https://dc.lft.to/lastmile_qr_scan"}, "is_reserved": 0, "is_disabled": 0, "type": "electric_scooter", "bike_id": "6f1b9fb110f6b57165cd2c8e8d02bf2c"}, {"lon": -76.99950216666667, "lat": 38.84290983333333, "name": "41c84dcf82c680e14a0b137bd5cac9d5", "fusion_lat": 0.0, "fusion_lon": 0.0, "rental_uris": {"android": "https://dc.lft.to/lastmile_qr_scan", "ios": "https://dc.lft.to/lastmile_qr_scan"}, "is_reserved": 0, "is_disabled": 0, "type": "electric_scooter", "bike_id": "41c84dcf82c680e14a0b137bd5cac9d5"}, {"lon": -77.02722833333333, "lat": 38.918147833333336, "name": "acf1e32d8b6b4c956c7cb7f67bc711b8", "fusion_lat": 0.0, "fusion_lon": 0.0, "rental_uris": {"android": "https://dc.lft.to/lastmile_qr_scan", "ios": "https://dc.lft.to/lastmile_qr_scan"}, "is_reserved": 0, "is_disabled": 0, "type": "electric_scooter", "bike_id": "acf1e32d8b6b4c956c7cb7f67bc711b8"}, {"lon": -77.04383583333333, "lat": 38.92562133333333, "name": "1d266e897ad73cbe2f5789c013431f46", "fusion_lat": 0.0, "fusion_lon": 0.0, "rental_uris": {"android": "https://dc.lft.to/lastmile_qr_scan", "ios": "https://dc.lft.to/lastmile_qr_scan"}, "is_reserved": 0, "is_disabled": 0, "type": "electric_scooter", "bike_id": "1d266e897ad73cbe2f5789c013431f46"}, {"lon": -77.00023666666667, "lat": 38.919731166666665, "name": "3d803545b46bf0971b31a406d02c8895", "fusion_lat": 0.0, "fusion_lon": 0.0, "rental_uris": {"android": "https://dc.lft.to/lastmile_qr_scan", "ios": "https://dc.lft.to/lastmile_qr_scan"}, "is_reserved": 0, "is_disabled": 0, "type": "electric_scooter", "bike_id": "3d803545b46bf0971b31a406d02c8895"}, {"lon": -77.01941766666667, "lat": 38.9492595, "name": "6c3085c8e092980d351c4fb00c1cedef", "fusion_lat": 0.0, "fusion_lon": 0.0, "rental_uris": {"android": "https://dc.lft.to/lastmile_qr_scan", "ios": "https://dc.lft.to/lastmile_qr_scan"}, "is_reserved": 0, "is_disabled": 0, "type": "electric_scooter", "bike_id": "6c3085c8e092980d351c4fb00c1cedef"}, {"lon": -77.0223535, "lat": 38.9111965, "name": "d38c3dff447481b5a9fd415822b48137", "fusion_lat": 0.0, "fusion_lon": 0.0, "rental_uris": {"android": "https://dc.lft.to/lastmile_qr_scan", "ios": "https://dc.lft.to/lastmile_qr_scan"}, "is_reserved": 0, "is_disabled": 0, "type": "electric_scooter", "bike_id": "d38c3dff447481b5a9fd415822b48137"}, {"lon": -77.01888466666666, "lat": 38.87403783333333, "name": "ee312b303d669e3be41f5bf535b627d1", "fusion_lat": 0.0, "fusion_lon": 0.0, "rental_uris": {"android": "https://dc.lft.to/lastmile_qr_scan", "ios": "https://dc.lft.to/lastmile_qr_scan"}, "is_reserved": 0, "is_disabled": 0, "type": "electric_scooter", "bike_id": "ee312b303d669e3be41f5bf535b627d1"}, {"lon": -77.03161816666666, "lat": 38.923739166666664, "name": "4ce5245d7e4a7d36747372832f5879a9", "fusion_lat": 0.0, "fusion_lon": 0.0, "rental_uris": {"android": "https://dc.lft.to/lastmile_qr_scan", "ios": "https://dc.lft.to/lastmile_qr_scan"}, "is_reserved": 0, "is_disabled": 0, "type": "electric_scooter", "bike_id": "4ce5245d7e4a7d36747372832f5879a9"}, {"lon": -77.0271955, "lat": 38.892229, "name": "520d3fe0888b77aaea9fe9d3671db991", "fusion_lat": 0.0, "fusion_lon": 0.0, "rental_uris": {"android": "https://dc.lft.to/lastmile_qr_scan", "ios": "https://dc.lft.to/lastmile_qr_scan"}, "is_reserved": 0, "is_disabled": 0, "type": "electric_scooter", "bike_id": "520d3fe0888b77aaea9fe9d3671db991"}, {"lon": -77.07280116666666, "lat": 38.931735, "name": "601a3101eb96c5c390af1a73d4c47a76", "fusion_lat": 0.0, "fusion_lon": 0.0, "rental_uris": {"android": "https://dc.lft.to/lastmile_qr_scan", "ios": "https://dc.lft.to/lastmile_qr_scan"}, "is_reserved": 0, "is_disabled": 0, "type": "electric_scooter", "bike_id": "601a3101eb96c5c390af1a73d4c47a76"}, {"lon": -76.93828533333334, "lat": 38.8975765, "name": "55b7faafe25bcf5664906509f3dde902", "fusion_lat": 0.0, "fusion_lon": 0.0, "rental_uris": {"android": "https://dc.lft.to/lastmile_qr_scan", "ios": "https://dc.lft.to/lastmile_qr_scan"}, "is_reserved": 0, "is_disabled": 0, "type": "electric_scooter", "bike_id": "55b7faafe25bcf5664906509f3dde902"}, {"lon": -77.03079966666667, "lat": 38.927734, "name": "48b9c79abfc7ebd36948ed838dd4fea9", "fusion_lat": 0.0, "fusion_lon": 0.0, "rental_uris": {"android": "https://dc.lft.to/lastmile_qr_scan", "ios": "https://dc.lft.to/lastmile_qr_scan"}, "is_reserved": 0, "is_disabled": 0, "type": "electric_scooter", "bike_id": "48b9c79abfc7ebd36948ed838dd4fea9"}, {"lon": -77.05003216666667, "lat": 38.8922855, "name": "4b65cc3a727525effb9926e7b1ffaf11", "fusion_lat": 0.0, "fusion_lon": 0.0, "rental_uris": {"android": "https://dc.lft.to/lastmile_qr_scan", "ios": "https://dc.lft.to/lastmile_qr_scan"}, "is_reserved": 0, "is_disabled": 0, "type": "electric_scooter", "bike_id": "4b65cc3a727525effb9926e7b1ffaf11"}, {"lon": -77.001151, "lat": 38.89434033333333, "name": "9aa9646d114f069b8253caefe6fb6600", "fusion_lat": 0.0, "fusion_lon": 0.0, "rental_uris": {"android": "https://dc.lft.to/lastmile_qr_scan", "ios": "https://dc.lft.to/lastmile_qr_scan"}, "is_reserved": 0, "is_disabled": 0, "type": "electric_scooter", "bike_id": "9aa9646d114f069b8253caefe6fb6600"}, {"lon": -77.0021545, "lat": 38.91104766666667, "name": "430373651c8224629d44c45159100b5b", "fusion_lat": 0.0, "fusion_lon": 0.0, "rental_uris": {"android": "https://dc.lft.to/lastmile_qr_scan", "ios": "https://dc.lft.to/lastmile_qr_scan"}, "is_reserved": 0, "is_disabled": 0, "type": "electric_scooter", "bike_id": "430373651c8224629d44c45159100b5b"}, {"lon": -77.03519916666667, "lat": 38.922598, "name": "b452f1e0013635412c5bf9b04e27c896", "fusion_lat": 0.0, "fusion_lon": 0.0, "rental_uris": {"android": "https://dc.lft.to/lastmile_qr_scan", "ios": "https://dc.lft.to/lastmile_qr_scan"}, "is_reserved": 0, "is_disabled": 0, "type": "electric_scooter", "bike_id": "b452f1e0013635412c5bf9b04e27c896"}, {"lon": -77.0325895, "lat": 38.93523733333333, "name": "32d1718fe1a47ed0343aac1a8806cdfa", "fusion_lat": 0.0, "fusion_lon": 0.0, "rental_uris": {"android": "https://dc.lft.to/lastmile_qr_scan", "ios": "https://dc.lft.to/lastmile_qr_scan"}, "is_reserved": 0, "is_disabled": 0, "type": "electric_scooter", "bike_id": "32d1718fe1a47ed0343aac1a8806cdfa"}, {"lon": -77.0443365, "lat": 38.9211685, "name": "3f1fc4b862d56dc6f520aad53f6b9ee2", "fusion_lat": 0.0, "fusion_lon": 0.0, "rental_uris": {"android": "https://dc.lft.to/lastmile_qr_scan", "ios": "https://dc.lft.to/lastmile_qr_scan"}, "is_reserved": 0, "is_disabled": 0, "type": "electric_scooter", "bike_id": "3f1fc4b862d56dc6f520aad53f6b9ee2"}, {"lon": -76.98757233333333, "lat": 38.8450195, "name": "9cd10aef42afac2247fe429c562e9ba1", "fusion_lat": 0.0, "fusion_lon": 0.0, "rental_uris": {"android": "https://dc.lft.to/lastmile_qr_scan", "ios": "https://dc.lft.to/lastmile_qr_scan"}, "is_reserved": 0, "is_disabled": 0, "type": "electric_scooter", "bike_id": "9cd10aef42afac2247fe429c562e9ba1"}, {"lon": -77.01256016666666, "lat": 38.899624, "name": "918b78264e4f2c8389f42ae8e8ce2b7d", "fusion_lat": 0.0, "fusion_lon": 0.0, "rental_uris": {"android": "https://dc.lft.to/lastmile_qr_scan", "ios": "https://dc.lft.to/lastmile_qr_scan"}, "is_reserved": 0, "is_disabled": 0, "type": "electric_scooter", "bike_id": "918b78264e4f2c8389f42ae8e8ce2b7d"}, {"lon": -77.04298216666666, "lat": 38.922615666666665, "name": "e2f695866dc1b458fdb93f46f311724a", "fusion_lat": 0.0, "fusion_lon": 0.0, "rental_uris": {"android": "https://dc.lft.to/lastmile_qr_scan", "ios": "https://dc.lft.to/lastmile_qr_scan"}, "is_reserved": 0, "is_disabled": 0, "type": "electric_scooter", "bike_id": "e2f695866dc1b458fdb93f46f311724a"}, {"lon": -77.02960416666667, "lat": 38.92728683333333, "name": "a4653f1b336bb898caf91946a0aa0f39", "fusion_lat": 0.0, "fusion_lon": 0.0, "rental_uris": {"android": "https://dc.lft.to/lastmile_qr_scan", "ios": "https://dc.lft.to/lastmile_qr_scan"}, "is_reserved": 0, "is_disabled": 0, "type": "electric_scooter", "bike_id": "a4653f1b336bb898caf91946a0aa0f39"}, {"lon": -77.04900566666667, "lat": 38.89227533333333, "name": "ad7d36ca721708780d6cb48ebc90b68e", "fusion_lat": 0.0, "fusion_lon": 0.0, "rental_uris": {"android": "https://dc.lft.to/lastmile_qr_scan", "ios": "https://dc.lft.to/lastmile_qr_scan"}, "is_reserved": 0, "is_disabled": 0, "type": "electric_scooter", "bike_id": "ad7d36ca721708780d6cb48ebc90b68e"}, {"lon": -76.948818, "lat": 38.89462733333333, "name": "f69b90f7920a63003bf90b3e59058659", "fusion_lat": 0.0, "fusion_lon": 0.0, "rental_uris": {"android": "https://dc.lft.to/lastmile_qr_scan", "ios": "https://dc.lft.to/lastmile_qr_scan"}, "is_reserved": 0, "is_disabled": 0, "type": "electric_scooter", "bike_id": "f69b90f7920a63003bf90b3e59058659"}, {"lon": -77.13600833333334, "lat": 39.053436166666664, "name": "98ec6c892bcad53f4886f1852e365823", "fusion_lat": 0.0, "fusion_lon": 0.0, "rental_uris": {"android": "https://dc.lft.to/lastmile_qr_scan", "ios": "https://dc.lft.to/lastmile_qr_scan"}, "is_reserved": 0, "is_disabled": 0, "type": "electric_bike", "bike_id": "98ec6c892bcad53f4886f1852e365823"}, {"lon": -77.03627966666667, "lat": 38.929124, "name": "a9d1131adb76236c5e70cad1f0746033", "fusion_lat": 0.0, "fusion_lon": 0.0, "rental_uris": {"android": "https://dc.lft.to/lastmile_qr_scan", "ios": "https://dc.lft.to/lastmile_qr_scan"}, "is_reserved": 0, "is_disabled": 0, "type": "electric_scooter", "bike_id": "a9d1131adb76236c5e70cad1f0746033"}, {"lon": -76.98622066666667, "lat": 38.86820383333333, "name": "bed840e0b2c3ec463fbfb305da68249b", "fusion_lat": 0.0, "fusion_lon": 0.0, "rental_uris": {"android": "https://dc.lft.to/lastmile_qr_scan", "ios": "https://dc.lft.to/lastmile_qr_scan"}, "is_reserved": 0, "is_disabled": 0, "type": "electric_scooter", "bike_id": "bed840e0b2c3ec463fbfb305da68249b"}, {"lon": -77.041911, "lat": 38.9133605, "name": "77ab54b999cc15e509fd854e28860b92", "fusion_lat": 0.0, "fusion_lon": 0.0, "rental_uris": {"android": "https://dc.lft.to/lastmile_qr_scan", "ios": "https://dc.lft.to/lastmile_qr_scan"}, "is_reserved": 0, "is_disabled": 0, "type": "electric_scooter", "bike_id": "77ab54b999cc15e509fd854e28860b92"}, {"lon": -77.0144195, "lat": 38.8776495, "name": "a78486e300cf5c4c7ad7460f3bb9a420", "fusion_lat": 0.0, "fusion_lon": 0.0, "rental_uris": {"android": "https://dc.lft.to/lastmile_qr_scan", "ios": "https://dc.lft.to/lastmile_qr_scan"}, "is_reserved": 0, "is_disabled": 0, "type": "electric_scooter", "bike_id": "a78486e300cf5c4c7ad7460f3bb9a420"}, {"lon": -77.025972, "lat": 38.89835, "name": "5ebe6832e9fc25ac1c64507e1fd00bdc", "fusion_lat": 0.0, "fusion_lon": 0.0, "rental_uris": {"android": "https://dc.lft.to/lastmile_qr_scan", "ios": "https://dc.lft.to/lastmile_qr_scan"}, "is_reserved": 0, "is_disabled": 0, "type": "electric_scooter", "bike_id": "5ebe6832e9fc25ac1c64507e1fd00bdc"}, {"lon": -76.991661, "lat": 38.882343666666664, "name": "12c5499c0ecfc3d65e58d586c79a1c86", "fusion_lat": 0.0, "fusion_lon": 0.0, "rental_uris": {"android": "https://dc.lft.to/lastmile_qr_scan", "ios": "https://dc.lft.to/lastmile_qr_scan"}, "is_reserved": 0, "is_disabled": 0, "type": "electric_scooter", "bike_id": "12c5499c0ecfc3d65e58d586c79a1c86"}, {"lon": -77.10900866666667, "lat": 38.83040183333333, "name": "a098d1677b59b5cf544a136a7af3a253", "fusion_lat": 0.0, "fusion_lon": 0.0, "rental_uris": {"android": "https://dc.lft.to/lastmile_qr_scan", "ios": "https://dc.lft.to/lastmile_qr_scan"}, "is_reserved": 0, "is_disabled": 0, "type": "electric_bike", "bike_id": "a098d1677b59b5cf544a136a7af3a253"}, {"lon": -77.00142616666666, "lat": 38.9040435, "name": "c67b258a94e19859e8321d1084173dbe", "fusion_lat": 0.0, "fusion_lon": 0.0, "rental_uris": {"android": "https://dc.lft.to/lastmile_qr_scan", "ios": "https://dc.lft.to/lastmile_qr_scan"}, "is_reserved": 0, "is_disabled": 0, "type": "electric_scooter", "bike_id": "c67b258a94e19859e8321d1084173dbe"}, {"lon": -77.04209783333333, "lat": 38.9211465, "name": "ea4749c815a8a1767ca7a875a969aed3", "fusion_lat": 0.0, "fusion_lon": 0.0, "rental_uris": {"android": "https://dc.lft.to/lastmile_qr_scan", "ios": "https://dc.lft.to/lastmile_qr_scan"}, "is_reserved": 0, "is_disabled": 0, "type": "electric_scooter", "bike_id": "ea4749c815a8a1767ca7a875a969aed3"}, {"lon": -77.01111166666666, "lat": 38.963043, "name": "ef4ab5e3e4ec37b19210783c12a4ba51", "fusion_lat": 0.0, "fusion_lon": 0.0, "rental_uris": {"android": "https://dc.lft.to/lastmile_qr_scan", "ios": "https://dc.lft.to/lastmile_qr_scan"}, "is_reserved": 0, "is_disabled": 0, "type": "electric_bike", "bike_id": "ef4ab5e3e4ec37b19210783c12a4ba51"}, {"lon": -76.97331283333334, "lat": 38.9048035, "name": "bcfe16d4574a5e212f8134bc4e772429", "fusion_lat": 0.0, "fusion_lon": 0.0, "rental_uris": {"android": "https://dc.lft.to/lastmile_qr_scan", "ios": "https://dc.lft.to/lastmile_qr_scan"}, "is_reserved": 0, "is_disabled": 0, "type": "electric_scooter", "bike_id": "bcfe16d4574a5e212f8134bc4e772429"}, {"lon": -77.11222866666667, "lat": 38.82876133333333, "name": "964b40bc006b0d58da4832b64a06aba1", "fusion_lat": 0.0, "fusion_lon": 0.0, "rental_uris": {"android": "https://dc.lft.to/lastmile_qr_scan", "ios": "https://dc.lft.to/lastmile_qr_scan"}, "is_reserved": 0, "is_disabled": 0, "type": "electric_bike", "bike_id": "964b40bc006b0d58da4832b64a06aba1"}, {"lon": -77.026997, "lat": 38.899429833333336, "name": "0e727674dc53c4d5874b1e713e895bb6", "fusion_lat": 0.0, "fusion_lon": 0.0, "rental_uris": {"android": "https://dc.lft.to/lastmile_qr_scan", "ios": "https://dc.lft.to/lastmile_qr_scan"}, "is_reserved": 0, "is_disabled": 0, "type": "electric_scooter", "bike_id": "0e727674dc53c4d5874b1e713e895bb6"}, {"lon": -77.03342516666666, "lat": 38.89780866666667, "name": "e8094176d8b186d6b1d32c24ae4c2b72", "fusion_lat": 0.0, "fusion_lon": 0.0, "rental_uris": {"android": "https://dc.lft.to/lastmile_qr_scan", "ios": "https://dc.lft.to/lastmile_qr_scan"}, "is_reserved": 0, "is_disabled": 0, "type": "electric_scooter", "bike_id": "e8094176d8b186d6b1d32c24ae4c2b72"}, {"lon": -77.076899, "lat": 38.83191583333333, "name": "458c40f86e1763dfbd578d9548d1489c", "fusion_lat": 0.0, "fusion_lon": 0.0, "rental_uris": {"android": "https://dc.lft.to/lastmile_qr_scan", "ios": "https://dc.lft.to/lastmile_qr_scan"}, "is_reserved": 0, "is_disabled": 0, "type": "electric_bike", "bike_id": "458c40f86e1763dfbd578d9548d1489c"}, {"lon": -76.98738416666667, "lat": 38.94430716666667, "name": "db7a05d93a5df5d1db41b5420f382e93", "fusion_lat": 0.0, "fusion_lon": 0.0, "rental_uris": {"android": "https://dc.lft.to/lastmile_qr_scan", "ios": "https://dc.lft.to/lastmile_qr_scan"}, "is_reserved": 0, "is_disabled": 0, "type": "electric_bike", "bike_id": "db7a05d93a5df5d1db41b5420f382e93"}, {"lon": -77.02384466666666, "lat": 38.90176866666667, "name": "8709882abbbd6c1832dc3cc485c590cf", "fusion_lat": 0.0, "fusion_lon": 0.0, "rental_uris": {"android": "https://dc.lft.to/lastmile_qr_scan", "ios": "https://dc.lft.to/lastmile_qr_scan"}, "is_reserved": 0, "is_disabled": 0, "type": "electric_scooter", "bike_id": "8709882abbbd6c1832dc3cc485c590cf"}, {"lon": -76.93548366666667, "lat": 38.955526666666664, "name": "b9e8d122b66e57ef286a8ec91d5bccb2", "fusion_lat": 0.0, "fusion_lon": 0.0, "rental_uris": {"android": "https://dc.lft.to/lastmile_qr_scan", "ios": "https://dc.lft.to/lastmile_qr_scan"}, "is_reserved": 0, "is_disabled": 0, "type": "electric_bike", "bike_id": "b9e8d122b66e57ef286a8ec91d5bccb2"}, {"lon": -77.03358883333334, "lat": 38.924415, "name": "b4864ffbb0303dbdeb1c2e2d4f142745", "fusion_lat": 0.0, "fusion_lon": 0.0, "rental_uris": {"android": "https://dc.lft.to/lastmile_qr_scan", "ios": "https://dc.lft.to/lastmile_qr_scan"}, "is_reserved": 0, "is_disabled": 0, "type": "electric_scooter", "bike_id": "b4864ffbb0303dbdeb1c2e2d4f142745"}, {"lon": -77.05632233333333, "lat": 38.92428483333333, "name": "7fb376e8bac4301d95960ad43c156d7a", "fusion_lat": 0.0, "fusion_lon": 0.0, "rental_uris": {"android": "https://dc.lft.to/lastmile_qr_scan", "ios": "https://dc.lft.to/lastmile_qr_scan"}, "is_reserved": 0, "is_disabled": 0, "type": "electric_scooter", "bike_id": "7fb376e8bac4301d95960ad43c156d7a"},