{"data": {"bikes": [{"type": "electric_scooter", "fusion_lon": 0.0, "bike_id": "61c6ccbc2d23d33c030c23302ac7fc59", "is_disabled": 0, "lat": 38.957625166666666, "rental_uris": {"ios": "https://dc.lft.to/lastmile_qr_scan", "android": "https://dc.lft.to/lastmile_qr_scan"}, "is_reserved": 0, "lon": -77.01489366666667, "fusion_lat": 0.0, "name": "61c6ccbc2d23d33c030c23302ac7fc59"}, {"type": "electric_scooter", "fusion_lon": 0.0, "bike_id": "399ee46a9ef98f6a0ec24ea3d98be62c", "is_disabled": 0, "lat": 38.9211715, "rental_uris": {"ios": "https://dc.lft.to/lastmile_qr_scan", "android": "https://dc.lft.to/lastmile_qr_scan"}, "is_reserved": 0, "lon": -77.043838, "fusion_lat": 0.0, "name": "399ee46a9ef98f6a0ec24ea3d98be62c"}, {"type": "electric_scooter", "fusion_lon": 0.0, "bike_id": "d8647a9cf087a708597f782229b4f248", "is_disabled": 0, "lat": 38.911132333333335, "rental_uris": {"ios": "https://dc.lft.to/lastmile_qr_scan", "android": "https://dc.lft.to/lastmile_qr_scan"}, "is_reserved": 0, "lon": -77.00448616666667, "fusion_lat": 0.0, "name": "d8647a9cf087a708597f782229b4f248"}, {"type": "electric_scooter", "fusion_lon": 0.0, "bike_id": "5d36df247710ad47928963cbd13e9d65", "is_disabled": 0, "lat": 38.937019, "rental_uris": {"ios": "https://dc.lft.to/lastmile_qr_scan", "android": "https://dc.lft.to/lastmile_qr_scan"}, "is_reserved": 0, "lon": -77.05602083333333, "fusion_lat": 0.0, "name": "5d36df247710ad47928963cbd13e9d65"}, {"type": "electric_scooter", "fusion_lon": 0.0, "bike_id": "29f8c2665486ca81995f22f36f20dabe", "is_disabled": 0, "lat": 38.91336966666667, "rental_uris": {"ios": "https://dc.lft.to/lastmile_qr_scan", "android": "https://dc.lft.to/lastmile_qr_scan"}, "is_reserved": 0, "lon": -77.030503, "fusion_lat": 0.0, "name": "29f8c2665486ca81995f22f36f20dabe"}, {"type": "electric_scooter", "fusion_lon": 0.0, "bike_id": "c7dd197f4d0973af69374a1995e400b9", "is_disabled": 0, "lat": 38.89258616666667, "rental_uris": {"ios": "https://dc.lft.to/lastmile_qr_scan", "android": "https://dc.lft.to/lastmile_qr_scan"}, "is_reserved": 0, "lon": -77.04501616666667, "fusion_lat": 0.0, "name": "c7dd197f4d0973af69374a1995e400b9"}, {"type": "electric_scooter", "fusion_lon": 0.0, "bike_id": "00b2b02ccab3be8d4374749dbfd61fdc", "is_disabled": 0, "lat": 38.90560716666667, "rental_uris": {"ios": "https://dc.lft.to/lastmile_qr_scan", "android": "https://dc.lft.to/lastmile_qr_scan"}, "is_reserved": 0, "lon": -77.02207483333333, "fusion_lat": 0.0, "name": "00b2b02ccab3be8d4374749dbfd61fdc"}, {"type": "electric_bike", "fusion_lon": 0.0, "bike_id": "1f4cec565c793e0e3d940f35650e1f9f", "is_disabled": 0, "lat": 38.95648166666667, "rental_uris": {"ios": "https://dc.lft.to/lastmile_qr_scan", "android": "https://dc.lft.to/lastmile_qr_scan"}, "is_reserved": 0, "lon": -76.9974755, "fusion_lat": 0.0, "name": "1f4cec565c793e0e3d940f35650e1f9f"}, {"type": "electric_scooter", "fusion_lon": 0.0, "bike_id": "5bc60592698b22eecdcbf0dbf72862d5", "is_disabled": 0, "lat": 38.88782833333333, "rental_uris": {"ios": "https://dc.lft.to/lastmile_qr_scan", "android": "https://dc.lft.to/lastmile_qr_scan"}, "is_reserved": 0, "lon": -77.03323783333333, "fusion_lat": 0.0, "name": "5bc60592698b22eecdcbf0dbf72862d5"}, {"type": "electric_scooter", "fusion_lon": 0.0, "bike_id": "93134115831b68a9bcbcd2d1e9134cc4", "is_disabled": 0, "lat": 38.91653783333334, "rental_uris": {"ios": "https://dc.lft.to/lastmile_qr_scan", "android": "https://dc.lft.to/lastmile_qr_scan"}, "is_reserved": 0, "lon": -77.02276633333334, "fusion_lat": 0.0, "name": "93134115831b68a9bcbcd2d1e9134cc4"}, {"type": "electric_bike", "fusion_lon": 0.0, "bike_id": "22b3749e00b1ff8f58e8e3be7abcaa92", "is_disabled": 0, "lat": 38.88124716666667, "rental_uris": {"ios": "https://dc.lft.to/lastmile_qr_scan", "android": "https://dc.lft.to/lastmile_qr_scan"}, "is_reserved": 0, "lon": -76.997945, "fusion_lat": 0.0, "name": "22b3749e00b1ff8f58e8e3be7abcaa92"}, {"type": "electric_scooter", "fusion_lon": 0.0, "bike_id": "8482d1b4d505f9e5af7a82ed76129032", "is_disabled": 0, "lat": 38.910008833333336, "rental_uris": {"ios": "https://dc.lft.to/lastmile_qr_scan", "android": "https://dc.lft.to/lastmile_qr_scan"}, "is_reserved": 0, "lon": -77.04007266666666, "fusion_lat": 0.0, "name": "8482d1b4d505f9e5af7a82ed76129032"}, {"type": "electric_scooter", "fusion_lon": 0.0, "bike_id": "ad39e27eac082d4df0cbd95575f7fa2a", "is_disabled": 0, "lat": 38.90557183333333, "rental_uris": {"ios": "https://dc.lft.to/lastmile_qr_scan", "android": "https://dc.lft.to/lastmile_qr_scan"}, "is_reserved": 0, "lon": -77.02203066666667, "fusion_lat": 0.0, "name": "ad39e27eac082d4df0cbd95575f7fa2a"}, {"type": "electric_scooter", "fusion_lon": 0.0, "bike_id": "08153c11404c8d442180a4027a10c868", "is_disabled": 0, "lat": 38.93153816666667, "rental_uris": {"ios": "https://dc.lft.to/lastmile_qr_scan", "android": "https://dc.lft.to/lastmile_qr_scan"}, "is_reserved": 0, "lon": -77.0559935, "fusion_lat": 0.0, "name": "08153c11404c8d442180a4027a10c868"}, {"type": "electric_bike", "fusion_lon": 0.0, "bike_id": "29d1f013ab54ab8e6c849da7a63d77e1", "is_disabled": 0, "lat": 38.91483183333333, "rental_uris": {"ios": "https://dc.lft.to/lastmile_qr_scan", "android": "https://dc.lft.to/lastmile_qr_scan"}, "is_reserved": 0, "lon": -76.985732, "fusion_lat": 0.0, "name": "29d1f013ab54ab8e6c849da7a63d77e1"}, {"type": "electric_bike", "fusion_lon": 0.0, "bike_id": "e8c4d1905c24fdcd680884b68e1bcbe3", "is_disabled": 0, "lat": 38.933921, "rental_uris": {"ios": "https://dc.lft.to/lastmile_qr_scan", "android": "https://dc.lft.to/lastmile_qr_scan"}, "is_reserved": 0, "lon": -77.0221255, "fusion_lat": 0.0, "name": "e8c4d1905c24fdcd680884b68e1bcbe3"}, {"type": "electric_scooter", "fusion_lon": 0.0, "bike_id": "a161ff50fede23099b3df5814eae36a6", "is_disabled": 0, "lat": 38.93679216666666, "rental_uris": {"ios": "https://dc.lft.to/lastmile_qr_scan", "android": "https://dc.lft.to/lastmile_qr_scan"}, "is_reserved": 0, "lon": -77.0362675, "fusion_lat": 0.0, "name": "a161ff50fede23099b3df5814eae36a6"}, {"type": "electric_bike", "fusion_lon": 0.0, "bike_id": "9dd24e5a73591c92dc73738678bdf128", "is_disabled": 0, "lat": 38.84277383333333, "rental_uris": {"ios": "https://dc.lft.to/lastmile_qr_scan", "android": "https://dc.lft.to/lastmile_qr_scan"}, "is_reserved": 0, "lon": -76.98815033333334, "fusion_lat": 0.0, "name": "9dd24e5a73591c92dc73738678bdf128"}, {"type": "electric_scooter", "fusion_lon": 0.0, "bike_id": "b1c1f717a91fcb22d3b83c17e6e7d5cf", "is_disabled": 0, "lat": 38.9244955, "rental_uris": {"ios": "https://dc.lft.to/lastmile_qr_scan", "android": "https://dc.lft.to/lastmile_qr_scan"}, "is_reserved": 0, "lon": -77.00211333333333, "fusion_lat": 0.0, "name": "b1c1f717a91fcb22d3b83c17e6e7d5cf"}, {"type": "electric_scooter", "fusion_lon": 0.0, "bike_id": "ccc0561546e4e9573e3c6bb8040ca869", "is_disabled": 0, "lat": 38.907859333333334, "rental_uris": {"ios": "https://dc.lft.to/lastmile_qr_scan", "android": "https://dc.lft.to/lastmile_qr_scan"}, "is_reserved": 0, "lon": -77.04263733333333, "fusion_lat": 0.0, "name": "ccc0561546e4e9573e3c6bb8040ca869"}, {"type": "electric_bike", "fusion_lon": 0.0, "bike_id": "0db4deefd715a06a0f3013d672cb9643", "is_disabled": 0, "lat": 38.920086166666664, "rental_uris": {"ios": "https://dc.lft.to/lastmile_qr_scan", "android": "https://dc.lft.to/lastmile_qr_scan"}, "is_reserved": 0, "lon": -77.03223916666667, "fusion_lat": 0.0, "name": "0db4deefd715a06a0f3013d672cb9643"}, {"type": "electric_scooter", "fusion_lon": 0.0, "bike_id": "8445b1bbe00d9f6fe17feee358253bab", "is_disabled": 0, "lat": 38.897504166666664, "rental_uris": {"ios": "https://dc.lft.to/lastmile_qr_scan", "android": "https://dc.lft.to/lastmile_qr_scan"}, "is_reserved": 0, "lon": -77.043342, "fusion_lat": 0.0, "name": "8445b1bbe00d9f6fe17feee358253bab"}, {"type": "electric_scooter", "fusion_lon": 0.0, "bike_id": "ea6a5eec43c5b51f6cb50c0782d85e07", "is_disabled": 0, "lat": 38.926363333333335, "rental_uris": {"ios": "https://dc.lft.to/lastmile_qr_scan", "android": "https://dc.lft.to/lastmile_qr_scan"}, "is_reserved": 0, "lon": -77.02189583333333, "fusion_lat": 0.0, "name": "ea6a5eec43c5b51f6cb50c0782d85e07"}, {"type": "electric_scooter", "fusion_lon": 0.0, "bike_id": "3eff33a9f413ba8d6940bd53cf536fb1", "is_disabled": 0, "lat": 38.88334733333333, "rental_uris": {"ios": "https://dc.lft.to/lastmile_qr_scan", "android": "https://dc.lft.to/lastmile_qr_scan"}, "is_reserved": 0, "lon": -77.00643216666667, "fusion_lat": 0.0, "name": "3eff33a9f413ba8d6940bd53cf536fb1"}, {"type": "electric_bike", "fusion_lon": 0.0, "bike_id": "c4d9d14c1a43ccdb3869b1939c3db095", "is_disabled": 0, "lat": 38.873095166666666, "rental_uris": {"ios": "https://dc.lft.to/lastmile_qr_scan", "android": "https://dc.lft.to/lastmile_qr_scan"}, "is_reserved": 0, "lon": -77.01097633333333, "fusion_lat": 0.0, "name": "c4d9d14c1a43ccdb3869b1939c3db095"}, {"type": "electric_scooter", "fusion_lon": 0.0, "bike_id": "0cba33031ca04488dfdb824abe084d45", "is_disabled": 0, "lat": 38.92390483333333, "rental_uris": {"ios": "https://dc.lft.to/lastmile_qr_scan", "android": "https://dc.lft.to/lastmile_qr_scan"}, "is_reserved": 0, "lon": -77.03656783333334, "fusion_lat": 0.0, "name": "0cba33031ca04488dfdb824abe084d45"}, {"type": "electric_scooter", "fusion_lon": 0.0, "bike_id": "56664645e694efeeb0ef4b1eb036f616", "is_disabled": 0, "lat": 38.9013465, "rental_uris": {"ios": "https://dc.lft.to/lastmile_qr_scan", "android": "https://dc.lft.to/lastmile_qr_scan"}, "is_reserved": 0, "lon": -76.9456815, "fusion_lat": 0.0, "name": "56664645e694efeeb0ef4b1eb036f616"}, {"type": "electric_scooter", "fusion_lon": 0.0, "bike_id": "fb09dc09e34ee1c36dece274ace65b59", "is_disabled": 0, "lat": 38.886599333333336, "rental_uris": {"ios": "https://dc.lft.to/lastmile_qr_scan", "android": "https://dc.lft.to/lastmile_qr_scan"}, "is_reserved": 0, "lon": -77.028272, "fusion_lat": 0.0, "name": "fb09dc09e34ee1c36dece274ace65b59"}, {"type": "electric_scooter", "fusion_lon": 0.0, "bike_id": "fb2e18f7c49debe539e492d63701603c", "is_disabled": 0, "lat": 38.88771833333333, "rental_uris": {"ios": "https://dc.lft.to/lastmile_qr_scan", "android": "https://dc.lft.to/lastmile_qr_scan"}, "is_reserved": 0, "lon": -77.02845333333333, "fusion_lat": 0.0, "name": "fb2e18f7c49debe539e492d63701603c"}, {"type": "electric_bike", "fusion_lon": 0.0, "bike_id": "f48e93b74a6a8e29209db7045f3b4e82", "is_disabled": 0, "lat": 38.84289066666667, "rental_uris": {"ios": "https://dc.lft.to/lastmile_qr_scan", "android": "https://dc.lft.to/lastmile_qr_scan"}, "is_reserved": 0, "lon": -77.075271, "fusion_lat": 0.0, "name": "f48e93b74a6a8e29209db7045f3b4e82"}, {"type": "electric_scooter", "fusion_lon": 0.0, "bike_id": "eb4d004f39f0c1b658a93ff4dfd07e98", "is_disabled": 0, "lat": 38.900136333333336, "rental_uris": {"ios": "https://dc.lft.to/lastmile_qr_scan", "android": "https://dc.lft.to/lastmile_qr_scan"}, "is_reserved": 0, "lon": -77.01194483333333, "fusion_lat": 0.0, "name": "eb4d004f39f0c1b658a93ff4dfd07e98"}, {"type": "electric_scooter", "fusion_lon": 0.0, "bike_id": "6a68920b5359a9a82de65b0d89d626b8", "is_disabled": 0, "lat": 38.9207545, "rental_uris": {"ios": "https://dc.lft.to/lastmile_qr_scan", "android": "https://dc.lft.to/lastmile_qr_scan"}, "is_reserved": 0, "lon": -77.02531116666667, "fusion_lat": 0.0, "name": "6a68920b5359a9a82de65b0d89d626b8"}, {"type": "electric_scooter", "fusion_lon": 0.0, "bike_id": "028bf7c95d176f8dba4064f87415f098", "is_disabled": 0, "lat": 38.878780666666664, "rental_uris": {"ios": "https://dc.lft.to/lastmile_qr_scan", "android": "https://dc.lft.to/lastmile_qr_scan"}, "is_reserved": 0, "lon": -77.006059, "fusion_lat": 0.0, "name": "028bf7c95d176f8dba4064f87415f098"}, {"type": "electric_scooter", "fusion_lon": 0.0, "bike_id": "d8f35ef4920586534f82606a8cf74533", "is_disabled": 0, "lat": 38.90755016666667, "rental_uris": {"ios": "https://dc.lft.to/lastmile_qr_scan", "android": "https://dc.lft.to/lastmile_qr_scan"}, "is_reserved": 0, "lon": -77.04257133333333, "fusion_lat": 0.0, "name": "d8f35ef4920586534f82606a8cf74533"}, {"type": "electric_scooter", "fusion_lon": 0.0, "bike_id": "6170e596a9422f382f284c2435d722bf", "is_disabled": 0, "lat": 38.92265366666667, "rental_uris": {"ios": "https://dc.lft.to/lastmile_qr_scan", "android": "https://dc.lft.to/lastmile_qr_scan"}, "is_reserved": 0, "lon": -77.036681, "fusion_lat": 0.0, "name": "6170e596a9422f382f284c2435d722bf"}, {"type": "electric_scooter", "fusion_lon": 0.0, "bike_id": "1701fc9b57684fc86560d02d8700a20b", "is_disabled": 0, "lat": 38.94179483333333, "rental_uris": {"ios": "https://dc.lft.to/lastmile_qr_scan", "android": "https://dc.lft.to/lastmile_qr_scan"}, "is_reserved": 0, "lon": -76.99437633333334, "fusion_lat": 0.0, "name": "1701fc9b57684fc86560d02d8700a20b"}, {"type": "electric_scooter", "fusion_lon": 0.0, "bike_id": "d23e8a0071ad3ca491e5ed10c4cdd4db", "is_disabled": 0, "lat": 38.92322016666667, "rental_uris": {"ios": "https://dc.lft.to/lastmile_qr_scan", "android": "https://dc.lft.to/lastmile_qr_scan"}, "is_reserved": 0, "lon": -77.03636316666666, "fusion_lat": 0.0, "name": "d23e8a0071ad3ca491e5ed10c4cdd4db"}, {"type": "electric_scooter", "fusion_lon": 0.0, "bike_id": "4fdc7988d1f02daa58dc7cdbced70801", "is_disabled": 0, "lat": 38.89490983333334, "rental_uris": {"ios": "https://dc.lft.to/lastmile_qr_scan", "android": "https://dc.lft.to/lastmile_qr_scan"}, "is_reserved": 0, "lon": -77.02334483333334, "fusion_lat": 0.0, "name": "4fdc7988d1f02daa58dc7cdbced70801"}, {"type": "electric_scooter", "fusion_lon": 0.0, "bike_id": "977e5268504d8334d5c290e864837c92", "is_disabled": 0, "lat": 38.884889666666666, "rental_uris": {"ios": "https://dc.lft.to/lastmile_qr_scan", "android": "https://dc.lft.to/lastmile_qr_scan"}, "is_reserved": 0, "lon": -77.03477583333333, "fusion_lat": 0.0, "name": "977e5268504d8334d5c290e864837c92"}, {"type": "electric_scooter", "fusion_lon": 0.0, "bike_id": "4664eda60032e952898a0da35ffd645f", "is_disabled": 0, "lat": 38.9248625, "rental_uris": {"ios": "https://dc.lft.to/lastmile_qr_scan", "android": "https://dc.lft.to/lastmile_qr_scan"}, "is_reserved": 0, "lon": -77.03180883333333, "fusion_lat": 0.0, "name": "4664eda60032e952898a0da35ffd645f"}, {"type": "electric_bike", "fusion_lon": 0.0, "bike_id": "03a834568af124135c03b484b08cbb37", "is_disabled": 0, "lat": 38.85621316666667, "rental_uris": {"ios": "https://dc.lft.to/lastmile_qr_scan", "android": "https://dc.lft.to/lastmile_qr_scan"}, "is_reserved": 0, "lon": -76.96149766666667, "fusion_lat": 0.0, "name": "03a834568af124135c03b484b08cbb37"}, {"type": "electric_scooter", "fusion_lon": 0.0, "bike_id": "7f9c83d8a7da9ef7313b48f3f21aaed9", "is_disabled": 0, "lat": 38.887531333333335, "rental_uris": {"ios": "https://dc.lft.to/lastmile_qr_scan", "android": "https://dc.lft.to/lastmile_qr_scan"}, "is_reserved": 0, "lon": -76.98344016666667, "fusion_lat": 0.0, "name": "7f9c83d8a7da9ef7313b48f3f21aaed9"}, {"type": "electric_scooter", "fusion_lon": 0.0, "bike_id": "b097e9ef2b78bf3e66d387a2918cec3c", "is_disabled": 0, "lat": 38.9181875, "rental_uris": {"ios": "https://dc.lft.to/lastmile_qr_scan", "android": "https://dc.lft.to/lastmile_qr_scan"}, "is_reserved": 0, "lon": -77.025873, "fusion_lat": 0.0, "name": "b097e9ef2b78bf3e66d387a2918cec3c"}, {"type": "electric_scooter", "fusion_lon": 0.0, "bike_id": "9248fcde5ac73da1464fd5cbd5a900b5", "is_disabled": 0, "lat": 38.923329833333334, "rental_uris": {"ios": "https://dc.lft.to/lastmile_qr_scan", "android": "https://dc.lft.to/lastmile_qr_scan"}, "is_reserved": 0, "lon": -77.035453, "fusion_lat": 0.0, "name": "9248fcde5ac73da1464fd5cbd5a900b5"}, {"type": "electric_scooter", "fusion_lon": 0.0, "bike_id": "2c312362a4b7646d38df1229af0be465", "is_disabled": 0, "lat": 38.884101666666666, "rental_uris": {"ios": "https://dc.lft.to/lastmile_qr_scan", "android": "https://dc.lft.to/lastmile_qr_scan"}, "is_reserved": 0, "lon": -77.00447083333333, "fusion_lat": 0.0, "name": "2c312362a4b7646d38df1229af0be465"}, {"type": "electric_scooter", "fusion_lon": 0.0, "bike_id": "888563d06963ed8391f9db5abf1c9500", "is_disabled": 0, "lat": 38.917534, "rental_uris": {"ios": "https://dc.lft.to/lastmile_qr_scan", "android": "https://dc.lft.to/lastmile_qr_scan"}, "is_reserved": 0, "lon": -77.040591, "fusion_lat": 0.0, "name": "888563d06963ed8391f9db5abf1c9500"}, {"type": "electric_scooter", "fusion_lon": 0.0, "bike_id": "0dec2beb3e2294078f2180d08c8ef7da", "is_disabled": 0, "lat": 38.91484366666667, "rental_uris": {"ios": "https://dc.lft.to/lastmile_qr_scan", "android": "https://dc.lft.to/lastmile_qr_scan"}, "is_reserved": 0, "lon": -77.02186333333333, "fusion_lat": 0.0, "name": "0dec2beb3e2294078f2180d08c8ef7da"}, {"type": "electric_scooter", "fusion_lon": 0.0, "bike_id": "8723e8d467f04439b0271465a7e77b43", "is_disabled": 0, "lat": 38.90408683333333, "rental_uris": {"ios": "https://dc.lft.to/lastmile_qr_scan", "android": "https://dc.lft.to/lastmile_qr_scan"}, "is_reserved": 0, "lon": -76.9732985, "fusion_lat": 0.0, "name": "8723e8d467f04439b0271465a7e77b43"}, {"type": "electric_scooter", "fusion_lon": 0.0, "bike_id": "cd7a0ef305680b42b42ed118735fe4e7", "is_disabled": 0, "lat": 38.90562416666667, "rental_uris": {"ios": "https://dc.lft.to/lastmile_qr_scan", "android": "https://dc.lft.to/lastmile_qr_scan"}, "is_reserved": 0, "lon": -77.02207833333334, "fusion_lat": 0.0, "name": "cd7a0ef305680b42b42ed118735fe4e7"}, {"type": "electric_scooter", "fusion_lon": 0.0, "bike_id": "f134a5a0ffb534b5a9e1b94ba5921586", "is_disabled": 0, "lat": 38.91771716666667, "rental_uris": {"ios": "https://dc.lft.to/lastmile_qr_scan", "android": "https://dc.lft.to/lastmile_qr_scan"}, "is_reserved": 0, "lon": -77.0410215, "fusion_lat": 0.0, "name": "f134a5a0ffb534b5a9e1b94ba5921586"}, {"type": "electric_scooter", "fusion_lon": 0.0, "bike_id": "2e954dda4945f8c6993f05096d6dea76", "is_disabled": 0, "lat": 38.88342316666667, "rental_uris": {"ios": "https://dc.lft.to/lastmile_qr_scan", "android": "https://dc.lft.to/lastmile_qr_scan"}, "is_reserved": 0, "lon": -76.934914, "fusion_lat": 0.0, "name": "2e954dda4945f8c6993f05096d6dea76"}, {"type": "electric_scooter", "fusion_lon": 0.0, "bike_id": "f18c0163a40f2f2f37616fc76833945e", "is_disabled": 0, "lat": 38.91898833333333, "rental_uris": {"ios": "https://dc.lft.to/lastmile_qr_scan", "android": "https://dc.lft.to/lastmile_qr_scan"}, "is_reserved": 0, "lon": -77.03820966666666, "fusion_lat": 0.0, "name": "f18c0163a40f2f2f37616fc76833945e"}, {"type": "electric_scooter", "fusion_lon": 0.0, "bike_id": "93e3bf76fe2445d3444635acc2122dd9", "is_disabled": 0, "lat": 38.90142733333333, "rental_uris": {"ios": "https://dc.lft.to/lastmile_qr_scan", "android": "https://dc.lft.to/lastmile_qr_scan"}, "is_reserved": 0, "lon": -77.04415966666667, "fusion_lat": 0.0, "name": "93e3bf76fe2445d3444635acc2122dd9"}, {"type": "electric_scooter", "fusion_lon": 0.0, "bike_id": "3562c847dd24090f8acbc5113c657923", "is_disabled": 0, "lat": 38.920866833333335, "rental_uris": {"ios": "https://dc.lft.to/lastmile_qr_scan", "android": "https://dc.lft.to/lastmile_qr_scan"}, "is_reserved": 0, "lon": -77.02510383333333, "fusion_lat": 0.0, "name": "3562c847dd24090f8acbc5113c657923"}, {"type": "electric_scooter", "fusion_lon": 0.0, "bike_id": "203b38bcf8342a5190fd19483ccb0635", "is_disabled": 0, "lat": 38.92288033333333, "rental_uris": {"ios": "https://dc.lft.to/lastmile_qr_scan", "android": "https://dc.lft.to/lastmile_qr_scan"}, "is_reserved": 0, "lon": -77.03655683333334, "fusion_lat": 0.0, "name": "203b38bcf8342a5190fd19483ccb0635"}, {"type": "electric_scooter", "fusion_lon": 0.0, "bike_id": "9e5d7288a12af1945f83004450461da1", "is_disabled": 0, "lat": 38.8923135, "rental_uris": {"ios": "https://dc.lft.to/lastmile_qr_scan", "android": "https://dc.lft.to/lastmile_qr_scan"}, "is_reserved": 0, "lon": -77.05000466666667, "fusion_lat": 0.0, "name": "9e5d7288a12af1945f83004450461da1"}, {"type": "electric_scooter", "fusion_lon": 0.0, "bike_id": "328ad992994ff12ab3a705ff285a4c15", "is_disabled": 0, "lat": 38.914199833333335, "rental_uris": {"ios": "https://dc.lft.to/lastmile_qr_scan", "android": "https://dc.lft.to/lastmile_qr_scan"}, "is_reserved": 0, "lon": -77.04147766666667, "fusion_lat": 0.0, "name": "328ad992994ff12ab3a705ff285a4c15"}, {"type": "electric_scooter", "fusion_lon": 0.0, "bike_id": "d87c1975c25fa90e0505ba977f1676c8", "is_disabled": 0, "lat": 38.900130833333336, "rental_uris": {"ios": "https://dc.lft.to/lastmile_qr_scan", "android": "https://dc.lft.to/lastmile_qr_scan"}, "is_reserved": 0, "lon": -76.98894883333334, "fusion_lat": 0.0, "name": "d87c1975c25fa90e0505ba977f1676c8"}, {"type": "electric_scooter", "fusion_lon": 0.0, "bike_id": "b490651fb4d0a4c1e8e7c849d4329b29", "is_disabled": 0, "lat": 38.88742383333334, "rental_uris": {"ios": "https://dc.lft.to/lastmile_qr_scan", "android": "https://dc.lft.to/lastmile_qr_scan"}, "is_reserved": 0, "lon": -77.01531683333333, "fusion_lat": 0.0, "name": "b490651fb4d0a4c1e8e7c849d4329b29"}, {"type": "electric_bike", "fusion_lon": 0.0, "bike_id": "c69b5c67b3eb0ede68fe59d89d0a129f", "is_disabled": 0, "lat": 38.89560933333333, "rental_uris": {"ios": "https://dc.lft.to/lastmile_qr_scan", "android": "https://dc.lft.to/lastmile_qr_scan"}, "is_reserved": 0, "lon": -77.127346, "fusion_lat": 0.0, "name": "c69b5c67b3eb0ede68fe59d89d0a129f"}, {"type": "electric_scooter", "fusion_lon": 0.0, "bike_id": "6adba832ee583b75b5aff28d44bd244a", "is_disabled": 0, "lat": 38.93118416666667, "rental_uris": {"ios": "https://dc.lft.to/lastmile_qr_scan", "android": "https://dc.lft.to/lastmile_qr_scan"}, "is_reserved": 0, "lon": -77.020974, "fusion_lat": 0.0, "name": "6adba832ee583b75b5aff28d44bd244a"}, {"type": "electric_scooter", "fusion_lon": 0.0, "bike_id": "ab5f7350f8ea72e553538a946fd2a149", "is_disabled": 0, "lat": 38.91705566666667, "rental_uris": {"ios": "https://dc.lft.to/lastmile_qr_scan", "android": "https://dc.lft.to/lastmile_qr_scan"}, "is_reserved": 0, "lon": -77.03738566666667, "fusion_lat": 0.0, "name": "ab5f7350f8ea72e553538a946fd2a149"}, {"type": "electric_scooter", "fusion_lon": 0.0, "bike_id": "e57eb2d9ca72932906d88f3330b49de0", "is_disabled": 0, "lat": 38.9693395, "rental_uris": {"ios": "https://dc.lft.to/lastmile_qr_scan", "android": "https://dc.lft.to/lastmile_qr_scan"}, "is_reserved": 0, "lon": -77.0270915, "fusion_lat": 0.0, "name": "e57eb2d9ca72932906d88f3330b49de0"}, {"type": "electric_scooter", "fusion_lon": 0.0, "bike_id": "4267da70c64baa89c0eaee48f026e567", "is_disabled": 0, "lat": 38.8626815, "rental_uris": {"ios": "https://dc.lft.to/lastmile_qr_scan", "android": "https://dc.lft.to/lastmile_qr_scan"}, "is_reserved": 0, "lon": -76.99570116666666, "fusion_lat": 0.0, "name": "4267da70c64baa89c0eaee48f026e567"}, {"type": "electric_scooter", "fusion_lon": 0.0, "bike_id": "734ac43854f8a41db95b5d0be4627695", "is_disabled": 0, "lat": 38.919782, "rental_uris": {"ios": "https://dc.lft.to/lastmile_qr_scan", "android": "https://dc.lft.to/lastmile_qr_scan"}, "is_reserved": 0, "lon": -77.02191683333334, "fusion_lat": 0.0, "name": "734ac43854f8a41db95b5d0be4627695"}, {"type": "electric_scooter", "fusion_lon": 0.0, "bike_id": "e95d052cef0c7faa253006a05acef2e0", "is_disabled": 0, "lat": 38.903605, "rental_uris": {"ios": "https://dc.lft.to/lastmile_qr_scan", "android": "https://dc.lft.to/lastmile_qr_scan"}, "is_reserved": 0, "lon": -77.06698883333334, "fusion_lat": 0.0, "name": "e95d052cef0c7faa253006a05acef2e0"}, {"type": "electric_scooter", "fusion_lon": 0.0, "bike_id": "0389090d7f426df91c89b9ec1a44a032", "is_disabled": 0, "lat": 38.94455166666667, "rental_uris": {"ios": "https://dc.lft.to/lastmile_qr_scan", "android": "https://dc.lft.to/lastmile_qr_scan"}, "is_reserved": 0, "lon": -77.0280125, "fusion_lat": 0.0, "name": "0389090d7f426df91c89b9ec1a44a032"}, {"type": "electric_scooter", "fusion_lon": 0.0, "bike_id": "1fc50004b8e1b34a95d2c818f3bfb64c", "is_disabled": 0, "lat": 38.921449, "rental_uris": {"ios": "https://dc.lft.to/lastmile_qr_scan", "android": "https://dc.lft.to/lastmile_qr_scan"}, "is_reserved": 0, "lon": -77.018035, "fusion_lat": 0.0, "name": "1fc50004b8e1b34a95d2c818f3bfb64c"}, {"type": "electric_scooter", "fusion_lon": 0.0, "bike_id": "53cfac79de2d3fe42069451cf09809a0", "is_disabled": 0, "lat": 38.92479483333334, "rental_uris": {"ios": "https://dc.lft.to/lastmile_qr_scan", "android": "https://dc.lft.to/lastmile_qr_scan"}, "is_reserved": 0, "lon": -77.03063933333334, "fusion_lat": 0.0, "name": "53cfac79de2d3fe42069451cf09809a0"}, {"type": "electric_scooter", "fusion_lon": 0.0, "bike_id": "81eac6ad0428e93585b40fa3c6a803d2", "is_disabled": 0, "lat": 38.89912233333333, "rental_uris": {"ios": "https://dc.lft.to/lastmile_qr_scan", "android": "https://dc.lft.to/lastmile_qr_scan"}, "is_reserved": 0, "lon": -76.93381483333333, "fusion_lat": 0.0, "name": "81eac6ad0428e93585b40fa3c6a803d2"}, {"type": "electric_scooter", "fusion_lon": 0.0, "bike_id": "e105e5ca34921bbcf3dec276e267c125", "is_disabled": 0, "lat": 38.9156565, "rental_uris": {"ios": "https://dc.lft.to/lastmile_qr_scan", "android": "https://dc.lft.to/lastmile_qr_scan"}, "is_reserved": 0, "lon": -77.0315375, "fusion_lat": 0.0, "name": "e105e5ca34921bbcf3dec276e267c125"}, {"type": "electric_scooter", "fusion_lon": 0.0, "bike_id": "626b81e685b573b7c1f10db50e62a1ff", "is_disabled": 0, "lat": 38.9202065, "rental_uris": {"ios": "https://dc.lft.to/lastmile_qr_scan", "android": "https://dc.lft.to/lastmile_qr_scan"}, "is_reserved": 0, "lon": -77.04404133333334, "fusion_lat": 0.0, "name": "626b81e685b573b7c1f10db50e62a1ff"}, {"type": "electric_scooter", "fusion_lon": 0.0, "bike_id": "adc16c0fe03e2c3b637a5d2076861626", "is_disabled": 0, "lat": 38.8952665, "rental_uris": {"ios": "https://dc.lft.to/lastmile_qr_scan", "android": "https://dc.lft.to/lastmile_qr_scan"}, "is_reserved": 0, "lon": -77.02782116666667, "fusion_lat": 0.0, "name": "adc16c0fe03e2c3b637a5d2076861626"}, {"type": "electric_scooter", "fusion_lon": 0.0, "bike_id": "55437b2fa97d9ad59a7b2e4aa5c61e97", "is_disabled": 0, "lat": 38.87740933333333, "rental_uris": {"ios": "https://dc.lft.to/lastmile_qr_scan", "android": "https://dc.lft.to/lastmile_qr_scan"}, "is_reserved": 0, "lon": -77.00743866666667, "fusion_lat": 0.0, "name": "55437b2fa97d9ad59a7b2e4aa5c61e97"}, {"type": "electric_scooter", "fusion_lon": 0.0, "bike_id": "e26950e7bd69cf004a536384d327d310", "is_disabled": 0, "lat": 38.910608833333335, "rental_uris": {"ios": "https://dc.lft.to/lastmile_qr_scan", "android": "https://dc.lft.to/lastmile_qr_scan"}, "is_reserved": 0, "lon": -77.02655233333333, "fusion_lat": 0.0, "name": "e26950e7bd69cf004a536384d327d310"}, {"type": "electric_scooter", "fusion_lon": 0.0, "bike_id": "f8dbb51c142f6e5a93b62a6b04a8a1ff", "is_disabled": 0, "lat": 38.859486, "rental_uris": {"ios": "https://dc.lft.to/lastmile_qr_scan", "android": "https://dc.lft.to/lastmile_qr_scan"}, "is_reserved": 0, "lon": -76.95881383333334, "fusion_lat": 0.0, "name": "f8dbb51c142f6e5a93b62a6b04a8a1ff"}, {"type": "electric_scooter", "fusion_lon": 0.0, "bike_id": "c8e2fd40827fe688fbe82777561b523b", "is_disabled": 0, "lat": 38.921134333333335, "rental_uris": {"ios": "https://dc.lft.to/lastmile_qr_scan", "android": "https://dc.lft.to/lastmile_qr_scan"}, "is_reserved": 0, "lon": -77.0483195, "fusion_lat": 0.0, "name": "c8e2fd40827fe688fbe82777561b523b"}, {"type": "electric_scooter", "fusion_lon": 0.0, "bike_id": "54e4056373c2ce06b0b5efc956672f60", "is_disabled": 0, "lat": 38.906388166666666, "rental_uris": {"ios": "https://dc.lft.to/lastmile_qr_scan", "android": "https://dc.lft.to/lastmile_qr_scan"}, "is_reserved": 0, "lon": -77.011434, "fusion_lat": 0.0, "name": "54e4056373c2ce06b0b5efc956672f60"}, {"type": "electric_scooter", "fusion_lon": 0.0, "bike_id": "656387322186facba2d108e7e126c363", "is_disabled": 0, "lat": 38.9322335, "rental_uris": {"ios": "https://dc.lft.to/lastmile_qr_scan", "android": "https://dc.lft.to/lastmile_qr_scan"}, "is_reserved": 0, "lon": -77.02384233333333, "fusion_lat": 0.0, "name": "656387322186facba2d108e7e126c363"}, {"type": "electric_scooter", "fusion_lon": 0.0, "bike_id": "6753eb25a3bffed3d60c9741628d5652", "is_disabled": 0, "lat": 38.92505416666667, "rental_uris": {"ios": "https://dc.lft.to/lastmile_qr_scan", "android": "https://dc.lft.to/lastmile_qr_scan"}, "is_reserved": 0, "lon": -77.021658, "fusion_lat": 0.0, "name": "6753eb25a3bffed3d60c9741628d5652"}, {"type": "electric_scooter", "fusion_lon": 0.0, "bike_id": "78df76338455528b4dc16fc5a53ada85", "is_disabled": 0, "lat": 38.9441445, "rental_uris": {"ios": "https://dc.lft.to/lastmile_qr_scan", "android": "https://dc.lft.to/lastmile_qr_scan"}, "is_reserved": 0, "lon": -77.00500666666667, "fusion_lat": 0.0, "name": "78df76338455528b4dc16fc5a53ada85"}, {"type": "electric_scooter", "fusion_lon": 0.0, "bike_id": "de9254d4cd6b76bf445426f82747fdef", "is_disabled": 0, "lat": 38.93668183333333, "rental_uris": {"ios": "https://dc.lft.to/lastmile_qr_scan", "android": "https://dc.lft.to/lastmile_qr_scan"}, "is_reserved": 0, "lon": -77.03392916666667, "fusion_lat": 0.0, "name": "de9254d4cd6b76bf445426f82747fdef"}, {"type": "electric_scooter", "fusion_lon": 0.0, "bike_id": "49d09a31283c67c712cf3c88785ddd6e", "is_disabled": 0, "lat": 38.9146995, "rental_uris": {"ios": "https://dc.lft.to/lastmile_qr_scan", "android": "https://dc.lft.to/lastmile_qr_scan"}, "is_reserved": 0, "lon": -77.01491583333333, "fusion_lat": 0.0, "name": "49d09a31283c67c712cf3c88785ddd6e"}, {"type": "electric_bike", "fusion_lon": 0.0, "bike_id": "86e4c34a8d8d050741a526b08abe8955", "is_disabled": 0, "lat": 38.88303233333333, "rental_uris": {"ios": "https://dc.lft.to/lastmile_qr_scan", "android": "https://dc.lft.to/lastmile_qr_scan"}, "is_reserved": 0, "lon": -76.94976, "fusion_lat": 0.0, "name": "86e4c34a8d8d050741a526b08abe8955"}, {"type": "electric_scooter", "fusion_lon": 0.0, "bike_id": "db11f23e75c8949c2d0ac108bce8f7d9", "is_disabled": 0, "lat": 38.87674883333333, "rental_uris": {"ios": "https://dc.lft.to/lastmile_qr_scan", "android": "https://dc.lft.to/lastmile_qr_scan"}, "is_reserved": 0, "lon": -77.00935266666667, "fusion_lat": 0.0, "name": "db11f23e75c8949c2d0ac108bce8f7d9"}, {"type": "electric_bike", "fusion_lon": 0.0, "bike_id": "b40c4624f6ae8b24e4bcf31689c9f8d9", "is_disabled": 0, "lat": 38.8623265, "rental_uris": {"ios": "https://dc.lft.to/lastmile_qr_scan", "android": "https://dc.lft.to/lastmile_qr_scan"}, "is_reserved": 0, "lon": -76.99585933333333, "fusion_lat": 0.0, "name": "b40c4624f6ae8b24e4bcf31689c9f8d9"}, {"type": "electric_scooter", "fusion_lon": 0.0, "bike_id": "de4d444e17f12b26413ca3cfe52bd2f8", "is_disabled": 0, "lat": 38.8779265, "rental_uris": {"ios": "https://dc.lft.to/lastmile_qr_scan", "android": "https://dc.lft.to/lastmile_qr_scan"}, "is_reserved": 0, "lon": -76.99407383333333, "fusion_lat": 0.0, "name": "de4d444e17f12b26413ca3cfe52bd2f8"}, {"type": "electric_scooter", "fusion_lon": 0.0, "bike_id": "2c1c571644b3c6d694b53e88943f0799", "is_disabled": 0, "lat": 38.9127035, "rental_uris": {"ios": "https://dc.lft.to/lastmile_qr_scan", "android": "https://dc.lft.to/lastmile_qr_scan"}, "is_reserved": 0, "lon": -77.03797, "fusion_lat": 0.0, "name": "2c1c571644b3c6d694b53e88943f0799"}, {"type": "electric_scooter", "fusion_lon": 0.0, "bike_id": "3351b67aa549677fead07c8cf2e3434e", "is_disabled": 0, "lat": 38.908527666666664, "rental_uris": {"ios": "https://dc.lft.to/lastmile_qr_scan", "android": "https://dc.lft.to/lastmile_qr_scan"}, "is_reserved": 0, "lon": -76.99689216666667, "fusion_lat": 0.0, "name": "3351b67aa549677fead07c8cf2e3434e"}, {"type": "electric_scooter", "fusion_lon": 0.0, "bike_id": "e6bedbdb19178e91784fa9cdd221bb0e", "is_disabled": 0, "lat": 38.90526416666667, "rental_uris": {"ios": "https://dc.lft.to/lastmile_qr_scan", "android": "https://dc.lft.to/lastmile_qr_scan"}, "is_reserved": 0, "lon": -77.02946616666667, "fusion_lat": 0.0, "name": "e6bedbdb19178e91784fa9cdd221bb0e"}, {"type": "electric_scooter", "fusion_lon": 0.0, "bike_id": "b4501189cf51d80ca0bda85c9385530a", "is_disabled": 0, "lat": 38.90043083333333, "rental_uris": {"ios": "https://dc.lft.to/lastmile_qr_scan", "android": "https://dc.lft.to/lastmile_qr_scan"}, "is_reserved": 0, "lon": -77.02411416666666, "fusion_lat": 0.0, "name": "b4501189cf51d80ca0bda85c9385530a"}, {"type": "electric_scooter", "fusion_lon": 0.0, "bike_id": "a70d4764ec6fd053c51dee6de1d06e2a", "is_disabled": 0, "lat": 38.917041, "rental_uris": {"ios": "https://dc.lft.to/lastmile_qr_scan", "android": "https://dc.lft.to/lastmile_qr_scan"}, "is_reserved": 0, "lon": -77.03462133333333, "fusion_lat": 0.0, "name": "a70d4764ec6fd053c51dee6de1d06e2a"}, {"type": "electric_scooter", "fusion_lon": 0.0, "bike_id": "790a18473ecf1752b6ecb58670f97c3e", "is_disabled": 0, "lat": 38.917688, "rental_uris": {"ios": "https://dc.lft.to/lastmile_qr_scan", "android": "https://dc.lft.to/lastmile_qr_scan"}, "is_reserved": 0, "lon": -77.0234875, "fusion_lat": 0.0, "name": "790a18473ecf1752b6ecb58670f97c3e"}, {"type": "electric_bike", "fusion_lon": 0.0, "bike_id": "ab5d7c9e6b5488b38e62882e483020ab", "is_disabled": 0, "lat": 38.856177, "rental_uris": {"ios": "https://dc.lft.to/lastmile_qr_scan", "android": "https://dc.lft.to/lastmile_qr_scan"}, "is_reserved": 0, "lon": -77.111794, "fusion_lat": 0.0, "name": "ab5d7c9e6b5488b38e62882e483020ab"}, {"type": "electric_bike", "fusion_lon": 0.0, "bike_id": "05bc78e8949e98a1681cd84f40e2cd78", "is_disabled": 0, "lat": 38.922085333333335, "rental_uris": {"ios": "https://dc.lft.to/lastmile_qr_scan", "android": "https://dc.lft.to/lastmile_qr_scan"}, "is_reserved": 0, "lon": -77.08206383333334, "fusion_lat": 0.0, "name": "05bc78e8949e98a1681cd84f40e2cd78"}, {"type": "electric_scooter", "fusion_lon": 0.0, "bike_id": "2cb1f77b68e227ed366e26f8041efe16", "is_disabled": 0, "lat": 38.92254483333333, "rental_uris": {"ios": "https://dc.lft.to/lastmile_qr_scan", "android": "https://dc.lft.to/lastmile_qr_scan"}, "is_reserved": 0, "lon": -77.0734465, "fusion_lat": 0.0, "name": "2cb1f77b68e227ed366e26f8041efe16"}, {"type": "electric_scooter", "fusion_lon": 0.0, "bike_id": "0be5a74849e5c4db0189d60d8e718486", "is_disabled": 0, "lat": 38.91956533333333, "rental_uris": {"ios": "https://dc.lft.to/lastmile_qr_scan", "android": "https://dc.lft.to/lastmile_qr_scan"}, "is_reserved": 0, "lon": -77.0239135, "fusion_lat": 0.0, "name": "0be5a74849e5c4db0189d60d8e718486"}, {"type": "electric_scooter", "fusion_lon": 0.0, "bike_id": "a807f034839afa1555075790ec5b1530", "is_disabled": 0, "lat": 38.893474166666664, "rental_uris": {"ios": "https://dc.lft.to/lastmile_qr_scan", "android": "https://dc.lft.to/lastmile_qr_scan"}, "is_reserved": 0, "lon": -76.952284, "fusion_lat": 0.0, "name": "a807f034839afa1555075790ec5b1530"}, {"type": "electric_scooter", "fusion_lon": 0.0, "bike_id": "5039c188b391a0bcfa8f22a051dde9c3", "is_disabled": 0, "lat": 38.90035233333333, "rental_uris": {"ios": "https://dc.lft.to/lastmile_qr_scan", "android": "https://dc.lft.to/lastmile_qr_scan"}, "is_reserved": 0, "lon": -77.0020935, "fusion_lat": 0.0, "name": "5039c188b391a0bcfa8f22a051dde9c3"}, {"type": "electric_bike", "fusion_lon": 0.0, "bike_id": "ec186cda2d25e8f5a853f1ccc80a2028", "is_disabled": 0, "lat": 38.93568966666667, "rental_uris": {"ios": "https://dc.lft.to/lastmile_qr_scan", "android": "https://dc.lft.to/lastmile_qr_scan"}, "is_reserved": 0, "lon": -77.10605816666667, "fusion_lat": 0.0, "name": "ec186cda2d25e8f5a853f1ccc80a2028"}, {"type": "electric_scooter", "fusion_lon": 0.0, "bike_id": "028169ad17567719f9a838be8b74158e", "is_disabled": 0, "lat": 38.908099, "rental_uris": {"ios": "https://dc.lft.to/lastmile_qr_scan", "android": "https://dc.lft.to/lastmile_qr_scan"}, "is_reserved": 0, "lon": -77.03374783333334, "fusion_lat": 0.0, "name": "028169ad17567719f9a838be8b74158e"}, {"type": "electric_scooter", "fusion_lon": 0.0, "bike_id": "e1d923cf7ab5148b78244e9f845db6c2", "is_disabled": 0, "lat": 38.913510333333335, "rental_uris": {"ios": "https://dc.lft.to/lastmile_qr_scan", "android": "https://dc.lft.to/lastmile_qr_scan"}, "is_reserved": 0, "lon": -77.0321285, "fusion_lat": 0.0, "name": "e1d923cf7ab5148b78244e9f845db6c2"}, {"type": "electric_scooter", "fusion_lon": 0.0, "bike_id": "8e83650a6a0f12bed5a80499f75c2173", "is_disabled": 0, "lat": 38.97214783333333, "rental_uris": {"ios": "https://dc.lft.to/lastmile_qr_scan", "android": "https://dc.lft.to/lastmile_qr_scan"}, "is_reserved": 0, "lon": -77.03332483333334, "fusion_lat": 0.0, "name": "8e83650a6a0f12bed5a80499f75c2173"}, {"type": "electric_bike", "fusion_lon": 0.0, "bike_id": "cda09ec37cf4d68a67cb5cb5f4f5d286", "is_disabled": 0, "lat": 38.84693, "rental_uris": {"ios": "https://dc.lft.to/lastmile_qr_scan", "android": "https://dc.lft.to/lastmile_qr_scan"}, "is_reserved": 0, "lon": -76.98280516666667, "fusion_lat": 0.0, "name": "cda09ec37cf4d68a67cb5cb5f4f5d286"}, {"type": "electric_scooter", "fusion_lon": 0.0, "bike_id": "9a59ebf275f28b8262f4f77e6ef49c64", "is_disabled": 0, "lat": 38.90446883333333, "rental_uris": {"ios": "https://dc.lft.to/lastmile_qr_scan", "android": "https://dc.lft.to/lastmile_qr_scan"}, "is_reserved": 0, "lon": -77.05804583333334, "fusion_lat": 0.0, "name": "9a59ebf275f28b8262f4f77e6ef49c64"}, {"type": "electric_scooter", "fusion_lon": 0.0, "bike_id": "7d4411944cc719a90000181e1c716f44", "is_disabled": 0, "lat": 38.87665333333333, "rental_uris": {"ios": "https://dc.lft.to/lastmile_qr_scan", "android": "https://dc.lft.to/lastmile_qr_scan"}, "is_reserved": 0, "lon": -76.99624583333333, "fusion_lat": 0.0, "name": "7d4411944cc719a90000181e1c716f44"}, {"type": "electric_scooter", "fusion_lon": 0.0, "bike_id": "7220f41dd52e3977a8caeb346b88fd02", "is_disabled": 0, "lat": 38.87996183333333, "rental_uris": {"ios": "https://dc.lft.to/lastmile_qr_scan", "android": "https://dc.lft.to/lastmile_qr_scan"}, "is_reserved": 0, "lon": -76.9868085, "fusion_lat": 0.0, "name": "7220f41dd52e3977a8caeb346b88fd02"}, {"type": "electric_scooter", "fusion_lon": 0.0, "bike_id": "503c6050614bf2fdda9ec182e13e0b71", "is_disabled": 0, "lat": 38.919683166666665, "rental_uris": {"ios": "https://dc.lft.to/lastmile_qr_scan", "android": "https://dc.lft.to/lastmile_qr_scan"}, "is_reserved": 0, "lon": -77.059539, "fusion_lat": 0.0, "name": "503c6050614bf2fdda9ec182e13e0b71"}, {"type": "electric_scooter", "fusion_lon": 0.0, "bike_id": "52745b38a3a60bd4689482bd62c862a7", "is_disabled": 0, "lat": 38.899855333333335, "rental_uris": {"ios": "https://dc.lft.to/lastmile_qr_scan", "android": "https://dc.lft.to/lastmile_qr_scan"}, "is_reserved": 0, "lon": -77.01925583333333, "fusion_lat": 0.0, "name": "52745b38a3a60bd4689482bd62c862a7"}, {"type": "electric_bike", "fusion_lon": 0.0, "bike_id": "612d8371c35bda4c86dbcff714894784", "is_disabled": 0, "lat": 39.015677333333336, "rental_uris": {"ios": "https://dc.lft.to/lastmile_qr_scan", "android": "https://dc.lft.to/lastmile_qr_scan"}, "is_reserved": 0, "lon": -77.044221, "fusion_lat": 0.0, "name": "612d8371c35bda4c86dbcff714894784"}, {"type": "electric_scooter", "fusion_lon": 0.0, "bike_id": "3fbb072eb1b207c75868bee3cf688fb8", "is_disabled": 0, "lat": 38.88376216666666, "rental_uris": {"ios": "https://dc.lft.to/lastmile_qr_scan", "android": "https://dc.lft.to/lastmile_qr_scan"}, "is_reserved": 0, "lon": -77.024236, "fusion_lat": 0.0, "name": "3fbb072eb1b207c75868bee3cf688fb8"}, {"type": "electric_scooter", "fusion_lon": 0.0, "bike_id": "49382e945242c9d5bb881ab8b18a3596", "is_disabled": 0, "lat": 38.892712, "rental_uris": {"ios": "https://dc.lft.to/lastmile_qr_scan", "android": "https://dc.lft.to/lastmile_qr_scan"}, "is_reserved": 0, "lon": -77.04206066666667, "fusion_lat": 0.0, "name": "49382e945242c9d5bb881ab8b18a3596"}, {"type": "electric_scooter", "fusion_lon": 0.0, "bike_id": "1789eb4c58cb5202cfe073a0d6ac057d", "is_disabled": 0, "lat": 38.91355216666667, "rental_uris": {"ios": "https://dc.lft.to/lastmile_qr_scan", "android": "https://dc.lft.to/lastmile_qr_scan"}, "is_reserved": 0, "lon": -77.031802, "fusion_lat": 0.0, "name": "1789eb4c58cb5202cfe073a0d6ac057d"}, {"type": "electric_scooter", "fusion_lon": 0.0, "bike_id": "c44c73ac36c5e23ab702407362576be5", "is_disabled": 0, "lat": 38.88333216666667, "rental_uris": {"ios": "https://dc.lft.to/lastmile_qr_scan", "android": "https://dc.lft.to/lastmile_qr_scan"}, "is_reserved": 0, "lon": -77.01139816666667, "fusion_lat": 0.0, "name": "c44c73ac36c5e23ab702407362576be5"}, {"type": "electric_scooter", "fusion_lon": 0.0, "bike_id": "195f07b0a9110bcf802902221c55bdea", "is_disabled": 0, "lat": 38.92974666666667, "rental_uris": {"ios": "https://dc.lft.to/lastmile_qr_scan", "android": "https://dc.lft.to/lastmile_qr_scan"}, "is_reserved": 0, "lon": -77.0281565, "fusion_lat": 0.0, "name": "195f07b0a9110bcf802902221c55bdea"}, {"type": "electric_scooter", "fusion_lon": 0.0, "bike_id": "29101c4a0a0215608041d51f58da3a57", "is_disabled": 0, "lat": 38.92685633333333, "rental_uris": {"ios": "https://dc.lft.to/lastmile_qr_scan", "android": "https://dc.lft.to/lastmile_qr_scan"}, "is_reserved": 0, "lon": -77.03603966666667, "fusion_lat": 0.0, "name": "29101c4a0a0215608041d51f58da3a57"}, {"type": "electric_scooter", "fusion_lon": 0.0, "bike_id": "b6bea22621dea32cc80d0ce82ea59859", "is_disabled": 0, "lat": 38.92165116666666, "rental_uris": {"ios": "https://dc.lft.to/lastmile_qr_scan", "android": "https://dc.lft.to/lastmile_qr_scan"}, "is_reserved": 0, "lon": -77.046937, "fusion_lat": 0.0, "name": "b6bea22621dea32cc80d0ce82ea59859"}, {"type": "electric_scooter", "fusion_lon": 0.0, "bike_id": "5f62cd3ac298782fa9de079feb8897e0", "is_disabled": 0, "lat": 38.9423185, "rental_uris": {"ios": "https://dc.lft.to/lastmile_qr_scan", "android": "https://dc.lft.to/lastmile_qr_scan"}, "is_reserved": 0, "lon": -77.03869533333334, "fusion_lat": 0.0, "name": "5f62cd3ac298782fa9de079feb8897e0"}, {"type": "electric_bike", "fusion_lon": 0.0, "bike_id": "72e21d78125a91ab7377a33ab8fb0464", "is_disabled": 0, "lat": 38.934893, "rental_uris": {"ios": "https://dc.lft.to/lastmile_qr_scan", "android": "https://dc.lft.to/lastmile_qr_scan"}, "is_reserved": 0, "lon": -77.0301705, "fusion_lat": 0.0, "name": "72e21d78125a91ab7377a33ab8fb0464"}, {"type": "electric_scooter", "fusion_lon": 0.0, "bike_id": "7d7dfd887df8dfac4c941eabf03f7231", "is_disabled": 0, "lat": 38.91353733333333, "rental_uris": {"ios": "https://dc.lft.to/lastmile_qr_scan", "android": "https://dc.lft.to/lastmile_qr_scan"}, "is_reserved": 0, "lon": -77.0320815, "fusion_lat": 0.0, "name": "7d7dfd887df8dfac4c941eabf03f7231"}, {"type": "electric_scooter", "fusion_lon": 0.0, "bike_id": "752d7d64fc0ec1dc8dcd884fc4b3151e", "is_disabled": 0, "lat": 38.92393, "rental_uris": {"ios": "https://dc.lft.to/lastmile_qr_scan", "android": "https://dc.lft.to/lastmile_qr_scan"}, "is_reserved": 0, "lon": -77.0340475, "fusion_lat": 0.0, "name": "752d7d64fc0ec1dc8dcd884fc4b3151e"}, {"type": "electric_bike", "fusion_lon": 0.0, "bike_id": "0788ec86d869757cafc0908381bab735", "is_disabled": 0, "lat": 39.000007833333335, "rental_uris": {"ios": "https://dc.lft.to/lastmile_qr_scan", "android": "https://dc.lft.to/lastmile_qr_scan"}, "is_reserved": 0, "lon": -76.91807016666667, "fusion_lat": 0.0, "name": "0788ec86d869757cafc0908381bab735"}, {"type": "electric_scooter", "fusion_lon": 0.0, "bike_id": "a8c4363c8e5246c6acba7b53f3ded08e", "is_disabled": 0, "lat": 38.887184833333336, "rental_uris": {"ios": "https://dc.lft.to/lastmile_qr_scan", "android": "https://dc.lft.to/lastmile_qr_scan"}, "is_reserved": 0, "lon": -77.02199433333334, "fusion_lat": 0.0, "name": "a8c4363c8e5246c6acba7b53f3ded08e"}, {"type": "electric_scooter", "fusion_lon": 0.0, "bike_id": "45be8faa6a57cd9d9c6f58d01b26bf0c", "is_disabled": 0, "lat": 38.918164, "rental_uris": {"ios": "https://dc.lft.to/lastmile_qr_scan", "android": "https://dc.lft.to/lastmile_qr_scan"}, "is_reserved": 0, "lon": -77.00253816666667, "fusion_lat": 0.0, "name": "45be8faa6a57cd9d9c6f58d01b26bf0c"}, {"type": "electric_scooter", "fusion_lon": 0.0, "bike_id": "e3a58d7addfe01a1d5e7946745f49ee8", "is_disabled": 0, "lat": 38.90562333333333, "rental_uris": {"ios": "https://dc.lft.to/lastmile_qr_scan", "android": "https://dc.lft.to/lastmile_qr_scan"}, "is_reserved": 0, "lon": -77.03467966666666, "fusion_lat": 0.0, "name": "e3a58d7addfe01a1d5e7946745f49ee8"}, {"type": "electric_bike", "fusion_lon": 0.0, "bike_id": "5ddf45a46a9b67c6272da50358b989e8", "is_disabled": 0, "lat": 38.88491783333333, "rental_uris": {"ios": "https://dc.lft.to/lastmile_qr_scan", "android": "https://dc.lft.to/lastmile_qr_scan"}, "is_reserved": 0, "lon": -76.95764183333333, "fusion_lat": 0.0, "name": "5ddf45a46a9b67c6272da50358b989e8"}, {"type": "electric_scooter", "fusion_lon": 0.0, "bike_id": "cf00d80636c379701396c3bc8bc5ec24", "is_disabled": 0, "lat": 38.90146633333333, "rental_uris": {"ios": "https://dc.lft.to/lastmile_qr_scan", "android": "https://dc.lft.to/lastmile_qr_scan"}, "is_reserved": 0, "lon": -77.04439916666666, "fusion_lat": 0.0, "name": "cf00d80636c379701396c3bc8bc5ec24"}, {"type": "electric_scooter", "fusion_lon": 0.0, "bike_id": "ff32db5ffe7e6de7e531b58cdf9f1811", "is_disabled": 0, "lat": 38.91447133333333, "rental_uris": {"ios": "https://dc.lft.to/lastmile_qr_scan", "android": "https://dc.lft.to/lastmile_qr_scan"}, "is_reserved": 0, "lon": -77.04151883333333, "fusion_lat": 0.0, "name": "ff32db5ffe7e6de7e531b58cdf9f1811"}, {"type": "electric_scooter", "fusion_lon": 0.0, "bike_id": "4df850c80e87e1697ca71aa94d15cf12", "is_disabled": 0, "lat": 38.93431016666667, "rental_uris": {"ios": "https://dc.lft.to/lastmile_qr_scan", "android": "https://dc.lft.to/lastmile_qr_scan"}, "is_reserved": 0, "lon": -77.04421166666667, "fusion_lat": 0.0, "name": "4df850c80e87e1697ca71aa94d15cf12"}, {"type": "electric_scooter", "fusion_lon": 0.0, "bike_id": "48a26a4d35d2ef7d98a589d9963524fd", "is_disabled": 0, "lat": 38.8985445, "rental_uris": {"ios": "https://dc.lft.to/lastmile_qr_scan", "android": "https://dc.lft.to/lastmile_qr_scan"}, "is_reserved": 0, "lon": -76.99031083333334, "fusion_lat": 0.0, "name": "48a26a4d35d2ef7d98a589d9963524fd"}, {"type": "electric_scooter", "fusion_lon": 0.0, "bike_id": "c0971845eed7be8733fb0292a08fbe07", "is_disabled": 0, "lat": 38.92068716666667, "rental_uris": {"ios": "https://dc.lft.to/lastmile_qr_scan", "android": "https://dc.lft.to/lastmile_qr_scan"}, "is_reserved": 0, "lon": -77.02361916666666, "fusion_lat": 0.0, "name": "c0971845eed7be8733fb0292a08fbe07"}, {"type": "electric_scooter", "fusion_lon": 0.0, "bike_id": "fb5dbbfca967c8c355a91a5e9297348b", "is_disabled": 0, "lat": 38.92746533333333, "rental_uris": {"ios": "https://dc.lft.to/lastmile_qr_scan", "android": "https://dc.lft.to/lastmile_qr_scan"}, "is_reserved": 0, "lon": -77.02530833333333, "fusion_lat": 0.0, "name": "fb5dbbfca967c8c355a91a5e9297348b"}, {"type": "electric_bike", "fusion_lon": 0.0, "bike_id": "bb13cf90e9bae71204e6d07ef21543a3", "is_disabled": 0, "lat": 38.8578315, "rental_uris": {"ios": "https://dc.lft.to/lastmile_qr_scan", "android": "https://dc.lft.to/lastmile_qr_scan"}, "is_reserved": 0, "lon": -76.97326866666667, "fusion_lat": 0.0, "name": "bb13cf90e9bae71204e6d07ef21543a3"}, {"type": "electric_scooter", "fusion_lon": 0.0, "bike_id": "3bf04b7ca63b68fc4b68a0292addab28", "is_disabled": 0, "lat": 38.90826033333333, "rental_uris": {"ios": "https://dc.lft.to/lastmile_qr_scan", "android": "https://dc.lft.to/lastmile_qr_scan"}, "is_reserved": 0, "lon": -77.03914683333333, "fusion_lat": 0.0, "name": "3bf04b7ca63b68fc4b68a0292addab28"}, {"type": "electric_scooter", "fusion_lon": 0.0, "bike_id": "b458df4d4f0ba2ab6c6b6ae8625ac675", "is_disabled": 0, "lat": 38.9196755, "rental_uris": {"ios": "https://dc.lft.to/lastmile_qr_scan", "android": "https://dc.lft.to/lastmile_qr_scan"}, "is_reserved": 0, "lon": -77.02412483333333, "fusion_lat": 0.0, "name": "b458df4d4f0ba2ab6c6b6ae8625ac675"}, {"type": "electric_scooter", "fusion_lon": 0.0, "bike_id": "1005536bfc4364f620dade20fd7ee2f4", "is_disabled": 0, "lat": 38.934616, "rental_uris": {"ios": "https://dc.lft.to/lastmile_qr_scan", "android": "https://dc.lft.to/lastmile_qr_scan"}, "is_reserved": 0, "lon": -77.03237733333333, "fusion_lat": 0.0, "name": "1005536bfc4364f620dade20fd7ee2f4"}, {"type": "electric_scooter", "fusion_lon": 0.0, "bike_id": "d2496f8b242da29aa51bd6d6a0d231fc", "is_disabled": 0, "lat": 38.906364333333336, "rental_uris": {"ios": "https://dc.lft.to/lastmile_qr_scan", "android": "https://dc.lft.to/lastmile_qr_scan"}, "is_reserved": 0, "lon": -77.051484, "fusion_lat": 0.0, "name": "d2496f8b242da29aa51bd6d6a0d231fc"}, {"type": "electric_scooter", "fusion_lon": 0.0, "bike_id": "35bb7a4b7b0fd4830e3b0b0c9152d3da", "is_disabled": 0, "lat": 38.88733916666666, "rental_uris": {"ios": "https://dc.lft.to/lastmile_qr_scan", "android": "https://dc.lft.to/lastmile_qr_scan"}, "is_reserved": 0, "lon": -77.03174383333334, "fusion_lat": 0.0, "name": "35bb7a4b7b0fd4830e3b0b0c9152d3da"}, {"type": "electric_scooter", "fusion_lon": 0.0, "bike_id": "9adbc68bd49953381821170fa7ef64c3", "is_disabled": 0, "lat": 38.878826, "rental_uris": {"ios": "https://dc.lft.to/lastmile_qr_scan", "android": "https://dc.lft.to/lastmile_qr_scan"}, "is_reserved": 0, "lon": -77.00581033333333, "fusion_lat": 0.0, "name": "9adbc68bd49953381821170fa7ef64c3"}, {"type": "electric_scooter", "fusion_lon": 0.0, "bike_id": "9f773db56efb785571cac236f44d7d73", "is_disabled": 0, "lat": 38.9247, "rental_uris": {"ios": "https://dc.lft.to/lastmile_qr_scan", "android": "https://dc.lft.to/lastmile_qr_scan"}, "is_reserved": 0, "lon": -77.0271295, "fusion_lat": 0.0, "name": "9f773db56efb785571cac236f44d7d73"}, {"type": "electric_scooter", "fusion_lon": 0.0, "bike_id": "97dee1bf0db1be7a87b685bd3ede31cd", "is_disabled": 0, "lat": 38.914099666666665, "rental_uris": {"ios": "https://dc.lft.to/lastmile_qr_scan", "android": "https://dc.lft.to/lastmile_qr_scan"}, "is_reserved": 0, "lon": -77.03266983333333, "fusion_lat": 0.0, "name": "97dee1bf0db1be7a87b685bd3ede31cd"}, {"type": "electric_scooter", "fusion_lon": 0.0, "bike_id": "cf89cb7f6314c33059b732932bbc99ac", "is_disabled": 0, "lat": 38.92634066666667, "rental_uris": {"ios": "https://dc.lft.to/lastmile_qr_scan", "android": "https://dc.lft.to/lastmile_qr_scan"}, "is_reserved": 0, "lon": -76.99626666666667, "fusion_lat": 0.0, "name": "cf89cb7f6314c33059b732932bbc99ac"}, {"type": "electric_scooter", "fusion_lon": 0.0, "bike_id": "73d741564d2eae84601b1c1681451354", "is_disabled": 0, "lat": 38.9120135, "rental_uris": {"ios": "https://dc.lft.to/lastmile_qr_scan", "android": "https://dc.lft.to/lastmile_qr_scan"}, "is_reserved": 0, "lon": -77.04536183333333, "fusion_lat": 0.0, "name": "73d741564d2eae84601b1c1681451354"}, {"type": "electric_scooter", "fusion_lon": 0.0, "bike_id": "4a7160baabdf22ef24e7a00ee4acc306", "is_disabled": 0, "lat": 38.89766216666666, "rental_uris": {"ios": "https://dc.lft.to/lastmile_qr_scan", "android": "https://dc.lft.to/lastmile_qr_scan"}, "is_reserved": 0, "lon": -76.98651583333333, "fusion_lat": 0.0, "name": "4a7160baabdf22ef24e7a00ee4acc306"}, {"type": "electric_scooter", "fusion_lon": 0.0, "bike_id": "a379a907b22b9f7c8c703b5d1bde20db", "is_disabled": 0, "lat": 38.91492483333333, "rental_uris": {"ios": "https://dc.lft.to/lastmile_qr_scan", "android": "https://dc.lft.to/lastmile_qr_scan"}, "is_reserved": 0, "lon": -77.04252, "fusion_lat": 0.0, "name": "a379a907b22b9f7c8c703b5d1bde20db"}, {"type": "electric_scooter", "fusion_lon": 0.0, "bike_id": "4889bbbfb14ddcb73d3219085a8b7beb", "is_disabled": 0, "lat": 38.921370333333336, "rental_uris": {"ios": "https://dc.lft.to/lastmile_qr_scan", "android": "https://dc.lft.to/lastmile_qr_scan"}, "is_reserved": 0, "lon": -77.03662366666667, "fusion_lat": 0.0, "name": "4889bbbfb14ddcb73d3219085a8b7beb"}, {"type": "electric_scooter", "fusion_lon": 0.0, "bike_id": "694c677a77bd1c652fad10772d987fe7", "is_disabled": 0, "lat": 38.9012555, "rental_uris": {"ios": "https://dc.lft.to/lastmile_qr_scan", "android": "https://dc.lft.to/lastmile_qr_scan"}, "is_reserved": 0, "lon": -77.05154116666667, "fusion_lat": 0.0, "name": "694c677a77bd1c652fad10772d987fe7"}, {"type": "electric_scooter", "fusion_lon": 0.0, "bike_id": "637e49929405169567cda4b6c1e48683", "is_disabled": 0, "lat": 38.91412116666667, "rental_uris": {"ios": "https://dc.lft.to/lastmile_qr_scan", "android": "https://dc.lft.to/lastmile_qr_scan"}, "is_reserved": 0, "lon": -77.03548966666666, "fusion_lat": 0.0, "name": "637e49929405169567cda4b6c1e48683"}, {"type": "electric_scooter", "fusion_lon": 0.0, "bike_id": "165f8c74781ee170b9769c94a08d8a76", "is_disabled": 0, "lat": 38.9344155, "rental_uris": {"ios": "https://dc.lft.to/lastmile_qr_scan", "android": "https://dc.lft.to/lastmile_qr_scan"}, "is_reserved": 0, "lon": -77.03290766666667, "fusion_lat": 0.0, "name": "165f8c74781ee170b9769c94a08d8a76"}, {"type": "electric_scooter", "fusion_lon": 0.0, "bike_id": "199e17280b089b7fbd24ba93f2de80fb", "is_disabled": 0, "lat": 38.892207166666665, "rental_uris": {"ios": "https://dc.lft.to/lastmile_qr_scan", "android": "https://dc.lft.to/lastmile_qr_scan"}, "is_reserved": 0, "lon": -77.02627383333333, "fusion_lat": 0.0, "name": "199e17280b089b7fbd24ba93f2de80fb"}, {"type": "electric_scooter", "fusion_lon": 0.0, "bike_id": "cb5419e71a291d1ea387e1aa80503101", "is_disabled": 0, "lat": 38.908454666666664, "rental_uris": {"ios": "https://dc.lft.to/lastmile_qr_scan", "android": "https://dc.lft.to/lastmile_qr_scan"}, "is_reserved": 0, "lon": -77.02695333333334, "fusion_lat": 0.0, "name": "cb5419e71a291d1ea387e1aa80503101"}, {"type": "electric_scooter", "fusion_lon": 0.0, "bike_id": "aa7ec8e64be180dc6f8942dc5a86e48c", "is_disabled": 0, "lat": 38.91710616666667, "rental_uris": {"ios": "https://dc.lft.to/lastmile_qr_scan", "android": "https://dc.lft.to/lastmile_qr_scan"}, "is_reserved": 0, "lon": -77.03865066666667, "fusion_lat": 0.0, "name": "aa7ec8e64be180dc6f8942dc5a86e48c"}, {"type": "electric_scooter", "fusion_lon": 0.0, "bike_id": "02a157f4ad1f47734d09fd5fd65444bd", "is_disabled": 0, "lat": 38.92910116666667, "rental_uris": {"ios": "https://dc.lft.to/lastmile_qr_scan", "android": "https://dc.lft.to/lastmile_qr_scan"}, "is_reserved": 0, "lon": -77.07305316666667, "fusion_lat": 0.0, "name": "02a157f4ad1f47734d09fd5fd65444bd"}, {"type": "electric_scooter", "fusion_lon": 0.0, "bike_id": "e47319cf314b21bc66ec1fd1d3306a85", "is_disabled": 0, "lat": 38.9309685, "rental_uris": {"ios": "https://dc.lft.to/lastmile_qr_scan", "android": "https://dc.lft.to/lastmile_qr_scan"}, "is_reserved": 0, "lon": -77.03483433333334, "fusion_lat": 0.0, "name": "e47319cf314b21bc66ec1fd1d3306a85"}, {"type": "electric_scooter", "fusion_lon": 0.0, "bike_id": "0acd15c6ccee00ffed8f6346202e25a7", "is_disabled": 0, "lat": 38.9287635, "rental_uris": {"ios": "https://dc.lft.to/lastmile_qr_scan", "android": "https://dc.lft.to/lastmile_qr_scan"}, "is_reserved": 0, "lon": -77.02665483333334, "fusion_lat": 0.0, "name": "0acd15c6ccee00ffed8f6346202e25a7"}, {"type": "electric_scooter", "fusion_lon": 0.0, "bike_id": "0138389cd6ff5bfb7a060a1fd6a65877", "is_disabled": 0, "lat": 38.91268866666667, "rental_uris": {"ios": "https://dc.lft.to/lastmile_qr_scan", "android": "https://dc.lft.to/lastmile_qr_scan"}, "is_reserved": 0, "lon": -77.04707683333334, "fusion_lat": 0.0, "name": "0138389cd6ff5bfb7a060a1fd6a65877"}, {"type": "electric_scooter", "fusion_lon": 0.0, "bike_id": "9f391b98c67c8ade4182dc4500eeb099", "is_disabled": 0, "lat": 38.94834066666667, "rental_uris": {"ios": "https://dc.lft.to/lastmile_qr_scan", "android": "https://dc.lft.to/lastmile_qr_scan"}, "is_reserved": 0, "lon": -77.025603, "fusion_lat": 0.0, "name": "9f391b98c67c8ade4182dc4500eeb099"}, {"type": "electric_scooter", "fusion_lon": 0.0, "bike_id": "1b6e2d0cfb29e2a67fb3ce37b01fd6db", "is_disabled": 0, "lat": 38.91801383333333, "rental_uris": {"ios": "https://dc.lft.to/lastmile_qr_scan", "android": "https://dc.lft.to/lastmile_qr_scan"}, "is_reserved": 0, "lon": -77.02706016666667, "fusion_lat": 0.0, "name": "1b6e2d0cfb29e2a67fb3ce37b01fd6db"}, {"type": "electric_scooter", "fusion_lon": 0.0, "bike_id": "fedde1a02f04b4c306ee842155e74de2", "is_disabled": 0, "lat": 38.89545866666667, "rental_uris": {"ios": "https://dc.lft.to/lastmile_qr_scan", "android": "https://dc.lft.to/lastmile_qr_scan"}, "is_reserved": 0, "lon": -76.98189283333333, "fusion_lat": 0.0, "name": "fedde1a02f04b4c306ee842155e74de2"}, {"type": "electric_scooter", "fusion_lon": 0.0, "bike_id": "bbadbda02faf302e7b794a2668e46aed", "is_disabled": 0, "lat": 38.883435666666664, "rental_uris": {"ios": "https://dc.lft.to/lastmile_qr_scan", "android": "https://dc.lft.to/lastmile_qr_scan"}, "is_reserved": 0, "lon": -77.01742966666667, "fusion_lat": 0.0, "name": "bbadbda02faf302e7b794a2668e46aed"}, {"type": "electric_scooter", "fusion_lon": 0.0, "bike_id": "94e4a34cb9a0a8713fc6029b6ebdabec", "is_disabled": 0, "lat": 38.914167166666665, "rental_uris": {"ios": "https://dc.lft.to/lastmile_qr_scan", "android": "https://dc.lft.to/lastmile_qr_scan"}, "is_reserved": 0, "lon": -77.03553933333333, "fusion_lat": 0.0, "name": "94e4a34cb9a0a8713fc6029b6ebdabec"}, {"type": "electric_scooter", "fusion_lon": 0.0, "bike_id": "97aaa504ecb39fc970d8def9a47e3a95", "is_disabled": 0, "lat": 38.929327666666666, "rental_uris": {"ios": "https://dc.lft.to/lastmile_qr_scan", "android": "https://dc.lft.to/lastmile_qr_scan"}, "is_reserved": 0, "lon": -77.00570783333333, "fusion_lat": 0.0, "name": "97aaa504ecb39fc970d8def9a47e3a95"}, {"type": "electric_scooter", "fusion_lon": 0.0, "bike_id": "33a96356b4636b9c6e4bd0d5e6c1a7c7", "is_disabled": 0, "lat": 38.90473216666667, "rental_uris": {"ios": "https://dc.lft.to/lastmile_qr_scan", "android": "https://dc.lft.to/lastmile_qr_scan"}, "is_reserved": 0, "lon": -77.053299, "fusion_lat": 0.0, "name": "33a96356b4636b9c6e4bd0d5e6c1a7c7"}, {"type": "electric_scooter", "fusion_lon": 0.0, "bike_id": "e5943df9a7f50de71a87fa53c6550e35", "is_disabled": 0, "lat": 38.90566166666667, "rental_uris": {"ios": "https://dc.lft.to/lastmile_qr_scan", "android": "https://dc.lft.to/lastmile_qr_scan"}, "is_reserved": 0, "lon": -77.01762916666667, "fusion_lat": 0.0, "name": "e5943df9a7f50de71a87fa53c6550e35"}, {"type": "electric_scooter", "fusion_lon": 0.0, "bike_id": "2b941810acf8340dbdbf586984d86d4a", "is_disabled": 0, "lat": 38.91880316666666, "rental_uris": {"ios": "https://dc.lft.to/lastmile_qr_scan", "android": "https://dc.lft.to/lastmile_qr_scan"}, "is_reserved": 0, "lon": -77.03500966666667, "fusion_lat": 0.0, "name": "2b941810acf8340dbdbf586984d86d4a"}, {"type": "electric_scooter", "fusion_lon": 0.0, "bike_id": "92b2260223533ffd571fc029bf0b7b43", "is_disabled": 0, "lat": 38.92271616666667, "rental_uris": {"ios": "https://dc.lft.to/lastmile_qr_scan", "android": "https://dc.lft.to/lastmile_qr_scan"}, "is_reserved": 0, "lon": -76.994467, "fusion_lat": 0.0, "name": "92b2260223533ffd571fc029bf0b7b43"}, {"type": "electric_scooter", "fusion_lon": 0.0, "bike_id": "ab070076287319968e8dd74fce4e1718", "is_disabled": 0, "lat": 38.91809033333333, "rental_uris": {"ios": "https://dc.lft.to/lastmile_qr_scan", "android": "https://dc.lft.to/lastmile_qr_scan"}, "is_reserved": 0, "lon": -77.03994183333333, "fusion_lat": 0.0, "name": "ab070076287319968e8dd74fce4e1718"}, {"type": "electric_scooter", "fusion_lon": 0.0, "bike_id": "7fc9e83f997edfc2f0bf886983614341", "is_disabled": 0, "lat": 38.91666466666667, "rental_uris": {"ios": "https://dc.lft.to/lastmile_qr_scan", "android": "https://dc.lft.to/lastmile_qr_scan"}, "is_reserved": 0, "lon": -77.02413433333334, "fusion_lat": 0.0, "name": "7fc9e83f997edfc2f0bf886983614341"}, {"type": "electric_scooter", "fusion_lon": 0.0, "bike_id": "5f90d10d959d16cf69c5334061a277af", "is_disabled": 0, "lat": 38.902370833333336, "rental_uris": {"ios": "https://dc.lft.to/lastmile_qr_scan", "android": "https://dc.lft.to/lastmile_qr_scan"}, "is_reserved": 0, "lon": -77.03587683333333, "fusion_lat": 0.0, "name": "5f90d10d959d16cf69c5334061a277af"}, {"type": "electric_scooter", "fusion_lon": 0.0, "bike_id": "b4fb0e96e4da8abd78f5cd07674a20c1", "is_disabled": 0, "lat": 38.924675, "rental_uris": {"ios": "https://dc.lft.to/lastmile_qr_scan", "android": "https://dc.lft.to/lastmile_qr_scan"}, "is_reserved": 0, "lon": -77.04034333333334, "fusion_lat": 0.0, "name": "b4fb0e96e4da8abd78f5cd07674a20c1"}, {"type": "electric_scooter", "fusion_lon": 0.0, "bike_id": "4a01543859f78fc9a7fb4acb9262be53", "is_disabled": 0, "lat": 38.91643083333334, "rental_uris": {"ios": "https://dc.lft.to/lastmile_qr_scan", "android": "https://dc.lft.to/lastmile_qr_scan"}, "is_reserved": 0, "lon": -77.02394533333333, "fusion_lat": 0.0, "name": "4a01543859f78fc9a7fb4acb9262be53"}, {"type": "electric_scooter", "fusion_lon": 0.0, "bike_id": "9daadb13c92abf07bce823610ed8e941", "is_disabled": 0, "lat": 38.916651, "rental_uris": {"ios": "https://dc.lft.to/lastmile_qr_scan", "android": "https://dc.lft.to/lastmile_qr_scan"}, "is_reserved": 0, "lon": -77.0385035, "fusion_lat": 0.0, "name": "9daadb13c92abf07bce823610ed8e941"}, {"type": "electric_scooter", "fusion_lon": 0.0, "bike_id": "105299160f3908b6c96b883d339beb60", "is_disabled": 0, "lat": 38.920077166666665, "rental_uris": {"ios": "https://dc.lft.to/lastmile_qr_scan", "android": "https://dc.lft.to/lastmile_qr_scan"}, "is_reserved": 0, "lon": -77.0247345, "fusion_lat": 0.0, "name": "105299160f3908b6c96b883d339beb60"}, {"type": "electric_scooter", "fusion_lon": 0.0, "bike_id": "e7d166b7bb51b54f38d470f1cd969cb5", "is_disabled": 0, "lat": 38.90485266666666, "rental_uris": {"ios": "https://dc.lft.to/lastmile_qr_scan", "android": "https://dc.lft.to/lastmile_qr_scan"}, "is_reserved": 0, "lon": -77.02112983333333, "fusion_lat": 0.0, "name": "e7d166b7bb51b54f38d470f1cd969cb5"}, {"type": "electric_scooter", "fusion_lon": 0.0, "bike_id": "0beba806d2003dfb1f00e8860d3162fd", "is_disabled": 0, "lat": 38.89221416666667, "rental_uris": {"ios": "https://dc.lft.to/lastmile_qr_scan", "android": "https://dc.lft.to/lastmile_qr_scan"}, "is_reserved": 0, "lon": -77.02219866666667, "fusion_lat": 0.0, "name": "0beba806d2003dfb1f00e8860d3162fd"}, {"type": "electric_scooter", "fusion_lon": 0.0, "bike_id": "1329f0e4a292f3db44b84ed049227330", "is_disabled": 0, "lat": 38.90531933333333, "rental_uris": {"ios": "https://dc.lft.to/lastmile_qr_scan", "android": "https://dc.lft.to/lastmile_qr_scan"}, "is_reserved": 0, "lon": -77.06331933333334, "fusion_lat": 0.0, "name": "1329f0e4a292f3db44b84ed049227330"}, {"type": "electric_scooter", "fusion_lon": 0.0, "bike_id": "271bc16ba6f7981832b6c50c12edb885", "is_disabled": 0, "lat": 38.906841166666666, "rental_uris": {"ios": "https://dc.lft.to/lastmile_qr_scan", "android": "https://dc.lft.to/lastmile_qr_scan"}, "is_reserved": 0, "lon": -77.03447483333333, "fusion_lat": 0.0, "name": "271bc16ba6f7981832b6c50c12edb885"}, {"type": "electric_scooter", "fusion_lon": 0.0, "bike_id": "49a63936e41615f18345c6a6b930db1a", "is_disabled": 0, "lat": 38.9004015, "rental_uris": {"ios": "https://dc.lft.to/lastmile_qr_scan", "android": "https://dc.lft.to/lastmile_qr_scan"}, "is_reserved": 0, "lon": -76.99149283333334, "fusion_lat": 0.0, "name": "49a63936e41615f18345c6a6b930db1a"}, {"type": "electric_scooter", "fusion_lon": 0.0, "bike_id": "3f0d32cfd3f869ac3ecbacd9fa4dc525", "is_disabled": 0, "lat": 38.879209833333334, "rental_uris": {"ios": "https://dc.lft.to/lastmile_qr_scan", "android": "https://dc.lft.to/lastmile_qr_scan"}, "is_reserved": 0, "lon": -76.94323633333333, "fusion_lat": 0.0, "name": "3f0d32cfd3f869ac3ecbacd9fa4dc525"}, {"type": "electric_scooter", "fusion_lon": 0.0, "bike_id": "c5508f09c59b391024462b850c536a5b", "is_disabled": 0, "lat": 38.90634716666667, "rental_uris": {"ios": "https://dc.lft.to/lastmile_qr_scan", "android": "https://dc.lft.to/lastmile_qr_scan"}, "is_reserved": 0, "lon": -77.006031, "fusion_lat": 0.0, "name": "c5508f09c59b391024462b850c536a5b"}, {"type": "electric_scooter", "fusion_lon": 0.0, "bike_id": "21a8f3bd42938959f93344960d6b0187", "is_disabled": 0, "lat": 38.900384833333334, "rental_uris": {"ios": "https://dc.lft.to/lastmile_qr_scan", "android": "https://dc.lft.to/lastmile_qr_scan"}, "is_reserved": 0, "lon": -76.98556733333334, "fusion_lat": 0.0, "name": "21a8f3bd42938959f93344960d6b0187"}, {"type": "electric_scooter", "fusion_lon": 0.0, "bike_id": "83a452cb15cb7326ceb065c22caed0eb", "is_disabled": 0, "lat": 38.926286, "rental_uris": {"ios": "https://dc.lft.to/lastmile_qr_scan", "android": "https://dc.lft.to/lastmile_qr_scan"}, "is_reserved": 0, "lon": -77.02274816666667, "fusion_lat": 0.0, "name": "83a452cb15cb7326ceb065c22caed0eb"}, {"type": "electric_scooter", "fusion_lon": 0.0, "bike_id": "8a43a5eac286e7353f727dca681484d1", "is_disabled": 0, "lat": 38.92461516666667, "rental_uris": {"ios": "https://dc.lft.to/lastmile_qr_scan", "android": "https://dc.lft.to/lastmile_qr_scan"}, "is_reserved": 0, "lon": -77.04035916666666, "fusion_lat": 0.0, "name": "8a43a5eac286e7353f727dca681484d1"}, {"type": "electric_scooter", "fusion_lon": 0.0, "bike_id": "276c1983c01331e2b3923e04d4b4c291", "is_disabled": 0, "lat": 38.916453833333335, "rental_uris": {"ios": "https://dc.lft.to/lastmile_qr_scan", "android": "https://dc.lft.to/lastmile_qr_scan"}, "is_reserved": 0, "lon": -77.0225825, "fusion_lat": 0.0, "name": "276c1983c01331e2b3923e04d4b4c291"}, {"type": "electric_scooter", "fusion_lon": 0.0, "bike_id": "da0a92a16eee58915fe7735db83f12bb", "is_disabled": 0, "lat": 38.92476816666667, "rental_uris": {"ios": "https://dc.lft.to/lastmile_qr_scan", "android": "https://dc.lft.to/lastmile_qr_scan"}, "is_reserved": 0, "lon": -77.02546833333334, "fusion_lat": 0.0, "name": "da0a92a16eee58915fe7735db83f12bb"}, {"type": "electric_scooter", "fusion_lon": 0.0, "bike_id": "fab683571d4836235997798caa8a28ed", "is_disabled": 0, "lat": 38.92327616666667, "rental_uris": {"ios": "https://dc.lft.to/lastmile_qr_scan", "android": "https://dc.lft.to/lastmile_qr_scan"}, "is_reserved": 0, "lon": -77.0304575, "fusion_lat": 0.0, "name": "fab683571d4836235997798caa8a28ed"}, {"type": "electric_scooter", "fusion_lon": 0.0, "bike_id": "ee4ecd13203e2f032636cc12f2172f73", "is_disabled": 0, "lat": 38.937157166666665, "rental_uris": {"ios": "https://dc.lft.to/lastmile_qr_scan", "android": "https://dc.lft.to/lastmile_qr_scan"}, "is_reserved": 0, "lon": -77.0245375, "fusion_lat": 0.0, "name": "ee4ecd13203e2f032636cc12f2172f73"}, {"type": "electric_scooter", "fusion_lon": 0.0, "bike_id": "89f68d630ec39b6ab8ea7ca5dd091b12", "is_disabled": 0, "lat": 38.891990166666666, "rental_uris": {"ios": "https://dc.lft.to/lastmile_qr_scan", "android": "https://dc.lft.to/lastmile_qr_scan"}, "is_reserved": 0, "lon": -76.95701533333333, "fusion_lat": 0.0, "name": "89f68d630ec39b6ab8ea7ca5dd091b12"}, {"type": "electric_scooter", "fusion_lon": 0.0, "bike_id": "491fafbe84fa0e02609f058ea65e1dec", "is_disabled": 0, "lat": 38.913640666666666, "rental_uris": {"ios": "https://dc.lft.to/lastmile_qr_scan", "android": "https://dc.lft.to/lastmile_qr_scan"}, "is_reserved": 0, "lon": -77.02053783333334, "fusion_lat": 0.0, "name": "491fafbe84fa0e02609f058ea65e1dec"}, {"type": "electric_scooter", "fusion_lon": 0.0, "bike_id": "45499314eb31450d5e5edd6b40f3af99", "is_disabled": 0, "lat": 38.900326666666665, "rental_uris": {"ios": "https://dc.lft.to/lastmile_qr_scan", "android": "https://dc.lft.to/lastmile_qr_scan"}, "is_reserved": 0, "lon": -76.99769816666667, "fusion_lat": 0.0, "name": "45499314eb31450d5e5edd6b40f3af99"}, {"type": "electric_scooter", "fusion_lon": 0.0, "bike_id": "849dacadc474973a85d286b7ef8809b5", "is_disabled": 0, "lat": 38.895331666666664, "rental_uris": {"ios": "https://dc.lft.to/lastmile_qr_scan", "android": "https://dc.lft.to/lastmile_qr_scan"}, "is_reserved": 0, "lon": -77.0160645, "fusion_lat": 0.0, "name": "849dacadc474973a85d286b7ef8809b5"}, {"type": "electric_scooter", "fusion_lon": 0.0, "bike_id": "61e7e29e11db052ae86072b7245d3b68", "is_disabled": 0, "lat": 38.9264905, "rental_uris": {"ios": "https://dc.lft.to/lastmile_qr_scan", "android": "https://dc.lft.to/lastmile_qr_scan"}, "is_reserved": 0, "lon": -77.0330445, "fusion_lat": 0.0, "name": "61e7e29e11db052ae86072b7245d3b68"}, {"type": "electric_scooter", "fusion_lon": 0.0, "bike_id": "36be76ae662dab07e79749f61bb3a9b9", "is_disabled": 0, "lat": 38.9164985, "rental_uris": {"ios": "https://dc.lft.to/lastmile_qr_scan", "android": "https://dc.lft.to/lastmile_qr_scan"}, "is_reserved": 0, "lon": -77.03674666666667, "fusion_lat": 0.0, "name": "36be76ae662dab07e79749f61bb3a9b9"}, {"type": "electric_scooter", "fusion_lon": 0.0, "bike_id": "335b95441e0806c2b0a27b79307c8575", "is_disabled": 0, "lat": 38.89229133333333, "rental_uris": {"ios": "https://dc.lft.to/lastmile_qr_scan", "android": "https://dc.lft.to/lastmile_qr_scan"}, "is_reserved": 0, "lon": -77.0241805, "fusion_lat": 0.0, "name": "335b95441e0806c2b0a27b79307c8575"}, {"type": "electric_scooter", "fusion_lon": 0.0, "bike_id": "7d94b3eba0deb493dba34eda77a316ba", "is_disabled": 0, "lat": 38.87463183333333, "rental_uris": {"ios": "https://dc.lft.to/lastmile_qr_scan", "android": "https://dc.lft.to/lastmile_qr_scan"}, "is_reserved": 0, "lon": -77.00415416666667, "fusion_lat": 0.0, "name": "7d94b3eba0deb493dba34eda77a316ba"}, {"type": "electric_scooter", "fusion_lon": 0.0, "bike_id": "1089c24479b166024635b38f233a17a5", "is_disabled": 0, "lat": 38.919889, "rental_uris": {"ios": "https://dc.lft.to/lastmile_qr_scan", "android": "https://dc.lft.to/lastmile_qr_scan"}, "is_reserved": 0, "lon": -77.02399166666666, "fusion_lat": 0.0, "name": "1089c24479b166024635b38f233a17a5"}, {"type": "electric_scooter", "fusion_lon": 0.0, "bike_id": "ba90c42c2dd6a426444dd59cb0fc69bf", "is_disabled": 0, "lat": 38.91038666666667, "rental_uris": {"ios": "https://dc.lft.to/lastmile_qr_scan", "android": "https://dc.lft.to/lastmile_qr_scan"}, "is_reserved": 0, "lon": -76.98569166666667, "fusion_lat": 0.0, "name": "ba90c42c2dd6a426444dd59cb0fc69bf"}, {"type": "electric_scooter", "fusion_lon": 0.0, "bike_id": "4f165ac9da726a407b9e9684b47c148c", "is_disabled": 0, "lat": 38.9182015, "rental_uris": {"ios": "https://dc.lft.to/lastmile_qr_scan", "android": "https://dc.lft.to/lastmile_qr_scan"}, "is_reserved": 0, "lon": -77.03343566666666, "fusion_lat": 0.0, "name": "4f165ac9da726a407b9e9684b47c148c"}, {"type": "electric_scooter", "fusion_lon": 0.0, "bike_id": "842796a24e88c6bc2191a8dc6d166d4b", "is_disabled": 0, "lat": 38.9492125, "rental_uris": {"ios": "https://dc.lft.to/lastmile_qr_scan", "android": "https://dc.lft.to/lastmile_qr_scan"}, "is_reserved": 0, "lon": -77.02313616666666, "fusion_lat": 0.0, "name": "842796a24e88c6bc2191a8dc6d166d4b"}, {"type": "electric_scooter", "fusion_lon": 0.0, "bike_id": "c658a31fb71637ae88e5c62dba610f11", "is_disabled": 0, "lat": 38.89800833333334, "rental_uris": {"ios": "https://dc.lft.to/lastmile_qr_scan", "android": "https://dc.lft.to/lastmile_qr_scan"}, "is_reserved": 0, "lon": -77.04192666666667, "fusion_lat": 0.0, "name": "c658a31fb71637ae88e5c62dba610f11"}, {"type": "electric_scooter", "fusion_lon": 0.0, "bike_id": "0181f8b0d79b42127fc1917f9cb2abf2", "is_disabled": 0, "lat": 38.926431666666666, "rental_uris": {"ios": "https://dc.lft.to/lastmile_qr_scan", "android": "https://dc.lft.to/lastmile_qr_scan"}, "is_reserved": 0, "lon": -77.03463983333333, "fusion_lat": 0.0, "name": "0181f8b0d79b42127fc1917f9cb2abf2"}, {"type": "electric_scooter", "fusion_lon": 0.0, "bike_id": "e3c0a2d783eac6dd63aef466490cdf91", "is_disabled": 0, "lat": 38.907025, "rental_uris": {"ios": "https://dc.lft.to/lastmile_qr_scan", "android": "https://dc.lft.to/lastmile_qr_scan"}, "is_reserved": 0, "lon": -77.0356135, "fusion_lat": 0.0, "name": "e3c0a2d783eac6dd63aef466490cdf91"}, {"type": "electric_scooter", "fusion_lon": 0.0, "bike_id": "1855438456fa528b3de185a0ad435ef9", "is_disabled": 0, "lat": 38.907775666666666, "rental_uris": {"ios": "https://dc.lft.to/lastmile_qr_scan", "android": "https://dc.lft.to/lastmile_qr_scan"}, "is_reserved": 0, "lon": -77.03534016666667, "fusion_lat": 0.0, "name": "1855438456fa528b3de185a0ad435ef9"}, {"type": "electric_scooter", "fusion_lon": 0.0, "bike_id": "17b7f3437783ca1d3fb80d3811db1be8", "is_disabled": 0, "lat": 38.922655, "rental_uris": {"ios": "https://dc.lft.to/lastmile_qr_scan", "android": "https://dc.lft.to/lastmile_qr_scan"}, "is_reserved": 0, "lon": -77.02959533333333, "fusion_lat": 0.0, "name": "17b7f3437783ca1d3fb80d3811db1be8"}, {"type": "electric_scooter", "fusion_lon": 0.0, "bike_id": "e01c71d4626de725fe1642c8d2859036", "is_disabled": 0, "lat": 38.9482735, "rental_uris": {"ios": "https://dc.lft.to/lastmile_qr_scan", "android": "https://dc.lft.to/lastmile_qr_scan"}, "is_reserved": 0, "lon": -77.02467966666667, "fusion_lat": 0.0, "name": "e01c71d4626de725fe1642c8d2859036"}, {"type": "electric_scooter", "fusion_lon": 0.0, "bike_id": "b08b258fb98ffb6f77c3059c5faccbfd", "is_disabled": 0, "lat": 38.91554566666667, "rental_uris": {"ios": "https://dc.lft.to/lastmile_qr_scan", "android": "https://dc.lft.to/lastmile_qr_scan"}, "is_reserved": 0, "lon": -77.044728, "fusion_lat": 0.0, "name": "b08b258fb98ffb6f77c3059c5faccbfd"}, {"type": "electric_scooter", "fusion_lon": 0.0, "bike_id": "ec93a3f464ff528204f4d3fda9a94a0b", "is_disabled": 0, "lat": 38.90154166666667, "rental_uris": {"ios": "https://dc.lft.to/lastmile_qr_scan", "android": "https://dc.lft.to/lastmile_qr_scan"}, "is_reserved": 0, "lon": -77.04081233333334, "fusion_lat": 0.0, "name": "ec93a3f464ff528204f4d3fda9a94a0b"}, {"type": "electric_scooter", "fusion_lon": 0.0, "bike_id": "60a9fe75f098a43bf3a04e9b9079a83e", "is_disabled": 0, "lat": 38.9051735, "rental_uris": {"ios": "https://dc.lft.to/lastmile_qr_scan", "android": "https://dc.lft.to/lastmile_qr_scan"}, "is_reserved": 0, "lon": -77.064639, "fusion_lat": 0.0, "name": "60a9fe75f098a43bf3a04e9b9079a83e"}, {"type": "electric_scooter", "fusion_lon": 0.0, "bike_id": "ca404f01749d3e3a3197cd3cba1cdcef", "is_disabled": 0, "lat": 38.923501, "rental_uris": {"ios": "https://dc.lft.to/lastmile_qr_scan", "android": "https://dc.lft.to/lastmile_qr_scan"}, "is_reserved": 0, "lon": -77.03647083333334, "fusion_lat": 0.0, "name": "ca404f01749d3e3a3197cd3cba1cdcef"}, {"type": "electric_scooter", "fusion_lon": 0.0, "bike_id": "63e41cd6ff3934cba5f9c8196fbc2156", "is_disabled": 0, "lat": 38.914024166666664, "rental_uris": {"ios": "https://dc.lft.to/lastmile_qr_scan", "android": "https://dc.lft.to/lastmile_qr_scan"}, "is_reserved": 0, "lon": -77.0641945, "fusion_lat": 0.0, "name": "63e41cd6ff3934cba5f9c8196fbc2156"}, {"type": "electric_scooter", "fusion_lon": 0.0, "bike_id": "0841e5e735d00b21c469733245633aee", "is_disabled": 0, "lat": 38.93087333333333, "rental_uris": {"ios": "https://dc.lft.to/lastmile_qr_scan", "android": "https://dc.lft.to/lastmile_qr_scan"}, "is_reserved": 0, "lon": -77.02471433333334, "fusion_lat": 0.0, "name": "0841e5e735d00b21c469733245633aee"}, {"type": "electric_scooter", "fusion_lon": 0.0, "bike_id": "ed3a9eb5cb8e701ae257c28e59b1ced3", "is_disabled": 0, "lat": 38.916696, "rental_uris": {"ios": "https://dc.lft.to/lastmile_qr_scan", "android": "https://dc.lft.to/lastmile_qr_scan"}, "is_reserved": 0, "lon": -77.043914, "fusion_lat": 0.0, "name": "ed3a9eb5cb8e701ae257c28e59b1ced3"}, {"type": "electric_scooter", "fusion_lon": 0.0, "bike_id": "ecef46ef0cdeb6a79251ae2f454e1d48", "is_disabled": 0, "lat": 38.941930166666666, "rental_uris": {"ios": "https://dc.lft.to/lastmile_qr_scan", "android": "https://dc.lft.to/lastmile_qr_scan"}, "is_reserved": 0, "lon": -77.03328083333334, "fusion_lat": 0.0, "name": "ecef46ef0cdeb6a79251ae2f454e1d48"}, {"type": "electric_scooter", "fusion_lon": 0.0, "bike_id": "9f705edea7d95d0f8fe87f755e2c46f7", "is_disabled": 0, "lat": 38.915684166666665, "rental_uris": {"ios": "https://dc.lft.to/lastmile_qr_scan", "android": "https://dc.lft.to/lastmile_qr_scan"}, "is_reserved": 0, "lon": -77.03733383333334, "fusion_lat": 0.0, "name": "9f705edea7d95d0f8fe87f755e2c46f7"}, {"type": "electric_scooter", "fusion_lon": 0.0, "bike_id": "e26f68b3168600fa4140f6f7760c3cb4", "is_disabled": 0, "lat": 38.895290833333334, "rental_uris": {"ios": "https://dc.lft.to/lastmile_qr_scan", "android": "https://dc.lft.to/lastmile_qr_scan"}, "is_reserved": 0, "lon": -77.0393465, "fusion_lat": 0.0, "name": "e26f68b3168600fa4140f6f7760c3cb4"}, {"type": "electric_scooter", "fusion_lon": 0.0, "bike_id": "218e4ab888c4cc820efcf7220a5dddd1", "is_disabled": 0, "lat": 38.918416666666666, "rental_uris": {"ios": "https://dc.lft.to/lastmile_qr_scan", "android": "https://dc.lft.to/lastmile_qr_scan"}, "is_reserved": 0, "lon": -77.04531283333333, "fusion_lat": 0.0, "name": "218e4ab888c4cc820efcf7220a5dddd1"}, {"type": "electric_scooter", "fusion_lon": 0.0, "bike_id": "82bcf3f58f09eb78545ca5d3c2dfe7ef", "is_disabled": 0, "lat": 38.9002865, "rental_uris": {"ios": "https://dc.lft.to/lastmile_qr_scan", "android": "https://dc.lft.to/lastmile_qr_scan"}, "is_reserved": 0, "lon": -77.03704333333333, "fusion_lat": 0.0, "name": "82bcf3f58f09eb78545ca5d3c2dfe7ef"}, {"type": "electric_scooter", "fusion_lon": 0.0, "bike_id": "d7ee34b20d8ffe53331a18a8a7c87fe2", "is_disabled": 0, "lat": 38.9097135, "rental_uris": {"ios": "https://dc.lft.to/lastmile_qr_scan", "android": "https://dc.lft.to/lastmile_qr_scan"}, "is_reserved": 0, "lon": -77.0170985, "fusion_lat": 0.0, "name": "d7ee34b20d8ffe53331a18a8a7c87fe2"}, {"type": "electric_scooter", "fusion_lon": 0.0, "bike_id": "e00ab63c47fc00685d7adf2a3ace5ebe", "is_disabled": 0, "lat": 38.927561, "rental_uris": {"ios": "https://dc.lft.to/lastmile_qr_scan", "android": "https://dc.lft.to/lastmile_qr_scan"}, "is_reserved": 0, "lon": -77.032695, "fusion_lat": 0.0, "name": "e00ab63c47fc00685d7adf2a3ace5ebe"}, {"type": "electric_scooter", "fusion_lon": 0.0, "bike_id": "b894e2720c4f34d6dc4187ad021fd0de", "is_disabled": 0, "lat": 38.893431166666666, "rental_uris": {"ios": "https://dc.lft.to/lastmile_qr_scan", "android": "https://dc.lft.to/lastmile_qr_scan"}, "is_reserved": 0, "lon": -76.991596, "fusion_lat": 0.0, "name": "b894e2720c4f34d6dc4187ad021fd0de"}, {"type": "electric_scooter", "fusion_lon": 0.0, "bike_id": "a327d12490ce780713d3df7adccca1ee", "is_disabled": 0, "lat": 38.93655716666667, "rental_uris": {"ios": "https://dc.lft.to/lastmile_qr_scan", "android": "https://dc.lft.to/lastmile_qr_scan"}, "is_reserved": 0, "lon": -77.03659516666667, "fusion_lat": 0.0, "name": "a327d12490ce780713d3df7adccca1ee"}, {"type": "electric_scooter", "fusion_lon": 0.0, "bike_id": "772c0efa3c49c36dad89e151d2a28b89", "is_disabled": 0, "lat": 38.93743816666667, "rental_uris": {"ios": "https://dc.lft.to/lastmile_qr_scan", "android": "https://dc.lft.to/lastmile_qr_scan"}, "is_reserved": 0, "lon": -77.068723, "fusion_lat": 0.0, "name": "772c0efa3c49c36dad89e151d2a28b89"}, {"type": "electric_scooter", "fusion_lon": 0.0, "bike_id": "c78307a9bd69edb1743180d41672d885", "is_disabled": 0, "lat": 38.91603583333333, "rental_uris": {"ios": "https://dc.lft.to/lastmile_qr_scan", "android": "https://dc.lft.to/lastmile_qr_scan"}, "is_reserved": 0, "lon": -77.043565, "fusion_lat": 0.0, "name": "c78307a9bd69edb1743180d41672d885"}, {"type": "electric_scooter", "fusion_lon": 0.0, "bike_id": "e129ad622efd71a4fd812b76272cc9c9", "is_disabled": 0, "lat": 38.860146666666665, "rental_uris": {"ios": "https://dc.lft.to/lastmile_qr_scan", "android": "https://dc.lft.to/lastmile_qr_scan"}, "is_reserved": 0, "lon": -76.9670705, "fusion_lat": 0.0, "name": "e129ad622efd71a4fd812b76272cc9c9"}, {"type": "electric_scooter", "fusion_lon": 0.0, "bike_id": "638a67ef9488d3e62623e82bc4a8db55", "is_disabled": 0, "lat": 38.912594666666664, "rental_uris": {"ios": "https://dc.lft.to/lastmile_qr_scan", "android": "https://dc.lft.to/lastmile_qr_scan"}, "is_reserved": 0, "lon": -77.03830166666667, "fusion_lat": 0.0, "name": "638a67ef9488d3e62623e82bc4a8db55"}, {"type": "electric_scooter", "fusion_lon": 0.0, "bike_id": "842f51d019dfc442163295341a091f3b", "is_disabled": 0, "lat": 38.89224816666667, "rental_uris": {"ios": "https://dc.lft.to/lastmile_qr_scan", "android": "https://dc.lft.to/lastmile_qr_scan"}, "is_reserved": 0, "lon": -77.048666, "fusion_lat": 0.0, "name": "842f51d019dfc442163295341a091f3b"}, {"type": "electric_scooter", "fusion_lon": 0.0, "bike_id": "ea9cbacc2b88a637b35c1318ab161c57", "is_disabled": 0, "lat": 38.896094833333336, "rental_uris": {"ios": "https://dc.lft.to/lastmile_qr_scan", "android": "https://dc.lft.to/lastmile_qr_scan"}, "is_reserved": 0, "lon": -76.98097766666666, "fusion_lat": 0.0, "name": "ea9cbacc2b88a637b35c1318ab161c57"}, {"type": "electric_scooter", "fusion_lon": 0.0, "bike_id": "e624fcff18d2a11f04e357fb0af55f1a", "is_disabled": 0, "lat": 38.9346435, "rental_uris": {"ios": "https://dc.lft.to/lastmile_qr_scan", "android": "https://dc.lft.to/lastmile_qr_scan"}, "is_reserved": 0, "lon": -77.02930916666666, "fusion_lat": 0.0, "name": "e624fcff18d2a11f04e357fb0af55f1a"}, {"type": "electric_scooter", "fusion_lon": 0.0, "bike_id": "01d070c2ca3fd72eaf96b1aa8dca1143", "is_disabled": 0, "lat": 38.9183945, "rental_uris": {"ios": "https://dc.lft.to/lastmile_qr_scan", "android": "https://dc.lft.to/lastmile_qr_scan"}, "is_reserved": 0, "lon": -77.01785016666666, "fusion_lat": 0.0, "name": "01d070c2ca3fd72eaf96b1aa8dca1143"}, {"type": "electric_scooter", "fusion_lon": 0.0, "bike_id": "4b94522905c5d26c68bad5e2cc008d9e", "is_disabled": 0, "lat": 38.905681, "rental_uris": {"ios": "https://dc.lft.to/lastmile_qr_scan", "android": "https://dc.lft.to/lastmile_qr_scan"}, "is_reserved": 0, "lon": -77.00713, "fusion_lat": 0.0, "name": "4b94522905c5d26c68bad5e2cc008d9e"}, {"type": "electric_scooter", "fusion_lon": 0.0, "bike_id": "5e45bea233826417d547acd7b6b539a2", "is_disabled": 0, "lat": 38.922457666666666, "rental_uris": {"ios": "https://dc.lft.to/lastmile_qr_scan", "android": "https://dc.lft.to/lastmile_qr_scan"}, "is_reserved": 0, "lon": -77.03910083333334, "fusion_lat": 0.0, "name": "5e45bea233826417d547acd7b6b539a2"}, {"type": "electric_scooter", "fusion_lon": 0.0, "bike_id": "69736dfaa5ca94a0244bad98f271eff9", "is_disabled": 0, "lat": 38.91924516666667, "rental_uris": {"ios": "https://dc.lft.to/lastmile_qr_scan", "android": "https://dc.lft.to/lastmile_qr_scan"}, "is_reserved": 0, "lon": -77.03267333333334, "fusion_lat": 0.0, "name": "69736dfaa5ca94a0244bad98f271eff9"}, {"type": "electric_bike", "fusion_lon": 0.0, "bike_id": "bb6ca2e27848ab3f55936fadaa37f2a6", "is_disabled": 0, "lat": 38.92287866666667, "rental_uris": {"ios": "https://dc.lft.to/lastmile_qr_scan", "android": "https://dc.lft.to/lastmile_qr_scan"}, "is_reserved": 0, "lon": -76.99776683333333, "fusion_lat": 0.0, "name": "bb6ca2e27848ab3f55936fadaa37f2a6"}, {"type": "electric_scooter", "fusion_lon": 0.0, "bike_id": "f76c2d6700767552a99625d0a4a8d0fa", "is_disabled": 0, "lat": 38.901932, "rental_uris": {"ios": "https://dc.lft.to/lastmile_qr_scan", "android": "https://dc.lft.to/lastmile_qr_scan"}, "is_reserved": 0, "lon": -76.92632833333333, "fusion_lat": 0.0, "name": "f76c2d6700767552a99625d0a4a8d0fa"}, {"type": "electric_scooter", "fusion_lon": 0.0, "bike_id": "a978478f8a0a26f1e403eb0175780514", "is_disabled": 0, "lat": 38.91626183333333, "rental_uris": {"ios": "https://dc.lft.to/lastmile_qr_scan", "android": "https://dc.lft.to/lastmile_qr_scan"}, "is_reserved": 0, "lon": -77.0426585, "fusion_lat": 0.0, "name": "a978478f8a0a26f1e403eb0175780514"}, {"type": "electric_scooter", "fusion_lon": 0.0, "bike_id": "ec68f7ab21d0a44756d2d412b70c239e", "is_disabled": 0, "lat": 38.939904, "rental_uris": {"ios": "https://dc.lft.to/lastmile_qr_scan", "android": "https://dc.lft.to/lastmile_qr_scan"}, "is_reserved": 0, "lon": -77.02541616666667, "fusion_lat": 0.0, "name": "ec68f7ab21d0a44756d2d412b70c239e"}, {"type": "electric_scooter", "fusion_lon": 0.0, "bike_id": "5e6048f83192de3dbfab7dedf7f03a08", "is_disabled": 0, "lat": 38.8965985, "rental_uris": {"ios": "https://dc.lft.to/lastmile_qr_scan", "android": "https://dc.lft.to/lastmile_qr_scan"}, "is_reserved": 0, "lon": -77.0112825, "fusion_lat": 0.0, "name": "5e6048f83192de3dbfab7dedf7f03a08"}, {"type": "electric_scooter", "fusion_lon": 0.0, "bike_id": "1e76d237d55ef29c5f4c7571ab20a9ca", "is_disabled": 0, "lat": 38.90392583333333, "rental_uris": {"ios": "https://dc.lft.to/lastmile_qr_scan", "android": "https://dc.lft.to/lastmile_qr_scan"}, "is_reserved": 0, "lon": -76.98491466666667, "fusion_lat": 0.0, "name": "1e76d237d55ef29c5f4c7571ab20a9ca"}, {"type": "electric_scooter", "fusion_lon": 0.0, "bike_id": "c946659842ad29081d7fc206a55ea3f2", "is_disabled": 0, "lat": 38.92471916666667, "rental_uris": {"ios": "https://dc.lft.to/lastmile_qr_scan", "android": "https://dc.lft.to/lastmile_qr_scan"}, "is_reserved": 0, "lon": -77.02217866666666, "fusion_lat": 0.0, "name": "c946659842ad29081d7fc206a55ea3f2"}, {"type": "electric_bike", "fusion_lon": 0.0, "bike_id": "0ceaa6b792727950c2ced9936b33228e", "is_disabled": 0, "lat": 38.95755716666667, "rental_uris": {"ios": "https://dc.lft.to/lastmile_qr_scan", "android": "https://dc.lft.to/lastmile_qr_scan"}, "is_reserved": 0, "lon": -76.98021983333334, "fusion_lat": 0.0, "name": "0ceaa6b792727950c2ced9936b33228e"}, {"type": "electric_scooter", "fusion_lon": 0.0, "bike_id": "321d3d52c64dcce2700120f462599b6b", "is_disabled": 0, "lat": 38.915571166666666, "rental_uris": {"ios": "https://dc.lft.to/lastmile_qr_scan", "android": "https://dc.lft.to/lastmile_qr_scan"}, "is_reserved": 0, "lon": -77.03239666666667, "fusion_lat": 0.0, "name": "321d3d52c64dcce2700120f462599b6b"}, {"type": "electric_scooter", "fusion_lon": 0.0, "bike_id": "5c31110fd42ace053dc87786e6025545", "is_disabled": 0, "lat": 38.869362833333334, "rental_uris": {"ios": "https://dc.lft.to/lastmile_qr_scan", "android": "https://dc.lft.to/lastmile_qr_scan"}, "is_reserved": 0, "lon": -77.01377633333334, "fusion_lat": 0.0, "name": "5c31110fd42ace053dc87786e6025545"}, {"type": "electric_scooter", "fusion_lon": 0.0, "bike_id": "b23c2726c6c920c846cba48ad467b871", "is_disabled": 0, "lat": 38.864718333333336, "rental_uris": {"ios": "https://dc.lft.to/lastmile_qr_scan", "android": "https://dc.lft.to/lastmile_qr_scan"}, "is_reserved": 0, "lon": -76.98237016666667, "fusion_lat": 0.0, "name": "b23c2726c6c920c846cba48ad467b871"}, {"type": "electric_bike", "fusion_lon": 0.0, "bike_id": "8c6736067daf36470cbd1c6092655b97", "is_disabled": 0, "lat": 38.941559, "rental_uris": {"ios": "https://dc.lft.to/lastmile_qr_scan", "android": "https://dc.lft.to/lastmile_qr_scan"}, "is_reserved": 0, "lon": -77.0019605, "fusion_lat": 0.0, "name": "8c6736067daf36470cbd1c6092655b97"}, {"type": "electric_scooter", "fusion_lon": 0.0, "bike_id": "ddded7ab7951139edec83218ef26395d", "is_disabled": 0, "lat": 38.9210795, "rental_uris": {"ios": "https://dc.lft.to/lastmile_qr_scan", "android": "https://dc.lft.to/lastmile_qr_scan"}, "is_reserved": 0, "lon": -77.04678183333333, "fusion_lat": 0.0, "name": "ddded7ab7951139edec83218ef26395d"}, {"type": "electric_scooter", "fusion_lon": 0.0, "bike_id": "6a4a3308dcffae64c9c3ac2eaa0a2e32", "is_disabled": 0, "lat": 38.92241833333333, "rental_uris": {"ios": "https://dc.lft.to/lastmile_qr_scan", "android": "https://dc.lft.to/lastmile_qr_scan"}, "is_reserved": 0, "lon": -77.042683, "fusion_lat": 0.0, "name": "6a4a3308dcffae64c9c3ac2eaa0a2e32"}, {"type": "electric_scooter", "fusion_lon": 0.0, "bike_id": "c8714fe5e7235fc100fe5cf54b94ec43", "is_disabled": 0, "lat": 38.924834833333335, "rental_uris": {"ios": "https://dc.lft.to/lastmile_qr_scan", "android": "https://dc.lft.to/lastmile_qr_scan"}, "is_reserved": 0, "lon": -77.02548333333333, "fusion_lat": 0.0, "name": "c8714fe5e7235fc100fe5cf54b94ec43"}, {"type": "electric_scooter", "fusion_lon": 0.0, "bike_id": "d050b169933bc40caf2036950e4abd75", "is_disabled": 0, "lat": 38.920539166666664, "rental_uris": {"ios": "https://dc.lft.to/lastmile_qr_scan", "android": "https://dc.lft.to/lastmile_qr_scan"}, "is_reserved": 0, "lon": -77.03389916666667, "fusion_lat": 0.0, "name": "d050b169933bc40caf2036950e4abd75"}, {"type": "electric_scooter", "fusion_lon": 0.0, "bike_id": "c04ae9e1e8874c964598f3f458b905d8", "is_disabled": 0, "lat": 38.90868233333333, "rental_uris": {"ios": "https://dc.lft.to/lastmile_qr_scan", "android": "https://dc.lft.to/lastmile_qr_scan"}, "is_reserved": 0, "lon": -76.98493466666666, "fusion_lat": 0.0, "name": "c04ae9e1e8874c964598f3f458b905d8"}, {"type": "electric_scooter", "fusion_lon": 0.0, "bike_id": "09aa6eedc6eb2401bfe9a715a5cde2c7", "is_disabled": 0, "lat": 38.9261, "rental_uris": {"ios": "https://dc.lft.to/lastmile_qr_scan", "android": "https://dc.lft.to/lastmile_qr_scan"}, "is_reserved": 0, "lon": -77.0321255, "fusion_lat": 0.0, "name": "09aa6eedc6eb2401bfe9a715a5cde2c7"}, {"type": "electric_scooter", "fusion_lon": 0.0, "bike_id": "683dc8e59656a80505352424d90d487f", "is_disabled": 0, "lat": 38.92472033333333, "rental_uris": {"ios": "https://dc.lft.to/lastmile_qr_scan", "android": "https://dc.lft.to/lastmile_qr_scan"}, "is_reserved": 0, "lon": -77.029086, "fusion_lat": 0.0, "name": "683dc8e59656a80505352424d90d487f"}, {"type": "electric_scooter", "fusion_lon": 0.0, "bike_id": "73c035cafb5160aa01210e4d2d46b90d", "is_disabled": 0, "lat": 38.91613783333333, "rental_uris": {"ios": "https://dc.lft.to/lastmile_qr_scan", "android": "https://dc.lft.to/lastmile_qr_scan"}, "is_reserved": 0, "lon": -77.0320235, "fusion_lat": 0.0, "name": "73c035cafb5160aa01210e4d2d46b90d"}, {"type": "electric_scooter", "fusion_lon": 0.0, "bike_id": "d5dc30781fdf593bc32c691a074a14ee", "is_disabled": 0, "lat": 38.923755, "rental_uris": {"ios": "https://dc.lft.to/lastmile_qr_scan", "android": "https://dc.lft.to/lastmile_qr_scan"}, "is_reserved": 0, "lon": -77.01990733333334, "fusion_lat": 0.0, "name": "d5dc30781fdf593bc32c691a074a14ee"}, {"type": "electric_scooter", "fusion_lon": 0.0, "bike_id": "cb736304456bfeddbf9a810f2e4445cf", "is_disabled": 0, "lat": 38.8620095, "rental_uris": {"ios": "https://dc.lft.to/lastmile_qr_scan", "android": "https://dc.lft.to/lastmile_qr_scan"}, "is_reserved": 0, "lon": -76.99508666666667, "fusion_lat": 0.0, "name": "cb736304456bfeddbf9a810f2e4445cf"}, {"type": "electric_scooter", "fusion_lon": 0.0, "bike_id": "6531f2e8fccda1b47c3c8a079afe0177", "is_disabled": 0, "lat": 38.924602166666666, "rental_uris": {"ios": "https://dc.lft.to/lastmile_qr_scan", "android": "https://dc.lft.to/lastmile_qr_scan"}, "is_reserved": 0, "lon": -77.057535, "fusion_lat": 0.0, "name": "6531f2e8fccda1b47c3c8a079afe0177"}, {"type": "electric_scooter", "fusion_lon": 0.0, "bike_id": "7738cb3145adfd79b5e1d00792d0ffa0", "is_disabled": 0, "lat": 38.92065633333333, "rental_uris": {"ios": "https://dc.lft.to/lastmile_qr_scan", "android": "https://dc.lft.to/lastmile_qr_scan"}, "is_reserved": 0, "lon": -77.0249255, "fusion_lat": 0.0, "name": "7738cb3145adfd79b5e1d00792d0ffa0"}, {"type": "electric_bike", "fusion_lon": 0.0, "bike_id": "76a95a91cb9811f52b6e2ac6ae5c9f56", "is_disabled": 0, "lat": 38.8451285, "rental_uris": {"ios": "https://dc.lft.to/lastmile_qr_scan", "android": "https://dc.lft.to/lastmile_qr_scan"}, "is_reserved": 0, "lon": -76.98807916666667, "fusion_lat": 0.0, "name": "76a95a91cb9811f52b6e2ac6ae5c9f56"}, {"type": "electric_scooter", "fusion_lon": 0.0, "bike_id": "43d5bc4780f3b2a3b0c89314cddd0a3a", "is_disabled": 0, "lat": 38.907858166666664, "rental_uris": {"ios": "https://dc.lft.to/lastmile_qr_scan", "android": "https://dc.lft.to/lastmile_qr_scan"}, "is_reserved": 0, "lon": -77.064197, "fusion_lat": 0.0, "name": "43d5bc4780f3b2a3b0c89314cddd0a3a"}, {"type": "electric_bike", "fusion_lon": 0.0, "bike_id": "1d349f4f54b5c74b0428a2a57ed01a3c", "is_disabled": 0, "lat": 38.807368833333335, "rental_uris": {"ios": "https://dc.lft.to/lastmile_qr_scan", "android": "https://dc.lft.to/lastmile_qr_scan"}, "is_reserved": 0, "lon": -77.09721033333334, "fusion_lat": 0.0, "name": "1d349f4f54b5c74b0428a2a57ed01a3c"}, {"type": "electric_scooter", "fusion_lon": 0.0, "bike_id": "771172b4f29f307dce413c75c4345727", "is_disabled": 0, "lat": 38.933138166666666, "rental_uris": {"ios": "https://dc.lft.to/lastmile_qr_scan", "android": "https://dc.lft.to/lastmile_qr_scan"}, "is_reserved": 0, "lon": -77.03265916666666, "fusion_lat": 0.0, "name": "771172b4f29f307dce413c75c4345727"}, {"type": "electric_bike", "fusion_lon": 0.0, "bike_id": "72349ae9d9021914643c702e670305e4", "is_disabled": 0, "lat": 38.86263483333333, "rental_uris": {"ios": "https://dc.lft.to/lastmile_qr_scan", "android": "https://dc.lft.to/lastmile_qr_scan"}, "is_reserved": 0, "lon": -76.983501, "fusion_lat": 0.0, "name": "72349ae9d9021914643c702e670305e4"}, {"type": "electric_scooter", "fusion_lon": 0.0, "bike_id": "666884286c8b15b27c392e003d850cec", "is_disabled": 0, "lat": 38.917056, "rental_uris": {"ios": "https://dc.lft.to/lastmile_qr_scan", "android": "https://dc.lft.to/lastmile_qr_scan"}, "is_reserved": 0, "lon": -77.03460666666666, "fusion_lat": 0.0, "name": "666884286c8b15b27c392e003d850cec"}, {"type": "electric_scooter", "fusion_lon": 0.0, "bike_id": "e60ddaa0c89ddc13c338f6ba7c63da2c", "is_disabled": 0, "lat": 38.916163166666664, "rental_uris": {"ios": "https://dc.lft.to/lastmile_qr_scan", "android": "https://dc.lft.to/lastmile_qr_scan"}, "is_reserved": 0, "lon": -77.04877916666666, "fusion_lat": 0.0, "name": "e60ddaa0c89ddc13c338f6ba7c63da2c"}, {"type": "electric_scooter", "fusion_lon": 0.0, "bike_id": "37330560be2c0da89bf80aacc5249531", "is_disabled": 0, "lat": 38.881842666666664, "rental_uris": {"ios": "https://dc.lft.to/lastmile_qr_scan", "android": "https://dc.lft.to/lastmile_qr_scan"}, "is_reserved": 0, "lon": -77.02210366666667, "fusion_lat": 0.0, "name": "37330560be2c0da89bf80aacc5249531"}, {"type": "electric_scooter", "fusion_lon": 0.0, "bike_id": "0aefa17ca68c67da4b3d05a8334d1d46", "is_disabled": 0, "lat": 38.9156745, "rental_uris": {"ios": "https://dc.lft.to/lastmile_qr_scan", "android": "https://dc.lft.to/lastmile_qr_scan"}, "is_reserved": 0, "lon": -77.0315235, "fusion_lat": 0.0, "name": "0aefa17ca68c67da4b3d05a8334d1d46"}, {"type": "electric_scooter", "fusion_lon": 0.0, "bike_id": "23678a9fb04a7081e2d9c7b2cba3c2ae", "is_disabled": 0, "lat": 38.899062, "rental_uris": {"ios": "https://dc.lft.to/lastmile_qr_scan", "android": "https://dc.lft.to/lastmile_qr_scan"}, "is_reserved": 0, "lon": -77.04899116666667, "fusion_lat": 0.0, "name": "23678a9fb04a7081e2d9c7b2cba3c2ae"}, {"type": "electric_scooter", "fusion_lon": 0.0, "bike_id": "46ab2e9435dd7effe6b9139b5ac8a2aa", "is_disabled": 0, "lat": 38.909042, "rental_uris": {"ios": "https://dc.lft.to/lastmile_qr_scan", "android": "https://dc.lft.to/lastmile_qr_scan"}, "is_reserved": 0, "lon": -77.02281666666667, "fusion_lat": 0.0, "name": "46ab2e9435dd7effe6b9139b5ac8a2aa"}, {"type": "electric_scooter", "fusion_lon": 0.0, "bike_id": "015854505ca37c95fb7d12f7f2097d7e", "is_disabled": 0, "lat": 38.938934, "rental_uris": {"ios": "https://dc.lft.to/lastmile_qr_scan", "android": "https://dc.lft.to/lastmile_qr_scan"}, "is_reserved": 0, "lon": -76.98607616666666, "fusion_lat": 0.0, "name": "015854505ca37c95fb7d12f7f2097d7e"}, {"type": "electric_scooter", "fusion_lon": 0.0, "bike_id": "3ef97ad5e2e0bcaa7e009ac94cf773d3", "is_disabled": 0, "lat": 38.9237245, "rental_uris": {"ios": "https://dc.lft.to/lastmile_qr_scan", "android": "https://dc.lft.to/lastmile_qr_scan"}, "is_reserved": 0, "lon": -77.02260333333334, "fusion_lat": 0.0, "name": "3ef97ad5e2e0bcaa7e009ac94cf773d3"}, {"type": "electric_scooter", "fusion_lon": 0.0, "bike_id": "982d91c7192abe86c7142e4b82655f12", "is_disabled": 0, "lat": 38.92022933333333, "rental_uris": {"ios": "https://dc.lft.to/lastmile_qr_scan", "android": "https://dc.lft.to/lastmile_qr_scan"}, "is_reserved": 0, "lon": -76.995586, "fusion_lat": 0.0, "name": "982d91c7192abe86c7142e4b82655f12"}, {"type": "electric_scooter", "fusion_lon": 0.0, "bike_id": "a25ab2d45ed54a4a5916523b5e15be60", "is_disabled": 0, "lat": 38.90272133333333, "rental_uris": {"ios": "https://dc.lft.to/lastmile_qr_scan", "android": "https://dc.lft.to/lastmile_qr_scan"}, "is_reserved": 0, "lon": -77.01796916666666, "fusion_lat": 0.0, "name": "a25ab2d45ed54a4a5916523b5e15be60"}, {"type": "electric_scooter", "fusion_lon": 0.0, "bike_id": "8c567294c62326f429a61ed492cdb472", "is_disabled": 0, "lat": 38.89532633333334, "rental_uris": {"ios": "https://dc.lft.to/lastmile_qr_scan", "android": "https://dc.lft.to/lastmile_qr_scan"}, "is_reserved": 0, "lon": -76.94931666666666, "fusion_lat": 0.0, "name": "8c567294c62326f429a61ed492cdb472"}, {"type": "electric_scooter", "fusion_lon": 0.0, "bike_id": "d5b94947023f879616a09c8d239a69ff", "is_disabled": 0, "lat": 38.87554883333333, "rental_uris": {"ios": "https://dc.lft.to/lastmile_qr_scan", "android": "https://dc.lft.to/lastmile_qr_scan"}, "is_reserved": 0, "lon": -77.00079716666667, "fusion_lat": 0.0, "name": "d5b94947023f879616a09c8d239a69ff"}, {"type": "electric_scooter", "fusion_lon": 0.0, "bike_id": "3b0e95a89fcc69cade306da17f3a02ab", "is_disabled": 0, "lat": 38.900199666666666, "rental_uris": {"ios": "https://dc.lft.to/lastmile_qr_scan", "android": "https://dc.lft.to/lastmile_qr_scan"}, "is_reserved": 0, "lon": -77.0020335, "fusion_lat": 0.0, "name": "3b0e95a89fcc69cade306da17f3a02ab"}, {"type": "electric_scooter", "fusion_lon": 0.0, "bike_id": "f27b985117946bd878a40db4aa4c827a", "is_disabled": 0, "lat": 38.921292333333334, "rental_uris": {"ios": "https://dc.lft.to/lastmile_qr_scan", "android": "https://dc.lft.to/lastmile_qr_scan"}, "is_reserved": 0, "lon": -77.04592483333333, "fusion_lat": 0.0, "name": "f27b985117946bd878a40db4aa4c827a"}, {"type": "electric_scooter", "fusion_lon": 0.0, "bike_id": "9ea3586489a7e1c3cac8afdcdfddc07f", "is_disabled": 0, "lat": 38.9142055, "rental_uris": {"ios": "https://dc.lft.to/lastmile_qr_scan", "android": "https://dc.lft.to/lastmile_qr_scan"}, "is_reserved": 0, "lon": -77.0381455, "fusion_lat": 0.0, "name": "9ea3586489a7e1c3cac8afdcdfddc07f"}, {"type": "electric_scooter", "fusion_lon": 0.0, "bike_id": "19e25b18c26ed9775535e960244d8d6e", "is_disabled": 0, "lat": 38.957338, "rental_uris": {"ios": "https://dc.lft.to/lastmile_qr_scan", "android": "https://dc.lft.to/lastmile_qr_scan"}, "is_reserved": 0, "lon": -77.0240255, "fusion_lat": 0.0, "name": "19e25b18c26ed9775535e960244d8d6e"}, {"type": "electric_scooter", "fusion_lon": 0.0, "bike_id": "16adf9e72d334098d034d13986f5bcf4", "is_disabled": 0, "lat": 38.90751316666667, "rental_uris": {"ios": "https://dc.lft.to/lastmile_qr_scan", "android": "https://dc.lft.to/lastmile_qr_scan"}, "is_reserved": 0, "lon": -77.00778616666666, "fusion_lat": 0.0, "name": "16adf9e72d334098d034d13986f5bcf4"}, {"type": "electric_scooter", "fusion_lon": 0.0, "bike_id": "3cf81880d0c4c72fd8b5039fc7f36917", "is_disabled": 0, "lat": 38.892197833333334, "rental_uris": {"ios": "https://dc.lft.to/lastmile_qr_scan", "android": "https://dc.lft.to/lastmile_qr_scan"}, "is_reserved": 0, "lon": -77.02219183333334, "fusion_lat": 0.0, "name": "3cf81880d0c4c72fd8b5039fc7f36917"}, {"type": "electric_bike", "fusion_lon": 0.0, "bike_id": "c4ee49980770ba125eaca1c80e2fc151", "is_disabled": 0, "lat": 38.88887916666667, "rental_uris": {"ios": "https://dc.lft.to/lastmile_qr_scan", "android": "https://dc.lft.to/lastmile_qr_scan"}, "is_reserved": 0, "lon": -77.07942716666666, "fusion_lat": 0.0, "name": "c4ee49980770ba125eaca1c80e2fc151"}, {"type": "electric_scooter", "fusion_lon": 0.0, "bike_id": "b53fefa4ba8bf68d06a8afdc3670d7d1", "is_disabled": 0, "lat": 38.90722916666667, "rental_uris": {"ios": "https://dc.lft.to/lastmile_qr_scan", "android": "https://dc.lft.to/lastmile_qr_scan"}, "is_reserved": 0, "lon": -77.02417533333333, "fusion_lat": 0.0, "name": "b53fefa4ba8bf68d06a8afdc3670d7d1"}, {"type": "electric_scooter", "fusion_lon": 0.0, "bike_id": "942fb0fc12cb8752f4cfd02800e22464", "is_disabled": 0, "lat": 38.88141616666667, "rental_uris": {"ios": "https://dc.lft.to/lastmile_qr_scan", "android": "https://dc.lft.to/lastmile_qr_scan"}, "is_reserved": 0, "lon": -77.01769216666666, "fusion_lat": 0.0, "name": "942fb0fc12cb8752f4cfd02800e22464"},