{"data": {"bikes": [{"fusion_lon": 0.0, "name": "13f57fa114b251130d4663f751be8a95", "rental_uris": {"android": "https://dc.lft.to/lastmile_qr_scan", "ios": "https://dc.lft.to/lastmile_qr_scan"}, "lat": 38.93106983333333, "bike_id": "13f57fa114b251130d4663f751be8a95", "is_disabled": 0, "lon": -77.03024533333334, "is_reserved": 0, "fusion_lat": 0.0, "type": "electric_scooter"}, {"fusion_lon": 0.0, "name": "e91394f4a5213d341db3770a552557d8", "rental_uris": {"android": "https://dc.lft.to/lastmile_qr_scan", "ios": "https://dc.lft.to/lastmile_qr_scan"}, "lat": 38.9249245, "bike_id": "e91394f4a5213d341db3770a552557d8", "is_disabled": 0, "lon": -77.02700233333333, "is_reserved": 0, "fusion_lat": 0.0, "type": "electric_scooter"}, {"fusion_lon": 0.0, "name": "4c376d3ead9400ced3109e21367b66c0", "rental_uris": {"android": "https://dc.lft.to/lastmile_qr_scan", "ios": "https://dc.lft.to/lastmile_qr_scan"}, "lat": 38.90405533333333, "bike_id": "4c376d3ead9400ced3109e21367b66c0", "is_disabled": 0, "lon": -76.973673, "is_reserved": 0, "fusion_lat": 0.0, "type": "electric_scooter"}, {"fusion_lon": 0.0, "name": "f04a6f10cc01f6b0e5b6065821786f7a", "rental_uris": {"android": "https://dc.lft.to/lastmile_qr_scan", "ios": "https://dc.lft.to/lastmile_qr_scan"}, "lat": 38.901309, "bike_id": "f04a6f10cc01f6b0e5b6065821786f7a", "is_disabled": 0, "lon": -77.00319183333333, "is_reserved": 0, "fusion_lat": 0.0, "type": "electric_scooter"}, {"fusion_lon": 0.0, "name": "4ce84d311696a6a5f4a8c5bed6a736c5", "rental_uris": {"android": "https://dc.lft.to/lastmile_qr_scan", "ios": "https://dc.lft.to/lastmile_qr_scan"}, "lat": 38.854470666666664, "bike_id": "4ce84d311696a6a5f4a8c5bed6a736c5", "is_disabled": 0, "lon": -76.98603933333334, "is_reserved": 0, "fusion_lat": 0.0, "type": "electric_bike"}, {"fusion_lon": 0.0, "name": "a7c461637382052a1deb9609dab51c4c", "rental_uris": {"android": "https://dc.lft.to/lastmile_qr_scan", "ios": "https://dc.lft.to/lastmile_qr_scan"}, "lat": 38.91953083333333, "bike_id": "a7c461637382052a1deb9609dab51c4c", "is_disabled": 0, "lon": -77.01385666666667, "is_reserved": 0, "fusion_lat": 0.0, "type": "electric_scooter"}, {"fusion_lon": 0.0, "name": "e3b993922f3655bcf5b5e098c696c216", "rental_uris": {"android": "https://dc.lft.to/lastmile_qr_scan", "ios": "https://dc.lft.to/lastmile_qr_scan"}, "lat": 38.88444333333333, "bike_id": "e3b993922f3655bcf5b5e098c696c216", "is_disabled": 0, "lon": -77.023325, "is_reserved": 0, "fusion_lat": 0.0, "type": "electric_scooter"}, {"fusion_lon": 0.0, "name": "f25ad3cc2230d4d584840f3978a70c6b", "rental_uris": {"android": "https://dc.lft.to/lastmile_qr_scan", "ios": "https://dc.lft.to/lastmile_qr_scan"}, "lat": 38.922851333333334, "bike_id": "f25ad3cc2230d4d584840f3978a70c6b", "is_disabled": 0, "lon": -77.04293633333333, "is_reserved": 0, "fusion_lat": 0.0, "type": "electric_scooter"}, {"fusion_lon": 0.0, "name": "b133733e546136a47968b07a9d812e80", "rental_uris": {"android": "https://dc.lft.to/lastmile_qr_scan", "ios": "https://dc.lft.to/lastmile_qr_scan"}, "lat": 38.909436, "bike_id": "b133733e546136a47968b07a9d812e80", "is_disabled": 0, "lon": -77.0385435, "is_reserved": 0, "fusion_lat": 0.0, "type": "electric_scooter"}, {"fusion_lon": 0.0, "name": "f953be4d47dab2d437241dbfa28054d3", "rental_uris": {"android": "https://dc.lft.to/lastmile_qr_scan", "ios": "https://dc.lft.to/lastmile_qr_scan"}, "lat": 38.92379533333333, "bike_id": "f953be4d47dab2d437241dbfa28054d3", "is_disabled": 0, "lon": -77.03540066666666, "is_reserved": 0, "fusion_lat": 0.0, "type": "electric_scooter"}, {"fusion_lon": 0.0, "name": "5febcf7295f52a21c96bccd64b8121ab", "rental_uris": {"android": "https://dc.lft.to/lastmile_qr_scan", "ios": "https://dc.lft.to/lastmile_qr_scan"}, "lat": 38.846093, "bike_id": "5febcf7295f52a21c96bccd64b8121ab", "is_disabled": 0, "lon": -76.9692155, "is_reserved": 0, "fusion_lat": 0.0, "type": "electric_bike"}, {"fusion_lon": 0.0, "name": "27943ad78a12491fee8f2fa7ac5b2600", "rental_uris": {"android": "https://dc.lft.to/lastmile_qr_scan", "ios": "https://dc.lft.to/lastmile_qr_scan"}, "lat": 38.894686166666666, "bike_id": "27943ad78a12491fee8f2fa7ac5b2600", "is_disabled": 0, "lon": -77.02660216666666, "is_reserved": 0, "fusion_lat": 0.0, "type": "electric_scooter"}, {"fusion_lon": 0.0, "name": "2eeb7710d69888d3c2a7882102f187df", "rental_uris": {"android": "https://dc.lft.to/lastmile_qr_scan", "ios": "https://dc.lft.to/lastmile_qr_scan"}, "lat": 38.87867083333333, "bike_id": "2eeb7710d69888d3c2a7882102f187df", "is_disabled": 0, "lon": -76.99660066666667, "is_reserved": 0, "fusion_lat": 0.0, "type": "electric_scooter"}, {"fusion_lon": 0.0, "name": "2737efcefbcb4ab958ac4518565ad831", "rental_uris": {"android": "https://dc.lft.to/lastmile_qr_scan", "ios": "https://dc.lft.to/lastmile_qr_scan"}, "lat": 38.94360066666667, "bike_id": "2737efcefbcb4ab958ac4518565ad831", "is_disabled": 0, "lon": -77.061251, "is_reserved": 0, "fusion_lat": 0.0, "type": "electric_scooter"}, {"fusion_lon": 0.0, "name": "99d3c8a138233806d7eb04cbf5eb3d7c", "rental_uris": {"android": "https://dc.lft.to/lastmile_qr_scan", "ios": "https://dc.lft.to/lastmile_qr_scan"}, "lat": 38.912532666666664, "bike_id": "99d3c8a138233806d7eb04cbf5eb3d7c", "is_disabled": 0, "lon": -77.03196683333333, "is_reserved": 0, "fusion_lat": 0.0, "type": "electric_scooter"}, {"fusion_lon": 0.0, "name": "4f3d486ab96bf494dc31be7a6c41730b", "rental_uris": {"android": "https://dc.lft.to/lastmile_qr_scan", "ios": "https://dc.lft.to/lastmile_qr_scan"}, "lat": 38.9197585, "bike_id": "4f3d486ab96bf494dc31be7a6c41730b", "is_disabled": 0, "lon": -77.04363683333334, "is_reserved": 0, "fusion_lat": 0.0, "type": "electric_scooter"}, {"fusion_lon": 0.0, "name": "573d6167b9e6162e55e45f463b32a5c8", "rental_uris": {"android": "https://dc.lft.to/lastmile_qr_scan", "ios": "https://dc.lft.to/lastmile_qr_scan"}, "lat": 38.902165, "bike_id": "573d6167b9e6162e55e45f463b32a5c8", "is_disabled": 0, "lon": -77.0236775, "is_reserved": 0, "fusion_lat": 0.0, "type": "electric_scooter"}, {"fusion_lon": 0.0, "name": "c459f38b2fae1ecabe4895b672ffa659", "rental_uris": {"android": "https://dc.lft.to/lastmile_qr_scan", "ios": "https://dc.lft.to/lastmile_qr_scan"}, "lat": 38.9199365, "bike_id": "c459f38b2fae1ecabe4895b672ffa659", "is_disabled": 0, "lon": -77.02183116666667, "is_reserved": 0, "fusion_lat": 0.0, "type": "electric_scooter"}, {"fusion_lon": 0.0, "name": "18077916767c1002b4cc0d1f7deeb49d", "rental_uris": {"android": "https://dc.lft.to/lastmile_qr_scan", "ios": "https://dc.lft.to/lastmile_qr_scan"}, "lat": 38.923815166666664, "bike_id": "18077916767c1002b4cc0d1f7deeb49d", "is_disabled": 0, "lon": -77.02950566666667, "is_reserved": 0, "fusion_lat": 0.0, "type": "electric_scooter"}, {"fusion_lon": 0.0, "name": "d5ba1442adbb1a09af20bdbcbdb5ab6c", "rental_uris": {"android": "https://dc.lft.to/lastmile_qr_scan", "ios": "https://dc.lft.to/lastmile_qr_scan"}, "lat": 38.922978666666666, "bike_id": "d5ba1442adbb1a09af20bdbcbdb5ab6c", "is_disabled": 0, "lon": -77.04137483333334, "is_reserved": 0, "fusion_lat": 0.0, "type": "electric_scooter"}, {"fusion_lon": 0.0, "name": "776223245609bfe00e2658e789225046", "rental_uris": {"android": "https://dc.lft.to/lastmile_qr_scan", "ios": "https://dc.lft.to/lastmile_qr_scan"}, "lat": 38.89882333333333, "bike_id": "776223245609bfe00e2658e789225046", "is_disabled": 0, "lon": -77.04555666666667, "is_reserved": 0, "fusion_lat": 0.0, "type": "electric_scooter"}, {"fusion_lon": 0.0, "name": "2c72e44a8e5739ca40d087160c24ce4a", "rental_uris": {"android": "https://dc.lft.to/lastmile_qr_scan", "ios": "https://dc.lft.to/lastmile_qr_scan"}, "lat": 38.892380833333334, "bike_id": "2c72e44a8e5739ca40d087160c24ce4a", "is_disabled": 0, "lon": -77.03372416666667, "is_reserved": 0, "fusion_lat": 0.0, "type": "electric_scooter"}, {"fusion_lon": 0.0, "name": "f5ac41e335bf31b83116722b2b0f4ace", "rental_uris": {"android": "https://dc.lft.to/lastmile_qr_scan", "ios": "https://dc.lft.to/lastmile_qr_scan"}, "lat": 38.8675425, "bike_id": "f5ac41e335bf31b83116722b2b0f4ace", "is_disabled": 0, "lon": -76.9453, "is_reserved": 0, "fusion_lat": 0.0, "type": "electric_bike"}, {"fusion_lon": 0.0, "name": "cfa20f16948fb5b9273c076104dbe712", "rental_uris": {"android": "https://dc.lft.to/lastmile_qr_scan", "ios": "https://dc.lft.to/lastmile_qr_scan"}, "lat": 38.90524283333333, "bike_id": "cfa20f16948fb5b9273c076104dbe712", "is_disabled": 0, "lon": -77.06434316666666, "is_reserved": 0, "fusion_lat": 0.0, "type": "electric_scooter"}, {"fusion_lon": 0.0, "name": "f47055b503503fc248c4939e4dc76490", "rental_uris": {"android": "https://dc.lft.to/lastmile_qr_scan", "ios": "https://dc.lft.to/lastmile_qr_scan"}, "lat": 38.88490266666667, "bike_id": "f47055b503503fc248c4939e4dc76490", "is_disabled": 0, "lon": -77.0264795, "is_reserved": 0, "fusion_lat": 0.0, "type": "electric_scooter"}, {"fusion_lon": 0.0, "name": "34acd6bfefe4dfaf20c7e8d6a8f5a627", "rental_uris": {"android": "https://dc.lft.to/lastmile_qr_scan", "ios": "https://dc.lft.to/lastmile_qr_scan"}, "lat": 38.9013215, "bike_id": "34acd6bfefe4dfaf20c7e8d6a8f5a627", "is_disabled": 0, "lon": -77.04315383333334, "is_reserved": 0, "fusion_lat": 0.0, "type": "electric_scooter"}, {"fusion_lon": 0.0, "name": "3dca690f11013ecb0253b537b474495f", "rental_uris": {"android": "https://dc.lft.to/lastmile_qr_scan", "ios": "https://dc.lft.to/lastmile_qr_scan"}, "lat": 38.87559, "bike_id": "3dca690f11013ecb0253b537b474495f", "is_disabled": 0, "lon": -77.0060765, "is_reserved": 0, "fusion_lat": 0.0, "type": "electric_scooter"}, {"fusion_lon": 0.0, "name": "5b822133ca8390533b84e1b457ba29db", "rental_uris": {"android": "https://dc.lft.to/lastmile_qr_scan", "ios": "https://dc.lft.to/lastmile_qr_scan"}, "lat": 38.900177, "bike_id": "5b822133ca8390533b84e1b457ba29db", "is_disabled": 0, "lon": -77.04650033333333, "is_reserved": 0, "fusion_lat": 0.0, "type": "electric_scooter"}, {"fusion_lon": 0.0, "name": "d7dc0acb5e089b87201ac8a179f494d8", "rental_uris": {"android": "https://dc.lft.to/lastmile_qr_scan", "ios": "https://dc.lft.to/lastmile_qr_scan"}, "lat": 38.900696833333335, "bike_id": "d7dc0acb5e089b87201ac8a179f494d8", "is_disabled": 0, "lon": -77.046359, "is_reserved": 0, "fusion_lat": 0.0, "type": "electric_scooter"}, {"fusion_lon": 0.0, "name": "11c8aa8211527e74255c81303be57a67", "rental_uris": {"android": "https://dc.lft.to/lastmile_qr_scan", "ios": "https://dc.lft.to/lastmile_qr_scan"}, "lat": 38.927632, "bike_id": "11c8aa8211527e74255c81303be57a67", "is_disabled": 0, "lon": -77.0525715, "is_reserved": 0, "fusion_lat": 0.0, "type": "electric_scooter"}, {"fusion_lon": 0.0, "name": "f13029adf20617fb5fe39b887e868687", "rental_uris": {"android": "https://dc.lft.to/lastmile_qr_scan", "ios": "https://dc.lft.to/lastmile_qr_scan"}, "lat": 38.92263883333333, "bike_id": "f13029adf20617fb5fe39b887e868687", "is_disabled": 0, "lon": -77.036667, "is_reserved": 0, "fusion_lat": 0.0, "type": "electric_scooter"}, {"fusion_lon": 0.0, "name": "de385043c047003ba49429cf289f74df", "rental_uris": {"android": "https://dc.lft.to/lastmile_qr_scan", "ios": "https://dc.lft.to/lastmile_qr_scan"}, "lat": 38.907266666666665, "bike_id": "de385043c047003ba49429cf289f74df", "is_disabled": 0, "lon": -77.027958, "is_reserved": 0, "fusion_lat": 0.0, "type": "electric_scooter"}, {"fusion_lon": 0.0, "name": "120cb166a87cf307cf334e73b29491b6", "rental_uris": {"android": "https://dc.lft.to/lastmile_qr_scan", "ios": "https://dc.lft.to/lastmile_qr_scan"}, "lat": 38.9267685, "bike_id": "120cb166a87cf307cf334e73b29491b6", "is_disabled": 0, "lon": -77.02856233333333, "is_reserved": 0, "fusion_lat": 0.0, "type": "electric_scooter"}, {"fusion_lon": 0.0, "name": "2acb2462d9ccd4307953c31ce476d846", "rental_uris": {"android": "https://dc.lft.to/lastmile_qr_scan", "ios": "https://dc.lft.to/lastmile_qr_scan"}, "lat": 38.8997325, "bike_id": "2acb2462d9ccd4307953c31ce476d846", "is_disabled": 0, "lon": -77.04855633333334, "is_reserved": 0, "fusion_lat": 0.0, "type": "electric_scooter"}, {"fusion_lon": 0.0, "name": "9155c58cd3408205a20132e39e3a067e", "rental_uris": {"android": "https://dc.lft.to/lastmile_qr_scan", "ios": "https://dc.lft.to/lastmile_qr_scan"}, "lat": 38.89629933333333, "bike_id": "9155c58cd3408205a20132e39e3a067e", "is_disabled": 0, "lon": -77.03201666666666, "is_reserved": 0, "fusion_lat": 0.0, "type": "electric_scooter"}, {"fusion_lon": 0.0, "name": "7b6b46e791ad93310ec90a9debc9004d", "rental_uris": {"android": "https://dc.lft.to/lastmile_qr_scan", "ios": "https://dc.lft.to/lastmile_qr_scan"}, "lat": 38.89492, "bike_id": "7b6b46e791ad93310ec90a9debc9004d", "is_disabled": 0, "lon": -76.948951, "is_reserved": 0, "fusion_lat": 0.0, "type": "electric_scooter"}, {"fusion_lon": 0.0, "name": "8aec4f1e95d5b59d83febbd3cdb9271f", "rental_uris": {"android": "https://dc.lft.to/lastmile_qr_scan", "ios": "https://dc.lft.to/lastmile_qr_scan"}, "lat": 38.90579066666667, "bike_id": "8aec4f1e95d5b59d83febbd3cdb9271f", "is_disabled": 0, "lon": -77.040838, "is_reserved": 0, "fusion_lat": 0.0, "type": "electric_scooter"}, {"fusion_lon": 0.0, "name": "4871cc1c975bed7f44d204d2ebc63bc2", "rental_uris": {"android": "https://dc.lft.to/lastmile_qr_scan", "ios": "https://dc.lft.to/lastmile_qr_scan"}, "lat": 38.87533883333333, "bike_id": "4871cc1c975bed7f44d204d2ebc63bc2", "is_disabled": 0, "lon": -77.01746533333333, "is_reserved": 0, "fusion_lat": 0.0, "type": "electric_scooter"}, {"fusion_lon": 0.0, "name": "5ce15e29dad7af0af77e2b3687285ed8", "rental_uris": {"android": "https://dc.lft.to/lastmile_qr_scan", "ios": "https://dc.lft.to/lastmile_qr_scan"}, "lat": 38.89307816666667, "bike_id": "5ce15e29dad7af0af77e2b3687285ed8", "is_disabled": 0, "lon": -76.93969233333334, "is_reserved": 0, "fusion_lat": 0.0, "type": "electric_scooter"}, {"fusion_lon": 0.0, "name": "84ca182441407e2e758f2b3c9bff352d", "rental_uris": {"android": "https://dc.lft.to/lastmile_qr_scan", "ios": "https://dc.lft.to/lastmile_qr_scan"}, "lat": 38.8980325, "bike_id": "84ca182441407e2e758f2b3c9bff352d", "is_disabled": 0, "lon": -77.05019716666666, "is_reserved": 0, "fusion_lat": 0.0, "type": "electric_scooter"}, {"fusion_lon": 0.0, "name": "ea0ac26adf2b0409e02afd73639df7e0", "rental_uris": {"android": "https://dc.lft.to/lastmile_qr_scan", "ios": "https://dc.lft.to/lastmile_qr_scan"}, "lat": 38.84755583333333, "bike_id": "ea0ac26adf2b0409e02afd73639df7e0", "is_disabled": 0, "lon": -77.05370516666666, "is_reserved": 0, "fusion_lat": 0.0, "type": "electric_bike"}, {"fusion_lon": 0.0, "name": "4d49bc9da03c2c84b9b65f08f8b8e78b", "rental_uris": {"android": "https://dc.lft.to/lastmile_qr_scan", "ios": "https://dc.lft.to/lastmile_qr_scan"}, "lat": 38.9227405, "bike_id": "4d49bc9da03c2c84b9b65f08f8b8e78b", "is_disabled": 0, "lon": -77.02964716666666, "is_reserved": 0, "fusion_lat": 0.0, "type": "electric_scooter"}, {"fusion_lon": 0.0, "name": "1be9f19781d24dc10635c9ed660a61c1", "rental_uris": {"android": "https://dc.lft.to/lastmile_qr_scan", "ios": "https://dc.lft.to/lastmile_qr_scan"}, "lat": 38.891980833333335, "bike_id": "1be9f19781d24dc10635c9ed660a61c1", "is_disabled": 0, "lon": -76.993819, "is_reserved": 0, "fusion_lat": 0.0, "type": "electric_scooter"}, {"fusion_lon": 0.0, "name": "c7a0f8615029efb2b5fad93233e7113d", "rental_uris": {"android": "https://dc.lft.to/lastmile_qr_scan", "ios": "https://dc.lft.to/lastmile_qr_scan"}, "lat": 38.92356216666667, "bike_id": "c7a0f8615029efb2b5fad93233e7113d", "is_disabled": 0, "lon": -77.05033766666666, "is_reserved": 0, "fusion_lat": 0.0, "type": "electric_scooter"}, {"fusion_lon": 0.0, "name": "e456bf9b398895642a718fbee620bc7d", "rental_uris": {"android": "https://dc.lft.to/lastmile_qr_scan", "ios": "https://dc.lft.to/lastmile_qr_scan"}, "lat": 38.906751, "bike_id": "e456bf9b398895642a718fbee620bc7d", "is_disabled": 0, "lon": -77.04869916666667, "is_reserved": 0, "fusion_lat": 0.0, "type": "electric_scooter"}, {"fusion_lon": 0.0, "name": "9307c79ccf6b50e932be97cfead37941", "rental_uris": {"android": "https://dc.lft.to/lastmile_qr_scan", "ios": "https://dc.lft.to/lastmile_qr_scan"}, "lat": 38.933082166666665, "bike_id": "9307c79ccf6b50e932be97cfead37941", "is_disabled": 0, "lon": -77.03262783333334, "is_reserved": 0, "fusion_lat": 0.0, "type": "electric_scooter"}, {"fusion_lon": 0.0, "name": "d80c841d553cbbc70057940e2f1f5c93", "rental_uris": {"android": "https://dc.lft.to/lastmile_qr_scan", "ios": "https://dc.lft.to/lastmile_qr_scan"}, "lat": 38.943455, "bike_id": "d80c841d553cbbc70057940e2f1f5c93", "is_disabled": 0, "lon": -77.06129216666666, "is_reserved": 0, "fusion_lat": 0.0, "type": "electric_scooter"}, {"fusion_lon": 0.0, "name": "4f3a78f1c37a9ceebb86199afe7e4676", "rental_uris": {"android": "https://dc.lft.to/lastmile_qr_scan", "ios": "https://dc.lft.to/lastmile_qr_scan"}, "lat": 38.874273333333335, "bike_id": "4f3a78f1c37a9ceebb86199afe7e4676", "is_disabled": 0, "lon": -76.973351, "is_reserved": 0, "fusion_lat": 0.0, "type": "electric_scooter"}, {"fusion_lon": 0.0, "name": "36ef01b1d5aba39e5eb9d5e7f513b0ff", "rental_uris": {"android": "https://dc.lft.to/lastmile_qr_scan", "ios": "https://dc.lft.to/lastmile_qr_scan"}, "lat": 38.9107155, "bike_id": "36ef01b1d5aba39e5eb9d5e7f513b0ff", "is_disabled": 0, "lon": -77.0532275, "is_reserved": 0, "fusion_lat": 0.0, "type": "electric_scooter"}, {"fusion_lon": 0.0, "name": "db8907a1f51f6ebed5d422daaedecfc0", "rental_uris": {"android": "https://dc.lft.to/lastmile_qr_scan", "ios": "https://dc.lft.to/lastmile_qr_scan"}, "lat": 38.90373983333333, "bike_id": "db8907a1f51f6ebed5d422daaedecfc0", "is_disabled": 0, "lon": -77.01661416666667, "is_reserved": 0, "fusion_lat": 0.0, "type": "electric_scooter"}, {"fusion_lon": 0.0, "name": "e3c8f56bec2fdd6a21b10aa12ae6b4cf", "rental_uris": {"android": "https://dc.lft.to/lastmile_qr_scan", "ios": "https://dc.lft.to/lastmile_qr_scan"}, "lat": 38.923601833333336, "bike_id": "e3c8f56bec2fdd6a21b10aa12ae6b4cf", "is_disabled": 0, "lon": -77.0513775, "is_reserved": 0, "fusion_lat": 0.0, "type": "electric_scooter"}, {"fusion_lon": 0.0, "name": "e9c1c224609d670f65051c7946207f55", "rental_uris": {"android": "https://dc.lft.to/lastmile_qr_scan", "ios": "https://dc.lft.to/lastmile_qr_scan"}, "lat": 38.91291783333333, "bike_id": "e9c1c224609d670f65051c7946207f55", "is_disabled": 0, "lon": -76.98539066666666, "is_reserved": 0, "fusion_lat": 0.0, "type": "electric_scooter"}, {"fusion_lon": 0.0, "name": "47096bc075edd8d479ad5b1d9e0867e3", "rental_uris": {"android": "https://dc.lft.to/lastmile_qr_scan", "ios": "https://dc.lft.to/lastmile_qr_scan"}, "lat": 38.8766435, "bike_id": "47096bc075edd8d479ad5b1d9e0867e3", "is_disabled": 0, "lon": -77.00539116666667, "is_reserved": 0, "fusion_lat": 0.0, "type": "electric_scooter"}, {"fusion_lon": 0.0, "name": "a31017b199510341082c845a21d19554", "rental_uris": {"android": "https://dc.lft.to/lastmile_qr_scan", "ios": "https://dc.lft.to/lastmile_qr_scan"}, "lat": 38.8922095, "bike_id": "a31017b199510341082c845a21d19554", "is_disabled": 0, "lon": -77.0399035, "is_reserved": 0, "fusion_lat": 0.0, "type": "electric_scooter"}, {"fusion_lon": 0.0, "name": "7d83b3641e2ff3132507ae79d7827dfe", "rental_uris": {"android": "https://dc.lft.to/lastmile_qr_scan", "ios": "https://dc.lft.to/lastmile_qr_scan"}, "lat": 38.903216, "bike_id": "7d83b3641e2ff3132507ae79d7827dfe", "is_disabled": 0, "lon": -77.01883716666667, "is_reserved": 0, "fusion_lat": 0.0, "type": "electric_scooter"}, {"fusion_lon": 0.0, "name": "f9ddc03a55efc615925abf7366e23819", "rental_uris": {"android": "https://dc.lft.to/lastmile_qr_scan", "ios": "https://dc.lft.to/lastmile_qr_scan"}, "lat": 38.92474583333333, "bike_id": "f9ddc03a55efc615925abf7366e23819", "is_disabled": 0, "lon": -77.022174, "is_reserved": 0, "fusion_lat": 0.0, "type": "electric_scooter"}, {"fusion_lon": 0.0, "name": "912cccf5adaf3939de7596b2372a3acc", "rental_uris": {"android": "https://dc.lft.to/lastmile_qr_scan", "ios": "https://dc.lft.to/lastmile_qr_scan"}, "lat": 38.9207205, "bike_id": "912cccf5adaf3939de7596b2372a3acc", "is_disabled": 0, "lon": -77.02446266666666, "is_reserved": 0, "fusion_lat": 0.0, "type": "electric_scooter"}, {"fusion_lon": 0.0, "name": "24550df1f674b11e8f17a331885bbae8", "rental_uris": {"android": "https://dc.lft.to/lastmile_qr_scan", "ios": "https://dc.lft.to/lastmile_qr_scan"}, "lat": 38.91337683333333, "bike_id": "24550df1f674b11e8f17a331885bbae8", "is_disabled": 0, "lon": -77.01604533333334, "is_reserved": 0, "fusion_lat": 0.0, "type": "electric_scooter"}, {"fusion_lon": 0.0, "name": "7d70d4a23eeb6e02249687aa5c9820db", "rental_uris": {"android": "https://dc.lft.to/lastmile_qr_scan", "ios": "https://dc.lft.to/lastmile_qr_scan"}, "lat": 38.95464833333333, "bike_id": "7d70d4a23eeb6e02249687aa5c9820db", "is_disabled": 0, "lon": -77.07012283333333, "is_reserved": 0, "fusion_lat": 0.0, "type": "electric_scooter"}, {"fusion_lon": 0.0, "name": "5bc8d33e6edf1cef89b2c94569610c65", "rental_uris": {"android": "https://dc.lft.to/lastmile_qr_scan", "ios": "https://dc.lft.to/lastmile_qr_scan"}, "lat": 38.9558515, "bike_id": "5bc8d33e6edf1cef89b2c94569610c65", "is_disabled": 0, "lon": -77.07018866666667, "is_reserved": 0, "fusion_lat": 0.0, "type": "electric_scooter"}, {"fusion_lon": 0.0, "name": "8bbebc8e594ae38f85d6e5e3075ac30a", "rental_uris": {"android": "https://dc.lft.to/lastmile_qr_scan", "ios": "https://dc.lft.to/lastmile_qr_scan"}, "lat": 38.908754333333334, "bike_id": "8bbebc8e594ae38f85d6e5e3075ac30a", "is_disabled": 0, "lon": -77.0355215, "is_reserved": 0, "fusion_lat": 0.0, "type": "electric_scooter"}, {"fusion_lon": 0.0, "name": "015aea27b610951e1ed1bc1bb4013f30", "rental_uris": {"android": "https://dc.lft.to/lastmile_qr_scan", "ios": "https://dc.lft.to/lastmile_qr_scan"}, "lat": 38.987345166666664, "bike_id": "015aea27b610951e1ed1bc1bb4013f30", "is_disabled": 0, "lon": -77.0091515, "is_reserved": 0, "fusion_lat": 0.0, "type": "electric_bike"}, {"fusion_lon": 0.0, "name": "14e679cb27bb71d1d117fcd0f1301dec", "rental_uris": {"android": "https://dc.lft.to/lastmile_qr_scan", "ios": "https://dc.lft.to/lastmile_qr_scan"}, "lat": 38.90577016666667, "bike_id": "14e679cb27bb71d1d117fcd0f1301dec", "is_disabled": 0, "lon": -77.0218455, "is_reserved": 0, "fusion_lat": 0.0, "type": "electric_scooter"}, {"fusion_lon": 0.0, "name": "7a4fc8f3f8cf51cd12a7a4f1f4540f94", "rental_uris": {"android": "https://dc.lft.to/lastmile_qr_scan", "ios": "https://dc.lft.to/lastmile_qr_scan"}, "lat": 38.92879816666667, "bike_id": "7a4fc8f3f8cf51cd12a7a4f1f4540f94", "is_disabled": 0, "lon": -77.03462416666666, "is_reserved": 0, "fusion_lat": 0.0, "type": "electric_scooter"}, {"fusion_lon": 0.0, "name": "449347073d5333525b09f53c4cdf7f47", "rental_uris": {"android": "https://dc.lft.to/lastmile_qr_scan", "ios": "https://dc.lft.to/lastmile_qr_scan"}, "lat": 38.90439933333333, "bike_id": "449347073d5333525b09f53c4cdf7f47", "is_disabled": 0, "lon": -77.053252, "is_reserved": 0, "fusion_lat": 0.0, "type": "electric_scooter"}, {"fusion_lon": 0.0, "name": "486b618d09ff412239fb0ed0e728c825", "rental_uris": {"android": "https://dc.lft.to/lastmile_qr_scan", "ios": "https://dc.lft.to/lastmile_qr_scan"}, "lat": 38.899061, "bike_id": "486b618d09ff412239fb0ed0e728c825", "is_disabled": 0, "lon": -76.9338985, "is_reserved": 0, "fusion_lat": 0.0, "type": "electric_scooter"}, {"fusion_lon": 0.0, "name": "6c30508d369c6832d264dabce677fbb6", "rental_uris": {"android": "https://dc.lft.to/lastmile_qr_scan", "ios": "https://dc.lft.to/lastmile_qr_scan"}, "lat": 38.917887, "bike_id": "6c30508d369c6832d264dabce677fbb6", "is_disabled": 0, "lon": -77.04013683333334, "is_reserved": 0, "fusion_lat": 0.0, "type": "electric_scooter"}, {"fusion_lon": 0.0, "name": "2c4672ef80bd78f4d8d0018cd64a9ece", "rental_uris": {"android": "https://dc.lft.to/lastmile_qr_scan", "ios": "https://dc.lft.to/lastmile_qr_scan"}, "lat": 38.933564833333335, "bike_id": "2c4672ef80bd78f4d8d0018cd64a9ece", "is_disabled": 0, "lon": -77.08576566666666, "is_reserved": 0, "fusion_lat": 0.0, "type": "electric_scooter"}, {"fusion_lon": 0.0, "name": "3d2f5c5896809b6334df294f332ca363", "rental_uris": {"android": "https://dc.lft.to/lastmile_qr_scan", "ios": "https://dc.lft.to/lastmile_qr_scan"}, "lat": 38.876981, "bike_id": "3d2f5c5896809b6334df294f332ca363", "is_disabled": 0, "lon": -76.9961145, "is_reserved": 0, "fusion_lat": 0.0, "type": "electric_scooter"}, {"fusion_lon": 0.0, "name": "678c1cfa84c8d7eef7705b32adc3aebb", "rental_uris": {"android": "https://dc.lft.to/lastmile_qr_scan", "ios": "https://dc.lft.to/lastmile_qr_scan"}, "lat": 38.88374616666667, "bike_id": "678c1cfa84c8d7eef7705b32adc3aebb", "is_disabled": 0, "lon": -76.9951675, "is_reserved": 0, "fusion_lat": 0.0, "type": "electric_scooter"}, {"fusion_lon": 0.0, "name": "e9ebee1b5d17cd1ffef9c6b82d7d3879", "rental_uris": {"android": "https://dc.lft.to/lastmile_qr_scan", "ios": "https://dc.lft.to/lastmile_qr_scan"}, "lat": 38.9182065, "bike_id": "e9ebee1b5d17cd1ffef9c6b82d7d3879", "is_disabled": 0, "lon": -77.03663483333334, "is_reserved": 0, "fusion_lat": 0.0, "type": "electric_scooter"}, {"fusion_lon": 0.0, "name": "0ec0e359eda8027aa5ab3af0c611f7db", "rental_uris": {"android": "https://dc.lft.to/lastmile_qr_scan", "ios": "https://dc.lft.to/lastmile_qr_scan"}, "lat": 38.805671833333335, "bike_id": "0ec0e359eda8027aa5ab3af0c611f7db", "is_disabled": 0, "lon": -77.13224883333334, "is_reserved": 0, "fusion_lat": 0.0, "type": "electric_bike"}, {"fusion_lon": 0.0, "name": "3f11f9dd7902cd32b5aea566609ad962", "rental_uris": {"android": "https://dc.lft.to/lastmile_qr_scan", "ios": "https://dc.lft.to/lastmile_qr_scan"}, "lat": 38.91930716666667, "bike_id": "3f11f9dd7902cd32b5aea566609ad962", "is_disabled": 0, "lon": -77.0249895, "is_reserved": 0, "fusion_lat": 0.0, "type": "electric_scooter"}, {"fusion_lon": 0.0, "name": "4d5d8917dc5fb7494a12c4c73965a76a", "rental_uris": {"android": "https://dc.lft.to/lastmile_qr_scan", "ios": "https://dc.lft.to/lastmile_qr_scan"}, "lat": 38.914526333333335, "bike_id": "4d5d8917dc5fb7494a12c4c73965a76a", "is_disabled": 0, "lon": -76.97267466666666, "is_reserved": 0, "fusion_lat": 0.0, "type": "electric_scooter"}, {"fusion_lon": 0.0, "name": "3ab6fe21617f2ffadf7ff0e6cfa824c6", "rental_uris": {"android": "https://dc.lft.to/lastmile_qr_scan", "ios": "https://dc.lft.to/lastmile_qr_scan"}, "lat": 39.00381266666667, "bike_id": "3ab6fe21617f2ffadf7ff0e6cfa824c6", "is_disabled": 0, "lon": -77.01286816666666, "is_reserved": 0, "fusion_lat": 0.0, "type": "electric_bike"}, {"fusion_lon": 0.0, "name": "8688392576f0d528001c0514c78c9b2e", "rental_uris": {"android": "https://dc.lft.to/lastmile_qr_scan", "ios": "https://dc.lft.to/lastmile_qr_scan"}, "lat": 38.88070066666667, "bike_id": "8688392576f0d528001c0514c78c9b2e", "is_disabled": 0, "lon": -77.02540266666666, "is_reserved": 0, "fusion_lat": 0.0, "type": "electric_scooter"}, {"fusion_lon": 0.0, "name": "beea0010b8c264732c7ac37fbf6b5bba", "rental_uris": {"android": "https://dc.lft.to/lastmile_qr_scan", "ios": "https://dc.lft.to/lastmile_qr_scan"}, "lat": 38.895491666666665, "bike_id": "beea0010b8c264732c7ac37fbf6b5bba", "is_disabled": 0, "lon": -76.983399, "is_reserved": 0, "fusion_lat": 0.0, "type": "electric_scooter"}, {"fusion_lon": 0.0, "name": "d59d0f97b70fc81b59d4b29a5b824a30", "rental_uris": {"android": "https://dc.lft.to/lastmile_qr_scan", "ios": "https://dc.lft.to/lastmile_qr_scan"}, "lat": 38.8947145, "bike_id": "d59d0f97b70fc81b59d4b29a5b824a30", "is_disabled": 0, "lon": -76.997114, "is_reserved": 0, "fusion_lat": 0.0, "type": "electric_scooter"}, {"fusion_lon": 0.0, "name": "3a99757bebd2c8b7c6e132de9cf59bfb", "rental_uris": {"android": "https://dc.lft.to/lastmile_qr_scan", "ios": "https://dc.lft.to/lastmile_qr_scan"}, "lat": 38.80684733333333, "bike_id": "3a99757bebd2c8b7c6e132de9cf59bfb", "is_disabled": 0, "lon": -77.13381366666667, "is_reserved": 0, "fusion_lat": 0.0, "type": "electric_bike"}, {"fusion_lon": 0.0, "name": "f092c779b523276b5866a1b32dd2aa2b", "rental_uris": {"android": "https://dc.lft.to/lastmile_qr_scan", "ios": "https://dc.lft.to/lastmile_qr_scan"}, "lat": 38.900329, "bike_id": "f092c779b523276b5866a1b32dd2aa2b", "is_disabled": 0, "lon": -76.988373, "is_reserved": 0, "fusion_lat": 0.0, "type": "electric_scooter"}, {"fusion_lon": 0.0, "name": "21555e42ae07516d8a537cb34ac4d2e0", "rental_uris": {"android": "https://dc.lft.to/lastmile_qr_scan", "ios": "https://dc.lft.to/lastmile_qr_scan"}, "lat": 38.90178866666667, "bike_id": "21555e42ae07516d8a537cb34ac4d2e0", "is_disabled": 0, "lon": -77.02401266666666, "is_reserved": 0, "fusion_lat": 0.0, "type": "electric_scooter"}, {"fusion_lon": 0.0, "name": "9553f81d4e2eec870a8712603cff8c56", "rental_uris": {"android": "https://dc.lft.to/lastmile_qr_scan", "ios": "https://dc.lft.to/lastmile_qr_scan"}, "lat": 38.94263683333333, "bike_id": "9553f81d4e2eec870a8712603cff8c56", "is_disabled": 0, "lon": -76.99066933333333, "is_reserved": 0, "fusion_lat": 0.0, "type": "electric_bike"}, {"fusion_lon": 0.0, "name": "fc3ad9526b11cd1f0635ade7c6f63ca8", "rental_uris": {"android": "https://dc.lft.to/lastmile_qr_scan", "ios": "https://dc.lft.to/lastmile_qr_scan"}, "lat": 38.922376666666665, "bike_id": "fc3ad9526b11cd1f0635ade7c6f63ca8", "is_disabled": 0, "lon": -77.0308085, "is_reserved": 0, "fusion_lat": 0.0, "type": "electric_scooter"}, {"fusion_lon": 0.0, "name": "4a35fd951ef7982c9aed9aac7e3c425d", "rental_uris": {"android": "https://dc.lft.to/lastmile_qr_scan", "ios": "https://dc.lft.to/lastmile_qr_scan"}, "lat": 38.899045, "bike_id": "4a35fd951ef7982c9aed9aac7e3c425d", "is_disabled": 0, "lon": -77.0329315, "is_reserved": 0, "fusion_lat": 0.0, "type": "electric_scooter"}, {"fusion_lon": 0.0, "name": "4cab5071ee7c54195179c9d91ddd0642", "rental_uris": {"android": "https://dc.lft.to/lastmile_qr_scan", "ios": "https://dc.lft.to/lastmile_qr_scan"}, "lat": 38.9640645, "bike_id": "4cab5071ee7c54195179c9d91ddd0642", "is_disabled": 0, "lon": -77.0276995, "is_reserved": 0, "fusion_lat": 0.0, "type": "electric_scooter"}, {"fusion_lon": 0.0, "name": "6cf3e5ecbf826eaf89dbe471ebfc9623", "rental_uris": {"android": "https://dc.lft.to/lastmile_qr_scan", "ios": "https://dc.lft.to/lastmile_qr_scan"}, "lat": 38.91671816666667, "bike_id": "6cf3e5ecbf826eaf89dbe471ebfc9623", "is_disabled": 0, "lon": -77.0461465, "is_reserved": 0, "fusion_lat": 0.0, "type": "electric_scooter"}, {"fusion_lon": 0.0, "name": "8b2ba3dd7761d182e218691fabba5c88", "rental_uris": {"android": "https://dc.lft.to/lastmile_qr_scan", "ios": "https://dc.lft.to/lastmile_qr_scan"}, "lat": 38.90366783333333, "bike_id": "8b2ba3dd7761d182e218691fabba5c88", "is_disabled": 0, "lon": -77.0175495, "is_reserved": 0, "fusion_lat": 0.0, "type": "electric_scooter"}, {"fusion_lon": 0.0, "name": "7697d6d801aee651622497d96626cecf", "rental_uris": {"android": "https://dc.lft.to/lastmile_qr_scan", "ios": "https://dc.lft.to/lastmile_qr_scan"}, "lat": 38.928113333333336, "bike_id": "7697d6d801aee651622497d96626cecf", "is_disabled": 0, "lon": -77.03142833333334, "is_reserved": 0, "fusion_lat": 0.0, "type": "electric_scooter"}, {"fusion_lon": 0.0, "name": "235b93125d911af1bf526c49c778c1a6", "rental_uris": {"android": "https://dc.lft.to/lastmile_qr_scan", "ios": "https://dc.lft.to/lastmile_qr_scan"}, "lat": 38.840532333333336, "bike_id": "235b93125d911af1bf526c49c778c1a6", "is_disabled": 0, "lon": -76.9766575, "is_reserved": 0, "fusion_lat": 0.0, "type": "electric_scooter"}, {"fusion_lon": 0.0, "name": "68702bdb1cf98f25f1114e18b7baf351", "rental_uris": {"android": "https://dc.lft.to/lastmile_qr_scan", "ios": "https://dc.lft.to/lastmile_qr_scan"}, "lat": 38.917032, "bike_id": "68702bdb1cf98f25f1114e18b7baf351", "is_disabled": 0, "lon": -77.04225233333334, "is_reserved": 0, "fusion_lat": 0.0, "type": "electric_scooter"}, {"fusion_lon": 0.0, "name": "22103d8cb0821ad9c69fcb42129d6187", "rental_uris": {"android": "https://dc.lft.to/lastmile_qr_scan", "ios": "https://dc.lft.to/lastmile_qr_scan"}, "lat": 38.907318333333336, "bike_id": "22103d8cb0821ad9c69fcb42129d6187", "is_disabled": 0, "lon": -77.02790516666667, "is_reserved": 0, "fusion_lat": 0.0, "type": "electric_scooter"}, {"fusion_lon": 0.0, "name": "517177cd8e5316f37fad9aa83f8d6b85", "rental_uris": {"android": "https://dc.lft.to/lastmile_qr_scan", "ios": "https://dc.lft.to/lastmile_qr_scan"}, "lat": 38.92929066666667, "bike_id": "517177cd8e5316f37fad9aa83f8d6b85", "is_disabled": 0, "lon": -76.99811533333333, "is_reserved": 0, "fusion_lat": 0.0, "type": "electric_scooter"}, {"fusion_lon": 0.0, "name": "298f2691a773cde7adc964d5c433c11d", "rental_uris": {"android": "https://dc.lft.to/lastmile_qr_scan", "ios": "https://dc.lft.to/lastmile_qr_scan"}, "lat": 38.922464833333336, "bike_id": "298f2691a773cde7adc964d5c433c11d", "is_disabled": 0, "lon": -77.04359, "is_reserved": 0, "fusion_lat": 0.0, "type": "electric_scooter"}, {"fusion_lon": 0.0, "name": "a7ac355f78acf97c48ad17f9d28d806f", "rental_uris": {"android": "https://dc.lft.to/lastmile_qr_scan", "ios": "https://dc.lft.to/lastmile_qr_scan"}, "lat": 38.900447, "bike_id": "a7ac355f78acf97c48ad17f9d28d806f", "is_disabled": 0, "lon": -76.98551983333333, "is_reserved": 0, "fusion_lat": 0.0, "type": "electric_scooter"}, {"fusion_lon": 0.0, "name": "86df152454ca1567c6f5f1b6da2bac83", "rental_uris": {"android": "https://dc.lft.to/lastmile_qr_scan", "ios": "https://dc.lft.to/lastmile_qr_scan"}, "lat": 38.93509316666667, "bike_id": "86df152454ca1567c6f5f1b6da2bac83", "is_disabled": 0, "lon": -77.02004933333333, "is_reserved": 0, "fusion_lat": 0.0, "type": "electric_scooter"}, {"fusion_lon": 0.0, "name": "d1eeb9ae398d2fd1671d612de0fe15db", "rental_uris": {"android": "https://dc.lft.to/lastmile_qr_scan", "ios": "https://dc.lft.to/lastmile_qr_scan"}, "lat": 38.90085833333333, "bike_id": "d1eeb9ae398d2fd1671d612de0fe15db", "is_disabled": 0, "lon": -77.04892066666666, "is_reserved": 0, "fusion_lat": 0.0, "type": "electric_scooter"}, {"fusion_lon": 0.0, "name": "de01f66c1f3380c89c89d90f29136367", "rental_uris": {"android": "https://dc.lft.to/lastmile_qr_scan", "ios": "https://dc.lft.to/lastmile_qr_scan"}, "lat": 38.90320283333333, "bike_id": "de01f66c1f3380c89c89d90f29136367", "is_disabled": 0, "lon": -77.01890966666667, "is_reserved": 0, "fusion_lat": 0.0, "type": "electric_scooter"}, {"fusion_lon": 0.0, "name": "1106bfc01aa5b791b3741bf03a6b6b49", "rental_uris": {"android": "https://dc.lft.to/lastmile_qr_scan", "ios": "https://dc.lft.to/lastmile_qr_scan"}, "lat": 38.914193, "bike_id": "1106bfc01aa5b791b3741bf03a6b6b49", "is_disabled": 0, "lon": -77.01798716666667, "is_reserved": 0, "fusion_lat": 0.0, "type": "electric_scooter"}, {"fusion_lon": 0.0, "name": "e3160a87841a88cfbc3704e970eb62c6", "rental_uris": {"android": "https://dc.lft.to/lastmile_qr_scan", "ios": "https://dc.lft.to/lastmile_qr_scan"}, "lat": 38.896649833333335, "bike_id": "e3160a87841a88cfbc3704e970eb62c6", "is_disabled": 0, "lon": -77.0434435, "is_reserved": 0, "fusion_lat": 0.0, "type": "electric_scooter"}, {"fusion_lon": 0.0, "name": "490ce0964f231ee8b656649afbfc0434", "rental_uris": {"android": "https://dc.lft.to/lastmile_qr_scan", "ios": "https://dc.lft.to/lastmile_qr_scan"}, "lat": 38.9227425, "bike_id": "490ce0964f231ee8b656649afbfc0434", "is_disabled": 0, "lon": -77.01940683333333, "is_reserved": 0, "fusion_lat": 0.0, "type": "electric_scooter"}, {"fusion_lon": 0.0, "name": "1f74f2933388fac5696d36eeb9ef6177", "rental_uris": {"android": "https://dc.lft.to/lastmile_qr_scan", "ios": "https://dc.lft.to/lastmile_qr_scan"}, "lat": 38.9356645, "bike_id": "1f74f2933388fac5696d36eeb9ef6177", "is_disabled": 0, "lon": -77.03471483333334, "is_reserved": 0, "fusion_lat": 0.0, "type": "electric_scooter"}, {"fusion_lon": 0.0, "name": "659a0ab8eb88c259fe3818ef101f8bd2", "rental_uris": {"android": "https://dc.lft.to/lastmile_qr_scan", "ios": "https://dc.lft.to/lastmile_qr_scan"}, "lat": 38.920286, "bike_id": "659a0ab8eb88c259fe3818ef101f8bd2", "is_disabled": 0, "lon": -77.01110133333333, "is_reserved": 0, "fusion_lat": 0.0, "type": "electric_scooter"}, {"fusion_lon": 0.0, "name": "9276efba97ef6179d6d109bcb73006c9", "rental_uris": {"android": "https://dc.lft.to/lastmile_qr_scan", "ios": "https://dc.lft.to/lastmile_qr_scan"}, "lat": 38.900253666666664, "bike_id": "9276efba97ef6179d6d109bcb73006c9", "is_disabled": 0, "lon": -76.9986195, "is_reserved": 0, "fusion_lat": 0.0, "type": "electric_scooter"}, {"fusion_lon": 0.0, "name": "391c4aca4df19b4047c062d111fe0497", "rental_uris": {"android": "https://dc.lft.to/lastmile_qr_scan", "ios": "https://dc.lft.to/lastmile_qr_scan"}, "lat": 38.924583166666665, "bike_id": "391c4aca4df19b4047c062d111fe0497", "is_disabled": 0, "lon": -77.02227316666666, "is_reserved": 0, "fusion_lat": 0.0, "type": "electric_scooter"}, {"fusion_lon": 0.0, "name": "ee0c44dbb9b994abc825d440884e0c38", "rental_uris": {"android": "https://dc.lft.to/lastmile_qr_scan", "ios": "https://dc.lft.to/lastmile_qr_scan"}, "lat": 38.90048633333333, "bike_id": "ee0c44dbb9b994abc825d440884e0c38", "is_disabled": 0, "lon": -77.04484216666667, "is_reserved": 0, "fusion_lat": 0.0, "type": "electric_scooter"}, {"fusion_lon": 0.0, "name": "4c0d06fe0e48375e222f1f852b3e3b09", "rental_uris": {"android": "https://dc.lft.to/lastmile_qr_scan", "ios": "https://dc.lft.to/lastmile_qr_scan"}, "lat": 38.908679, "bike_id": "4c0d06fe0e48375e222f1f852b3e3b09", "is_disabled": 0, "lon": -77.0858985, "is_reserved": 0, "fusion_lat": 0.0, "type": "electric_scooter"}, {"fusion_lon": 0.0, "name": "b5f2e08220ea9ac52e2ba0f21cfecad8", "rental_uris": {"android": "https://dc.lft.to/lastmile_qr_scan", "ios": "https://dc.lft.to/lastmile_qr_scan"}, "lat": 38.89619833333333, "bike_id": "b5f2e08220ea9ac52e2ba0f21cfecad8", "is_disabled": 0, "lon": -76.90756016666667, "is_reserved": 0, "fusion_lat": 0.0, "type": "electric_bike"}, {"fusion_lon": 0.0, "name": "86c68f7c82414bdc2e8fa0b0dbd4831d", "rental_uris": {"android": "https://dc.lft.to/lastmile_qr_scan", "ios": "https://dc.lft.to/lastmile_qr_scan"}, "lat": 38.90319983333333, "bike_id": "86c68f7c82414bdc2e8fa0b0dbd4831d", "is_disabled": 0, "lon": -76.98144216666667, "is_reserved": 0, "fusion_lat": 0.0, "type": "electric_scooter"}, {"fusion_lon": 0.0, "name": "f91f246c5bec70794ce4104321802035", "rental_uris": {"android": "https://dc.lft.to/lastmile_qr_scan", "ios": "https://dc.lft.to/lastmile_qr_scan"}, "lat": 38.91458383333333, "bike_id": "f91f246c5bec70794ce4104321802035", "is_disabled": 0, "lon": -77.04172033333333, "is_reserved": 0, "fusion_lat": 0.0, "type": "electric_scooter"}, {"fusion_lon": 0.0, "name": "79ab509b980a495035d5dbb752a3bf3a", "rental_uris": {"android": "https://dc.lft.to/lastmile_qr_scan", "ios": "https://dc.lft.to/lastmile_qr_scan"}, "lat": 38.91342683333333, "bike_id": "79ab509b980a495035d5dbb752a3bf3a", "is_disabled": 0, "lon": -77.002204, "is_reserved": 0, "fusion_lat": 0.0, "type": "electric_scooter"}, {"fusion_lon": 0.0, "name": "25253c4819ded766f82e7d1131b670b1", "rental_uris": {"android": "https://dc.lft.to/lastmile_qr_scan", "ios": "https://dc.lft.to/lastmile_qr_scan"}, "lat": 38.91685016666667, "bike_id": "25253c4819ded766f82e7d1131b670b1", "is_disabled": 0, "lon": -77.01584466666667, "is_reserved": 0, "fusion_lat": 0.0, "type": "electric_scooter"}, {"fusion_lon": 0.0, "name": "db7c6f531a77846bcdeba0862ba6e8b6", "rental_uris": {"android": "https://dc.lft.to/lastmile_qr_scan", "ios": "https://dc.lft.to/lastmile_qr_scan"}, "lat": 38.89565266666666, "bike_id": "db7c6f531a77846bcdeba0862ba6e8b6", "is_disabled": 0, "lon": -77.01106716666666, "is_reserved": 0, "fusion_lat": 0.0, "type": "electric_scooter"}, {"fusion_lon": 0.0, "name": "d039fcfee803f6cfcd5bad085fe00088", "rental_uris": {"android": "https://dc.lft.to/lastmile_qr_scan", "ios": "https://dc.lft.to/lastmile_qr_scan"}, "lat": 38.91292416666667, "bike_id": "d039fcfee803f6cfcd5bad085fe00088", "is_disabled": 0, "lon": -77.02228166666667, "is_reserved": 0, "fusion_lat": 0.0, "type": "electric_bike"}, {"fusion_lon": 0.0, "name": "9bbc7092d207b2757f3ce395cd40548d", "rental_uris": {"android": "https://dc.lft.to/lastmile_qr_scan", "ios": "https://dc.lft.to/lastmile_qr_scan"}, "lat": 38.91497916666667, "bike_id": "9bbc7092d207b2757f3ce395cd40548d", "is_disabled": 0, "lon": -77.01211333333333, "is_reserved": 0, "fusion_lat": 0.0, "type": "electric_scooter"}, {"fusion_lon": 0.0, "name": "548450632aa5b0c6ed7955ba6d7690a0", "rental_uris": {"android": "https://dc.lft.to/lastmile_qr_scan", "ios": "https://dc.lft.to/lastmile_qr_scan"}, "lat": 38.9650025, "bike_id": "548450632aa5b0c6ed7955ba6d7690a0", "is_disabled": 0, "lon": -77.00259466666667, "is_reserved": 0, "fusion_lat": 0.0, "type": "electric_scooter"}, {"fusion_lon": 0.0, "name": "02b46df8ed7501876ba649581e38fe5e", "rental_uris": {"android": "https://dc.lft.to/lastmile_qr_scan", "ios": "https://dc.lft.to/lastmile_qr_scan"}, "lat": 38.90705783333333, "bike_id": "02b46df8ed7501876ba649581e38fe5e", "is_disabled": 0, "lon": -77.03258716666667, "is_reserved": 0, "fusion_lat": 0.0, "type": "electric_scooter"}, {"fusion_lon": 0.0, "name": "0282b86913e63bccd668088a5c93adea", "rental_uris": {"android": "https://dc.lft.to/lastmile_qr_scan", "ios": "https://dc.lft.to/lastmile_qr_scan"}, "lat": 38.911137333333336, "bike_id": "0282b86913e63bccd668088a5c93adea", "is_disabled": 0, "lon": -77.03861383333333, "is_reserved": 0, "fusion_lat": 0.0, "type": "electric_scooter"}, {"fusion_lon": 0.0, "name": "e756f8438f351f159cdd6bde83b3dfa3", "rental_uris": {"android": "https://dc.lft.to/lastmile_qr_scan", "ios": "https://dc.lft.to/lastmile_qr_scan"}, "lat": 38.88435916666667, "bike_id": "e756f8438f351f159cdd6bde83b3dfa3", "is_disabled": 0, "lon": -77.02560316666667, "is_reserved": 0, "fusion_lat": 0.0, "type": "electric_scooter"}, {"fusion_lon": 0.0, "name": "48048f2b39546ddccab214497a4fbe97", "rental_uris": {"android": "https://dc.lft.to/lastmile_qr_scan", "ios": "https://dc.lft.to/lastmile_qr_scan"}, "lat": 38.94184033333333, "bike_id": "48048f2b39546ddccab214497a4fbe97", "is_disabled": 0, "lon": -77.024933, "is_reserved": 0, "fusion_lat": 0.0, "type": "electric_scooter"}, {"fusion_lon": 0.0, "name": "34ee12a9b1e1159a520a18c05d839b39", "rental_uris": {"android": "https://dc.lft.to/lastmile_qr_scan", "ios": "https://dc.lft.to/lastmile_qr_scan"}, "lat": 38.89880016666667, "bike_id": "34ee12a9b1e1159a520a18c05d839b39", "is_disabled": 0, "lon": -76.93188033333334, "is_reserved": 0, "fusion_lat": 0.0, "type": "electric_bike"}, {"fusion_lon": 0.0, "name": "5cc29c56e49904de953c70aa0bbce28f", "rental_uris": {"android": "https://dc.lft.to/lastmile_qr_scan", "ios": "https://dc.lft.to/lastmile_qr_scan"}, "lat": 38.927387833333334, "bike_id": "5cc29c56e49904de953c70aa0bbce28f", "is_disabled": 0, "lon": -77.02283683333333, "is_reserved": 0, "fusion_lat": 0.0, "type": "electric_scooter"}, {"fusion_lon": 0.0, "name": "985ac1bac9d3617cc24351d98ae9abbf", "rental_uris": {"android": "https://dc.lft.to/lastmile_qr_scan", "ios": "https://dc.lft.to/lastmile_qr_scan"}, "lat": 38.91711, "bike_id": "985ac1bac9d3617cc24351d98ae9abbf", "is_disabled": 0, "lon": -77.03863216666667, "is_reserved": 0, "fusion_lat": 0.0, "type": "electric_scooter"}, {"fusion_lon": 0.0, "name": "36a87c93f5f788f8fe737c61de3325c8", "rental_uris": {"android": "https://dc.lft.to/lastmile_qr_scan", "ios": "https://dc.lft.to/lastmile_qr_scan"}, "lat": 38.895841, "bike_id": "36a87c93f5f788f8fe737c61de3325c8", "is_disabled": 0, "lon": -76.94846833333334, "is_reserved": 0, "fusion_lat": 0.0, "type": "electric_scooter"}, {"fusion_lon": 0.0, "name": "5c8597d7420f26b12c65aebf7cf2174d", "rental_uris": {"android": "https://dc.lft.to/lastmile_qr_scan", "ios": "https://dc.lft.to/lastmile_qr_scan"}, "lat": 38.883438, "bike_id": "5c8597d7420f26b12c65aebf7cf2174d", "is_disabled": 0, "lon": -76.9428495, "is_reserved": 0, "fusion_lat": 0.0, "type": "electric_scooter"}, {"fusion_lon": 0.0, "name": "fadadf3309053e31e467b325ad41ca80", "rental_uris": {"android": "https://dc.lft.to/lastmile_qr_scan", "ios": "https://dc.lft.to/lastmile_qr_scan"}, "lat": 38.879386, "bike_id": "fadadf3309053e31e467b325ad41ca80", "is_disabled": 0, "lon": -77.003759, "is_reserved": 0, "fusion_lat": 0.0, "type": "electric_scooter"}, {"fusion_lon": 0.0, "name": "2aa94972c3b891e4d8cc7923786904ca", "rental_uris": {"android": "https://dc.lft.to/lastmile_qr_scan", "ios": "https://dc.lft.to/lastmile_qr_scan"}, "lat": 38.916158, "bike_id": "2aa94972c3b891e4d8cc7923786904ca", "is_disabled": 0, "lon": -77.04149466666667, "is_reserved": 0, "fusion_lat": 0.0, "type": "electric_scooter"}, {"fusion_lon": 0.0, "name": "bf93a35a9d05d71c476a06ac5ece397e", "rental_uris": {"android": "https://dc.lft.to/lastmile_qr_scan", "ios": "https://dc.lft.to/lastmile_qr_scan"}, "lat": 38.92391933333333, "bike_id": "bf93a35a9d05d71c476a06ac5ece397e", "is_disabled": 0, "lon": -77.030542, "is_reserved": 0, "fusion_lat": 0.0, "type": "electric_scooter"}, {"fusion_lon": 0.0, "name": "0dbee4ef0a78111add5659bbca25f9cc", "rental_uris": {"android": "https://dc.lft.to/lastmile_qr_scan", "ios": "https://dc.lft.to/lastmile_qr_scan"}, "lat": 38.900889, "bike_id": "0dbee4ef0a78111add5659bbca25f9cc", "is_disabled": 0, "lon": -77.02178766666667, "is_reserved": 0, "fusion_lat": 0.0, "type": "electric_scooter"}, {"fusion_lon": 0.0, "name": "067ec915e6ccd8a2ef067ca9de7a100b", "rental_uris": {"android": "https://dc.lft.to/lastmile_qr_scan", "ios": "https://dc.lft.to/lastmile_qr_scan"}, "lat": 38.91683916666667, "bike_id": "067ec915e6ccd8a2ef067ca9de7a100b", "is_disabled": 0, "lon": -77.03821966666666, "is_reserved": 0, "fusion_lat": 0.0, "type": "electric_scooter"}, {"fusion_lon": 0.0, "name": "42b81283985f80d82ff0a35f75d9c585", "rental_uris": {"android": "https://dc.lft.to/lastmile_qr_scan", "ios": "https://dc.lft.to/lastmile_qr_scan"}, "lat": 38.906135166666665, "bike_id": "42b81283985f80d82ff0a35f75d9c585", "is_disabled": 0, "lon": -76.99327016666666, "is_reserved": 0, "fusion_lat": 0.0, "type": "electric_scooter"}, {"fusion_lon": 0.0, "name": "8809e1e22e341db93690cf5a5846a463", "rental_uris": {"android": "https://dc.lft.to/lastmile_qr_scan", "ios": "https://dc.lft.to/lastmile_qr_scan"}, "lat": 38.90867633333333, "bike_id": "8809e1e22e341db93690cf5a5846a463", "is_disabled": 0, "lon": -77.03223716666666, "is_reserved": 0, "fusion_lat": 0.0, "type": "electric_scooter"}, {"fusion_lon": 0.0, "name": "7541577c772d0d1558bd38ebc58b05ab", "rental_uris": {"android": "https://dc.lft.to/lastmile_qr_scan", "ios": "https://dc.lft.to/lastmile_qr_scan"}, "lat": 38.92080883333333, "bike_id": "7541577c772d0d1558bd38ebc58b05ab", "is_disabled": 0, "lon": -77.023001, "is_reserved": 0, "fusion_lat": 0.0, "type": "electric_scooter"}, {"fusion_lon": 0.0, "name": "1b80d04b1ba848bbd2724d0d309a05aa", "rental_uris": {"android": "https://dc.lft.to/lastmile_qr_scan", "ios": "https://dc.lft.to/lastmile_qr_scan"}, "lat": 38.87525016666667, "bike_id": "1b80d04b1ba848bbd2724d0d309a05aa", "is_disabled": 0, "lon": -77.01226666666666, "is_reserved": 0, "fusion_lat": 0.0, "type": "electric_scooter"}, {"fusion_lon": 0.0, "name": "da938a69c8db02861d9a12f517981fd6", "rental_uris": {"android": "https://dc.lft.to/lastmile_qr_scan", "ios": "https://dc.lft.to/lastmile_qr_scan"}, "lat": 38.9226005, "bike_id": "da938a69c8db02861d9a12f517981fd6", "is_disabled": 0, "lon": -76.98639416666667, "is_reserved": 0, "fusion_lat": 0.0, "type": "electric_scooter"}, {"fusion_lon": 0.0, "name": "d2b7ae32cb0d77a301b6a1a505514c76", "rental_uris": {"android": "https://dc.lft.to/lastmile_qr_scan", "ios": "https://dc.lft.to/lastmile_qr_scan"}, "lat": 38.973143666666665, "bike_id": "d2b7ae32cb0d77a301b6a1a505514c76", "is_disabled": 0, "lon": -77.02703883333334, "is_reserved": 0, "fusion_lat": 0.0, "type": "electric_scooter"}, {"fusion_lon": 0.0, "name": "d129c408801839d9cdf2cddfc60707b7", "rental_uris": {"android": "https://dc.lft.to/lastmile_qr_scan", "ios": "https://dc.lft.to/lastmile_qr_scan"}, "lat": 38.920646166666664, "bike_id": "d129c408801839d9cdf2cddfc60707b7", "is_disabled": 0, "lon": -77.02300116666666, "is_reserved": 0, "fusion_lat": 0.0, "type": "electric_scooter"}, {"fusion_lon": 0.0, "name": "e0eb6b10ddbd375264337b873b336459", "rental_uris": {"android": "https://dc.lft.to/lastmile_qr_scan", "ios": "https://dc.lft.to/lastmile_qr_scan"}, "lat": 38.90725, "bike_id": "e0eb6b10ddbd375264337b873b336459", "is_disabled": 0, "lon": -77.02788583333333, "is_reserved": 0, "fusion_lat": 0.0, "type": "electric_scooter"}, {"fusion_lon": 0.0, "name": "27220a2227d69d585c2c053ee00286e1", "rental_uris": {"android": "https://dc.lft.to/lastmile_qr_scan", "ios": "https://dc.lft.to/lastmile_qr_scan"}, "lat": 38.9205825, "bike_id": "27220a2227d69d585c2c053ee00286e1", "is_disabled": 0, "lon": -76.99877833333333, "is_reserved": 0, "fusion_lat": 0.0, "type": "electric_scooter"}, {"fusion_lon": 0.0, "name": "82234c56f26dfc3afa58b4981b58f1c0", "rental_uris": {"android": "https://dc.lft.to/lastmile_qr_scan", "ios": "https://dc.lft.to/lastmile_qr_scan"}, "lat": 38.908734833333334, "bike_id": "82234c56f26dfc3afa58b4981b58f1c0", "is_disabled": 0, "lon": -77.04319666666666, "is_reserved": 0, "fusion_lat": 0.0, "type": "electric_scooter"}, {"fusion_lon": 0.0, "name": "32ee108d61911ad60be64e5e88d85c22", "rental_uris": {"android": "https://dc.lft.to/lastmile_qr_scan", "ios": "https://dc.lft.to/lastmile_qr_scan"}, "lat": 38.91020133333333, "bike_id": "32ee108d61911ad60be64e5e88d85c22", "is_disabled": 0, "lon": -77.03856983333333, "is_reserved": 0, "fusion_lat": 0.0, "type": "electric_scooter"}, {"fusion_lon": 0.0, "name": "4f022a06cd76d125bc2fab6cc33bea19", "rental_uris": {"android": "https://dc.lft.to/lastmile_qr_scan", "ios": "https://dc.lft.to/lastmile_qr_scan"}, "lat": 38.93864516666667, "bike_id": "4f022a06cd76d125bc2fab6cc33bea19", "is_disabled": 0, "lon": -77.02465183333334, "is_reserved": 0, "fusion_lat": 0.0, "type": "electric_scooter"}, {"fusion_lon": 0.0, "name": "455c4225fcbe2320c1a958d46492ed97", "rental_uris": {"android": "https://dc.lft.to/lastmile_qr_scan", "ios": "https://dc.lft.to/lastmile_qr_scan"}, "lat": 38.95071083333333, "bike_id": "455c4225fcbe2320c1a958d46492ed97", "is_disabled": 0, "lon": -77.066288, "is_reserved": 0, "fusion_lat": 0.0, "type": "electric_bike"}, {"fusion_lon": 0.0, "name": "6f97cd7e704c2bff3f8c80388e501c01", "rental_uris": {"android": "https://dc.lft.to/lastmile_qr_scan", "ios": "https://dc.lft.to/lastmile_qr_scan"}, "lat": 38.914052833333336, "bike_id": "6f97cd7e704c2bff3f8c80388e501c01", "is_disabled": 0, "lon": -77.0184245, "is_reserved": 0, "fusion_lat": 0.0, "type": "electric_scooter"}, {"fusion_lon": 0.0, "name": "366bf53b17224f0f5b70c839b02d09c8", "rental_uris": {"android": "https://dc.lft.to/lastmile_qr_scan", "ios": "https://dc.lft.to/lastmile_qr_scan"}, "lat": 38.8968225, "bike_id": "366bf53b17224f0f5b70c839b02d09c8", "is_disabled": 0, "lon": -77.0431875, "is_reserved": 0, "fusion_lat": 0.0, "type": "electric_scooter"}, {"fusion_lon": 0.0, "name": "1f8ee59c5e7feb503abbc6d69ebf1ffb", "rental_uris": {"android": "https://dc.lft.to/lastmile_qr_scan", "ios": "https://dc.lft.to/lastmile_qr_scan"}, "lat": 38.914751, "bike_id": "1f8ee59c5e7feb503abbc6d69ebf1ffb", "is_disabled": 0, "lon": -77.021901, "is_reserved": 0, "fusion_lat": 0.0, "type": "electric_scooter"}, {"fusion_lon": 0.0, "name": "b657e4722a608c55a8860c991b4b496b", "rental_uris": {"android": "https://dc.lft.to/lastmile_qr_scan", "ios": "https://dc.lft.to/lastmile_qr_scan"}, "lat": 38.903507166666664, "bike_id": "b657e4722a608c55a8860c991b4b496b", "is_disabled": 0, "lon": -77.06202666666667, "is_reserved": 0, "fusion_lat": 0.0, "type": "electric_scooter"}, {"fusion_lon": 0.0, "name": "6f350b397d616eae835f45040766730c", "rental_uris": {"android": "https://dc.lft.to/lastmile_qr_scan", "ios": "https://dc.lft.to/lastmile_qr_scan"}, "lat": 38.9235825, "bike_id": "6f350b397d616eae835f45040766730c", "is_disabled": 0, "lon": -77.0190565, "is_reserved": 0, "fusion_lat": 0.0, "type": "electric_scooter"}, {"fusion_lon": 0.0, "name": "7e4847516e12d0eb02282c495ffb836a", "rental_uris": {"android": "https://dc.lft.to/lastmile_qr_scan", "ios": "https://dc.lft.to/lastmile_qr_scan"}, "lat": 38.9368435, "bike_id": "7e4847516e12d0eb02282c495ffb836a", "is_disabled": 0, "lon": -77.01938516666667, "is_reserved": 0, "fusion_lat": 0.0, "type": "electric_scooter"}, {"fusion_lon": 0.0, "name": "1ebe570a2349dab405c61d9e268f8b18", "rental_uris": {"android": "https://dc.lft.to/lastmile_qr_scan", "ios": "https://dc.lft.to/lastmile_qr_scan"}, "lat": 38.927931666666666, "bike_id": "1ebe570a2349dab405c61d9e268f8b18", "is_disabled": 0, "lon": -77.03694883333333, "is_reserved": 0, "fusion_lat": 0.0, "type": "electric_scooter"}, {"fusion_lon": 0.0, "name": "30f9db978d1040e57f65734db6fe265f", "rental_uris": {"android": "https://dc.lft.to/lastmile_qr_scan", "ios": "https://dc.lft.to/lastmile_qr_scan"}, "lat": 38.839331666666666, "bike_id": "30f9db978d1040e57f65734db6fe265f", "is_disabled": 0, "lon": -77.0790215, "is_reserved": 0, "fusion_lat": 0.0, "type": "electric_bike"}, {"fusion_lon": 0.0, "name": "77bc5ea1221125660b5dc13aca5c67ef", "rental_uris": {"android": "https://dc.lft.to/lastmile_qr_scan", "ios": "https://dc.lft.to/lastmile_qr_scan"}, "lat": 38.835890666666664, "bike_id": "77bc5ea1221125660b5dc13aca5c67ef", "is_disabled": 0, "lon": -76.99030233333333, "is_reserved": 0, "fusion_lat": 0.0, "type": "electric_bike"}, {"fusion_lon": 0.0, "name": "80e6e34620dd114bcf3840ad07cf1fc3", "rental_uris": {"android": "https://dc.lft.to/lastmile_qr_scan", "ios": "https://dc.lft.to/lastmile_qr_scan"}, "lat": 38.89963, "bike_id": "80e6e34620dd114bcf3840ad07cf1fc3", "is_disabled": 0, "lon": -77.02684883333333, "is_reserved": 0, "fusion_lat": 0.0, "type": "electric_scooter"}, {"fusion_lon": 0.0, "name": "56e2ad48c31f1724f57fbd2d62599571", "rental_uris": {"android": "https://dc.lft.to/lastmile_qr_scan", "ios": "https://dc.lft.to/lastmile_qr_scan"}, "lat": 38.921499, "bike_id": "56e2ad48c31f1724f57fbd2d62599571", "is_disabled": 0, "lon": -77.0352825, "is_reserved": 0, "fusion_lat": 0.0, "type": "electric_scooter"}, {"fusion_lon": 0.0, "name": "156e21302023ae3e5468009dbed69241", "rental_uris": {"android": "https://dc.lft.to/lastmile_qr_scan", "ios": "https://dc.lft.to/lastmile_qr_scan"}, "lat": 38.912695666666664, "bike_id": "156e21302023ae3e5468009dbed69241", "is_disabled": 0, "lon": -77.0333965, "is_reserved": 0, "fusion_lat": 0.0, "type": "electric_scooter"}, {"fusion_lon": 0.0, "name": "0e4c166b9df37585010ad9b16db43725", "rental_uris": {"android": "https://dc.lft.to/lastmile_qr_scan", "ios": "https://dc.lft.to/lastmile_qr_scan"}, "lat": 38.891012333333336, "bike_id": "0e4c166b9df37585010ad9b16db43725", "is_disabled": 0, "lon": -77.002068, "is_reserved": 0, "fusion_lat": 0.0, "type": "electric_scooter"}, {"fusion_lon": 0.0, "name": "f18c2c4b9a8157a8e9f0e72f86eb0414", "rental_uris": {"android": "https://dc.lft.to/lastmile_qr_scan", "ios": "https://dc.lft.to/lastmile_qr_scan"}, "lat": 38.95718516666667, "bike_id": "f18c2c4b9a8157a8e9f0e72f86eb0414", "is_disabled": 0, "lon": -77.0023075, "is_reserved": 0, "fusion_lat": 0.0, "type": "electric_scooter"}, {"fusion_lon": 0.0, "name": "dbd537b9492867aaba25234ae87cc2ba", "rental_uris": {"android": "https://dc.lft.to/lastmile_qr_scan", "ios": "https://dc.lft.to/lastmile_qr_scan"}, "lat": 38.92054433333333, "bike_id": "dbd537b9492867aaba25234ae87cc2ba", "is_disabled": 0, "lon": -77.02440683333333, "is_reserved": 0, "fusion_lat": 0.0, "type": "electric_scooter"}, {"fusion_lon": 0.0, "name": "56210dd9e49b5975554ffdcc3ae3e726", "rental_uris": {"android": "https://dc.lft.to/lastmile_qr_scan", "ios": "https://dc.lft.to/lastmile_qr_scan"}, "lat": 38.9263945, "bike_id": "56210dd9e49b5975554ffdcc3ae3e726", "is_disabled": 0, "lon": -77.03709466666666, "is_reserved": 0, "fusion_lat": 0.0, "type": "electric_scooter"}, {"fusion_lon": 0.0, "name": "4329185ceb107dd0fbd19d4c36792638", "rental_uris": {"android": "https://dc.lft.to/lastmile_qr_scan", "ios": "https://dc.lft.to/lastmile_qr_scan"}, "lat": 38.915781833333334, "bike_id": "4329185ceb107dd0fbd19d4c36792638", "is_disabled": 0, "lon": -77.04642583333333, "is_reserved": 0, "fusion_lat": 0.0, "type": "electric_scooter"}, {"fusion_lon": 0.0, "name": "68d8e083529a0d7cb9f92dffa85d7885", "rental_uris": {"android": "https://dc.lft.to/lastmile_qr_scan", "ios": "https://dc.lft.to/lastmile_qr_scan"}, "lat": 38.930589166666664, "bike_id": "68d8e083529a0d7cb9f92dffa85d7885", "is_disabled": 0, "lon": -77.027862, "is_reserved": 0, "fusion_lat": 0.0, "type": "electric_scooter"}, {"fusion_lon": 0.0, "name": "14cfd90101ef6d7e682e0158fad99602", "rental_uris": {"android": "https://dc.lft.to/lastmile_qr_scan", "ios": "https://dc.lft.to/lastmile_qr_scan"}, "lat": 38.8888025, "bike_id": "14cfd90101ef6d7e682e0158fad99602", "is_disabled": 0, "lon": -76.99034616666667, "is_reserved": 0, "fusion_lat": 0.0, "type": "electric_scooter"}, {"fusion_lon": 0.0, "name": "53cf4e15ee59fa7437f15f342f524ffa", "rental_uris": {"android": "https://dc.lft.to/lastmile_qr_scan", "ios": "https://dc.lft.to/lastmile_qr_scan"}, "lat": 38.903394, "bike_id": "53cf4e15ee59fa7437f15f342f524ffa", "is_disabled": 0, "lon": -76.97607433333333, "is_reserved": 0, "fusion_lat": 0.0, "type": "electric_scooter"}, {"fusion_lon": 0.0, "name": "2f96bdd1cdb22dea13c93239dd690155", "rental_uris": {"android": "https://dc.lft.to/lastmile_qr_scan", "ios": "https://dc.lft.to/lastmile_qr_scan"}, "lat": 38.92355666666667, "bike_id": "2f96bdd1cdb22dea13c93239dd690155", "is_disabled": 0, "lon": -77.050908, "is_reserved": 0, "fusion_lat": 0.0, "type": "electric_scooter"}, {"fusion_lon": 0.0, "name": "c279566917eb641a3589a40c76b7d4c9", "rental_uris": {"android": "https://dc.lft.to/lastmile_qr_scan", "ios": "https://dc.lft.to/lastmile_qr_scan"}, "lat": 38.91903933333333, "bike_id": "c279566917eb641a3589a40c76b7d4c9", "is_disabled": 0, "lon": -77.10171766666667, "is_reserved": 0, "fusion_lat": 0.0, "type": "electric_bike"}, {"fusion_lon": 0.0, "name": "f6004e189729746188d055b74d4fcfbb", "rental_uris": {"android": "https://dc.lft.to/lastmile_qr_scan", "ios": "https://dc.lft.to/lastmile_qr_scan"}, "lat": 38.891393, "bike_id": "f6004e189729746188d055b74d4fcfbb", "is_disabled": 0, "lon": -76.99941283333334, "is_reserved": 0, "fusion_lat": 0.0, "type": "electric_scooter"}, {"fusion_lon": 0.0, "name": "b6c5fa8e1781500d4bd64fca4620ae43", "rental_uris": {"android": "https://dc.lft.to/lastmile_qr_scan", "ios": "https://dc.lft.to/lastmile_qr_scan"}, "lat": 38.964035, "bike_id": "b6c5fa8e1781500d4bd64fca4620ae43", "is_disabled": 0, "lon": -77.02588416666667, "is_reserved": 0, "fusion_lat": 0.0, "type": "electric_scooter"}, {"fusion_lon": 0.0, "name": "9935a7149bb39e12662946f3780a4465", "rental_uris": {"android": "https://dc.lft.to/lastmile_qr_scan", "ios": "https://dc.lft.to/lastmile_qr_scan"}, "lat": 38.909809333333335, "bike_id": "9935a7149bb39e12662946f3780a4465", "is_disabled": 0, "lon": -77.07336683333334, "is_reserved": 0, "fusion_lat": 0.0, "type": "electric_scooter"}, {"fusion_lon": 0.0, "name": "3689e0f93f807b91b336a00c8a528c5f", "rental_uris": {"android": "https://dc.lft.to/lastmile_qr_scan", "ios": "https://dc.lft.to/lastmile_qr_scan"}, "lat": 38.89480433333333, "bike_id": "3689e0f93f807b91b336a00c8a528c5f", "is_disabled": 0, "lon": -77.02022433333333, "is_reserved": 0, "fusion_lat": 0.0, "type": "electric_scooter"}, {"fusion_lon": 0.0, "name": "2b3549bd5f1972cc952cbec05198ae54", "rental_uris": {"android": "https://dc.lft.to/lastmile_qr_scan", "ios": "https://dc.lft.to/lastmile_qr_scan"}, "lat": 38.9209185, "bike_id": "2b3549bd5f1972cc952cbec05198ae54", "is_disabled": 0, "lon": -77.0043675, "is_reserved": 0, "fusion_lat": 0.0, "type": "electric_scooter"}, {"fusion_lon": 0.0, "name": "a708aeac70448dd487c0dea22f121ead", "rental_uris": {"android": "https://dc.lft.to/lastmile_qr_scan", "ios": "https://dc.lft.to/lastmile_qr_scan"}, "lat": 38.89572583333333, "bike_id": "a708aeac70448dd487c0dea22f121ead", "is_disabled": 0, "lon": -76.99409233333333, "is_reserved": 0, "fusion_lat": 0.0, "type": "electric_scooter"}, {"fusion_lon": 0.0, "name": "6c7eb56148d5f63d5427fd078e4afc72", "rental_uris": {"android": "https://dc.lft.to/lastmile_qr_scan", "ios": "https://dc.lft.to/lastmile_qr_scan"}, "lat": 38.9226495, "bike_id": "6c7eb56148d5f63d5427fd078e4afc72", "is_disabled": 0, "lon": -77.03664483333333, "is_reserved": 0, "fusion_lat": 0.0, "type": "electric_scooter"}, {"fusion_lon": 0.0, "name": "2453bf8c8114da8cc41e1acfd542c0b9", "rental_uris": {"android": "https://dc.lft.to/lastmile_qr_scan", "ios": "https://dc.lft.to/lastmile_qr_scan"}, "lat": 38.930646, "bike_id": "2453bf8c8114da8cc41e1acfd542c0b9", "is_disabled": 0, "lon": -77.027865, "is_reserved": 0, "fusion_lat": 0.0, "type": "electric_scooter"}, {"fusion_lon": 0.0, "name": "53cb41b83602dd790ce18c1e816db006", "rental_uris": {"android": "https://dc.lft.to/lastmile_qr_scan", "ios": "https://dc.lft.to/lastmile_qr_scan"}, "lat": 38.92914566666666, "bike_id": "53cb41b83602dd790ce18c1e816db006", "is_disabled": 0, "lon": -77.03282933333334, "is_reserved": 0, "fusion_lat": 0.0, "type": "electric_scooter"}, {"fusion_lon": 0.0, "name": "523faea57aa3c91c343a45fc5bf707c8", "rental_uris": {"android": "https://dc.lft.to/lastmile_qr_scan", "ios": "https://dc.lft.to/lastmile_qr_scan"}, "lat": 38.90946, "bike_id": "523faea57aa3c91c343a45fc5bf707c8", "is_disabled": 0, "lon": -77.0442085, "is_reserved": 0, "fusion_lat": 0.0, "type": "electric_scooter"}, {"fusion_lon": 0.0, "name": "8543cd3de0eee54951692bb3d91f42b7", "rental_uris": {"android": "https://dc.lft.to/lastmile_qr_scan", "ios": "https://dc.lft.to/lastmile_qr_scan"}, "lat": 38.91183266666667, "bike_id": "8543cd3de0eee54951692bb3d91f42b7", "is_disabled": 0, "lon": -77.03195716666667, "is_reserved": 0, "fusion_lat": 0.0, "type": "electric_scooter"}, {"fusion_lon": 0.0, "name": "8ca80421611eeb0f8a4b2e3517836510", "rental_uris": {"android": "https://dc.lft.to/lastmile_qr_scan", "ios": "https://dc.lft.to/lastmile_qr_scan"}, "lat": 38.90719283333333, "bike_id": "8ca80421611eeb0f8a4b2e3517836510", "is_disabled": 0, "lon": -77.04082416666667, "is_reserved": 0, "fusion_lat": 0.0, "type": "electric_scooter"}, {"fusion_lon": 0.0, "name": "b42532395e5f7ef2baa27111b68fd155", "rental_uris": {"android": "https://dc.lft.to/lastmile_qr_scan", "ios": "https://dc.lft.to/lastmile_qr_scan"}, "lat": 38.91697666666666, "bike_id": "b42532395e5f7ef2baa27111b68fd155", "is_disabled": 0, "lon": -77.03827916666667, "is_reserved": 0, "fusion_lat": 0.0, "type": "electric_scooter"}, {"fusion_lon": 0.0, "name": "4c561b8880e8d275d47dda9dc364e100", "rental_uris": {"android": "https://dc.lft.to/lastmile_qr_scan", "ios": "https://dc.lft.to/lastmile_qr_scan"}, "lat": 38.883887333333334, "bike_id": "4c561b8880e8d275d47dda9dc364e100", "is_disabled": 0, "lon": -76.98558516666667, "is_reserved": 0, "fusion_lat": 0.0, "type": "electric_scooter"}, {"fusion_lon": 0.0, "name": "aa3a76afca35471273960658cda70bdc", "rental_uris": {"android": "https://dc.lft.to/lastmile_qr_scan", "ios": "https://dc.lft.to/lastmile_qr_scan"}, "lat": 39.094369666666665, "bike_id": "aa3a76afca35471273960658cda70bdc", "is_disabled": 0, "lon": -77.13458283333334, "is_reserved": 0, "fusion_lat": 0.0, "type": "electric_bike"}, {"fusion_lon": 0.0, "name": "9bf2900e09a526c577aa85f84e6480c8", "rental_uris": {"android": "https://dc.lft.to/lastmile_qr_scan", "ios": "https://dc.lft.to/lastmile_qr_scan"}, "lat": 38.93639616666667, "bike_id": "9bf2900e09a526c577aa85f84e6480c8", "is_disabled": 0, "lon": -77.06005533333334, "is_reserved": 0, "fusion_lat": 0.0, "type": "electric_scooter"}, {"fusion_lon": 0.0, "name": "724eeb1f61bab695d7d485ba3cd631c4", "rental_uris": {"android": "https://dc.lft.to/lastmile_qr_scan", "ios": "https://dc.lft.to/lastmile_qr_scan"}, "lat": 38.89484916666667, "bike_id": "724eeb1f61bab695d7d485ba3cd631c4", "is_disabled": 0, "lon": -77.021614, "is_reserved": 0, "fusion_lat": 0.0, "type": "electric_scooter"}, {"fusion_lon": 0.0, "name": "522a3f7752ee6f17b31fde37fe36c7f6", "rental_uris": {"android": "https://dc.lft.to/lastmile_qr_scan", "ios": "https://dc.lft.to/lastmile_qr_scan"}, "lat": 38.90105616666666, "bike_id": "522a3f7752ee6f17b31fde37fe36c7f6", "is_disabled": 0, "lon": -77.049782, "is_reserved": 0, "fusion_lat": 0.0, "type": "electric_scooter"}, {"fusion_lon": 0.0, "name": "004cbbcff76964d48dc7d3dead51f064", "rental_uris": {"android": "https://dc.lft.to/lastmile_qr_scan", "ios": "https://dc.lft.to/lastmile_qr_scan"}, "lat": 38.91906266666667, "bike_id": "004cbbcff76964d48dc7d3dead51f064", "is_disabled": 0, "lon": -77.01360416666667, "is_reserved": 0, "fusion_lat": 0.0, "type": "electric_scooter"}, {"fusion_lon": 0.0, "name": "515ad242ade215da59a5cf5d3bbd3b77", "rental_uris": {"android": "https://dc.lft.to/lastmile_qr_scan", "ios": "https://dc.lft.to/lastmile_qr_scan"}, "lat": 38.898857, "bike_id": "515ad242ade215da59a5cf5d3bbd3b77", "is_disabled": 0, "lon": -77.03290033333333, "is_reserved": 0, "fusion_lat": 0.0, "type": "electric_scooter"}, {"fusion_lon": 0.0, "name": "a2c00e1809f621c19904d0e6db273373", "rental_uris": {"android": "https://dc.lft.to/lastmile_qr_scan", "ios": "https://dc.lft.to/lastmile_qr_scan"}, "lat": 38.9238045, "bike_id": "a2c00e1809f621c19904d0e6db273373", "is_disabled": 0, "lon": -77.02127883333333, "is_reserved": 0, "fusion_lat": 0.0, "type": "electric_scooter"}, {"fusion_lon": 0.0, "name": "f09aaab4148742f669c1a9413ef4dae6", "rental_uris": {"android": "https://dc.lft.to/lastmile_qr_scan", "ios": "https://dc.lft.to/lastmile_qr_scan"}, "lat": 38.90075433333333, "bike_id": "f09aaab4148742f669c1a9413ef4dae6", "is_disabled": 0, "lon": -77.01299383333334, "is_reserved": 0, "fusion_lat": 0.0, "type": "electric_scooter"}, {"fusion_lon": 0.0, "name": "286e05c38c1a7cadf6350caed8d784e2", "rental_uris": {"android": "https://dc.lft.to/lastmile_qr_scan", "ios": "https://dc.lft.to/lastmile_qr_scan"}, "lat": 38.9127295, "bike_id": "286e05c38c1a7cadf6350caed8d784e2", "is_disabled": 0, "lon": -77.02209833333333, "is_reserved": 0, "fusion_lat": 0.0, "type": "electric_scooter"}, {"fusion_lon": 0.0, "name": "804305e3117abc8a86f69bed9f0debca", "rental_uris": {"android": "https://dc.lft.to/lastmile_qr_scan", "ios": "https://dc.lft.to/lastmile_qr_scan"}, "lat": 38.90007766666667, "bike_id": "804305e3117abc8a86f69bed9f0debca", "is_disabled": 0, "lon": -77.02152533333333, "is_reserved": 0, "fusion_lat": 0.0, "type": "electric_scooter"}, {"fusion_lon": 0.0, "name": "c217f0e486e4c783a3b0828c41ebe4fe", "rental_uris": {"android": "https://dc.lft.to/lastmile_qr_scan", "ios": "https://dc.lft.to/lastmile_qr_scan"}, "lat": 38.897114, "bike_id": "c217f0e486e4c783a3b0828c41ebe4fe", "is_disabled": 0, "lon": -76.99116966666666, "is_reserved": 0, "fusion_lat": 0.0, "type": "electric_scooter"}, {"fusion_lon": 0.0, "name": "55f14e7e76de89bcb6f8aab67086ab53", "rental_uris": {"android": "https://dc.lft.to/lastmile_qr_scan", "ios": "https://dc.lft.to/lastmile_qr_scan"}, "lat": 38.942642, "bike_id": "55f14e7e76de89bcb6f8aab67086ab53", "is_disabled": 0, "lon": -77.02841566666666, "is_reserved": 0, "fusion_lat": 0.0, "type": "electric_scooter"}, {"fusion_lon": 0.0, "name": "06e53d143de086b801886b696e050620", "rental_uris": {"android": "https://dc.lft.to/lastmile_qr_scan", "ios": "https://dc.lft.to/lastmile_qr_scan"}, "lat": 38.9002605, "bike_id": "06e53d143de086b801886b696e050620", "is_disabled": 0, "lon": -77.0467105, "is_reserved": 0, "fusion_lat": 0.0, "type": "electric_scooter"}, {"fusion_lon": 0.0, "name": "10be020c2aa42d026fef1fab444b8eef", "rental_uris": {"android": "https://dc.lft.to/lastmile_qr_scan", "ios": "https://dc.lft.to/lastmile_qr_scan"}, "lat": 38.92362033333333, "bike_id": "10be020c2aa42d026fef1fab444b8eef", "is_disabled": 0, "lon": -77.05048816666667, "is_reserved": 0, "fusion_lat": 0.0, "type": "electric_scooter"}, {"fusion_lon": 0.0, "name": "940afc52f10f52583f406f118a4f6486", "rental_uris": {"android": "https://dc.lft.to/lastmile_qr_scan", "ios": "https://dc.lft.to/lastmile_qr_scan"}, "lat": 38.91219516666666, "bike_id": "940afc52f10f52583f406f118a4f6486", "is_disabled": 0, "lon": -77.03177366666667, "is_reserved": 0, "fusion_lat": 0.0, "type": "electric_scooter"}, {"fusion_lon": 0.0, "name": "0374f384a4a970db3c8d735870971806", "rental_uris": {"android": "https://dc.lft.to/lastmile_qr_scan", "ios": "https://dc.lft.to/lastmile_qr_scan"}, "lat": 38.89232583333333, "bike_id": "0374f384a4a970db3c8d735870971806", "is_disabled": 0, "lon": -77.0500085, "is_reserved": 0, "fusion_lat": 0.0, "type": "electric_scooter"}, {"fusion_lon": 0.0, "name": "6028a2d2bdff92836985d4937df830e4", "rental_uris": {"android": "https://dc.lft.to/lastmile_qr_scan", "ios": "https://dc.lft.to/lastmile_qr_scan"}, "lat": 38.91263216666667, "bike_id": "6028a2d2bdff92836985d4937df830e4", "is_disabled": 0, "lon": -77.03274066666667, "is_reserved": 0, "fusion_lat": 0.0, "type": "electric_scooter"}, {"fusion_lon": 0.0, "name": "605693a6c4941bd93a7698ef19e72e14", "rental_uris": {"android": "https://dc.lft.to/lastmile_qr_scan", "ios": "https://dc.lft.to/lastmile_qr_scan"}, "lat": 38.87472983333333, "bike_id": "605693a6c4941bd93a7698ef19e72e14", "is_disabled": 0, "lon": -77.00887116666667, "is_reserved": 0, "fusion_lat": 0.0, "type": "electric_bike"}, {"fusion_lon": 0.0, "name": "34285010827c77d4c32442e7b28f7cdc", "rental_uris": {"android": "https://dc.lft.to/lastmile_qr_scan", "ios": "https://dc.lft.to/lastmile_qr_scan"}, "lat": 38.895964666666664, "bike_id": "34285010827c77d4c32442e7b28f7cdc", "is_disabled": 0, "lon": -77.0480775, "is_reserved": 0, "fusion_lat": 0.0, "type": "electric_scooter"}, {"fusion_lon": 0.0, "name": "060906e876165ae6f1cf10bb7fb21f23", "rental_uris": {"android": "https://dc.lft.to/lastmile_qr_scan", "ios": "https://dc.lft.to/lastmile_qr_scan"}, "lat": 38.88510616666667, "bike_id": "060906e876165ae6f1cf10bb7fb21f23", "is_disabled": 0, "lon": -77.01115683333333, "is_reserved": 0, "fusion_lat": 0.0, "type": "electric_scooter"}, {"fusion_lon": 0.0, "name": "6dde4825a7136c9d8d4aee91d5120a48", "rental_uris": {"android": "https://dc.lft.to/lastmile_qr_scan", "ios": "https://dc.lft.to/lastmile_qr_scan"}, "lat": 38.887640166666664, "bike_id": "6dde4825a7136c9d8d4aee91d5120a48", "is_disabled": 0, "lon": -76.997597, "is_reserved": 0, "fusion_lat": 0.0, "type": "electric_scooter"}, {"fusion_lon": 0.0, "name": "42fc199815f5f822cb8da40b81a8132e", "rental_uris": {"android": "https://dc.lft.to/lastmile_qr_scan", "ios": "https://dc.lft.to/lastmile_qr_scan"}, "lat": 38.8717685, "bike_id": "42fc199815f5f822cb8da40b81a8132e", "is_disabled": 0, "lon": -77.00624733333333, "is_reserved": 0, "fusion_lat": 0.0, "type": "electric_scooter"}, {"fusion_lon": 0.0, "name": "03fcc5380a021fb643d625c095d7ecfd", "rental_uris": {"android": "https://dc.lft.to/lastmile_qr_scan", "ios": "https://dc.lft.to/lastmile_qr_scan"}, "lat": 38.934433166666665, "bike_id": "03fcc5380a021fb643d625c095d7ecfd", "is_disabled": 0, "lon": -77.08967116666666, "is_reserved": 0, "fusion_lat": 0.0, "type": "electric_scooter"}, {"fusion_lon": 0.0, "name": "1657155ca11bc0ee61bb782253eb14e3", "rental_uris": {"android": "https://dc.lft.to/lastmile_qr_scan", "ios": "https://dc.lft.to/lastmile_qr_scan"}, "lat": 38.905983, "bike_id": "1657155ca11bc0ee61bb782253eb14e3", "is_disabled": 0, "lon": -77.025964, "is_reserved": 0, "fusion_lat": 0.0, "type": "electric_scooter"}, {"fusion_lon": 0.0, "name": "542c6feac64e7cab7ec75e44db30978c", "rental_uris": {"android": "https://dc.lft.to/lastmile_qr_scan", "ios": "https://dc.lft.to/lastmile_qr_scan"}, "lat": 38.907048, "bike_id": "542c6feac64e7cab7ec75e44db30978c", "is_disabled": 0, "lon": -77.023832, "is_reserved": 0, "fusion_lat": 0.0, "type": "electric_scooter"}, {"fusion_lon": 0.0, "name": "072f47229ec1364f2b55d728977bd85b", "rental_uris": {"android": "https://dc.lft.to/lastmile_qr_scan", "ios": "https://dc.lft.to/lastmile_qr_scan"}, "lat": 38.923827833333334, "bike_id": "072f47229ec1364f2b55d728977bd85b", "is_disabled": 0, "lon": -77.03041216666666, "is_reserved": 0, "fusion_lat": 0.0, "type": "electric_scooter"}, {"fusion_lon": 0.0, "name": "8500dfa15e2bbcb2c9ef36d0eb13b7ed", "rental_uris": {"android": "https://dc.lft.to/lastmile_qr_scan", "ios": "https://dc.lft.to/lastmile_qr_scan"}, "lat": 38.93836, "bike_id": "8500dfa15e2bbcb2c9ef36d0eb13b7ed", "is_disabled": 0, "lon": -77.02451166666667, "is_reserved": 0, "fusion_lat": 0.0, "type": "electric_scooter"}, {"fusion_lon": 0.0, "name": "ff18592b660177ab60024771ff4488ce", "rental_uris": {"android": "https://dc.lft.to/lastmile_qr_scan", "ios": "https://dc.lft.to/lastmile_qr_scan"}, "lat": 38.902406166666665, "bike_id": "ff18592b660177ab60024771ff4488ce", "is_disabled": 0, "lon": -77.01579766666667, "is_reserved": 0, "fusion_lat": 0.0, "type": "electric_scooter"}, {"fusion_lon": 0.0, "name": "4d307a6524a5495ae7b9061788ccbecc", "rental_uris": {"android": "https://dc.lft.to/lastmile_qr_scan", "ios": "https://dc.lft.to/lastmile_qr_scan"}, "lat": 38.92263716666667, "bike_id": "4d307a6524a5495ae7b9061788ccbecc", "is_disabled": 0, "lon": -77.07328666666666, "is_reserved": 0, "fusion_lat": 0.0, "type": "electric_scooter"}, {"fusion_lon": 0.0, "name": "d47b866d7dd263bd6ee976f931affc48", "rental_uris": {"android": "https://dc.lft.to/lastmile_qr_scan", "ios": "https://dc.lft.to/lastmile_qr_scan"}, "lat": 38.915713833333335, "bike_id": "d47b866d7dd263bd6ee976f931affc48", "is_disabled": 0, "lon": -77.02403533333333, "is_reserved": 0, "fusion_lat": 0.0, "type": "electric_scooter"}, {"fusion_lon": 0.0, "name": "dfadddb5f99a595f389e4ac201df91b3", "rental_uris": {"android": "https://dc.lft.to/lastmile_qr_scan", "ios": "https://dc.lft.to/lastmile_qr_scan"}, "lat": 38.95722633333333, "bike_id": "dfadddb5f99a595f389e4ac201df91b3", "is_disabled": 0, "lon": -77.00231283333333, "is_reserved": 0, "fusion_lat": 0.0, "type": "electric_scooter"}, {"fusion_lon": 0.0, "name": "41a7a1c24935560618b4f1fe48b1dbe7", "rental_uris": {"android": "https://dc.lft.to/lastmile_qr_scan", "ios": "https://dc.lft.to/lastmile_qr_scan"}, "lat": 38.9046385, "bike_id": "41a7a1c24935560618b4f1fe48b1dbe7", "is_disabled": 0, "lon": -77.02950966666667, "is_reserved": 0, "fusion_lat": 0.0, "type": "electric_scooter"}, {"fusion_lon": 0.0, "name": "4549cfae6cd969956b28c375f2321e81", "rental_uris": {"android": "https://dc.lft.to/lastmile_qr_scan", "ios": "https://dc.lft.to/lastmile_qr_scan"}, "lat": 38.969342166666664, "bike_id": "4549cfae6cd969956b28c375f2321e81", "is_disabled": 0, "lon": -77.027072, "is_reserved": 0, "fusion_lat": 0.0, "type": "electric_scooter"}, {"fusion_lon": 0.0, "name": "24be53ca8d4112afd98952524197b73b", "rental_uris": {"android": "https://dc.lft.to/lastmile_qr_scan", "ios": "https://dc.lft.to/lastmile_qr_scan"}, "lat": 38.9003265, "bike_id": "24be53ca8d4112afd98952524197b73b", "is_disabled": 0, "lon": -76.9947705, "is_reserved": 0, "fusion_lat": 0.0, "type": "electric_scooter"}, {"fusion_lon": 0.0, "name": "3aeb3a03021bad91cc7ad9d9aa391fbe", "rental_uris": {"android": "https://dc.lft.to/lastmile_qr_scan", "ios": "https://dc.lft.to/lastmile_qr_scan"}, "lat": 38.92321966666667, "bike_id": "3aeb3a03021bad91cc7ad9d9aa391fbe", "is_disabled": 0, "lon": -77.0377385, "is_reserved": 0, "fusion_lat": 0.0, "type": "electric_scooter"}, {"fusion_lon": 0.0, "name": "fbf922118e3b41013b316a7cb4bdf554", "rental_uris": {"android": "https://dc.lft.to/lastmile_qr_scan", "ios": "https://dc.lft.to/lastmile_qr_scan"}, "lat": 38.9268335, "bike_id": "fbf922118e3b41013b316a7cb4bdf554", "is_disabled": 0, "lon": -77.01489833333333, "is_reserved": 0, "fusion_lat": 0.0, "type": "electric_scooter"}, {"fusion_lon": 0.0, "name": "13f2ed9bd6653934542d9657287dc5cd", "rental_uris": {"android": "https://dc.lft.to/lastmile_qr_scan", "ios": "https://dc.lft.to/lastmile_qr_scan"}, "lat": 38.923773833333335, "bike_id": "13f2ed9bd6653934542d9657287dc5cd", "is_disabled": 0, "lon": -77.0255825, "is_reserved": 0, "fusion_lat": 0.0, "type": "electric_scooter"}, {"fusion_lon": 0.0, "name": "ea3892434ef85efc6306a008efa8d435", "rental_uris": {"android": "https://dc.lft.to/lastmile_qr_scan", "ios": "https://dc.lft.to/lastmile_qr_scan"}, "lat": 38.905281, "bike_id": "ea3892434ef85efc6306a008efa8d435", "is_disabled": 0, "lon": -77.05998016666666, "is_reserved": 0, "fusion_lat": 0.0, "type": "electric_scooter"}, {"fusion_lon": 0.0, "name": "41675e0c863654e116d6dcad2d4f16fc", "rental_uris": {"android": "https://dc.lft.to/lastmile_qr_scan", "ios": "https://dc.lft.to/lastmile_qr_scan"}, "lat": 38.922195333333335, "bike_id": "41675e0c863654e116d6dcad2d4f16fc", "is_disabled": 0, "lon": -77.01813, "is_reserved": 0, "fusion_lat": 0.0, "type": "electric_scooter"}, {"fusion_lon": 0.0, "name": "1ce9e90e6c3c41734cb1a7c7cf74caa1", "rental_uris": {"android": "https://dc.lft.to/lastmile_qr_scan", "ios": "https://dc.lft.to/lastmile_qr_scan"}, "lat": 38.90684733333333, "bike_id": "1ce9e90e6c3c41734cb1a7c7cf74caa1", "is_disabled": 0, "lon": -77.02694066666666, "is_reserved": 0, "fusion_lat": 0.0, "type": "electric_scooter"}, {"fusion_lon": 0.0, "name": "ebd8b6526615f015134c2624d124c17d", "rental_uris": {"android": "https://dc.lft.to/lastmile_qr_scan", "ios": "https://dc.lft.to/lastmile_qr_scan"}, "lat": 38.90128033333333, "bike_id": "ebd8b6526615f015134c2624d124c17d", "is_disabled": 0, "lon": -77.0304615, "is_reserved": 0, "fusion_lat": 0.0, "type": "electric_scooter"}, {"fusion_lon": 0.0, "name": "0d142e8b1a387252489f54507e27b0c6", "rental_uris": {"android": "https://dc.lft.to/lastmile_qr_scan", "ios": "https://dc.lft.to/lastmile_qr_scan"}, "lat": 38.90241366666667, "bike_id": "0d142e8b1a387252489f54507e27b0c6", "is_disabled": 0, "lon": -77.00197966666667, "is_reserved": 0, "fusion_lat": 0.0, "type": "electric_scooter"}, {"fusion_lon": 0.0, "name": "408455d0424e3d4ad55d03138ef1d0db", "rental_uris": {"android": "https://dc.lft.to/lastmile_qr_scan", "ios": "https://dc.lft.to/lastmile_qr_scan"}, "lat": 38.901484333333336, "bike_id": "408455d0424e3d4ad55d03138ef1d0db", "is_disabled": 0, "lon": -77.02160216666667, "is_reserved": 0, "fusion_lat": 0.0, "type": "electric_scooter"}, {"fusion_lon": 0.0, "name": "9df962661851fb0f6118a52f03f6fa61", "rental_uris": {"android": "https://dc.lft.to/lastmile_qr_scan", "ios": "https://dc.lft.to/lastmile_qr_scan"}, "lat": 38.9237075, "bike_id": "9df962661851fb0f6118a52f03f6fa61", "is_disabled": 0, "lon": -77.076381, "is_reserved": 0, "fusion_lat": 0.0, "type": "electric_scooter"}, {"fusion_lon": 0.0, "name": "81f6ead0cbde2a1337a678daa875a877", "rental_uris": {"android": "https://dc.lft.to/lastmile_qr_scan", "ios": "https://dc.lft.to/lastmile_qr_scan"}, "lat": 38.919770166666666, "bike_id": "81f6ead0cbde2a1337a678daa875a877", "is_disabled": 0, "lon": -77.02771066666666, "is_reserved": 0, "fusion_lat": 0.0, "type": "electric_scooter"}, {"fusion_lon": 0.0, "name": "7c3a757147ced17449a88c8f77a6ee01", "rental_uris": {"android": "https://dc.lft.to/lastmile_qr_scan", "ios": "https://dc.lft.to/lastmile_qr_scan"}, "lat": 38.91697283333333, "bike_id": "7c3a757147ced17449a88c8f77a6ee01", "is_disabled": 0, "lon": -77.03630833333334, "is_reserved": 0, "fusion_lat": 0.0, "type": "electric_scooter"}, {"fusion_lon": 0.0, "name": "4283c68d24cd629a04182c633f1e9197", "rental_uris": {"android": "https://dc.lft.to/lastmile_qr_scan", "ios": "https://dc.lft.to/lastmile_qr_scan"}, "lat": 38.92634566666667, "bike_id": "4283c68d24cd629a04182c633f1e9197", "is_disabled": 0, "lon": -77.03504233333334, "is_reserved": 0, "fusion_lat": 0.0, "type": "electric_scooter"}, {"fusion_lon": 0.0, "name": "2d1bc81e20a53527bc1cdaead202170d", "rental_uris": {"android": "https://dc.lft.to/lastmile_qr_scan", "ios": "https://dc.lft.to/lastmile_qr_scan"}, "lat": 38.91648083333333, "bike_id": "2d1bc81e20a53527bc1cdaead202170d", "is_disabled": 0, "lon": -77.0102755, "is_reserved": 0, "fusion_lat": 0.0, "type": "electric_scooter"}, {"fusion_lon": 0.0, "name": "1eba6722886b57132a6bff5b711f059f", "rental_uris": {"android": "https://dc.lft.to/lastmile_qr_scan", "ios": "https://dc.lft.to/lastmile_qr_scan"}, "lat": 38.938536666666664, "bike_id": "1eba6722886b57132a6bff5b711f059f", "is_disabled": 0, "lon": -77.0245165, "is_reserved": 0, "fusion_lat": 0.0, "type": "electric_scooter"}, {"fusion_lon": 0.0, "name": "07849eeb9df8b281418eae6c67d96d16", "rental_uris": {"android": "https://dc.lft.to/lastmile_qr_scan", "ios": "https://dc.lft.to/lastmile_qr_scan"}, "lat": 38.937163166666664, "bike_id": "07849eeb9df8b281418eae6c67d96d16", "is_disabled": 0, "lon": -77.055981, "is_reserved": 0, "fusion_lat": 0.0, "type": "electric_scooter"}, {"fusion_lon": 0.0, "name": "69bfcb18e9c0a1749c3dba981d6709e1", "rental_uris": {"android": "https://dc.lft.to/lastmile_qr_scan", "ios": "https://dc.lft.to/lastmile_qr_scan"}, "lat": 38.828449166666665, "bike_id": "69bfcb18e9c0a1749c3dba981d6709e1", "is_disabled": 0, "lon": -77.05894816666667, "is_reserved": 0, "fusion_lat": 0.0, "type": "electric_bike"}, {"fusion_lon": 0.0, "name": "7d0f9c0a5779ee31f5d573337071e946", "rental_uris": {"android": "https://dc.lft.to/lastmile_qr_scan", "ios": "https://dc.lft.to/lastmile_qr_scan"}, "lat": 38.9171825, "bike_id": "7d0f9c0a5779ee31f5d573337071e946", "is_disabled": 0, "lon": -77.0295955, "is_reserved": 0, "fusion_lat": 0.0, "type": "electric_scooter"}, {"fusion_lon": 0.0, "name": "cc07f5da14e05e66d1f4185962e2324a", "rental_uris": {"android": "https://dc.lft.to/lastmile_qr_scan", "ios": "https://dc.lft.to/lastmile_qr_scan"}, "lat": 38.923442666666666, "bike_id": "cc07f5da14e05e66d1f4185962e2324a", "is_disabled": 0, "lon": -77.05424366666666, "is_reserved": 0, "fusion_lat": 0.0, "type": "electric_scooter"}, {"fusion_lon": 0.0, "name": "2a06d7397eb8bb81963328f5bde430d7", "rental_uris": {"android": "https://dc.lft.to/lastmile_qr_scan", "ios": "https://dc.lft.to/lastmile_qr_scan"}, "lat": 38.899076, "bike_id": "2a06d7397eb8bb81963328f5bde430d7", "is_disabled": 0, "lon": -76.98824266666666, "is_reserved": 0, "fusion_lat": 0.0, "type": "electric_scooter"}, {"fusion_lon": 0.0, "name": "5c5f2bf00f251156c9220c673abe6941", "rental_uris": {"android": "https://dc.lft.to/lastmile_qr_scan", "ios": "https://dc.lft.to/lastmile_qr_scan"}, "lat": 38.92564733333333, "bike_id": "5c5f2bf00f251156c9220c673abe6941", "is_disabled": 0, "lon": -76.99957833333333, "is_reserved": 0, "fusion_lat": 0.0, "type": "electric_scooter"}, {"fusion_lon": 0.0, "name": "86d56d2a4cb82b6fa9f09109772fd308", "rental_uris": {"android": "https://dc.lft.to/lastmile_qr_scan", "ios": "https://dc.lft.to/lastmile_qr_scan"}, "lat": 38.9264555, "bike_id": "86d56d2a4cb82b6fa9f09109772fd308", "is_disabled": 0, "lon": -77.04253133333333, "is_reserved": 0, "fusion_lat": 0.0, "type": "electric_scooter"}, {"fusion_lon": 0.0, "name": "515cfe10e35b9bdab6d5268a8796ad5d", "rental_uris": {"android": "https://dc.lft.to/lastmile_qr_scan", "ios": "https://dc.lft.to/lastmile_qr_scan"}, "lat": 38.8581405, "bike_id": "515cfe10e35b9bdab6d5268a8796ad5d", "is_disabled": 0, "lon": -76.98996716666667, "is_reserved": 0, "fusion_lat": 0.0, "type": "electric_scooter"}, {"fusion_lon": 0.0, "name": "0cee789749900f786415c6179236c51c", "rental_uris": {"android": "https://dc.lft.to/lastmile_qr_scan", "ios": "https://dc.lft.to/lastmile_qr_scan"}, "lat": 38.91723366666667, "bike_id": "0cee789749900f786415c6179236c51c", "is_disabled": 0, "lon": -77.03139, "is_reserved": 0, "fusion_lat": 0.0, "type": "electric_scooter"}, {"fusion_lon": 0.0, "name": "02206f457ebc52e947e1eeb0abc2502a", "rental_uris": {"android": "https://dc.lft.to/lastmile_qr_scan", "ios": "https://dc.lft.to/lastmile_qr_scan"}, "lat": 38.90975383333333, "bike_id": "02206f457ebc52e947e1eeb0abc2502a", "is_disabled": 0, "lon": -77.034248, "is_reserved": 0, "fusion_lat": 0.0, "type": "electric_scooter"}, {"fusion_lon": 0.0, "name": "7ec9abf99c908cc54cc1cd81cba2c292", "rental_uris": {"android": "https://dc.lft.to/lastmile_qr_scan", "ios": "https://dc.lft.to/lastmile_qr_scan"}, "lat": 38.905120833333335, "bike_id": "7ec9abf99c908cc54cc1cd81cba2c292", "is_disabled": 0, "lon": -77.02957083333334, "is_reserved": 0, "fusion_lat": 0.0, "type": "electric_scooter"}, {"fusion_lon": 0.0, "name": "663d66828fa207fd8f4d3aed18ddd1e5", "rental_uris": {"android": "https://dc.lft.to/lastmile_qr_scan", "ios": "https://dc.lft.to/lastmile_qr_scan"}, "lat": 38.912864166666665, "bike_id": "663d66828fa207fd8f4d3aed18ddd1e5", "is_disabled": 0, "lon": -77.02303116666667, "is_reserved": 0, "fusion_lat": 0.0, "type": "electric_scooter"}, {"fusion_lon": 0.0, "name": "e20c55524c2a69fb686649bd67a15ee8", "rental_uris": {"android": "https://dc.lft.to/lastmile_qr_scan", "ios": "https://dc.lft.to/lastmile_qr_scan"}, "lat": 38.92439316666667, "bike_id": "e20c55524c2a69fb686649bd67a15ee8", "is_disabled": 0, "lon": -77.019435, "is_reserved": 0, "fusion_lat": 0.0, "type": "electric_scooter"}, {"fusion_lon": 0.0, "name": "1b4168287d92273a3ad063cac9f0c1ae", "rental_uris": {"android": "https://dc.lft.to/lastmile_qr_scan", "ios": "https://dc.lft.to/lastmile_qr_scan"}, "lat": 38.916104, "bike_id": "1b4168287d92273a3ad063cac9f0c1ae", "is_disabled": 0, "lon": -77.04603833333333, "is_reserved": 0, "fusion_lat": 0.0, "type": "electric_scooter"}, {"fusion_lon": 0.0, "name": "a3e727abc53f403db9ddada1688b0ddc", "rental_uris": {"android": "https://dc.lft.to/lastmile_qr_scan", "ios": "https://dc.lft.to/lastmile_qr_scan"}, "lat": 38.881257, "bike_id": "a3e727abc53f403db9ddada1688b0ddc", "is_disabled": 0, "lon": -76.9928165, "is_reserved": 0, "fusion_lat": 0.0, "type": "electric_scooter"}, {"fusion_lon": 0.0, "name": "09b3381e12fd3f94e0e826160a5c0a99", "rental_uris": {"android": "https://dc.lft.to/lastmile_qr_scan", "ios": "https://dc.lft.to/lastmile_qr_scan"}, "lat": 38.90146133333333, "bike_id": "09b3381e12fd3f94e0e826160a5c0a99", "is_disabled": 0, "lon": -76.98965716666666, "is_reserved": 0, "fusion_lat": 0.0, "type": "electric_scooter"}, {"fusion_lon": 0.0, "name": "76ea761a35c5735a9309d41b050009a0", "rental_uris": {"android": "https://dc.lft.to/lastmile_qr_scan", "ios": "https://dc.lft.to/lastmile_qr_scan"}, "lat": 38.907474666666666, "bike_id": "76ea761a35c5735a9309d41b050009a0", "is_disabled": 0, "lon": -76.9834315, "is_reserved": 0, "fusion_lat": 0.0, "type": "electric_scooter"}, {"fusion_lon": 0.0, "name": "d29884bf8fb7937c6ef637c854b91d09", "rental_uris": {"android": "https://dc.lft.to/lastmile_qr_scan", "ios": "https://dc.lft.to/lastmile_qr_scan"}, "lat": 38.889018, "bike_id": "d29884bf8fb7937c6ef637c854b91d09", "is_disabled": 0, "lon": -76.95226266666667, "is_reserved": 0, "fusion_lat": 0.0, "type": "electric_scooter"}, {"fusion_lon": 0.0, "name": "0c79a784adc6e1826df648b9927b994c", "rental_uris": {"android": "https://dc.lft.to/lastmile_qr_scan", "ios": "https://dc.lft.to/lastmile_qr_scan"}, "lat": 38.956037, "bike_id": "0c79a784adc6e1826df648b9927b994c", "is_disabled": 0, "lon": -76.96473283333333, "is_reserved": 0, "fusion_lat": 0.0, "type": "electric_bike"}, {"fusion_lon": 0.0, "name": "56fe0ea57298c5e1d60d94b8b21dff1c", "rental_uris": {"android": "https://dc.lft.to/lastmile_qr_scan", "ios": "https://dc.lft.to/lastmile_qr_scan"}, "lat": 38.874307, "bike_id": "56fe0ea57298c5e1d60d94b8b21dff1c", "is_disabled": 0, "lon": -77.00028333333333, "is_reserved": 0, "fusion_lat": 0.0, "type": "electric_scooter"}, {"fusion_lon": 0.0, "name": "d280c3f2021325328f8ffdafc6d6c985", "rental_uris": {"android": "https://dc.lft.to/lastmile_qr_scan", "ios": "https://dc.lft.to/lastmile_qr_scan"}, "lat": 38.924356333333336, "bike_id": "d280c3f2021325328f8ffdafc6d6c985", "is_disabled": 0, "lon": -77.003217, "is_reserved": 0, "fusion_lat": 0.0, "type": "electric_scooter"}, {"fusion_lon": 0.0, "name": "c343cd591ecc7272addf16b6bd66a1bf", "rental_uris": {"android": "https://dc.lft.to/lastmile_qr_scan", "ios": "https://dc.lft.to/lastmile_qr_scan"}, "lat": 38.865711166666664, "bike_id": "c343cd591ecc7272addf16b6bd66a1bf", "is_disabled": 0, "lon": -76.9784155, "is_reserved": 0, "fusion_lat": 0.0, "type": "electric_scooter"}, {"fusion_lon": 0.0, "name": "cb56b7570a1a2653711e26ee8815e8b4", "rental_uris": {"android": "https://dc.lft.to/lastmile_qr_scan", "ios": "https://dc.lft.to/lastmile_qr_scan"}, "lat": 38.897296833333336, "bike_id": "cb56b7570a1a2653711e26ee8815e8b4", "is_disabled": 0, "lon": -77.02489883333334, "is_reserved": 0, "fusion_lat": 0.0, "type": "electric_scooter"}, {"fusion_lon": 0.0, "name": "be1fc6153597614b9a168678ebdb5ba4", "rental_uris": {"android": "https://dc.lft.to/lastmile_qr_scan", "ios": "https://dc.lft.to/lastmile_qr_scan"}, "lat": 38.92444116666667, "bike_id": "be1fc6153597614b9a168678ebdb5ba4", "is_disabled": 0, "lon": -77.040304, "is_reserved": 0, "fusion_lat": 0.0, "type": "electric_scooter"}, {"fusion_lon": 0.0, "name": "bb315b43fa6ea0eeb80e7beb05db7768", "rental_uris": {"android": "https://dc.lft.to/lastmile_qr_scan", "ios": "https://dc.lft.to/lastmile_qr_scan"}, "lat": 38.93100483333333, "bike_id": "bb315b43fa6ea0eeb80e7beb05db7768", "is_disabled": 0, "lon": -77.02472866666666, "is_reserved": 0, "fusion_lat": 0.0, "type": "electric_scooter"}, {"fusion_lon": 0.0, "name": "1790de9fb086986ba76608f91e939117", "rental_uris": {"android": "https://dc.lft.to/lastmile_qr_scan", "ios": "https://dc.lft.to/lastmile_qr_scan"}, "lat": 38.915570833333334, "bike_id": "1790de9fb086986ba76608f91e939117", "is_disabled": 0, "lon": -77.03506333333333, "is_reserved": 0, "fusion_lat": 0.0, "type": "electric_scooter"}, {"fusion_lon": 0.0, "name": "7a4ce4a7a71b23147bfad65a010b0154", "rental_uris": {"android": "https://dc.lft.to/lastmile_qr_scan", "ios": "https://dc.lft.to/lastmile_qr_scan"}, "lat": 38.925006, "bike_id": "7a4ce4a7a71b23147bfad65a010b0154", "is_disabled": 0, "lon": -77.07648483333334, "is_reserved": 0, "fusion_lat": 0.0, "type": "electric_scooter"}, {"fusion_lon": 0.0, "name": "22e1d03ee472afee4ec996be00951e1c", "rental_uris": {"android": "https://dc.lft.to/lastmile_qr_scan", "ios": "https://dc.lft.to/lastmile_qr_scan"}, "lat": 38.907328, "bike_id": "22e1d03ee472afee4ec996be00951e1c", "is_disabled": 0, "lon": -77.032104, "is_reserved": 0, "fusion_lat": 0.0, "type": "electric_scooter"}, {"fusion_lon": 0.0, "name": "97cd3007e4e488f7c28e131961ecfc83", "rental_uris": {"android": "https://dc.lft.to/lastmile_qr_scan", "ios": "https://dc.lft.to/lastmile_qr_scan"}, "lat": 38.88621216666667, "bike_id": "97cd3007e4e488f7c28e131961ecfc83", "is_disabled": 0, "lon": -77.03210383333334, "is_reserved": 0, "fusion_lat": 0.0, "type": "electric_scooter"}, {"fusion_lon": 0.0, "name": "3332caa50bc14020b2b1305f74ae6f49", "rental_uris": {"android": "https://dc.lft.to/lastmile_qr_scan", "ios": "https://dc.lft.to/lastmile_qr_scan"}, "lat": 38.862464333333335, "bike_id": "3332caa50bc14020b2b1305f74ae6f49", "is_disabled": 0, "lon": -76.9950095, "is_reserved": 0, "fusion_lat": 0.0, "type": "electric_scooter"}, {"fusion_lon": 0.0, "name": "f43d2c4484aaefccfb808c07f62db31e", "rental_uris": {"android": "https://dc.lft.to/lastmile_qr_scan", "ios": "https://dc.lft.to/lastmile_qr_scan"}, "lat": 38.8995335, "bike_id": "f43d2c4484aaefccfb808c07f62db31e", "is_disabled": 0, "lon": -77.05025616666667, "is_reserved": 0, "fusion_lat": 0.0, "type": "electric_scooter"}, {"fusion_lon": 0.0, "name": "5938ed6ad6b9b6cf39d522855d4d11d0", "rental_uris": {"android": "https://dc.lft.to/lastmile_qr_scan", "ios": "https://dc.lft.to/lastmile_qr_scan"}, "lat": 38.90021516666667, "bike_id": "5938ed6ad6b9b6cf39d522855d4d11d0", "is_disabled": 0, "lon": -77.01213233333333, "is_reserved": 0, "fusion_lat": 0.0, "type": "electric_scooter"}, {"fusion_lon": 0.0, "name": "4809dc05fab7ea48d1461a2e78d19501", "rental_uris": {"android": "https://dc.lft.to/lastmile_qr_scan", "ios": "https://dc.lft.to/lastmile_qr_scan"}, "lat": 38.88055383333333, "bike_id": "4809dc05fab7ea48d1461a2e78d19501", "is_disabled": 0, "lon": -77.01176383333333, "is_reserved": 0, "fusion_lat": 0.0, "type": "electric_scooter"}, {"fusion_lon": 0.0, "name": "47452c736fc1e50d0b15a688a9f78f25", "rental_uris": {"android": "https://dc.lft.to/lastmile_qr_scan", "ios": "https://dc.lft.to/lastmile_qr_scan"}, "lat": 38.901563, "bike_id": "47452c736fc1e50d0b15a688a9f78f25", "is_disabled": 0, "lon": -77.05927316666667, "is_reserved": 0, "fusion_lat": 0.0, "type": "electric_scooter"}, {"fusion_lon": 0.0, "name": "6e2c796350c6e679bcffa2e8eeaab7e2", "rental_uris": {"android": "https://dc.lft.to/lastmile_qr_scan", "ios": "https://dc.lft.to/lastmile_qr_scan"}, "lat": 38.923881333333334, "bike_id": "6e2c796350c6e679bcffa2e8eeaab7e2", "is_disabled": 0, "lon": -77.03050016666667, "is_reserved": 0, "fusion_lat": 0.0, "type": "electric_scooter"}, {"fusion_lon": 0.0, "name": "91e796ae2d47b621b487bf46f496a5b7", "rental_uris": {"android": "https://dc.lft.to/lastmile_qr_scan", "ios": "https://dc.lft.to/lastmile_qr_scan"}, "lat": 38.905748833333334, "bike_id": "91e796ae2d47b621b487bf46f496a5b7", "is_disabled": 0, "lon": -77.03477916666667, "is_reserved": 0, "fusion_lat": 0.0, "type": "electric_scooter"}, {"fusion_lon": 0.0, "name": "4ead36638b4d72daed12f51c2cd9462e", "rental_uris": {"android": "https://dc.lft.to/lastmile_qr_scan", "ios": "https://dc.lft.to/lastmile_qr_scan"}, "lat": 38.89991633333333, "bike_id": "4ead36638b4d72daed12f51c2cd9462e", "is_disabled": 0, "lon": -77.02207433333334, "is_reserved": 0, "fusion_lat": 0.0, "type": "electric_scooter"}, {"fusion_lon": 0.0, "name": "7d1aadb576b49e475a0da09d43e7d783", "rental_uris": {"android": "https://dc.lft.to/lastmile_qr_scan", "ios": "https://dc.lft.to/lastmile_qr_scan"}, "lat": 38.915702833333334, "bike_id": "7d1aadb576b49e475a0da09d43e7d783", "is_disabled": 0, "lon": -77.0502285, "is_reserved": 0, "fusion_lat": 0.0, "type": "electric_scooter"}, {"fusion_lon": 0.0, "name": "b3694725f5e83f5fff2e1f6bb50f3424", "rental_uris": {"android": "https://dc.lft.to/lastmile_qr_scan", "ios": "https://dc.lft.to/lastmile_qr_scan"}, "lat": 38.91016666666667, "bike_id": "b3694725f5e83f5fff2e1f6bb50f3424", "is_disabled": 0, "lon": -77.04148416666666, "is_reserved": 0, "fusion_lat": 0.0, "type": "electric_scooter"}, {"fusion_lon": 0.0, "name": "0f8557ba7aa99b23bd7c15bdcdd69f58", "rental_uris": {"android": "https://dc.lft.to/lastmile_qr_scan", "ios": "https://dc.lft.to/lastmile_qr_scan"}, "lat": 38.92567483333333, "bike_id": "0f8557ba7aa99b23bd7c15bdcdd69f58", "is_disabled": 0, "lon": -76.99957483333333, "is_reserved": 0, "fusion_lat": 0.0, "type": "electric_scooter"}, {"fusion_lon": 0.0, "name": "5eaf208a8602b3931b13fdaaf97f2b92", "rental_uris": {"android": "https://dc.lft.to/lastmile_qr_scan", "ios": "https://dc.lft.to/lastmile_qr_scan"}, "lat": 38.896421333333336, "bike_id": "5eaf208a8602b3931b13fdaaf97f2b92", "is_disabled": 0, "lon": -77.03197616666667, "is_reserved": 0, "fusion_lat": 0.0, "type": "electric_scooter"}, {"fusion_lon": 0.0, "name": "5403b08d1beaa57b7d227d4d80c5caf9", "rental_uris": {"android": "https://dc.lft.to/lastmile_qr_scan", "ios": "https://dc.lft.to/lastmile_qr_scan"}, "lat": 38.924339333333336, "bike_id": "5403b08d1beaa57b7d227d4d80c5caf9", "is_disabled": 0, "lon": -77.037822, "is_reserved": 0, "fusion_lat": 0.0, "type": "electric_scooter"}, {"fusion_lon": 0.0, "name": "b9df5063565d49a0cc56be838f90404f", "rental_uris": {"android": "https://dc.lft.to/lastmile_qr_scan", "ios": "https://dc.lft.to/lastmile_qr_scan"}, "lat": 38.88261266666667, "bike_id": "b9df5063565d49a0cc56be838f90404f", "is_disabled": 0, "lon": -77.02567533333334, "is_reserved": 0, "fusion_lat": 0.0, "type": "electric_scooter"}, {"fusion_lon": 0.0, "name": "1e3afe17efab3e76ef502f0156d2e3a8", "rental_uris": {"android": "https://dc.lft.to/lastmile_qr_scan", "ios": "https://dc.lft.to/lastmile_qr_scan"}, "lat": 38.900545, "bike_id": "1e3afe17efab3e76ef502f0156d2e3a8", "is_disabled": 0, "lon": -76.986858, "is_reserved": 0, "fusion_lat": 0.0, "type": "electric_scooter"}, {"fusion_lon": 0.0, "name": "de1897cd432caa989308c38f71c8e1f6", "rental_uris": {"android": "https://dc.lft.to/lastmile_qr_scan", "ios": "https://dc.lft.to/lastmile_qr_scan"}, "lat": 38.906003, "bike_id": "de1897cd432caa989308c38f71c8e1f6", "is_disabled": 0, "lon": -77.12894583333333, "is_reserved": 0, "fusion_lat": 0.0, "type": "electric_bike"}, {"fusion_lon": 0.0, "name": "ac6c092bf64b4f52c35c42c5fdba97f5", "rental_uris": {"android": "https://dc.lft.to/lastmile_qr_scan", "ios": "https://dc.lft.to/lastmile_qr_scan"}, "lat": 38.897255666666666, "bike_id": "ac6c092bf64b4f52c35c42c5fdba97f5", "is_disabled": 0, "lon": -77.0215855, "is_reserved": 0, "fusion_lat": 0.0, "type": "electric_scooter"}, {"fusion_lon": 0.0, "name": "4609e775f1f39ffadac6ccad53ae4332", "rental_uris": {"android": "https://dc.lft.to/lastmile_qr_scan", "ios": "https://dc.lft.to/lastmile_qr_scan"}, "lat": 38.924870166666665, "bike_id": "4609e775f1f39ffadac6ccad53ae4332", "is_disabled": 0, "lon": -77.02139433333333, "is_reserved": 0, "fusion_lat": 0.0, "type": "electric_scooter"}, {"fusion_lon": 0.0, "name": "9eb62eb046ca74369ed8956aaceb60e2", "rental_uris": {"android": "https://dc.lft.to/lastmile_qr_scan", "ios": "https://dc.lft.to/lastmile_qr_scan"}, "lat": 38.933022333333334, "bike_id": "9eb62eb046ca74369ed8956aaceb60e2", "is_disabled": 0, "lon": -77.03082666666667, "is_reserved": 0, "fusion_lat": 0.0, "type": "electric_scooter"}, {"fusion_lon": 0.0, "name": "47692d0c8e985c8f1e410cee62872a16", "rental_uris": {"android": "https://dc.lft.to/lastmile_qr_scan", "ios": "https://dc.lft.to/lastmile_qr_scan"}, "lat": 38.89887433333333, "bike_id": "47692d0c8e985c8f1e410cee62872a16", "is_disabled": 0, "lon": -76.93173283333333, "is_reserved": 0, "fusion_lat": 0.0, "type": "electric_scooter"}, {"fusion_lon": 0.0, "name": "25402fab5eb4a6167de3db5d97be91d7", "rental_uris": {"android": "https://dc.lft.to/lastmile_qr_scan", "ios": "https://dc.lft.to/lastmile_qr_scan"}, "lat": 38.9310585, "bike_id": "25402fab5eb4a6167de3db5d97be91d7", "is_disabled": 0, "lon": -77.04128683333333, "is_reserved": 0, "fusion_lat": 0.0, "type": "electric_scooter"}, {"fusion_lon": 0.0, "name": "9de75575b90a1f42b1ed383a4a189648", "rental_uris": {"android": "https://dc.lft.to/lastmile_qr_scan", "ios": "https://dc.lft.to/lastmile_qr_scan"}, "lat": 38.93523616666667, "bike_id": "9de75575b90a1f42b1ed383a4a189648", "is_disabled": 0, "lon": -77.03258316666667, "is_reserved": 0, "fusion_lat": 0.0, "type": "electric_scooter"}, {"fusion_lon": 0.0, "name": "99bd0ef9e8dcedd357081c5ee3907f45", "rental_uris": {"android": "https://dc.lft.to/lastmile_qr_scan", "ios": "https://dc.lft.to/lastmile_qr_scan"}, "lat": 38.90960416666667, "bike_id": "99bd0ef9e8dcedd357081c5ee3907f45", "is_disabled": 0, "lon": -77.0227895, "is_reserved": 0, "fusion_lat": 0.0, "type": "electric_scooter"}, {"fusion_lon": 0.0, "name": "f2cdc57e2618c9571acfcbcbcc1e6f2f", "rental_uris": {"android": "https://dc.lft.to/lastmile_qr_scan", "ios": "https://dc.lft.to/lastmile_qr_scan"}, "lat": 38.91934466666667, "bike_id": "f2cdc57e2618c9571acfcbcbcc1e6f2f", "is_disabled": 0, "lon": -77.01780966666666, "is_reserved": 0, "fusion_lat": 0.0, "type": "electric_scooter"}, {"fusion_lon": 0.0, "name": "15cfba967ce7ec63f67f4529f28d8148", "rental_uris": {"android": "https://dc.lft.to/lastmile_qr_scan", "ios": "https://dc.lft.to/lastmile_qr_scan"}, "lat": 38.8996265, "bike_id": "15cfba967ce7ec63f67f4529f28d8148", "is_disabled": 0, "lon": -77.01605883333333, "is_reserved": 0, "fusion_lat": 0.0, "type": "electric_scooter"}, {"fusion_lon": 0.0, "name": "98aa735ac5b677961760d25f1d940c6d", "rental_uris": {"android": "https://dc.lft.to/lastmile_qr_scan", "ios": "https://dc.lft.to/lastmile_qr_scan"}, "lat": 38.92498966666667, "bike_id": "98aa735ac5b677961760d25f1d940c6d", "is_disabled": 0, "lon": -77.0393425, "is_reserved": 0, "fusion_lat": 0.0, "type": "electric_scooter"}, {"fusion_lon": 0.0, "name": "feb0be80dd4b2d6f47994ff86605ba0c", "rental_uris": {"android": "https://dc.lft.to/lastmile_qr_scan", "ios": "https://dc.lft.to/lastmile_qr_scan"},