{"data": {"bikes": [{"is_reserved": 0, "fusion_lon": 0.0, "fusion_lat": 0.0, "name": "a102a247e28bd160e3d9b6987a0fe1ca", "type": "electric_bike", "is_disabled": 0, "lat": 38.993447, "rental_uris": {"android": "https://dc.lft.to/lastmile_qr_scan", "ios": "https://dc.lft.to/lastmile_qr_scan"}, "bike_id": "a102a247e28bd160e3d9b6987a0fe1ca", "lon": -77.11577833333334}, {"is_reserved": 0, "fusion_lon": 0.0, "fusion_lat": 0.0, "name": "0149444741ac62f19237e398e481d592", "type": "electric_scooter", "is_disabled": 0, "lat": 38.90452333333333, "rental_uris": {"android": "https://dc.lft.to/lastmile_qr_scan", "ios": "https://dc.lft.to/lastmile_qr_scan"}, "bike_id": "0149444741ac62f19237e398e481d592", "lon": -77.04794366666667}, {"is_reserved": 0, "fusion_lon": 0.0, "fusion_lat": 0.0, "name": "06fb0809452130f98a00e5dca1dbf4fe", "type": "electric_scooter", "is_disabled": 0, "lat": 38.90268733333333, "rental_uris": {"android": "https://dc.lft.to/lastmile_qr_scan", "ios": "https://dc.lft.to/lastmile_qr_scan"}, "bike_id": "06fb0809452130f98a00e5dca1dbf4fe", "lon": -77.0335415}, {"is_reserved": 0, "fusion_lon": 0.0, "fusion_lat": 0.0, "name": "1942a0ea9c60b8021208507bb51d2504", "type": "electric_scooter", "is_disabled": 0, "lat": 38.930187833333335, "rental_uris": {"android": "https://dc.lft.to/lastmile_qr_scan", "ios": "https://dc.lft.to/lastmile_qr_scan"}, "bike_id": "1942a0ea9c60b8021208507bb51d2504", "lon": -77.0553305}, {"is_reserved": 0, "fusion_lon": 0.0, "fusion_lat": 0.0, "name": "d39d40054d0bf784af471ea81657ecbb", "type": "electric_bike", "is_disabled": 0, "lat": 38.845599, "rental_uris": {"android": "https://dc.lft.to/lastmile_qr_scan", "ios": "https://dc.lft.to/lastmile_qr_scan"}, "bike_id": "d39d40054d0bf784af471ea81657ecbb", "lon": -77.06690966666666}, {"is_reserved": 0, "fusion_lon": 0.0, "fusion_lat": 0.0, "name": "19b043f83b22a0478be527924cf8ef90", "type": "electric_scooter", "is_disabled": 0, "lat": 38.866565, "rental_uris": {"android": "https://dc.lft.to/lastmile_qr_scan", "ios": "https://dc.lft.to/lastmile_qr_scan"}, "bike_id": "19b043f83b22a0478be527924cf8ef90", "lon": -76.9888135}, {"is_reserved": 0, "fusion_lon": 0.0, "fusion_lat": 0.0, "name": "856d418100aaffd0b3b5b21a0b7da7e1", "type": "electric_scooter", "is_disabled": 0, "lat": 38.941826666666664, "rental_uris": {"android": "https://dc.lft.to/lastmile_qr_scan", "ios": "https://dc.lft.to/lastmile_qr_scan"}, "bike_id": "856d418100aaffd0b3b5b21a0b7da7e1", "lon": -77.02486816666666}, {"is_reserved": 0, "fusion_lon": 0.0, "fusion_lat": 0.0, "name": "fd2d26d73d6e0f58f4d8ff2f0e523be4", "type": "electric_scooter", "is_disabled": 0, "lat": 38.938500833333336, "rental_uris": {"android": "https://dc.lft.to/lastmile_qr_scan", "ios": "https://dc.lft.to/lastmile_qr_scan"}, "bike_id": "fd2d26d73d6e0f58f4d8ff2f0e523be4", "lon": -77.025148}, {"is_reserved": 0, "fusion_lon": 0.0, "fusion_lat": 0.0, "name": "992b7e81043faa4ea9015165b0f1c6f6", "type": "electric_scooter", "is_disabled": 0, "lat": 38.902704, "rental_uris": {"android": "https://dc.lft.to/lastmile_qr_scan", "ios": "https://dc.lft.to/lastmile_qr_scan"}, "bike_id": "992b7e81043faa4ea9015165b0f1c6f6", "lon": -77.017769}, {"is_reserved": 0, "fusion_lon": 0.0, "fusion_lat": 0.0, "name": "7827af7e587dcb1768e7b5e70a5e719d", "type": "electric_scooter", "is_disabled": 0, "lat": 38.925105, "rental_uris": {"android": "https://dc.lft.to/lastmile_qr_scan", "ios": "https://dc.lft.to/lastmile_qr_scan"}, "bike_id": "7827af7e587dcb1768e7b5e70a5e719d", "lon": -77.038717}, {"is_reserved": 0, "fusion_lon": 0.0, "fusion_lat": 0.0, "name": "f3d55528a2248ec76e881d3cefeb27ab", "type": "electric_bike", "is_disabled": 0, "lat": 38.96959483333333, "rental_uris": {"android": "https://dc.lft.to/lastmile_qr_scan", "ios": "https://dc.lft.to/lastmile_qr_scan"}, "bike_id": "f3d55528a2248ec76e881d3cefeb27ab", "lon": -76.95750066666666}, {"is_reserved": 0, "fusion_lon": 0.0, "fusion_lat": 0.0, "name": "4cf8bedfe8a1f017a084316ad4590c61", "type": "electric_scooter", "is_disabled": 0, "lat": 38.92840783333333, "rental_uris": {"android": "https://dc.lft.to/lastmile_qr_scan", "ios": "https://dc.lft.to/lastmile_qr_scan"}, "bike_id": "4cf8bedfe8a1f017a084316ad4590c61", "lon": -76.99599016666667}, {"is_reserved": 0, "fusion_lon": 0.0, "fusion_lat": 0.0, "name": "63d60bcd6964858893d773d444af9d58", "type": "electric_bike", "is_disabled": 0, "lat": 38.938088666666665, "rental_uris": {"android": "https://dc.lft.to/lastmile_qr_scan", "ios": "https://dc.lft.to/lastmile_qr_scan"}, "bike_id": "63d60bcd6964858893d773d444af9d58", "lon": -77.06854366666667}, {"is_reserved": 0, "fusion_lon": 0.0, "fusion_lat": 0.0, "name": "dbb29cad98fa519213d7c7d7c724867e", "type": "electric_scooter", "is_disabled": 0, "lat": 38.905071666666664, "rental_uris": {"android": "https://dc.lft.to/lastmile_qr_scan", "ios": "https://dc.lft.to/lastmile_qr_scan"}, "bike_id": "dbb29cad98fa519213d7c7d7c724867e", "lon": -77.046496}, {"is_reserved": 0, "fusion_lon": 0.0, "fusion_lat": 0.0, "name": "aee62235a5531d3e0be59064fdd0530a", "type": "electric_scooter", "is_disabled": 0, "lat": 38.921788, "rental_uris": {"android": "https://dc.lft.to/lastmile_qr_scan", "ios": "https://dc.lft.to/lastmile_qr_scan"}, "bike_id": "aee62235a5531d3e0be59064fdd0530a", "lon": -77.02666083333334}, {"is_reserved": 0, "fusion_lon": 0.0, "fusion_lat": 0.0, "name": "676a7f79cbf365694cdd6dc4803a37b1", "type": "electric_scooter", "is_disabled": 0, "lat": 38.9109235, "rental_uris": {"android": "https://dc.lft.to/lastmile_qr_scan", "ios": "https://dc.lft.to/lastmile_qr_scan"}, "bike_id": "676a7f79cbf365694cdd6dc4803a37b1", "lon": -77.02804133333333}, {"is_reserved": 0, "fusion_lon": 0.0, "fusion_lat": 0.0, "name": "45d1f5ba805e740af5c8cacb3462255e", "type": "electric_scooter", "is_disabled": 0, "lat": 38.876602166666665, "rental_uris": {"android": "https://dc.lft.to/lastmile_qr_scan", "ios": "https://dc.lft.to/lastmile_qr_scan"}, "bike_id": "45d1f5ba805e740af5c8cacb3462255e", "lon": -77.019451}, {"is_reserved": 0, "fusion_lon": 0.0, "fusion_lat": 0.0, "name": "9c5113958f0f87797e14bd8c500d5eaa", "type": "electric_bike", "is_disabled": 0, "lat": 39.014791, "rental_uris": {"android": "https://dc.lft.to/lastmile_qr_scan", "ios": "https://dc.lft.to/lastmile_qr_scan"}, "bike_id": "9c5113958f0f87797e14bd8c500d5eaa", "lon": -77.054944}, {"is_reserved": 0, "fusion_lon": 0.0, "fusion_lat": 0.0, "name": "d553395742ae9a1709d51e038812ea87", "type": "electric_scooter", "is_disabled": 0, "lat": 38.912629833333334, "rental_uris": {"android": "https://dc.lft.to/lastmile_qr_scan", "ios": "https://dc.lft.to/lastmile_qr_scan"}, "bike_id": "d553395742ae9a1709d51e038812ea87", "lon": -77.028691}, {"is_reserved": 0, "fusion_lon": 0.0, "fusion_lat": 0.0, "name": "8408c125ba24c56a108d1f39a74668cf", "type": "electric_scooter", "is_disabled": 0, "lat": 38.911907666666664, "rental_uris": {"android": "https://dc.lft.to/lastmile_qr_scan", "ios": "https://dc.lft.to/lastmile_qr_scan"}, "bike_id": "8408c125ba24c56a108d1f39a74668cf", "lon": -77.03836816666667}, {"is_reserved": 0, "fusion_lon": 0.0, "fusion_lat": 0.0, "name": "1219be1e474d11b79d0d3aaa66841a7d", "type": "electric_scooter", "is_disabled": 0, "lat": 38.90707033333333, "rental_uris": {"android": "https://dc.lft.to/lastmile_qr_scan", "ios": "https://dc.lft.to/lastmile_qr_scan"}, "bike_id": "1219be1e474d11b79d0d3aaa66841a7d", "lon": -77.0238665}, {"is_reserved": 0, "fusion_lon": 0.0, "fusion_lat": 0.0, "name": "07415d2032270ed8ecae1dbd843dfd25", "type": "electric_scooter", "is_disabled": 0, "lat": 38.91558216666667, "rental_uris": {"android": "https://dc.lft.to/lastmile_qr_scan", "ios": "https://dc.lft.to/lastmile_qr_scan"}, "bike_id": "07415d2032270ed8ecae1dbd843dfd25", "lon": -77.0409975}, {"is_reserved": 0, "fusion_lon": 0.0, "fusion_lat": 0.0, "name": "231cef1e03b1659deb4127f06543210a", "type": "electric_scooter", "is_disabled": 0, "lat": 38.9224425, "rental_uris": {"android": "https://dc.lft.to/lastmile_qr_scan", "ios": "https://dc.lft.to/lastmile_qr_scan"}, "bike_id": "231cef1e03b1659deb4127f06543210a", "lon": -77.01936966666666}, {"is_reserved": 0, "fusion_lon": 0.0, "fusion_lat": 0.0, "name": "684e7bdfb467bc49ffba839614c3fbb0", "type": "electric_bike", "is_disabled": 0, "lat": 38.967381333333336, "rental_uris": {"android": "https://dc.lft.to/lastmile_qr_scan", "ios": "https://dc.lft.to/lastmile_qr_scan"}, "bike_id": "684e7bdfb467bc49ffba839614c3fbb0", "lon": -76.9819305}, {"is_reserved": 0, "fusion_lon": 0.0, "fusion_lat": 0.0, "name": "2974b9b4eff67bc08d7a6eca8b849a3f", "type": "electric_scooter", "is_disabled": 0, "lat": 38.902370833333336, "rental_uris": {"android": "https://dc.lft.to/lastmile_qr_scan", "ios": "https://dc.lft.to/lastmile_qr_scan"}, "bike_id": "2974b9b4eff67bc08d7a6eca8b849a3f", "lon": -77.00197266666666}, {"is_reserved": 0, "fusion_lon": 0.0, "fusion_lat": 0.0, "name": "616404aded840c53d6ec553e1453687f", "type": "electric_scooter", "is_disabled": 0, "lat": 38.910242, "rental_uris": {"android": "https://dc.lft.to/lastmile_qr_scan", "ios": "https://dc.lft.to/lastmile_qr_scan"}, "bike_id": "616404aded840c53d6ec553e1453687f", "lon": -77.04496833333333}, {"is_reserved": 0, "fusion_lon": 0.0, "fusion_lat": 0.0, "name": "80dbf0abab4d0f9ae96f3bacfb34ce49", "type": "electric_scooter", "is_disabled": 0, "lat": 38.898077666666666, "rental_uris": {"android": "https://dc.lft.to/lastmile_qr_scan", "ios": "https://dc.lft.to/lastmile_qr_scan"}, "bike_id": "80dbf0abab4d0f9ae96f3bacfb34ce49", "lon": -77.0295}, {"is_reserved": 0, "fusion_lon": 0.0, "fusion_lat": 0.0, "name": "13c9e2ae5f97e2265373ce09ca6c4974", "type": "electric_scooter", "is_disabled": 0, "lat": 38.889982833333335, "rental_uris": {"android": "https://dc.lft.to/lastmile_qr_scan", "ios": "https://dc.lft.to/lastmile_qr_scan"}, "bike_id": "13c9e2ae5f97e2265373ce09ca6c4974", "lon": -77.04892816666667}, {"is_reserved": 0, "fusion_lon": 0.0, "fusion_lat": 0.0, "name": "6ed43f30ab7f842ebd2ae90938a6138b", "type": "electric_scooter", "is_disabled": 0, "lat": 38.91905216666667, "rental_uris": {"android": "https://dc.lft.to/lastmile_qr_scan", "ios": "https://dc.lft.to/lastmile_qr_scan"}, "bike_id": "6ed43f30ab7f842ebd2ae90938a6138b", "lon": -77.02512983333334}, {"is_reserved": 0, "fusion_lon": 0.0, "fusion_lat": 0.0, "name": "ec9108a222640d7b24ebda9c1dbbc7fa", "type": "electric_scooter", "is_disabled": 0, "lat": 38.907234333333335, "rental_uris": {"android": "https://dc.lft.to/lastmile_qr_scan", "ios": "https://dc.lft.to/lastmile_qr_scan"}, "bike_id": "ec9108a222640d7b24ebda9c1dbbc7fa", "lon": -77.04353216666667}, {"is_reserved": 0, "fusion_lon": 0.0, "fusion_lat": 0.0, "name": "67300107c584207dc246f3176554eaf0", "type": "electric_scooter", "is_disabled": 0, "lat": 38.929717333333336, "rental_uris": {"android": "https://dc.lft.to/lastmile_qr_scan", "ios": "https://dc.lft.to/lastmile_qr_scan"}, "bike_id": "67300107c584207dc246f3176554eaf0", "lon": -77.01319483333333}, {"is_reserved": 0, "fusion_lon": 0.0, "fusion_lat": 0.0, "name": "443a3233d64016d82f363ba62593c870", "type": "electric_scooter", "is_disabled": 0, "lat": 38.900798333333334, "rental_uris": {"android": "https://dc.lft.to/lastmile_qr_scan", "ios": "https://dc.lft.to/lastmile_qr_scan"}, "bike_id": "443a3233d64016d82f363ba62593c870", "lon": -76.93020383333334}, {"is_reserved": 0, "fusion_lon": 0.0, "fusion_lat": 0.0, "name": "cbec1ab480c165a88f31649c3c8708a4", "type": "electric_scooter", "is_disabled": 0, "lat": 38.8841195, "rental_uris": {"android": "https://dc.lft.to/lastmile_qr_scan", "ios": "https://dc.lft.to/lastmile_qr_scan"}, "bike_id": "cbec1ab480c165a88f31649c3c8708a4", "lon": -77.0176885}, {"is_reserved": 0, "fusion_lon": 0.0, "fusion_lat": 0.0, "name": "8263f663a4071e9b97eb22f96d27eb51", "type": "electric_bike", "is_disabled": 0, "lat": 38.956487333333335, "rental_uris": {"android": "https://dc.lft.to/lastmile_qr_scan", "ios": "https://dc.lft.to/lastmile_qr_scan"}, "bike_id": "8263f663a4071e9b97eb22f96d27eb51", "lon": -77.012781}, {"is_reserved": 0, "fusion_lon": 0.0, "fusion_lat": 0.0, "name": "f5e1b321163de5fc7045e2b19786f056", "type": "electric_scooter", "is_disabled": 0, "lat": 38.91765133333333, "rental_uris": {"android": "https://dc.lft.to/lastmile_qr_scan", "ios": "https://dc.lft.to/lastmile_qr_scan"}, "bike_id": "f5e1b321163de5fc7045e2b19786f056", "lon": -77.04061183333333}, {"is_reserved": 0, "fusion_lon": 0.0, "fusion_lat": 0.0, "name": "47815984a3e341feedfb5ec8122f6814", "type": "electric_scooter", "is_disabled": 0, "lat": 38.85536183333333, "rental_uris": {"android": "https://dc.lft.to/lastmile_qr_scan", "ios": "https://dc.lft.to/lastmile_qr_scan"}, "bike_id": "47815984a3e341feedfb5ec8122f6814", "lon": -76.98416183333333}, {"is_reserved": 0, "fusion_lon": 0.0, "fusion_lat": 0.0, "name": "039ad0e808c83a1fd820286dc14fb438", "type": "electric_scooter", "is_disabled": 0, "lat": 38.898599833333336, "rental_uris": {"android": "https://dc.lft.to/lastmile_qr_scan", "ios": "https://dc.lft.to/lastmile_qr_scan"}, "bike_id": "039ad0e808c83a1fd820286dc14fb438", "lon": -76.92754533333333}, {"is_reserved": 0, "fusion_lon": 0.0, "fusion_lat": 0.0, "name": "3939d669e511f270fc4a7f814dbc516f", "type": "electric_scooter", "is_disabled": 0, "lat": 38.884814666666664, "rental_uris": {"android": "https://dc.lft.to/lastmile_qr_scan", "ios": "https://dc.lft.to/lastmile_qr_scan"}, "bike_id": "3939d669e511f270fc4a7f814dbc516f", "lon": -76.9261775}, {"is_reserved": 0, "fusion_lon": 0.0, "fusion_lat": 0.0, "name": "ff388dacf419f2c8b9989a56ad207982", "type": "electric_scooter", "is_disabled": 0, "lat": 38.91180816666667, "rental_uris": {"android": "https://dc.lft.to/lastmile_qr_scan", "ios": "https://dc.lft.to/lastmile_qr_scan"}, "bike_id": "ff388dacf419f2c8b9989a56ad207982", "lon": -77.009658}, {"is_reserved": 0, "fusion_lon": 0.0, "fusion_lat": 0.0, "name": "52b6e518223b9e7bdb530caf2f5a06bf", "type": "electric_scooter", "is_disabled": 0, "lat": 38.887265666666664, "rental_uris": {"android": "https://dc.lft.to/lastmile_qr_scan", "ios": "https://dc.lft.to/lastmile_qr_scan"}, "bike_id": "52b6e518223b9e7bdb530caf2f5a06bf", "lon": -77.02823833333333}, {"is_reserved": 0, "fusion_lon": 0.0, "fusion_lat": 0.0, "name": "7bc28244416d25fed64b0da47b455967", "type": "electric_scooter", "is_disabled": 0, "lat": 38.920938166666666, "rental_uris": {"android": "https://dc.lft.to/lastmile_qr_scan", "ios": "https://dc.lft.to/lastmile_qr_scan"}, "bike_id": "7bc28244416d25fed64b0da47b455967", "lon": -77.00427166666667}, {"is_reserved": 0, "fusion_lon": 0.0, "fusion_lat": 0.0, "name": "96b799ac689d283ee98fbc36b4038d50", "type": "electric_scooter", "is_disabled": 0, "lat": 38.90960066666667, "rental_uris": {"android": "https://dc.lft.to/lastmile_qr_scan", "ios": "https://dc.lft.to/lastmile_qr_scan"}, "bike_id": "96b799ac689d283ee98fbc36b4038d50", "lon": -77.03862483333333}, {"is_reserved": 0, "fusion_lon": 0.0, "fusion_lat": 0.0, "name": "dd4ea984009c92f7d5c1e3614b3bcd87", "type": "electric_scooter", "is_disabled": 0, "lat": 38.907258166666665, "rental_uris": {"android": "https://dc.lft.to/lastmile_qr_scan", "ios": "https://dc.lft.to/lastmile_qr_scan"}, "bike_id": "dd4ea984009c92f7d5c1e3614b3bcd87", "lon": -77.00099}, {"is_reserved": 0, "fusion_lon": 0.0, "fusion_lat": 0.0, "name": "547d565f16c57b3bf065d9259b176e64", "type": "electric_scooter", "is_disabled": 0, "lat": 38.88811183333333, "rental_uris": {"android": "https://dc.lft.to/lastmile_qr_scan", "ios": "https://dc.lft.to/lastmile_qr_scan"}, "bike_id": "547d565f16c57b3bf065d9259b176e64", "lon": -76.933435}, {"is_reserved": 0, "fusion_lon": 0.0, "fusion_lat": 0.0, "name": "b38e3467b9ebebf9e158cdc95a72cde7", "type": "electric_scooter", "is_disabled": 0, "lat": 38.9117075, "rental_uris": {"android": "https://dc.lft.to/lastmile_qr_scan", "ios": "https://dc.lft.to/lastmile_qr_scan"}, "bike_id": "b38e3467b9ebebf9e158cdc95a72cde7", "lon": -77.06089966666667}, {"is_reserved": 0, "fusion_lon": 0.0, "fusion_lat": 0.0, "name": "a472523010c409554dabbfc4e5aa73ed", "type": "electric_scooter", "is_disabled": 0, "lat": 38.9232305, "rental_uris": {"android": "https://dc.lft.to/lastmile_qr_scan", "ios": "https://dc.lft.to/lastmile_qr_scan"}, "bike_id": "a472523010c409554dabbfc4e5aa73ed", "lon": -76.99904283333333}, {"is_reserved": 0, "fusion_lon": 0.0, "fusion_lat": 0.0, "name": "f7dc8a42f1912cd5f6bfd1559f385c11", "type": "electric_scooter", "is_disabled": 0, "lat": 38.90814016666667, "rental_uris": {"android": "https://dc.lft.to/lastmile_qr_scan", "ios": "https://dc.lft.to/lastmile_qr_scan"}, "bike_id": "f7dc8a42f1912cd5f6bfd1559f385c11", "lon": -77.039412}, {"is_reserved": 0, "fusion_lon": 0.0, "fusion_lat": 0.0, "name": "83d01fd959d9a9c54dde9c0da0ef0a86", "type": "electric_scooter", "is_disabled": 0, "lat": 38.88024633333333, "rental_uris": {"android": "https://dc.lft.to/lastmile_qr_scan", "ios": "https://dc.lft.to/lastmile_qr_scan"}, "bike_id": "83d01fd959d9a9c54dde9c0da0ef0a86", "lon": -76.98478533333333}, {"is_reserved": 0, "fusion_lon": 0.0, "fusion_lat": 0.0, "name": "ca7a925227d7e63cd0c79dc28f3d0cd6", "type": "electric_scooter", "is_disabled": 0, "lat": 38.911167666666664, "rental_uris": {"android": "https://dc.lft.to/lastmile_qr_scan", "ios": "https://dc.lft.to/lastmile_qr_scan"}, "bike_id": "ca7a925227d7e63cd0c79dc28f3d0cd6", "lon": -77.00600183333333}, {"is_reserved": 0, "fusion_lon": 0.0, "fusion_lat": 0.0, "name": "0925e21ea21f8b5c49a2a3ede30d8655", "type": "electric_scooter", "is_disabled": 0, "lat": 38.8804855, "rental_uris": {"android": "https://dc.lft.to/lastmile_qr_scan", "ios": "https://dc.lft.to/lastmile_qr_scan"}, "bike_id": "0925e21ea21f8b5c49a2a3ede30d8655", "lon": -77.0058425}, {"is_reserved": 0, "fusion_lon": 0.0, "fusion_lat": 0.0, "name": "0db36e900b0842ca78aac519487de646", "type": "electric_scooter", "is_disabled": 0, "lat": 38.90566616666667, "rental_uris": {"android": "https://dc.lft.to/lastmile_qr_scan", "ios": "https://dc.lft.to/lastmile_qr_scan"}, "bike_id": "0db36e900b0842ca78aac519487de646", "lon": -77.00893983333333}, {"is_reserved": 0, "fusion_lon": 0.0, "fusion_lat": 0.0, "name": "7198d470d571697f924cc14b9c5a680c", "type": "electric_scooter", "is_disabled": 0, "lat": 38.90675816666667, "rental_uris": {"android": "https://dc.lft.to/lastmile_qr_scan", "ios": "https://dc.lft.to/lastmile_qr_scan"}, "bike_id": "7198d470d571697f924cc14b9c5a680c", "lon": -77.04335316666666}, {"is_reserved": 0, "fusion_lon": 0.0, "fusion_lat": 0.0, "name": "af91f2b1e62355f860ded81734bc6983", "type": "electric_scooter", "is_disabled": 0, "lat": 38.908600666666665, "rental_uris": {"android": "https://dc.lft.to/lastmile_qr_scan", "ios": "https://dc.lft.to/lastmile_qr_scan"}, "bike_id": "af91f2b1e62355f860ded81734bc6983", "lon": -77.040497}, {"is_reserved": 0, "fusion_lon": 0.0, "fusion_lat": 0.0, "name": "43817f05abc43bb0e5af49f6d104b88d", "type": "electric_scooter", "is_disabled": 0, "lat": 38.91924066666667, "rental_uris": {"android": "https://dc.lft.to/lastmile_qr_scan", "ios": "https://dc.lft.to/lastmile_qr_scan"}, "bike_id": "43817f05abc43bb0e5af49f6d104b88d", "lon": -77.02420683333334}, {"is_reserved": 0, "fusion_lon": 0.0, "fusion_lat": 0.0, "name": "414970c6887abb0fdbef435127bc2b0b", "type": "electric_bike", "is_disabled": 0, "lat": 38.9023235, "rental_uris": {"android": "https://dc.lft.to/lastmile_qr_scan", "ios": "https://dc.lft.to/lastmile_qr_scan"}, "bike_id": "414970c6887abb0fdbef435127bc2b0b", "lon": -77.04515433333333}, {"is_reserved": 0, "fusion_lon": 0.0, "fusion_lat": 0.0, "name": "f48226cf8175c70d414f263bb573b7ff", "type": "electric_scooter", "is_disabled": 0, "lat": 38.903836, "rental_uris": {"android": "https://dc.lft.to/lastmile_qr_scan", "ios": "https://dc.lft.to/lastmile_qr_scan"}, "bike_id": "f48226cf8175c70d414f263bb573b7ff", "lon": -77.0419335}, {"is_reserved": 0, "fusion_lon": 0.0, "fusion_lat": 0.0, "name": "06492ecd2745f2526dd150d895c2042f", "type": "electric_scooter", "is_disabled": 0, "lat": 38.900726, "rental_uris": {"android": "https://dc.lft.to/lastmile_qr_scan", "ios": "https://dc.lft.to/lastmile_qr_scan"}, "bike_id": "06492ecd2745f2526dd150d895c2042f", "lon": -77.04845666666667}, {"is_reserved": 0, "fusion_lon": 0.0, "fusion_lat": 0.0, "name": "7406b8d3de28d8b9ed591809cfe0186b", "type": "electric_scooter", "is_disabled": 0, "lat": 38.96112733333333, "rental_uris": {"android": "https://dc.lft.to/lastmile_qr_scan", "ios": "https://dc.lft.to/lastmile_qr_scan"}, "bike_id": "7406b8d3de28d8b9ed591809cfe0186b", "lon": -77.00945133333333}, {"is_reserved": 0, "fusion_lon": 0.0, "fusion_lat": 0.0, "name": "575a15853c3a7016b25e15c4ac32204d", "type": "electric_scooter", "is_disabled": 0, "lat": 38.90522216666667, "rental_uris": {"android": "https://dc.lft.to/lastmile_qr_scan", "ios": "https://dc.lft.to/lastmile_qr_scan"}, "bike_id": "575a15853c3a7016b25e15c4ac32204d", "lon": -77.063794}, {"is_reserved": 0, "fusion_lon": 0.0, "fusion_lat": 0.0, "name": "e7daa8054f687578606e828a26c6c719", "type": "electric_scooter", "is_disabled": 0, "lat": 38.903638, "rental_uris": {"android": "https://dc.lft.to/lastmile_qr_scan", "ios": "https://dc.lft.to/lastmile_qr_scan"}, "bike_id": "e7daa8054f687578606e828a26c6c719", "lon": -77.04010316666667}, {"is_reserved": 0, "fusion_lon": 0.0, "fusion_lat": 0.0, "name": "088a8e1610b12063639135f8c624e379", "type": "electric_scooter", "is_disabled": 0, "lat": 38.90077866666667, "rental_uris": {"android": "https://dc.lft.to/lastmile_qr_scan", "ios": "https://dc.lft.to/lastmile_qr_scan"}, "bike_id": "088a8e1610b12063639135f8c624e379", "lon": -77.05059483333334}, {"is_reserved": 0, "fusion_lon": 0.0, "fusion_lat": 0.0, "name": "a9f91e2248e3d5557a95da84c402c6ca", "type": "electric_scooter", "is_disabled": 0, "lat": 38.91692233333333, "rental_uris": {"android": "https://dc.lft.to/lastmile_qr_scan", "ios": "https://dc.lft.to/lastmile_qr_scan"}, "bike_id": "a9f91e2248e3d5557a95da84c402c6ca", "lon": -77.025987}, {"is_reserved": 0, "fusion_lon": 0.0, "fusion_lat": 0.0, "name": "1754ae78ca8cf45c37e818719c4363ee", "type": "electric_scooter", "is_disabled": 0, "lat": 38.91912683333334, "rental_uris": {"android": "https://dc.lft.to/lastmile_qr_scan", "ios": "https://dc.lft.to/lastmile_qr_scan"}, "bike_id": "1754ae78ca8cf45c37e818719c4363ee", "lon": -77.04811433333333}, {"is_reserved": 0, "fusion_lon": 0.0, "fusion_lat": 0.0, "name": "2ee7dcd28ec0611065192e2de92fc575", "type": "electric_scooter", "is_disabled": 0, "lat": 38.93481666666667, "rental_uris": {"android": "https://dc.lft.to/lastmile_qr_scan", "ios": "https://dc.lft.to/lastmile_qr_scan"}, "bike_id": "2ee7dcd28ec0611065192e2de92fc575", "lon": -77.06481483333333}, {"is_reserved": 0, "fusion_lon": 0.0, "fusion_lat": 0.0, "name": "52ffa0f11d602df4f18b6bd8122c18db", "type": "electric_scooter", "is_disabled": 0, "lat": 38.90792783333333, "rental_uris": {"android": "https://dc.lft.to/lastmile_qr_scan", "ios": "https://dc.lft.to/lastmile_qr_scan"}, "bike_id": "52ffa0f11d602df4f18b6bd8122c18db", "lon": -77.0382435}, {"is_reserved": 0, "fusion_lon": 0.0, "fusion_lat": 0.0, "name": "8f0969feb795ad567ddf25ab0b27faf3", "type": "electric_scooter", "is_disabled": 0, "lat": 38.90528, "rental_uris": {"android": "https://dc.lft.to/lastmile_qr_scan", "ios": "https://dc.lft.to/lastmile_qr_scan"}, "bike_id": "8f0969feb795ad567ddf25ab0b27faf3", "lon": -77.0417795}, {"is_reserved": 0, "fusion_lon": 0.0, "fusion_lat": 0.0, "name": "8f3313310c37e7c3ea06ba802a81f3c4", "type": "electric_scooter", "is_disabled": 0, "lat": 38.951981333333336, "rental_uris": {"android": "https://dc.lft.to/lastmile_qr_scan", "ios": "https://dc.lft.to/lastmile_qr_scan"}, "bike_id": "8f3313310c37e7c3ea06ba802a81f3c4", "lon": -77.02730966666667}, {"is_reserved": 0, "fusion_lon": 0.0, "fusion_lat": 0.0, "name": "b12c7affdb242e69b59ab200b034f9a7", "type": "electric_scooter", "is_disabled": 0, "lat": 38.903549166666664, "rental_uris": {"android": "https://dc.lft.to/lastmile_qr_scan", "ios": "https://dc.lft.to/lastmile_qr_scan"}, "bike_id": "b12c7affdb242e69b59ab200b034f9a7", "lon": -77.005922}, {"is_reserved": 0, "fusion_lon": 0.0, "fusion_lat": 0.0, "name": "4f931fab083e18537527e44fa4a1e039", "type": "electric_scooter", "is_disabled": 0, "lat": 38.8754525, "rental_uris": {"android": "https://dc.lft.to/lastmile_qr_scan", "ios": "https://dc.lft.to/lastmile_qr_scan"}, "bike_id": "4f931fab083e18537527e44fa4a1e039", "lon": -77.00593283333333}, {"is_reserved": 0, "fusion_lon": 0.0, "fusion_lat": 0.0, "name": "0e8ad906aadc295a35f6db43d3304db4", "type": "electric_scooter", "is_disabled": 0, "lat": 38.907175, "rental_uris": {"android": "https://dc.lft.to/lastmile_qr_scan", "ios": "https://dc.lft.to/lastmile_qr_scan"}, "bike_id": "0e8ad906aadc295a35f6db43d3304db4", "lon": -77.04808566666667}, {"is_reserved": 0, "fusion_lon": 0.0, "fusion_lat": 0.0, "name": "e0f4594ddc0ea99c370ef411730f5885", "type": "electric_scooter", "is_disabled": 0, "lat": 38.9178725, "rental_uris": {"android": "https://dc.lft.to/lastmile_qr_scan", "ios": "https://dc.lft.to/lastmile_qr_scan"}, "bike_id": "e0f4594ddc0ea99c370ef411730f5885", "lon": -77.032022}, {"is_reserved": 0, "fusion_lon": 0.0, "fusion_lat": 0.0, "name": "63cd3f40624a094f8a4af4663cbf00a8", "type": "electric_scooter", "is_disabled": 0, "lat": 38.901309499999996, "rental_uris": {"android": "https://dc.lft.to/lastmile_qr_scan", "ios": "https://dc.lft.to/lastmile_qr_scan"}, "bike_id": "63cd3f40624a094f8a4af4663cbf00a8", "lon": -77.04028483333333}, {"is_reserved": 0, "fusion_lon": 0.0, "fusion_lat": 0.0, "name": "14052303310a0cba7136a6aa5e0fb1bc", "type": "electric_scooter", "is_disabled": 0, "lat": 38.90972033333333, "rental_uris": {"android": "https://dc.lft.to/lastmile_qr_scan", "ios": "https://dc.lft.to/lastmile_qr_scan"}, "bike_id": "14052303310a0cba7136a6aa5e0fb1bc", "lon": -77.0385145}, {"is_reserved": 0, "fusion_lon": 0.0, "fusion_lat": 0.0, "name": "f46b8ca657bbfa41494b8fcb1362633a", "type": "electric_scooter", "is_disabled": 0, "lat": 38.89013516666667, "rental_uris": {"android": "https://dc.lft.to/lastmile_qr_scan", "ios": "https://dc.lft.to/lastmile_qr_scan"}, "bike_id": "f46b8ca657bbfa41494b8fcb1362633a", "lon": -76.93730833333333}, {"is_reserved": 0, "fusion_lon": 0.0, "fusion_lat": 0.0, "name": "6144cb6fdd8811f8989deddd8c629b8d", "type": "electric_scooter", "is_disabled": 0, "lat": 38.897808, "rental_uris": {"android": "https://dc.lft.to/lastmile_qr_scan", "ios": "https://dc.lft.to/lastmile_qr_scan"}, "bike_id": "6144cb6fdd8811f8989deddd8c629b8d", "lon": -77.04005566666666}, {"is_reserved": 0, "fusion_lon": 0.0, "fusion_lat": 0.0, "name": "932ef4e2169388256470c2c9aaefc252", "type": "electric_scooter", "is_disabled": 0, "lat": 38.937701833333335, "rental_uris": {"android": "https://dc.lft.to/lastmile_qr_scan", "ios": "https://dc.lft.to/lastmile_qr_scan"}, "bike_id": "932ef4e2169388256470c2c9aaefc252", "lon": -77.019684}, {"is_reserved": 0, "fusion_lon": 0.0, "fusion_lat": 0.0, "name": "b076482862995eaa6ee7d6a3e5cc3a34", "type": "electric_bike", "is_disabled": 0, "lat": 38.85439066666667, "rental_uris": {"android": "https://dc.lft.to/lastmile_qr_scan", "ios": "https://dc.lft.to/lastmile_qr_scan"}, "bike_id": "b076482862995eaa6ee7d6a3e5cc3a34", "lon": -77.08325583333334}, {"is_reserved": 0, "fusion_lon": 0.0, "fusion_lat": 0.0, "name": "3e36f3580e09806470fefa5355e956a0", "type": "electric_scooter", "is_disabled": 0, "lat": 38.91483066666667, "rental_uris": {"android": "https://dc.lft.to/lastmile_qr_scan", "ios": "https://dc.lft.to/lastmile_qr_scan"}, "bike_id": "3e36f3580e09806470fefa5355e956a0", "lon": -77.021822}, {"is_reserved": 0, "fusion_lon": 0.0, "fusion_lat": 0.0, "name": "bfa1a9007dd81bd137100d130c5ca589", "type": "electric_scooter", "is_disabled": 0, "lat": 38.88293733333333, "rental_uris": {"android": "https://dc.lft.to/lastmile_qr_scan", "ios": "https://dc.lft.to/lastmile_qr_scan"}, "bike_id": "bfa1a9007dd81bd137100d130c5ca589", "lon": -76.99350683333333}, {"is_reserved": 0, "fusion_lon": 0.0, "fusion_lat": 0.0, "name": "c401649af58124009b44bb5988b6a712", "type": "electric_scooter", "is_disabled": 0, "lat": 38.90261683333333, "rental_uris": {"android": "https://dc.lft.to/lastmile_qr_scan", "ios": "https://dc.lft.to/lastmile_qr_scan"}, "bike_id": "c401649af58124009b44bb5988b6a712", "lon": -77.02612683333334}, {"is_reserved": 0, "fusion_lon": 0.0, "fusion_lat": 0.0, "name": "07c41fee5f6f0fcea3b507976460d704", "type": "electric_scooter", "is_disabled": 0, "lat": 38.91712483333333, "rental_uris": {"android": "https://dc.lft.to/lastmile_qr_scan", "ios": "https://dc.lft.to/lastmile_qr_scan"}, "bike_id": "07c41fee5f6f0fcea3b507976460d704", "lon": -77.03093866666667}, {"is_reserved": 0, "fusion_lon": 0.0, "fusion_lat": 0.0, "name": "97960066a1295ab6ae732a37f9cc72ba", "type": "electric_scooter", "is_disabled": 0, "lat": 38.930568, "rental_uris": {"android": "https://dc.lft.to/lastmile_qr_scan", "ios": "https://dc.lft.to/lastmile_qr_scan"}, "bike_id": "97960066a1295ab6ae732a37f9cc72ba", "lon": -77.03940916666667}, {"is_reserved": 0, "fusion_lon": 0.0, "fusion_lat": 0.0, "name": "2d842eec4d7cb4201ed73e50eef5ef38", "type": "electric_scooter", "is_disabled": 0, "lat": 38.88741983333333, "rental_uris": {"android": "https://dc.lft.to/lastmile_qr_scan", "ios": "https://dc.lft.to/lastmile_qr_scan"}, "bike_id": "2d842eec4d7cb4201ed73e50eef5ef38", "lon": -77.0238265}, {"is_reserved": 0, "fusion_lon": 0.0, "fusion_lat": 0.0, "name": "473bf5c349790e85f7c0cb558f53498f", "type": "electric_scooter", "is_disabled": 0, "lat": 38.9094915, "rental_uris": {"android": "https://dc.lft.to/lastmile_qr_scan", "ios": "https://dc.lft.to/lastmile_qr_scan"}, "bike_id": "473bf5c349790e85f7c0cb558f53498f", "lon": -77.022026}, {"is_reserved": 0, "fusion_lon": 0.0, "fusion_lat": 0.0, "name": "a7b78e9f25e49ed4d06e79ebc47d10a8", "type": "electric_scooter", "is_disabled": 0, "lat": 38.9062695, "rental_uris": {"android": "https://dc.lft.to/lastmile_qr_scan", "ios": "https://dc.lft.to/lastmile_qr_scan"}, "bike_id": "a7b78e9f25e49ed4d06e79ebc47d10a8", "lon": -77.03988283333334}, {"is_reserved": 0, "fusion_lon": 0.0, "fusion_lat": 0.0, "name": "e5dc96ec6f43330474dfca7c77d9c8e4", "type": "electric_scooter", "is_disabled": 0, "lat": 38.9203205, "rental_uris": {"android": "https://dc.lft.to/lastmile_qr_scan", "ios": "https://dc.lft.to/lastmile_qr_scan"}, "bike_id": "e5dc96ec6f43330474dfca7c77d9c8e4", "lon": -76.9972665}, {"is_reserved": 0, "fusion_lon": 0.0, "fusion_lat": 0.0, "name": "ed30a00db6888e825339e8deb242ac42", "type": "electric_scooter", "is_disabled": 0, "lat": 38.896050333333335, "rental_uris": {"android": "https://dc.lft.to/lastmile_qr_scan", "ios": "https://dc.lft.to/lastmile_qr_scan"}, "bike_id": "ed30a00db6888e825339e8deb242ac42", "lon": -77.01151316666666}, {"is_reserved": 0, "fusion_lon": 0.0, "fusion_lat": 0.0, "name": "07c15e872d0dd667891d3806f94b4a80", "type": "electric_scooter", "is_disabled": 0, "lat": 38.915213666666666, "rental_uris": {"android": "https://dc.lft.to/lastmile_qr_scan", "ios": "https://dc.lft.to/lastmile_qr_scan"}, "bike_id": "07c15e872d0dd667891d3806f94b4a80", "lon": -76.97052433333333}, {"is_reserved": 0, "fusion_lon": 0.0, "fusion_lat": 0.0, "name": "40612220bd3d878c71d2a80f8a3a5d05", "type": "electric_scooter", "is_disabled": 0, "lat": 38.907272, "rental_uris": {"android": "https://dc.lft.to/lastmile_qr_scan", "ios": "https://dc.lft.to/lastmile_qr_scan"}, "bike_id": "40612220bd3d878c71d2a80f8a3a5d05", "lon": -76.9869365}, {"is_reserved": 0, "fusion_lon": 0.0, "fusion_lat": 0.0, "name": "7b7ac039210fff7b219032faec5480e7", "type": "electric_scooter", "is_disabled": 0, "lat": 38.860549, "rental_uris": {"android": "https://dc.lft.to/lastmile_qr_scan", "ios": "https://dc.lft.to/lastmile_qr_scan"}, "bike_id": "7b7ac039210fff7b219032faec5480e7", "lon": -76.98505433333334}, {"is_reserved": 0, "fusion_lon": 0.0, "fusion_lat": 0.0, "name": "db7b9dce028d2f8433d61b468bf7dd59", "type": "electric_scooter", "is_disabled": 0, "lat": 38.91691, "rental_uris": {"android": "https://dc.lft.to/lastmile_qr_scan", "ios": "https://dc.lft.to/lastmile_qr_scan"}, "bike_id": "db7b9dce028d2f8433d61b468bf7dd59", "lon": -77.02893283333333}, {"is_reserved": 0, "fusion_lon": 0.0, "fusion_lat": 0.0, "name": "4665efdc87db08ca529c39658acc566f", "type": "electric_scooter", "is_disabled": 0, "lat": 38.924321666666664, "rental_uris": {"android": "https://dc.lft.to/lastmile_qr_scan", "ios": "https://dc.lft.to/lastmile_qr_scan"}, "bike_id": "4665efdc87db08ca529c39658acc566f", "lon": -77.0520975}, {"is_reserved": 0, "fusion_lon": 0.0, "fusion_lat": 0.0, "name": "6c9a659bd294379886bfee53053399a2", "type": "electric_scooter", "is_disabled": 0, "lat": 38.92372116666667, "rental_uris": {"android": "https://dc.lft.to/lastmile_qr_scan", "ios": "https://dc.lft.to/lastmile_qr_scan"}, "bike_id": "6c9a659bd294379886bfee53053399a2", "lon": -77.019105}, {"is_reserved": 0, "fusion_lon": 0.0, "fusion_lat": 0.0, "name": "502c5416141185a31a88b2c8b8ca3f7c", "type": "electric_scooter", "is_disabled": 0, "lat": 38.90369666666667, "rental_uris": {"android": "https://dc.lft.to/lastmile_qr_scan", "ios": "https://dc.lft.to/lastmile_qr_scan"}, "bike_id": "502c5416141185a31a88b2c8b8ca3f7c", "lon": -76.99710683333333}, {"is_reserved": 0, "fusion_lon": 0.0, "fusion_lat": 0.0, "name": "1cac1a950d3ebb3d15b456151f07e261", "type": "electric_scooter", "is_disabled": 0, "lat": 38.923423166666666, "rental_uris": {"android": "https://dc.lft.to/lastmile_qr_scan", "ios": "https://dc.lft.to/lastmile_qr_scan"}, "bike_id": "1cac1a950d3ebb3d15b456151f07e261", "lon": -77.05118066666667}, {"is_reserved": 0, "fusion_lon": 0.0, "fusion_lat": 0.0, "name": "0d7ba0e85cc073ffe32566eef873da20", "type": "electric_scooter", "is_disabled": 0, "lat": 38.9371215, "rental_uris": {"android": "https://dc.lft.to/lastmile_qr_scan", "ios": "https://dc.lft.to/lastmile_qr_scan"}, "bike_id": "0d7ba0e85cc073ffe32566eef873da20", "lon": -77.02936066666666}, {"is_reserved": 0, "fusion_lon": 0.0, "fusion_lat": 0.0, "name": "3792de9eef2771939eb832a36aa77d34", "type": "electric_scooter", "is_disabled": 0, "lat": 38.92585866666667, "rental_uris": {"android": "https://dc.lft.to/lastmile_qr_scan", "ios": "https://dc.lft.to/lastmile_qr_scan"}, "bike_id": "3792de9eef2771939eb832a36aa77d34", "lon": -77.0398225}, {"is_reserved": 0, "fusion_lon": 0.0, "fusion_lat": 0.0, "name": "4d1fbf3f6be16ea93ca1590fc6ae02f4", "type": "electric_scooter", "is_disabled": 0, "lat": 38.921251833333336, "rental_uris": {"android": "https://dc.lft.to/lastmile_qr_scan", "ios": "https://dc.lft.to/lastmile_qr_scan"}, "bike_id": "4d1fbf3f6be16ea93ca1590fc6ae02f4", "lon": -77.039283}, {"is_reserved": 0, "fusion_lon": 0.0, "fusion_lat": 0.0, "name": "68aff683c8eb808f1de7c9fe472678ff", "type": "electric_bike", "is_disabled": 0, "lat": 38.9079665, "rental_uris": {"android": "https://dc.lft.to/lastmile_qr_scan", "ios": "https://dc.lft.to/lastmile_qr_scan"}, "bike_id": "68aff683c8eb808f1de7c9fe472678ff", "lon": -76.996964}, {"is_reserved": 0, "fusion_lon": 0.0, "fusion_lat": 0.0, "name": "5f9a3d66fe585f17b656eb0adde9fc43", "type": "electric_scooter", "is_disabled": 0, "lat": 38.898896, "rental_uris": {"android": "https://dc.lft.to/lastmile_qr_scan", "ios": "https://dc.lft.to/lastmile_qr_scan"}, "bike_id": "5f9a3d66fe585f17b656eb0adde9fc43", "lon": -77.032699}, {"is_reserved": 0, "fusion_lon": 0.0, "fusion_lat": 0.0, "name": "ae7be283b556d9b5f7838c1494aefe5d", "type": "electric_bike", "is_disabled": 0, "lat": 39.04300533333333, "rental_uris": {"android": "https://dc.lft.to/lastmile_qr_scan", "ios": "https://dc.lft.to/lastmile_qr_scan"}, "bike_id": "ae7be283b556d9b5f7838c1494aefe5d", "lon": -77.05158566666667}, {"is_reserved": 0, "fusion_lon": 0.0, "fusion_lat": 0.0, "name": "c75cc5255d2e7e234e2ad70200355396", "type": "electric_scooter", "is_disabled": 0, "lat": 38.900025, "rental_uris": {"android": "https://dc.lft.to/lastmile_qr_scan", "ios": "https://dc.lft.to/lastmile_qr_scan"}, "bike_id": "c75cc5255d2e7e234e2ad70200355396", "lon": -76.99622883333333}, {"is_reserved": 0, "fusion_lon": 0.0, "fusion_lat": 0.0, "name": "82b7c2825a790a3a19a4104535abf9fb", "type": "electric_scooter", "is_disabled": 0, "lat": 38.88716733333333, "rental_uris": {"android": "https://dc.lft.to/lastmile_qr_scan", "ios": "https://dc.lft.to/lastmile_qr_scan"}, "bike_id": "82b7c2825a790a3a19a4104535abf9fb", "lon": -77.03189233333333}, {"is_reserved": 0, "fusion_lon": 0.0, "fusion_lat": 0.0, "name": "41755a076b35a514fe3c229fbde3becc", "type": "electric_scooter", "is_disabled": 0, "lat": 38.896067, "rental_uris": {"android": "https://dc.lft.to/lastmile_qr_scan", "ios": "https://dc.lft.to/lastmile_qr_scan"}, "bike_id": "41755a076b35a514fe3c229fbde3becc", "lon": -76.99968}, {"is_reserved": 0, "fusion_lon": 0.0, "fusion_lat": 0.0, "name": "58767e50bc8d1079c2d250bd6f50dd9b", "type": "electric_scooter", "is_disabled": 0, "lat": 38.9059625, "rental_uris": {"android": "https://dc.lft.to/lastmile_qr_scan", "ios": "https://dc.lft.to/lastmile_qr_scan"}, "bike_id": "58767e50bc8d1079c2d250bd6f50dd9b", "lon": -77.06421216666666}, {"is_reserved": 0, "fusion_lon": 0.0, "fusion_lat": 0.0, "name": "4dbbbc55659cfb092144e906713a6e7a", "type": "electric_scooter", "is_disabled": 0, "lat": 38.90193133333333, "rental_uris": {"android": "https://dc.lft.to/lastmile_qr_scan", "ios": "https://dc.lft.to/lastmile_qr_scan"}, "bike_id": "4dbbbc55659cfb092144e906713a6e7a", "lon": -77.01230983333333}, {"is_reserved": 0, "fusion_lon": 0.0, "fusion_lat": 0.0, "name": "80ac9eecaffd177cac186b8ce33985e3", "type": "electric_scooter", "is_disabled": 0, "lat": 38.903631, "rental_uris": {"android": "https://dc.lft.to/lastmile_qr_scan", "ios": "https://dc.lft.to/lastmile_qr_scan"}, "bike_id": "80ac9eecaffd177cac186b8ce33985e3", "lon": -77.03190466666666}, {"is_reserved": 0, "fusion_lon": 0.0, "fusion_lat": 0.0, "name": "057351d2053aad0f4bb5a35d817d639e", "type": "electric_scooter", "is_disabled": 0, "lat": 38.921049833333335, "rental_uris": {"android": "https://dc.lft.to/lastmile_qr_scan", "ios": "https://dc.lft.to/lastmile_qr_scan"}, "bike_id": "057351d2053aad0f4bb5a35d817d639e", "lon": -77.04120666666667}, {"is_reserved": 0, "fusion_lon": 0.0, "fusion_lat": 0.0, "name": "9cea0e17ece7d15f43cab6ccdcbf51fe", "type": "electric_scooter", "is_disabled": 0, "lat": 38.88731166666667, "rental_uris": {"android": "https://dc.lft.to/lastmile_qr_scan", "ios": "https://dc.lft.to/lastmile_qr_scan"}, "bike_id": "9cea0e17ece7d15f43cab6ccdcbf51fe", "lon": -77.02811483333333}, {"is_reserved": 0, "fusion_lon": 0.0, "fusion_lat": 0.0, "name": "fc794b7039260ff544064691372a23c2", "type": "electric_scooter", "is_disabled": 0, "lat": 38.923259, "rental_uris": {"android": "https://dc.lft.to/lastmile_qr_scan", "ios": "https://dc.lft.to/lastmile_qr_scan"}, "bike_id": "fc794b7039260ff544064691372a23c2", "lon": -77.00049283333334}, {"is_reserved": 0, "fusion_lon": 0.0, "fusion_lat": 0.0, "name": "6fb7ff705c15c082c0ca6115874551bc", "type": "electric_bike", "is_disabled": 0, "lat": 39.052792333333336, "rental_uris": {"android": "https://dc.lft.to/lastmile_qr_scan", "ios": "https://dc.lft.to/lastmile_qr_scan"}, "bike_id": "6fb7ff705c15c082c0ca6115874551bc", "lon": -77.08071033333333}, {"is_reserved": 0, "fusion_lon": 0.0, "fusion_lat": 0.0, "name": "cd0e98809b61ebd0ce06f7526a7aca4e", "type": "electric_scooter", "is_disabled": 0, "lat": 38.9321935, "rental_uris": {"android": "https://dc.lft.to/lastmile_qr_scan", "ios": "https://dc.lft.to/lastmile_qr_scan"}, "bike_id": "cd0e98809b61ebd0ce06f7526a7aca4e", "lon": -77.038854}, {"is_reserved": 0, "fusion_lon": 0.0, "fusion_lat": 0.0, "name": "c7b6b88072699e70cb7e6645f171b644", "type": "electric_scooter", "is_disabled": 0, "lat": 38.866590333333335, "rental_uris": {"android": "https://dc.lft.to/lastmile_qr_scan", "ios": "https://dc.lft.to/lastmile_qr_scan"}, "bike_id": "c7b6b88072699e70cb7e6645f171b644", "lon": -76.988816}, {"is_reserved": 0, "fusion_lon": 0.0, "fusion_lat": 0.0, "name": "98ba8e3f6db32e6fb7ef010166ed5572", "type": "electric_scooter", "is_disabled": 0, "lat": 38.90241183333333, "rental_uris": {"android": "https://dc.lft.to/lastmile_qr_scan", "ios": "https://dc.lft.to/lastmile_qr_scan"}, "bike_id": "98ba8e3f6db32e6fb7ef010166ed5572", "lon": -76.99550783333333}, {"is_reserved": 0, "fusion_lon": 0.0, "fusion_lat": 0.0, "name": "6539252328454c74182dcb2a3fd267d2", "type": "electric_scooter", "is_disabled": 0, "lat": 38.8699205, "rental_uris": {"android": "https://dc.lft.to/lastmile_qr_scan", "ios": "https://dc.lft.to/lastmile_qr_scan"}, "bike_id": "6539252328454c74182dcb2a3fd267d2", "lon": -76.975923}, {"is_reserved": 0, "fusion_lon": 0.0, "fusion_lat": 0.0, "name": "9b8713fc549769fba1edb6719f34348d", "type": "electric_scooter", "is_disabled": 0, "lat": 38.98449566666667, "rental_uris": {"android": "https://dc.lft.to/lastmile_qr_scan", "ios": "https://dc.lft.to/lastmile_qr_scan"}, "bike_id": "9b8713fc549769fba1edb6719f34348d", "lon": -77.02639633333334}, {"is_reserved": 0, "fusion_lon": 0.0, "fusion_lat": 0.0, "name": "2e2fb5f0d0d7ef89f5c5bedcd86a6dec", "type": "electric_scooter", "is_disabled": 0, "lat": 38.926779333333336, "rental_uris": {"android": "https://dc.lft.to/lastmile_qr_scan", "ios": "https://dc.lft.to/lastmile_qr_scan"}, "bike_id": "2e2fb5f0d0d7ef89f5c5bedcd86a6dec", "lon": -77.029912}, {"is_reserved": 0, "fusion_lon": 0.0, "fusion_lat": 0.0, "name": "4cc60505607e3f5d3d8d2ca5efec5577", "type": "electric_scooter", "is_disabled": 0, "lat": 38.906498166666665, "rental_uris": {"android": "https://dc.lft.to/lastmile_qr_scan", "ios": "https://dc.lft.to/lastmile_qr_scan"}, "bike_id": "4cc60505607e3f5d3d8d2ca5efec5577", "lon": -77.04884333333334}, {"is_reserved": 0, "fusion_lon": 0.0, "fusion_lat": 0.0, "name": "fdb5397b5a72fa03e46c021496bd07ee", "type": "electric_scooter", "is_disabled": 0, "lat": 38.919137666666664, "rental_uris": {"android": "https://dc.lft.to/lastmile_qr_scan", "ios": "https://dc.lft.to/lastmile_qr_scan"}, "bike_id": "fdb5397b5a72fa03e46c021496bd07ee", "lon": -77.02502466666667}, {"is_reserved": 0, "fusion_lon": 0.0, "fusion_lat": 0.0, "name": "a1034cd6230d82045437a96a90023405", "type": "electric_scooter", "is_disabled": 0, "lat": 38.91568616666667, "rental_uris": {"android": "https://dc.lft.to/lastmile_qr_scan", "ios": "https://dc.lft.to/lastmile_qr_scan"}, "bike_id": "a1034cd6230d82045437a96a90023405", "lon": -77.019881}, {"is_reserved": 0, "fusion_lon": 0.0, "fusion_lat": 0.0, "name": "651d09773982480e1cc5b7d1fb9e1e7d", "type": "electric_scooter", "is_disabled": 0, "lat": 38.917977, "rental_uris": {"android": "https://dc.lft.to/lastmile_qr_scan", "ios": "https://dc.lft.to/lastmile_qr_scan"}, "bike_id": "651d09773982480e1cc5b7d1fb9e1e7d", "lon": -77.04021566666667}, {"is_reserved": 0, "fusion_lon": 0.0, "fusion_lat": 0.0, "name": "3bffdd0268af745db749a349aa7700bb", "type": "electric_scooter", "is_disabled": 0, "lat": 38.89218983333333, "rental_uris": {"android": "https://dc.lft.to/lastmile_qr_scan", "ios": "https://dc.lft.to/lastmile_qr_scan"}, "bike_id": "3bffdd0268af745db749a349aa7700bb", "lon": -77.02348766666667}, {"is_reserved": 0, "fusion_lon": 0.0, "fusion_lat": 0.0, "name": "c2527a754dfe89c32df368391ed50081", "type": "electric_bike", "is_disabled": 0, "lat": 39.0629305, "rental_uris": {"android": "https://dc.lft.to/lastmile_qr_scan", "ios": "https://dc.lft.to/lastmile_qr_scan"}, "bike_id": "c2527a754dfe89c32df368391ed50081", "lon": -77.04976916666666}, {"is_reserved": 0, "fusion_lon": 0.0, "fusion_lat": 0.0, "name": "597709ffc1a3727e25af973347880da5", "type": "electric_scooter", "is_disabled": 0, "lat": 38.8927055, "rental_uris": {"android": "https://dc.lft.to/lastmile_qr_scan", "ios": "https://dc.lft.to/lastmile_qr_scan"}, "bike_id": "597709ffc1a3727e25af973347880da5", "lon": -76.94238016666667}, {"is_reserved": 0, "fusion_lon": 0.0, "fusion_lat": 0.0, "name": "aade263f6302421ab42d6029bc124d6a", "type": "electric_scooter", "is_disabled": 0, "lat": 38.90622283333333, "rental_uris": {"android": "https://dc.lft.to/lastmile_qr_scan", "ios": "https://dc.lft.to/lastmile_qr_scan"}, "bike_id": "aade263f6302421ab42d6029bc124d6a", "lon": -77.04812966666667}, {"is_reserved": 0, "fusion_lon": 0.0, "fusion_lat": 0.0, "name": "4622167b80562a9182efdc69c1b89e0d", "type": "electric_scooter", "is_disabled": 0, "lat": 38.883015, "rental_uris": {"android": "https://dc.lft.to/lastmile_qr_scan", "ios": "https://dc.lft.to/lastmile_qr_scan"}, "bike_id": "4622167b80562a9182efdc69c1b89e0d", "lon": -76.9786295}, {"is_reserved": 0, "fusion_lon": 0.0, "fusion_lat": 0.0, "name": "cb6e202c5213ecc1b719cdd922359fc1", "type": "electric_scooter", "is_disabled": 0, "lat": 38.89912066666667, "rental_uris": {"android": "https://dc.lft.to/lastmile_qr_scan", "ios": "https://dc.lft.to/lastmile_qr_scan"}, "bike_id": "cb6e202c5213ecc1b719cdd922359fc1", "lon": -76.93383983333334}, {"is_reserved": 0, "fusion_lon": 0.0, "fusion_lat": 0.0, "name": "6498aa2b8a87c1f9dae6127c3fdc8d8f", "type": "electric_bike", "is_disabled": 0, "lat": 38.947873333333334, "rental_uris": {"android": "https://dc.lft.to/lastmile_qr_scan", "ios": "https://dc.lft.to/lastmile_qr_scan"}, "bike_id": "6498aa2b8a87c1f9dae6127c3fdc8d8f", "lon": -76.9720825}, {"is_reserved": 0, "fusion_lon": 0.0, "fusion_lat": 0.0, "name": "3ad2548a3babbc4f4ec590c09657e677", "type": "electric_scooter", "is_disabled": 0, "lat": 38.92228683333333, "rental_uris": {"android": "https://dc.lft.to/lastmile_qr_scan", "ios": "https://dc.lft.to/lastmile_qr_scan"}, "bike_id": "3ad2548a3babbc4f4ec590c09657e677", "lon": -77.02333316666666}, {"is_reserved": 0, "fusion_lon": 0.0, "fusion_lat": 0.0, "name": "7c779f7afa08c0a668136ae2d7e0d2e5", "type": "electric_scooter", "is_disabled": 0, "lat": 38.9066755, "rental_uris": {"android": "https://dc.lft.to/lastmile_qr_scan", "ios": "https://dc.lft.to/lastmile_qr_scan"}, "bike_id": "7c779f7afa08c0a668136ae2d7e0d2e5", "lon": -77.03841966666667}, {"is_reserved": 0, "fusion_lon": 0.0, "fusion_lat": 0.0, "name": "296818f80651f7bf12c4003e9e711d45", "type": "electric_scooter", "is_disabled": 0, "lat": 38.86406866666667, "rental_uris": {"android": "https://dc.lft.to/lastmile_qr_scan", "ios": "https://dc.lft.to/lastmile_qr_scan"}, "bike_id": "296818f80651f7bf12c4003e9e711d45", "lon": -76.97442366666667}, {"is_reserved": 0, "fusion_lon": 0.0, "fusion_lat": 0.0, "name": "90f44a1f22cc8b47fc55a6dd22d9efcb", "type": "electric_scooter", "is_disabled": 0, "lat": 38.906223833333335, "rental_uris": {"android": "https://dc.lft.to/lastmile_qr_scan", "ios": "https://dc.lft.to/lastmile_qr_scan"}, "bike_id": "90f44a1f22cc8b47fc55a6dd22d9efcb", "lon": -77.04780583333333}, {"is_reserved": 0, "fusion_lon": 0.0, "fusion_lat": 0.0, "name": "8fbb91045759c53809844e1afd7f3771", "type": "electric_scooter", "is_disabled": 0, "lat": 38.8874435, "rental_uris": {"android": "https://dc.lft.to/lastmile_qr_scan", "ios": "https://dc.lft.to/lastmile_qr_scan"}, "bike_id": "8fbb91045759c53809844e1afd7f3771", "lon": -77.01537216666667}, {"is_reserved": 0, "fusion_lon": 0.0, "fusion_lat": 0.0, "name": "48680b15164332d6496f8f16ab9a11b0", "type": "electric_scooter", "is_disabled": 0, "lat": 38.9056945, "rental_uris": {"android": "https://dc.lft.to/lastmile_qr_scan", "ios": "https://dc.lft.to/lastmile_qr_scan"}, "bike_id": "48680b15164332d6496f8f16ab9a11b0", "lon": -77.04461033333334}, {"is_reserved": 0, "fusion_lon": 0.0, "fusion_lat": 0.0, "name": "5499dda96b100e7e6ee8327e8543cf70", "type": "electric_scooter", "is_disabled": 0, "lat": 38.8832095, "rental_uris": {"android": "https://dc.lft.to/lastmile_qr_scan", "ios": "https://dc.lft.to/lastmile_qr_scan"}, "bike_id": "5499dda96b100e7e6ee8327e8543cf70", "lon": -77.02020116666667}, {"is_reserved": 0, "fusion_lon": 0.0, "fusion_lat": 0.0, "name": "38c7adb91ecfdf1f386875e9c1b1efd3", "type": "electric_scooter", "is_disabled": 0, "lat": 38.86070266666667, "rental_uris": {"android": "https://dc.lft.to/lastmile_qr_scan", "ios": "https://dc.lft.to/lastmile_qr_scan"}, "bike_id": "38c7adb91ecfdf1f386875e9c1b1efd3", "lon": -76.9689595}, {"is_reserved": 0, "fusion_lon": 0.0, "fusion_lat": 0.0, "name": "ac1c2d6c6653d69c3cf2c87701c17bff", "type": "electric_scooter", "is_disabled": 0, "lat": 38.9266045, "rental_uris": {"android": "https://dc.lft.to/lastmile_qr_scan", "ios": "https://dc.lft.to/lastmile_qr_scan"}, "bike_id": "ac1c2d6c6653d69c3cf2c87701c17bff", "lon": -77.03730133333333}, {"is_reserved": 0, "fusion_lon": 0.0, "fusion_lat": 0.0, "name": "1a11d715665ab24d4e6f7602571a641e", "type": "electric_scooter", "is_disabled": 0, "lat": 38.88773833333333, "rental_uris": {"android": "https://dc.lft.to/lastmile_qr_scan", "ios": "https://dc.lft.to/lastmile_qr_scan"}, "bike_id": "1a11d715665ab24d4e6f7602571a641e", "lon": -76.95530766666667}, {"is_reserved": 0, "fusion_lon": 0.0, "fusion_lat": 0.0, "name": "57d0918e14969c19d2f2fb0fdaaba180", "type": "electric_scooter", "is_disabled": 0, "lat": 38.91100516666667, "rental_uris": {"android": "https://dc.lft.to/lastmile_qr_scan", "ios": "https://dc.lft.to/lastmile_qr_scan"}, "bike_id": "57d0918e14969c19d2f2fb0fdaaba180", "lon": -77.02201583333333}, {"is_reserved": 0, "fusion_lon": 0.0, "fusion_lat": 0.0, "name": "e306fcfe9b613b0a85a15d18bf04255a", "type": "electric_bike", "is_disabled": 0, "lat": 39.02435783333333, "rental_uris": {"android": "https://dc.lft.to/lastmile_qr_scan", "ios": "https://dc.lft.to/lastmile_qr_scan"}, "bike_id": "e306fcfe9b613b0a85a15d18bf04255a", "lon": -77.13099833333334}, {"is_reserved": 0, "fusion_lon": 0.0, "fusion_lat": 0.0, "name": "5484927ed7e8cba004f2583f32ddce7d", "type": "electric_scooter", "is_disabled": 0, "lat": 38.8922195, "rental_uris": {"android": "https://dc.lft.to/lastmile_qr_scan", "ios": "https://dc.lft.to/lastmile_qr_scan"}, "bike_id": "5484927ed7e8cba004f2583f32ddce7d", "lon": -77.04503416666667}, {"is_reserved": 0, "fusion_lon": 0.0, "fusion_lat": 0.0, "name": "9c1eebc7d993735b358049d256523d2b", "type": "electric_scooter", "is_disabled": 0, "lat": 38.90199533333333, "rental_uris": {"android": "https://dc.lft.to/lastmile_qr_scan", "ios": "https://dc.lft.to/lastmile_qr_scan"}, "bike_id": "9c1eebc7d993735b358049d256523d2b", "lon": -77.0217225}, {"is_reserved": 0, "fusion_lon": 0.0, "fusion_lat": 0.0, "name": "782eba95f94fb9d01c3d96db40e0c815", "type": "electric_bike", "is_disabled": 0, "lat": 38.800112666666664, "rental_uris": {"android": "https://dc.lft.to/lastmile_qr_scan", "ios": "https://dc.lft.to/lastmile_qr_scan"}, "bike_id": "782eba95f94fb9d01c3d96db40e0c815", "lon": -77.05480266666666}, {"is_reserved": 0, "fusion_lon": 0.0, "fusion_lat": 0.0, "name": "5f55ea2f52c87fa01f1a26ce7dcd47b4", "type": "electric_scooter", "is_disabled": 0, "lat": 38.8871985, "rental_uris": {"android": "https://dc.lft.to/lastmile_qr_scan", "ios": "https://dc.lft.to/lastmile_qr_scan"}, "bike_id": "5f55ea2f52c87fa01f1a26ce7dcd47b4", "lon": -77.02188533333333}, {"is_reserved": 0, "fusion_lon": 0.0, "fusion_lat": 0.0, "name": "80f49ca91733ce52e52000350991b20a", "type": "electric_scooter", "is_disabled": 0, "lat": 38.92354483333333, "rental_uris": {"android": "https://dc.lft.to/lastmile_qr_scan", "ios": "https://dc.lft.to/lastmile_qr_scan"}, "bike_id": "80f49ca91733ce52e52000350991b20a", "lon": -77.04238916666667}, {"is_reserved": 0, "fusion_lon": 0.0, "fusion_lat": 0.0, "name": "8bc0c1635ffa778b03df92236cf77595", "type": "electric_scooter", "is_disabled": 0, "lat": 38.911159, "rental_uris": {"android": "https://dc.lft.to/lastmile_qr_scan", "ios": "https://dc.lft.to/lastmile_qr_scan"}, "bike_id": "8bc0c1635ffa778b03df92236cf77595", "lon": -77.038291}, {"is_reserved": 0, "fusion_lon": 0.0, "fusion_lat": 0.0, "name": "d6c11ef90e087892614864f54ef87d7f", "type": "electric_scooter", "is_disabled": 0, "lat": 38.9572975, "rental_uris": {"android": "https://dc.lft.to/lastmile_qr_scan", "ios": "https://dc.lft.to/lastmile_qr_scan"}, "bike_id": "d6c11ef90e087892614864f54ef87d7f", "lon": -77.02403866666667}, {"is_reserved": 0, "fusion_lon": 0.0, "fusion_lat": 0.0, "name": "42bdfff64f7fcaf6353e59458e7b6803", "type": "electric_scooter", "is_disabled": 0, "lat": 38.90396883333333, "rental_uris": {"android": "https://dc.lft.to/lastmile_qr_scan", "ios": "https://dc.lft.to/lastmile_qr_scan"}, "bike_id": "42bdfff64f7fcaf6353e59458e7b6803", "lon": -77.042186}, {"is_reserved": 0, "fusion_lon": 0.0, "fusion_lat": 0.0, "name": "6abe8dce3e270e021412a69a7036ad73", "type": "electric_scooter", "is_disabled": 0, "lat": 38.92001283333333, "rental_uris": {"android": "https://dc.lft.to/lastmile_qr_scan", "ios": "https://dc.lft.to/lastmile_qr_scan"}, "bike_id": "6abe8dce3e270e021412a69a7036ad73", "lon": -77.03881916666667}, {"is_reserved": 0, "fusion_lon": 0.0, "fusion_lat": 0.0, "name": "edaacdc460131816de92f48f600f2e84", "type": "electric_scooter", "is_disabled": 0, "lat": 38.9040645, "rental_uris": {"android": "https://dc.lft.to/lastmile_qr_scan", "ios": "https://dc.lft.to/lastmile_qr_scan"}, "bike_id": "edaacdc460131816de92f48f600f2e84", "lon": -76.973308}, {"is_reserved": 0, "fusion_lon": 0.0, "fusion_lat": 0.0, "name": "72fe3cc8c3c612a661041ecc01d37629", "type": "electric_scooter", "is_disabled": 0, "lat": 38.923222, "rental_uris": {"android": "https://dc.lft.to/lastmile_qr_scan", "ios": "https://dc.lft.to/lastmile_qr_scan"}, "bike_id": "72fe3cc8c3c612a661041ecc01d37629", "lon": -77.0354635}, {"is_reserved": 0, "fusion_lon": 0.0, "fusion_lat": 0.0, "name": "e7bb8c4cebbcce3f080f6db80721d1d4", "type": "electric_scooter", "is_disabled": 0, "lat": 38.89485466666667, "rental_uris": {"android": "https://dc.lft.to/lastmile_qr_scan", "ios": "https://dc.lft.to/lastmile_qr_scan"}, "bike_id": "e7bb8c4cebbcce3f080f6db80721d1d4", "lon": -77.0231935}, {"is_reserved": 0, "fusion_lon": 0.0, "fusion_lat": 0.0, "name": "affff24861bd61b6a63bb169d2fc2fd3", "type": "electric_bike", "is_disabled": 0, "lat": 38.88242966666667, "rental_uris": {"android": "https://dc.lft.to/lastmile_qr_scan", "ios": "https://dc.lft.to/lastmile_qr_scan"}, "bike_id": "affff24861bd61b6a63bb169d2fc2fd3", "lon": -76.96258416666667}, {"is_reserved": 0, "fusion_lon": 0.0, "fusion_lat": 0.0, "name": "d5c6394fc8625064912dcb447e9c9fdd", "type": "electric_bike", "is_disabled": 0, "lat": 38.959573, "rental_uris": {"android": "https://dc.lft.to/lastmile_qr_scan", "ios": "https://dc.lft.to/lastmile_qr_scan"}, "bike_id": "d5c6394fc8625064912dcb447e9c9fdd", "lon": -77.03056516666666}, {"is_reserved": 0, "fusion_lon": 0.0, "fusion_lat": 0.0, "name": "e6c07dce88ea18b53321dc144a89937f", "type": "electric_scooter", "is_disabled": 0, "lat": 38.915166, "rental_uris": {"android": "https://dc.lft.to/lastmile_qr_scan", "ios": "https://dc.lft.to/lastmile_qr_scan"}, "bike_id": "e6c07dce88ea18b53321dc144a89937f", "lon": -77.0446355}, {"is_reserved": 0, "fusion_lon": 0.0, "fusion_lat": 0.0, "name": "3bf30b10b387697d08a69ccc9031f7cd", "type": "electric_scooter", "is_disabled": 0, "lat": 38.883956166666664, "rental_uris": {"android": "https://dc.lft.to/lastmile_qr_scan", "ios": "https://dc.lft.to/lastmile_qr_scan"}, "bike_id": "3bf30b10b387697d08a69ccc9031f7cd", "lon": -77.02574283333334}, {"is_reserved": 0, "fusion_lon": 0.0, "fusion_lat": 0.0, "name": "bc66f4230cb03b74599d380c7ae0d7fd", "type": "electric_scooter", "is_disabled": 0, "lat": 38.90549566666667, "rental_uris": {"android": "https://dc.lft.to/lastmile_qr_scan", "ios": "https://dc.lft.to/lastmile_qr_scan"}, "bike_id": "bc66f4230cb03b74599d380c7ae0d7fd", "lon": -77.04078883333334}, {"is_reserved": 0, "fusion_lon": 0.0, "fusion_lat": 0.0, "name": "afae8075bf7ab6078c358c59456063da", "type": "electric_scooter", "is_disabled": 0, "lat": 38.89218833333334, "rental_uris": {"android": "https://dc.lft.to/lastmile_qr_scan", "ios": "https://dc.lft.to/lastmile_qr_scan"}, "bike_id": "afae8075bf7ab6078c358c59456063da", "lon": -77.03161083333333}, {"is_reserved": 0, "fusion_lon": 0.0, "fusion_lat": 0.0, "name": "1b8512dbd5b4576d62daa88f30ab5418", "type": "electric_scooter", "is_disabled": 0, "lat": 38.91839366666667, "rental_uris": {"android": "https://dc.lft.to/lastmile_qr_scan", "ios": "https://dc.lft.to/lastmile_qr_scan"}, "bike_id": "1b8512dbd5b4576d62daa88f30ab5418", "lon": -77.05951033333334}, {"is_reserved": 0, "fusion_lon": 0.0, "fusion_lat": 0.0, "name": "cb8d0a039246615a9be9150a80b97cb1", "type": "electric_bike", "is_disabled": 0, "lat": 38.96133433333333, "rental_uris": {"android": "https://dc.lft.to/lastmile_qr_scan", "ios": "https://dc.lft.to/lastmile_qr_scan"}, "bike_id": "cb8d0a039246615a9be9150a80b97cb1", "lon": -77.02373216666666}, {"is_reserved": 0, "fusion_lon": 0.0, "fusion_lat": 0.0, "name": "3c304dddaea5c93f270d3d0e0fffda8e", "type": "electric_scooter", "is_disabled": 0, "lat": 38.907732, "rental_uris": {"android": "https://dc.lft.to/lastmile_qr_scan", "ios": "https://dc.lft.to/lastmile_qr_scan"}, "bike_id": "3c304dddaea5c93f270d3d0e0fffda8e", "lon": -77.01103283333333}, {"is_reserved": 0, "fusion_lon": 0.0, "fusion_lat": 0.0, "name": "ec8355a6069bb3af5d2b7a7bda9222e9", "type": "electric_scooter", "is_disabled": 0, "lat": 38.889606666666666, "rental_uris": {"android": "https://dc.lft.to/lastmile_qr_scan", "ios": "https://dc.lft.to/lastmile_qr_scan"}, "bike_id": "ec8355a6069bb3af5d2b7a7bda9222e9", "lon": -76.9370625}, {"is_reserved": 0, "fusion_lon": 0.0, "fusion_lat": 0.0, "name": "7d7fa1d9699109b9121080e0811c5432", "type": "electric_scooter", "is_disabled": 0, "lat": 38.923240666666665, "rental_uris": {"android": "https://dc.lft.to/lastmile_qr_scan", "ios": "https://dc.lft.to/lastmile_qr_scan"}, "bike_id": "7d7fa1d9699109b9121080e0811c5432", "lon": -77.03545016666666}, {"is_reserved": 0, "fusion_lon": 0.0, "fusion_lat": 0.0, "name": "0c97e6ec52ae4d3d9850daed2ef463b2", "type": "electric_scooter", "is_disabled": 0, "lat": 38.92447466666667, "rental_uris": {"android": "https://dc.lft.to/lastmile_qr_scan", "ios": "https://dc.lft.to/lastmile_qr_scan"}, "bike_id": "0c97e6ec52ae4d3d9850daed2ef463b2", "lon": -77.05753016666667}, {"is_reserved": 0, "fusion_lon": 0.0, "fusion_lat": 0.0, "name": "3778c6136d9e2fd721bf3f48683f561d", "type": "electric_scooter", "is_disabled": 0, "lat": 38.92587016666667, "rental_uris": {"android": "https://dc.lft.to/lastmile_qr_scan", "ios": "https://dc.lft.to/lastmile_qr_scan"}, "bike_id": "3778c6136d9e2fd721bf3f48683f561d", "lon": -77.02681733333333}, {"is_reserved": 0, "fusion_lon": 0.0, "fusion_lat": 0.0, "name": "404caea81716a3d4a87da324ed93fa17", "type": "electric_scooter", "is_disabled": 0, "lat": 38.9106765, "rental_uris": {"android": "https://dc.lft.to/lastmile_qr_scan", "ios": "https://dc.lft.to/lastmile_qr_scan"}, "bike_id": "404caea81716a3d4a87da324ed93fa17", "lon": -77.040962}, {"is_reserved": 0, "fusion_lon": 0.0, "fusion_lat": 0.0, "name": "8066cdcfe41d90c44123eb35124a23c7", "type": "electric_scooter", "is_disabled": 0, "lat": 38.930456, "rental_uris": {"android": "https://dc.lft.to/lastmile_qr_scan", "ios": "https://dc.lft.to/lastmile_qr_scan"}, "bike_id": "8066cdcfe41d90c44123eb35124a23c7", "lon": -77.03794833333333}, {"is_reserved": 0, "fusion_lon": 0.0, "fusion_lat": 0.0, "name": "347656855dda7ad8bb0c5d4f45314b71", "type": "electric_scooter", "is_disabled": 0, "lat": 38.953264, "rental_uris": {"android": "https://dc.lft.to/lastmile_qr_scan", "ios": "https://dc.lft.to/lastmile_qr_scan"}, "bike_id": "347656855dda7ad8bb0c5d4f45314b71", "lon": -77.0707025}, {"is_reserved": 0, "fusion_lon": 0.0, "fusion_lat": 0.0, "name": "198ed95b5e0ae5c35c0c768282d9be28", "type": "electric_scooter", "is_disabled": 0, "lat": 38.90279, "rental_uris": {"android": "https://dc.lft.to/lastmile_qr_scan", "ios": "https://dc.lft.to/lastmile_qr_scan"}, "bike_id": "198ed95b5e0ae5c35c0c768282d9be28", "lon": -77.0581265}, {"is_reserved": 0, "fusion_lon": 0.0, "fusion_lat": 0.0, "name": "ae501cd9c4d8b9f4260da32c93a28996", "type": "electric_scooter", "is_disabled": 0, "lat": 38.90322916666667, "rental_uris": {"android": "https://dc.lft.to/lastmile_qr_scan", "ios": "https://dc.lft.to/lastmile_qr_scan"}, "bike_id": "ae501cd9c4d8b9f4260da32c93a28996", "lon": -77.04664633333333}, {"is_reserved": 0, "fusion_lon": 0.0, "fusion_lat": 0.0, "name": "a6c2d866b5f56bb8d30db6f96998beb8", "type": "electric_scooter", "is_disabled": 0, "lat": 38.90783533333333, "rental_uris": {"android": "https://dc.lft.to/lastmile_qr_scan", "ios": "https://dc.lft.to/lastmile_qr_scan"}, "bike_id": "a6c2d866b5f56bb8d30db6f96998beb8", "lon": -77.07248866666667}, {"is_reserved": 0, "fusion_lon": 0.0, "fusion_lat": 0.0, "name": "ac4c370464710df2e27abf02d8741a22", "type": "electric_bike", "is_disabled": 0, "lat": 39.05779866666666, "rental_uris": {"android": "https://dc.lft.to/lastmile_qr_scan", "ios": "https://dc.lft.to/lastmile_qr_scan"}, "bike_id": "ac4c370464710df2e27abf02d8741a22", "lon": -77.15021316666666}, {"is_reserved": 0, "fusion_lon": 0.0, "fusion_lat": 0.0, "name": "2f5c341fe18f6302c7fe55ef6bd6bfc5", "type": "electric_scooter", "is_disabled": 0, "lat": 38.89516416666667, "rental_uris": {"android": "https://dc.lft.to/lastmile_qr_scan", "ios": "https://dc.lft.to/lastmile_qr_scan"}, "bike_id": "2f5c341fe18f6302c7fe55ef6bd6bfc5", "lon": -77.03959033333334}, {"is_reserved": 0, "fusion_lon": 0.0, "fusion_lat": 0.0, "name": "0dbedb2ce7f5bf7891d04e5031951793", "type": "electric_bike", "is_disabled": 0, "lat": 38.85887666666667, "rental_uris": {"android": "https://dc.lft.to/lastmile_qr_scan", "ios": "https://dc.lft.to/lastmile_qr_scan"}, "bike_id": "0dbedb2ce7f5bf7891d04e5031951793", "lon": -77.1186345}, {"is_reserved": 0, "fusion_lon": 0.0, "fusion_lat": 0.0, "name": "8a663dff1f1bdde4b6684f6816e604c1", "type": "electric_scooter", "is_disabled": 0, "lat": 38.91538083333333, "rental_uris": {"android": "https://dc.lft.to/lastmile_qr_scan", "ios": "https://dc.lft.to/lastmile_qr_scan"}, "bike_id": "8a663dff1f1bdde4b6684f6816e604c1", "lon": -77.03790916666667}, {"is_reserved": 0, "fusion_lon": 0.0, "fusion_lat": 0.0, "name": "5362e966f683bbe03b1554adfa2be4d4", "type": "electric_scooter", "is_disabled": 0, "lat": 38.92157433333333, "rental_uris": {"android": "https://dc.lft.to/lastmile_qr_scan", "ios": "https://dc.lft.to/lastmile_qr_scan"}, "bike_id": "5362e966f683bbe03b1554adfa2be4d4", "lon": -77.0333375}, {"is_reserved": 0, "fusion_lon": 0.0, "fusion_lat": 0.0, "name": "11e899635ac6c0a7f1b5c8e0d1abc090", "type": "electric_scooter", "is_disabled": 0, "lat": 38.908176833333336, "rental_uris": {"android": "https://dc.lft.to/lastmile_qr_scan", "ios": "https://dc.lft.to/lastmile_qr_scan"}, "bike_id": "11e899635ac6c0a7f1b5c8e0d1abc090", "lon": -76.99203633333333}, {"is_reserved": 0, "fusion_lon": 0.0, "fusion_lat": 0.0, "name": "cf89dfbbc4bddd4351ad38d6ff37540a", "type": "electric_scooter", "is_disabled": 0, "lat": 38.8923805, "rental_uris": {"android": "https://dc.lft.to/lastmile_qr_scan", "ios": "https://dc.lft.to/lastmile_qr_scan"}, "bike_id": "cf89dfbbc4bddd4351ad38d6ff37540a", "lon": -77.031817}, {"is_reserved": 0, "fusion_lon": 0.0, "fusion_lat": 0.0, "name": "38cf92e0936dd2c1fa1015b242881d61", "type": "electric_scooter", "is_disabled": 0, "lat": 38.9071145, "rental_uris": {"android": "https://dc.lft.to/lastmile_qr_scan", "ios": "https://dc.lft.to/lastmile_qr_scan"}, "bike_id": "38cf92e0936dd2c1fa1015b242881d61", "lon": -77.03823866666667}, {"is_reserved": 0, "fusion_lon": 0.0, "fusion_lat": 0.0, "name": "b612576410d60284b7591d4d69731a68", "type": "electric_scooter", "is_disabled": 0, "lat": 38.905589666666664, "rental_uris": {"android": "https://dc.lft.to/lastmile_qr_scan", "ios": "https://dc.lft.to/lastmile_qr_scan"}, "bike_id": "b612576410d60284b7591d4d69731a68", "lon": -77.0344765}, {"is_reserved": 0, "fusion_lon": 0.0, "fusion_lat": 0.0, "name": "664030cf6069fcfbf46c61992924a595", "type": "electric_scooter", "is_disabled": 0, "lat": 38.9450675, "rental_uris": {"android": "https://dc.lft.to/lastmile_qr_scan", "ios": "https://dc.lft.to/lastmile_qr_scan"}, "bike_id": "664030cf6069fcfbf46c61992924a595", "lon": -77.03317183333333}, {"is_reserved": 0, "fusion_lon": 0.0, "fusion_lat": 0.0, "name": "9165eea78b3f64fe4c4ff9e756b7ff48", "type": "electric_scooter", "is_disabled": 0, "lat": 38.90805433333333, "rental_uris": {"android": "https://dc.lft.to/lastmile_qr_scan", "ios": "https://dc.lft.to/lastmile_qr_scan"}, "bike_id": "9165eea78b3f64fe4c4ff9e756b7ff48", "lon": -77.04339066666667}, {"is_reserved": 0, "fusion_lon": 0.0, "fusion_lat": 0.0, "name": "4b1143a6e120c59d6ff4bee9dfdd3075", "type": "electric_scooter", "is_disabled": 0, "lat": 38.92876533333333, "rental_uris": {"android": "https://dc.lft.to/lastmile_qr_scan", "ios": "https://dc.lft.to/lastmile_qr_scan"}, "bike_id": "4b1143a6e120c59d6ff4bee9dfdd3075", "lon": -77.0332495}, {"is_reserved": 0, "fusion_lon": 0.0, "fusion_lat": 0.0, "name": "f47f3905070dc7e92964448362f6d817", "type": "electric_scooter", "is_disabled": 0, "lat": 38.907909333333336, "rental_uris": {"android": "https://dc.lft.to/lastmile_qr_scan", "ios": "https://dc.lft.to/lastmile_qr_scan"}, "bike_id": "f47f3905070dc7e92964448362f6d817", "lon": -77.038649}, {"is_reserved": 0, "fusion_lon": 0.0, "fusion_lat": 0.0, "name": "a5bd4130268a5405ed35c61094e631d2", "type": "electric_scooter", "is_disabled": 0, "lat": 38.911189666666665, "rental_uris": {"android": "https://dc.lft.to/lastmile_qr_scan", "ios": "https://dc.lft.to/lastmile_qr_scan"}, "bike_id": "a5bd4130268a5405ed35c61094e631d2", "lon": -77.03156266666667}, {"is_reserved": 0, "fusion_lon": 0.0, "fusion_lat": 0.0, "name": "da70a153df7ef2765e9ae160d4ff663c", "type": "electric_scooter", "is_disabled": 0, "lat": 38.901803, "rental_uris": {"android": "https://dc.lft.to/lastmile_qr_scan", "ios": "https://dc.lft.to/lastmile_qr_scan"}, "bike_id": "da70a153df7ef2765e9ae160d4ff663c", "lon": -76.93372433333333}, {"is_reserved": 0, "fusion_lon": 0.0, "fusion_lat": 0.0, "name": "c89d10c6ba30729140eed2c5f49a3b60", "type": "electric_scooter", "is_disabled": 0, "lat": 38.8585195, "rental_uris": {"android": "https://dc.lft.to/lastmile_qr_scan", "ios": "https://dc.lft.to/lastmile_qr_scan"}, "bike_id": "c89d10c6ba30729140eed2c5f49a3b60", "lon": -76.98565283333333}, {"is_reserved": 0, "fusion_lon": 0.0, "fusion_lat": 0.0, "name": "7430bc96016cbe4927e36a20d3e18f85", "type": "electric_scooter", "is_disabled": 0, "lat": 38.90580816666667, "rental_uris": {"android": "https://dc.lft.to/lastmile_qr_scan", "ios": "https://dc.lft.to/lastmile_qr_scan"}, "bike_id": "7430bc96016cbe4927e36a20d3e18f85", "lon": -77.02221316666666}, {"is_reserved": 0, "fusion_lon": 0.0, "fusion_lat": 0.0, "name": "7d3f2bea12cd950697468280a862c615", "type": "electric_scooter", "is_disabled": 0, "lat": 38.90270233333333, "rental_uris": {"android": "https://dc.lft.to/lastmile_qr_scan", "ios": "https://dc.lft.to/lastmile_qr_scan"}, "bike_id": "7d3f2bea12cd950697468280a862c615", "lon": -77.03896066666667}, {"is_reserved": 0, "fusion_lon": 0.0, "fusion_lat": 0.0, "name": "ee3dc4cc147423079862fcc5d3e8c1ca", "type": "electric_scooter", "is_disabled": 0, "lat": 38.9215475, "rental_uris": {"android": "https://dc.lft.to/lastmile_qr_scan", "ios": "https://dc.lft.to/lastmile_qr_scan"}, "bike_id": "ee3dc4cc147423079862fcc5d3e8c1ca", "lon": -77.04225533333333}, {"is_reserved": 0, "fusion_lon": 0.0, "fusion_lat": 0.0, "name": "8e7e762fe2638d7c6b5789e3443ae64d", "type": "electric_bike", "is_disabled": 0, "lat": 38.836073166666665, "rental_uris": {"android": "https://dc.lft.to/lastmile_qr_scan", "ios": "https://dc.lft.to/lastmile_qr_scan"}, "bike_id": "8e7e762fe2638d7c6b5789e3443ae64d", "lon": -77.00381883333333}, {"is_reserved": 0, "fusion_lon": 0.0, "fusion_lat": 0.0, "name": "2fe3b1488d6627e8a49a7ea095a02d11", "type": "electric_scooter", "is_disabled": 0, "lat": 38.908877333333336, "rental_uris": {"android": "https://dc.lft.to/lastmile_qr_scan", "ios": "https://dc.lft.to/lastmile_qr_scan"}, "bike_id": "2fe3b1488d6627e8a49a7ea095a02d11", "lon": -76.9984925}, {"is_reserved": 0, "fusion_lon": 0.0, "fusion_lat": 0.0, "name": "7ae2b4c806537e3affe154af94b3f020", "type": "electric_scooter", "is_disabled": 0, "lat": 38.8499295, "rental_uris": {"android": "https://dc.lft.to/lastmile_qr_scan", "ios": "https://dc.lft.to/lastmile_qr_scan"}, "bike_id": "7ae2b4c806537e3affe154af94b3f020", "lon": -76.98345666666667}, {"is_reserved": 0, "fusion_lon": 0.0, "fusion_lat": 0.0, "name": "7a38b9f5156805c3b645f27ec1b67bb6", "type": "electric_scooter", "is_disabled": 0, "lat": 38.907264833333336, "rental_uris": {"android": "https://dc.lft.to/lastmile_qr_scan", "ios": "https://dc.lft.to/lastmile_qr_scan"}, "bike_id": "7a38b9f5156805c3b645f27ec1b67bb6", "lon": -77.04355166666667}, {"is_reserved": 0, "fusion_lon": 0.0, "fusion_lat": 0.0, "name": "87ff94f1886ba33418c5821ca113d655", "type": "electric_scooter", "is_disabled": 0, "lat": 38.904899666666665, "rental_uris": {"android": "https://dc.lft.to/lastmile_qr_scan", "ios": "https://dc.lft.to/lastmile_qr_scan"}, "bike_id": "87ff94f1886ba33418c5821ca113d655", "lon": -76.98712516666667}, {"is_reserved": 0, "fusion_lon": 0.0, "fusion_lat": 0.0, "name": "ed176a7c278a7268ea1377b5cc80cba3", "type": "electric_scooter", "is_disabled": 0, "lat": 38.91691, "rental_uris": {"android": "https://dc.lft.to/lastmile_qr_scan", "ios": "https://dc.lft.to/lastmile_qr_scan"}, "bike_id": "ed176a7c278a7268ea1377b5cc80cba3", "lon": -77.03212683333334}, {"is_reserved": 0, "fusion_lon": 0.0, "fusion_lat": 0.0, "name": "6764c7bf246c9f4a6180d612a37b8568", "type": "electric_scooter", "is_disabled": 0, "lat": 38.92438716666667, "rental_uris": {"android": "https://dc.lft.to/lastmile_qr_scan", "ios": "https://dc.lft.to/lastmile_qr_scan"}, "bike_id": "6764c7bf246c9f4a6180d612a37b8568", "lon": -77.03402633333333}, {"is_reserved": 0, "fusion_lon": 0.0, "fusion_lat": 0.0, "name": "df43531bba86167c4d877275d127e1d2", "type": "electric_bike", "is_disabled": 0, "lat": 38.953212666666666, "rental_uris": {"android": "https://dc.lft.to/lastmile_qr_scan", "ios": "https://dc.lft.to/lastmile_qr_scan"}, "bike_id": "df43531bba86167c4d877275d127e1d2", "lon": -76.95431133333334}, {"is_reserved": 0, "fusion_lon": 0.0, "fusion_lat": 0.0, "name": "e3383896a8e07c1eba6ed5496a516082", "type": "electric_scooter", "is_disabled": 0, "lat": 38.912543666666664, "rental_uris": {"android": "https://dc.lft.to/lastmile_qr_scan", "ios": "https://dc.lft.to/lastmile_qr_scan"}, "bike_id": "e3383896a8e07c1eba6ed5496a516082", "lon": -77.07318333333333}, {"is_reserved": 0, "fusion_lon": 0.0, "fusion_lat": 0.0, "name": "58f558bc87c05e131bc22973c1cbff34", "type": "electric_scooter", "is_disabled": 0, "lat": 38.894307166666664, "rental_uris": {"android": "https://dc.lft.to/lastmile_qr_scan", "ios": "https://dc.lft.to/lastmile_qr_scan"}, "bike_id": "58f558bc87c05e131bc22973c1cbff34", "lon": -77.0400445}, {"is_reserved": 0, "fusion_lon": 0.0, "fusion_lat": 0.0, "name": "8b73521eb83ea6eccbc89016cdc73a96", "type": "electric_scooter", "is_disabled": 0, "lat": 38.89765533333333, "rental_uris": {"android": "https://dc.lft.to/lastmile_qr_scan", "ios": "https://dc.lft.to/lastmile_qr_scan"}, "bike_id": "8b73521eb83ea6eccbc89016cdc73a96", "lon": -77.0122625}, {"is_reserved": 0, "fusion_lon": 0.0, "fusion_lat": 0.0, "name": "e8de76424fd6cff072d5ae2457841714", "type": "electric_scooter", "is_disabled": 0, "lat": 38.91647366666667, "rental_uris": {"android": "https://dc.lft.to/lastmile_qr_scan", "ios": "https://dc.lft.to/lastmile_qr_scan"}, "bike_id": "e8de76424fd6cff072d5ae2457841714", "lon": -77.0480505}, {"is_reserved": 0, "fusion_lon": 0.0, "fusion_lat": 0.0, "name": "921fc19de9b147796adc486afee37851", "type": "electric_scooter", "is_disabled": 0, "lat": 38.91761116666667, "rental_uris": {"android": "https://dc.lft.to/lastmile_qr_scan", "ios": "https://dc.lft.to/lastmile_qr_scan"}, "bike_id": "921fc19de9b147796adc486afee37851", "lon": -77.04057933333333}, {"is_reserved": 0, "fusion_lon": 0.0, "fusion_lat": 0.0, "name": "5d2d115e08ade724be6117745eeb03cd", "type": "electric_scooter", "is_disabled": 0, "lat": 38.90524633333333, "rental_uris": {"android": "https://dc.lft.to/lastmile_qr_scan", "ios": "https://dc.lft.to/lastmile_qr_scan"}, "bike_id": "5d2d115e08ade724be6117745eeb03cd", "lon": -77.05328766666666}, {"is_reserved": 0, "fusion_lon": 0.0, "fusion_lat": 0.0, "name": "55cecadcce7630b8d365b715eac4694e", "type": "electric_scooter", "is_disabled": 0, "lat": 38.92627483333333, "rental_uris": {"android": "https://dc.lft.to/lastmile_qr_scan", "ios": "https://dc.lft.to/lastmile_qr_scan"}, "bike_id": "55cecadcce7630b8d365b715eac4694e", "lon": -77.04316766666666}, {"is_reserved": 0, "fusion_lon": 0.0, "fusion_lat": 0.0, "name": "274ec14af89090c33dfb6cf409125c8a", "type": "electric_scooter", "is_disabled": 0, "lat": 38.95182116666667, "rental_uris": {"android": "https://dc.lft.to/lastmile_qr_scan", "ios": "https://dc.lft.to/lastmile_qr_scan"}, "bike_id": "274ec14af89090c33dfb6cf409125c8a", "lon": -77.0261615}, {"is_reserved": 0, "fusion_lon": 0.0, "fusion_lat": 0.0, "name": "cd61f664c4b2566d67e03a7233c3bc5f", "type": "electric_scooter", "is_disabled": 0, "lat": 38.9001795, "rental_uris": {"android": "https://dc.lft.to/lastmile_qr_scan", "ios": "https://dc.lft.to/lastmile_qr_scan"}, "bike_id": "cd61f664c4b2566d67e03a7233c3bc5f", "lon": -77.04139266666667}, {"is_reserved": 0, "fusion_lon": 0.0, "fusion_lat": 0.0, "name": "01b7005ecdd7f37eb509677bc707ece8", "type": "electric_scooter", "is_disabled": 0, "lat": 38.92164133333333, "rental_uris": {"android": "https://dc.lft.to/lastmile_qr_scan", "ios": "https://dc.lft.to/lastmile_qr_scan"}, "bike_id": "01b7005ecdd7f37eb509677bc707ece8", "lon": -77.03379483333333}, {"is_reserved": 0, "fusion_lon": 0.0, "fusion_lat": 0.0, "name": "57a34f6c9cc68e1877c15e8f17462629", "type": "electric_bike", "is_disabled": 0, "lat": 38.93224716666667, "rental_uris": {"android": "https://dc.lft.to/lastmile_qr_scan", "ios": "https://dc.lft.to/lastmile_qr_scan"}, "bike_id": "57a34f6c9cc68e1877c15e8f17462629", "lon": -77.1812295}, {"is_reserved": 0, "fusion_lon": 0.0, "fusion_lat": 0.0, "name": "a0a1f7518f428054bfdc6093d488de7e", "type": "electric_scooter", "is_disabled": 0, "lat": 38.90020633333334, "rental_uris": {"android": "https://dc.lft.to/lastmile_qr_scan", "ios": "https://dc.lft.to/lastmile_qr_scan"}, "bike_id": "a0a1f7518f428054bfdc6093d488de7e", "lon": -77.01188216666667}, {"is_reserved": 0, "fusion_lon": 0.0, "fusion_lat": 0.0, "name": "e869b4cbe8ad43d5edd06b1e8986dd2c", "type": "electric_scooter", "is_disabled": 0, "lat": 38.9026815, "rental_uris": {"android": "https://dc.lft.to/lastmile_qr_scan", "ios": "https://dc.lft.to/lastmile_qr_scan"}, "bike_id": "e869b4cbe8ad43d5edd06b1e8986dd2c", "lon": -77.01759216666666}, {"is_reserved": 0, "fusion_lon": 0.0, "fusion_lat": 0.0, "name": "aad3dd08f5e26c41b463055bcfbc154c", "type": "electric_scooter", "is_disabled": 0, "lat": 38.87882916666667, "rental_uris": {"android": "https://dc.lft.to/lastmile_qr_scan", "ios": "https://dc.lft.to/lastmile_qr_scan"}, "bike_id": "aad3dd08f5e26c41b463055bcfbc154c", "lon": -77.02296466666667}, {"is_reserved": 0, "fusion_lon": 0.0, "fusion_lat": 0.0, "name": "1d248d22a0f234166cdcb7407a80f6b4", "type": "electric_scooter", "is_disabled": 0, "lat": 38.892186, "rental_uris": {"android": "https://dc.lft.to/lastmile_qr_scan", "ios": "https://dc.lft.to/lastmile_qr_scan"}, "bike_id": "1d248d22a0f234166cdcb7407a80f6b4", "lon": -77.045032}, {"is_reserved": 0, "fusion_lon": 0.0, "fusion_lat": 0.0, "name": "a88f130ac88b62d6ae985edc7d0225bc", "type": "electric_scooter", "is_disabled": 0, "lat": 38.9126705, "rental_uris": {"android": "https://dc.lft.to/lastmile_qr_scan", "ios": "https://dc.lft.to/lastmile_qr_scan"}, "bike_id": "a88f130ac88b62d6ae985edc7d0225bc", "lon": -77.0290445}, {"is_reserved": 0, "fusion_lon": 0.0, "fusion_lat": 0.0, "name": "7562752b2eaef64b060117d8e4e448c6", "type": "electric_scooter", "is_disabled": 0, "lat": 38.952260333333335, "rental_uris": {"android": "https://dc.lft.to/lastmile_qr_scan", "ios": "https://dc.lft.to/lastmile_qr_scan"}, "bike_id": "7562752b2eaef64b060117d8e4e448c6", "lon": -77.01425016666667}, {"is_reserved": 0, "fusion_lon": 0.0, "fusion_lat": 0.0, "name": "9c397a1622e05ff325e520cef0f2e184", "type": "electric_scooter", "is_disabled": 0, "lat": 38.8871615, "rental_uris": {"android": "https://dc.lft.to/lastmile_qr_scan", "ios": "https://dc.lft.to/lastmile_qr_scan"}, "bike_id": "9c397a1622e05ff325e520cef0f2e184", "lon": -77.02175033333333}, {"is_reserved": 0, "fusion_lon": 0.0, "fusion_lat": 0.0, "name": "39596007c3b536857804b7cf6d43dd8a", "type": "electric_scooter", "is_disabled": 0, "lat": 38.907095, "rental_uris": {"android": "https://dc.lft.to/lastmile_qr_scan", "ios": "https://dc.lft.to/lastmile_qr_scan"}, "bike_id": "39596007c3b536857804b7cf6d43dd8a", "lon": -77.038205}, {"is_reserved": 0, "fusion_lon": 0.0, "fusion_lat": 0.0, "name": "e1ba3b51df6bab4a07a7b39e673d8506", "type": "electric_bike", "is_disabled": 0, "lat": 38.89803916666666, "rental_uris": {"android": "https://dc.lft.to/lastmile_qr_scan", "ios": "https://dc.lft.to/lastmile_qr_scan"}, "bike_id": "e1ba3b51df6bab4a07a7b39e673d8506", "lon": -77.00603883333333}, {"is_reserved": 0, "fusion_lon": 0.0, "fusion_lat": 0.0, "name": "e6518c39e681566db160471a5da187d1", "type": "electric_scooter", "is_disabled": 0, "lat": 38.90717033333333, "rental_uris": {"android": "https://dc.lft.to/lastmile_qr_scan", "ios": "https://dc.lft.to/lastmile_qr_scan"}, "bike_id": "e6518c39e681566db160471a5da187d1", "lon": -77.01682716666667}, {"is_reserved": 0, "fusion_lon": 0.0, "fusion_lat": 0.0, "name": "2b0b321835f41da88bb1392e5b632f60", "type": "electric_scooter", "is_disabled": 0, "lat": 38.88503733333334, "rental_uris": {"android": "https://dc.lft.to/lastmile_qr_scan", "ios": "https://dc.lft.to/lastmile_qr_scan"}, "bike_id": "2b0b321835f41da88bb1392e5b632f60", "lon": -77.00566983333333}, {"is_reserved": 0, "fusion_lon": 0.0, "fusion_lat": 0.0, "name": "80b0da3abb6635215164386a177dc1a1", "type": "electric_scooter", "is_disabled": 0, "lat": 38.93027216666667, "rental_uris": {"android": "https://dc.lft.to/lastmile_qr_scan", "ios": "https://dc.lft.to/lastmile_qr_scan"}, "bike_id": "80b0da3abb6635215164386a177dc1a1", "lon": -77.012984}, {"is_reserved": 0, "fusion_lon": 0.0, "fusion_lat": 0.0, "name": "bd0d428b5fb0cfb117ec7b4ee502902c", "type": "electric_scooter", "is_disabled": 0, "lat": 38.92477683333333, "rental_uris": {"android": "https://dc.lft.to/lastmile_qr_scan", "ios": "https://dc.lft.to/lastmile_qr_scan"}, "bike_id": "bd0d428b5fb0cfb117ec7b4ee502902c", "lon": -77.03501}, {"is_reserved": 0, "fusion_lon": 0.0, "fusion_lat": 0.0, "name": "932d7a1cb82110bd14c2a96cb02986df", "type": "electric_bike", "is_disabled": 0, "lat": 38.96810083333333, "rental_uris": {"android": "https://dc.lft.to/lastmile_qr_scan", "ios": "https://dc.lft.to/lastmile_qr_scan"}, "bike_id": "932d7a1cb82110bd14c2a96cb02986df", "lon": -77.072216}, {"is_reserved": 0, "fusion_lon": 0.0, "fusion_lat": 0.0, "name": "f572e6951071f7a12d559582d1fca223", "type": "electric_scooter", "is_disabled": 0, "lat": 38.923456333333334, "rental_uris": {"android": "https://dc.lft.to/lastmile_qr_scan", "ios": "https://dc.lft.to/lastmile_qr_scan"}, "bike_id": "f572e6951071f7a12d559582d1fca223", "lon": -77.05085966666667}, {"is_reserved": 0, "fusion_lon": 0.0, "fusion_lat": 0.0, "name": "b5ac82d9492acfa276153992909a3e51", "type": "electric_scooter", "is_disabled": 0, "lat": 38.87182266666667, "rental_uris": {"android": "https://dc.lft.to/lastmile_qr_scan", "ios": "https://dc.lft.to/lastmile_qr_scan"}, "bike_id": "b5ac82d9492acfa276153992909a3e51", "lon": -77.00598966666666}, {"is_reserved": 0, "fusion_lon": 0.0, "fusion_lat": 0.0, "name": "f01a3d60dcd1651ae5ed681fffd59b9e", "type": "electric_scooter", "is_disabled": 0, "lat": 38.933121166666666, "rental_uris": {"android": "https://dc.lft.to/lastmile_qr_scan", "ios": "https://dc.lft.to/lastmile_qr_scan"}, "bike_id": "f01a3d60dcd1651ae5ed681fffd59b9e", "lon": -77.02960116666667}, {"is_reserved": 0, "fusion_lon": 0.0, "fusion_lat": 0.0, "name": "b3467a21329ef4bc0337e8310109063f", "type": "electric_scooter", "is_disabled": 0, "lat": 38.900294833333334, "rental_uris": {"android": "https://dc.lft.to/lastmile_qr_scan", "ios": "https://dc.lft.to/lastmile_qr_scan"}, "bike_id": "b3467a21329ef4bc0337e8310109063f", "lon": -76.99609833333334}, {"is_reserved": 0, "fusion_lon": 0.0, "fusion_lat": 0.0, "name": "576ef7f62ad9296d7bbfa155ebaeac46", "type": "electric_scooter", "is_disabled": 0, "lat": 38.9235945, "rental_uris": {"android": "https://dc.lft.to/lastmile_qr_scan", "ios": "https://dc.lft.to/lastmile_qr_scan"}, "bike_id": "576ef7f62ad9296d7bbfa155ebaeac46", "lon": -77.02119833333333}, {"is_reserved": 0, "fusion_lon": 0.0, "fusion_lat": 0.0, "name": "2fa3e111c8f036f0600082090017c738", "type": "electric_bike", "is_disabled": 0, "lat": 38.892185166666664, "rental_uris": {"android": "https://dc.lft.to/lastmile_qr_scan", "ios": "https://dc.lft.to/lastmile_qr_scan"}, "bike_id": "2fa3e111c8f036f0600082090017c738", "lon": -76.97081}, {"is_reserved": 0, "fusion_lon": 0.0, "fusion_lat": 0.0, "name": "33918ae58d91527ccc3adaf074b737e4", "type": "electric_scooter", "is_disabled": 0, "lat": 38.91712233333333, "rental_uris": {"android": "https://dc.lft.to/lastmile_qr_scan", "ios": "https://dc.lft.to/lastmile_qr_scan"}, "bike_id": "33918ae58d91527ccc3adaf074b737e4", "lon": -77.03855833333333}, {"is_reserved": 0, "fusion_lon": 0.0, "fusion_lat": 0.0, "name": "2698e0d4c4761bde47fa32dc13ddd226", "type": "electric_scooter", "is_disabled": 0, "lat": 38.89749583333333, "rental_uris": {"android": "https://dc.lft.to/lastmile_qr_scan", "ios": "https://dc.lft.to/lastmile_qr_scan"}, "bike_id": "2698e0d4c4761bde47fa32dc13ddd226", "lon": -77.0291075}, {"is_reserved": 0, "fusion_lon": 0.0, "fusion_lat": 0.0, "name": "0e18adbf1ced2c28ac0f19b686673000", "type": "electric_bike", "is_disabled": 0, "lat": 38.944971333333335, "rental_uris": {"android": "https://dc.lft.to/lastmile_qr_scan", "ios": "https://dc.lft.to/lastmile_qr_scan"}, "bike_id": "0e18adbf1ced2c28ac0f19b686673000", "lon": -77.0066915}, {"is_reserved": 0, "fusion_lon": 0.0, "fusion_lat": 0.0, "name": "5c4433dba01be382b86a1bd249f5a09d", "type": "electric_scooter", "is_disabled": 0, "lat": 38.904389333333334, "rental_uris": {"android": "https://dc.lft.to/lastmile_qr_scan", "ios": "https://dc.lft.to/lastmile_qr_scan"}, "bike_id": "5c4433dba01be382b86a1bd249f5a09d", "lon": -76.9849095}, {"is_reserved": 0, "fusion_lon": 0.0, "fusion_lat": 0.0, "name": "775e725a0be87afe0425e1e865ab69b6", "type": "electric_scooter", "is_disabled": 0, "lat": 38.89626833333333, "rental_uris": {"android": "https://dc.lft.to/lastmile_qr_scan", "ios": "https://dc.lft.to/lastmile_qr_scan"}, "bike_id": "775e725a0be87afe0425e1e865ab69b6", "lon": -77.02985116666666}, {"is_reserved": 0, "fusion_lon": 0.0, "fusion_lat": 0.0, "name": "88df9f47b783190c6ecc85586bef2c28", "type": "electric_scooter", "is_disabled": 0, "lat": 38.903514666666666, "rental_uris": {"android": "https://dc.lft.to/lastmile_qr_scan", "ios": "https://dc.lft.to/lastmile_qr_scan"}, "bike_id": "88df9f47b783190c6ecc85586bef2c28", "lon": -77.03916316666667}, {"is_reserved": 0, "fusion_lon": 0.0, "fusion_lat": 0.0, "name": "21a3fb456fb2dc3476f4b598dfc3366c", "type": "electric_scooter", "is_disabled": 0, "lat": 38.95178283333333, "rental_uris": {"android": "https://dc.lft.to/lastmile_qr_scan", "ios": "https://dc.lft.to/lastmile_qr_scan"}, "bike_id": "21a3fb456fb2dc3476f4b598dfc3366c", "lon": -77.0273445}, {"is_reserved": 0, "fusion_lon": 0.0, "fusion_lat": 0.0, "name": "2b45a0f5e91a3b80ac4d1be30e33ed36", "type": "electric_scooter", "is_disabled": 0, "lat": 38.89234033333334, "rental_uris": {"android": "https://dc.lft.to/lastmile_qr_scan", "ios": "https://dc.lft.to/lastmile_qr_scan"}, "bike_id": "2b45a0f5e91a3b80ac4d1be30e33ed36", "lon": -77.0320965}, {"is_reserved": 0, "fusion_lon": 0.0, "fusion_lat": 0.0, "name": "2b6f8f32249f83b7589bfe79bdd57e6e", "type": "electric_bike", "is_disabled": 0, "lat": 38.95347783333333, "rental_uris": {"android": "https://dc.lft.to/lastmile_qr_scan", "ios": "https://dc.lft.to/lastmile_qr_scan"}, "bike_id": "2b6f8f32249f83b7589bfe79bdd57e6e", "lon": -76.98093383333334}, {"is_reserved": 0, "fusion_lon": 0.0, "fusion_lat": 0.0, "name": "9a7453eafceb619795d85433999eddfe", "type": "electric_scooter", "is_disabled": 0, "lat": 38.90073066666667, "rental_uris": {"android": "https://dc.lft.to/lastmile_qr_scan", "ios": "https://dc.lft.to/lastmile_qr_scan"}, "bike_id": "9a7453eafceb619795d85433999eddfe", "lon": -77.00215916666667}, {"is_reserved": 0, "fusion_lon": 0.0, "fusion_lat": 0.0, "name": "72760dd9d5cd7e8c9c076782b9b0287b", "type": "electric_scooter", "is_disabled": 0, "lat": 38.96774833333333, "rental_uris": {"android": "https://dc.lft.to/lastmile_qr_scan", "ios": "https://dc.lft.to/lastmile_qr_scan"}, "bike_id": "72760dd9d5cd7e8c9c076782b9b0287b", "lon": -77.0151365}, {"is_reserved": 0, "fusion_lon": 0.0, "fusion_lat": 0.0, "name": "7caae02eb5dc0d59e3946f1be0baacc0", "type": "electric_scooter", "is_disabled": 0, "lat": 38.899930833333336, "rental_uris": {"android": "https://dc.lft.to/lastmile_qr_scan", "ios": "https://dc.lft.to/lastmile_qr_scan"}, "bike_id": "7caae02eb5dc0d59e3946f1be0baacc0", "lon": -76.99949916666667}, {"is_reserved": 0, "fusion_lon": 0.0, "fusion_lat": 0.0, "name": "0fcd006e9ceb0f835efaff4e3ed4e8f6", "type": "electric_scooter", "is_disabled": 0, "lat": 38.918840833333334, "rental_uris": {"android": "https://dc.lft.to/lastmile_qr_scan", "ios": "https://dc.lft.to/lastmile_qr_scan"}, "bike_id": "0fcd006e9ceb0f835efaff4e3ed4e8f6", "lon": -77.04825733333334}, {"is_reserved": 0, "fusion_lon": 0.0, "fusion_lat": 0.0, "name": "2a6f5d45546d5fce1822a078a58bfc5f", "type": "electric_scooter", "is_disabled": 0, "lat": 38.89500533333333, "rental_uris": {"android": "https://dc.lft.to/lastmile_qr_scan", "ios": "https://dc.lft.to/lastmile_qr_scan"}, "bike_id": "2a6f5d45546d5fce1822a078a58bfc5f", "lon": -77.02745633333333}, {"is_reserved": 0, "fusion_lon": 0.0, "fusion_lat": 0.0, "name": "3051934741ee52a9d1495fe92fe6714e", "type": "electric_scooter", "is_disabled": 0, "lat": 38.90364616666667, "rental_uris": {"android": "https://dc.lft.to/lastmile_qr_scan", "ios": "https://dc.lft.to/lastmile_qr_scan"}, "bike_id": "3051934741ee52a9d1495fe92fe6714e", "lon": -77.03923583333334}, {"is_reserved": 0, "fusion_lon": 0.0, "fusion_lat": 0.0, "name": "d143d07e2da91a2fdf8cf9fa5cc902ff", "type": "electric_bike", "is_disabled": 0, "lat": 38.956855, "rental_uris": {"android": "https://dc.lft.to/lastmile_qr_scan", "ios": "https://dc.lft.to/lastmile_qr_scan"}, "bike_id": "d143d07e2da91a2fdf8cf9fa5cc902ff", "lon": -77.02226633333333}, {"is_reserved": 0, "fusion_lon": 0.0, "fusion_lat": 0.0, "name": "abf890becc18a9c0e7deefba6ca6d549", "type": "electric_scooter", "is_disabled": 0, "lat": 38.908364166666665, "rental_uris": {"android": "https://dc.lft.to/lastmile_qr_scan", "ios": "https://dc.lft.to/lastmile_qr_scan"}, "bike_id": "abf890becc18a9c0e7deefba6ca6d549", "lon": -77.03320633333334}, {"is_reserved": 0, "fusion_lon": 0.0, "fusion_lat": 0.0, "name": "3e5b7b7f5d6fdb74cd558e5fdb400504", "type": "electric_scooter", "is_disabled": 0, "lat": 38.914667666666666, "rental_uris": {"android": "https://dc.lft.to/lastmile_qr_scan", "ios": "https://dc.lft.to/lastmile_qr_scan"}, "bike_id": "3e5b7b7f5d6fdb74cd558e5fdb400504", "lon": -77.03836133333333}, {"is_reserved": 0, "fusion_lon": 0.0, "fusion_lat": 0.0, "name": "21a1e554009bf176f98364b039bb896c", "type": "electric_bike", "is_disabled": 0, "lat": 38.92967216666667, "rental_uris": {"android": "https://dc.lft.to/lastmile_qr_scan", "ios": "https://dc.lft.to/lastmile_qr_scan"}, "bike_id": "21a1e554009bf176f98364b039bb896c", "lon": -77.22572816666667}, {"is_reserved": 0, "fusion_lon": 0.0, "fusion_lat": 0.0, "name": "59030b72085fc27730995430b2646576", "type": "electric_scooter", "is_disabled": 0, "lat": 38.908246, "rental_uris": {"android": "https://dc.lft.to/lastmile_qr_scan", "ios": "https://dc.lft.to/lastmile_qr_scan"}, "bike_id": "59030b72085fc27730995430b2646576", "lon": -77.0741195}, {"is_reserved": 0, "fusion_lon": 0.0, "fusion_lat": 0.0, "name": "b9e59aa3d6673048e9d0e7f922902533", "type": "electric_scooter", "is_disabled": 0, "lat": 38.950716166666666, "rental_uris": {"android": "https://dc.lft.to/lastmile_qr_scan", "ios": "https://dc.lft.to/lastmile_qr_scan"}, "bike_id": "b9e59aa3d6673048e9d0e7f922902533", "lon": -76.9956065}, {"is_reserved": 0, "fusion_lon": 0.0, "fusion_lat": 0.0, "name": "41e16b34f2774aee176a39beda66fccc", "type": "electric_scooter", "is_disabled": 0, "lat": 38.91543333333333, "rental_uris": {"android": "https://dc.lft.to/lastmile_qr_scan", "ios": "https://dc.lft.to/lastmile_qr_scan"}, "bike_id": "41e16b34f2774aee176a39beda66fccc", "lon": -77.03854616666666}, {"is_reserved": 0, "fusion_lon": 0.0, "fusion_lat": 0.0, "name": "181d1984324c497a60a27aad8dc3736e", "type": "electric_scooter", "is_disabled": 0, "lat": 38.890103833333335, "rental_uris": {"android": "https://dc.lft.to/lastmile_qr_scan", "ios": "https://dc.lft.to/lastmile_qr_scan"}, "bike_id": "181d1984324c497a60a27aad8dc3736e", "lon": -76.93734916666666}, {"is_reserved": 0, "fusion_lon": 0.0, "fusion_lat": 0.0, "name": "9b094ff16833c39320211de687aad7d4", "type": "electric_scooter", "is_disabled": 0, "lat": 38.93450083333333, "rental_uris": {"android": "https://dc.lft.to/lastmile_qr_scan", "ios": "https://dc.lft.to/lastmile_qr_scan"}, "bike_id": "9b094ff16833c39320211de687aad7d4", "lon": -77.03756466666667}, {"is_reserved": 0, "fusion_lon": 0.0, "fusion_lat": 0.0, "name": "162b4db989674510bf35be93e534ebd7", "type": "electric_scooter", "is_disabled": 0, "lat": 38.907499666666666, "rental_uris": {"android": "https://dc.lft.to/lastmile_qr_scan", "ios": "https://dc.lft.to/lastmile_qr_scan"}, "bike_id": "162b4db989674510bf35be93e534ebd7", "lon": -77.04154683333333}, {"is_reserved": 0, "fusion_lon": 0.0, "fusion_lat": 0.0, "name": "a5ba0ebc662ffb2e725b2058ac33db50", "type": "electric_scooter", "is_disabled": 0, "lat": 38.90417433333333, "rental_uris": {"android": "https://dc.lft.to/lastmile_qr_scan", "ios": "https://dc.lft.to/lastmile_qr_scan"}, "bike_id": "a5ba0ebc662ffb2e725b2058ac33db50", "lon": -77.043563}, {"is_reserved": 0, "fusion_lon": 0.0, "fusion_lat": 0.0, "name": "eb1c8fa791e598e2c6276fe95d5c5428", "type": "electric_scooter", "is_disabled": 0, "lat": 38.90527083333333, "rental_uris": {"android": "https://dc.lft.to/lastmile_qr_scan", "ios": "https://dc.lft.to/lastmile_qr_scan"}, "bike_id": "eb1c8fa791e598e2c6276fe95d5c5428", "lon": -77.04153416666666}, {"is_reserved": 0, "fusion_lon": 0.0, "fusion_lat": 0.0, "name": "8ed8df1687034a0801745b1121c094e2", "type": "electric_scooter", "is_disabled": 0, "lat": 38.93618433333333, "rental_uris": {"android": "https://dc.lft.to/lastmile_qr_scan", "ios": "https://dc.lft.to/lastmile_qr_scan"}, "bike_id": "8ed8df1687034a0801745b1121c094e2", "lon": -77.05892916666667}, {"is_reserved": 0, "fusion_lon": 0.0, "fusion_lat": 0.0, "name": "0802f2e9235e7cdb522f337a45a6719d", "type": "electric_scooter", "is_disabled": 0, "lat": 38.92250583333333, "rental_uris": {"android": "https://dc.lft.to/lastmile_qr_scan", "ios": "https://dc.lft.to/lastmile_qr_scan"}, "bike_id": "0802f2e9235e7cdb522f337a45a6719d", "lon": -77.0295395}, {"is_reserved": 0, "fusion_lon": 0.0, "fusion_lat": 0.0, "name": "94ffbcbd546b0cf617092005d70c9dc5", "type": "electric_scooter", "is_disabled": 0, "lat": 38.921527166666664, "rental_uris": {"android": "https://dc.lft.to/lastmile_qr_scan", "ios": "https://dc.lft.to/lastmile_qr_scan"}, "bike_id": "94ffbcbd546b0cf617092005d70c9dc5", "lon": -77.03242516666667}, {"is_reserved": 0, "fusion_lon": 0.0, "fusion_lat": 0.0, "name": "e72a7d7dffa59a0d1ff9356661e98971", "type": "electric_scooter", "is_disabled": 0, "lat": 38.9097875, "rental_uris": {"android": "https://dc.lft.to/lastmile_qr_scan", "ios": "https://dc.lft.to/lastmile_qr_scan"}, "bike_id": "e72a7d7dffa59a0d1ff9356661e98971", "lon": -77.04875166666666}, {"is_reserved": 0, "fusion_lon": 0.0, "fusion_lat": 0.0, "name": "34d616ab2f2e16b91621b8150256f36a", "type": "electric_scooter", "is_disabled": 0, "lat": 38.902594, "rental_uris": {"android": "https://dc.lft.to/lastmile_qr_scan", "ios": "https://dc.lft.to/lastmile_qr_scan"}, "bike_id": "34d616ab2f2e16b91621b8150256f36a", "lon": -77.03143}, {"is_reserved": 0, "fusion_lon": 0.0, "fusion_lat": 0.0, "name": "d7a5ce0ff8fefcbc0db251e197b262de", "type": "electric_scooter", "is_disabled": 0, "lat": 38.89923666666667, "rental_uris": {"android": "https://dc.lft.to/lastmile_qr_scan", "ios": "https://dc.lft.to/lastmile_qr_scan"}, "bike_id": "d7a5ce0ff8fefcbc0db251e197b262de", "lon": -77.00347616666667}, {"is_reserved": 0, "fusion_lon": 0.0, "fusion_lat": 0.0, "name": "8966fa34a68910610a2270cf44a31e23", "type": "electric_scooter", "is_disabled": 0, "lat": 38.902313166666666, "rental_uris": {"android": "https://dc.lft.to/lastmile_qr_scan", "ios": "https://dc.lft.to/lastmile_qr_scan"}, "bike_id": "8966fa34a68910610a2270cf44a31e23", "lon": -77.04596516666666}, {"is_reserved": 0, "fusion_lon": 0.0, "fusion_lat": 0.0, "name": "13b5135dfb9cc95e7e21c0b081a11b92", "type": "electric_scooter", "is_disabled": 0, "lat": 38.86622783333333, "rental_uris": {"android": "https://dc.lft.to/lastmile_qr_scan", "ios": "https://dc.lft.to/lastmile_qr_scan"}, "bike_id": "13b5135dfb9cc95e7e21c0b081a11b92", "lon": -76.98905783333333}, {"is_reserved": 0, "fusion_lon": 0.0, "fusion_lat": 0.0, "name": "6352734f625c270cb8fa6cad256136bb", "type": "electric_scooter", "is_disabled": 0, "lat": 38.9002305, "rental_uris": {"android": "https://dc.lft.to/lastmile_qr_scan", "ios": "https://dc.lft.to/lastmile_qr_scan"}, "bike_id": "6352734f625c270cb8fa6cad256136bb", "lon": -77.00692366666667}, {"is_reserved": 0, "fusion_lon": 0.0, "fusion_lat": 0.0, "name": "07b4722607fa13efed0dcb387b485558", "type": "electric_scooter", "is_disabled": 0, "lat": 38.9005815, "rental_uris": {"android": "https://dc.lft.to/lastmile_qr_scan", "ios": "https://dc.lft.to/lastmile_qr_scan"}, "bike_id": "07b4722607fa13efed0dcb387b485558", "lon": -77.04335333333333}, {"is_reserved": 0, "fusion_lon": 0.0, "fusion_lat": 0.0, "name": "b85b8e8924617631e3e23995e316dba2", "type": "electric_scooter", "is_disabled": 0, "lat": 38.923147, "rental_uris": {"android": "https://dc.lft.to/lastmile_qr_scan", "ios": "https://dc.lft.to/lastmile_qr_scan"}, "bike_id": "b85b8e8924617631e3e23995e316dba2", "lon": -77.0269485}, {"is_reserved": 0, "fusion_lon": 0.0, "fusion_lat": 0.0, "name": "c39f9fdef04219607bb2484c92bcafc5", "type": "electric_scooter", "is_disabled": 0, "lat": 38.915573, "rental_uris": {"android": "https://dc.lft.to/lastmile_qr_scan", "ios": "https://dc.lft.to/lastmile_qr_scan"}, "bike_id": "c39f9fdef04219607bb2484c92bcafc5", "lon": -77.03165083333333}, {"is_reserved": 0, "fusion_lon": 0.0, "fusion_lat": 0.0, "name": "df4230aa86de3bd46c3ba0efeae30f88", "type": "electric_scooter", "is_disabled": 0, "lat": 38.864168666666664, "rental_uris": {"android": "https://dc.lft.to/lastmile_qr_scan", "ios": "https://dc.lft.to/lastmile_qr_scan"}, "bike_id": "df4230aa86de3bd46c3ba0efeae30f88", "lon": -77.01217816666667}, {"is_reserved": 0, "fusion_lon": 0.0, "fusion_lat": 0.0, "name": "28a016d3e7645c7b21d9b006de7d156b", "type": "electric_scooter", "is_disabled": 0, "lat": 38.907212, "rental_uris": {"android": "https://dc.lft.to/lastmile_qr_scan", "ios": "https://dc.lft.to/lastmile_qr_scan"}, "bike_id": "28a016d3e7645c7b21d9b006de7d156b", "lon": -77.0230105}, {"is_reserved": 0, "fusion_lon": 0.0, "fusion_lat": 0.0, "name": "5c02e107c22a951526c97d8d68b1c8bf", "type": "electric_scooter", "is_disabled": 0, "lat": 38.920758166666666, "rental_uris": {"android": "https://dc.lft.to/lastmile_qr_scan", "ios": "https://dc.lft.to/lastmile_qr_scan"}, "bike_id": "5c02e107c22a951526c97d8d68b1c8bf", "lon": -77.04694766666667}, {"is_reserved": 0, "fusion_lon": 0.0, "fusion_lat": 0.0, "name": "402acfed8215a326ad85f9920a3d62c9", "type": "electric_scooter", "is_disabled": 0, "lat": 38.935311666666664, "rental_uris": {"android": "https://dc.lft.to/lastmile_qr_scan", "ios": "https://dc.lft.to/lastmile_qr_scan"}, "bike_id": "402acfed8215a326ad85f9920a3d62c9", "lon": -77.03471983333333}, {"is_reserved": 0, "fusion_lon": 0.0, "fusion_lat": 0.0, "name": "f635bf1220490af1fda3ddf4db7a54df", "type": "electric_scooter", "is_disabled": 0, "lat": 38.931728, "rental_uris": {"android": "https://dc.lft.to/lastmile_qr_scan", "ios": "https://dc.lft.to/lastmile_qr_scan"}, "bike_id": "f635bf1220490af1fda3ddf4db7a54df", "lon": -77.0281765}, {"is_reserved": 0, "fusion_lon": 0.0, "fusion_lat": 0.0, "name": "a565df81e60ffdc660ff73825af663ff", "type": "electric_scooter", "is_disabled": 0, "lat": 38.91567516666667, "rental_uris": {"android": "https://dc.lft.to/lastmile_qr_scan", "ios": "https://dc.lft.to/lastmile_qr_scan"}, "bike_id": "a565df81e60ffdc660ff73825af663ff", "lon": -77.03182566666666}, {"is_reserved": 0, "fusion_lon": 0.0, "fusion_lat": 0.0, "name": "9a3f844c799d2df7efd447a85de7f2ac", "type": "electric_scooter", "is_disabled": 0, "lat": 38.90568833333333, "rental_uris": {"android": "https://dc.lft.to/lastmile_qr_scan", "ios": "https://dc.lft.to/lastmile_qr_scan"}, "bike_id": "9a3f844c799d2df7efd447a85de7f2ac", "lon": -77.03449883333333}, {"is_reserved": 0, "fusion_lon": 0.0, "fusion_lat": 0.0, "name": "51938bd4e4a380c94d02477231af4a63", "type": "electric_scooter", "is_disabled": 0, "lat": 38.905965333333334, "rental_uris": {"android": "https://dc.lft.to/lastmile_qr_scan", "ios": "https://dc.lft.to/lastmile_qr_scan"}, "bike_id": "51938bd4e4a380c94d02477231af4a63", "lon": -77.00355733333333}, {"is_reserved": 0, "fusion_lon": 0.0, "fusion_lat": 0.0, "name": "e8006b17cb00b4dfe09e095d3594bfc6", "type": "electric_scooter", "is_disabled": 0, "lat": 38.898345666666664, "rental_uris": {"android": "https://dc.lft.to/lastmile_qr_scan", "ios": "https://dc.lft.to/lastmile_qr_scan"}, "bike_id": "e8006b17cb00b4dfe09e095d3594bfc6", "lon": -77.04155783333333}, {"is_reserved": 0, "fusion_lon": 0.0, "fusion_lat": 0.0, "name": "f6b26537a95d85e41921df5ae38c2cd7", "type": "electric_scooter", "is_disabled": 0, "lat": 38.8901365, "rental_uris": {"android": "https://dc.lft.to/lastmile_qr_scan", "ios": "https://dc.lft.to/lastmile_qr_scan"}, "bike_id": "f6b26537a95d85e41921df5ae38c2cd7", "lon": -76.93736133333333}, {"is_reserved": 0, "fusion_lon": 0.0, "fusion_lat": 0.0, "name": "ac208385035df535b489c22c64301e2d", "type": "electric_scooter", "is_disabled": 0, "lat": 38.90026483333333, "rental_uris": {"android": "https://dc.lft.to/lastmile_qr_scan", "ios": "https://dc.lft.to/lastmile_qr_scan"}, "bike_id": "ac208385035df535b489c22c64301e2d", "lon": -77.00207366666666}, {"is_reserved": 0, "fusion_lon": 0.0, "fusion_lat": 0.0, "name": "79b9e4ea5d013f89728f5585f4413e3c", "type": "electric_scooter", "is_disabled": 0, "lat": 38.91081066666667, "rental_uris": {"android": "https://dc.lft.to/lastmile_qr_scan", "ios": "https://dc.lft.to/lastmile_qr_scan"}, "bike_id": "79b9e4ea5d013f89728f5585f4413e3c", "lon": -76.99269283333334}, {"is_reserved": 0, "fusion_lon": 0.0, "fusion_lat": 0.0, "name": "3e235140be484b4ec685623c94e6f717", "type": "electric_scooter", "is_disabled": 0, "lat": 38.907839333333335, "rental_uris": {"android": "https://dc.lft.to/lastmile_qr_scan", "ios": "https://dc.lft.to/lastmile_qr_scan"}, "bike_id": "3e235140be484b4ec685623c94e6f717", "lon": -77.00965433333333}, {"is_reserved": 0, "fusion_lon": 0.0, "fusion_lat": 0.0, "name": "f16544bce0c1c2b720744cb1afe084aa", "type": "electric_scooter", "is_disabled": 0, "lat": 38.9146385, "rental_uris": {"android": "https://dc.lft.to/lastmile_qr_scan", "ios": "https://dc.lft.to/lastmile_qr_scan"}, "bike_id": "f16544bce0c1c2b720744cb1afe084aa", "lon": -77.04567533333334},