{"data": {"bikes": [{"is_disabled": 0, "lat": 38.912727833333335, "bike_id": "1454a0bd8ca1b6d8b7eba35ebf35bddd", "fusion_lon": 0.0, "is_reserved": 0, "type": "electric_scooter", "name": "1454a0bd8ca1b6d8b7eba35ebf35bddd", "lon": -77.01987633333333, "rental_uris": {"android": "https://dc.lft.to/lastmile_qr_scan", "ios": "https://dc.lft.to/lastmile_qr_scan"}, "fusion_lat": 0.0}, {"is_disabled": 0, "lat": 38.898142166666666, "bike_id": "f82c1e34989a27cc5c8c83f3d57af139", "fusion_lon": 0.0, "is_reserved": 0, "type": "electric_scooter", "name": "f82c1e34989a27cc5c8c83f3d57af139", "lon": -77.02659466666667, "rental_uris": {"android": "https://dc.lft.to/lastmile_qr_scan", "ios": "https://dc.lft.to/lastmile_qr_scan"}, "fusion_lat": 0.0}, {"is_disabled": 0, "lat": 38.9290005, "bike_id": "97aaa3de4c3da51f968647b24898192d", "fusion_lon": 0.0, "is_reserved": 0, "type": "electric_scooter", "name": "97aaa3de4c3da51f968647b24898192d", "lon": -77.01653016666667, "rental_uris": {"android": "https://dc.lft.to/lastmile_qr_scan", "ios": "https://dc.lft.to/lastmile_qr_scan"}, "fusion_lat": 0.0}, {"is_disabled": 0, "lat": 38.86259166666667, "bike_id": "b2cfd8130cf9a0769c2e038feef41399", "fusion_lon": 0.0, "is_reserved": 0, "type": "electric_scooter", "name": "b2cfd8130cf9a0769c2e038feef41399", "lon": -76.99554183333333, "rental_uris": {"android": "https://dc.lft.to/lastmile_qr_scan", "ios": "https://dc.lft.to/lastmile_qr_scan"}, "fusion_lat": 0.0}, {"is_disabled": 0, "lat": 38.88798366666666, "bike_id": "b34725b4478f0aeefeccb567b3c8a162", "fusion_lon": 0.0, "is_reserved": 0, "type": "electric_bike", "name": "b34725b4478f0aeefeccb567b3c8a162", "lon": -77.075709, "rental_uris": {"android": "https://dc.lft.to/lastmile_qr_scan", "ios": "https://dc.lft.to/lastmile_qr_scan"}, "fusion_lat": 0.0}, {"is_disabled": 0, "lat": 38.87611883333334, "bike_id": "f2f05db0ea49821f10956bd35495cc07", "fusion_lon": 0.0, "is_reserved": 0, "type": "electric_scooter", "name": "f2f05db0ea49821f10956bd35495cc07", "lon": -76.93131816666667, "rental_uris": {"android": "https://dc.lft.to/lastmile_qr_scan", "ios": "https://dc.lft.to/lastmile_qr_scan"}, "fusion_lat": 0.0}, {"is_disabled": 0, "lat": 38.915468833333335, "bike_id": "ba252f9782ad698b98f1a94bca36c94c", "fusion_lon": 0.0, "is_reserved": 0, "type": "electric_scooter", "name": "ba252f9782ad698b98f1a94bca36c94c", "lon": -77.0385855, "rental_uris": {"android": "https://dc.lft.to/lastmile_qr_scan", "ios": "https://dc.lft.to/lastmile_qr_scan"}, "fusion_lat": 0.0}, {"is_disabled": 0, "lat": 38.924633666666665, "bike_id": "1f575e351323488cf8be7a3d920a9f68", "fusion_lon": 0.0, "is_reserved": 0, "type": "electric_scooter", "name": "1f575e351323488cf8be7a3d920a9f68", "lon": -77.02021283333333, "rental_uris": {"android": "https://dc.lft.to/lastmile_qr_scan", "ios": "https://dc.lft.to/lastmile_qr_scan"}, "fusion_lat": 0.0}, {"is_disabled": 0, "lat": 38.91261183333334, "bike_id": "8fe8703f6fad7fffebf95353a1cfb9c8", "fusion_lon": 0.0, "is_reserved": 0, "type": "electric_scooter", "name": "8fe8703f6fad7fffebf95353a1cfb9c8", "lon": -77.0318145, "rental_uris": {"android": "https://dc.lft.to/lastmile_qr_scan", "ios": "https://dc.lft.to/lastmile_qr_scan"}, "fusion_lat": 0.0}, {"is_disabled": 0, "lat": 38.955435, "bike_id": "095fa12427dce4a1c591e4027f3fbad4", "fusion_lon": 0.0, "is_reserved": 0, "type": "electric_bike", "name": "095fa12427dce4a1c591e4027f3fbad4", "lon": -76.9685205, "rental_uris": {"android": "https://dc.lft.to/lastmile_qr_scan", "ios": "https://dc.lft.to/lastmile_qr_scan"}, "fusion_lat": 0.0}, {"is_disabled": 0, "lat": 38.924740166666666, "bike_id": "2a0b4c019da168724be9ca773c7a0d7e", "fusion_lon": 0.0, "is_reserved": 0, "type": "electric_scooter", "name": "2a0b4c019da168724be9ca773c7a0d7e", "lon": -77.02112166666667, "rental_uris": {"android": "https://dc.lft.to/lastmile_qr_scan", "ios": "https://dc.lft.to/lastmile_qr_scan"}, "fusion_lat": 0.0}, {"is_disabled": 0, "lat": 38.9261745, "bike_id": "fa033e7fb54d5793e9f795b64a45da8c", "fusion_lon": 0.0, "is_reserved": 0, "type": "electric_scooter", "name": "fa033e7fb54d5793e9f795b64a45da8c", "lon": -77.021651, "rental_uris": {"android": "https://dc.lft.to/lastmile_qr_scan", "ios": "https://dc.lft.to/lastmile_qr_scan"}, "fusion_lat": 0.0}, {"is_disabled": 0, "lat": 38.906447666666665, "bike_id": "6483eaf30c3ee1c7b631a30dd37fe631", "fusion_lon": 0.0, "is_reserved": 0, "type": "electric_scooter", "name": "6483eaf30c3ee1c7b631a30dd37fe631", "lon": -77.04202533333333, "rental_uris": {"android": "https://dc.lft.to/lastmile_qr_scan", "ios": "https://dc.lft.to/lastmile_qr_scan"}, "fusion_lat": 0.0}, {"is_disabled": 0, "lat": 38.9012125, "bike_id": "fc0e471b34b8a24ef212bd54c4962bd9", "fusion_lon": 0.0, "is_reserved": 0, "type": "electric_scooter", "name": "fc0e471b34b8a24ef212bd54c4962bd9", "lon": -77.0487405, "rental_uris": {"android": "https://dc.lft.to/lastmile_qr_scan", "ios": "https://dc.lft.to/lastmile_qr_scan"}, "fusion_lat": 0.0}, {"is_disabled": 0, "lat": 38.86477433333334, "bike_id": "1bb32ad9938b3139a0b2a3bc24f5862b", "fusion_lon": 0.0, "is_reserved": 0, "type": "electric_scooter", "name": "1bb32ad9938b3139a0b2a3bc24f5862b", "lon": -77.01248316666667, "rental_uris": {"android": "https://dc.lft.to/lastmile_qr_scan", "ios": "https://dc.lft.to/lastmile_qr_scan"}, "fusion_lat": 0.0}, {"is_disabled": 0, "lat": 38.902669833333334, "bike_id": "26128960fe8ce1640d7b5670741c8d38", "fusion_lon": 0.0, "is_reserved": 0, "type": "electric_scooter", "name": "26128960fe8ce1640d7b5670741c8d38", "lon": -77.02822266666666, "rental_uris": {"android": "https://dc.lft.to/lastmile_qr_scan", "ios": "https://dc.lft.to/lastmile_qr_scan"}, "fusion_lat": 0.0}, {"is_disabled": 0, "lat": 38.9266805, "bike_id": "c51137c6a4648aba3bf2e88f169e008a", "fusion_lon": 0.0, "is_reserved": 0, "type": "electric_scooter", "name": "c51137c6a4648aba3bf2e88f169e008a", "lon": -76.99549033333334, "rental_uris": {"android": "https://dc.lft.to/lastmile_qr_scan", "ios": "https://dc.lft.to/lastmile_qr_scan"}, "fusion_lat": 0.0}, {"is_disabled": 0, "lat": 38.90560116666666, "bike_id": "52903843264db7f66e85a1107da9b3a6", "fusion_lon": 0.0, "is_reserved": 0, "type": "electric_scooter", "name": "52903843264db7f66e85a1107da9b3a6", "lon": -77.01968216666667, "rental_uris": {"android": "https://dc.lft.to/lastmile_qr_scan", "ios": "https://dc.lft.to/lastmile_qr_scan"}, "fusion_lat": 0.0}, {"is_disabled": 0, "lat": 38.902371, "bike_id": "811879f4a8a53bb0fe3fef7f931d8288", "fusion_lon": 0.0, "is_reserved": 0, "type": "electric_scooter", "name": "811879f4a8a53bb0fe3fef7f931d8288", "lon": -77.02684166666667, "rental_uris": {"android": "https://dc.lft.to/lastmile_qr_scan", "ios": "https://dc.lft.to/lastmile_qr_scan"}, "fusion_lat": 0.0}, {"is_disabled": 0, "lat": 38.94089733333333, "bike_id": "035c347c99445b74a31e82cdde0f975a", "fusion_lon": 0.0, "is_reserved": 0, "type": "electric_scooter", "name": "035c347c99445b74a31e82cdde0f975a", "lon": -77.0273125, "rental_uris": {"android": "https://dc.lft.to/lastmile_qr_scan", "ios": "https://dc.lft.to/lastmile_qr_scan"}, "fusion_lat": 0.0}, {"is_disabled": 0, "lat": 38.94554733333333, "bike_id": "99944794189a26bd655a9aeb231b0868", "fusion_lon": 0.0, "is_reserved": 0, "type": "electric_bike", "name": "99944794189a26bd655a9aeb231b0868", "lon": -76.89539466666666, "rental_uris": {"android": "https://dc.lft.to/lastmile_qr_scan", "ios": "https://dc.lft.to/lastmile_qr_scan"}, "fusion_lat": 0.0}, {"is_disabled": 0, "lat": 38.863956333333334, "bike_id": "e6fc6f2a7c792f186cb6226a0eca0dcf", "fusion_lon": 0.0, "is_reserved": 0, "type": "electric_bike", "name": "e6fc6f2a7c792f186cb6226a0eca0dcf", "lon": -76.97469633333333, "rental_uris": {"android": "https://dc.lft.to/lastmile_qr_scan", "ios": "https://dc.lft.to/lastmile_qr_scan"}, "fusion_lat": 0.0}, {"is_disabled": 0, "lat": 38.905569, "bike_id": "d41ca5c4ac3d5db47ffc3e5aa8c05e27", "fusion_lon": 0.0, "is_reserved": 0, "type": "electric_scooter", "name": "d41ca5c4ac3d5db47ffc3e5aa8c05e27", "lon": -77.01971033333334, "rental_uris": {"android": "https://dc.lft.to/lastmile_qr_scan", "ios": "https://dc.lft.to/lastmile_qr_scan"}, "fusion_lat": 0.0}, {"is_disabled": 0, "lat": 38.92873133333333, "bike_id": "650d7476fc037ce5991e21b2cb36ac48", "fusion_lon": 0.0, "is_reserved": 0, "type": "electric_scooter", "name": "650d7476fc037ce5991e21b2cb36ac48", "lon": -77.0136505, "rental_uris": {"android": "https://dc.lft.to/lastmile_qr_scan", "ios": "https://dc.lft.to/lastmile_qr_scan"}, "fusion_lat": 0.0}, {"is_disabled": 0, "lat": 38.9033935, "bike_id": "02d078097b4325f4d6f4263c8ed83132", "fusion_lon": 0.0, "is_reserved": 0, "type": "electric_scooter", "name": "02d078097b4325f4d6f4263c8ed83132", "lon": -77.04655683333333, "rental_uris": {"android": "https://dc.lft.to/lastmile_qr_scan", "ios": "https://dc.lft.to/lastmile_qr_scan"}, "fusion_lat": 0.0}, {"is_disabled": 0, "lat": 38.9631225, "bike_id": "1b8ef062619f2430edd33f8e3e8557fa", "fusion_lon": 0.0, "is_reserved": 0, "type": "electric_scooter", "name": "1b8ef062619f2430edd33f8e3e8557fa", "lon": -77.0747645, "rental_uris": {"android": "https://dc.lft.to/lastmile_qr_scan", "ios": "https://dc.lft.to/lastmile_qr_scan"}, "fusion_lat": 0.0}, {"is_disabled": 0, "lat": 38.93885616666667, "bike_id": "ed04a7eaf486623807bc306ea7dbf72f", "fusion_lon": 0.0, "is_reserved": 0, "type": "electric_bike", "name": "ed04a7eaf486623807bc306ea7dbf72f", "lon": -77.07792816666667, "rental_uris": {"android": "https://dc.lft.to/lastmile_qr_scan", "ios": "https://dc.lft.to/lastmile_qr_scan"}, "fusion_lat": 0.0}, {"is_disabled": 0, "lat": 38.81245666666667, "bike_id": "0f668872902aaa6b71ee746be83a353c", "fusion_lon": 0.0, "is_reserved": 0, "type": "electric_bike", "name": "0f668872902aaa6b71ee746be83a353c", "lon": -77.11758, "rental_uris": {"android": "https://dc.lft.to/lastmile_qr_scan", "ios": "https://dc.lft.to/lastmile_qr_scan"}, "fusion_lat": 0.0}, {"is_disabled": 0, "lat": 38.916152, "bike_id": "30029a47fe9b50e380a557b6b6c44409", "fusion_lon": 0.0, "is_reserved": 0, "type": "electric_scooter", "name": "30029a47fe9b50e380a557b6b6c44409", "lon": -77.05592283333333, "rental_uris": {"android": "https://dc.lft.to/lastmile_qr_scan", "ios": "https://dc.lft.to/lastmile_qr_scan"}, "fusion_lat": 0.0}, {"is_disabled": 0, "lat": 38.884324166666666, "bike_id": "aa355efbff92a5496b26b11865a724f4", "fusion_lon": 0.0, "is_reserved": 0, "type": "electric_scooter", "name": "aa355efbff92a5496b26b11865a724f4", "lon": -76.9947065, "rental_uris": {"android": "https://dc.lft.to/lastmile_qr_scan", "ios": "https://dc.lft.to/lastmile_qr_scan"}, "fusion_lat": 0.0}, {"is_disabled": 0, "lat": 38.927075, "bike_id": "a1ff6a04adac99429639ee52ad8b9b4f", "fusion_lon": 0.0, "is_reserved": 0, "type": "electric_scooter", "name": "a1ff6a04adac99429639ee52ad8b9b4f", "lon": -77.023297, "rental_uris": {"android": "https://dc.lft.to/lastmile_qr_scan", "ios": "https://dc.lft.to/lastmile_qr_scan"}, "fusion_lat": 0.0}, {"is_disabled": 0, "lat": 38.9052005, "bike_id": "a8a29adc5673871ea19d12418ed6b925", "fusion_lon": 0.0, "is_reserved": 0, "type": "electric_scooter", "name": "a8a29adc5673871ea19d12418ed6b925", "lon": -77.06137416666667, "rental_uris": {"android": "https://dc.lft.to/lastmile_qr_scan", "ios": "https://dc.lft.to/lastmile_qr_scan"}, "fusion_lat": 0.0}, {"is_disabled": 0, "lat": 38.90235633333333, "bike_id": "1248527d305c6905d49e6a4ea64c8959", "fusion_lon": 0.0, "is_reserved": 0, "type": "electric_scooter", "name": "1248527d305c6905d49e6a4ea64c8959", "lon": -77.04504, "rental_uris": {"android": "https://dc.lft.to/lastmile_qr_scan", "ios": "https://dc.lft.to/lastmile_qr_scan"}, "fusion_lat": 0.0}, {"is_disabled": 0, "lat": 38.880479, "bike_id": "750ec4b20e3708a95daeeae4319084ac", "fusion_lon": 0.0, "is_reserved": 0, "type": "electric_scooter", "name": "750ec4b20e3708a95daeeae4319084ac", "lon": -77.005526, "rental_uris": {"android": "https://dc.lft.to/lastmile_qr_scan", "ios": "https://dc.lft.to/lastmile_qr_scan"}, "fusion_lat": 0.0}, {"is_disabled": 0, "lat": 38.90521583333334, "bike_id": "129a4fd020b355f72041138c39c2aa5d", "fusion_lon": 0.0, "is_reserved": 0, "type": "electric_scooter", "name": "129a4fd020b355f72041138c39c2aa5d", "lon": -77.05155116666667, "rental_uris": {"android": "https://dc.lft.to/lastmile_qr_scan", "ios": "https://dc.lft.to/lastmile_qr_scan"}, "fusion_lat": 0.0}, {"is_disabled": 0, "lat": 38.915326, "bike_id": "fe39dde75bbf7ac0cc5772e2f223f6a9", "fusion_lon": 0.0, "is_reserved": 0, "type": "electric_scooter", "name": "fe39dde75bbf7ac0cc5772e2f223f6a9", "lon": -77.0319375, "rental_uris": {"android": "https://dc.lft.to/lastmile_qr_scan", "ios": "https://dc.lft.to/lastmile_qr_scan"}, "fusion_lat": 0.0}, {"is_disabled": 0, "lat": 38.88836883333333, "bike_id": "0ad2f3cd6e231275d3e3100298c1bd8f", "fusion_lon": 0.0, "is_reserved": 0, "type": "electric_scooter", "name": "0ad2f3cd6e231275d3e3100298c1bd8f", "lon": -76.91757433333333, "rental_uris": {"android": "https://dc.lft.to/lastmile_qr_scan", "ios": "https://dc.lft.to/lastmile_qr_scan"}, "fusion_lat": 0.0}, {"is_disabled": 0, "lat": 38.90399166666667, "bike_id": "4177cfc4f460c73951f11729d173546b", "fusion_lon": 0.0, "is_reserved": 0, "type": "electric_scooter", "name": "4177cfc4f460c73951f11729d173546b", "lon": -77.01874583333333, "rental_uris": {"android": "https://dc.lft.to/lastmile_qr_scan", "ios": "https://dc.lft.to/lastmile_qr_scan"}, "fusion_lat": 0.0}, {"is_disabled": 0, "lat": 38.914905166666664, "bike_id": "ba771a66d0180ee58fbe1c22563e1f32", "fusion_lon": 0.0, "is_reserved": 0, "type": "electric_scooter", "name": "ba771a66d0180ee58fbe1c22563e1f32", "lon": -77.04158133333334, "rental_uris": {"android": "https://dc.lft.to/lastmile_qr_scan", "ios": "https://dc.lft.to/lastmile_qr_scan"}, "fusion_lat": 0.0}, {"is_disabled": 0, "lat": 38.899044333333336, "bike_id": "85085d8bb3c7c2b68fefbb388b1ecad8", "fusion_lon": 0.0, "is_reserved": 0, "type": "electric_scooter", "name": "85085d8bb3c7c2b68fefbb388b1ecad8", "lon": -76.93364766666667, "rental_uris": {"android": "https://dc.lft.to/lastmile_qr_scan", "ios": "https://dc.lft.to/lastmile_qr_scan"}, "fusion_lat": 0.0}, {"is_disabled": 0, "lat": 38.92541533333333, "bike_id": "4081a915ab8fb18192040b69bd1a60a9", "fusion_lon": 0.0, "is_reserved": 0, "type": "electric_scooter", "name": "4081a915ab8fb18192040b69bd1a60a9", "lon": -77.042535, "rental_uris": {"android": "https://dc.lft.to/lastmile_qr_scan", "ios": "https://dc.lft.to/lastmile_qr_scan"}, "fusion_lat": 0.0}, {"is_disabled": 0, "lat": 38.9226535, "bike_id": "06289ba530bae7c6122c6e46736ea85c", "fusion_lon": 0.0, "is_reserved": 0, "type": "electric_scooter", "name": "06289ba530bae7c6122c6e46736ea85c", "lon": -77.0363875, "rental_uris": {"android": "https://dc.lft.to/lastmile_qr_scan", "ios": "https://dc.lft.to/lastmile_qr_scan"}, "fusion_lat": 0.0}, {"is_disabled": 0, "lat": 38.909726666666664, "bike_id": "3442026a3ed03ef662f020d5a32f5273", "fusion_lon": 0.0, "is_reserved": 0, "type": "electric_scooter", "name": "3442026a3ed03ef662f020d5a32f5273", "lon": -77.0329545, "rental_uris": {"android": "https://dc.lft.to/lastmile_qr_scan", "ios": "https://dc.lft.to/lastmile_qr_scan"}, "fusion_lat": 0.0}, {"is_disabled": 0, "lat": 38.9270995, "bike_id": "1b1093eaf5bb56d3598357aeb0d848c9", "fusion_lon": 0.0, "is_reserved": 0, "type": "electric_bike", "name": "1b1093eaf5bb56d3598357aeb0d848c9", "lon": -77.020943, "rental_uris": {"android": "https://dc.lft.to/lastmile_qr_scan", "ios": "https://dc.lft.to/lastmile_qr_scan"}, "fusion_lat": 0.0}, {"is_disabled": 0, "lat": 38.92098516666667, "bike_id": "f65c003bea8a385ac6b67260372683ff", "fusion_lon": 0.0, "is_reserved": 0, "type": "electric_scooter", "name": "f65c003bea8a385ac6b67260372683ff", "lon": -77.07204233333333, "rental_uris": {"android": "https://dc.lft.to/lastmile_qr_scan", "ios": "https://dc.lft.to/lastmile_qr_scan"}, "fusion_lat": 0.0}, {"is_disabled": 0, "lat": 38.8999555, "bike_id": "2ab0cd4abb53dda331bd7dfa0f38b4cd", "fusion_lon": 0.0, "is_reserved": 0, "type": "electric_scooter", "name": "2ab0cd4abb53dda331bd7dfa0f38b4cd", "lon": -77.02961933333333, "rental_uris": {"android": "https://dc.lft.to/lastmile_qr_scan", "ios": "https://dc.lft.to/lastmile_qr_scan"}, "fusion_lat": 0.0}, {"is_disabled": 0, "lat": 38.883714166666664, "bike_id": "3a2339f434ff312dc927c4836479ec65", "fusion_lon": 0.0, "is_reserved": 0, "type": "electric_scooter", "name": "3a2339f434ff312dc927c4836479ec65", "lon": -76.9953315, "rental_uris": {"android": "https://dc.lft.to/lastmile_qr_scan", "ios": "https://dc.lft.to/lastmile_qr_scan"}, "fusion_lat": 0.0}, {"is_disabled": 0, "lat": 38.8924255, "bike_id": "c65b030f3531513fabef6ee1ebd9f94b", "fusion_lon": 0.0, "is_reserved": 0, "type": "electric_scooter", "name": "c65b030f3531513fabef6ee1ebd9f94b", "lon": -77.039572, "rental_uris": {"android": "https://dc.lft.to/lastmile_qr_scan", "ios": "https://dc.lft.to/lastmile_qr_scan"}, "fusion_lat": 0.0}, {"is_disabled": 0, "lat": 38.91415383333333, "bike_id": "814da6de9c23075b0b9271e9ea4bf609", "fusion_lon": 0.0, "is_reserved": 0, "type": "electric_scooter", "name": "814da6de9c23075b0b9271e9ea4bf609", "lon": -77.022106, "rental_uris": {"android": "https://dc.lft.to/lastmile_qr_scan", "ios": "https://dc.lft.to/lastmile_qr_scan"}, "fusion_lat": 0.0}, {"is_disabled": 0, "lat": 38.9358685, "bike_id": "28ee0dfd92cb1758ae25bef14d4e2150", "fusion_lon": 0.0, "is_reserved": 0, "type": "electric_scooter", "name": "28ee0dfd92cb1758ae25bef14d4e2150", "lon": -77.058528, "rental_uris": {"android": "https://dc.lft.to/lastmile_qr_scan", "ios": "https://dc.lft.to/lastmile_qr_scan"}, "fusion_lat": 0.0}, {"is_disabled": 0, "lat": 38.889648666666666, "bike_id": "b05e50f5a9608f8d4cadbd438b9b37ac", "fusion_lon": 0.0, "is_reserved": 0, "type": "electric_scooter", "name": "b05e50f5a9608f8d4cadbd438b9b37ac", "lon": -76.92738683333333, "rental_uris": {"android": "https://dc.lft.to/lastmile_qr_scan", "ios": "https://dc.lft.to/lastmile_qr_scan"}, "fusion_lat": 0.0}, {"is_disabled": 0, "lat": 38.90047533333333, "bike_id": "76c22fc5dabd4567891fcc76538495b9", "fusion_lon": 0.0, "is_reserved": 0, "type": "electric_scooter", "name": "76c22fc5dabd4567891fcc76538495b9", "lon": -76.9828535, "rental_uris": {"android": "https://dc.lft.to/lastmile_qr_scan", "ios": "https://dc.lft.to/lastmile_qr_scan"}, "fusion_lat": 0.0}, {"is_disabled": 0, "lat": 38.88050066666667, "bike_id": "4c0ac8693b6341d90d9709a4bd4b1c3f", "fusion_lon": 0.0, "is_reserved": 0, "type": "electric_scooter", "name": "4c0ac8693b6341d90d9709a4bd4b1c3f", "lon": -77.0056595, "rental_uris": {"android": "https://dc.lft.to/lastmile_qr_scan", "ios": "https://dc.lft.to/lastmile_qr_scan"}, "fusion_lat": 0.0}, {"is_disabled": 0, "lat": 38.907286666666664, "bike_id": "764d0e2a85ba21368a1e14170050c0b3", "fusion_lon": 0.0, "is_reserved": 0, "type": "electric_scooter", "name": "764d0e2a85ba21368a1e14170050c0b3", "lon": -77.04822133333333, "rental_uris": {"android": "https://dc.lft.to/lastmile_qr_scan", "ios": "https://dc.lft.to/lastmile_qr_scan"}, "fusion_lat": 0.0}, {"is_disabled": 0, "lat": 38.90386566666667, "bike_id": "8c5918600e9ed2d9f8bb279333b3c7b0", "fusion_lon": 0.0, "is_reserved": 0, "type": "electric_scooter", "name": "8c5918600e9ed2d9f8bb279333b3c7b0", "lon": -77.04509583333333, "rental_uris": {"android": "https://dc.lft.to/lastmile_qr_scan", "ios": "https://dc.lft.to/lastmile_qr_scan"}, "fusion_lat": 0.0}, {"is_disabled": 0, "lat": 38.9260395, "bike_id": "50e6fd620298a76339c90f91285e6a8c", "fusion_lon": 0.0, "is_reserved": 0, "type": "electric_scooter", "name": "50e6fd620298a76339c90f91285e6a8c", "lon": -77.021527, "rental_uris": {"android": "https://dc.lft.to/lastmile_qr_scan", "ios": "https://dc.lft.to/lastmile_qr_scan"}, "fusion_lat": 0.0}, {"is_disabled": 0, "lat": 38.90719416666666, "bike_id": "bf425b15e3a22fdfedc3312e87a8b9bf", "fusion_lon": 0.0, "is_reserved": 0, "type": "electric_scooter", "name": "bf425b15e3a22fdfedc3312e87a8b9bf", "lon": -77.04498283333334, "rental_uris": {"android": "https://dc.lft.to/lastmile_qr_scan", "ios": "https://dc.lft.to/lastmile_qr_scan"}, "fusion_lat": 0.0}, {"is_disabled": 0, "lat": 38.928731666666664, "bike_id": "7b68f4afe1f55372e35a03fbc2d1ad6d", "fusion_lon": 0.0, "is_reserved": 0, "type": "electric_scooter", "name": "7b68f4afe1f55372e35a03fbc2d1ad6d", "lon": -77.0344885, "rental_uris": {"android": "https://dc.lft.to/lastmile_qr_scan", "ios": "https://dc.lft.to/lastmile_qr_scan"}, "fusion_lat": 0.0}, {"is_disabled": 0, "lat": 38.914715666666666, "bike_id": "30b469140e90b87b21e5098d330fd51c", "fusion_lon": 0.0, "is_reserved": 0, "type": "electric_scooter", "name": "30b469140e90b87b21e5098d330fd51c", "lon": -77.03205533333333, "rental_uris": {"android": "https://dc.lft.to/lastmile_qr_scan", "ios": "https://dc.lft.to/lastmile_qr_scan"}, "fusion_lat": 0.0}, {"is_disabled": 0, "lat": 38.90734966666667, "bike_id": "ab9f9f99a3e0d4950c45feab0ce68ab5", "fusion_lon": 0.0, "is_reserved": 0, "type": "electric_scooter", "name": "ab9f9f99a3e0d4950c45feab0ce68ab5", "lon": -77.04155883333334, "rental_uris": {"android": "https://dc.lft.to/lastmile_qr_scan", "ios": "https://dc.lft.to/lastmile_qr_scan"}, "fusion_lat": 0.0}, {"is_disabled": 0, "lat": 38.8961745, "bike_id": "6491a5d613b50a3cda3457777a717d4c", "fusion_lon": 0.0, "is_reserved": 0, "type": "electric_scooter", "name": "6491a5d613b50a3cda3457777a717d4c", "lon": -76.98572366666667, "rental_uris": {"android": "https://dc.lft.to/lastmile_qr_scan", "ios": "https://dc.lft.to/lastmile_qr_scan"}, "fusion_lat": 0.0}, {"is_disabled": 0, "lat": 38.94358283333333, "bike_id": "9c9dc5a6c5ffce237ff0a8840cf180c1", "fusion_lon": 0.0, "is_reserved": 0, "type": "electric_scooter", "name": "9c9dc5a6c5ffce237ff0a8840cf180c1", "lon": -77.06145716666667, "rental_uris": {"android": "https://dc.lft.to/lastmile_qr_scan", "ios": "https://dc.lft.to/lastmile_qr_scan"}, "fusion_lat": 0.0}, {"is_disabled": 0, "lat": 38.929657, "bike_id": "b788886f230365c968c3bc3fd25ce227", "fusion_lon": 0.0, "is_reserved": 0, "type": "electric_bike", "name": "b788886f230365c968c3bc3fd25ce227", "lon": -77.2256875, "rental_uris": {"android": "https://dc.lft.to/lastmile_qr_scan", "ios": "https://dc.lft.to/lastmile_qr_scan"}, "fusion_lat": 0.0}, {"is_disabled": 0, "lat": 38.907375333333334, "bike_id": "385fd66e3d45a605b21a8362bc3c2caf", "fusion_lon": 0.0, "is_reserved": 0, "type": "electric_scooter", "name": "385fd66e3d45a605b21a8362bc3c2caf", "lon": -77.04675833333333, "rental_uris": {"android": "https://dc.lft.to/lastmile_qr_scan", "ios": "https://dc.lft.to/lastmile_qr_scan"}, "fusion_lat": 0.0}, {"is_disabled": 0, "lat": 38.89493866666667, "bike_id": "60c3cc6a531b6a7987581b61ade5ed47", "fusion_lon": 0.0, "is_reserved": 0, "type": "electric_scooter", "name": "60c3cc6a531b6a7987581b61ade5ed47", "lon": -77.00290116666666, "rental_uris": {"android": "https://dc.lft.to/lastmile_qr_scan", "ios": "https://dc.lft.to/lastmile_qr_scan"}, "fusion_lat": 0.0}, {"is_disabled": 0, "lat": 38.90653016666667, "bike_id": "9638f821d207023eb013a00c4ba3ee8e", "fusion_lon": 0.0, "is_reserved": 0, "type": "electric_scooter", "name": "9638f821d207023eb013a00c4ba3ee8e", "lon": -77.034713, "rental_uris": {"android": "https://dc.lft.to/lastmile_qr_scan", "ios": "https://dc.lft.to/lastmile_qr_scan"}, "fusion_lat": 0.0}, {"is_disabled": 0, "lat": 38.912635, "bike_id": "16504e0fd92d60afc6b9a83925b19ac0", "fusion_lon": 0.0, "is_reserved": 0, "type": "electric_scooter", "name": "16504e0fd92d60afc6b9a83925b19ac0", "lon": -77.075828, "rental_uris": {"android": "https://dc.lft.to/lastmile_qr_scan", "ios": "https://dc.lft.to/lastmile_qr_scan"}, "fusion_lat": 0.0}, {"is_disabled": 0, "lat": 38.91689983333333, "bike_id": "c27fb8a53ca88f988fb91aaa1e04d4eb", "fusion_lon": 0.0, "is_reserved": 0, "type": "electric_scooter", "name": "c27fb8a53ca88f988fb91aaa1e04d4eb", "lon": -77.03772116666667, "rental_uris": {"android": "https://dc.lft.to/lastmile_qr_scan", "ios": "https://dc.lft.to/lastmile_qr_scan"}, "fusion_lat": 0.0}, {"is_disabled": 0, "lat": 38.903571, "bike_id": "731c88ef07944823b32df11f74e17d3c", "fusion_lon": 0.0, "is_reserved": 0, "type": "electric_scooter", "name": "731c88ef07944823b32df11f74e17d3c", "lon": -77.03713733333333, "rental_uris": {"android": "https://dc.lft.to/lastmile_qr_scan", "ios": "https://dc.lft.to/lastmile_qr_scan"}, "fusion_lat": 0.0}, {"is_disabled": 0, "lat": 38.928680166666666, "bike_id": "3928154af12cc4e68ab10cbc767ce397", "fusion_lon": 0.0, "is_reserved": 0, "type": "electric_scooter", "name": "3928154af12cc4e68ab10cbc767ce397", "lon": -77.03234783333333, "rental_uris": {"android": "https://dc.lft.to/lastmile_qr_scan", "ios": "https://dc.lft.to/lastmile_qr_scan"}, "fusion_lat": 0.0}, {"is_disabled": 0, "lat": 38.89046, "bike_id": "80546f67877acae81b21e6806ade0cd6", "fusion_lon": 0.0, "is_reserved": 0, "type": "electric_scooter", "name": "80546f67877acae81b21e6806ade0cd6", "lon": -76.9376045, "rental_uris": {"android": "https://dc.lft.to/lastmile_qr_scan", "ios": "https://dc.lft.to/lastmile_qr_scan"}, "fusion_lat": 0.0}, {"is_disabled": 0, "lat": 38.898282333333334, "bike_id": "b4b52a38ece93f48bde60477d9ebc8cb", "fusion_lon": 0.0, "is_reserved": 0, "type": "electric_scooter", "name": "b4b52a38ece93f48bde60477d9ebc8cb", "lon": -77.00760416666667, "rental_uris": {"android": "https://dc.lft.to/lastmile_qr_scan", "ios": "https://dc.lft.to/lastmile_qr_scan"}, "fusion_lat": 0.0}, {"is_disabled": 0, "lat": 38.9002985, "bike_id": "40c5e2d87d5ccf8edc6deb43ac86fc9c", "fusion_lon": 0.0, "is_reserved": 0, "type": "electric_scooter", "name": "40c5e2d87d5ccf8edc6deb43ac86fc9c", "lon": -76.91968616666666, "rental_uris": {"android": "https://dc.lft.to/lastmile_qr_scan", "ios": "https://dc.lft.to/lastmile_qr_scan"}, "fusion_lat": 0.0}, {"is_disabled": 0, "lat": 38.92416333333333, "bike_id": "fb2e907a9cf982504bf0042ff20fbacc", "fusion_lon": 0.0, "is_reserved": 0, "type": "electric_scooter", "name": "fb2e907a9cf982504bf0042ff20fbacc", "lon": -77.0389645, "rental_uris": {"android": "https://dc.lft.to/lastmile_qr_scan", "ios": "https://dc.lft.to/lastmile_qr_scan"}, "fusion_lat": 0.0}, {"is_disabled": 0, "lat": 38.832683833333334, "bike_id": "ff59ab00ebd3fe30aba51afb0b2a3f6f", "fusion_lon": 0.0, "is_reserved": 0, "type": "electric_scooter", "name": "ff59ab00ebd3fe30aba51afb0b2a3f6f", "lon": -77.00631633333333, "rental_uris": {"android": "https://dc.lft.to/lastmile_qr_scan", "ios": "https://dc.lft.to/lastmile_qr_scan"}, "fusion_lat": 0.0}, {"is_disabled": 0, "lat": 38.89841583333333, "bike_id": "99975dc024f8216aec3dd7fe78d3c135", "fusion_lon": 0.0, "is_reserved": 0, "type": "electric_scooter", "name": "99975dc024f8216aec3dd7fe78d3c135", "lon": -77.02820983333334, "rental_uris": {"android": "https://dc.lft.to/lastmile_qr_scan", "ios": "https://dc.lft.to/lastmile_qr_scan"}, "fusion_lat": 0.0}, {"is_disabled": 0, "lat": 38.88122516666667, "bike_id": "c14f92fb77f34e01e017dab5cd8ef6c8", "fusion_lon": 0.0, "is_reserved": 0, "type": "electric_scooter", "name": "c14f92fb77f34e01e017dab5cd8ef6c8", "lon": -76.99679916666666, "rental_uris": {"android": "https://dc.lft.to/lastmile_qr_scan", "ios": "https://dc.lft.to/lastmile_qr_scan"}, "fusion_lat": 0.0}, {"is_disabled": 0, "lat": 38.902700833333334, "bike_id": "1e755e819968e9878e31eeb8478c9038", "fusion_lon": 0.0, "is_reserved": 0, "type": "electric_scooter", "name": "1e755e819968e9878e31eeb8478c9038", "lon": -77.0262655, "rental_uris": {"android": "https://dc.lft.to/lastmile_qr_scan", "ios": "https://dc.lft.to/lastmile_qr_scan"}, "fusion_lat": 0.0}, {"is_disabled": 0, "lat": 38.90065166666667, "bike_id": "8cdac04bc66b4d016c6ca060d6af463e", "fusion_lon": 0.0, "is_reserved": 0, "type": "electric_scooter", "name": "8cdac04bc66b4d016c6ca060d6af463e", "lon": -77.04532483333334, "rental_uris": {"android": "https://dc.lft.to/lastmile_qr_scan", "ios": "https://dc.lft.to/lastmile_qr_scan"}, "fusion_lat": 0.0}, {"is_disabled": 0, "lat": 38.924115, "bike_id": "cb53258723a80454d966d810453c4fa1", "fusion_lon": 0.0, "is_reserved": 0, "type": "electric_scooter", "name": "cb53258723a80454d966d810453c4fa1", "lon": -77.05055716666666, "rental_uris": {"android": "https://dc.lft.to/lastmile_qr_scan", "ios": "https://dc.lft.to/lastmile_qr_scan"}, "fusion_lat": 0.0}, {"is_disabled": 0, "lat": 38.8985365, "bike_id": "d7c69f0bda550b923222385c96570645", "fusion_lon": 0.0, "is_reserved": 0, "type": "electric_scooter", "name": "d7c69f0bda550b923222385c96570645", "lon": -77.05305133333333, "rental_uris": {"android": "https://dc.lft.to/lastmile_qr_scan", "ios": "https://dc.lft.to/lastmile_qr_scan"}, "fusion_lat": 0.0}, {"is_disabled": 0, "lat": 38.90368483333334, "bike_id": "5268f0a1e89fa2a2517d9032cc4825f0", "fusion_lon": 0.0, "is_reserved": 0, "type": "electric_scooter", "name": "5268f0a1e89fa2a2517d9032cc4825f0", "lon": -77.0448675, "rental_uris": {"android": "https://dc.lft.to/lastmile_qr_scan", "ios": "https://dc.lft.to/lastmile_qr_scan"}, "fusion_lat": 0.0}, {"is_disabled": 0, "lat": 38.91869966666667, "bike_id": "0331a7f6682b82554a50445d8f5c2786", "fusion_lon": 0.0, "is_reserved": 0, "type": "electric_scooter", "name": "0331a7f6682b82554a50445d8f5c2786", "lon": -77.03468283333333, "rental_uris": {"android": "https://dc.lft.to/lastmile_qr_scan", "ios": "https://dc.lft.to/lastmile_qr_scan"}, "fusion_lat": 0.0}, {"is_disabled": 0, "lat": 38.92498966666667, "bike_id": "0080940e82ec7f36e679e8d421363cf1", "fusion_lon": 0.0, "is_reserved": 0, "type": "electric_scooter", "name": "0080940e82ec7f36e679e8d421363cf1", "lon": -77.0214885, "rental_uris": {"android": "https://dc.lft.to/lastmile_qr_scan", "ios": "https://dc.lft.to/lastmile_qr_scan"}, "fusion_lat": 0.0}, {"is_disabled": 0, "lat": 38.92175133333333, "bike_id": "7fbd736b331f1323dd3474394ea42e36", "fusion_lon": 0.0, "is_reserved": 0, "type": "electric_scooter", "name": "7fbd736b331f1323dd3474394ea42e36", "lon": -77.02950933333334, "rental_uris": {"android": "https://dc.lft.to/lastmile_qr_scan", "ios": "https://dc.lft.to/lastmile_qr_scan"}, "fusion_lat": 0.0}, {"is_disabled": 0, "lat": 38.880833333333335, "bike_id": "865646b66ad97f2e5ada3b7f4430a9ac", "fusion_lon": 0.0, "is_reserved": 0, "type": "electric_bike", "name": "865646b66ad97f2e5ada3b7f4430a9ac", "lon": -76.985149, "rental_uris": {"android": "https://dc.lft.to/lastmile_qr_scan", "ios": "https://dc.lft.to/lastmile_qr_scan"}, "fusion_lat": 0.0}, {"is_disabled": 0, "lat": 38.91697966666667, "bike_id": "20e0039898ce69d81bc47461eccbe4f5", "fusion_lon": 0.0, "is_reserved": 0, "type": "electric_scooter", "name": "20e0039898ce69d81bc47461eccbe4f5", "lon": -77.04150183333333, "rental_uris": {"android": "https://dc.lft.to/lastmile_qr_scan", "ios": "https://dc.lft.to/lastmile_qr_scan"}, "fusion_lat": 0.0}, {"is_disabled": 0, "lat": 38.917803666666664, "bike_id": "9138fed40038a4ca3a25ea4c4e4763a5", "fusion_lon": 0.0, "is_reserved": 0, "type": "electric_scooter", "name": "9138fed40038a4ca3a25ea4c4e4763a5", "lon": -77.0410265, "rental_uris": {"android": "https://dc.lft.to/lastmile_qr_scan", "ios": "https://dc.lft.to/lastmile_qr_scan"}, "fusion_lat": 0.0}, {"is_disabled": 0, "lat": 38.906377, "bike_id": "6ba4fcb273921bfb3c45c73167027892", "fusion_lon": 0.0, "is_reserved": 0, "type": "electric_scooter", "name": "6ba4fcb273921bfb3c45c73167027892", "lon": -76.98570266666667, "rental_uris": {"android": "https://dc.lft.to/lastmile_qr_scan", "ios": "https://dc.lft.to/lastmile_qr_scan"}, "fusion_lat": 0.0}, {"is_disabled": 0, "lat": 38.8922, "bike_id": "b7f6e1ffa50a6322f5ba4064ecca94d5", "fusion_lon": 0.0, "is_reserved": 0, "type": "electric_scooter", "name": "b7f6e1ffa50a6322f5ba4064ecca94d5", "lon": -77.01557783333334, "rental_uris": {"android": "https://dc.lft.to/lastmile_qr_scan", "ios": "https://dc.lft.to/lastmile_qr_scan"}, "fusion_lat": 0.0}, {"is_disabled": 0, "lat": 38.96129216666667, "bike_id": "132d24347d0b2091c0df49a9e3258237", "fusion_lon": 0.0, "is_reserved": 0, "type": "electric_scooter", "name": "132d24347d0b2091c0df49a9e3258237", "lon": -77.02901466666667, "rental_uris": {"android": "https://dc.lft.to/lastmile_qr_scan", "ios": "https://dc.lft.to/lastmile_qr_scan"}, "fusion_lat": 0.0}, {"is_disabled": 0, "lat": 38.9187635, "bike_id": "910d193e6abd676d3658bd5c7b8edc0a", "fusion_lon": 0.0, "is_reserved": 0, "type": "electric_scooter", "name": "910d193e6abd676d3658bd5c7b8edc0a", "lon": -77.03502866666666, "rental_uris": {"android": "https://dc.lft.to/lastmile_qr_scan", "ios": "https://dc.lft.to/lastmile_qr_scan"}, "fusion_lat": 0.0}, {"is_disabled": 0, "lat": 38.892552, "bike_id": "6a9dea789f4550ded479fafc1e69d7ef", "fusion_lon": 0.0, "is_reserved": 0, "type": "electric_scooter", "name": "6a9dea789f4550ded479fafc1e69d7ef", "lon": -77.013388, "rental_uris": {"android": "https://dc.lft.to/lastmile_qr_scan", "ios": "https://dc.lft.to/lastmile_qr_scan"}, "fusion_lat": 0.0}, {"is_disabled": 0, "lat": 38.90067833333333, "bike_id": "c942659ed91be7e8818f3d1c4d1574f7", "fusion_lon": 0.0, "is_reserved": 0, "type": "electric_scooter", "name": "c942659ed91be7e8818f3d1c4d1574f7", "lon": -77.0453375, "rental_uris": {"android": "https://dc.lft.to/lastmile_qr_scan", "ios": "https://dc.lft.to/lastmile_qr_scan"}, "fusion_lat": 0.0}, {"is_disabled": 0, "lat": 38.94042783333333, "bike_id": "71edf8bcb1a894b6401a5312b205e042", "fusion_lon": 0.0, "is_reserved": 0, "type": "electric_scooter", "name": "71edf8bcb1a894b6401a5312b205e042", "lon": -77.02915833333333, "rental_uris": {"android": "https://dc.lft.to/lastmile_qr_scan", "ios": "https://dc.lft.to/lastmile_qr_scan"}, "fusion_lat": 0.0}, {"is_disabled": 0, "lat": 38.90764183333334, "bike_id": "ce834f3e56e459f57eee5ec11d138b81", "fusion_lon": 0.0, "is_reserved": 0, "type": "electric_scooter", "name": "ce834f3e56e459f57eee5ec11d138b81", "lon": -77.04338183333333, "rental_uris": {"android": "https://dc.lft.to/lastmile_qr_scan", "ios": "https://dc.lft.to/lastmile_qr_scan"}, "fusion_lat": 0.0}, {"is_disabled": 0, "lat": 38.8707625, "bike_id": "16585f24a0b6c3c37e4fa67ae82e8da3", "fusion_lon": 0.0, "is_reserved": 0, "type": "electric_scooter", "name": "16585f24a0b6c3c37e4fa67ae82e8da3", "lon": -76.9786265, "rental_uris": {"android": "https://dc.lft.to/lastmile_qr_scan", "ios": "https://dc.lft.to/lastmile_qr_scan"}, "fusion_lat": 0.0}, {"is_disabled": 0, "lat": 38.919874, "bike_id": "7e70ec0a7ddee5cd848dc1e0734c4626", "fusion_lon": 0.0, "is_reserved": 0, "type": "electric_scooter", "name": "7e70ec0a7ddee5cd848dc1e0734c4626", "lon": -76.97304466666667, "rental_uris": {"android": "https://dc.lft.to/lastmile_qr_scan", "ios": "https://dc.lft.to/lastmile_qr_scan"}, "fusion_lat": 0.0}, {"is_disabled": 0, "lat": 38.91731733333334, "bike_id": "65c5feb0f7d506678e4d74698faa941f", "fusion_lon": 0.0, "is_reserved": 0, "type": "electric_scooter", "name": "65c5feb0f7d506678e4d74698faa941f", "lon": -77.000406, "rental_uris": {"android": "https://dc.lft.to/lastmile_qr_scan", "ios": "https://dc.lft.to/lastmile_qr_scan"}, "fusion_lat": 0.0}, {"is_disabled": 0, "lat": 38.919968, "bike_id": "a105cda71f09ca11d8fa8de5425bc838", "fusion_lon": 0.0, "is_reserved": 0, "type": "electric_scooter", "name": "a105cda71f09ca11d8fa8de5425bc838", "lon": -77.02376966666667, "rental_uris": {"android": "https://dc.lft.to/lastmile_qr_scan", "ios": "https://dc.lft.to/lastmile_qr_scan"}, "fusion_lat": 0.0}, {"is_disabled": 0, "lat": 38.9167535, "bike_id": "ecc3312ef14625b3a8ae5a4dc9937e0a", "fusion_lon": 0.0, "is_reserved": 0, "type": "electric_scooter", "name": "ecc3312ef14625b3a8ae5a4dc9937e0a", "lon": -77.0296955, "rental_uris": {"android": "https://dc.lft.to/lastmile_qr_scan", "ios": "https://dc.lft.to/lastmile_qr_scan"}, "fusion_lat": 0.0}, {"is_disabled": 0, "lat": 38.897377166666665, "bike_id": "5f75535db985ac5c3cd4c8a8fd07b343", "fusion_lon": 0.0, "is_reserved": 0, "type": "electric_scooter", "name": "5f75535db985ac5c3cd4c8a8fd07b343", "lon": -77.0456715, "rental_uris": {"android": "https://dc.lft.to/lastmile_qr_scan", "ios": "https://dc.lft.to/lastmile_qr_scan"}, "fusion_lat": 0.0}, {"is_disabled": 0, "lat": 38.91727433333333, "bike_id": "387a019e16c994515bb7257881532c5b", "fusion_lon": 0.0, "is_reserved": 0, "type": "electric_scooter", "name": "387a019e16c994515bb7257881532c5b", "lon": -77.03622133333333, "rental_uris": {"android": "https://dc.lft.to/lastmile_qr_scan", "ios": "https://dc.lft.to/lastmile_qr_scan"}, "fusion_lat": 0.0}, {"is_disabled": 0, "lat": 38.8804225, "bike_id": "8cb3ca450e57f963cb172d56f166a5c2", "fusion_lon": 0.0, "is_reserved": 0, "type": "electric_bike", "name": "8cb3ca450e57f963cb172d56f166a5c2", "lon": -77.025257, "rental_uris": {"android": "https://dc.lft.to/lastmile_qr_scan", "ios": "https://dc.lft.to/lastmile_qr_scan"}, "fusion_lat": 0.0}, {"is_disabled": 0, "lat": 38.90261866666667, "bike_id": "b10bb21737adde4745ba3adb812ce314", "fusion_lon": 0.0, "is_reserved": 0, "type": "electric_scooter", "name": "b10bb21737adde4745ba3adb812ce314", "lon": -77.01975183333333, "rental_uris": {"android": "https://dc.lft.to/lastmile_qr_scan", "ios": "https://dc.lft.to/lastmile_qr_scan"}, "fusion_lat": 0.0}, {"is_disabled": 0, "lat": 38.91531166666667, "bike_id": "d84d14d0d3a8f0582e84c54a1fcab75b", "fusion_lon": 0.0, "is_reserved": 0, "type": "electric_scooter", "name": "d84d14d0d3a8f0582e84c54a1fcab75b", "lon": -77.04623766666667, "rental_uris": {"android": "https://dc.lft.to/lastmile_qr_scan", "ios": "https://dc.lft.to/lastmile_qr_scan"}, "fusion_lat": 0.0}, {"is_disabled": 0, "lat": 38.92027783333333, "bike_id": "98b7bd4e1079dc7712df79926ce2e6fd", "fusion_lon": 0.0, "is_reserved": 0, "type": "electric_scooter", "name": "98b7bd4e1079dc7712df79926ce2e6fd", "lon": -77.02570316666667, "rental_uris": {"android": "https://dc.lft.to/lastmile_qr_scan", "ios": "https://dc.lft.to/lastmile_qr_scan"}, "fusion_lat": 0.0}, {"is_disabled": 0, "lat": 38.925116, "bike_id": "d963d43484b27193e815cb6238150f48", "fusion_lon": 0.0, "is_reserved": 0, "type": "electric_scooter", "name": "d963d43484b27193e815cb6238150f48", "lon": -77.04110733333333, "rental_uris": {"android": "https://dc.lft.to/lastmile_qr_scan", "ios": "https://dc.lft.to/lastmile_qr_scan"}, "fusion_lat": 0.0}, {"is_disabled": 0, "lat": 39.074957166666664, "bike_id": "5ea7bc30f242022a636dcbf4d6f789e8", "fusion_lon": 0.0, "is_reserved": 0, "type": "electric_bike", "name": "5ea7bc30f242022a636dcbf4d6f789e8", "lon": -77.11589766666667, "rental_uris": {"android": "https://dc.lft.to/lastmile_qr_scan", "ios": "https://dc.lft.to/lastmile_qr_scan"}, "fusion_lat": 0.0}, {"is_disabled": 0, "lat": 38.939724166666664, "bike_id": "671943877e8ace4697fe80b4e9fbd5a1", "fusion_lon": 0.0, "is_reserved": 0, "type": "electric_bike", "name": "671943877e8ace4697fe80b4e9fbd5a1", "lon": -77.03756933333334, "rental_uris": {"android": "https://dc.lft.to/lastmile_qr_scan", "ios": "https://dc.lft.to/lastmile_qr_scan"}, "fusion_lat": 0.0}, {"is_disabled": 0, "lat": 38.914248666666666, "bike_id": "3f612ea60f32a1eb33374a05ba5cc1f2", "fusion_lon": 0.0, "is_reserved": 0, "type": "electric_scooter", "name": "3f612ea60f32a1eb33374a05ba5cc1f2", "lon": -77.022039, "rental_uris": {"android": "https://dc.lft.to/lastmile_qr_scan", "ios": "https://dc.lft.to/lastmile_qr_scan"}, "fusion_lat": 0.0}, {"is_disabled": 0, "lat": 38.899567166666664, "bike_id": "4fc9e9f081cdbe3e4b6ea7b18c66f47c", "fusion_lon": 0.0, "is_reserved": 0, "type": "electric_scooter", "name": "4fc9e9f081cdbe3e4b6ea7b18c66f47c", "lon": -77.0235525, "rental_uris": {"android": "https://dc.lft.to/lastmile_qr_scan", "ios": "https://dc.lft.to/lastmile_qr_scan"}, "fusion_lat": 0.0}, {"is_disabled": 0, "lat": 38.92064883333333, "bike_id": "5fd7ba7f126ee637a23b28bb3d864c89", "fusion_lon": 0.0, "is_reserved": 0, "type": "electric_scooter", "name": "5fd7ba7f126ee637a23b28bb3d864c89", "lon": -77.03475766666666, "rental_uris": {"android": "https://dc.lft.to/lastmile_qr_scan", "ios": "https://dc.lft.to/lastmile_qr_scan"}, "fusion_lat": 0.0}, {"is_disabled": 0, "lat": 38.898926333333335, "bike_id": "66139ab2d6a16e9fbdd1ca2ca5cf2c7b", "fusion_lon": 0.0, "is_reserved": 0, "type": "electric_scooter", "name": "66139ab2d6a16e9fbdd1ca2ca5cf2c7b", "lon": -76.93260916666667, "rental_uris": {"android": "https://dc.lft.to/lastmile_qr_scan", "ios": "https://dc.lft.to/lastmile_qr_scan"}, "fusion_lat": 0.0}, {"is_disabled": 0, "lat": 38.913389333333335, "bike_id": "5fe36186fcee4a48ee03ccb24f7ba938", "fusion_lon": 0.0, "is_reserved": 0, "type": "electric_scooter", "name": "5fe36186fcee4a48ee03ccb24f7ba938", "lon": -77.04267866666666, "rental_uris": {"android": "https://dc.lft.to/lastmile_qr_scan", "ios": "https://dc.lft.to/lastmile_qr_scan"}, "fusion_lat": 0.0}, {"is_disabled": 0, "lat": 38.905320833333334, "bike_id": "de0b0225d182f4c8156f568e1e013d4e", "fusion_lon": 0.0, "is_reserved": 0, "type": "electric_bike", "name": "de0b0225d182f4c8156f568e1e013d4e", "lon": -77.0652235, "rental_uris": {"android": "https://dc.lft.to/lastmile_qr_scan", "ios": "https://dc.lft.to/lastmile_qr_scan"}, "fusion_lat": 0.0}, {"is_disabled": 0, "lat": 38.90850966666667, "bike_id": "b09357d222505b1a48c9d6b3e6c7f320", "fusion_lon": 0.0, "is_reserved": 0, "type": "electric_scooter", "name": "b09357d222505b1a48c9d6b3e6c7f320", "lon": -77.00618966666667, "rental_uris": {"android": "https://dc.lft.to/lastmile_qr_scan", "ios": "https://dc.lft.to/lastmile_qr_scan"}, "fusion_lat": 0.0}, {"is_disabled": 0, "lat": 38.90010783333334, "bike_id": "4a27a874e1519e5e80848ea2ae32cc1b", "fusion_lon": 0.0, "is_reserved": 0, "type": "electric_scooter", "name": "4a27a874e1519e5e80848ea2ae32cc1b", "lon": -77.04648066666667, "rental_uris": {"android": "https://dc.lft.to/lastmile_qr_scan", "ios": "https://dc.lft.to/lastmile_qr_scan"}, "fusion_lat": 0.0}, {"is_disabled": 0, "lat": 38.902256333333334, "bike_id": "913d73b7cb825fff0e120cbfdb4f22b0", "fusion_lon": 0.0, "is_reserved": 0, "type": "electric_scooter", "name": "913d73b7cb825fff0e120cbfdb4f22b0", "lon": -77.0460725, "rental_uris": {"android": "https://dc.lft.to/lastmile_qr_scan", "ios": "https://dc.lft.to/lastmile_qr_scan"}, "fusion_lat": 0.0}, {"is_disabled": 0, "lat": 38.9169695, "bike_id": "33e9d78009548c3240d3671bbc04ca51", "fusion_lon": 0.0, "is_reserved": 0, "type": "electric_scooter", "name": "33e9d78009548c3240d3671bbc04ca51", "lon": -77.04151016666667, "rental_uris": {"android": "https://dc.lft.to/lastmile_qr_scan", "ios": "https://dc.lft.to/lastmile_qr_scan"}, "fusion_lat": 0.0}, {"is_disabled": 0, "lat": 39.03896916666667, "bike_id": "611125267f0722e18a7b4596bbb00ab8", "fusion_lon": 0.0, "is_reserved": 0, "type": "electric_bike", "name": "611125267f0722e18a7b4596bbb00ab8", "lon": -77.050432, "rental_uris": {"android": "https://dc.lft.to/lastmile_qr_scan", "ios": "https://dc.lft.to/lastmile_qr_scan"}, "fusion_lat": 0.0}, {"is_disabled": 0, "lat": 38.866548, "bike_id": "f67f9c16f15a1b1b1d28eb13925b6fbd", "fusion_lon": 0.0, "is_reserved": 0, "type": "electric_scooter", "name": "f67f9c16f15a1b1b1d28eb13925b6fbd", "lon": -76.98507966666666, "rental_uris": {"android": "https://dc.lft.to/lastmile_qr_scan", "ios": "https://dc.lft.to/lastmile_qr_scan"}, "fusion_lat": 0.0}, {"is_disabled": 0, "lat": 38.91336183333333, "bike_id": "f3bafd2e5f0b693a1fde7755beaa3168", "fusion_lon": 0.0, "is_reserved": 0, "type": "electric_scooter", "name": "f3bafd2e5f0b693a1fde7755beaa3168", "lon": -77.0481465, "rental_uris": {"android": "https://dc.lft.to/lastmile_qr_scan", "ios": "https://dc.lft.to/lastmile_qr_scan"}, "fusion_lat": 0.0}, {"is_disabled": 0, "lat": 38.902688833333336, "bike_id": "4cb340b7c1556e7076f50144cbddd1fc", "fusion_lon": 0.0, "is_reserved": 0, "type": "electric_scooter", "name": "4cb340b7c1556e7076f50144cbddd1fc", "lon": -77.03848566666667, "rental_uris": {"android": "https://dc.lft.to/lastmile_qr_scan", "ios": "https://dc.lft.to/lastmile_qr_scan"}, "fusion_lat": 0.0}, {"is_disabled": 0, "lat": 38.916942166666665, "bike_id": "7882bde8dd5b7e9fce98ba1f1929d344", "fusion_lon": 0.0, "is_reserved": 0, "type": "electric_scooter", "name": "7882bde8dd5b7e9fce98ba1f1929d344", "lon": -77.02599166666667, "rental_uris": {"android": "https://dc.lft.to/lastmile_qr_scan", "ios": "https://dc.lft.to/lastmile_qr_scan"}, "fusion_lat": 0.0}, {"is_disabled": 0, "lat": 38.905492, "bike_id": "8fbaf9fab233a951cb36687e23010128", "fusion_lon": 0.0, "is_reserved": 0, "type": "electric_scooter", "name": "8fbaf9fab233a951cb36687e23010128", "lon": -77.00704066666667, "rental_uris": {"android": "https://dc.lft.to/lastmile_qr_scan", "ios": "https://dc.lft.to/lastmile_qr_scan"}, "fusion_lat": 0.0}, {"is_disabled": 0, "lat": 38.93967683333333, "bike_id": "cdaa6630d580e6e8fa748fb1faec25de", "fusion_lon": 0.0, "is_reserved": 0, "type": "electric_scooter", "name": "cdaa6630d580e6e8fa748fb1faec25de", "lon": -77.0250485, "rental_uris": {"android": "https://dc.lft.to/lastmile_qr_scan", "ios": "https://dc.lft.to/lastmile_qr_scan"}, "fusion_lat": 0.0}, {"is_disabled": 0, "lat": 38.928391833333336, "bike_id": "448d7d8c6b5774b2f0aec5b4a1e996c8", "fusion_lon": 0.0, "is_reserved": 0, "type": "electric_scooter", "name": "448d7d8c6b5774b2f0aec5b4a1e996c8", "lon": -77.03282216666666, "rental_uris": {"android": "https://dc.lft.to/lastmile_qr_scan", "ios": "https://dc.lft.to/lastmile_qr_scan"}, "fusion_lat": 0.0}, {"is_disabled": 0, "lat": 38.909765166666666, "bike_id": "6d1f1f6a4e73bd8b5f636c7589f4114f", "fusion_lon": 0.0, "is_reserved": 0, "type": "electric_scooter", "name": "6d1f1f6a4e73bd8b5f636c7589f4114f", "lon": -77.02805566666666, "rental_uris": {"android": "https://dc.lft.to/lastmile_qr_scan", "ios": "https://dc.lft.to/lastmile_qr_scan"}, "fusion_lat": 0.0}, {"is_disabled": 0, "lat": 38.90079333333333, "bike_id": "a826fc5f0a19a868de66973bce5dedf6", "fusion_lon": 0.0, "is_reserved": 0, "type": "electric_scooter", "name": "a826fc5f0a19a868de66973bce5dedf6", "lon": -77.0253095, "rental_uris": {"android": "https://dc.lft.to/lastmile_qr_scan", "ios": "https://dc.lft.to/lastmile_qr_scan"}, "fusion_lat": 0.0}, {"is_disabled": 0, "lat": 38.9011775, "bike_id": "6724f62a629f40dbf95cd2204350c9a1", "fusion_lon": 0.0, "is_reserved": 0, "type": "electric_scooter", "name": "6724f62a629f40dbf95cd2204350c9a1", "lon": -77.04868033333334, "rental_uris": {"android": "https://dc.lft.to/lastmile_qr_scan", "ios": "https://dc.lft.to/lastmile_qr_scan"}, "fusion_lat": 0.0}, {"is_disabled": 0, "lat": 38.9033685, "bike_id": "dcbbc34f28e5c6f286200b29f6af5ba7", "fusion_lon": 0.0, "is_reserved": 0, "type": "electric_scooter", "name": "dcbbc34f28e5c6f286200b29f6af5ba7", "lon": -77.0464925, "rental_uris": {"android": "https://dc.lft.to/lastmile_qr_scan", "ios": "https://dc.lft.to/lastmile_qr_scan"}, "fusion_lat": 0.0}, {"is_disabled": 0, "lat": 38.91712416666667, "bike_id": "9d5bc764e2653172e5385f4ca1d07c0b", "fusion_lon": 0.0, "is_reserved": 0, "type": "electric_scooter", "name": "9d5bc764e2653172e5385f4ca1d07c0b", "lon": -77.03323683333333, "rental_uris": {"android": "https://dc.lft.to/lastmile_qr_scan", "ios": "https://dc.lft.to/lastmile_qr_scan"}, "fusion_lat": 0.0}, {"is_disabled": 0, "lat": 38.982671333333336, "bike_id": "ad443dc303006480ac981ceaad2ad1b0", "fusion_lon": 0.0, "is_reserved": 0, "type": "electric_bike", "name": "ad443dc303006480ac981ceaad2ad1b0", "lon": -77.02606483333334, "rental_uris": {"android": "https://dc.lft.to/lastmile_qr_scan", "ios": "https://dc.lft.to/lastmile_qr_scan"}, "fusion_lat": 0.0}, {"is_disabled": 0, "lat": 38.90034766666667, "bike_id": "5073fe7a471d77e6f461e95610005f4a", "fusion_lon": 0.0, "is_reserved": 0, "type": "electric_scooter", "name": "5073fe7a471d77e6f461e95610005f4a", "lon": -76.99859366666666, "rental_uris": {"android": "https://dc.lft.to/lastmile_qr_scan", "ios": "https://dc.lft.to/lastmile_qr_scan"}, "fusion_lat": 0.0}, {"is_disabled": 0, "lat": 38.858146, "bike_id": "942339a80a1e6e53a4ab74681646c1ec", "fusion_lon": 0.0, "is_reserved": 0, "type": "electric_scooter", "name": "942339a80a1e6e53a4ab74681646c1ec", "lon": -76.98919933333333, "rental_uris": {"android": "https://dc.lft.to/lastmile_qr_scan", "ios": "https://dc.lft.to/lastmile_qr_scan"}, "fusion_lat": 0.0}, {"is_disabled": 0, "lat": 38.9260735, "bike_id": "4519dbe6d8095e28b677565542e0389e", "fusion_lon": 0.0, "is_reserved": 0, "type": "electric_scooter", "name": "4519dbe6d8095e28b677565542e0389e", "lon": -77.02237316666667, "rental_uris": {"android": "https://dc.lft.to/lastmile_qr_scan", "ios": "https://dc.lft.to/lastmile_qr_scan"}, "fusion_lat": 0.0}, {"is_disabled": 0, "lat": 38.952596166666666, "bike_id": "ca61c8d0c0c7efea72957bb7d5635ed2", "fusion_lon": 0.0, "is_reserved": 0, "type": "electric_scooter", "name": "ca61c8d0c0c7efea72957bb7d5635ed2", "lon": -77.069819, "rental_uris": {"android": "https://dc.lft.to/lastmile_qr_scan", "ios": "https://dc.lft.to/lastmile_qr_scan"}, "fusion_lat": 0.0}, {"is_disabled": 0, "lat": 38.890566666666665, "bike_id": "85983162f709b137b49df7b7aa3e4bf7", "fusion_lon": 0.0, "is_reserved": 0, "type": "electric_bike", "name": "85983162f709b137b49df7b7aa3e4bf7", "lon": -76.94233316666667, "rental_uris": {"android": "https://dc.lft.to/lastmile_qr_scan", "ios": "https://dc.lft.to/lastmile_qr_scan"}, "fusion_lat": 0.0}, {"is_disabled": 0, "lat": 38.92446733333333, "bike_id": "cd981213d2770daab716cd71139eccd9", "fusion_lon": 0.0, "is_reserved": 0, "type": "electric_scooter", "name": "cd981213d2770daab716cd71139eccd9", "lon": -77.04395666666667, "rental_uris": {"android": "https://dc.lft.to/lastmile_qr_scan", "ios": "https://dc.lft.to/lastmile_qr_scan"}, "fusion_lat": 0.0}, {"is_disabled": 0, "lat": 38.92880133333333, "bike_id": "267994e3d3743f27c77faf1f9dcc1640", "fusion_lon": 0.0, "is_reserved": 0, "type": "electric_scooter", "name": "267994e3d3743f27c77faf1f9dcc1640", "lon": -77.0332745, "rental_uris": {"android": "https://dc.lft.to/lastmile_qr_scan", "ios": "https://dc.lft.to/lastmile_qr_scan"}, "fusion_lat": 0.0}, {"is_disabled": 0, "lat": 38.905728333333336, "bike_id": "c91f7599d8e734026d90c7e9b391e604", "fusion_lon": 0.0, "is_reserved": 0, "type": "electric_scooter", "name": "c91f7599d8e734026d90c7e9b391e604", "lon": -77.02116066666666, "rental_uris": {"android": "https://dc.lft.to/lastmile_qr_scan", "ios": "https://dc.lft.to/lastmile_qr_scan"}, "fusion_lat": 0.0}, {"is_disabled": 0, "lat": 38.95356666666667, "bike_id": "8c29a4ae52eea455278fc5e987e24b19", "fusion_lon": 0.0, "is_reserved": 0, "type": "electric_bike", "name": "8c29a4ae52eea455278fc5e987e24b19", "lon": -76.9809435, "rental_uris": {"android": "https://dc.lft.to/lastmile_qr_scan", "ios": "https://dc.lft.to/lastmile_qr_scan"}, "fusion_lat": 0.0}, {"is_disabled": 0, "lat": 38.90736283333333, "bike_id": "0494b9dc3a2788f1398c8ebb3dce9000", "fusion_lon": 0.0, "is_reserved": 0, "type": "electric_scooter", "name": "0494b9dc3a2788f1398c8ebb3dce9000", "lon": -77.02442316666666, "rental_uris": {"android": "https://dc.lft.to/lastmile_qr_scan", "ios": "https://dc.lft.to/lastmile_qr_scan"}, "fusion_lat": 0.0}, {"is_disabled": 0, "lat": 38.9227185, "bike_id": "74449dd980689f2f59dc993f1e9da358", "fusion_lon": 0.0, "is_reserved": 0, "type": "electric_bike", "name": "74449dd980689f2f59dc993f1e9da358", "lon": -77.0198485, "rental_uris": {"android": "https://dc.lft.to/lastmile_qr_scan", "ios": "https://dc.lft.to/lastmile_qr_scan"}, "fusion_lat": 0.0}, {"is_disabled": 0, "lat": 38.906672666666665, "bike_id": "04497892a13de0c1a57883324882daae", "fusion_lon": 0.0, "is_reserved": 0, "type": "electric_scooter", "name": "04497892a13de0c1a57883324882daae", "lon": -77.04160966666667, "rental_uris": {"android": "https://dc.lft.to/lastmile_qr_scan", "ios": "https://dc.lft.to/lastmile_qr_scan"}, "fusion_lat": 0.0}, {"is_disabled": 0, "lat": 38.903661666666665, "bike_id": "29df05631eb3b28b512ab28636236571", "fusion_lon": 0.0, "is_reserved": 0, "type": "electric_scooter", "name": "29df05631eb3b28b512ab28636236571", "lon": -77.03816283333333, "rental_uris": {"android": "https://dc.lft.to/lastmile_qr_scan", "ios": "https://dc.lft.to/lastmile_qr_scan"}, "fusion_lat": 0.0}, {"is_disabled": 0, "lat": 38.918582666666666, "bike_id": "3bdcdbe944071fead9ab08cb1b8105e9", "fusion_lon": 0.0, "is_reserved": 0, "type": "electric_scooter", "name": "3bdcdbe944071fead9ab08cb1b8105e9", "lon": -77.04153566666666, "rental_uris": {"android": "https://dc.lft.to/lastmile_qr_scan", "ios": "https://dc.lft.to/lastmile_qr_scan"}, "fusion_lat": 0.0}, {"is_disabled": 0, "lat": 38.9002195, "bike_id": "f28eecd3c689e55402b3aa3f2b81ec14", "fusion_lon": 0.0, "is_reserved": 0, "type": "electric_scooter", "name": "f28eecd3c689e55402b3aa3f2b81ec14", "lon": -76.998048, "rental_uris": {"android": "https://dc.lft.to/lastmile_qr_scan", "ios": "https://dc.lft.to/lastmile_qr_scan"}, "fusion_lat": 0.0}, {"is_disabled": 0, "lat": 38.892195666666666, "bike_id": "ba1aa2af6d6a153f820153dbb4d04860", "fusion_lon": 0.0, "is_reserved": 0, "type": "electric_scooter", "name": "ba1aa2af6d6a153f820153dbb4d04860", "lon": -77.0436965, "rental_uris": {"android": "https://dc.lft.to/lastmile_qr_scan", "ios": "https://dc.lft.to/lastmile_qr_scan"}, "fusion_lat": 0.0}, {"is_disabled": 0, "lat": 38.89395566666666, "bike_id": "6e82c4dba69642a8fdcd3fa10c21a169", "fusion_lon": 0.0, "is_reserved": 0, "type": "electric_scooter", "name": "6e82c4dba69642a8fdcd3fa10c21a169", "lon": -77.02250666666667, "rental_uris": {"android": "https://dc.lft.to/lastmile_qr_scan", "ios": "https://dc.lft.to/lastmile_qr_scan"}, "fusion_lat": 0.0}, {"is_disabled": 0, "lat": 38.90740866666667, "bike_id": "cd84eb1b02dfb1d8ae2b387ccd9980a0", "fusion_lon": 0.0, "is_reserved": 0, "type": "electric_scooter", "name": "cd84eb1b02dfb1d8ae2b387ccd9980a0", "lon": -76.951869, "rental_uris": {"android": "https://dc.lft.to/lastmile_qr_scan", "ios": "https://dc.lft.to/lastmile_qr_scan"}, "fusion_lat": 0.0}, {"is_disabled": 0, "lat": 38.906545, "bike_id": "43f9a3e64c38f69503a3ced806669baa", "fusion_lon": 0.0, "is_reserved": 0, "type": "electric_scooter", "name": "43f9a3e64c38f69503a3ced806669baa", "lon": -76.9836955, "rental_uris": {"android": "https://dc.lft.to/lastmile_qr_scan", "ios": "https://dc.lft.to/lastmile_qr_scan"}, "fusion_lat": 0.0}, {"is_disabled": 0, "lat": 38.85694483333333, "bike_id": "8024c381cb8b4f07201a43090507a32b", "fusion_lon": 0.0, "is_reserved": 0, "type": "electric_scooter", "name": "8024c381cb8b4f07201a43090507a32b", "lon": -76.98961633333333, "rental_uris": {"android": "https://dc.lft.to/lastmile_qr_scan", "ios": "https://dc.lft.to/lastmile_qr_scan"}, "fusion_lat": 0.0}, {"is_disabled": 0, "lat": 38.866295, "bike_id": "07b8a8657947de44769ad36ecbd7f816", "fusion_lon": 0.0, "is_reserved": 0, "type": "electric_scooter", "name": "07b8a8657947de44769ad36ecbd7f816", "lon": -76.98715, "rental_uris": {"android": "https://dc.lft.to/lastmile_qr_scan", "ios": "https://dc.lft.to/lastmile_qr_scan"}, "fusion_lat": 0.0}, {"is_disabled": 0, "lat": 38.907261, "bike_id": "8ea82928a578b6752a69555b2ed15245", "fusion_lon": 0.0, "is_reserved": 0, "type": "electric_scooter", "name": "8ea82928a578b6752a69555b2ed15245", "lon": -76.99893683333333, "rental_uris": {"android": "https://dc.lft.to/lastmile_qr_scan", "ios": "https://dc.lft.to/lastmile_qr_scan"}, "fusion_lat": 0.0}, {"is_disabled": 0, "lat": 38.912760666666664, "bike_id": "6fe134a00e21804a96fd578261fa13b2", "fusion_lon": 0.0, "is_reserved": 0, "type": "electric_scooter", "name": "6fe134a00e21804a96fd578261fa13b2", "lon": -77.02242083333333, "rental_uris": {"android": "https://dc.lft.to/lastmile_qr_scan", "ios": "https://dc.lft.to/lastmile_qr_scan"}, "fusion_lat": 0.0}, {"is_disabled": 0, "lat": 38.8784555, "bike_id": "b763af524d70452f512af6b0be79a1d9", "fusion_lon": 0.0, "is_reserved": 0, "type": "electric_scooter", "name": "b763af524d70452f512af6b0be79a1d9", "lon": -77.01975733333333, "rental_uris": {"android": "https://dc.lft.to/lastmile_qr_scan", "ios": "https://dc.lft.to/lastmile_qr_scan"}, "fusion_lat": 0.0}, {"is_disabled": 0, "lat": 38.95708483333333, "bike_id": "95d204581c3bd2f2c067038938e21751", "fusion_lon": 0.0, "is_reserved": 0, "type": "electric_scooter", "name": "95d204581c3bd2f2c067038938e21751", "lon": -77.02403333333334, "rental_uris": {"android": "https://dc.lft.to/lastmile_qr_scan", "ios": "https://dc.lft.to/lastmile_qr_scan"}, "fusion_lat": 0.0}, {"is_disabled": 0, "lat": 38.908563, "bike_id": "b3e3858773b5cba4eba5feeaa6a7a42c", "fusion_lon": 0.0, "is_reserved": 0, "type": "electric_scooter", "name": "b3e3858773b5cba4eba5feeaa6a7a42c", "lon": -76.9982765, "rental_uris": {"android": "https://dc.lft.to/lastmile_qr_scan", "ios": "https://dc.lft.to/lastmile_qr_scan"}, "fusion_lat": 0.0}, {"is_disabled": 0, "lat": 38.9176005, "bike_id": "649411ecca6e5a8a9a372c353e596b7e", "fusion_lon": 0.0, "is_reserved": 0, "type": "electric_scooter", "name": "649411ecca6e5a8a9a372c353e596b7e", "lon": -77.03072083333333, "rental_uris": {"android": "https://dc.lft.to/lastmile_qr_scan", "ios": "https://dc.lft.to/lastmile_qr_scan"}, "fusion_lat": 0.0}, {"is_disabled": 0, "lat": 38.923737333333335, "bike_id": "e6cc7c9f4905fce76c9a6f3b13525c35", "fusion_lon": 0.0, "is_reserved": 0, "type": "electric_scooter", "name": "e6cc7c9f4905fce76c9a6f3b13525c35", "lon": -77.05028933333334, "rental_uris": {"android": "https://dc.lft.to/lastmile_qr_scan", "ios": "https://dc.lft.to/lastmile_qr_scan"}, "fusion_lat": 0.0}, {"is_disabled": 0, "lat": 38.9074205, "bike_id": "d9945495670e55cff760049359668918", "fusion_lon": 0.0, "is_reserved": 0, "type": "electric_scooter", "name": "d9945495670e55cff760049359668918", "lon": -77.02402, "rental_uris": {"android": "https://dc.lft.to/lastmile_qr_scan", "ios": "https://dc.lft.to/lastmile_qr_scan"}, "fusion_lat": 0.0}, {"is_disabled": 0, "lat": 38.89729233333333, "bike_id": "8f1f4e0f10da7ab165be8eae4f0c0c6b", "fusion_lon": 0.0, "is_reserved": 0, "type": "electric_scooter", "name": "8f1f4e0f10da7ab165be8eae4f0c0c6b", "lon": -76.99389233333333, "rental_uris": {"android": "https://dc.lft.to/lastmile_qr_scan", "ios": "https://dc.lft.to/lastmile_qr_scan"}, "fusion_lat": 0.0}, {"is_disabled": 0, "lat": 38.906544833333335, "bike_id": "f11f0d0c3cd51d8db6ac2d37e0f00204", "fusion_lon": 0.0, "is_reserved": 0, "type": "electric_scooter", "name": "f11f0d0c3cd51d8db6ac2d37e0f00204", "lon": -77.00780733333333, "rental_uris": {"android": "https://dc.lft.to/lastmile_qr_scan", "ios": "https://dc.lft.to/lastmile_qr_scan"}, "fusion_lat": 0.0}, {"is_disabled": 0, "lat": 38.90536566666667, "bike_id": "0367cbb2ce21af422c0d7c2eaa7512a2", "fusion_lon": 0.0, "is_reserved": 0, "type": "electric_scooter", "name": "0367cbb2ce21af422c0d7c2eaa7512a2", "lon": -77.05130733333333, "rental_uris": {"android": "https://dc.lft.to/lastmile_qr_scan", "ios": "https://dc.lft.to/lastmile_qr_scan"}, "fusion_lat": 0.0}, {"is_disabled": 0, "lat": 38.880587166666665, "bike_id": "17b81e538d25f4a0830f64982041542d", "fusion_lon": 0.0, "is_reserved": 0, "type": "electric_scooter", "name": "17b81e538d25f4a0830f64982041542d", "lon": -76.92754166666667, "rental_uris": {"android": "https://dc.lft.to/lastmile_qr_scan", "ios": "https://dc.lft.to/lastmile_qr_scan"}, "fusion_lat": 0.0}, {"is_disabled": 0, "lat": 38.90603766666667, "bike_id": "a74180e6d01596df92b9103ed292b803", "fusion_lon": 0.0, "is_reserved": 0, "type": "electric_bike", "name": "a74180e6d01596df92b9103ed292b803", "lon": -77.06295666666666, "rental_uris": {"android": "https://dc.lft.to/lastmile_qr_scan", "ios": "https://dc.lft.to/lastmile_qr_scan"}, "fusion_lat": 0.0}, {"is_disabled": 0, "lat": 38.924905833333334, "bike_id": "8a5351e5444a10c8a77c4788bff614cc", "fusion_lon": 0.0, "is_reserved": 0, "type": "electric_scooter", "name": "8a5351e5444a10c8a77c4788bff614cc", "lon": -77.0348355, "rental_uris": {"android": "https://dc.lft.to/lastmile_qr_scan", "ios": "https://dc.lft.to/lastmile_qr_scan"}, "fusion_lat": 0.0}, {"is_disabled": 0, "lat": 38.89827, "bike_id": "874cf6eeb1205bcc5cf12b7d6dfd3753", "fusion_lon": 0.0, "is_reserved": 0, "type": "electric_scooter", "name": "874cf6eeb1205bcc5cf12b7d6dfd3753", "lon": -77.0075695, "rental_uris": {"android": "https://dc.lft.to/lastmile_qr_scan", "ios": "https://dc.lft.to/lastmile_qr_scan"}, "fusion_lat": 0.0}, {"is_disabled": 0, "lat": 38.919943333333336, "bike_id": "e23912ea91dda028bf9f40b71f80a949", "fusion_lon": 0.0, "is_reserved": 0, "type": "electric_scooter", "name": "e23912ea91dda028bf9f40b71f80a949", "lon": -77.0235225, "rental_uris": {"android": "https://dc.lft.to/lastmile_qr_scan", "ios": "https://dc.lft.to/lastmile_qr_scan"}, "fusion_lat": 0.0}, {"is_disabled": 0, "lat": 38.90564066666666, "bike_id": "d4476792faba4b0c2a8085c9d77401a2", "fusion_lon": 0.0, "is_reserved": 0, "type": "electric_scooter", "name": "d4476792faba4b0c2a8085c9d77401a2", "lon": -77.00774, "rental_uris": {"android": "https://dc.lft.to/lastmile_qr_scan", "ios": "https://dc.lft.to/lastmile_qr_scan"}, "fusion_lat": 0.0}, {"is_disabled": 0, "lat": 38.923116, "bike_id": "2aa394c1572a5c44a0892e6a1e4b33a6", "fusion_lon": 0.0, "is_reserved": 0, "type": "electric_scooter", "name": "2aa394c1572a5c44a0892e6a1e4b33a6", "lon": -77.0340915, "rental_uris": {"android": "https://dc.lft.to/lastmile_qr_scan", "ios": "https://dc.lft.to/lastmile_qr_scan"}, "fusion_lat": 0.0}, {"is_disabled": 0, "lat": 38.909006166666664, "bike_id": "2d852865b8e5726698be17a079d9e370", "fusion_lon": 0.0, "is_reserved": 0, "type": "electric_scooter", "name": "2d852865b8e5726698be17a079d9e370", "lon": -77.02286116666667, "rental_uris": {"android": "https://dc.lft.to/lastmile_qr_scan", "ios": "https://dc.lft.to/lastmile_qr_scan"}, "fusion_lat": 0.0}, {"is_disabled": 0, "lat": 38.8429005, "bike_id": "957324511968a7b7e31ad1c9ba99e618", "fusion_lon": 0.0, "is_reserved": 0, "type": "electric_scooter", "name": "957324511968a7b7e31ad1c9ba99e618", "lon": -76.990772, "rental_uris": {"android": "https://dc.lft.to/lastmile_qr_scan", "ios": "https://dc.lft.to/lastmile_qr_scan"}, "fusion_lat": 0.0}, {"is_disabled": 0, "lat": 38.90720433333333, "bike_id": "eac720b0f2e70e81289ccf702ee4b910", "fusion_lon": 0.0, "is_reserved": 0, "type": "electric_scooter", "name": "eac720b0f2e70e81289ccf702ee4b910", "lon": -77.04341116666667, "rental_uris": {"android": "https://dc.lft.to/lastmile_qr_scan", "ios": "https://dc.lft.to/lastmile_qr_scan"}, "fusion_lat": 0.0}, {"is_disabled": 0, "lat": 38.874178666666666, "bike_id": "dbff2e8468511dd14a2dd9760952f5bd", "fusion_lon": 0.0, "is_reserved": 0, "type": "electric_bike", "name": "dbff2e8468511dd14a2dd9760952f5bd", "lon": -77.10328683333333, "rental_uris": {"android": "https://dc.lft.to/lastmile_qr_scan", "ios": "https://dc.lft.to/lastmile_qr_scan"}, "fusion_lat": 0.0}, {"is_disabled": 0, "lat": 38.9329455, "bike_id": "36839485f88d64f6d546e59f07d8e234", "fusion_lon": 0.0, "is_reserved": 0, "type": "electric_scooter", "name": "36839485f88d64f6d546e59f07d8e234", "lon": -77.0279615, "rental_uris": {"android": "https://dc.lft.to/lastmile_qr_scan", "ios": "https://dc.lft.to/lastmile_qr_scan"}, "fusion_lat": 0.0}, {"is_disabled": 0, "lat": 38.8481895, "bike_id": "1f53efdf0b0192f7c90aa126faf7de2e", "fusion_lon": 0.0, "is_reserved": 0, "type": "electric_bike", "name": "1f53efdf0b0192f7c90aa126faf7de2e", "lon": -77.08457033333333, "rental_uris": {"android": "https://dc.lft.to/lastmile_qr_scan", "ios": "https://dc.lft.to/lastmile_qr_scan"}, "fusion_lat": 0.0}, {"is_disabled": 0, "lat": 38.9014475, "bike_id": "c23bb0b4fe7ded3c323dbc3fb99a07e1", "fusion_lon": 0.0, "is_reserved": 0, "type": "electric_scooter", "name": "c23bb0b4fe7ded3c323dbc3fb99a07e1", "lon": -77.04159683333333, "rental_uris": {"android": "https://dc.lft.to/lastmile_qr_scan", "ios": "https://dc.lft.to/lastmile_qr_scan"}, "fusion_lat": 0.0}, {"is_disabled": 0, "lat": 38.8935165, "bike_id": "8ba302b548a9f887f271362be06e1fdb", "fusion_lon": 0.0, "is_reserved": 0, "type": "electric_bike", "name": "8ba302b548a9f887f271362be06e1fdb", "lon": -77.18739166666667, "rental_uris": {"android": "https://dc.lft.to/lastmile_qr_scan", "ios": "https://dc.lft.to/lastmile_qr_scan"}, "fusion_lat": 0.0}, {"is_disabled": 0, "lat": 38.879251833333335, "bike_id": "1f0bad8b51005617cc3c79f83bb38c8e", "fusion_lon": 0.0, "is_reserved": 0, "type": "electric_scooter", "name": "1f0bad8b51005617cc3c79f83bb38c8e", "lon": -77.013326, "rental_uris": {"android": "https://dc.lft.to/lastmile_qr_scan", "ios": "https://dc.lft.to/lastmile_qr_scan"}, "fusion_lat": 0.0}, {"is_disabled": 0, "lat": 38.8922235, "bike_id": "dce4ef54e90775aa004cf18e40b9a205", "fusion_lon": 0.0, "is_reserved": 0, "type": "electric_scooter", "name": "dce4ef54e90775aa004cf18e40b9a205", "lon": -77.043732, "rental_uris": {"android": "https://dc.lft.to/lastmile_qr_scan", "ios": "https://dc.lft.to/lastmile_qr_scan"}, "fusion_lat": 0.0}, {"is_disabled": 0, "lat": 38.89733066666667, "bike_id": "b65975170b2c7e4f92b1d7b3461331d9", "fusion_lon": 0.0, "is_reserved": 0, "type": "electric_scooter", "name": "b65975170b2c7e4f92b1d7b3461331d9", "lon": -77.0547415, "rental_uris": {"android": "https://dc.lft.to/lastmile_qr_scan", "ios": "https://dc.lft.to/lastmile_qr_scan"}, "fusion_lat": 0.0}, {"is_disabled": 0, "lat": 38.92255633333333, "bike_id": "f98b3acfca534f3370ed158bc232166f", "fusion_lon": 0.0, "is_reserved": 0, "type": "electric_scooter", "name": "f98b3acfca534f3370ed158bc232166f", "lon": -77.03406283333334, "rental_uris": {"android": "https://dc.lft.to/lastmile_qr_scan", "ios": "https://dc.lft.to/lastmile_qr_scan"}, "fusion_lat": 0.0}, {"is_disabled": 0, "lat": 38.9110995, "bike_id": "22077ab701036b8bfcf1b3f850aa3242", "fusion_lon": 0.0, "is_reserved": 0, "type": "electric_scooter", "name": "22077ab701036b8bfcf1b3f850aa3242", "lon": -77.03080233333333, "rental_uris": {"android": "https://dc.lft.to/lastmile_qr_scan", "ios": "https://dc.lft.to/lastmile_qr_scan"}, "fusion_lat": 0.0}, {"is_disabled": 0, "lat": 38.91701833333333, "bike_id": "bd4262b5eb43ed212549c991d8cce5a5", "fusion_lon": 0.0, "is_reserved": 0, "type": "electric_scooter", "name": "bd4262b5eb43ed212549c991d8cce5a5", "lon": -77.007186, "rental_uris": {"android": "https://dc.lft.to/lastmile_qr_scan", "ios": "https://dc.lft.to/lastmile_qr_scan"}, "fusion_lat": 0.0}, {"is_disabled": 0, "lat": 38.910172833333334, "bike_id": "9b250a3ea48be1dc07913e0627f63d98", "fusion_lon": 0.0, "is_reserved": 0, "type": "electric_scooter", "name": "9b250a3ea48be1dc07913e0627f63d98", "lon": -77.03428683333334, "rental_uris": {"android": "https://dc.lft.to/lastmile_qr_scan", "ios": "https://dc.lft.to/lastmile_qr_scan"}, "fusion_lat": 0.0}, {"is_disabled": 0, "lat": 38.92809333333334, "bike_id": "765de9249a452c8e1605eea20a572628", "fusion_lon": 0.0, "is_reserved": 0, "type": "electric_bike", "name": "765de9249a452c8e1605eea20a572628", "lon": -77.0327125, "rental_uris": {"android": "https://dc.lft.to/lastmile_qr_scan", "ios": "https://dc.lft.to/lastmile_qr_scan"}, "fusion_lat": 0.0}, {"is_disabled": 0, "lat": 38.9171165, "bike_id": "77a5b4fb7f109fed0ddbd6596a799b73", "fusion_lon": 0.0, "is_reserved": 0, "type": "electric_scooter", "name": "77a5b4fb7f109fed0ddbd6596a799b73", "lon": -77.0350085, "rental_uris": {"android": "https://dc.lft.to/lastmile_qr_scan", "ios": "https://dc.lft.to/lastmile_qr_scan"}, "fusion_lat": 0.0}, {"is_disabled": 0, "lat": 38.93694216666667, "bike_id": "5b1ae12cf9763e40fe3810e369ed557e", "fusion_lon": 0.0, "is_reserved": 0, "type": "electric_scooter", "name": "5b1ae12cf9763e40fe3810e369ed557e", "lon": -77.02715233333333, "rental_uris": {"android": "https://dc.lft.to/lastmile_qr_scan", "ios": "https://dc.lft.to/lastmile_qr_scan"}, "fusion_lat": 0.0}, {"is_disabled": 0, "lat": 38.91713433333334, "bike_id": "f455d770a41bce509cf18830c71e76bd", "fusion_lon": 0.0, "is_reserved": 0, "type": "electric_scooter", "name": "f455d770a41bce509cf18830c71e76bd", "lon": -77.03557483333333, "rental_uris": {"android": "https://dc.lft.to/lastmile_qr_scan", "ios": "https://dc.lft.to/lastmile_qr_scan"}, "fusion_lat": 0.0}, {"is_disabled": 0, "lat": 38.914198999999996, "bike_id": "f96d8c38df92608e491b0c7f4180266b", "fusion_lon": 0.0, "is_reserved": 0, "type": "electric_scooter", "name": "f96d8c38df92608e491b0c7f4180266b", "lon": -77.02391933333334, "rental_uris": {"android": "https://dc.lft.to/lastmile_qr_scan", "ios": "https://dc.lft.to/lastmile_qr_scan"}, "fusion_lat": 0.0}, {"is_disabled": 0, "lat": 38.9068595, "bike_id": "51e34b83d68c4f40711bf9c72da8fe77", "fusion_lon": 0.0, "is_reserved": 0, "type": "electric_scooter", "name": "51e34b83d68c4f40711bf9c72da8fe77", "lon": -77.04333616666666, "rental_uris": {"android": "https://dc.lft.to/lastmile_qr_scan", "ios": "https://dc.lft.to/lastmile_qr_scan"}, "fusion_lat": 0.0}, {"is_disabled": 0, "lat": 38.9028575, "bike_id": "e7343ee10d261b33c29bddab51ed0716", "fusion_lon": 0.0, "is_reserved": 0, "type": "electric_scooter", "name": "e7343ee10d261b33c29bddab51ed0716", "lon": -77.036503, "rental_uris": {"android": "https://dc.lft.to/lastmile_qr_scan", "ios": "https://dc.lft.to/lastmile_qr_scan"}, "fusion_lat": 0.0}, {"is_disabled": 0, "lat": 38.911584, "bike_id": "10df79ac22f67c221e07ee6b7b7f8d29", "fusion_lon": 0.0, "is_reserved": 0, "type": "electric_scooter", "name": "10df79ac22f67c221e07ee6b7b7f8d29", "lon": -77.07274983333333, "rental_uris": {"android": "https://dc.lft.to/lastmile_qr_scan", "ios": "https://dc.lft.to/lastmile_qr_scan"}, "fusion_lat": 0.0}, {"is_disabled": 0, "lat": 38.92605016666667, "bike_id": "c3d37baa273b952700cf4508c824b21a", "fusion_lon": 0.0, "is_reserved": 0, "type": "electric_scooter", "name": "c3d37baa273b952700cf4508c824b21a", "lon": -77.02152716666667, "rental_uris": {"android": "https://dc.lft.to/lastmile_qr_scan", "ios": "https://dc.lft.to/lastmile_qr_scan"}, "fusion_lat": 0.0}, {"is_disabled": 0, "lat": 38.9301845, "bike_id": "aef57878201dc3aa9b89bdaf77daaa04", "fusion_lon": 0.0, "is_reserved": 0, "type": "electric_bike", "name": "aef57878201dc3aa9b89bdaf77daaa04", "lon": -77.020881, "rental_uris": {"android": "https://dc.lft.to/lastmile_qr_scan", "ios": "https://dc.lft.to/lastmile_qr_scan"}, "fusion_lat": 0.0}, {"is_disabled": 0, "lat": 38.918088833333336, "bike_id": "b06191ec94eaf05ca12288c5f0252f67", "fusion_lon": 0.0, "is_reserved": 0, "type": "electric_bike", "name": "b06191ec94eaf05ca12288c5f0252f67", "lon": -76.970941, "rental_uris": {"android": "https://dc.lft.to/lastmile_qr_scan", "ios": "https://dc.lft.to/lastmile_qr_scan"}, "fusion_lat": 0.0}, {"is_disabled": 0, "lat": 38.93725933333333, "bike_id": "7cc42823ce38c367ff2df815ff089650", "fusion_lon": 0.0, "is_reserved": 0, "type": "electric_scooter", "name": "7cc42823ce38c367ff2df815ff089650", "lon": -77.03264316666667, "rental_uris": {"android": "https://dc.lft.to/lastmile_qr_scan", "ios": "https://dc.lft.to/lastmile_qr_scan"}, "fusion_lat": 0.0}, {"is_disabled": 0, "lat": 38.903124166666665, "bike_id": "99a4faeb58a1c533d881860b3d6a5bc6", "fusion_lon": 0.0, "is_reserved": 0, "type": "electric_scooter", "name": "99a4faeb58a1c533d881860b3d6a5bc6", "lon": -77.0213475, "rental_uris": {"android": "https://dc.lft.to/lastmile_qr_scan", "ios": "https://dc.lft.to/lastmile_qr_scan"}, "fusion_lat": 0.0}, {"is_disabled": 0, "lat": 38.93228333333333, "bike_id": "46678fde4706b86ef98a1f0f5754a3ee", "fusion_lon": 0.0, "is_reserved": 0, "type": "electric_scooter", "name": "46678fde4706b86ef98a1f0f5754a3ee", "lon": -77.03373966666666, "rental_uris": {"android": "https://dc.lft.to/lastmile_qr_scan", "ios": "https://dc.lft.to/lastmile_qr_scan"}, "fusion_lat": 0.0}, {"is_disabled": 0, "lat": 38.926147, "bike_id": "b3e1065b59e76e9817580326ffe0ab15", "fusion_lon": 0.0, "is_reserved": 0, "type": "electric_scooter", "name": "b3e1065b59e76e9817580326ffe0ab15", "lon": -77.0216105, "rental_uris": {"android": "https://dc.lft.to/lastmile_qr_scan", "ios": "https://dc.lft.to/lastmile_qr_scan"}, "fusion_lat": 0.0}, {"is_disabled": 0, "lat": 38.90817783333333, "bike_id": "0756bb6a0c8c48dc328b0dda258fc704", "fusion_lon": 0.0, "is_reserved": 0, "type": "electric_scooter", "name": "0756bb6a0c8c48dc328b0dda258fc704", "lon": -77.034206, "rental_uris": {"android": "https://dc.lft.to/lastmile_qr_scan", "ios": "https://dc.lft.to/lastmile_qr_scan"}, "fusion_lat": 0.0}, {"is_disabled": 0, "lat": 38.8410555, "bike_id": "bcee09506f056f93cd2b207c21cc9e64", "fusion_lon": 0.0, "is_reserved": 0, "type": "electric_bike", "name": "bcee09506f056f93cd2b207c21cc9e64", "lon": -77.08938666666667, "rental_uris": {"android": "https://dc.lft.to/lastmile_qr_scan", "ios": "https://dc.lft.to/lastmile_qr_scan"}, "fusion_lat": 0.0}, {"is_disabled": 0, "lat": 38.90878766666667, "bike_id": "eb2d09b95d08022e3945af8189760b2c", "fusion_lon": 0.0, "is_reserved": 0, "type": "electric_scooter", "name": "eb2d09b95d08022e3945af8189760b2c", "lon": -77.0429435, "rental_uris": {"android": "https://dc.lft.to/lastmile_qr_scan", "ios": "https://dc.lft.to/lastmile_qr_scan"}, "fusion_lat": 0.0}, {"is_disabled": 0, "lat": 38.89437266666667, "bike_id": "d76ca62fa37075261bfa0996f9041d88", "fusion_lon": 0.0, "is_reserved": 0, "type": "electric_scooter", "name": "d76ca62fa37075261bfa0996f9041d88", "lon": -76.98372633333334, "rental_uris": {"android": "https://dc.lft.to/lastmile_qr_scan", "ios": "https://dc.lft.to/lastmile_qr_scan"}, "fusion_lat": 0.0}, {"is_disabled": 0, "lat": 38.89911583333333, "bike_id": "8ad90c3e866927074e8b1dfcb5fee733", "fusion_lon": 0.0, "is_reserved": 0, "type": "electric_scooter", "name": "8ad90c3e866927074e8b1dfcb5fee733", "lon": -76.93368466666666, "rental_uris": {"android": "https://dc.lft.to/lastmile_qr_scan", "ios": "https://dc.lft.to/lastmile_qr_scan"}, "fusion_lat": 0.0}, {"is_disabled": 0, "lat": 38.909473166666665, "bike_id": "d7d39b083efa9877233999be62d8512f", "fusion_lon": 0.0, "is_reserved": 0, "type": "electric_scooter", "name": "d7d39b083efa9877233999be62d8512f", "lon": -77.03204083333334, "rental_uris": {"android": "https://dc.lft.to/lastmile_qr_scan", "ios": "https://dc.lft.to/lastmile_qr_scan"}, "fusion_lat": 0.0}, {"is_disabled": 0, "lat": 38.915004333333336, "bike_id": "aa469fceee1fc53b100e2dd23547cc2e", "fusion_lon": 0.0, "is_reserved": 0, "type": "electric_scooter", "name": "aa469fceee1fc53b100e2dd23547cc2e", "lon": -76.983659, "rental_uris": {"android": "https://dc.lft.to/lastmile_qr_scan", "ios": "https://dc.lft.to/lastmile_qr_scan"}, "fusion_lat": 0.0}, {"is_disabled": 0, "lat": 38.909374666666665, "bike_id": "f6e10465fa94bfa3b0a227744d6e5a28", "fusion_lon": 0.0, "is_reserved": 0, "type": "electric_scooter", "name": "f6e10465fa94bfa3b0a227744d6e5a28", "lon": -77.02693483333333, "rental_uris": {"android": "https://dc.lft.to/lastmile_qr_scan", "ios": "https://dc.lft.to/lastmile_qr_scan"}, "fusion_lat": 0.0}, {"is_disabled": 0, "lat": 38.90273766666667, "bike_id": "f34d8f6469edc175cfa81bde00dfecb5", "fusion_lon": 0.0, "is_reserved": 0, "type": "electric_scooter", "name": "f34d8f6469edc175cfa81bde00dfecb5", "lon": -77.03857833333333, "rental_uris": {"android": "https://dc.lft.to/lastmile_qr_scan", "ios": "https://dc.lft.to/lastmile_qr_scan"}, "fusion_lat": 0.0}, {"is_disabled": 0, "lat": 38.91706633333333, "bike_id": "0498b89838ae6c2fc7cdec8ceaa68694", "fusion_lon": 0.0, "is_reserved": 0, "type": "electric_scooter", "name": "0498b89838ae6c2fc7cdec8ceaa68694", "lon": -77.02903333333333, "rental_uris": {"android": "https://dc.lft.to/lastmile_qr_scan", "ios": "https://dc.lft.to/lastmile_qr_scan"}, "fusion_lat": 0.0}, {"is_disabled": 0, "lat": 38.884116, "bike_id": "9d263f345a18c1ca20040b4812900153", "fusion_lon": 0.0, "is_reserved": 0, "type": "electric_scooter", "name": "9d263f345a18c1ca20040b4812900153", "lon": -77.03043066666666, "rental_uris": {"android": "https://dc.lft.to/lastmile_qr_scan", "ios": "https://dc.lft.to/lastmile_qr_scan"}, "fusion_lat": 0.0}, {"is_disabled": 0, "lat": 38.92161183333333, "bike_id": "f3a237eccfa4cdbf627119be2444f106", "fusion_lon": 0.0, "is_reserved": 0, "type": "electric_scooter", "name": "f3a237eccfa4cdbf627119be2444f106", "lon": -77.0469175, "rental_uris": {"android": "https://dc.lft.to/lastmile_qr_scan", "ios": "https://dc.lft.to/lastmile_qr_scan"}, "fusion_lat": 0.0}, {"is_disabled": 0, "lat": 38.9205095, "bike_id": "001585cc2a62f08478f9be3843240259", "fusion_lon": 0.0, "is_reserved": 0, "type": "electric_scooter", "name": "001585cc2a62f08478f9be3843240259", "lon": -77.024287, "rental_uris": {"android": "https://dc.lft.to/lastmile_qr_scan", "ios": "https://dc.lft.to/lastmile_qr_scan"}, "fusion_lat": 0.0}, {"is_disabled": 0, "lat": 38.91707433333333, "bike_id": "6531f95357138ccdbaff496b651d651d", "fusion_lon": 0.0, "is_reserved": 0, "type": "electric_scooter", "name": "6531f95357138ccdbaff496b651d651d", "lon": -77.0355945, "rental_uris": {"android": "https://dc.lft.to/lastmile_qr_scan", "ios": "https://dc.lft.to/lastmile_qr_scan"}, "fusion_lat": 0.0}, {"is_disabled": 0, "lat": 38.862607833333335, "bike_id": "4dcb957ca9c3839da7d510b7bf6daf03", "fusion_lon": 0.0, "is_reserved": 0, "type": "electric_scooter", "name": "4dcb957ca9c3839da7d510b7bf6daf03", "lon": -76.99551833333334, "rental_uris": {"android": "https://dc.lft.to/lastmile_qr_scan", "ios": "https://dc.lft.to/lastmile_qr_scan"}, "fusion_lat": 0.0}, {"is_disabled": 0, "lat": 38.89728566666667, "bike_id": "b1507054e8af3cf570d972c101f7d206", "fusion_lon": 0.0, "is_reserved": 0, "type": "electric_scooter", "name": "b1507054e8af3cf570d972c101f7d206", "lon": -77.003735, "rental_uris": {"android": "https://dc.lft.to/lastmile_qr_scan", "ios": "https://dc.lft.to/lastmile_qr_scan"}, "fusion_lat": 0.0}, {"is_disabled": 0, "lat": 38.8624905, "bike_id": "5d16cb2cdfdea0f616df3cc9ea0a5a54", "fusion_lon": 0.0, "is_reserved": 0, "type": "electric_bike", "name": "5d16cb2cdfdea0f616df3cc9ea0a5a54", "lon": -77.0865545, "rental_uris": {"android": "https://dc.lft.to/lastmile_qr_scan", "ios": "https://dc.lft.to/lastmile_qr_scan"}, "fusion_lat": 0.0}, {"is_disabled": 0, "lat": 38.966162, "bike_id": "bb88856fb5c5ab5e2b1abaa07c53bb83", "fusion_lon": 0.0, "is_reserved": 0, "type": "electric_bike", "name": "bb88856fb5c5ab5e2b1abaa07c53bb83", "lon": -76.99452333333333, "rental_uris": {"android": "https://dc.lft.to/lastmile_qr_scan", "ios": "https://dc.lft.to/lastmile_qr_scan"}, "fusion_lat": 0.0}, {"is_disabled": 0, "lat": 38.910681833333335, "bike_id": "a6491f32ed321df41030c35355a6846a", "fusion_lon": 0.0, "is_reserved": 0, "type": "electric_scooter", "name": "a6491f32ed321df41030c35355a6846a", "lon": -77.04485766666667, "rental_uris": {"android": "https://dc.lft.to/lastmile_qr_scan", "ios": "https://dc.lft.to/lastmile_qr_scan"}, "fusion_lat": 0.0}, {"is_disabled": 0, "lat": 38.871385333333336, "bike_id": "994f6b549b2d21a0cc67b33b0b5f5bff", "fusion_lon": 0.0, "is_reserved": 0, "type": "electric_scooter", "name": "994f6b549b2d21a0cc67b33b0b5f5bff", "lon": -77.01314366666666, "rental_uris": {"android": "https://dc.lft.to/lastmile_qr_scan", "ios": "https://dc.lft.to/lastmile_qr_scan"}, "fusion_lat": 0.0}, {"is_disabled": 0, "lat": 38.91985866666667, "bike_id": "d8c004dbc155c28364a1786d742028af", "fusion_lon": 0.0, "is_reserved": 0, "type": "electric_scooter", "name": "d8c004dbc155c28364a1786d742028af", "lon": -77.02374133333333, "rental_uris": {"android": "https://dc.lft.to/lastmile_qr_scan", "ios": "https://dc.lft.to/lastmile_qr_scan"}, "fusion_lat": 0.0}, {"is_disabled": 0, "lat": 38.923312, "bike_id": "ff703ed232ce5a7509126aa55f0aebed", "fusion_lon": 0.0, "is_reserved": 0, "type": "electric_scooter", "name": "ff703ed232ce5a7509126aa55f0aebed", "lon": -77.04301933333333, "rental_uris": {"android": "https://dc.lft.to/lastmile_qr_scan", "ios": "https://dc.lft.to/lastmile_qr_scan"}, "fusion_lat": 0.0}, {"is_disabled": 0, "lat": 38.923800666666665, "bike_id": "433868789d43f8b8055312291630a6a8", "fusion_lon": 0.0, "is_reserved": 0, "type": "electric_scooter", "name": "433868789d43f8b8055312291630a6a8", "lon": -77.03079383333333, "rental_uris": {"android": "https://dc.lft.to/lastmile_qr_scan", "ios": "https://dc.lft.to/lastmile_qr_scan"}, "fusion_lat": 0.0}, {"is_disabled": 0, "lat": 38.9002715, "bike_id": "57e977fc3ee341e9920086d154a78ca5", "fusion_lon": 0.0, "is_reserved": 0, "type": "electric_scooter", "name": "57e977fc3ee341e9920086d154a78ca5", "lon": -76.9911735, "rental_uris": {"android": "https://dc.lft.to/lastmile_qr_scan", "ios": "https://dc.lft.to/lastmile_qr_scan"}, "fusion_lat": 0.0}, {"is_disabled": 0, "lat": 38.906436, "bike_id": "6d3712e2ff0f62be6f0de425be35bb8d", "fusion_lon": 0.0, "is_reserved": 0, "type": "electric_scooter", "name": "6d3712e2ff0f62be6f0de425be35bb8d", "lon": -77.00860116666666, "rental_uris": {"android": "https://dc.lft.to/lastmile_qr_scan", "ios": "https://dc.lft.to/lastmile_qr_scan"}, "fusion_lat": 0.0}, {"is_disabled": 0, "lat": 38.876359, "bike_id": "d0ff70c4ff062c1d013d4b33a397d7f0", "fusion_lon": 0.0, "is_reserved": 0, "type": "electric_scooter", "name": "d0ff70c4ff062c1d013d4b33a397d7f0", "lon": -77.019646, "rental_uris": {"android": "https://dc.lft.to/lastmile_qr_scan", "ios": "https://dc.lft.to/lastmile_qr_scan"}, "fusion_lat": 0.0}, {"is_disabled": 0, "lat": 38.89648283333333, "bike_id": "d7d251d815e9e4f0e0165caef3a6c62e", "fusion_lon": 0.0, "is_reserved": 0, "type": "electric_scooter", "name": "d7d251d815e9e4f0e0165caef3a6c62e", "lon": -77.00058383333334, "rental_uris": {"android": "https://dc.lft.to/lastmile_qr_scan", "ios": "https://dc.lft.to/lastmile_qr_scan"}, "fusion_lat": 0.0}, {"is_disabled": 0, "lat": 38.883344666666666, "bike_id": "9fb4549f2a37a93e78bedeaf860fb5b2", "fusion_lon": 0.0, "is_reserved": 0, "type": "electric_scooter", "name": "9fb4549f2a37a93e78bedeaf860fb5b2", "lon": -77.01740533333333, "rental_uris": {"android": "https://dc.lft.to/lastmile_qr_scan", "ios": "https://dc.lft.to/lastmile_qr_scan"}, "fusion_lat": 0.0}, {"is_disabled": 0, "lat": 38.89995, "bike_id": "1c56b7da22dd1f8e4a0af0486dfc2a16", "fusion_lon": 0.0, "is_reserved": 0, "type": "electric_scooter", "name": "1c56b7da22dd1f8e4a0af0486dfc2a16", "lon": -77.02461883333334, "rental_uris": {"android": "https://dc.lft.to/lastmile_qr_scan", "ios": "https://dc.lft.to/lastmile_qr_scan"}, "fusion_lat": 0.0}, {"is_disabled": 0, "lat": 38.9077315, "bike_id": "e3e8cf4bd0773f53bd290a123c7fb117", "fusion_lon": 0.0, "is_reserved": 0, "type": "electric_scooter", "name": "e3e8cf4bd0773f53bd290a123c7fb117", "lon": -77.07167316666667, "rental_uris": {"android": "https://dc.lft.to/lastmile_qr_scan", "ios": "https://dc.lft.to/lastmile_qr_scan"}, "fusion_lat": 0.0}, {"is_disabled": 0, "lat": 38.8974605, "bike_id": "f8fbb85b4c3768e438475779de257f9e", "fusion_lon": 0.0, "is_reserved": 0, "type": "electric_scooter", "name": "f8fbb85b4c3768e438475779de257f9e", "lon": -77.00758783333333, "rental_uris": {"android": "https://dc.lft.to/lastmile_qr_scan", "ios": "https://dc.lft.to/lastmile_qr_scan"}, "fusion_lat": 0.0}, {"is_disabled": 0, "lat": 38.876614000000004, "bike_id": "4019523eedd209c46914d492e3835482", "fusion_lon": 0.0, "is_reserved": 0, "type": "electric_scooter", "name": "4019523eedd209c46914d492e3835482", "lon": -77.00412533333333, "rental_uris": {"android": "https://dc.lft.to/lastmile_qr_scan", "ios": "https://dc.lft.to/lastmile_qr_scan"}, "fusion_lat": 0.0}, {"is_disabled": 0, "lat": 38.89889383333333, "bike_id": "191c27ec7e00df7151584e7ca10c2b7d", "fusion_lon": 0.0, "is_reserved": 0, "type": "electric_scooter", "name": "191c27ec7e00df7151584e7ca10c2b7d", "lon": -77.05399516666667, "rental_uris": {"android": "https://dc.lft.to/lastmile_qr_scan", "ios": "https://dc.lft.to/lastmile_qr_scan"}, "fusion_lat": 0.0}, {"is_disabled": 0, "lat": 38.9068835, "bike_id": "d3a292b35fae57891b6ea2e7a0eecfc5", "fusion_lon": 0.0, "is_reserved": 0, "type": "electric_scooter", "name": "d3a292b35fae57891b6ea2e7a0eecfc5", "lon": -77.062911, "rental_uris": {"android": "https://dc.lft.to/lastmile_qr_scan", "ios": "https://dc.lft.to/lastmile_qr_scan"}, "fusion_lat": 0.0}, {"is_disabled": 0, "lat": 38.913117166666666, "bike_id": "0afa6fca99f438bb96a307ddc165a915", "fusion_lon": 0.0, "is_reserved": 0, "type": "electric_scooter", "name": "0afa6fca99f438bb96a307ddc165a915", "lon": -77.06796916666667, "rental_uris": {"android": "https://dc.lft.to/lastmile_qr_scan", "ios": "https://dc.lft.to/lastmile_qr_scan"}, "fusion_lat": 0.0}, {"is_disabled": 0, "lat": 38.90004616666667, "bike_id": "a9ff8330b18d8dc8141646e24caea5f5", "fusion_lon": 0.0, "is_reserved": 0, "type": "electric_scooter", "name": "a9ff8330b18d8dc8141646e24caea5f5", "lon": -77.03317966666667, "rental_uris": {"android": "https://dc.lft.to/lastmile_qr_scan", "ios": "https://dc.lft.to/lastmile_qr_scan"}, "fusion_lat": 0.0}, {"is_disabled": 0, "lat": 38.92987266666667, "bike_id": "38c5492d271a7f205574abdaf05ac52a", "fusion_lon": 0.0, "is_reserved": 0, "type": "electric_scooter", "name": "38c5492d271a7f205574abdaf05ac52a", "lon": -77.02611233333333, "rental_uris": {"android": "https://dc.lft.to/lastmile_qr_scan", "ios": "https://dc.lft.to/lastmile_qr_scan"}, "fusion_lat": 0.0}, {"is_disabled": 0, "lat": 38.89732466666667, "bike_id": "c3ae7cc8783fa37bee2ae4a84c7aa314", "fusion_lon": 0.0, "is_reserved": 0, "type": "electric_scooter", "name": "c3ae7cc8783fa37bee2ae4a84c7aa314", "lon": -77.0498875, "rental_uris": {"android": "https://dc.lft.to/lastmile_qr_scan", "ios": "https://dc.lft.to/lastmile_qr_scan"}, "fusion_lat": 0.0}, {"is_disabled": 0, "lat": 38.8982205, "bike_id": "092cd51a84bb566dbbb1c933f8456fc2", "fusion_lon": 0.0, "is_reserved": 0, "type": "electric_scooter", "name": "092cd51a84bb566dbbb1c933f8456fc2", "lon": -76.986621, "rental_uris": {"android": "https://dc.lft.to/lastmile_qr_scan", "ios": "https://dc.lft.to/lastmile_qr_scan"}, "fusion_lat": 0.0}, {"is_disabled": 0, "lat": 38.88405083333333, "bike_id": "cec7926e65eb2c08542d83d35cb92fa6", "fusion_lon": 0.0, "is_reserved": 0, "type": "electric_bike", "name": "cec7926e65eb2c08542d83d35cb92fa6", "lon": -76.96060816666666, "rental_uris": {"android": "https://dc.lft.to/lastmile_qr_scan", "ios": "https://dc.lft.to/lastmile_qr_scan"}, "fusion_lat": 0.0}, {"is_disabled": 0, "lat": 38.91262533333333, "bike_id": "77f80742b7d8cc8c7d219737c0038f82", "fusion_lon": 0.0, "is_reserved": 0, "type": "electric_scooter", "name": "77f80742b7d8cc8c7d219737c0038f82", "lon": -77.03435283333333, "rental_uris": {"android": "https://dc.lft.to/lastmile_qr_scan", "ios": "https://dc.lft.to/lastmile_qr_scan"}, "fusion_lat": 0.0}, {"is_disabled": 0, "lat": 38.936430666666666, "bike_id": "b578569de84f0a477876724f994b66ca", "fusion_lon": 0.0, "is_reserved": 0, "type": "electric_scooter", "name": "b578569de84f0a477876724f994b66ca", "lon": -77.0333655, "rental_uris": {"android": "https://dc.lft.to/lastmile_qr_scan", "ios": "https://dc.lft.to/lastmile_qr_scan"}, "fusion_lat": 0.0}, {"is_disabled": 0, "lat": 38.871442333333334, "bike_id": "76064c31be2b8cc4a129ae54453939bf", "fusion_lon": 0.0, "is_reserved": 0, "type": "electric_scooter", "name": "76064c31be2b8cc4a129ae54453939bf", "lon": -76.99333033333333, "rental_uris": {"android": "https://dc.lft.to/lastmile_qr_scan", "ios": "https://dc.lft.to/lastmile_qr_scan"}, "fusion_lat": 0.0}, {"is_disabled": 0, "lat": 38.8621295, "bike_id": "a7a12534262c9dbd4becb699eb8c269e", "fusion_lon": 0.0, "is_reserved": 0, "type": "electric_scooter", "name": "a7a12534262c9dbd4becb699eb8c269e", "lon": -76.99473083333334, "rental_uris": {"android": "https://dc.lft.to/lastmile_qr_scan", "ios": "https://dc.lft.to/lastmile_qr_scan"}, "fusion_lat": 0.0}, {"is_disabled": 0, "lat": 38.90918383333333, "bike_id": "4be623735817a6a83e8d60c2f23b26ce", "fusion_lon": 0.0, "is_reserved": 0, "type": "electric_scooter", "name": "4be623735817a6a83e8d60c2f23b26ce", "lon": -77.04400366666667, "rental_uris": {"android": "https://dc.lft.to/lastmile_qr_scan", "ios": "https://dc.lft.to/lastmile_qr_scan"}, "fusion_lat": 0.0}, {"is_disabled": 0, "lat": 38.86711833333333, "bike_id": "e99f77e876df6ad09251c9885be072f8", "fusion_lon": 0.0, "is_reserved": 0, "type": "electric_scooter", "name": "e99f77e876df6ad09251c9885be072f8", "lon": -76.98726483333333, "rental_uris": {"android": "https://dc.lft.to/lastmile_qr_scan", "ios": "https://dc.lft.to/lastmile_qr_scan"}, "fusion_lat": 0.0}, {"is_disabled": 0, "lat": 38.89222633333333, "bike_id": "c2b091416b6d0205742e5393133a55f3", "fusion_lon": 0.0, "is_reserved": 0, "type": "electric_scooter", "name": "c2b091416b6d0205742e5393133a55f3", "lon": -77.026522, "rental_uris": {"android": "https://dc.lft.to/lastmile_qr_scan", "ios": "https://dc.lft.to/lastmile_qr_scan"}, "fusion_lat": 0.0}, {"is_disabled": 0, "lat": 38.89513933333333, "bike_id": "a42086f04a9eb6d76a07d618f732829a", "fusion_lon": 0.0, "is_reserved": 0, "type": "electric_scooter", "name": "a42086f04a9eb6d76a07d618f732829a", "lon": -76.94887033333333, "rental_uris": {"android": "https://dc.lft.to/lastmile_qr_scan", "ios": "https://dc.lft.to/lastmile_qr_scan"}, "fusion_lat": 0.0}, {"is_disabled": 0, "lat": 38.870374, "bike_id": "55275bb48fdec6ce8a3a0d8103f23309", "fusion_lon": 0.0, "is_reserved": 0, "type": "electric_bike", "name": "55275bb48fdec6ce8a3a0d8103f23309", "lon": -76.97896466666667, "rental_uris": {"android": "https://dc.lft.to/lastmile_qr_scan", "ios": "https://dc.lft.to/lastmile_qr_scan"}, "fusion_lat": 0.0}, {"is_disabled": 0, "lat": 38.97366933333333, "bike_id": "26edfc0ebad32b9b59bbf61f623c4bab", "fusion_lon": 0.0, "is_reserved": 0, "type": "electric_scooter", "name": "26edfc0ebad32b9b59bbf61f623c4bab", "lon": -77.0185835, "rental_uris": {"android": "https://dc.lft.to/lastmile_qr_scan", "ios": "https://dc.lft.to/lastmile_qr_scan"}, "fusion_lat": 0.0}, {"is_disabled": 0, "lat": 38.87764983333334, "bike_id": "af7f291d5103a70b2f4246aa6d92d955", "fusion_lon": 0.0, "is_reserved": 0, "type": "electric_bike", "name": "af7f291d5103a70b2f4246aa6d92d955", "lon": -77.01048666666667, "rental_uris": {"android": "https://dc.lft.to/lastmile_qr_scan", "ios": "https://dc.lft.to/lastmile_qr_scan"}, "fusion_lat": 0.0}, {"is_disabled": 0, "lat": 38.917609166666665, "bike_id": "f917b6beca4b9a57b60472a9cdd49824", "fusion_lon": 0.0, "is_reserved": 0, "type": "electric_scooter", "name": "f917b6beca4b9a57b60472a9cdd49824", "lon": -77.0240775, "rental_uris": {"android": "https://dc.lft.to/lastmile_qr_scan", "ios": "https://dc.lft.to/lastmile_qr_scan"}, "fusion_lat": 0.0}, {"is_disabled": 0, "lat": 38.95491066666666, "bike_id": "b1b706b0c8beee0e42e91c122f62be16", "fusion_lon": 0.0, "is_reserved": 0, "type": "electric_bike", "name": "b1b706b0c8beee0e42e91c122f62be16", "lon": -76.98861116666667, "rental_uris": {"android": "https://dc.lft.to/lastmile_qr_scan", "ios": "https://dc.lft.to/lastmile_qr_scan"}, "fusion_lat": 0.0}, {"is_disabled": 0, "lat": 38.93228783333333, "bike_id": "809e1d35044355373d31c47c72df0348", "fusion_lon": 0.0, "is_reserved": 0, "type": "electric_scooter", "name": "809e1d35044355373d31c47c72df0348", "lon": -77.02379633333334, "rental_uris": {"android": "https://dc.lft.to/lastmile_qr_scan", "ios": "https://dc.lft.to/lastmile_qr_scan"}, "fusion_lat": 0.0}, {"is_disabled": 0, "lat": 38.90962316666667, "bike_id": "de171168975dfc5a4efaaf39631062fb", "fusion_lon": 0.0, "is_reserved": 0, "type": "electric_scooter", "name": "de171168975dfc5a4efaaf39631062fb", "lon": -76.99607683333333, "rental_uris": {"android": "https://dc.lft.to/lastmile_qr_scan", "ios": "https://dc.lft.to/lastmile_qr_scan"}, "fusion_lat": 0.0}, {"is_disabled": 0, "lat": 38.91059533333333, "bike_id": "73de4f7af80050fa49d26d96ad63e15c", "fusion_lon": 0.0, "is_reserved": 0, "type": "electric_scooter", "name": "73de4f7af80050fa49d26d96ad63e15c", "lon": -77.04241233333333, "rental_uris": {"android": "https://dc.lft.to/lastmile_qr_scan", "ios": "https://dc.lft.to/lastmile_qr_scan"}, "fusion_lat": 0.0}, {"is_disabled": 0, "lat": 38.90518866666667, "bike_id": "fc7772aae9da7774c35febaafe2cb141", "fusion_lon": 0.0, "is_reserved": 0, "type": "electric_scooter", "name": "fc7772aae9da7774c35febaafe2cb141", "lon": -77.06448516666667, "rental_uris": {"android": "https://dc.lft.to/lastmile_qr_scan", "ios": "https://dc.lft.to/lastmile_qr_scan"}, "fusion_lat": 0.0}, {"is_disabled": 0, "lat": 38.915881166666665, "bike_id": "11953c945be8525a2c6f730524f216df", "fusion_lon": 0.0, "is_reserved": 0, "type": "electric_scooter", "name": "11953c945be8525a2c6f730524f216df", "lon": -77.03179083333333, "rental_uris": {"android": "https://dc.lft.to/lastmile_qr_scan", "ios": "https://dc.lft.to/lastmile_qr_scan"}, "fusion_lat": 0.0}, {"is_disabled": 0, "lat": 38.91543133333333, "bike_id": "86aeb3881df903e12d0054242e7981aa", "fusion_lon": 0.0, "is_reserved": 0, "type": "electric_scooter", "name": "86aeb3881df903e12d0054242e7981aa", "lon": -77.0385535, "rental_uris": {"android": "https://dc.lft.to/lastmile_qr_scan", "ios": "https://dc.lft.to/lastmile_qr_scan"}, "fusion_lat": 0.0}, {"is_disabled": 0, "lat": 38.918374, "bike_id": "c55d0eb53eedea061e6110c03756ddd6", "fusion_lon": 0.0, "is_reserved": 0, "type": "electric_scooter", "name": "c55d0eb53eedea061e6110c03756ddd6", "lon": -77.0120435, "rental_uris": {"android": "https://dc.lft.to/lastmile_qr_scan", "ios": "https://dc.lft.to/lastmile_qr_scan"}, "fusion_lat": 0.0}, {"is_disabled": 0, "lat": 38.90364833333334, "bike_id": "c0d3efeb2f0a256b620f56f762c73310", "fusion_lon": 0.0, "is_reserved": 0, "type": "electric_scooter", "name": "c0d3efeb2f0a256b620f56f762c73310", "lon": -77.03865483333334, "rental_uris": {"android": "https://dc.lft.to/lastmile_qr_scan", "ios": "https://dc.lft.to/lastmile_qr_scan"}, "fusion_lat": 0.0}, {"is_disabled": 0, "lat": 38.941829, "bike_id": "2e2da94a54198db9e75d6b068edd9294", "fusion_lon": 0.0, "is_reserved": 0, "type": "electric_scooter", "name": "2e2da94a54198db9e75d6b068edd9294", "lon": -77.02491583333334, "rental_uris": {"android": "https://dc.lft.to/lastmile_qr_scan", "ios": "https://dc.lft.to/lastmile_qr_scan"}, "fusion_lat": 0.0}, {"is_disabled": 0, "lat": 38.87765233333333, "bike_id": "a1d045b0759dac3ddb7f7bf9bfcd420c", "fusion_lon": 0.0, "is_reserved": 0, "type": "electric_scooter", "name": "a1d045b0759dac3ddb7f7bf9bfcd420c", "lon": -76.962372, "rental_uris": {"android": "https://dc.lft.to/lastmile_qr_scan", "ios": "https://dc.lft.to/lastmile_qr_scan"}, "fusion_lat": 0.0}, {"is_disabled": 0, "lat": 38.9340885, "bike_id": "aa8688634d7f1891f5076628ddd54a49", "fusion_lon": 0.0, "is_reserved": 0, "type": "electric_scooter", "name": "aa8688634d7f1891f5076628ddd54a49", "lon": -77.04549316666666, "rental_uris": {"android": "https://dc.lft.to/lastmile_qr_scan", "ios": "https://dc.lft.to/lastmile_qr_scan"}, "fusion_lat": 0.0}, {"is_disabled": 0, "lat": 38.917576333333336, "bike_id": "3dde64d5179014e912798bdbcddadfbe", "fusion_lon": 0.0, "is_reserved": 0, "type": "electric_scooter", "name": "3dde64d5179014e912798bdbcddadfbe", "lon": -77.0393705, "rental_uris": {"android": "https://dc.lft.to/lastmile_qr_scan", "ios": "https://dc.lft.to/lastmile_qr_scan"}, "fusion_lat": 0.0}, {"is_disabled": 0, "lat": 38.922065333333336, "bike_id": "9787a606da81a3453334416cbd61ac16", "fusion_lon": 0.0, "is_reserved": 0, "type": "electric_scooter", "name": "9787a606da81a3453334416cbd61ac16", "lon": -77.0378085, "rental_uris": {"android": "https://dc.lft.to/lastmile_qr_scan", "ios": "https://dc.lft.to/lastmile_qr_scan"}, "fusion_lat": 0.0}, {"is_disabled": 0, "lat": 38.90373733333333, "bike_id": "bebbb7e521a560a7aa3c5266c979e93f", "fusion_lon": 0.0, "is_reserved": 0, "type": "electric_scooter", "name": "bebbb7e521a560a7aa3c5266c979e93f", "lon": -77.03172166666667, "rental_uris": {"android": "https://dc.lft.to/lastmile_qr_scan", "ios": "https://dc.lft.to/lastmile_qr_scan"}, "fusion_lat": 0.0}, {"is_disabled": 0, "lat": 38.924146, "bike_id": "81c7057ef8d2704133e9c8b95569ca5e", "fusion_lon": 0.0, "is_reserved": 0, "type": "electric_scooter", "name": "81c7057ef8d2704133e9c8b95569ca5e", "lon": -77.02132466666667, "rental_uris": {"android": "https://dc.lft.to/lastmile_qr_scan", "ios": "https://dc.lft.to/lastmile_qr_scan"}, "fusion_lat": 0.0}, {"is_disabled": 0, "lat": 38.872849333333335, "bike_id": "13d8601fc25bc0d2eb48e93b41e472ec", "fusion_lon": 0.0, "is_reserved": 0, "type": "electric_bike", "name": "13d8601fc25bc0d2eb48e93b41e472ec", "lon": -77.2331645, "rental_uris": {"android": "https://dc.lft.to/lastmile_qr_scan", "ios": "https://dc.lft.to/lastmile_qr_scan"}, "fusion_lat": 0.0}, {"is_disabled": 0, "lat": 38.916478, "bike_id": "da2fc5260c29b28a6c3a4fffa00886f7", "fusion_lon": 0.0, "is_reserved": 0, "type": "electric_bike", "name": "da2fc5260c29b28a6c3a4fffa00886f7", "lon": -76.97299683333334, "rental_uris": {"android": "https://dc.lft.to/lastmile_qr_scan", "ios": "https://dc.lft.to/lastmile_qr_scan"}, "fusion_lat": 0.0}, {"is_disabled": 0, "lat": 38.87277366666667, "bike_id": "e55622fb26a00927cc240229fa3c5f8e", "fusion_lon": 0.0, "is_reserved": 0, "type": "electric_bike", "name": "e55622fb26a00927cc240229fa3c5f8e", "lon": -77.23329183333334, "rental_uris": {"android": "https://dc.lft.to/lastmile_qr_scan", "ios": "https://dc.lft.to/lastmile_qr_scan"}, "fusion_lat": 0.0}, {"is_disabled": 0, "lat": 38.9168995, "bike_id": "7220a810ed4aeae2e6724857330df35c", "fusion_lon": 0.0, "is_reserved": 0, "type": "electric_scooter", "name": "7220a810ed4aeae2e6724857330df35c", "lon": -77.02813966666666, "rental_uris": {"android": "https://dc.lft.to/lastmile_qr_scan", "ios": "https://dc.lft.to/lastmile_qr_scan"}, "fusion_lat": 0.0}, {"is_disabled": 0, "lat": 38.924244333333334, "bike_id": "0d967efe46b65a79a8a8e4cb189dbc0c", "fusion_lon": 0.0, "is_reserved": 0, "type": "electric_scooter", "name": "0d967efe46b65a79a8a8e4cb189dbc0c", "lon": -77.04484316666667, "rental_uris": {"android": "https://dc.lft.to/lastmile_qr_scan", "ios": "https://dc.lft.to/lastmile_qr_scan"}, "fusion_lat": 0.0}, {"is_disabled": 0, "lat": 38.90563683333333, "bike_id": "118ccf41d4146a746ed6f6ebc2e0d5d3", "fusion_lon": 0.0, "is_reserved": 0, "type": "electric_scooter", "name": "118ccf41d4146a746ed6f6ebc2e0d5d3", "lon": -77.04859466666667, "rental_uris": {"android": "https://dc.lft.to/lastmile_qr_scan", "ios": "https://dc.lft.to/lastmile_qr_scan"}, "fusion_lat": 0.0}, {"is_disabled": 0, "lat": 38.853669333333336, "bike_id": "7a7f6eae15f639be80496cfc36b6151a", "fusion_lon": 0.0, "is_reserved": 0, "type": "electric_scooter", "name": "7a7f6eae15f639be80496cfc36b6151a", "lon": -76.98532416666667, "rental_uris": {"android": "https://dc.lft.to/lastmile_qr_scan", "ios": "https://dc.lft.to/lastmile_qr_scan"}, "fusion_lat": 0.0}, {"is_disabled": 0, "lat": 38.89045433333333, "bike_id": "1dba1e6c59a9b37832b2017ac331908e", "fusion_lon": 0.0, "is_reserved": 0, "type": "electric_scooter", "name": "1dba1e6c59a9b37832b2017ac331908e", "lon": -76.93752033333334, "rental_uris": {"android": "https://dc.lft.to/lastmile_qr_scan", "ios": "https://dc.lft.to/lastmile_qr_scan"}, "fusion_lat": 0.0}, {"is_disabled": 0, "lat": 38.904093333333336, "bike_id": "89011c4fffdf6ceb480085afe2bc50d3", "fusion_lon": 0.0, "is_reserved": 0, "type": "electric_scooter", "name": "89011c4fffdf6ceb480085afe2bc50d3", "lon": -77.028778, "rental_uris": {"android": "https://dc.lft.to/lastmile_qr_scan", "ios": "https://dc.lft.to/lastmile_qr_scan"}, "fusion_lat": 0.0}, {"is_disabled": 0, "lat": 38.923166333333334, "bike_id": "0379aef61cf0044b1635bc1653a35473", "fusion_lon": 0.0, "is_reserved": 0, "type": "electric_scooter", "name": "0379aef61cf0044b1635bc1653a35473", "lon": -77.046241, "rental_uris": {"android": "https://dc.lft.to/lastmile_qr_scan", "ios": "https://dc.lft.to/lastmile_qr_scan"}, "fusion_lat": 0.0}, {"is_disabled": 0, "lat": 38.91879516666667, "bike_id": "87effc334838aec803fe7a70207bb854", "fusion_lon": 0.0, "is_reserved": 0, "type": "electric_scooter", "name": "87effc334838aec803fe7a70207bb854", "lon": -77.04310416666667, "rental_uris": {"android": "https://dc.lft.to/lastmile_qr_scan", "ios": "https://dc.lft.to/lastmile_qr_scan"}, "fusion_lat": 0.0},