{"data": {"bikes": [{"bike_id": "5b3dd0d19ce8d9c1294ac4f66676e3e3", "is_reserved": 0, "fusion_lon": 0.0, "lat": 38.8960525, "is_disabled": 0, "name": "5b3dd0d19ce8d9c1294ac4f66676e3e3", "fusion_lat": 0.0, "rental_uris": {"ios": "https://dc.lft.to/lastmile_qr_scan", "android": "https://dc.lft.to/lastmile_qr_scan"}, "lon": -77.04454966666667, "type": "electric_scooter"}, {"bike_id": "343e97a4bd89e9f90fee51ffecc81740", "is_reserved": 0, "fusion_lon": 0.0, "lat": 38.93337233333333, "is_disabled": 0, "name": "343e97a4bd89e9f90fee51ffecc81740", "fusion_lat": 0.0, "rental_uris": {"ios": "https://dc.lft.to/lastmile_qr_scan", "android": "https://dc.lft.to/lastmile_qr_scan"}, "lon": -77.03282183333333, "type": "electric_scooter"}, {"bike_id": "acfe1c141da17cb363320cc541a10294", "is_reserved": 0, "fusion_lon": 0.0, "lat": 38.86659216666666, "is_disabled": 0, "name": "acfe1c141da17cb363320cc541a10294", "fusion_lat": 0.0, "rental_uris": {"ios": "https://dc.lft.to/lastmile_qr_scan", "android": "https://dc.lft.to/lastmile_qr_scan"}, "lon": -76.9890405, "type": "electric_scooter"}, {"bike_id": "fecec2a38cfb48ca8a62a2771c3c2915", "is_reserved": 0, "fusion_lon": 0.0, "lat": 38.93289033333333, "is_disabled": 0, "name": "fecec2a38cfb48ca8a62a2771c3c2915", "fusion_lat": 0.0, "rental_uris": {"ios": "https://dc.lft.to/lastmile_qr_scan", "android": "https://dc.lft.to/lastmile_qr_scan"}, "lon": -77.0398125, "type": "electric_scooter"}, {"bike_id": "745e9957455db32e527068a7e6b84846", "is_reserved": 0, "fusion_lon": 0.0, "lat": 38.8001355, "is_disabled": 0, "name": "745e9957455db32e527068a7e6b84846", "fusion_lat": 0.0, "rental_uris": {"ios": "https://dc.lft.to/lastmile_qr_scan", "android": "https://dc.lft.to/lastmile_qr_scan"}, "lon": -77.1300315, "type": "electric_bike"}, {"bike_id": "5b1fb30d49a1f8b0d7858089129613a7", "is_reserved": 0, "fusion_lon": 0.0, "lat": 38.83826533333333, "is_disabled": 0, "name": "5b1fb30d49a1f8b0d7858089129613a7", "fusion_lat": 0.0, "rental_uris": {"ios": "https://dc.lft.to/lastmile_qr_scan", "android": "https://dc.lft.to/lastmile_qr_scan"}, "lon": -76.9968225, "type": "electric_bike"}, {"bike_id": "35d0f2d37b7dda17401f03f10356a64a", "is_reserved": 0, "fusion_lon": 0.0, "lat": 38.88687, "is_disabled": 0, "name": "35d0f2d37b7dda17401f03f10356a64a", "fusion_lat": 0.0, "rental_uris": {"ios": "https://dc.lft.to/lastmile_qr_scan", "android": "https://dc.lft.to/lastmile_qr_scan"}, "lon": -76.9575935, "type": "electric_scooter"}, {"bike_id": "bf8f2cb05ea8bb35a1a220504d912d29", "is_reserved": 0, "fusion_lon": 0.0, "lat": 38.87628383333333, "is_disabled": 0, "name": "bf8f2cb05ea8bb35a1a220504d912d29", "fusion_lat": 0.0, "rental_uris": {"ios": "https://dc.lft.to/lastmile_qr_scan", "android": "https://dc.lft.to/lastmile_qr_scan"}, "lon": -76.96527583333334, "type": "electric_scooter"}, {"bike_id": "4caf22d2fc394c639dbc55574242c150", "is_reserved": 0, "fusion_lon": 0.0, "lat": 38.897402666666665, "is_disabled": 0, "name": "4caf22d2fc394c639dbc55574242c150", "fusion_lat": 0.0, "rental_uris": {"ios": "https://dc.lft.to/lastmile_qr_scan", "android": "https://dc.lft.to/lastmile_qr_scan"}, "lon": -76.9384285, "type": "electric_scooter"}, {"bike_id": "59a778ea18ed3c995bd8ab4254bbcdc0", "is_reserved": 0, "fusion_lon": 0.0, "lat": 38.90329716666667, "is_disabled": 0, "name": "59a778ea18ed3c995bd8ab4254bbcdc0", "fusion_lat": 0.0, "rental_uris": {"ios": "https://dc.lft.to/lastmile_qr_scan", "android": "https://dc.lft.to/lastmile_qr_scan"}, "lon": -76.9759255, "type": "electric_scooter"}, {"bike_id": "15aadb95d26eaec6ec6f6c7231940508", "is_reserved": 0, "fusion_lon": 0.0, "lat": 38.9046585, "is_disabled": 0, "name": "15aadb95d26eaec6ec6f6c7231940508", "fusion_lat": 0.0, "rental_uris": {"ios": "https://dc.lft.to/lastmile_qr_scan", "android": "https://dc.lft.to/lastmile_qr_scan"}, "lon": -77.02978533333334, "type": "electric_scooter"}, {"bike_id": "0b74c665af1860a83ace9aea77bbe1db", "is_reserved": 0, "fusion_lon": 0.0, "lat": 38.928716333333334, "is_disabled": 0, "name": "0b74c665af1860a83ace9aea77bbe1db", "fusion_lat": 0.0, "rental_uris": {"ios": "https://dc.lft.to/lastmile_qr_scan", "android": "https://dc.lft.to/lastmile_qr_scan"}, "lon": -77.0136675, "type": "electric_scooter"}, {"bike_id": "0789ead65b0fc7b7f53f4c1629ba7044", "is_reserved": 0, "fusion_lon": 0.0, "lat": 38.94626733333333, "is_disabled": 0, "name": "0789ead65b0fc7b7f53f4c1629ba7044", "fusion_lat": 0.0, "rental_uris": {"ios": "https://dc.lft.to/lastmile_qr_scan", "android": "https://dc.lft.to/lastmile_qr_scan"}, "lon": -77.018427, "type": "electric_scooter"}, {"bike_id": "bcf743355035c3f3b2052d375c516ffa", "is_reserved": 0, "fusion_lon": 0.0, "lat": 38.83810166666667, "is_disabled": 0, "name": "bcf743355035c3f3b2052d375c516ffa", "fusion_lat": 0.0, "rental_uris": {"ios": "https://dc.lft.to/lastmile_qr_scan", "android": "https://dc.lft.to/lastmile_qr_scan"}, "lon": -77.09520183333333, "type": "electric_bike"}, {"bike_id": "887f53b6918a1d0f864e05c398541c18", "is_reserved": 0, "fusion_lon": 0.0, "lat": 38.9276285, "is_disabled": 0, "name": "887f53b6918a1d0f864e05c398541c18", "fusion_lat": 0.0, "rental_uris": {"ios": "https://dc.lft.to/lastmile_qr_scan", "android": "https://dc.lft.to/lastmile_qr_scan"}, "lon": -77.0730625, "type": "electric_scooter"}, {"bike_id": "33dae11d08e8ef32db39f0a91033c2c2", "is_reserved": 0, "fusion_lon": 0.0, "lat": 38.86524466666667, "is_disabled": 0, "name": "33dae11d08e8ef32db39f0a91033c2c2", "fusion_lat": 0.0, "rental_uris": {"ios": "https://dc.lft.to/lastmile_qr_scan", "android": "https://dc.lft.to/lastmile_qr_scan"}, "lon": -76.99023, "type": "electric_scooter"}, {"bike_id": "ca733d97931e6e1c9079b6edb8af37b4", "is_reserved": 0, "fusion_lon": 0.0, "lat": 38.9108915, "is_disabled": 0, "name": "ca733d97931e6e1c9079b6edb8af37b4", "fusion_lat": 0.0, "rental_uris": {"ios": "https://dc.lft.to/lastmile_qr_scan", "android": "https://dc.lft.to/lastmile_qr_scan"}, "lon": -77.03444516666667, "type": "electric_scooter"}, {"bike_id": "b0582a5a6dd9d38090aaf6d428efafcc", "is_reserved": 0, "fusion_lon": 0.0, "lat": 38.828727, "is_disabled": 0, "name": "b0582a5a6dd9d38090aaf6d428efafcc", "fusion_lat": 0.0, "rental_uris": {"ios": "https://dc.lft.to/lastmile_qr_scan", "android": "https://dc.lft.to/lastmile_qr_scan"}, "lon": -77.11221166666667, "type": "electric_bike"}, {"bike_id": "76906cbfcf4aa20a648223b83d453d49", "is_reserved": 0, "fusion_lon": 0.0, "lat": 38.88404216666667, "is_disabled": 0, "name": "76906cbfcf4aa20a648223b83d453d49", "fusion_lat": 0.0, "rental_uris": {"ios": "https://dc.lft.to/lastmile_qr_scan", "android": "https://dc.lft.to/lastmile_qr_scan"}, "lon": -77.01501216666666, "type": "electric_scooter"}, {"bike_id": "a22688dff9c57309601eed2d6a8d5775", "is_reserved": 0, "fusion_lon": 0.0, "lat": 38.9019215, "is_disabled": 0, "name": "a22688dff9c57309601eed2d6a8d5775", "fusion_lat": 0.0, "rental_uris": {"ios": "https://dc.lft.to/lastmile_qr_scan", "android": "https://dc.lft.to/lastmile_qr_scan"}, "lon": -77.02167783333333, "type": "electric_scooter"}, {"bike_id": "c10be9b719dbff6d619fa13496e038dc", "is_reserved": 0, "fusion_lon": 0.0, "lat": 38.91672533333333, "is_disabled": 0, "name": "c10be9b719dbff6d619fa13496e038dc", "fusion_lat": 0.0, "rental_uris": {"ios": "https://dc.lft.to/lastmile_qr_scan", "android": "https://dc.lft.to/lastmile_qr_scan"}, "lon": -77.03630816666667, "type": "electric_scooter"}, {"bike_id": "be5aabc5abb345cf6359a73330fbb4ea", "is_reserved": 0, "fusion_lon": 0.0, "lat": 38.91979583333333, "is_disabled": 0, "name": "be5aabc5abb345cf6359a73330fbb4ea", "fusion_lat": 0.0, "rental_uris": {"ios": "https://dc.lft.to/lastmile_qr_scan", "android": "https://dc.lft.to/lastmile_qr_scan"}, "lon": -77.02395283333334, "type": "electric_scooter"}, {"bike_id": "19e786dadfd6066b6d2b273a9c2b7bcd", "is_reserved": 0, "fusion_lon": 0.0, "lat": 38.919913333333334, "is_disabled": 0, "name": "19e786dadfd6066b6d2b273a9c2b7bcd", "fusion_lat": 0.0, "rental_uris": {"ios": "https://dc.lft.to/lastmile_qr_scan", "android": "https://dc.lft.to/lastmile_qr_scan"}, "lon": -77.03222383333333, "type": "electric_scooter"}, {"bike_id": "a526df4c2875602cd91aec5bb05f9ae1", "is_reserved": 0, "fusion_lon": 0.0, "lat": 38.936027333333335, "is_disabled": 0, "name": "a526df4c2875602cd91aec5bb05f9ae1", "fusion_lat": 0.0, "rental_uris": {"ios": "https://dc.lft.to/lastmile_qr_scan", "android": "https://dc.lft.to/lastmile_qr_scan"}, "lon": -77.05862166666667, "type": "electric_scooter"}, {"bike_id": "4ad9398a9e779486af8df748de705e4c", "is_reserved": 0, "fusion_lon": 0.0, "lat": 38.9908755, "is_disabled": 0, "name": "4ad9398a9e779486af8df748de705e4c", "fusion_lat": 0.0, "rental_uris": {"ios": "https://dc.lft.to/lastmile_qr_scan", "android": "https://dc.lft.to/lastmile_qr_scan"}, "lon": -76.87494366666667, "type": "electric_bike"}, {"bike_id": "7e7a75fc0b578c445524baf5e7fd22d1", "is_reserved": 0, "fusion_lon": 0.0, "lat": 38.9003075, "is_disabled": 0, "name": "7e7a75fc0b578c445524baf5e7fd22d1", "fusion_lat": 0.0, "rental_uris": {"ios": "https://dc.lft.to/lastmile_qr_scan", "android": "https://dc.lft.to/lastmile_qr_scan"}, "lon": -77.01352816666666, "type": "electric_scooter"}, {"bike_id": "572d4220efca0b63e0f060a92bf337b9", "is_reserved": 0, "fusion_lon": 0.0, "lat": 38.9179635, "is_disabled": 0, "name": "572d4220efca0b63e0f060a92bf337b9", "fusion_lat": 0.0, "rental_uris": {"ios": "https://dc.lft.to/lastmile_qr_scan", "android": "https://dc.lft.to/lastmile_qr_scan"}, "lon": -77.03441916666667, "type": "electric_scooter"}, {"bike_id": "3b256a3387d63bc2046e1964b85e3794", "is_reserved": 0, "fusion_lon": 0.0, "lat": 38.90080916666667, "is_disabled": 0, "name": "3b256a3387d63bc2046e1964b85e3794", "fusion_lat": 0.0, "rental_uris": {"ios": "https://dc.lft.to/lastmile_qr_scan", "android": "https://dc.lft.to/lastmile_qr_scan"}, "lon": -77.04862733333333, "type": "electric_scooter"}, {"bike_id": "fbe5d43b77a6e33944e250d3f29ddce8", "is_reserved": 0, "fusion_lon": 0.0, "lat": 38.87137216666667, "is_disabled": 0, "name": "fbe5d43b77a6e33944e250d3f29ddce8", "fusion_lat": 0.0, "rental_uris": {"ios": "https://dc.lft.to/lastmile_qr_scan", "android": "https://dc.lft.to/lastmile_qr_scan"}, "lon": -76.97737166666667, "type": "electric_scooter"}, {"bike_id": "691009acd6864cfc05c82cc8c419bcde", "is_reserved": 0, "fusion_lon": 0.0, "lat": 38.85871866666667, "is_disabled": 0, "name": "691009acd6864cfc05c82cc8c419bcde", "fusion_lat": 0.0, "rental_uris": {"ios": "https://dc.lft.to/lastmile_qr_scan", "android": "https://dc.lft.to/lastmile_qr_scan"}, "lon": -77.0955455, "type": "electric_bike"}, {"bike_id": "67fff84383d56bcc209bc3ebcec8753d", "is_reserved": 0, "fusion_lon": 0.0, "lat": 38.865249, "is_disabled": 0, "name": "67fff84383d56bcc209bc3ebcec8753d", "fusion_lat": 0.0, "rental_uris": {"ios": "https://dc.lft.to/lastmile_qr_scan", "android": "https://dc.lft.to/lastmile_qr_scan"}, "lon": -76.990233, "type": "electric_scooter"}, {"bike_id": "2e1ea59483341d1a9c9b73a1e560ad55", "is_reserved": 0, "fusion_lon": 0.0, "lat": 38.920807333333336, "is_disabled": 0, "name": "2e1ea59483341d1a9c9b73a1e560ad55", "fusion_lat": 0.0, "rental_uris": {"ios": "https://dc.lft.to/lastmile_qr_scan", "android": "https://dc.lft.to/lastmile_qr_scan"}, "lon": -77.02406833333333, "type": "electric_scooter"}, {"bike_id": "ff180e31130b21d4d8d7aa3e175f48f7", "is_reserved": 0, "fusion_lon": 0.0, "lat": 38.90564233333333, "is_disabled": 0, "name": "ff180e31130b21d4d8d7aa3e175f48f7", "fusion_lat": 0.0, "rental_uris": {"ios": "https://dc.lft.to/lastmile_qr_scan", "android": "https://dc.lft.to/lastmile_qr_scan"}, "lon": -77.0306565, "type": "electric_scooter"}, {"bike_id": "a5b90ca1d2481e50539a46465caa40c7", "is_reserved": 0, "fusion_lon": 0.0, "lat": 38.911143333333335, "is_disabled": 0, "name": "a5b90ca1d2481e50539a46465caa40c7", "fusion_lat": 0.0, "rental_uris": {"ios": "https://dc.lft.to/lastmile_qr_scan", "android": "https://dc.lft.to/lastmile_qr_scan"}, "lon": -77.03845666666666, "type": "electric_scooter"}, {"bike_id": "81a90fa837e12618409df6c7efe7e5a9", "is_reserved": 0, "fusion_lon": 0.0, "lat": 38.898497166666665, "is_disabled": 0, "name": "81a90fa837e12618409df6c7efe7e5a9", "fusion_lat": 0.0, "rental_uris": {"ios": "https://dc.lft.to/lastmile_qr_scan", "android": "https://dc.lft.to/lastmile_qr_scan"}, "lon": -76.99028, "type": "electric_scooter"}, {"bike_id": "462ec888b989f5f88bd38958681b25a9", "is_reserved": 0, "fusion_lon": 0.0, "lat": 38.9010355, "is_disabled": 0, "name": "462ec888b989f5f88bd38958681b25a9", "fusion_lat": 0.0, "rental_uris": {"ios": "https://dc.lft.to/lastmile_qr_scan", "android": "https://dc.lft.to/lastmile_qr_scan"}, "lon": -77.03164633333333, "type": "electric_scooter"}, {"bike_id": "7b4f7929455cf993d8dfe1362a0d4c06", "is_reserved": 0, "fusion_lon": 0.0, "lat": 38.85291383333333, "is_disabled": 0, "name": "7b4f7929455cf993d8dfe1362a0d4c06", "fusion_lat": 0.0, "rental_uris": {"ios": "https://dc.lft.to/lastmile_qr_scan", "android": "https://dc.lft.to/lastmile_qr_scan"}, "lon": -77.05275716666667, "type": "electric_bike"}, {"bike_id": "19100f3277f194485d0893935dcc87c7", "is_reserved": 0, "fusion_lon": 0.0, "lat": 38.90182633333333, "is_disabled": 0, "name": "19100f3277f194485d0893935dcc87c7", "fusion_lat": 0.0, "rental_uris": {"ios": "https://dc.lft.to/lastmile_qr_scan", "android": "https://dc.lft.to/lastmile_qr_scan"}, "lon": -77.02159666666667, "type": "electric_scooter"}, {"bike_id": "639bd2e8d596ff6d612ff0b20d7d80ab", "is_reserved": 0, "fusion_lon": 0.0, "lat": 38.86373916666667, "is_disabled": 0, "name": "639bd2e8d596ff6d612ff0b20d7d80ab", "fusion_lat": 0.0, "rental_uris": {"ios": "https://dc.lft.to/lastmile_qr_scan", "android": "https://dc.lft.to/lastmile_qr_scan"}, "lon": -76.990611, "type": "electric_scooter"}, {"bike_id": "93aeae0b234c0dc2b7cb002c273c2b54", "is_reserved": 0, "fusion_lon": 0.0, "lat": 38.88722383333333, "is_disabled": 0, "name": "93aeae0b234c0dc2b7cb002c273c2b54", "fusion_lat": 0.0, "rental_uris": {"ios": "https://dc.lft.to/lastmile_qr_scan", "android": "https://dc.lft.to/lastmile_qr_scan"}, "lon": -77.025783, "type": "electric_scooter"}, {"bike_id": "95496c596b5fe22f01d7e3c1d898b6a6", "is_reserved": 0, "fusion_lon": 0.0, "lat": 38.9111615, "is_disabled": 0, "name": "95496c596b5fe22f01d7e3c1d898b6a6", "fusion_lat": 0.0, "rental_uris": {"ios": "https://dc.lft.to/lastmile_qr_scan", "android": "https://dc.lft.to/lastmile_qr_scan"}, "lon": -77.02190316666666, "type": "electric_scooter"}, {"bike_id": "21dd1c5be291ee495ec639b0d5a4650a", "is_reserved": 0, "fusion_lon": 0.0, "lat": 38.925537, "is_disabled": 0, "name": "21dd1c5be291ee495ec639b0d5a4650a", "fusion_lat": 0.0, "rental_uris": {"ios": "https://dc.lft.to/lastmile_qr_scan", "android": "https://dc.lft.to/lastmile_qr_scan"}, "lon": -77.07328116666666, "type": "electric_bike"}, {"bike_id": "dfd4cb312d819eceff9b0ddab637d426", "is_reserved": 0, "fusion_lon": 0.0, "lat": 38.92480583333333, "is_disabled": 0, "name": "dfd4cb312d819eceff9b0ddab637d426", "fusion_lat": 0.0, "rental_uris": {"ios": "https://dc.lft.to/lastmile_qr_scan", "android": "https://dc.lft.to/lastmile_qr_scan"}, "lon": -77.0520775, "type": "electric_scooter"}, {"bike_id": "096e0640121e32e6d426379cf7a9ad4d", "is_reserved": 0, "fusion_lon": 0.0, "lat": 38.92002733333333, "is_disabled": 0, "name": "096e0640121e32e6d426379cf7a9ad4d", "fusion_lat": 0.0, "rental_uris": {"ios": "https://dc.lft.to/lastmile_qr_scan", "android": "https://dc.lft.to/lastmile_qr_scan"}, "lon": -77.03877983333334, "type": "electric_scooter"}, {"bike_id": "80d12ed7c258e2bceb8ae67669741c0c", "is_reserved": 0, "fusion_lon": 0.0, "lat": 38.925133333333335, "is_disabled": 0, "name": "80d12ed7c258e2bceb8ae67669741c0c", "fusion_lat": 0.0, "rental_uris": {"ios": "https://dc.lft.to/lastmile_qr_scan", "android": "https://dc.lft.to/lastmile_qr_scan"}, "lon": -77.01937233333334, "type": "electric_scooter"}, {"bike_id": "a38aa3e20dbc5605494ca71f8302e9ca", "is_reserved": 0, "fusion_lon": 0.0, "lat": 38.91742383333333, "is_disabled": 0, "name": "a38aa3e20dbc5605494ca71f8302e9ca", "fusion_lat": 0.0, "rental_uris": {"ios": "https://dc.lft.to/lastmile_qr_scan", "android": "https://dc.lft.to/lastmile_qr_scan"}, "lon": -77.00754983333333, "type": "electric_scooter"}, {"bike_id": "cb6c9e916ccef9f32cb65a964e3e968e", "is_reserved": 0, "fusion_lon": 0.0, "lat": 38.86697816666667, "is_disabled": 0, "name": "cb6c9e916ccef9f32cb65a964e3e968e", "fusion_lat": 0.0, "rental_uris": {"ios": "https://dc.lft.to/lastmile_qr_scan", "android": "https://dc.lft.to/lastmile_qr_scan"}, "lon": -76.98713183333334, "type": "electric_scooter"}, {"bike_id": "4a83139c463070a88d1d1995cdd1478c", "is_reserved": 0, "fusion_lon": 0.0, "lat": 38.90759666666667, "is_disabled": 0, "name": "4a83139c463070a88d1d1995cdd1478c", "fusion_lat": 0.0, "rental_uris": {"ios": "https://dc.lft.to/lastmile_qr_scan", "android": "https://dc.lft.to/lastmile_qr_scan"}, "lon": -77.000992, "type": "electric_scooter"}, {"bike_id": "4f0efd751759c87672577f7e5ce85c4c", "is_reserved": 0, "fusion_lon": 0.0, "lat": 38.90368866666667, "is_disabled": 0, "name": "4f0efd751759c87672577f7e5ce85c4c", "fusion_lat": 0.0, "rental_uris": {"ios": "https://dc.lft.to/lastmile_qr_scan", "android": "https://dc.lft.to/lastmile_qr_scan"}, "lon": -77.01899383333334, "type": "electric_scooter"}, {"bike_id": "c163aba8556512c104756dba20e79c80", "is_reserved": 0, "fusion_lon": 0.0, "lat": 38.940516333333335, "is_disabled": 0, "name": "c163aba8556512c104756dba20e79c80", "fusion_lat": 0.0, "rental_uris": {"ios": "https://dc.lft.to/lastmile_qr_scan", "android": "https://dc.lft.to/lastmile_qr_scan"}, "lon": -77.092709, "type": "electric_scooter"}, {"bike_id": "d09c6f4b1ea3b4bd954ee67f1fa440f6", "is_reserved": 0, "fusion_lon": 0.0, "lat": 38.903212333333336, "is_disabled": 0, "name": "d09c6f4b1ea3b4bd954ee67f1fa440f6", "fusion_lat": 0.0, "rental_uris": {"ios": "https://dc.lft.to/lastmile_qr_scan", "android": "https://dc.lft.to/lastmile_qr_scan"}, "lon": -77.03826416666666, "type": "electric_scooter"}, {"bike_id": "62275cf8dc395efde2a087ce0ac4ebd7", "is_reserved": 0, "fusion_lon": 0.0, "lat": 38.9743115, "is_disabled": 0, "name": "62275cf8dc395efde2a087ce0ac4ebd7", "fusion_lat": 0.0, "rental_uris": {"ios": "https://dc.lft.to/lastmile_qr_scan", "android": "https://dc.lft.to/lastmile_qr_scan"}, "lon": -77.01529283333333, "type": "electric_scooter"}, {"bike_id": "387721c66ac0c9a83fbd23d8496bd0a4", "is_reserved": 0, "fusion_lon": 0.0, "lat": 38.9274195, "is_disabled": 0, "name": "387721c66ac0c9a83fbd23d8496bd0a4", "fusion_lat": 0.0, "rental_uris": {"ios": "https://dc.lft.to/lastmile_qr_scan", "android": "https://dc.lft.to/lastmile_qr_scan"}, "lon": -77.01203383333333, "type": "electric_scooter"}, {"bike_id": "b569d81e564f4587d917d36f36203bfc", "is_reserved": 0, "fusion_lon": 0.0, "lat": 38.91413716666667, "is_disabled": 0, "name": "b569d81e564f4587d917d36f36203bfc", "fusion_lat": 0.0, "rental_uris": {"ios": "https://dc.lft.to/lastmile_qr_scan", "android": "https://dc.lft.to/lastmile_qr_scan"}, "lon": -77.04141266666667, "type": "electric_scooter"}, {"bike_id": "5b41a741f85b59069a881d7ba7893fc1", "is_reserved": 0, "fusion_lon": 0.0, "lat": 38.913437333333334, "is_disabled": 0, "name": "5b41a741f85b59069a881d7ba7893fc1", "fusion_lat": 0.0, "rental_uris": {"ios": "https://dc.lft.to/lastmile_qr_scan", "android": "https://dc.lft.to/lastmile_qr_scan"}, "lon": -77.0311945, "type": "electric_scooter"}, {"bike_id": "5fab57b38cba6514de8b4a60bd61c6c8", "is_reserved": 0, "fusion_lon": 0.0, "lat": 38.90609283333333, "is_disabled": 0, "name": "5fab57b38cba6514de8b4a60bd61c6c8", "fusion_lat": 0.0, "rental_uris": {"ios": "https://dc.lft.to/lastmile_qr_scan", "android": "https://dc.lft.to/lastmile_qr_scan"}, "lon": -77.05139383333334, "type": "electric_scooter"}, {"bike_id": "7ce658721e009ec9bfce7e88d4b18baa", "is_reserved": 0, "fusion_lon": 0.0, "lat": 38.908591333333334, "is_disabled": 0, "name": "7ce658721e009ec9bfce7e88d4b18baa", "fusion_lat": 0.0, "rental_uris": {"ios": "https://dc.lft.to/lastmile_qr_scan", "android": "https://dc.lft.to/lastmile_qr_scan"}, "lon": -76.99941716666666, "type": "electric_scooter"}, {"bike_id": "26511438e436c33fd5342b48c890fd1c", "is_reserved": 0, "fusion_lon": 0.0, "lat": 38.900357666666665, "is_disabled": 0, "name": "26511438e436c33fd5342b48c890fd1c", "fusion_lat": 0.0, "rental_uris": {"ios": "https://dc.lft.to/lastmile_qr_scan", "android": "https://dc.lft.to/lastmile_qr_scan"}, "lon": -77.00199583333334, "type": "electric_scooter"}, {"bike_id": "364e87b96caadea632f7d2e8ac31f501", "is_reserved": 0, "fusion_lon": 0.0, "lat": 38.896784833333335, "is_disabled": 0, "name": "364e87b96caadea632f7d2e8ac31f501", "fusion_lat": 0.0, "rental_uris": {"ios": "https://dc.lft.to/lastmile_qr_scan", "android": "https://dc.lft.to/lastmile_qr_scan"}, "lon": -76.99620516666667, "type": "electric_scooter"}, {"bike_id": "cb4f01a1eb7acefb42456a66d07917ee", "is_reserved": 0, "fusion_lon": 0.0, "lat": 38.90453733333333, "is_disabled": 0, "name": "cb4f01a1eb7acefb42456a66d07917ee", "fusion_lat": 0.0, "rental_uris": {"ios": "https://dc.lft.to/lastmile_qr_scan", "android": "https://dc.lft.to/lastmile_qr_scan"}, "lon": -77.0167785, "type": "electric_scooter"}, {"bike_id": "eaa2db8e65f6908f4e0b6f999b4a4210", "is_reserved": 0, "fusion_lon": 0.0, "lat": 38.8429185, "is_disabled": 0, "name": "eaa2db8e65f6908f4e0b6f999b4a4210", "fusion_lat": 0.0, "rental_uris": {"ios": "https://dc.lft.to/lastmile_qr_scan", "android": "https://dc.lft.to/lastmile_qr_scan"}, "lon": -76.9994935, "type": "electric_scooter"}, {"bike_id": "a5d6853c08c4172bb8f4b7f7ba8c75c6", "is_reserved": 0, "fusion_lon": 0.0, "lat": 38.86539283333333, "is_disabled": 0, "name": "a5d6853c08c4172bb8f4b7f7ba8c75c6", "fusion_lat": 0.0, "rental_uris": {"ios": "https://dc.lft.to/lastmile_qr_scan", "android": "https://dc.lft.to/lastmile_qr_scan"}, "lon": -76.98702516666667, "type": "electric_scooter"}, {"bike_id": "0b8fdb88e280f29aecde8924693b1944", "is_reserved": 0, "fusion_lon": 0.0, "lat": 38.916556, "is_disabled": 0, "name": "0b8fdb88e280f29aecde8924693b1944", "fusion_lat": 0.0, "rental_uris": {"ios": "https://dc.lft.to/lastmile_qr_scan", "android": "https://dc.lft.to/lastmile_qr_scan"}, "lon": -77.02701916666666, "type": "electric_scooter"}, {"bike_id": "1a11d5b2fc0fc1a660ce04e616522dfa", "is_reserved": 0, "fusion_lon": 0.0, "lat": 38.9079165, "is_disabled": 0, "name": "1a11d5b2fc0fc1a660ce04e616522dfa", "fusion_lat": 0.0, "rental_uris": {"ios": "https://dc.lft.to/lastmile_qr_scan", "android": "https://dc.lft.to/lastmile_qr_scan"}, "lon": -77.03644666666666, "type": "electric_scooter"}, {"bike_id": "9bcab91c93e4779ebb20724be6842633", "is_reserved": 0, "fusion_lon": 0.0, "lat": 38.904159666666665, "is_disabled": 0, "name": "9bcab91c93e4779ebb20724be6842633", "fusion_lat": 0.0, "rental_uris": {"ios": "https://dc.lft.to/lastmile_qr_scan", "android": "https://dc.lft.to/lastmile_qr_scan"}, "lon": -77.00587816666666, "type": "electric_scooter"}, {"bike_id": "c393ec7e996cf6c9fd15549eb75d99aa", "is_reserved": 0, "fusion_lon": 0.0, "lat": 38.9110465, "is_disabled": 0, "name": "c393ec7e996cf6c9fd15549eb75d99aa", "fusion_lat": 0.0, "rental_uris": {"ios": "https://dc.lft.to/lastmile_qr_scan", "android": "https://dc.lft.to/lastmile_qr_scan"}, "lon": -77.03722, "type": "electric_scooter"}, {"bike_id": "a7cd4b08e7545770799a01b8f1b9fe43", "is_reserved": 0, "fusion_lon": 0.0, "lat": 38.93232866666666, "is_disabled": 0, "name": "a7cd4b08e7545770799a01b8f1b9fe43", "fusion_lat": 0.0, "rental_uris": {"ios": "https://dc.lft.to/lastmile_qr_scan", "android": "https://dc.lft.to/lastmile_qr_scan"}, "lon": -77.03829033333334, "type": "electric_scooter"}, {"bike_id": "d9b404a3582bb44e4406bf43aeff5528", "is_reserved": 0, "fusion_lon": 0.0, "lat": 38.932813833333334, "is_disabled": 0, "name": "d9b404a3582bb44e4406bf43aeff5528", "fusion_lat": 0.0, "rental_uris": {"ios": "https://dc.lft.to/lastmile_qr_scan", "android": "https://dc.lft.to/lastmile_qr_scan"}, "lon": -77.025056, "type": "electric_bike"}, {"bike_id": "4a1fe1c2842403db941dacd47dd89d4e", "is_reserved": 0, "fusion_lon": 0.0, "lat": 38.8699825, "is_disabled": 0, "name": "4a1fe1c2842403db941dacd47dd89d4e", "fusion_lat": 0.0, "rental_uris": {"ios": "https://dc.lft.to/lastmile_qr_scan", "android": "https://dc.lft.to/lastmile_qr_scan"}, "lon": -76.9598055, "type": "electric_bike"}, {"bike_id": "6d00a87a583b96eef4a797c2c38aa142", "is_reserved": 0, "fusion_lon": 0.0, "lat": 38.90259916666667, "is_disabled": 0, "name": "6d00a87a583b96eef4a797c2c38aa142", "fusion_lat": 0.0, "rental_uris": {"ios": "https://dc.lft.to/lastmile_qr_scan", "android": "https://dc.lft.to/lastmile_qr_scan"}, "lon": -77.03957966666667, "type": "electric_scooter"}, {"bike_id": "c0eda7b1f1c517458dd32d4c70a29958", "is_reserved": 0, "fusion_lon": 0.0, "lat": 38.82264266666667, "is_disabled": 0, "name": "c0eda7b1f1c517458dd32d4c70a29958", "fusion_lat": 0.0, "rental_uris": {"ios": "https://dc.lft.to/lastmile_qr_scan", "android": "https://dc.lft.to/lastmile_qr_scan"}, "lon": -77.05812933333333, "type": "electric_bike"}, {"bike_id": "809df4eb048f8574be0b771aeba8cb22", "is_reserved": 0, "fusion_lon": 0.0, "lat": 38.900671, "is_disabled": 0, "name": "809df4eb048f8574be0b771aeba8cb22", "fusion_lat": 0.0, "rental_uris": {"ios": "https://dc.lft.to/lastmile_qr_scan", "android": "https://dc.lft.to/lastmile_qr_scan"}, "lon": -76.98710483333333, "type": "electric_scooter"}, {"bike_id": "ee822ce5877252bf5787ed30d1963a50", "is_reserved": 0, "fusion_lon": 0.0, "lat": 38.86241366666667, "is_disabled": 0, "name": "ee822ce5877252bf5787ed30d1963a50", "fusion_lat": 0.0, "rental_uris": {"ios": "https://dc.lft.to/lastmile_qr_scan", "android": "https://dc.lft.to/lastmile_qr_scan"}, "lon": -76.9949215, "type": "electric_scooter"}, {"bike_id": "a3b6cebd0f4fa9d7d089643b9955cf69", "is_reserved": 0, "fusion_lon": 0.0, "lat": 38.98505, "is_disabled": 0, "name": "a3b6cebd0f4fa9d7d089643b9955cf69", "fusion_lat": 0.0, "rental_uris": {"ios": "https://dc.lft.to/lastmile_qr_scan", "android": "https://dc.lft.to/lastmile_qr_scan"}, "lon": -76.9821625, "type": "electric_bike"}, {"bike_id": "75e38efd21a683a4b98b9b63b666e495", "is_reserved": 0, "fusion_lon": 0.0, "lat": 38.89385983333333, "is_disabled": 0, "name": "75e38efd21a683a4b98b9b63b666e495", "fusion_lat": 0.0, "rental_uris": {"ios": "https://dc.lft.to/lastmile_qr_scan", "android": "https://dc.lft.to/lastmile_qr_scan"}, "lon": -77.00596866666666, "type": "electric_scooter"}, {"bike_id": "c25049ecfe71faf219f2d047a96ef247", "is_reserved": 0, "fusion_lon": 0.0, "lat": 38.952694, "is_disabled": 0, "name": "c25049ecfe71faf219f2d047a96ef247", "fusion_lat": 0.0, "rental_uris": {"ios": "https://dc.lft.to/lastmile_qr_scan", "android": "https://dc.lft.to/lastmile_qr_scan"}, "lon": -77.06983933333333, "type": "electric_bike"}, {"bike_id": "ad098db03ab927da9dcdf0f2f6d16cc8", "is_reserved": 0, "fusion_lon": 0.0, "lat": 38.90577616666667, "is_disabled": 0, "name": "ad098db03ab927da9dcdf0f2f6d16cc8", "fusion_lat": 0.0, "rental_uris": {"ios": "https://dc.lft.to/lastmile_qr_scan", "android": "https://dc.lft.to/lastmile_qr_scan"}, "lon": -77.00266316666666, "type": "electric_scooter"}, {"bike_id": "0180c2c269e2257c1e8c029d749f6f2a", "is_reserved": 0, "fusion_lon": 0.0, "lat": 38.93090016666667, "is_disabled": 0, "name": "0180c2c269e2257c1e8c029d749f6f2a", "fusion_lat": 0.0, "rental_uris": {"ios": "https://dc.lft.to/lastmile_qr_scan", "android": "https://dc.lft.to/lastmile_qr_scan"}, "lon": -77.02506266666667, "type": "electric_scooter"}, {"bike_id": "b6d58709fde420c26409f32be453c6a3", "is_reserved": 0, "fusion_lon": 0.0, "lat": 38.92242516666666, "is_disabled": 0, "name": "b6d58709fde420c26409f32be453c6a3", "fusion_lat": 0.0, "rental_uris": {"ios": "https://dc.lft.to/lastmile_qr_scan", "android": "https://dc.lft.to/lastmile_qr_scan"}, "lon": -77.01829983333333, "type": "electric_scooter"}, {"bike_id": "e3c40032c7c4f8a89f2e8872b8afeb6c", "is_reserved": 0, "fusion_lon": 0.0, "lat": 38.90019183333333, "is_disabled": 0, "name": "e3c40032c7c4f8a89f2e8872b8afeb6c", "fusion_lat": 0.0, "rental_uris": {"ios": "https://dc.lft.to/lastmile_qr_scan", "android": "https://dc.lft.to/lastmile_qr_scan"}, "lon": -77.046793, "type": "electric_scooter"}, {"bike_id": "e30892da947df214816329ff3b0c4c7f", "is_reserved": 0, "fusion_lon": 0.0, "lat": 38.866065, "is_disabled": 0, "name": "e30892da947df214816329ff3b0c4c7f", "fusion_lat": 0.0, "rental_uris": {"ios": "https://dc.lft.to/lastmile_qr_scan", "android": "https://dc.lft.to/lastmile_qr_scan"}, "lon": -76.989153, "type": "electric_scooter"}, {"bike_id": "11288fdfe0bf1fdfa1e0471f836ed03a", "is_reserved": 0, "fusion_lon": 0.0, "lat": 38.90569283333333, "is_disabled": 0, "name": "11288fdfe0bf1fdfa1e0471f836ed03a", "fusion_lat": 0.0, "rental_uris": {"ios": "https://dc.lft.to/lastmile_qr_scan", "android": "https://dc.lft.to/lastmile_qr_scan"}, "lon": -77.02169983333333, "type": "electric_scooter"}, {"bike_id": "54335830ff7aefbe289c3f80630fb0c5", "is_reserved": 0, "fusion_lon": 0.0, "lat": 38.8922075, "is_disabled": 0, "name": "54335830ff7aefbe289c3f80630fb0c5", "fusion_lat": 0.0, "rental_uris": {"ios": "https://dc.lft.to/lastmile_qr_scan", "android": "https://dc.lft.to/lastmile_qr_scan"}, "lon": -77.03160883333334, "type": "electric_scooter"}, {"bike_id": "2669ea95a451bdb250666ca41fff78e4", "is_reserved": 0, "fusion_lon": 0.0, "lat": 38.92363133333333, "is_disabled": 0, "name": "2669ea95a451bdb250666ca41fff78e4", "fusion_lat": 0.0, "rental_uris": {"ios": "https://dc.lft.to/lastmile_qr_scan", "android": "https://dc.lft.to/lastmile_qr_scan"}, "lon": -77.050237, "type": "electric_scooter"}, {"bike_id": "b554532022ec13e303a2ff6a8f32b2cf", "is_reserved": 0, "fusion_lon": 0.0, "lat": 38.896443, "is_disabled": 0, "name": "b554532022ec13e303a2ff6a8f32b2cf", "fusion_lat": 0.0, "rental_uris": {"ios": "https://dc.lft.to/lastmile_qr_scan", "android": "https://dc.lft.to/lastmile_qr_scan"}, "lon": -77.03227366666667, "type": "electric_scooter"}, {"bike_id": "80798418b225972b56ab0cd9c78c24a4", "is_reserved": 0, "fusion_lon": 0.0, "lat": 38.92081133333333, "is_disabled": 0, "name": "80798418b225972b56ab0cd9c78c24a4", "fusion_lat": 0.0, "rental_uris": {"ios": "https://dc.lft.to/lastmile_qr_scan", "android": "https://dc.lft.to/lastmile_qr_scan"}, "lon": -77.03152683333333, "type": "electric_scooter"}, {"bike_id": "9bec21276936e15d79f348bf60315179", "is_reserved": 0, "fusion_lon": 0.0, "lat": 38.9038045, "is_disabled": 0, "name": "9bec21276936e15d79f348bf60315179", "fusion_lat": 0.0, "rental_uris": {"ios": "https://dc.lft.to/lastmile_qr_scan", "android": "https://dc.lft.to/lastmile_qr_scan"}, "lon": -77.043227, "type": "electric_scooter"}, {"bike_id": "c2145558615189f2f795f664ad6df71a", "is_reserved": 0, "fusion_lon": 0.0, "lat": 38.902955, "is_disabled": 0, "name": "c2145558615189f2f795f664ad6df71a", "fusion_lat": 0.0, "rental_uris": {"ios": "https://dc.lft.to/lastmile_qr_scan", "android": "https://dc.lft.to/lastmile_qr_scan"}, "lon": -76.94437033333334, "type": "electric_bike"}, {"bike_id": "3652723aaf5c6b68502fcf9661eb886f", "is_reserved": 0, "fusion_lon": 0.0, "lat": 38.91324733333333, "is_disabled": 0, "name": "3652723aaf5c6b68502fcf9661eb886f", "fusion_lat": 0.0, "rental_uris": {"ios": "https://dc.lft.to/lastmile_qr_scan", "android": "https://dc.lft.to/lastmile_qr_scan"}, "lon": -77.01508683333333, "type": "electric_scooter"}, {"bike_id": "88376b18b6e751d01af775cfd4f76f3d", "is_reserved": 0, "fusion_lon": 0.0, "lat": 38.908380666666666, "is_disabled": 0, "name": "88376b18b6e751d01af775cfd4f76f3d", "fusion_lat": 0.0, "rental_uris": {"ios": "https://dc.lft.to/lastmile_qr_scan", "android": "https://dc.lft.to/lastmile_qr_scan"}, "lon": -77.0424745, "type": "electric_scooter"}, {"bike_id": "c110460d10437e92c52f6ccd0432d7ae", "is_reserved": 0, "fusion_lon": 0.0, "lat": 38.83800433333333, "is_disabled": 0, "name": "c110460d10437e92c52f6ccd0432d7ae", "fusion_lat": 0.0, "rental_uris": {"ios": "https://dc.lft.to/lastmile_qr_scan", "android": "https://dc.lft.to/lastmile_qr_scan"}, "lon": -76.99836766666667, "type": "electric_bike"}, {"bike_id": "4963afc0c876c30df347a1fc11ab5671", "is_reserved": 0, "fusion_lon": 0.0, "lat": 38.93889716666666, "is_disabled": 0, "name": "4963afc0c876c30df347a1fc11ab5671", "fusion_lat": 0.0, "rental_uris": {"ios": "https://dc.lft.to/lastmile_qr_scan", "android": "https://dc.lft.to/lastmile_qr_scan"}, "lon": -77.02974933333333, "type": "electric_scooter"}, {"bike_id": "2385070aa55bcea9411e0d135f31429f", "is_reserved": 0, "fusion_lon": 0.0, "lat": 39.0159425, "is_disabled": 0, "name": "2385070aa55bcea9411e0d135f31429f", "fusion_lat": 0.0, "rental_uris": {"ios": "https://dc.lft.to/lastmile_qr_scan", "android": "https://dc.lft.to/lastmile_qr_scan"}, "lon": -77.04429366666666, "type": "electric_bike"}, {"bike_id": "4d894a9cec5a161bd398e94be84cf1a5", "is_reserved": 0, "fusion_lon": 0.0, "lat": 38.9267395, "is_disabled": 0, "name": "4d894a9cec5a161bd398e94be84cf1a5", "fusion_lat": 0.0, "rental_uris": {"ios": "https://dc.lft.to/lastmile_qr_scan", "android": "https://dc.lft.to/lastmile_qr_scan"}, "lon": -77.03634616666666, "type": "electric_scooter"}, {"bike_id": "61fc803f3123393d7fe08ed3513939ae", "is_reserved": 0, "fusion_lon": 0.0, "lat": 38.9223875, "is_disabled": 0, "name": "61fc803f3123393d7fe08ed3513939ae", "fusion_lat": 0.0, "rental_uris": {"ios": "https://dc.lft.to/lastmile_qr_scan", "android": "https://dc.lft.to/lastmile_qr_scan"}, "lon": -77.03075716666666, "type": "electric_scooter"}, {"bike_id": "77c22607a87c7b33a43a090ddb26295e", "is_reserved": 0, "fusion_lon": 0.0, "lat": 38.90540333333333, "is_disabled": 0, "name": "77c22607a87c7b33a43a090ddb26295e", "fusion_lat": 0.0, "rental_uris": {"ios": "https://dc.lft.to/lastmile_qr_scan", "android": "https://dc.lft.to/lastmile_qr_scan"}, "lon": -77.00204766666667, "type": "electric_bike"}, {"bike_id": "c940dbc31ecbac90eef377d19a972cb8", "is_reserved": 0, "fusion_lon": 0.0, "lat": 38.922576666666664, "is_disabled": 0, "name": "c940dbc31ecbac90eef377d19a972cb8", "fusion_lat": 0.0, "rental_uris": {"ios": "https://dc.lft.to/lastmile_qr_scan", "android": "https://dc.lft.to/lastmile_qr_scan"}, "lon": -77.04218883333333, "type": "electric_scooter"}, {"bike_id": "98260f2fc9d9e77893b8d96e0db13efb", "is_reserved": 0, "fusion_lon": 0.0, "lat": 38.900845333333336, "is_disabled": 0, "name": "98260f2fc9d9e77893b8d96e0db13efb", "fusion_lat": 0.0, "rental_uris": {"ios": "https://dc.lft.to/lastmile_qr_scan", "android": "https://dc.lft.to/lastmile_qr_scan"}, "lon": -77.04758033333333, "type": "electric_scooter"}, {"bike_id": "2cda46d53f6a9763c5d2222e9336539e", "is_reserved": 0, "fusion_lon": 0.0, "lat": 38.91711133333333, "is_disabled": 0, "name": "2cda46d53f6a9763c5d2222e9336539e", "fusion_lat": 0.0, "rental_uris": {"ios": "https://dc.lft.to/lastmile_qr_scan", "android": "https://dc.lft.to/lastmile_qr_scan"}, "lon": -77.01211216666667, "type": "electric_scooter"}, {"bike_id": "fc9daf6d36fa5b3ff37afcfdb1c1de64", "is_reserved": 0, "fusion_lon": 0.0, "lat": 38.92946283333333, "is_disabled": 0, "name": "fc9daf6d36fa5b3ff37afcfdb1c1de64", "fusion_lat": 0.0, "rental_uris": {"ios": "https://dc.lft.to/lastmile_qr_scan", "android": "https://dc.lft.to/lastmile_qr_scan"}, "lon": -77.04397683333333, "type": "electric_scooter"}, {"bike_id": "86ef6a84132090533112b60b3cf1fefb", "is_reserved": 0, "fusion_lon": 0.0, "lat": 38.8022085, "is_disabled": 0, "name": "86ef6a84132090533112b60b3cf1fefb", "fusion_lat": 0.0, "rental_uris": {"ios": "https://dc.lft.to/lastmile_qr_scan", "android": "https://dc.lft.to/lastmile_qr_scan"}, "lon": -77.07906933333334, "type": "electric_bike"}, {"bike_id": "3dbe1143df3f87ae88ac46596364d067", "is_reserved": 0, "fusion_lon": 0.0, "lat": 38.901494666666665, "is_disabled": 0, "name": "3dbe1143df3f87ae88ac46596364d067", "fusion_lat": 0.0, "rental_uris": {"ios": "https://dc.lft.to/lastmile_qr_scan", "android": "https://dc.lft.to/lastmile_qr_scan"}, "lon": -77.033116, "type": "electric_scooter"}, {"bike_id": "66977e52f4cb1249d718014146635922", "is_reserved": 0, "fusion_lon": 0.0, "lat": 38.90684483333333, "is_disabled": 0, "name": "66977e52f4cb1249d718014146635922", "fusion_lat": 0.0, "rental_uris": {"ios": "https://dc.lft.to/lastmile_qr_scan", "android": "https://dc.lft.to/lastmile_qr_scan"}, "lon": -76.95178983333334, "type": "electric_bike"}, {"bike_id": "22fe804d3de292261fa82c5086f40589", "is_reserved": 0, "fusion_lon": 0.0, "lat": 38.93197, "is_disabled": 0, "name": "22fe804d3de292261fa82c5086f40589", "fusion_lat": 0.0, "rental_uris": {"ios": "https://dc.lft.to/lastmile_qr_scan", "android": "https://dc.lft.to/lastmile_qr_scan"}, "lon": -77.03874366666666, "type": "electric_scooter"}, {"bike_id": "5df8414c615907fba394f4faf3cf7c28", "is_reserved": 0, "fusion_lon": 0.0, "lat": 38.9588165, "is_disabled": 0, "name": "5df8414c615907fba394f4faf3cf7c28", "fusion_lat": 0.0, "rental_uris": {"ios": "https://dc.lft.to/lastmile_qr_scan", "android": "https://dc.lft.to/lastmile_qr_scan"}, "lon": -77.01030283333333, "type": "electric_bike"}, {"bike_id": "5fd17074eaee949fd13ec4d05a5e0f1c", "is_reserved": 0, "fusion_lon": 0.0, "lat": 38.9441215, "is_disabled": 0, "name": "5fd17074eaee949fd13ec4d05a5e0f1c", "fusion_lat": 0.0, "rental_uris": {"ios": "https://dc.lft.to/lastmile_qr_scan", "android": "https://dc.lft.to/lastmile_qr_scan"}, "lon": -77.05521983333334, "type": "electric_scooter"}, {"bike_id": "26ed73715de5a547b8ae2af3de935dbb", "is_reserved": 0, "fusion_lon": 0.0, "lat": 38.90466833333333, "is_disabled": 0, "name": "26ed73715de5a547b8ae2af3de935dbb", "fusion_lat": 0.0, "rental_uris": {"ios": "https://dc.lft.to/lastmile_qr_scan", "android": "https://dc.lft.to/lastmile_qr_scan"}, "lon": -77.03228683333333, "type": "electric_scooter"}, {"bike_id": "34dcc289ec9892a918936031e8a3d4f6", "is_reserved": 0, "fusion_lon": 0.0, "lat": 38.89487533333333, "is_disabled": 0, "name": "34dcc289ec9892a918936031e8a3d4f6", "fusion_lat": 0.0, "rental_uris": {"ios": "https://dc.lft.to/lastmile_qr_scan", "android": "https://dc.lft.to/lastmile_qr_scan"}, "lon": -77.0227865, "type": "electric_scooter"}, {"bike_id": "332c8cf25610c8c541911a38a4663cbb", "is_reserved": 0, "fusion_lon": 0.0, "lat": 38.924828, "is_disabled": 0, "name": "332c8cf25610c8c541911a38a4663cbb", "fusion_lat": 0.0, "rental_uris": {"ios": "https://dc.lft.to/lastmile_qr_scan", "android": "https://dc.lft.to/lastmile_qr_scan"}, "lon": -77.0270885, "type": "electric_scooter"}, {"bike_id": "ea51270482a8b3af2fe8e4cc4be5e047", "is_reserved": 0, "fusion_lon": 0.0, "lat": 38.9233055, "is_disabled": 0, "name": "ea51270482a8b3af2fe8e4cc4be5e047", "fusion_lat": 0.0, "rental_uris": {"ios": "https://dc.lft.to/lastmile_qr_scan", "android": "https://dc.lft.to/lastmile_qr_scan"}, "lon": -77.03893866666667, "type": "electric_scooter"}, {"bike_id": "f106daf53b760c7fa9c17fa70298a730", "is_reserved": 0, "fusion_lon": 0.0, "lat": 38.90298216666667, "is_disabled": 0, "name": "f106daf53b760c7fa9c17fa70298a730", "fusion_lat": 0.0, "rental_uris": {"ios": "https://dc.lft.to/lastmile_qr_scan", "android": "https://dc.lft.to/lastmile_qr_scan"}, "lon": -77.04338616666666, "type": "electric_scooter"}, {"bike_id": "20dbd3cf3a5d88f0214851d3422d8c49", "is_reserved": 0, "fusion_lon": 0.0, "lat": 38.921809, "is_disabled": 0, "name": "20dbd3cf3a5d88f0214851d3422d8c49", "fusion_lat": 0.0, "rental_uris": {"ios": "https://dc.lft.to/lastmile_qr_scan", "android": "https://dc.lft.to/lastmile_qr_scan"}, "lon": -77.04131833333334, "type": "electric_scooter"}, {"bike_id": "5873c3ffa9be4f502279aa2c0e1ae63d", "is_reserved": 0, "fusion_lon": 0.0, "lat": 38.923638833333335, "is_disabled": 0, "name": "5873c3ffa9be4f502279aa2c0e1ae63d", "fusion_lat": 0.0, "rental_uris": {"ios": "https://dc.lft.to/lastmile_qr_scan", "android": "https://dc.lft.to/lastmile_qr_scan"}, "lon": -77.05028333333334, "type": "electric_scooter"}, {"bike_id": "36a556562da8dfa872971c0b6664cd30", "is_reserved": 0, "fusion_lon": 0.0, "lat": 38.9013315, "is_disabled": 0, "name": "36a556562da8dfa872971c0b6664cd30", "fusion_lat": 0.0, "rental_uris": {"ios": "https://dc.lft.to/lastmile_qr_scan", "android": "https://dc.lft.to/lastmile_qr_scan"}, "lon": -77.04457883333333, "type": "electric_scooter"}, {"bike_id": "0ca874a6b3428fe5603377f8bb6c4751", "is_reserved": 0, "fusion_lon": 0.0, "lat": 38.9199195, "is_disabled": 0, "name": "0ca874a6b3428fe5603377f8bb6c4751", "fusion_lat": 0.0, "rental_uris": {"ios": "https://dc.lft.to/lastmile_qr_scan", "android": "https://dc.lft.to/lastmile_qr_scan"}, "lon": -77.03226766666667, "type": "electric_scooter"}, {"bike_id": "b91a3b982c0f2dbb9bab6d0fc19b4ad8", "is_reserved": 0, "fusion_lon": 0.0, "lat": 38.928469166666666, "is_disabled": 0, "name": "b91a3b982c0f2dbb9bab6d0fc19b4ad8", "fusion_lat": 0.0, "rental_uris": {"ios": "https://dc.lft.to/lastmile_qr_scan", "android": "https://dc.lft.to/lastmile_qr_scan"}, "lon": -77.05423383333333, "type": "electric_scooter"}, {"bike_id": "56cf7d993f8d49baf5e009a8075d036d", "is_reserved": 0, "fusion_lon": 0.0, "lat": 38.923313, "is_disabled": 0, "name": "56cf7d993f8d49baf5e009a8075d036d", "fusion_lat": 0.0, "rental_uris": {"ios": "https://dc.lft.to/lastmile_qr_scan", "android": "https://dc.lft.to/lastmile_qr_scan"}, "lon": -77.04483233333333, "type": "electric_scooter"}, {"bike_id": "d109d94ea67243450d7efa3411090c54", "is_reserved": 0, "fusion_lon": 0.0, "lat": 38.90080366666667, "is_disabled": 0, "name": "d109d94ea67243450d7efa3411090c54", "fusion_lat": 0.0, "rental_uris": {"ios": "https://dc.lft.to/lastmile_qr_scan", "android": "https://dc.lft.to/lastmile_qr_scan"}, "lon": -77.04903, "type": "electric_scooter"}, {"bike_id": "29f4868e2182d03573c9de11d62c282c", "is_reserved": 0, "fusion_lon": 0.0, "lat": 38.8616505, "is_disabled": 0, "name": "29f4868e2182d03573c9de11d62c282c", "fusion_lat": 0.0, "rental_uris": {"ios": "https://dc.lft.to/lastmile_qr_scan", "android": "https://dc.lft.to/lastmile_qr_scan"}, "lon": -76.9506325, "type": "electric_bike"}, {"bike_id": "e93ab1ba9d52bf6d420104037c477f29", "is_reserved": 0, "fusion_lon": 0.0, "lat": 38.90940833333333, "is_disabled": 0, "name": "e93ab1ba9d52bf6d420104037c477f29", "fusion_lat": 0.0, "rental_uris": {"ios": "https://dc.lft.to/lastmile_qr_scan", "android": "https://dc.lft.to/lastmile_qr_scan"}, "lon": -77.03858516666666, "type": "electric_scooter"}, {"bike_id": "f4c0d89ac190ac6f52039164da962d32", "is_reserved": 0, "fusion_lon": 0.0, "lat": 38.899520833333334, "is_disabled": 0, "name": "f4c0d89ac190ac6f52039164da962d32", "fusion_lat": 0.0, "rental_uris": {"ios": "https://dc.lft.to/lastmile_qr_scan", "android": "https://dc.lft.to/lastmile_qr_scan"}, "lon": -76.92628533333334, "type": "electric_scooter"}, {"bike_id": "974cbf00fca58ef8847e2a64fcbcb425", "is_reserved": 0, "fusion_lon": 0.0, "lat": 38.88771083333334, "is_disabled": 0, "name": "974cbf00fca58ef8847e2a64fcbcb425", "fusion_lat": 0.0, "rental_uris": {"ios": "https://dc.lft.to/lastmile_qr_scan", "android": "https://dc.lft.to/lastmile_qr_scan"}, "lon": -76.932634, "type": "electric_scooter"}, {"bike_id": "fbbe89e6c05d25230ed7cdea6b50b7bb", "is_reserved": 0, "fusion_lon": 0.0, "lat": 38.90329066666666, "is_disabled": 0, "name": "fbbe89e6c05d25230ed7cdea6b50b7bb", "fusion_lat": 0.0, "rental_uris": {"ios": "https://dc.lft.to/lastmile_qr_scan", "android": "https://dc.lft.to/lastmile_qr_scan"}, "lon": -77.06598233333334, "type": "electric_scooter"}, {"bike_id": "9e56355b3b6b322f4f6c2a471ac63e34", "is_reserved": 0, "fusion_lon": 0.0, "lat": 38.896690166666666, "is_disabled": 0, "name": "9e56355b3b6b322f4f6c2a471ac63e34", "fusion_lat": 0.0, "rental_uris": {"ios": "https://dc.lft.to/lastmile_qr_scan", "android": "https://dc.lft.to/lastmile_qr_scan"}, "lon": -77.0261905, "type": "electric_scooter"}, {"bike_id": "8af3d44a5ebc7d5c8934a8087f6ad478", "is_reserved": 0, "fusion_lon": 0.0, "lat": 38.8984365, "is_disabled": 0, "name": "8af3d44a5ebc7d5c8934a8087f6ad478", "fusion_lat": 0.0, "rental_uris": {"ios": "https://dc.lft.to/lastmile_qr_scan", "android": "https://dc.lft.to/lastmile_qr_scan"}, "lon": -76.995033, "type": "electric_scooter"}, {"bike_id": "396d08f5fa13b71ea8519708f0b43498", "is_reserved": 0, "fusion_lon": 0.0, "lat": 38.902589666666664, "is_disabled": 0, "name": "396d08f5fa13b71ea8519708f0b43498", "fusion_lat": 0.0, "rental_uris": {"ios": "https://dc.lft.to/lastmile_qr_scan", "android": "https://dc.lft.to/lastmile_qr_scan"}, "lon": -77.0382685, "type": "electric_scooter"}, {"bike_id": "00ebeab2b8dd0f505023bd2f4c814bf7", "is_reserved": 0, "fusion_lon": 0.0, "lat": 38.890917, "is_disabled": 0, "name": "00ebeab2b8dd0f505023bd2f4c814bf7", "fusion_lat": 0.0, "rental_uris": {"ios": "https://dc.lft.to/lastmile_qr_scan", "android": "https://dc.lft.to/lastmile_qr_scan"}, "lon": -76.94386883333334, "type": "electric_scooter"}, {"bike_id": "dcfa6d8fd8eb55315948cc48266dec4b", "is_reserved": 0, "fusion_lon": 0.0, "lat": 38.927646, "is_disabled": 0, "name": "dcfa6d8fd8eb55315948cc48266dec4b", "fusion_lat": 0.0, "rental_uris": {"ios": "https://dc.lft.to/lastmile_qr_scan", "android": "https://dc.lft.to/lastmile_qr_scan"}, "lon": -77.0324435, "type": "electric_scooter"}, {"bike_id": "ec88e7e421ccb12607b4d46046dfaa5e", "is_reserved": 0, "fusion_lon": 0.0, "lat": 38.909694333333334, "is_disabled": 0, "name": "ec88e7e421ccb12607b4d46046dfaa5e", "fusion_lat": 0.0, "rental_uris": {"ios": "https://dc.lft.to/lastmile_qr_scan", "android": "https://dc.lft.to/lastmile_qr_scan"}, "lon": -77.052681, "type": "electric_scooter"}, {"bike_id": "1d81e3f5d9a20b51b54b4b92d69abcea", "is_reserved": 0, "fusion_lon": 0.0, "lat": 38.92358383333333, "is_disabled": 0, "name": "1d81e3f5d9a20b51b54b4b92d69abcea", "fusion_lat": 0.0, "rental_uris": {"ios": "https://dc.lft.to/lastmile_qr_scan", "android": "https://dc.lft.to/lastmile_qr_scan"}, "lon": -77.0191745, "type": "electric_scooter"}, {"bike_id": "cdfcde13b8a20fdfa16c7e4a2cc482d5", "is_reserved": 0, "fusion_lon": 0.0, "lat": 38.900814833333335, "is_disabled": 0, "name": "cdfcde13b8a20fdfa16c7e4a2cc482d5", "fusion_lat": 0.0, "rental_uris": {"ios": "https://dc.lft.to/lastmile_qr_scan", "android": "https://dc.lft.to/lastmile_qr_scan"}, "lon": -76.93873066666667, "type": "electric_scooter"}, {"bike_id": "250e92be10231a78669ca7527ea6fa76", "is_reserved": 0, "fusion_lon": 0.0, "lat": 38.929690666666666, "is_disabled": 0, "name": "250e92be10231a78669ca7527ea6fa76", "fusion_lat": 0.0, "rental_uris": {"ios": "https://dc.lft.to/lastmile_qr_scan", "android": "https://dc.lft.to/lastmile_qr_scan"}, "lon": -77.00524716666666, "type": "electric_scooter"}, {"bike_id": "52d480ba314c580a7edda9f4712aedf6", "is_reserved": 0, "fusion_lon": 0.0, "lat": 38.91804716666667, "is_disabled": 0, "name": "52d480ba314c580a7edda9f4712aedf6", "fusion_lat": 0.0, "rental_uris": {"ios": "https://dc.lft.to/lastmile_qr_scan", "android": "https://dc.lft.to/lastmile_qr_scan"}, "lon": -77.03559916666667, "type": "electric_scooter"}, {"bike_id": "2402377a59b6ec0b9750d24fd3da4392", "is_reserved": 0, "fusion_lon": 0.0, "lat": 38.927706666666666, "is_disabled": 0, "name": "2402377a59b6ec0b9750d24fd3da4392", "fusion_lat": 0.0, "rental_uris": {"ios": "https://dc.lft.to/lastmile_qr_scan", "android": "https://dc.lft.to/lastmile_qr_scan"}, "lon": -77.02784266666667, "type": "electric_scooter"}, {"bike_id": "ebf31bdcf7f115fdeea63fb441fa1ad5", "is_reserved": 0, "fusion_lon": 0.0, "lat": 38.92472733333334, "is_disabled": 0, "name": "ebf31bdcf7f115fdeea63fb441fa1ad5", "fusion_lat": 0.0, "rental_uris": {"ios": "https://dc.lft.to/lastmile_qr_scan", "android": "https://dc.lft.to/lastmile_qr_scan"}, "lon": -77.05203783333333, "type": "electric_scooter"}, {"bike_id": "acf62d71530e8304fa9a87d9b4278a09", "is_reserved": 0, "fusion_lon": 0.0, "lat": 38.9315845, "is_disabled": 0, "name": "acf62d71530e8304fa9a87d9b4278a09", "fusion_lat": 0.0, "rental_uris": {"ios": "https://dc.lft.to/lastmile_qr_scan", "android": "https://dc.lft.to/lastmile_qr_scan"}, "lon": -77.05641216666666, "type": "electric_scooter"}, {"bike_id": "1debaac5c275cccafa3a49f625674d5c", "is_reserved": 0, "fusion_lon": 0.0, "lat": 38.899805, "is_disabled": 0, "name": "1debaac5c275cccafa3a49f625674d5c", "fusion_lat": 0.0, "rental_uris": {"ios": "https://dc.lft.to/lastmile_qr_scan", "android": "https://dc.lft.to/lastmile_qr_scan"}, "lon": -77.01553916666667, "type": "electric_scooter"}, {"bike_id": "9347fac157b84905f9da1c5f4ed836de", "is_reserved": 0, "fusion_lon": 0.0, "lat": 38.9098665, "is_disabled": 0, "name": "9347fac157b84905f9da1c5f4ed836de", "fusion_lat": 0.0, "rental_uris": {"ios": "https://dc.lft.to/lastmile_qr_scan", "android": "https://dc.lft.to/lastmile_qr_scan"}, "lon": -77.03449783333333, "type": "electric_scooter"}, {"bike_id": "cb5aebab696281fab51696b59b2cefa7", "is_reserved": 0, "fusion_lon": 0.0, "lat": 38.91414116666667, "is_disabled": 0, "name": "cb5aebab696281fab51696b59b2cefa7", "fusion_lat": 0.0, "rental_uris": {"ios": "https://dc.lft.to/lastmile_qr_scan", "android": "https://dc.lft.to/lastmile_qr_scan"}, "lon": -77.026774, "type": "electric_scooter"}, {"bike_id": "ccda2c8ba27f156345d5e7cef60e4e82", "is_reserved": 0, "fusion_lon": 0.0, "lat": 38.9162965, "is_disabled": 0, "name": "ccda2c8ba27f156345d5e7cef60e4e82", "fusion_lat": 0.0, "rental_uris": {"ios": "https://dc.lft.to/lastmile_qr_scan", "android": "https://dc.lft.to/lastmile_qr_scan"}, "lon": -77.03212983333333, "type": "electric_scooter"}, {"bike_id": "248b9056e2e175a6519dc0082589cbe7", "is_reserved": 0, "fusion_lon": 0.0, "lat": 38.91660533333334, "is_disabled": 0, "name": "248b9056e2e175a6519dc0082589cbe7", "fusion_lat": 0.0, "rental_uris": {"ios": "https://dc.lft.to/lastmile_qr_scan", "android": "https://dc.lft.to/lastmile_qr_scan"}, "lon": -77.00505316666667, "type": "electric_scooter"}, {"bike_id": "b1c40d8d8e0f908ead019cef086a3f20", "is_reserved": 0, "fusion_lon": 0.0, "lat": 38.91559433333333, "is_disabled": 0, "name": "b1c40d8d8e0f908ead019cef086a3f20", "fusion_lat": 0.0, "rental_uris": {"ios": "https://dc.lft.to/lastmile_qr_scan", "android": "https://dc.lft.to/lastmile_qr_scan"}, "lon": -77.039383, "type": "electric_scooter"}, {"bike_id": "b61e380bcf347fba83e16e584263e29c", "is_reserved": 0, "fusion_lon": 0.0, "lat": 38.90369583333333, "is_disabled": 0, "name": "b61e380bcf347fba83e16e584263e29c", "fusion_lat": 0.0, "rental_uris": {"ios": "https://dc.lft.to/lastmile_qr_scan", "android": "https://dc.lft.to/lastmile_qr_scan"}, "lon": -77.02990783333334, "type": "electric_scooter"}, {"bike_id": "984502bb5991cf5bb31c34e41fd494f7", "is_reserved": 0, "fusion_lon": 0.0, "lat": 38.872540666666666, "is_disabled": 0, "name": "984502bb5991cf5bb31c34e41fd494f7", "fusion_lat": 0.0, "rental_uris": {"ios": "https://dc.lft.to/lastmile_qr_scan", "android": "https://dc.lft.to/lastmile_qr_scan"}, "lon": -76.97908033333333, "type": "electric_bike"}, {"bike_id": "9d42f483a868c6ab64b48b99484604f3", "is_reserved": 0, "fusion_lon": 0.0, "lat": 38.92143883333333, "is_disabled": 0, "name": "9d42f483a868c6ab64b48b99484604f3", "fusion_lat": 0.0, "rental_uris": {"ios": "https://dc.lft.to/lastmile_qr_scan", "android": "https://dc.lft.to/lastmile_qr_scan"}, "lon": -77.03521266666667, "type": "electric_scooter"}, {"bike_id": "c9d4c1af5f288d2f49cf37efe9917a72", "is_reserved": 0, "fusion_lon": 0.0, "lat": 38.899999, "is_disabled": 0, "name": "c9d4c1af5f288d2f49cf37efe9917a72", "fusion_lat": 0.0, "rental_uris": {"ios": "https://dc.lft.to/lastmile_qr_scan", "android": "https://dc.lft.to/lastmile_qr_scan"}, "lon": -76.99778266666667, "type": "electric_scooter"}, {"bike_id": "b6de2a439a63519d6a0b425174de1cbe", "is_reserved": 0, "fusion_lon": 0.0, "lat": 38.927246833333335, "is_disabled": 0, "name": "b6de2a439a63519d6a0b425174de1cbe", "fusion_lat": 0.0, "rental_uris": {"ios": "https://dc.lft.to/lastmile_qr_scan", "android": "https://dc.lft.to/lastmile_qr_scan"}, "lon": -77.00565716666667, "type": "electric_scooter"}, {"bike_id": "d9447d96c6ba85394389d206376d92ca", "is_reserved": 0, "fusion_lon": 0.0, "lat": 38.905389, "is_disabled": 0, "name": "d9447d96c6ba85394389d206376d92ca", "fusion_lat": 0.0, "rental_uris": {"ios": "https://dc.lft.to/lastmile_qr_scan", "android": "https://dc.lft.to/lastmile_qr_scan"}, "lon": -77.0259655, "type": "electric_scooter"}, {"bike_id": "57a4e27431867eb1b3b1589718e44c65", "is_reserved": 0, "fusion_lon": 0.0, "lat": 38.898456, "is_disabled": 0, "name": "57a4e27431867eb1b3b1589718e44c65", "fusion_lat": 0.0, "rental_uris": {"ios": "https://dc.lft.to/lastmile_qr_scan", "android": "https://dc.lft.to/lastmile_qr_scan"}, "lon": -76.94478983333333, "type": "electric_scooter"}, {"bike_id": "1eefeecea116d8f10f037fd0253f482b", "is_reserved": 0, "fusion_lon": 0.0, "lat": 38.840621666666664, "is_disabled": 0, "name": "1eefeecea116d8f10f037fd0253f482b", "fusion_lat": 0.0, "rental_uris": {"ios": "https://dc.lft.to/lastmile_qr_scan", "android": "https://dc.lft.to/lastmile_qr_scan"}, "lon": -77.0640475, "type": "electric_bike"}, {"bike_id": "3b210160a4368d02f8b9daaa57281535", "is_reserved": 0, "fusion_lon": 0.0, "lat": 39.09460333333333, "is_disabled": 0, "name": "3b210160a4368d02f8b9daaa57281535", "fusion_lat": 0.0, "rental_uris": {"ios": "https://dc.lft.to/lastmile_qr_scan", "android": "https://dc.lft.to/lastmile_qr_scan"}, "lon": -77.14993816666667, "type": "electric_bike"}, {"bike_id": "497cd5feffb5b1947b5ae37ff6744bc6", "is_reserved": 0, "fusion_lon": 0.0, "lat": 38.82787533333333, "is_disabled": 0, "name": "497cd5feffb5b1947b5ae37ff6744bc6", "fusion_lat": 0.0, "rental_uris": {"ios": "https://dc.lft.to/lastmile_qr_scan", "android": "https://dc.lft.to/lastmile_qr_scan"}, "lon": -77.00905633333333, "type": "electric_bike"}, {"bike_id": "8662cf5cabdab122c3fa0f1717e1beea", "is_reserved": 0, "fusion_lon": 0.0, "lat": 38.9184095, "is_disabled": 0, "name": "8662cf5cabdab122c3fa0f1717e1beea", "fusion_lat": 0.0, "rental_uris": {"ios": "https://dc.lft.to/lastmile_qr_scan", "android": "https://dc.lft.to/lastmile_qr_scan"}, "lon": -77.0259745, "type": "electric_scooter"}, {"bike_id": "3e6d6546320edc065747774fc6a08803", "is_reserved": 0, "fusion_lon": 0.0, "lat": 38.9004975, "is_disabled": 0, "name": "3e6d6546320edc065747774fc6a08803", "fusion_lat": 0.0, "rental_uris": {"ios": "https://dc.lft.to/lastmile_qr_scan", "android": "https://dc.lft.to/lastmile_qr_scan"}, "lon": -77.031749, "type": "electric_scooter"}, {"bike_id": "1f664c9257058d39aadebfdedf6fb4fe", "is_reserved": 0, "fusion_lon": 0.0, "lat": 38.9138965, "is_disabled": 0, "name": "1f664c9257058d39aadebfdedf6fb4fe", "fusion_lat": 0.0, "rental_uris": {"ios": "https://dc.lft.to/lastmile_qr_scan", "android": "https://dc.lft.to/lastmile_qr_scan"}, "lon": -77.0460485, "type": "electric_scooter"}, {"bike_id": "06b5401e743628aae2b3ad60e0a353af", "is_reserved": 0, "fusion_lon": 0.0, "lat": 38.86424383333333, "is_disabled": 0, "name": "06b5401e743628aae2b3ad60e0a353af", "fusion_lat": 0.0, "rental_uris": {"ios": "https://dc.lft.to/lastmile_qr_scan", "android": "https://dc.lft.to/lastmile_qr_scan"}, "lon": -76.98575583333333, "type": "electric_scooter"}, {"bike_id": "345aec0be56e2fcbd412f24bedb96787", "is_reserved": 0, "fusion_lon": 0.0, "lat": 38.93365333333333, "is_disabled": 0, "name": "345aec0be56e2fcbd412f24bedb96787", "fusion_lat": 0.0, "rental_uris": {"ios": "https://dc.lft.to/lastmile_qr_scan", "android": "https://dc.lft.to/lastmile_qr_scan"}, "lon": -77.05723783333333, "type": "electric_scooter"}, {"bike_id": "35c102bd898ad0588f11f1b7ca4a5b18", "is_reserved": 0, "fusion_lon": 0.0, "lat": 38.9149665, "is_disabled": 0, "name": "35c102bd898ad0588f11f1b7ca4a5b18", "fusion_lat": 0.0, "rental_uris": {"ios": "https://dc.lft.to/lastmile_qr_scan", "android": "https://dc.lft.to/lastmile_qr_scan"}, "lon": -76.98366916666667, "type": "electric_scooter"}, {"bike_id": "d03a2969b08818cb7b96299f01dab351", "is_reserved": 0, "fusion_lon": 0.0, "lat": 38.88592633333333, "is_disabled": 0, "name": "d03a2969b08818cb7b96299f01dab351", "fusion_lat": 0.0, "rental_uris": {"ios": "https://dc.lft.to/lastmile_qr_scan", "android": "https://dc.lft.to/lastmile_qr_scan"}, "lon": -77.01765866666666, "type": "electric_scooter"}, {"bike_id": "1181e6968ae8d7367667d06dd53fb9e9", "is_reserved": 0, "fusion_lon": 0.0, "lat": 38.822603, "is_disabled": 0, "name": "1181e6968ae8d7367667d06dd53fb9e9", "fusion_lat": 0.0, "rental_uris": {"ios": "https://dc.lft.to/lastmile_qr_scan", "android": "https://dc.lft.to/lastmile_qr_scan"}, "lon": -77.0055325, "type": "electric_bike"}, {"bike_id": "e920d655f08ea17536f74d9dbcf0b287", "is_reserved": 0, "fusion_lon": 0.0, "lat": 38.910452166666666, "is_disabled": 0, "name": "e920d655f08ea17536f74d9dbcf0b287", "fusion_lat": 0.0, "rental_uris": {"ios": "https://dc.lft.to/lastmile_qr_scan", "android": "https://dc.lft.to/lastmile_qr_scan"}, "lon": -77.03581583333333, "type": "electric_scooter"}, {"bike_id": "ecbb8c52895b88e9f78b59dc9d3300e6", "is_reserved": 0, "fusion_lon": 0.0, "lat": 38.90778566666667, "is_disabled": 0, "name": "ecbb8c52895b88e9f78b59dc9d3300e6", "fusion_lat": 0.0, "rental_uris": {"ios": "https://dc.lft.to/lastmile_qr_scan", "android": "https://dc.lft.to/lastmile_qr_scan"}, "lon": -77.03822383333333, "type": "electric_scooter"}, {"bike_id": "dc64c474c2fd10de662ac3026978417b", "is_reserved": 0, "fusion_lon": 0.0, "lat": 38.89454716666667, "is_disabled": 0, "name": "dc64c474c2fd10de662ac3026978417b", "fusion_lat": 0.0, "rental_uris": {"ios": "https://dc.lft.to/lastmile_qr_scan", "android": "https://dc.lft.to/lastmile_qr_scan"}, "lon": -76.970333, "type": "electric_bike"}, {"bike_id": "35ba2893fc1da1138252eab0c4c09b91", "is_reserved": 0, "fusion_lon": 0.0, "lat": 38.930823, "is_disabled": 0, "name": "35ba2893fc1da1138252eab0c4c09b91", "fusion_lat": 0.0, "rental_uris": {"ios": "https://dc.lft.to/lastmile_qr_scan", "android": "https://dc.lft.to/lastmile_qr_scan"}, "lon": -77.03412683333333, "type": "electric_scooter"}, {"bike_id": "dbfb916663d6f5cd87cc4d4d0b9178fb", "is_reserved": 0, "fusion_lon": 0.0, "lat": 38.89351516666667, "is_disabled": 0, "name": "dbfb916663d6f5cd87cc4d4d0b9178fb", "fusion_lat": 0.0, "rental_uris": {"ios": "https://dc.lft.to/lastmile_qr_scan", "android": "https://dc.lft.to/lastmile_qr_scan"}, "lon": -77.028304, "type": "electric_scooter"}, {"bike_id": "959e7c9a20f85af292fb3543254a9fbe", "is_reserved": 0, "fusion_lon": 0.0, "lat": 38.9071245, "is_disabled": 0, "name": "959e7c9a20f85af292fb3543254a9fbe", "fusion_lat": 0.0, "rental_uris": {"ios": "https://dc.lft.to/lastmile_qr_scan", "android": "https://dc.lft.to/lastmile_qr_scan"}, "lon": -77.03227533333333, "type": "electric_scooter"}, {"bike_id": "6d64b20ea74445f608832714dcc59671", "is_reserved": 0, "fusion_lon": 0.0, "lat": 38.8997655, "is_disabled": 0, "name": "6d64b20ea74445f608832714dcc59671", "fusion_lat": 0.0, "rental_uris": {"ios": "https://dc.lft.to/lastmile_qr_scan", "android": "https://dc.lft.to/lastmile_qr_scan"}, "lon": -76.99146583333334, "type": "electric_scooter"}, {"bike_id": "b77cdc33bde91d0992589b5a8d203e27", "is_reserved": 0, "fusion_lon": 0.0, "lat": 38.906713, "is_disabled": 0, "name": "b77cdc33bde91d0992589b5a8d203e27", "fusion_lat": 0.0, "rental_uris": {"ios": "https://dc.lft.to/lastmile_qr_scan", "android": "https://dc.lft.to/lastmile_qr_scan"}, "lon": -77.037631, "type": "electric_scooter"}, {"bike_id": "af22669ce0ba093b2813ccc3dfdf8b0a", "is_reserved": 0, "fusion_lon": 0.0, "lat": 38.90369883333334, "is_disabled": 0, "name": "af22669ce0ba093b2813ccc3dfdf8b0a", "fusion_lat": 0.0, "rental_uris": {"ios": "https://dc.lft.to/lastmile_qr_scan", "android": "https://dc.lft.to/lastmile_qr_scan"}, "lon": -77.04355616666666, "type": "electric_scooter"}, {"bike_id": "b5bb2164277b9d116cbf4a2e1dfc37e8", "is_reserved": 0, "fusion_lon": 0.0, "lat": 38.90729066666667, "is_disabled": 0, "name": "b5bb2164277b9d116cbf4a2e1dfc37e8", "fusion_lat": 0.0, "rental_uris": {"ios": "https://dc.lft.to/lastmile_qr_scan", "android": "https://dc.lft.to/lastmile_qr_scan"}, "lon": -77.03210083333333, "type": "electric_scooter"}, {"bike_id": "902dbc8a9555d7ce4f3d29578897eb3e", "is_reserved": 0, "fusion_lon": 0.0, "lat": 38.9056005, "is_disabled": 0, "name": "902dbc8a9555d7ce4f3d29578897eb3e", "fusion_lat": 0.0, "rental_uris": {"ios": "https://dc.lft.to/lastmile_qr_scan", "android": "https://dc.lft.to/lastmile_qr_scan"}, "lon": -77.00599383333333, "type": "electric_scooter"}, {"bike_id": "90760e2647b27b5e5f23531c8ac66f0e", "is_reserved": 0, "fusion_lon": 0.0, "lat": 38.911013, "is_disabled": 0, "name": "90760e2647b27b5e5f23531c8ac66f0e", "fusion_lat": 0.0, "rental_uris": {"ios": "https://dc.lft.to/lastmile_qr_scan", "android": "https://dc.lft.to/lastmile_qr_scan"}, "lon": -77.00269333333334, "type": "electric_scooter"}, {"bike_id": "60c2c8c9de453272130f3c03070f12db", "is_reserved": 0, "fusion_lon": 0.0, "lat": 38.9071155, "is_disabled": 0, "name": "60c2c8c9de453272130f3c03070f12db", "fusion_lat": 0.0, "rental_uris": {"ios": "https://dc.lft.to/lastmile_qr_scan", "android": "https://dc.lft.to/lastmile_qr_scan"}, "lon": -77.03205516666667, "type": "electric_scooter"}, {"bike_id": "315a1cc323fc39cdf95d0e76877ce7f7", "is_reserved": 0, "fusion_lon": 0.0, "lat": 38.918803, "is_disabled": 0, "name": "315a1cc323fc39cdf95d0e76877ce7f7", "fusion_lat": 0.0, "rental_uris": {"ios": "https://dc.lft.to/lastmile_qr_scan", "android": "https://dc.lft.to/lastmile_qr_scan"}, "lon": -77.0352895, "type": "electric_scooter"}, {"bike_id": "22da0828fa82a46fdd2f94ba6d256de4", "is_reserved": 0, "fusion_lon": 0.0, "lat": 38.922830166666664, "is_disabled": 0, "name": "22da0828fa82a46fdd2f94ba6d256de4", "fusion_lat": 0.0, "rental_uris": {"ios": "https://dc.lft.to/lastmile_qr_scan", "android": "https://dc.lft.to/lastmile_qr_scan"}, "lon": -77.03658433333334, "type": "electric_scooter"}, {"bike_id": "fc2486b52db561bf71913d6baabaa9be", "is_reserved": 0, "fusion_lon": 0.0, "lat": 38.9266625, "is_disabled": 0, "name": "fc2486b52db561bf71913d6baabaa9be", "fusion_lat": 0.0, "rental_uris": {"ios": "https://dc.lft.to/lastmile_qr_scan", "android": "https://dc.lft.to/lastmile_qr_scan"}, "lon": -76.99532016666667, "type": "electric_scooter"}, {"bike_id": "11207c1d3c9ab3bfa2fa9b57ba9dbe2f", "is_reserved": 0, "fusion_lon": 0.0, "lat": 38.9176675, "is_disabled": 0, "name": "11207c1d3c9ab3bfa2fa9b57ba9dbe2f", "fusion_lat": 0.0, "rental_uris": {"ios": "https://dc.lft.to/lastmile_qr_scan", "android": "https://dc.lft.to/lastmile_qr_scan"}, "lon": -77.0473685, "type": "electric_scooter"}, {"bike_id": "70c2d5312beeab88a54d8e6b45285097", "is_reserved": 0, "fusion_lon": 0.0, "lat": 38.907272666666664, "is_disabled": 0, "name": "70c2d5312beeab88a54d8e6b45285097", "fusion_lat": 0.0, "rental_uris": {"ios": "https://dc.lft.to/lastmile_qr_scan", "android": "https://dc.lft.to/lastmile_qr_scan"}, "lon": -77.0294315, "type": "electric_scooter"}, {"bike_id": "bd697f411a21f9e2290082ff9c012e6d", "is_reserved": 0, "fusion_lon": 0.0, "lat": 38.876284, "is_disabled": 0, "name": "bd697f411a21f9e2290082ff9c012e6d", "fusion_lat": 0.0, "rental_uris": {"ios": "https://dc.lft.to/lastmile_qr_scan", "android": "https://dc.lft.to/lastmile_qr_scan"}, "lon": -76.96526266666666, "type": "electric_scooter"}, {"bike_id": "fd35a16aec71aa1f53db857cdc4f4b44", "is_reserved": 0, "fusion_lon": 0.0, "lat": 38.90177116666667, "is_disabled": 0, "name": "fd35a16aec71aa1f53db857cdc4f4b44", "fusion_lat": 0.0, "rental_uris": {"ios": "https://dc.lft.to/lastmile_qr_scan", "android": "https://dc.lft.to/lastmile_qr_scan"}, "lon": -76.9807315, "type": "electric_scooter"}, {"bike_id": "c272e6a90fa4f88bb69488cab6acaf34", "is_reserved": 0, "fusion_lon": 0.0, "lat": 38.96502616666667, "is_disabled": 0, "name": "c272e6a90fa4f88bb69488cab6acaf34", "fusion_lat": 0.0, "rental_uris": {"ios": "https://dc.lft.to/lastmile_qr_scan", "android": "https://dc.lft.to/lastmile_qr_scan"}, "lon": -77.028188, "type": "electric_bike"}, {"bike_id": "552f809df19adc15a2f6f7606519968f", "is_reserved": 0, "fusion_lon": 0.0, "lat": 38.893255833333335, "is_disabled": 0, "name": "552f809df19adc15a2f6f7606519968f", "fusion_lat": 0.0, "rental_uris": {"ios": "https://dc.lft.to/lastmile_qr_scan", "android": "https://dc.lft.to/lastmile_qr_scan"}, "lon": -76.92989883333334, "type": "electric_scooter"}, {"bike_id": "bf2d1be4f8b8819071be9a3a98996293", "is_reserved": 0, "fusion_lon": 0.0, "lat": 38.914010166666664, "is_disabled": 0, "name": "bf2d1be4f8b8819071be9a3a98996293", "fusion_lat": 0.0, "rental_uris": {"ios": "https://dc.lft.to/lastmile_qr_scan", "android": "https://dc.lft.to/lastmile_qr_scan"}, "lon": -77.03802566666667, "type": "electric_scooter"}, {"bike_id": "7867451003b584ed0c2644b41bf38b52", "is_reserved": 0, "fusion_lon": 0.0, "lat": 38.86356133333334, "is_disabled": 0, "name": "7867451003b584ed0c2644b41bf38b52", "fusion_lat": 0.0, "rental_uris": {"ios": "https://dc.lft.to/lastmile_qr_scan", "android": "https://dc.lft.to/lastmile_qr_scan"}, "lon": -76.99064116666666, "type": "electric_scooter"}, {"bike_id": "c4a98242c9391cabe676065258c5d6e5", "is_reserved": 0, "fusion_lon": 0.0, "lat": 38.95810183333333, "is_disabled": 0, "name": "c4a98242c9391cabe676065258c5d6e5", "fusion_lat": 0.0, "rental_uris": {"ios": "https://dc.lft.to/lastmile_qr_scan", "android": "https://dc.lft.to/lastmile_qr_scan"}, "lon": -77.01375916666667, "type": "electric_bike"}, {"bike_id": "05a5bec8596ac87674267477a932aef6", "is_reserved": 0, "fusion_lon": 0.0, "lat": 38.904505, "is_disabled": 0, "name": "05a5bec8596ac87674267477a932aef6", "fusion_lat": 0.0, "rental_uris": {"ios": "https://dc.lft.to/lastmile_qr_scan", "android": "https://dc.lft.to/lastmile_qr_scan"}, "lon": -77.059238, "type": "electric_scooter"}, {"bike_id": "be5c5b281d92ba04637945c63779854d", "is_reserved": 0, "fusion_lon": 0.0, "lat": 38.86417633333333, "is_disabled": 0, "name": "be5c5b281d92ba04637945c63779854d", "fusion_lat": 0.0, "rental_uris": {"ios": "https://dc.lft.to/lastmile_qr_scan", "android": "https://dc.lft.to/lastmile_qr_scan"}, "lon": -77.01350616666667, "type": "electric_scooter"}, {"bike_id": "71b535a9ed0870ca499277e4dc0bb565", "is_reserved": 0, "fusion_lon": 0.0, "lat": 38.957329333333334, "is_disabled": 0, "name": "71b535a9ed0870ca499277e4dc0bb565", "fusion_lat": 0.0, "rental_uris": {"ios": "https://dc.lft.to/lastmile_qr_scan", "android": "https://dc.lft.to/lastmile_qr_scan"}, "lon": -77.02418033333333, "type": "electric_scooter"}, {"bike_id": "66f7a36745e6ada3fb868fea00e7573a", "is_reserved": 0, "fusion_lon": 0.0, "lat": 38.909577666666664, "is_disabled": 0, "name": "66f7a36745e6ada3fb868fea00e7573a", "fusion_lat": 0.0, "rental_uris": {"ios": "https://dc.lft.to/lastmile_qr_scan", "android": "https://dc.lft.to/lastmile_qr_scan"}, "lon": -77.03420183333333, "type": "electric_scooter"}, {"bike_id": "9eeae5524a40a4142b2b70a1c93bfd88", "is_reserved": 0, "fusion_lon": 0.0, "lat": 38.8843645, "is_disabled": 0, "name": "9eeae5524a40a4142b2b70a1c93bfd88", "fusion_lat": 0.0, "rental_uris": {"ios": "https://dc.lft.to/lastmile_qr_scan", "android": "https://dc.lft.to/lastmile_qr_scan"}, "lon": -77.0303255, "type": "electric_scooter"}, {"bike_id": "5f96b443578f3a543fa985a17a8cb7fe", "is_reserved": 0, "fusion_lon": 0.0, "lat": 38.90172533333333, "is_disabled": 0, "name": "5f96b443578f3a543fa985a17a8cb7fe", "fusion_lat": 0.0, "rental_uris": {"ios": "https://dc.lft.to/lastmile_qr_scan", "android": "https://dc.lft.to/lastmile_qr_scan"}, "lon": -77.00006316666666, "type": "electric_scooter"}, {"bike_id": "fd6f0af3501d188b30c96be85e8ce2c1", "is_reserved": 0, "fusion_lon": 0.0, "lat": 38.902911333333336, "is_disabled": 0, "name": "fd6f0af3501d188b30c96be85e8ce2c1", "fusion_lat": 0.0, "rental_uris": {"ios": "https://dc.lft.to/lastmile_qr_scan", "android": "https://dc.lft.to/lastmile_qr_scan"}, "lon": -77.034309, "type": "electric_scooter"}, {"bike_id": "56d56015ea475009e2b9cffcf89e9b72", "is_reserved": 0, "fusion_lon": 0.0, "lat": 38.883470833333334, "is_disabled": 0, "name": "56d56015ea475009e2b9cffcf89e9b72", "fusion_lat": 0.0, "rental_uris": {"ios": "https://dc.lft.to/lastmile_qr_scan", "android": "https://dc.lft.to/lastmile_qr_scan"}, "lon": -76.98563966666667, "type": "electric_scooter"}, {"bike_id": "67861e2782bf962940368b1fc3d0757d", "is_reserved": 0, "fusion_lon": 0.0, "lat": 38.909704, "is_disabled": 0, "name": "67861e2782bf962940368b1fc3d0757d", "fusion_lat": 0.0, "rental_uris": {"ios": "https://dc.lft.to/lastmile_qr_scan", "android": "https://dc.lft.to/lastmile_qr_scan"}, "lon": -77.03861333333333, "type": "electric_scooter"}, {"bike_id": "ba3d3b0e6d62922a9df848a9d51074a5", "is_reserved": 0, "fusion_lon": 0.0, "lat": 38.92860833333334, "is_disabled": 0, "name": "ba3d3b0e6d62922a9df848a9d51074a5", "fusion_lat": 0.0, "rental_uris": {"ios": "https://dc.lft.to/lastmile_qr_scan", "android": "https://dc.lft.to/lastmile_qr_scan"}, "lon": -77.03287783333333, "type": "electric_scooter"}, {"bike_id": "c77711819707c048b0ff85338fe74503", "is_reserved": 0, "fusion_lon": 0.0, "lat": 38.90044483333333, "is_disabled": 0, "name": "c77711819707c048b0ff85338fe74503", "fusion_lat": 0.0, "rental_uris": {"ios": "https://dc.lft.to/lastmile_qr_scan", "android": "https://dc.lft.to/lastmile_qr_scan"}, "lon": -77.00211083333333, "type": "electric_scooter"}, {"bike_id": "9ee0b556036b81c5f220ff24c13c0ca8", "is_reserved": 0, "fusion_lon": 0.0, "lat": 38.90606783333333, "is_disabled": 0, "name": "9ee0b556036b81c5f220ff24c13c0ca8", "fusion_lat": 0.0, "rental_uris": {"ios": "https://dc.lft.to/lastmile_qr_scan", "android": "https://dc.lft.to/lastmile_qr_scan"}, "lon": -77.05115933333333, "type": "electric_scooter"}, {"bike_id": "5f4ad0a19c306a1f3f65875da67e1e67", "is_reserved": 0, "fusion_lon": 0.0, "lat": 38.911669833333335, "is_disabled": 0, "name": "5f4ad0a19c306a1f3f65875da67e1e67", "fusion_lat": 0.0, "rental_uris": {"ios": "https://dc.lft.to/lastmile_qr_scan", "android": "https://dc.lft.to/lastmile_qr_scan"}, "lon": -77.00283033333334, "type": "electric_bike"}, {"bike_id": "e8467320d71501a08dc095f02ff34504", "is_reserved": 0, "fusion_lon": 0.0, "lat": 38.87929916666667, "is_disabled": 0, "name": "e8467320d71501a08dc095f02ff34504", "fusion_lat": 0.0, "rental_uris": {"ios": "https://dc.lft.to/lastmile_qr_scan", "android": "https://dc.lft.to/lastmile_qr_scan"}, "lon": -77.01345383333333, "type": "electric_scooter"}, {"bike_id": "a0d473e6311a48cf16c43dd58dd2dd83", "is_reserved": 0, "fusion_lon": 0.0, "lat": 38.8773, "is_disabled": 0, "name": "a0d473e6311a48cf16c43dd58dd2dd83", "fusion_lat": 0.0, "rental_uris": {"ios": "https://dc.lft.to/lastmile_qr_scan", "android": "https://dc.lft.to/lastmile_qr_scan"}, "lon": -77.11841366666667, "type": "electric_bike"}, {"bike_id": "a56f5b819b81813eb3eaaeb991a7a734", "is_reserved": 0, "fusion_lon": 0.0, "lat": 38.9125005, "is_disabled": 0, "name": "a56f5b819b81813eb3eaaeb991a7a734", "fusion_lat": 0.0, "rental_uris": {"ios": "https://dc.lft.to/lastmile_qr_scan", "android": "https://dc.lft.to/lastmile_qr_scan"}, "lon": -77.0365005, "type": "electric_scooter"}, {"bike_id": "399466e833f5e218000b7dbfd3a4f517", "is_reserved": 0, "fusion_lon": 0.0, "lat": 38.88504966666667, "is_disabled": 0, "name": "399466e833f5e218000b7dbfd3a4f517", "fusion_lat": 0.0, "rental_uris": {"ios": "https://dc.lft.to/lastmile_qr_scan", "android": "https://dc.lft.to/lastmile_qr_scan"}, "lon": -77.005664, "type": "electric_scooter"}, {"bike_id": "b37ec8e14e905ffaacaa75be5a4001c3", "is_reserved": 0, "fusion_lon": 0.0, "lat": 38.93702316666667, "is_disabled": 0, "name": "b37ec8e14e905ffaacaa75be5a4001c3", "fusion_lat": 0.0, "rental_uris": {"ios": "https://dc.lft.to/lastmile_qr_scan", "android": "https://dc.lft.to/lastmile_qr_scan"}, "lon": -77.03259166666666, "type": "electric_scooter"}, {"bike_id": "27a3b255390fe81be860ca12a1787d36", "is_reserved": 0, "fusion_lon": 0.0, "lat": 38.93965433333334, "is_disabled": 0, "name": "27a3b255390fe81be860ca12a1787d36", "fusion_lat": 0.0, "rental_uris": {"ios": "https://dc.lft.to/lastmile_qr_scan", "android": "https://dc.lft.to/lastmile_qr_scan"}, "lon": -77.0532125, "type": "electric_scooter"}, {"bike_id": "aa1127a57f50934463cd1a1a004cdbea", "is_reserved": 0, "fusion_lon": 0.0, "lat": 38.92132683333333, "is_disabled": 0, "name": "aa1127a57f50934463cd1a1a004cdbea", "fusion_lat": 0.0, "rental_uris": {"ios": "https://dc.lft.to/lastmile_qr_scan", "android": "https://dc.lft.to/lastmile_qr_scan"}, "lon": -77.04135233333334, "type": "electric_scooter"}, {"bike_id": "ec26f1690e7276519669b92b282c3c51", "is_reserved": 0, "fusion_lon": 0.0, "lat": 38.923699, "is_disabled": 0, "name": "ec26f1690e7276519669b92b282c3c51", "fusion_lat": 0.0, "rental_uris": {"ios": "https://dc.lft.to/lastmile_qr_scan", "android": "https://dc.lft.to/lastmile_qr_scan"}, "lon": -77.0517515, "type": "electric_scooter"}, {"bike_id": "04c36224e000de7b31c159a370051fec", "is_reserved": 0, "fusion_lon": 0.0, "lat": 38.922358833333334, "is_disabled": 0, "name": "04c36224e000de7b31c159a370051fec", "fusion_lat": 0.0, "rental_uris": {"ios": "https://dc.lft.to/lastmile_qr_scan", "android": "https://dc.lft.to/lastmile_qr_scan"}, "lon": -77.03086316666666, "type": "electric_scooter"}, {"bike_id": "71b4032f6d97f61e71b26c1403accf93", "is_reserved": 0, "fusion_lon": 0.0, "lat": 38.90804583333333, "is_disabled": 0, "name": "71b4032f6d97f61e71b26c1403accf93", "fusion_lat": 0.0, "rental_uris": {"ios": "https://dc.lft.to/lastmile_qr_scan", "android": "https://dc.lft.to/lastmile_qr_scan"}, "lon": -77.03441183333334, "type": "electric_scooter"}, {"bike_id": "473d172cf316e66754f8e02f0b084b29", "is_reserved": 0, "fusion_lon": 0.0, "lat": 38.8832575, "is_disabled": 0, "name": "473d172cf316e66754f8e02f0b084b29", "fusion_lat": 0.0, "rental_uris": {"ios": "https://dc.lft.to/lastmile_qr_scan", "android": "https://dc.lft.to/lastmile_qr_scan"}, "lon": -77.01756666666667, "type": "electric_scooter"}, {"bike_id": "bf9f9727c90ac50a900a6051d4f4860b", "is_reserved": 0, "fusion_lon": 0.0, "lat": 38.93110166666666, "is_disabled": 0, "name": "bf9f9727c90ac50a900a6051d4f4860b", "fusion_lat": 0.0, "rental_uris": {"ios": "https://dc.lft.to/lastmile_qr_scan", "android": "https://dc.lft.to/lastmile_qr_scan"}, "lon": -77.02095033333333, "type": "electric_scooter"}, {"bike_id": "816644d1ebbaecfbb9bfa394d9fe6182", "is_reserved": 0, "fusion_lon": 0.0, "lat": 38.90568283333333, "is_disabled": 0, "name": "816644d1ebbaecfbb9bfa394d9fe6182", "fusion_lat": 0.0, "rental_uris": {"ios": "https://dc.lft.to/lastmile_qr_scan", "android": "https://dc.lft.to/lastmile_qr_scan"}, "lon": -77.0247665, "type": "electric_scooter"}, {"bike_id": "beb7ef642963ca7f85edfe886f9f063c", "is_reserved": 0, "fusion_lon": 0.0, "lat": 38.908997, "is_disabled": 0, "name": "beb7ef642963ca7f85edfe886f9f063c", "fusion_lat": 0.0, "rental_uris": {"ios": "https://dc.lft.to/lastmile_qr_scan", "android": "https://dc.lft.to/lastmile_qr_scan"}, "lon": -77.02679933333333, "type": "electric_scooter"}, {"bike_id": "01ee00524face6621e58cff55093c555", "is_reserved": 0, "fusion_lon": 0.0, "lat": 38.912779, "is_disabled": 0, "name": "01ee00524face6621e58cff55093c555", "fusion_lat": 0.0, "rental_uris": {"ios": "https://dc.lft.to/lastmile_qr_scan", "android": "https://dc.lft.to/lastmile_qr_scan"}, "lon": -77.0229345, "type": "electric_scooter"}, {"bike_id": "92621d2e711bbc9de5e5f3d911be763a", "is_reserved": 0, "fusion_lon": 0.0, "lat": 38.9187765, "is_disabled": 0, "name": "92621d2e711bbc9de5e5f3d911be763a", "fusion_lat": 0.0, "rental_uris": {"ios": "https://dc.lft.to/lastmile_qr_scan", "android": "https://dc.lft.to/lastmile_qr_scan"}, "lon": -76.9713935, "type": "electric_scooter"}, {"bike_id": "d01e13ec8ef5a5ced79daed95c3c8126", "is_reserved": 0, "fusion_lon": 0.0, "lat": 38.894986333333335, "is_disabled": 0, "name": "d01e13ec8ef5a5ced79daed95c3c8126", "fusion_lat": 0.0, "rental_uris": {"ios": "https://dc.lft.to/lastmile_qr_scan", "android": "https://dc.lft.to/lastmile_qr_scan"}, "lon": -77.02197366666667, "type": "electric_scooter"}, {"bike_id": "17bdc1e2bf696f5ee219c8ca94eb0c93", "is_reserved": 0, "fusion_lon": 0.0, "lat": 38.9149365, "is_disabled": 0, "name": "17bdc1e2bf696f5ee219c8ca94eb0c93", "fusion_lat": 0.0, "rental_uris": {"ios": "https://dc.lft.to/lastmile_qr_scan", "android": "https://dc.lft.to/lastmile_qr_scan"}, "lon": -77.02694083333333, "type": "electric_scooter"}, {"bike_id": "dc7657c3cfe02f7f6d54d184fe85cba9", "is_reserved": 0, "fusion_lon": 0.0, "lat": 38.89941983333333, "is_disabled": 0, "name": "dc7657c3cfe02f7f6d54d184fe85cba9", "fusion_lat": 0.0, "rental_uris": {"ios": "https://dc.lft.to/lastmile_qr_scan", "android": "https://dc.lft.to/lastmile_qr_scan"}, "lon": -77.05422833333333, "type": "electric_scooter"}, {"bike_id": "380ca2f8094676c68d094fbbfee9a944", "is_reserved": 0, "fusion_lon": 0.0, "lat": 38.94610016666667, "is_disabled": 0, "name": "380ca2f8094676c68d094fbbfee9a944", "fusion_lat": 0.0, "rental_uris": {"ios": "https://dc.lft.to/lastmile_qr_scan", "android": "https://dc.lft.to/lastmile_qr_scan"}, "lon": -77.03507283333333, "type": "electric_scooter"}, {"bike_id": "e7a177ca51d65767f0e4e19793a078c1", "is_reserved": 0, "fusion_lon": 0.0, "lat": 38.94924916666667, "is_disabled": 0, "name": "e7a177ca51d65767f0e4e19793a078c1", "fusion_lat": 0.0, "rental_uris": {"ios": "https://dc.lft.to/lastmile_qr_scan", "android": "https://dc.lft.to/lastmile_qr_scan"}, "lon": -77.01934033333333, "type": "electric_scooter"}, {"bike_id": "086be20a32b239523a2c63c3733f898e", "is_reserved": 0, "fusion_lon": 0.0, "lat": 38.94318116666667, "is_disabled": 0, "name": "086be20a32b239523a2c63c3733f898e", "fusion_lat": 0.0, "rental_uris": {"ios": "https://dc.lft.to/lastmile_qr_scan", "android": "https://dc.lft.to/lastmile_qr_scan"}, "lon": -77.07384433333333, "type": "electric_scooter"}, {"bike_id": "cdc4b4afd1f4348051500999fcc7084c", "is_reserved": 0, "fusion_lon": 0.0, "lat": 38.909809333333335, "is_disabled": 0, "name": "cdc4b4afd1f4348051500999fcc7084c", "fusion_lat": 0.0, "rental_uris": {"ios": "https://dc.lft.to/lastmile_qr_scan", "android": "https://dc.lft.to/lastmile_qr_scan"}, "lon": -77.06711716666666, "type": "electric_scooter"}, {"bike_id": "beeaff7e58f4705ae855bd79846c9ea3", "is_reserved": 0, "fusion_lon": 0.0, "lat": 38.90389116666667, "is_disabled": 0, "name": "beeaff7e58f4705ae855bd79846c9ea3", "fusion_lat": 0.0, "rental_uris": {"ios": "https://dc.lft.to/lastmile_qr_scan", "android": "https://dc.lft.to/lastmile_qr_scan"}, "lon": -77.01080883333333, "type": "electric_scooter"}, {"bike_id": "aadb8fd18f0ea18f400c61219b1111dd", "is_reserved": 0, "fusion_lon": 0.0, "lat": 38.928978666666666, "is_disabled": 0, "name": "aadb8fd18f0ea18f400c61219b1111dd", "fusion_lat": 0.0, "rental_uris": {"ios": "https://dc.lft.to/lastmile_qr_scan", "android": "https://dc.lft.to/lastmile_qr_scan"}, "lon": -77.054529, "type": "electric_scooter"}, {"bike_id": "de4df83cb7a9ed07ff1e8dfe55710109", "is_reserved": 0, "fusion_lon": 0.0, "lat": 38.9981715, "is_disabled": 0, "name": "de4df83cb7a9ed07ff1e8dfe55710109", "fusion_lat": 0.0, "rental_uris": {"ios": "https://dc.lft.to/lastmile_qr_scan", "android": "https://dc.lft.to/lastmile_qr_scan"}, "lon": -76.8837025, "type": "electric_bike"}, {"bike_id": "6f0756d1e871a638469fb04d90e286b8", "is_reserved": 0, "fusion_lon": 0.0, "lat": 38.921422666666665, "is_disabled": 0, "name": "6f0756d1e871a638469fb04d90e286b8", "fusion_lat": 0.0, "rental_uris": {"ios": "https://dc.lft.to/lastmile_qr_scan", "android": "https://dc.lft.to/lastmile_qr_scan"}, "lon": -77.03480483333334, "type": "electric_scooter"}, {"bike_id": "4b77668c7506c3dfcca2bc7f4e84855d", "is_reserved": 0, "fusion_lon": 0.0, "lat": 38.9055335, "is_disabled": 0, "name": "4b77668c7506c3dfcca2bc7f4e84855d", "fusion_lat": 0.0, "rental_uris": {"ios": "https://dc.lft.to/lastmile_qr_scan", "android": "https://dc.lft.to/lastmile_qr_scan"}, "lon": -77.00600916666667, "type": "electric_scooter"}, {"bike_id": "f3037375f0ce3162fc8f67f928a7222a", "is_reserved": 0, "fusion_lon": 0.0, "lat": 38.90337483333333, "is_disabled": 0, "name": "f3037375f0ce3162fc8f67f928a7222a", "fusion_lat": 0.0, "rental_uris": {"ios": "https://dc.lft.to/lastmile_qr_scan", "android": "https://dc.lft.to/lastmile_qr_scan"}, "lon": -77.066453, "type": "electric_scooter"}, {"bike_id": "7f7a1d4b4fd1671b610b3d63f8845626", "is_reserved": 0, "fusion_lon": 0.0, "lat": 38.807434, "is_disabled": 0, "name": "7f7a1d4b4fd1671b610b3d63f8845626", "fusion_lat": 0.0, "rental_uris": {"ios": "https://dc.lft.to/lastmile_qr_scan", "android": "https://dc.lft.to/lastmile_qr_scan"}, "lon": -77.09422616666667, "type": "electric_bike"}, {"bike_id": "0ad0fa20314f1fe0071991ad023710fd", "is_reserved": 0, "fusion_lon": 0.0, "lat": 38.86384916666667, "is_disabled": 0, "name": "0ad0fa20314f1fe0071991ad023710fd", "fusion_lat": 0.0, "rental_uris": {"ios": "https://dc.lft.to/lastmile_qr_scan", "android": "https://dc.lft.to/lastmile_qr_scan"}, "lon": -76.98989966666667, "type": "electric_bike"}, {"bike_id": "95753140fccc04ba2c1e7ebac52a1951", "is_reserved": 0, "fusion_lon": 0.0, "lat": 38.9417225, "is_disabled": 0, "name": "95753140fccc04ba2c1e7ebac52a1951", "fusion_lat": 0.0, "rental_uris": {"ios": "https://dc.lft.to/lastmile_qr_scan", "android": "https://dc.lft.to/lastmile_qr_scan"}, "lon": -77.0413285, "type": "electric_scooter"}, {"bike_id": "bb310e9d5ea9cf7049f9915df1dc373a", "is_reserved": 0, "fusion_lon": 0.0, "lat": 38.957359, "is_disabled": 0, "name": "bb310e9d5ea9cf7049f9915df1dc373a", "fusion_lat": 0.0, "rental_uris": {"ios": "https://dc.lft.to/lastmile_qr_scan", "android": "https://dc.lft.to/lastmile_qr_scan"}, "lon": -76.98016433333333, "type": "electric_bike"}, {"bike_id": "283827ceb89205a32ad97759d210fad9", "is_reserved": 0, "fusion_lon": 0.0, "lat": 38.9167895, "is_disabled": 0, "name": "283827ceb89205a32ad97759d210fad9", "fusion_lat": 0.0, "rental_uris": {"ios": "https://dc.lft.to/lastmile_qr_scan", "android": "https://dc.lft.to/lastmile_qr_scan"}, "lon": -77.01216166666667, "type": "electric_scooter"}, {"bike_id": "16157412965e3f28e2765295bb16af72", "is_reserved": 0, "fusion_lon": 0.0, "lat": 38.89875, "is_disabled": 0, "name": "16157412965e3f28e2765295bb16af72", "fusion_lat": 0.0, "rental_uris": {"ios": "https://dc.lft.to/lastmile_qr_scan", "android": "https://dc.lft.to/lastmile_qr_scan"}, "lon": -76.9315895, "type": "electric_scooter"}, {"bike_id": "e77940fb97df7edbd9c48df10bcfe10c", "is_reserved": 0, "fusion_lon": 0.0, "lat": 38.923446166666665, "is_disabled": 0, "name": "e77940fb97df7edbd9c48df10bcfe10c", "fusion_lat": 0.0, "rental_uris": {"ios": "https://dc.lft.to/lastmile_qr_scan", "android": "https://dc.lft.to/lastmile_qr_scan"}, "lon": -77.01901816666667, "type": "electric_scooter"}, {"bike_id": "4da2ee05609b5105a6e1fb5e6f8a49da", "is_reserved": 0, "fusion_lon": 0.0, "lat": 38.957813333333334, "is_disabled": 0, "name": "4da2ee05609b5105a6e1fb5e6f8a49da", "fusion_lat": 0.0, "rental_uris": {"ios": "https://dc.lft.to/lastmile_qr_scan", "android": "https://dc.lft.to/lastmile_qr_scan"}, "lon": -77.02752333333333, "type": "electric_bike"}, {"bike_id": "4224af795e37921d142ba5eaa00a24ad", "is_reserved": 0, "fusion_lon": 0.0, "lat": 38.923249166666665, "is_disabled": 0, "name": "4224af795e37921d142ba5eaa00a24ad", "fusion_lat": 0.0, "rental_uris": {"ios": "https://dc.lft.to/lastmile_qr_scan", "android": "https://dc.lft.to/lastmile_qr_scan"}, "lon": -77.0438405, "type": "electric_scooter"}, {"bike_id": "9b7dc36252a3e8a237ae763588260a33", "is_reserved": 0, "fusion_lon": 0.0, "lat": 38.9206855, "is_disabled": 0, "name": "9b7dc36252a3e8a237ae763588260a33", "fusion_lat": 0.0, "rental_uris": {"ios": "https://dc.lft.to/lastmile_qr_scan", "android": "https://dc.lft.to/lastmile_qr_scan"}, "lon": -76.977952, "type": "electric_scooter"}, {"bike_id": "8d07725e2eb07fe18746070872e511b2", "is_reserved": 0, "fusion_lon": 0.0, "lat": 38.905893, "is_disabled": 0, "name": "8d07725e2eb07fe18746070872e511b2", "fusion_lat": 0.0, "rental_uris": {"ios": "https://dc.lft.to/lastmile_qr_scan", "android": "https://dc.lft.to/lastmile_qr_scan"}, "lon": -77.06517016666666, "type": "electric_scooter"}, {"bike_id": "1ae9105824b5d115127285979393aff4", "is_reserved": 0, "fusion_lon": 0.0, "lat": 38.92046333333333, "is_disabled": 0, "name": "1ae9105824b5d115127285979393aff4", "fusion_lat": 0.0, "rental_uris": {"ios": "https://dc.lft.to/lastmile_qr_scan", "android": "https://dc.lft.to/lastmile_qr_scan"}, "lon": -77.03385416666667, "type": "electric_scooter"}, {"bike_id": "c4de1e58ace3385724ae95778bce84d2", "is_reserved": 0, "fusion_lon": 0.0, "lat": 38.91117716666667, "is_disabled": 0, "name": "c4de1e58ace3385724ae95778bce84d2", "fusion_lat": 0.0, "rental_uris": {"ios": "https://dc.lft.to/lastmile_qr_scan", "android": "https://dc.lft.to/lastmile_qr_scan"}, "lon": -77.0465645, "type": "electric_scooter"}, {"bike_id": "6c8f7aa3cf32d3b55acf58f78ba16286", "is_reserved": 0, "fusion_lon": 0.0, "lat": 38.9051695, "is_disabled": 0, "name": "6c8f7aa3cf32d3b55acf58f78ba16286", "fusion_lat": 0.0, "rental_uris": {"ios": "https://dc.lft.to/lastmile_qr_scan", "android": "https://dc.lft.to/lastmile_qr_scan"}, "lon": -77.06381216666666, "type": "electric_scooter"}, {"bike_id": "8bb1c4c1b5c9ade2593126a5477101f4", "is_reserved": 0, "fusion_lon": 0.0, "lat": 38.920573833333336, "is_disabled": 0, "name": "8bb1c4c1b5c9ade2593126a5477101f4", "fusion_lat": 0.0, "rental_uris": {"ios": "https://dc.lft.to/lastmile_qr_scan", "android": "https://dc.lft.to/lastmile_qr_scan"}, "lon": -77.03308983333334, "type": "electric_bike"}, {"bike_id": "bcb3e078f32383fca77eee03cf162325", "is_reserved": 0, "fusion_lon": 0.0, "lat": 38.905719500000004, "is_disabled": 0, "name": "bcb3e078f32383fca77eee03cf162325", "fusion_lat": 0.0, "rental_uris": {"ios": "https://dc.lft.to/lastmile_qr_scan", "android": "https://dc.lft.to/lastmile_qr_scan"}, "lon": -77.03621783333334, "type": "electric_scooter"}, {"bike_id": "266931c2e2e1f9e6a37402c8c1154035", "is_reserved": 0, "fusion_lon": 0.0, "lat": 38.92314916666667, "is_disabled": 0, "name": "266931c2e2e1f9e6a37402c8c1154035", "fusion_lat": 0.0, "rental_uris": {"ios": "https://dc.lft.to/lastmile_qr_scan", "android": "https://dc.lft.to/lastmile_qr_scan"}, "lon": -77.038623, "type": "electric_scooter"}, {"bike_id": "400ae23656b440a82b01bc15ded043fc", "is_reserved": 0, "fusion_lon": 0.0, "lat": 38.919748166666665, "is_disabled": 0, "name": "400ae23656b440a82b01bc15ded043fc", "fusion_lat": 0.0, "rental_uris": {"ios": "https://dc.lft.to/lastmile_qr_scan", "android": "https://dc.lft.to/lastmile_qr_scan"}, "lon": -77.0010695, "type": "electric_scooter"}, {"bike_id": "6b76cbf56d64880ead6cf36d7f4d5107", "is_reserved": 0, "fusion_lon": 0.0, "lat": 38.89662916666666, "is_disabled": 0, "name": "6b76cbf56d64880ead6cf36d7f4d5107", "fusion_lat": 0.0, "rental_uris": {"ios": "https://dc.lft.to/lastmile_qr_scan", "android": "https://dc.lft.to/lastmile_qr_scan"}, "lon": -77.02939666666667, "type": "electric_scooter"}, {"bike_id": "cf421ca0978be5e236c3eedf041a451d", "is_reserved": 0, "fusion_lon": 0.0, "lat": 38.892358, "is_disabled": 0, "name": "cf421ca0978be5e236c3eedf041a451d", "fusion_lat": 0.0, "rental_uris": {"ios": "https://dc.lft.to/lastmile_qr_scan", "android": "https://dc.lft.to/lastmile_qr_scan"}, "lon": -77.02794816666666, "type": "electric_scooter"}, {"bike_id": "6e6f61a26d86a15f62c0a93c93b1a362", "is_reserved": 0, "fusion_lon": 0.0, "lat": 38.883574833333334, "is_disabled": 0, "name": "6e6f61a26d86a15f62c0a93c93b1a362", "fusion_lat": 0.0, "rental_uris": {"ios": "https://dc.lft.to/lastmile_qr_scan", "android": "https://dc.lft.to/lastmile_qr_scan"}, "lon": -77.03168416666666, "type": "electric_scooter"}, {"bike_id": "5906079f7e43aa8e4e16e85b83a08747", "is_reserved": 0, "fusion_lon": 0.0, "lat": 38.921582666666666, "is_disabled": 0, "name": "5906079f7e43aa8e4e16e85b83a08747", "fusion_lat": 0.0, "rental_uris": {"ios": "https://dc.lft.to/lastmile_qr_scan", "android": "https://dc.lft.to/lastmile_qr_scan"}, "lon": -77.03376466666667, "type": "electric_scooter"}, {"bike_id": "74ac1ab2585ef33664fa7a68b0d9b3e8", "is_reserved": 0, "fusion_lon": 0.0, "lat": 38.9261865, "is_disabled": 0, "name": "74ac1ab2585ef33664fa7a68b0d9b3e8", "fusion_lat": 0.0, "rental_uris": {"ios": "https://dc.lft.to/lastmile_qr_scan", "android": "https://dc.lft.to/lastmile_qr_scan"}, "lon": -77.04412816666667, "type": "electric_scooter"}, {"bike_id": "24959ea4a8e19e3b54e258079819d74b", "is_reserved": 0, "fusion_lon": 0.0, "lat": 38.892313, "is_disabled": 0, "name": "24959ea4a8e19e3b54e258079819d74b", "fusion_lat": 0.0, "rental_uris": {"ios": "https://dc.lft.to/lastmile_qr_scan", "android": "https://dc.lft.to/lastmile_qr_scan"}, "lon": -77.04998766666667, "type": "electric_scooter"}, {"bike_id": "5b8b6aba33e559467d2e36c497cf6362", "is_reserved": 0, "fusion_lon": 0.0, "lat": 38.935274666666665, "is_disabled": 0, "name": "5b8b6aba33e559467d2e36c497cf6362", "fusion_lat": 0.0, "rental_uris": {"ios": "https://dc.lft.to/lastmile_qr_scan", "android": "https://dc.lft.to/lastmile_qr_scan"}, "lon": -77.02853683333333, "type": "electric_scooter"}, {"bike_id": "e1f1ade3b0c9d3dfe998a01308d072fd", "is_reserved": 0, "fusion_lon": 0.0, "lat": 38.89762833333333, "is_disabled": 0, "name": "e1f1ade3b0c9d3dfe998a01308d072fd", "fusion_lat": 0.0, "rental_uris": {"ios": "https://dc.lft.to/lastmile_qr_scan", "android": "https://dc.lft.to/lastmile_qr_scan"}, "lon": -76.93914166666667, "type": "electric_scooter"}, {"bike_id": "66c9a0ed893e79cc17bbe206b0821bc5", "is_reserved": 0, "fusion_lon": 0.0, "lat": 38.925920833333336, "is_disabled": 0, "name": "66c9a0ed893e79cc17bbe206b0821bc5", "fusion_lat": 0.0, "rental_uris": {"ios": "https://dc.lft.to/lastmile_qr_scan", "android": "https://dc.lft.to/lastmile_qr_scan"}, "lon": -77.00483316666667, "type": "electric_scooter"}, {"bike_id": "e17013213838188cf7240cbb4f9982f6", "is_reserved": 0, "fusion_lon": 0.0, "lat": 38.908470333333334, "is_disabled": 0, "name": "e17013213838188cf7240cbb4f9982f6", "fusion_lat": 0.0, "rental_uris": {"ios": "https://dc.lft.to/lastmile_qr_scan", "android": "https://dc.lft.to/lastmile_qr_scan"}, "lon": -77.0852425, "type": "electric_scooter"}, {"bike_id": "cb6eb248a7553d7415e99f2d48643e1e", "is_reserved": 0, "fusion_lon": 0.0, "lat": 38.946003, "is_disabled": 0, "name": "cb6eb248a7553d7415e99f2d48643e1e", "fusion_lat": 0.0, "rental_uris": {"ios": "https://dc.lft.to/lastmile_qr_scan", "android": "https://dc.lft.to/lastmile_qr_scan"}, "lon": -77.0297965, "type": "electric_scooter"}, {"bike_id": "dd6f8c70ca0f9c697c16a6d213a766ae", "is_reserved": 0, "fusion_lon": 0.0, "lat": 38.8543695, "is_disabled": 0, "name": "dd6f8c70ca0f9c697c16a6d213a766ae", "fusion_lat": 0.0, "rental_uris": {"ios": "https://dc.lft.to/lastmile_qr_scan", "android": "https://dc.lft.to/lastmile_qr_scan"}, "lon": -76.90979683333333, "type": "electric_bike"}, {"bike_id": "b99e8299935b10c32d4ad9c96f1fbe17", "is_reserved": 0, "fusion_lon": 0.0, "lat": 38.892202, "is_disabled": 0, "name": "b99e8299935b10c32d4ad9c96f1fbe17", "fusion_lat": 0.0, "rental_uris": {"ios": "https://dc.lft.to/lastmile_qr_scan", "android": "https://dc.lft.to/lastmile_qr_scan"}, "lon": -77.0485945, "type": "electric_scooter"}, {"bike_id": "2ee1f6a2933dbe478f1d8ec63943a6db", "is_reserved": 0, "fusion_lon": 0.0, "lat": 38.886104333333336, "is_disabled": 0, "name": "2ee1f6a2933dbe478f1d8ec63943a6db", "fusion_lat": 0.0, "rental_uris": {"ios": "https://dc.lft.to/lastmile_qr_scan", "android": "https://dc.lft.to/lastmile_qr_scan"}, "lon": -77.005718, "type": "electric_scooter"}, {"bike_id": "a9b19c5d29c91d215fd9b39cfc48f5b2", "is_reserved": 0, "fusion_lon": 0.0, "lat": 38.914365, "is_disabled": 0, "name": "a9b19c5d29c91d215fd9b39cfc48f5b2", "fusion_lat": 0.0, "rental_uris": {"ios": "https://dc.lft.to/lastmile_qr_scan", "android": "https://dc.lft.to/lastmile_qr_scan"}, "lon": -77.03460833333334, "type": "electric_scooter"}, {"bike_id": "40c45e90866004dc471ba87abb0d9807", "is_reserved": 0, "fusion_lon": 0.0, "lat": 38.91195233333333, "is_disabled": 0, "name": "40c45e90866004dc471ba87abb0d9807", "fusion_lat": 0.0, "rental_uris": {"ios": "https://dc.lft.to/lastmile_qr_scan", "android": "https://dc.lft.to/lastmile_qr_scan"}, "lon": -77.06093133333333, "type": "electric_scooter"}, {"bike_id": "6d4adecb4537ef9a739691984ed9b8fc", "is_reserved": 0, "fusion_lon": 0.0, "lat": 38.84424716666667, "is_disabled": 0, "name": "6d4adecb4537ef9a739691984ed9b8fc", "fusion_lat": 0.0, "rental_uris": {"ios": "https://dc.lft.to/lastmile_qr_scan", "android": "https://dc.lft.to/lastmile_qr_scan"}, "lon": -76.99776433333334, "type": "electric_scooter"}, {"bike_id": "fdfcc5c4bda57843a88305faebe49bec", "is_reserved": 0, "fusion_lon": 0.0, "lat": 38.897995, "is_disabled": 0, "name": "fdfcc5c4bda57843a88305faebe49bec", "fusion_lat": 0.0, "rental_uris": {"ios": "https://dc.lft.to/lastmile_qr_scan", "android": "https://dc.lft.to/lastmile_qr_scan"}, "lon": -76.9916665, "type": "electric_scooter"}, {"bike_id": "a14d775996e4f1fe70973da7f92d8956", "is_reserved": 0, "fusion_lon": 0.0, "lat": 38.934926833333336, "is_disabled": 0, "name": "a14d775996e4f1fe70973da7f92d8956", "fusion_lat": 0.0, "rental_uris": {"ios": "https://dc.lft.to/lastmile_qr_scan", "android": "https://dc.lft.to/lastmile_qr_scan"}, "lon": -77.02844183333333, "type": "electric_scooter"}, {"bike_id": "f0a31d36028f62cb541e8f9dbf99c5c3", "is_reserved": 0, "fusion_lon": 0.0, "lat": 38.911898666666666, "is_disabled": 0, "name": "f0a31d36028f62cb541e8f9dbf99c5c3", "fusion_lat": 0.0, "rental_uris": {"ios": "https://dc.lft.to/lastmile_qr_scan", "android": "https://dc.lft.to/lastmile_qr_scan"}, "lon": -77.04543816666667, "type": "electric_scooter"}, {"bike_id": "7ffee3f763242298bc86fe89377c3e54", "is_reserved": 0, "fusion_lon": 0.0, "lat": 38.903087666666664, "is_disabled": 0, "name": "7ffee3f763242298bc86fe89377c3e54", "fusion_lat": 0.0, "rental_uris": {"ios": "https://dc.lft.to/lastmile_qr_scan", "android": "https://dc.lft.to/lastmile_qr_scan"}, "lon": -77.0330615, "type": "electric_scooter"}, {"bike_id": "fb57f71b48cfd2afcda49df20beb5509", "is_reserved": 0, "fusion_lon": 0.0, "lat": 38.90020333333333, "is_disabled": 0, "name": "fb57f71b48cfd2afcda49df20beb5509", "fusion_lat": 0.0, "rental_uris": {"ios": "https://dc.lft.to/lastmile_qr_scan", "android": "https://dc.lft.to/lastmile_qr_scan"}, "lon": -76.99525516666667, "type": "electric_scooter"}, {"bike_id": "7d99b0de5eb362fa9b5377ae753cca75", "is_reserved": 0, "fusion_lon": 0.0, "lat": 38.81048083333334, "is_disabled": 0, "name": "7d99b0de5eb362fa9b5377ae753cca75", "fusion_lat": 0.0, "rental_uris": {"ios": "https://dc.lft.to/lastmile_qr_scan", "android": "https://dc.lft.to/lastmile_qr_scan"}, "lon": -77.0850795, "type": "electric_bike"}, {"bike_id": "14187e376feaacad7e868323d34594aa", "is_reserved": 0, "fusion_lon": 0.0, "lat": 38.9255455, "is_disabled": 0, "name": "14187e376feaacad7e868323d34594aa", "fusion_lat": 0.0, "rental_uris": {"ios": "https://dc.lft.to/lastmile_qr_scan", "android": "https://dc.lft.to/lastmile_qr_scan"}, "lon": -77.0013905, "type": "electric_bike"}, {"bike_id": "cebd485caa9872b05284293453d68ddb", "is_reserved": 0, "fusion_lon": 0.0, "lat": 38.903361, "is_disabled": 0, "name": "cebd485caa9872b05284293453d68ddb", "fusion_lat": 0.0, "rental_uris": {"ios": "https://dc.lft.to/lastmile_qr_scan", "android": "https://dc.lft.to/lastmile_qr_scan"}, "lon": -77.038418, "type": "electric_scooter"}, {"bike_id": "1bcff98849bbae683c305b42ff9e7e0e", "is_reserved": 0, "fusion_lon": 0.0, "lat": 38.90533533333333, "is_disabled": 0, "name": "1bcff98849bbae683c305b42ff9e7e0e", "fusion_lat": 0.0, "rental_uris": {"ios": "https://dc.lft.to/lastmile_qr_scan", "android": "https://dc.lft.to/lastmile_qr_scan"}, "lon": -77.005791, "type": "electric_scooter"}, {"bike_id": "222900618b88a50da9b7e065a922f87f", "is_reserved": 0, "fusion_lon": 0.0, "lat": 38.95529533333333, "is_disabled": 0, "name": "222900618b88a50da9b7e065a922f87f", "fusion_lat": 0.0, "rental_uris": {"ios": "https://dc.lft.to/lastmile_qr_scan", "android": "https://dc.lft.to/lastmile_qr_scan"}, "lon": -77.02412466666667, "type": "electric_bike"}, {"bike_id": "253f8c40e4ac682bb393f70a9a0d64b2", "is_reserved": 0, "fusion_lon": 0.0, "lat": 38.94949666666667, "is_disabled": 0, "name": "253f8c40e4ac682bb393f70a9a0d64b2", "fusion_lat": 0.0, "rental_uris": {"ios": "https://dc.lft.to/lastmile_qr_scan", "android": "https://dc.lft.to/lastmile_qr_scan"}, "lon": -77.01613483333334, "type": "electric_scooter"}, {"bike_id": "18d573edfb219d8aa7c67bd0ffc25192", "is_reserved": 0, "fusion_lon": 0.0, "lat": 38.9021495, "is_disabled": 0, "name": "18d573edfb219d8aa7c67bd0ffc25192", "fusion_lat": 0.0, "rental_uris": {"ios": "https://dc.lft.to/lastmile_qr_scan", "android": "https://dc.lft.to/lastmile_qr_scan"}, "lon": -76.94581833333334, "type": "electric_scooter"}, {"bike_id": "95985f67682bd95056eadda2c5c01aad", "is_reserved": 0, "fusion_lon": 0.0, "lat": 38.935612666666664, "is_disabled": 0, "name": "95985f67682bd95056eadda2c5c01aad", "fusion_lat": 0.0, "rental_uris": {"ios": "https://dc.lft.to/lastmile_qr_scan", "android": "https://dc.lft.to/lastmile_qr_scan"}, "lon": -77.03689916666667, "type": "electric_bike"}, {"bike_id": "61968355a5e9c2b07fdfe8907e2e90e6", "is_reserved": 0, "fusion_lon": 0.0, "lat": 38.915714, "is_disabled": 0, "name": "61968355a5e9c2b07fdfe8907e2e90e6", "fusion_lat": 0.0, "rental_uris": {"ios": "https://dc.lft.to/lastmile_qr_scan", "android": "https://dc.lft.to/lastmile_qr_scan"}, "lon": -77.046757, "type": "electric_scooter"}, {"bike_id": "f4216a90b13f9b6145cd38bcc02479e0", "is_reserved": 0, "fusion_lon": 0.0, "lat": 38.9196025, "is_disabled": 0, "name": "f4216a90b13f9b6145cd38bcc02479e0", "fusion_lat": 0.0, "rental_uris": {"ios": "https://dc.lft.to/lastmile_qr_scan", "android": "https://dc.lft.to/lastmile_qr_scan"}, "lon": -76.9726565, "type": "electric_bike"}, {"bike_id": "2991bccae3c772ce3abcd557c43656ba", "is_reserved": 0, "fusion_lon": 0.0, "lat": 38.89389533333333, "is_disabled": 0, "name": "2991bccae3c772ce3abcd557c43656ba", "fusion_lat": 0.0, "rental_uris": {"ios": "https://dc.lft.to/lastmile_qr_scan", "android": "https://dc.lft.to/lastmile_qr_scan"}, "lon": -77.02251733333334, "type": "electric_bike"}, {"bike_id": "04e28d1c6a8bc5f9a67fbb96c77f201c", "is_reserved": 0, "fusion_lon": 0.0, "lat": 38.90717683333333, "is_disabled": 0, "name": "04e28d1c6a8bc5f9a67fbb96c77f201c", "fusion_lat": 0.0, "rental_uris": {"ios": "https://dc.lft.to/lastmile_qr_scan", "android": "https://dc.lft.to/lastmile_qr_scan"}, "lon": -77.04344233333333, "type": "electric_scooter"}, {"bike_id": "7edf86c8b811b5b5b538cbd79fbeecfa", "is_reserved": 0, "fusion_lon": 0.0, "lat": 38.928982166666664, "is_disabled": 0, "name": "7edf86c8b811b5b5b538cbd79fbeecfa", "fusion_lat": 0.0, "rental_uris": {"ios": "https://dc.lft.to/lastmile_qr_scan", "android": "https://dc.lft.to/lastmile_qr_scan"}, "lon": -77.03180283333333, "type": "electric_scooter"}, {"bike_id": "abd80db1fa9e4d44e209667f52bd3970", "is_reserved": 0, "fusion_lon": 0.0, "lat": 38.8960225, "is_disabled": 0, "name": "abd80db1fa9e4d44e209667f52bd3970", "fusion_lat": 0.0, "rental_uris": {"ios": "https://dc.lft.to/lastmile_qr_scan", "android": "https://dc.lft.to/lastmile_qr_scan"}, "lon": -77.0283035, "type": "electric_scooter"}, {"bike_id": "245e003c6e66a15f18c00c724670790f", "is_reserved": 0, "fusion_lon": 0.0, "lat": 38.9078685, "is_disabled": 0, "name": "245e003c6e66a15f18c00c724670790f", "fusion_lat": 0.0, "rental_uris": {"ios": "https://dc.lft.to/lastmile_qr_scan", "android": "https://dc.lft.to/lastmile_qr_scan"}, "lon": -77.00967333333334, "type": "electric_scooter"},