{"data": {"bikes": [{"name": "19d6c93a6aed626702fe501083ef8f73", "fusion_lat": 0.0, "type": "electric_scooter", "lat": 38.914049, "is_reserved": 0, "is_disabled": 0, "fusion_lon": 0.0, "bike_id": "19d6c93a6aed626702fe501083ef8f73", "lon": -77.03951583333334, "rental_uris": {"ios": "https://dc.lft.to/lastmile_qr_scan", "android": "https://dc.lft.to/lastmile_qr_scan"}}, {"name": "e0ee71ecf0ff8cd6fc646a7e6f13af6e", "fusion_lat": 0.0, "type": "electric_scooter", "lat": 38.92094266666667, "is_reserved": 0, "is_disabled": 0, "fusion_lon": 0.0, "bike_id": "e0ee71ecf0ff8cd6fc646a7e6f13af6e", "lon": -77.0137165, "rental_uris": {"ios": "https://dc.lft.to/lastmile_qr_scan", "android": "https://dc.lft.to/lastmile_qr_scan"}}, {"name": "0ee9f666b0b1a088ce8251e42d36ab98", "fusion_lat": 0.0, "type": "electric_scooter", "lat": 38.93636633333333, "is_reserved": 0, "is_disabled": 0, "fusion_lon": 0.0, "bike_id": "0ee9f666b0b1a088ce8251e42d36ab98", "lon": -77.03664566666667, "rental_uris": {"ios": "https://dc.lft.to/lastmile_qr_scan", "android": "https://dc.lft.to/lastmile_qr_scan"}}, {"name": "e02eb2d38794e25d9d387b27f54c13e8", "fusion_lat": 0.0, "type": "electric_scooter", "lat": 38.90583516666667, "is_reserved": 0, "is_disabled": 0, "fusion_lon": 0.0, "bike_id": "e02eb2d38794e25d9d387b27f54c13e8", "lon": -77.03721966666667, "rental_uris": {"ios": "https://dc.lft.to/lastmile_qr_scan", "android": "https://dc.lft.to/lastmile_qr_scan"}}, {"name": "06d1b3bc0fb63a1fbcb7e9aeb1eca26c", "fusion_lat": 0.0, "type": "electric_scooter", "lat": 38.92068166666667, "is_reserved": 0, "is_disabled": 0, "fusion_lon": 0.0, "bike_id": "06d1b3bc0fb63a1fbcb7e9aeb1eca26c", "lon": -77.034646, "rental_uris": {"ios": "https://dc.lft.to/lastmile_qr_scan", "android": "https://dc.lft.to/lastmile_qr_scan"}}, {"name": "c3ad16d45300a7833037fc85b72c229d", "fusion_lat": 0.0, "type": "electric_scooter", "lat": 38.868273, "is_reserved": 0, "is_disabled": 0, "fusion_lon": 0.0, "bike_id": "c3ad16d45300a7833037fc85b72c229d", "lon": -76.9861535, "rental_uris": {"ios": "https://dc.lft.to/lastmile_qr_scan", "android": "https://dc.lft.to/lastmile_qr_scan"}}, {"name": "120f02e8790c6be660b97586ac01dd0e", "fusion_lat": 0.0, "type": "electric_scooter", "lat": 38.91416566666667, "is_reserved": 0, "is_disabled": 0, "fusion_lon": 0.0, "bike_id": "120f02e8790c6be660b97586ac01dd0e", "lon": -77.03110366666667, "rental_uris": {"ios": "https://dc.lft.to/lastmile_qr_scan", "android": "https://dc.lft.to/lastmile_qr_scan"}}, {"name": "635f223b7935ca0c6a56a7b45469a6fb", "fusion_lat": 0.0, "type": "electric_scooter", "lat": 38.9119005, "is_reserved": 0, "is_disabled": 0, "fusion_lon": 0.0, "bike_id": "635f223b7935ca0c6a56a7b45469a6fb", "lon": -77.04490083333333, "rental_uris": {"ios": "https://dc.lft.to/lastmile_qr_scan", "android": "https://dc.lft.to/lastmile_qr_scan"}}, {"name": "fb746c5fe8bafe4caa9b90410060a9ab", "fusion_lat": 0.0, "type": "electric_scooter", "lat": 38.915944333333336, "is_reserved": 0, "is_disabled": 0, "fusion_lon": 0.0, "bike_id": "fb746c5fe8bafe4caa9b90410060a9ab", "lon": -77.0425935, "rental_uris": {"ios": "https://dc.lft.to/lastmile_qr_scan", "android": "https://dc.lft.to/lastmile_qr_scan"}}, {"name": "ff671a7a4d0b289ebc363cf81d829e72", "fusion_lat": 0.0, "type": "electric_scooter", "lat": 38.938722, "is_reserved": 0, "is_disabled": 0, "fusion_lon": 0.0, "bike_id": "ff671a7a4d0b289ebc363cf81d829e72", "lon": -77.02220883333334, "rental_uris": {"ios": "https://dc.lft.to/lastmile_qr_scan", "android": "https://dc.lft.to/lastmile_qr_scan"}}, {"name": "ed375db105cbf0c67c23ea14d7f7c2e5", "fusion_lat": 0.0, "type": "electric_scooter", "lat": 38.87645216666667, "is_reserved": 0, "is_disabled": 0, "fusion_lon": 0.0, "bike_id": "ed375db105cbf0c67c23ea14d7f7c2e5", "lon": -77.0147645, "rental_uris": {"ios": "https://dc.lft.to/lastmile_qr_scan", "android": "https://dc.lft.to/lastmile_qr_scan"}}, {"name": "5dcb97244c6cbd58bf001613345b583c", "fusion_lat": 0.0, "type": "electric_scooter", "lat": 38.900207333333334, "is_reserved": 0, "is_disabled": 0, "fusion_lon": 0.0, "bike_id": "5dcb97244c6cbd58bf001613345b583c", "lon": -76.99847116666666, "rental_uris": {"ios": "https://dc.lft.to/lastmile_qr_scan", "android": "https://dc.lft.to/lastmile_qr_scan"}}, {"name": "c4930a238c5bf0a20dc4ea5ae6c31ccd", "fusion_lat": 0.0, "type": "electric_scooter", "lat": 38.90357516666667, "is_reserved": 0, "is_disabled": 0, "fusion_lon": 0.0, "bike_id": "c4930a238c5bf0a20dc4ea5ae6c31ccd", "lon": -77.01107866666666, "rental_uris": {"ios": "https://dc.lft.to/lastmile_qr_scan", "android": "https://dc.lft.to/lastmile_qr_scan"}}, {"name": "2169c74341a65ab33881def438ab897c", "fusion_lat": 0.0, "type": "electric_scooter", "lat": 38.90054216666667, "is_reserved": 0, "is_disabled": 0, "fusion_lon": 0.0, "bike_id": "2169c74341a65ab33881def438ab897c", "lon": -76.9475415, "rental_uris": {"ios": "https://dc.lft.to/lastmile_qr_scan", "android": "https://dc.lft.to/lastmile_qr_scan"}}, {"name": "53d2ff39ff41b43a27dbfad7e0c63cd0", "fusion_lat": 0.0, "type": "electric_scooter", "lat": 38.919849166666665, "is_reserved": 0, "is_disabled": 0, "fusion_lon": 0.0, "bike_id": "53d2ff39ff41b43a27dbfad7e0c63cd0", "lon": -77.03320483333333, "rental_uris": {"ios": "https://dc.lft.to/lastmile_qr_scan", "android": "https://dc.lft.to/lastmile_qr_scan"}}, {"name": "10007114498e8595dac236209b86f6fc", "fusion_lat": 0.0, "type": "electric_scooter", "lat": 38.918409, "is_reserved": 0, "is_disabled": 0, "fusion_lon": 0.0, "bike_id": "10007114498e8595dac236209b86f6fc", "lon": -77.025994, "rental_uris": {"ios": "https://dc.lft.to/lastmile_qr_scan", "android": "https://dc.lft.to/lastmile_qr_scan"}}, {"name": "7a75a2818054d19de6a213279aa41713", "fusion_lat": 0.0, "type": "electric_bike", "lat": 38.86389883333333, "is_reserved": 0, "is_disabled": 0, "fusion_lon": 0.0, "bike_id": "7a75a2818054d19de6a213279aa41713", "lon": -76.9899035, "rental_uris": {"ios": "https://dc.lft.to/lastmile_qr_scan", "android": "https://dc.lft.to/lastmile_qr_scan"}}, {"name": "679b14224f7cdb9635255b8a41c34d05", "fusion_lat": 0.0, "type": "electric_scooter", "lat": 38.883877, "is_reserved": 0, "is_disabled": 0, "fusion_lon": 0.0, "bike_id": "679b14224f7cdb9635255b8a41c34d05", "lon": -77.01976116666667, "rental_uris": {"ios": "https://dc.lft.to/lastmile_qr_scan", "android": "https://dc.lft.to/lastmile_qr_scan"}}, {"name": "a7e242cfb70652ea38d889f438b67021", "fusion_lat": 0.0, "type": "electric_scooter", "lat": 38.905705, "is_reserved": 0, "is_disabled": 0, "fusion_lon": 0.0, "bike_id": "a7e242cfb70652ea38d889f438b67021", "lon": -77.04491916666667, "rental_uris": {"ios": "https://dc.lft.to/lastmile_qr_scan", "android": "https://dc.lft.to/lastmile_qr_scan"}}, {"name": "89f16cc102774c95c2265c3e40cf0f4c", "fusion_lat": 0.0, "type": "electric_scooter", "lat": 38.92161733333333, "is_reserved": 0, "is_disabled": 0, "fusion_lon": 0.0, "bike_id": "89f16cc102774c95c2265c3e40cf0f4c", "lon": -77.03375583333333, "rental_uris": {"ios": "https://dc.lft.to/lastmile_qr_scan", "android": "https://dc.lft.to/lastmile_qr_scan"}}, {"name": "36ac0b59701491b671629cd787fb8f73", "fusion_lat": 0.0, "type": "electric_scooter", "lat": 38.876295666666664, "is_reserved": 0, "is_disabled": 0, "fusion_lon": 0.0, "bike_id": "36ac0b59701491b671629cd787fb8f73", "lon": -76.965289, "rental_uris": {"ios": "https://dc.lft.to/lastmile_qr_scan", "android": "https://dc.lft.to/lastmile_qr_scan"}}, {"name": "d723baacac06e199fe6cceaf09433aae", "fusion_lat": 0.0, "type": "electric_scooter", "lat": 38.9418035, "is_reserved": 0, "is_disabled": 0, "fusion_lon": 0.0, "bike_id": "d723baacac06e199fe6cceaf09433aae", "lon": -77.04134816666667, "rental_uris": {"ios": "https://dc.lft.to/lastmile_qr_scan", "android": "https://dc.lft.to/lastmile_qr_scan"}}, {"name": "8fa4713725f5bf339e2ce0b505f564df", "fusion_lat": 0.0, "type": "electric_bike", "lat": 38.94894733333334, "is_reserved": 0, "is_disabled": 0, "fusion_lon": 0.0, "bike_id": "8fa4713725f5bf339e2ce0b505f564df", "lon": -76.96372083333333, "rental_uris": {"ios": "https://dc.lft.to/lastmile_qr_scan", "android": "https://dc.lft.to/lastmile_qr_scan"}}, {"name": "491249058a5542313c2727b5f59838b5", "fusion_lat": 0.0, "type": "electric_scooter", "lat": 38.914945833333334, "is_reserved": 0, "is_disabled": 0, "fusion_lon": 0.0, "bike_id": "491249058a5542313c2727b5f59838b5", "lon": -77.0326305, "rental_uris": {"ios": "https://dc.lft.to/lastmile_qr_scan", "android": "https://dc.lft.to/lastmile_qr_scan"}}, {"name": "aa7221f534e3a38e9f7b412599b15d8b", "fusion_lat": 0.0, "type": "electric_scooter", "lat": 38.918343, "is_reserved": 0, "is_disabled": 0, "fusion_lon": 0.0, "bike_id": "aa7221f534e3a38e9f7b412599b15d8b", "lon": -77.02700733333333, "rental_uris": {"ios": "https://dc.lft.to/lastmile_qr_scan", "android": "https://dc.lft.to/lastmile_qr_scan"}}, {"name": "e908d0b66362ad1772bfe877eb07ae05", "fusion_lat": 0.0, "type": "electric_scooter", "lat": 38.916966, "is_reserved": 0, "is_disabled": 0, "fusion_lon": 0.0, "bike_id": "e908d0b66362ad1772bfe877eb07ae05", "lon": -77.02593683333333, "rental_uris": {"ios": "https://dc.lft.to/lastmile_qr_scan", "android": "https://dc.lft.to/lastmile_qr_scan"}}, {"name": "67af434e591853123666e1b2e3c486f8", "fusion_lat": 0.0, "type": "electric_bike", "lat": 38.909735166666664, "is_reserved": 0, "is_disabled": 0, "fusion_lon": 0.0, "bike_id": "67af434e591853123666e1b2e3c486f8", "lon": -77.08822516666666, "rental_uris": {"ios": "https://dc.lft.to/lastmile_qr_scan", "android": "https://dc.lft.to/lastmile_qr_scan"}}, {"name": "685d6557c31fef47106d059376862283", "fusion_lat": 0.0, "type": "electric_scooter", "lat": 38.89980383333334, "is_reserved": 0, "is_disabled": 0, "fusion_lon": 0.0, "bike_id": "685d6557c31fef47106d059376862283", "lon": -77.01771266666667, "rental_uris": {"ios": "https://dc.lft.to/lastmile_qr_scan", "android": "https://dc.lft.to/lastmile_qr_scan"}}, {"name": "5de071916f4d4009c7f73a326b7625df", "fusion_lat": 0.0, "type": "electric_scooter", "lat": 38.911992166666664, "is_reserved": 0, "is_disabled": 0, "fusion_lon": 0.0, "bike_id": "5de071916f4d4009c7f73a326b7625df", "lon": -77.059645, "rental_uris": {"ios": "https://dc.lft.to/lastmile_qr_scan", "android": "https://dc.lft.to/lastmile_qr_scan"}}, {"name": "811281b68ba71ccdad717b896fb1b37f", "fusion_lat": 0.0, "type": "electric_scooter", "lat": 38.9002905, "is_reserved": 0, "is_disabled": 0, "fusion_lon": 0.0, "bike_id": "811281b68ba71ccdad717b896fb1b37f", "lon": -77.01165133333333, "rental_uris": {"ios": "https://dc.lft.to/lastmile_qr_scan", "android": "https://dc.lft.to/lastmile_qr_scan"}}, {"name": "944c88149147f87cd738967c2c1d501c", "fusion_lat": 0.0, "type": "electric_scooter", "lat": 38.915662, "is_reserved": 0, "is_disabled": 0, "fusion_lon": 0.0, "bike_id": "944c88149147f87cd738967c2c1d501c", "lon": -77.0488685, "rental_uris": {"ios": "https://dc.lft.to/lastmile_qr_scan", "android": "https://dc.lft.to/lastmile_qr_scan"}}, {"name": "3a6ca663ad722ac580498274d330ebcc", "fusion_lat": 0.0, "type": "electric_scooter", "lat": 38.876293833333335, "is_reserved": 0, "is_disabled": 0, "fusion_lon": 0.0, "bike_id": "3a6ca663ad722ac580498274d330ebcc", "lon": -76.96528316666667, "rental_uris": {"ios": "https://dc.lft.to/lastmile_qr_scan", "android": "https://dc.lft.to/lastmile_qr_scan"}}, {"name": "c028a9da76b3cf4172f01e72c6f7fc4b", "fusion_lat": 0.0, "type": "electric_scooter", "lat": 38.89735816666666, "is_reserved": 0, "is_disabled": 0, "fusion_lon": 0.0, "bike_id": "c028a9da76b3cf4172f01e72c6f7fc4b", "lon": -77.04653166666667, "rental_uris": {"ios": "https://dc.lft.to/lastmile_qr_scan", "android": "https://dc.lft.to/lastmile_qr_scan"}}, {"name": "6d75b13c221ea57494336bca0dc8b928", "fusion_lat": 0.0, "type": "electric_scooter", "lat": 38.94292333333333, "is_reserved": 0, "is_disabled": 0, "fusion_lon": 0.0, "bike_id": "6d75b13c221ea57494336bca0dc8b928", "lon": -77.02171, "rental_uris": {"ios": "https://dc.lft.to/lastmile_qr_scan", "android": "https://dc.lft.to/lastmile_qr_scan"}}, {"name": "4eeaa6836ae5d69536387dc9571a1572", "fusion_lat": 0.0, "type": "electric_scooter", "lat": 38.88674116666667, "is_reserved": 0, "is_disabled": 0, "fusion_lon": 0.0, "bike_id": "4eeaa6836ae5d69536387dc9571a1572", "lon": -77.0256465, "rental_uris": {"ios": "https://dc.lft.to/lastmile_qr_scan", "android": "https://dc.lft.to/lastmile_qr_scan"}}, {"name": "d99055ece720ffb14bc3772b34a06edb", "fusion_lat": 0.0, "type": "electric_scooter", "lat": 38.933183, "is_reserved": 0, "is_disabled": 0, "fusion_lon": 0.0, "bike_id": "d99055ece720ffb14bc3772b34a06edb", "lon": -77.05088233333333, "rental_uris": {"ios": "https://dc.lft.to/lastmile_qr_scan", "android": "https://dc.lft.to/lastmile_qr_scan"}}, {"name": "04adc67e4a83568c2101b8ff10eda15d", "fusion_lat": 0.0, "type": "electric_scooter", "lat": 38.882909833333336, "is_reserved": 0, "is_disabled": 0, "fusion_lon": 0.0, "bike_id": "04adc67e4a83568c2101b8ff10eda15d", "lon": -76.986177, "rental_uris": {"ios": "https://dc.lft.to/lastmile_qr_scan", "android": "https://dc.lft.to/lastmile_qr_scan"}}, {"name": "cc7fe54925e0dc5952998ee2fd7f5e12", "fusion_lat": 0.0, "type": "electric_scooter", "lat": 38.8741945, "is_reserved": 0, "is_disabled": 0, "fusion_lon": 0.0, "bike_id": "cc7fe54925e0dc5952998ee2fd7f5e12", "lon": -76.96091533333333, "rental_uris": {"ios": "https://dc.lft.to/lastmile_qr_scan", "android": "https://dc.lft.to/lastmile_qr_scan"}}, {"name": "96d46b0447311c342a0cfefdd5424a59", "fusion_lat": 0.0, "type": "electric_scooter", "lat": 38.91928033333333, "is_reserved": 0, "is_disabled": 0, "fusion_lon": 0.0, "bike_id": "96d46b0447311c342a0cfefdd5424a59", "lon": -77.0318405, "rental_uris": {"ios": "https://dc.lft.to/lastmile_qr_scan", "android": "https://dc.lft.to/lastmile_qr_scan"}}, {"name": "df6425fb8642c16f0bb71bf8b98e094f", "fusion_lat": 0.0, "type": "electric_bike", "lat": 38.927850166666666, "is_reserved": 0, "is_disabled": 0, "fusion_lon": 0.0, "bike_id": "df6425fb8642c16f0bb71bf8b98e094f", "lon": -77.05262633333334, "rental_uris": {"ios": "https://dc.lft.to/lastmile_qr_scan", "android": "https://dc.lft.to/lastmile_qr_scan"}}, {"name": "e3bdf2d6ac86a054eddbdd5f3f906fd4", "fusion_lat": 0.0, "type": "electric_scooter", "lat": 38.90162733333333, "is_reserved": 0, "is_disabled": 0, "fusion_lon": 0.0, "bike_id": "e3bdf2d6ac86a054eddbdd5f3f906fd4", "lon": -77.016036, "rental_uris": {"ios": "https://dc.lft.to/lastmile_qr_scan", "android": "https://dc.lft.to/lastmile_qr_scan"}}, {"name": "a73e7ca53e111b974b27571f03c6e8ee", "fusion_lat": 0.0, "type": "electric_scooter", "lat": 38.858429666666666, "is_reserved": 0, "is_disabled": 0, "fusion_lon": 0.0, "bike_id": "a73e7ca53e111b974b27571f03c6e8ee", "lon": -76.98893983333333, "rental_uris": {"ios": "https://dc.lft.to/lastmile_qr_scan", "android": "https://dc.lft.to/lastmile_qr_scan"}}, {"name": "b6ce0ee8c2b5bd2e10f109e8a69d720d", "fusion_lat": 0.0, "type": "electric_scooter", "lat": 38.893722, "is_reserved": 0, "is_disabled": 0, "fusion_lon": 0.0, "bike_id": "b6ce0ee8c2b5bd2e10f109e8a69d720d", "lon": -76.94995933333334, "rental_uris": {"ios": "https://dc.lft.to/lastmile_qr_scan", "android": "https://dc.lft.to/lastmile_qr_scan"}}, {"name": "0d77d55aad13abb6329cbf6c51bbc443", "fusion_lat": 0.0, "type": "electric_scooter", "lat": 38.93733566666667, "is_reserved": 0, "is_disabled": 0, "fusion_lon": 0.0, "bike_id": "0d77d55aad13abb6329cbf6c51bbc443", "lon": -77.02010583333333, "rental_uris": {"ios": "https://dc.lft.to/lastmile_qr_scan", "android": "https://dc.lft.to/lastmile_qr_scan"}}, {"name": "e48fb07f836f88330caaf0872c0a2f64", "fusion_lat": 0.0, "type": "electric_scooter", "lat": 38.91276333333333, "is_reserved": 0, "is_disabled": 0, "fusion_lon": 0.0, "bike_id": "e48fb07f836f88330caaf0872c0a2f64", "lon": -77.026905, "rental_uris": {"ios": "https://dc.lft.to/lastmile_qr_scan", "android": "https://dc.lft.to/lastmile_qr_scan"}}, {"name": "71fd5e27113f67613ddf6f2ebd129113", "fusion_lat": 0.0, "type": "electric_scooter", "lat": 38.909805666666664, "is_reserved": 0, "is_disabled": 0, "fusion_lon": 0.0, "bike_id": "71fd5e27113f67613ddf6f2ebd129113", "lon": -77.06708683333333, "rental_uris": {"ios": "https://dc.lft.to/lastmile_qr_scan", "android": "https://dc.lft.to/lastmile_qr_scan"}}, {"name": "dd2cabdecf097e259daa15b2f0c16ae1", "fusion_lat": 0.0, "type": "electric_scooter", "lat": 38.90905983333333, "is_reserved": 0, "is_disabled": 0, "fusion_lon": 0.0, "bike_id": "dd2cabdecf097e259daa15b2f0c16ae1", "lon": -77.02711366666666, "rental_uris": {"ios": "https://dc.lft.to/lastmile_qr_scan", "android": "https://dc.lft.to/lastmile_qr_scan"}}, {"name": "bb0be6b8aa5ac595c9add32ebd4ca6e3", "fusion_lat": 0.0, "type": "electric_scooter", "lat": 38.90295, "is_reserved": 0, "is_disabled": 0, "fusion_lon": 0.0, "bike_id": "bb0be6b8aa5ac595c9add32ebd4ca6e3", "lon": -77.04268533333334, "rental_uris": {"ios": "https://dc.lft.to/lastmile_qr_scan", "android": "https://dc.lft.to/lastmile_qr_scan"}}, {"name": "51e641bacf965e5eff13852120940c9a", "fusion_lat": 0.0, "type": "electric_scooter", "lat": 38.905128166666664, "is_reserved": 0, "is_disabled": 0, "fusion_lon": 0.0, "bike_id": "51e641bacf965e5eff13852120940c9a", "lon": -77.06677416666666, "rental_uris": {"ios": "https://dc.lft.to/lastmile_qr_scan", "android": "https://dc.lft.to/lastmile_qr_scan"}}, {"name": "011ad99269dc94990f469bb96aa0d7aa", "fusion_lat": 0.0, "type": "electric_scooter", "lat": 38.91262583333334, "is_reserved": 0, "is_disabled": 0, "fusion_lon": 0.0, "bike_id": "011ad99269dc94990f469bb96aa0d7aa", "lon": -77.00767566666667, "rental_uris": {"ios": "https://dc.lft.to/lastmile_qr_scan", "android": "https://dc.lft.to/lastmile_qr_scan"}}, {"name": "5075dbb7928bf93a4e660ee979f69ea8", "fusion_lat": 0.0, "type": "electric_scooter", "lat": 38.944631, "is_reserved": 0, "is_disabled": 0, "fusion_lon": 0.0, "bike_id": "5075dbb7928bf93a4e660ee979f69ea8", "lon": -77.006585, "rental_uris": {"ios": "https://dc.lft.to/lastmile_qr_scan", "android": "https://dc.lft.to/lastmile_qr_scan"}}, {"name": "c833e3ed4bb69fd8852aa53459f5ba94", "fusion_lat": 0.0, "type": "electric_scooter", "lat": 38.88343033333334, "is_reserved": 0, "is_disabled": 0, "fusion_lon": 0.0, "bike_id": "c833e3ed4bb69fd8852aa53459f5ba94", "lon": -76.93645416666666, "rental_uris": {"ios": "https://dc.lft.to/lastmile_qr_scan", "android": "https://dc.lft.to/lastmile_qr_scan"}}, {"name": "0bd8262bb1646c4f42b32b43e607cfab", "fusion_lat": 0.0, "type": "electric_scooter", "lat": 38.8993935, "is_reserved": 0, "is_disabled": 0, "fusion_lon": 0.0, "bike_id": "0bd8262bb1646c4f42b32b43e607cfab", "lon": -77.0283665, "rental_uris": {"ios": "https://dc.lft.to/lastmile_qr_scan", "android": "https://dc.lft.to/lastmile_qr_scan"}}, {"name": "21438d4120f026198758e9c7d5f3f534", "fusion_lat": 0.0, "type": "electric_scooter", "lat": 38.92711, "is_reserved": 0, "is_disabled": 0, "fusion_lon": 0.0, "bike_id": "21438d4120f026198758e9c7d5f3f534", "lon": -77.03729016666666, "rental_uris": {"ios": "https://dc.lft.to/lastmile_qr_scan", "android": "https://dc.lft.to/lastmile_qr_scan"}}, {"name": "8f230bc3778317e63b6b308d926cc7a1", "fusion_lat": 0.0, "type": "electric_scooter", "lat": 38.91294, "is_reserved": 0, "is_disabled": 0, "fusion_lon": 0.0, "bike_id": "8f230bc3778317e63b6b308d926cc7a1", "lon": -77.0297125, "rental_uris": {"ios": "https://dc.lft.to/lastmile_qr_scan", "android": "https://dc.lft.to/lastmile_qr_scan"}}, {"name": "eb8b475331773fae9a24303e5c44bba3", "fusion_lat": 0.0, "type": "electric_scooter", "lat": 38.918223166666664, "is_reserved": 0, "is_disabled": 0, "fusion_lon": 0.0, "bike_id": "eb8b475331773fae9a24303e5c44bba3", "lon": -77.00259183333333, "rental_uris": {"ios": "https://dc.lft.to/lastmile_qr_scan", "android": "https://dc.lft.to/lastmile_qr_scan"}}, {"name": "00f531dafe6b51e01e45ef7edea8d6c2", "fusion_lat": 0.0, "type": "electric_scooter", "lat": 38.895834666666666, "is_reserved": 0, "is_disabled": 0, "fusion_lon": 0.0, "bike_id": "00f531dafe6b51e01e45ef7edea8d6c2", "lon": -77.04333983333333, "rental_uris": {"ios": "https://dc.lft.to/lastmile_qr_scan", "android": "https://dc.lft.to/lastmile_qr_scan"}}, {"name": "9fdaf5716426a684bf2851d5450ce274", "fusion_lat": 0.0, "type": "electric_bike", "lat": 38.95302316666667, "is_reserved": 0, "is_disabled": 0, "fusion_lon": 0.0, "bike_id": "9fdaf5716426a684bf2851d5450ce274", "lon": -77.02506033333333, "rental_uris": {"ios": "https://dc.lft.to/lastmile_qr_scan", "android": "https://dc.lft.to/lastmile_qr_scan"}}, {"name": "0b9dfa15230152888e2ece665f318985", "fusion_lat": 0.0, "type": "electric_scooter", "lat": 38.930567, "is_reserved": 0, "is_disabled": 0, "fusion_lon": 0.0, "bike_id": "0b9dfa15230152888e2ece665f318985", "lon": -77.023288, "rental_uris": {"ios": "https://dc.lft.to/lastmile_qr_scan", "android": "https://dc.lft.to/lastmile_qr_scan"}}, {"name": "2b2daf07a7ddea2d260c9f9dcde7f78d", "fusion_lat": 0.0, "type": "electric_bike", "lat": 38.93585433333333, "is_reserved": 0, "is_disabled": 0, "fusion_lon": 0.0, "bike_id": "2b2daf07a7ddea2d260c9f9dcde7f78d", "lon": -77.10685533333333, "rental_uris": {"ios": "https://dc.lft.to/lastmile_qr_scan", "android": "https://dc.lft.to/lastmile_qr_scan"}}, {"name": "9a4992558d728b73d3065dffff071f3c", "fusion_lat": 0.0, "type": "electric_scooter", "lat": 38.93732466666667, "is_reserved": 0, "is_disabled": 0, "fusion_lon": 0.0, "bike_id": "9a4992558d728b73d3065dffff071f3c", "lon": -77.032548, "rental_uris": {"ios": "https://dc.lft.to/lastmile_qr_scan", "android": "https://dc.lft.to/lastmile_qr_scan"}}, {"name": "219e5f3d2aa17116c19e138554ff61da", "fusion_lat": 0.0, "type": "electric_scooter", "lat": 38.89976033333333, "is_reserved": 0, "is_disabled": 0, "fusion_lon": 0.0, "bike_id": "219e5f3d2aa17116c19e138554ff61da", "lon": -77.01908133333333, "rental_uris": {"ios": "https://dc.lft.to/lastmile_qr_scan", "android": "https://dc.lft.to/lastmile_qr_scan"}}, {"name": "19b1fc960914b64f0404e5ed42485998", "fusion_lat": 0.0, "type": "electric_scooter", "lat": 38.925474, "is_reserved": 0, "is_disabled": 0, "fusion_lon": 0.0, "bike_id": "19b1fc960914b64f0404e5ed42485998", "lon": -77.032684, "rental_uris": {"ios": "https://dc.lft.to/lastmile_qr_scan", "android": "https://dc.lft.to/lastmile_qr_scan"}}, {"name": "6f90ea8ea9f420606ebfa2ddef8a0405", "fusion_lat": 0.0, "type": "electric_scooter", "lat": 38.911922, "is_reserved": 0, "is_disabled": 0, "fusion_lon": 0.0, "bike_id": "6f90ea8ea9f420606ebfa2ddef8a0405", "lon": -77.0321535, "rental_uris": {"ios": "https://dc.lft.to/lastmile_qr_scan", "android": "https://dc.lft.to/lastmile_qr_scan"}}, {"name": "c8c42b7b5b12102d5e68dd5b1ea3b24c", "fusion_lat": 0.0, "type": "electric_scooter", "lat": 38.92180833333333, "is_reserved": 0, "is_disabled": 0, "fusion_lon": 0.0, "bike_id": "c8c42b7b5b12102d5e68dd5b1ea3b24c", "lon": -77.02417466666667, "rental_uris": {"ios": "https://dc.lft.to/lastmile_qr_scan", "android": "https://dc.lft.to/lastmile_qr_scan"}}, {"name": "51ba47f271eac1e7141331aa9246cc09", "fusion_lat": 0.0, "type": "electric_scooter", "lat": 38.874762, "is_reserved": 0, "is_disabled": 0, "fusion_lon": 0.0, "bike_id": "51ba47f271eac1e7141331aa9246cc09", "lon": -77.01061033333333, "rental_uris": {"ios": "https://dc.lft.to/lastmile_qr_scan", "android": "https://dc.lft.to/lastmile_qr_scan"}}, {"name": "2a894b1eb82ca2d21d366b0674255677", "fusion_lat": 0.0, "type": "electric_scooter", "lat": 38.92356683333333, "is_reserved": 0, "is_disabled": 0, "fusion_lon": 0.0, "bike_id": "2a894b1eb82ca2d21d366b0674255677", "lon": -77.0505875, "rental_uris": {"ios": "https://dc.lft.to/lastmile_qr_scan", "android": "https://dc.lft.to/lastmile_qr_scan"}}, {"name": "267c11108d87803a13c04405a9e2f188", "fusion_lat": 0.0, "type": "electric_scooter", "lat": 38.915489, "is_reserved": 0, "is_disabled": 0, "fusion_lon": 0.0, "bike_id": "267c11108d87803a13c04405a9e2f188", "lon": -77.038579, "rental_uris": {"ios": "https://dc.lft.to/lastmile_qr_scan", "android": "https://dc.lft.to/lastmile_qr_scan"}}, {"name": "7146de2c574936df4ea73257a99f23f1", "fusion_lat": 0.0, "type": "electric_scooter", "lat": 38.89591983333333, "is_reserved": 0, "is_disabled": 0, "fusion_lon": 0.0, "bike_id": "7146de2c574936df4ea73257a99f23f1", "lon": -76.94862183333333, "rental_uris": {"ios": "https://dc.lft.to/lastmile_qr_scan", "android": "https://dc.lft.to/lastmile_qr_scan"}}, {"name": "c38326fae2b691525ba65f0849747c7e", "fusion_lat": 0.0, "type": "electric_scooter", "lat": 38.916949333333335, "is_reserved": 0, "is_disabled": 0, "fusion_lon": 0.0, "bike_id": "c38326fae2b691525ba65f0849747c7e", "lon": -77.03936166666666, "rental_uris": {"ios": "https://dc.lft.to/lastmile_qr_scan", "android": "https://dc.lft.to/lastmile_qr_scan"}}, {"name": "2ac57f95e527112e54cf02c5ca5e6f97", "fusion_lat": 0.0, "type": "electric_bike", "lat": 38.89652816666667, "is_reserved": 0, "is_disabled": 0, "fusion_lon": 0.0, "bike_id": "2ac57f95e527112e54cf02c5ca5e6f97", "lon": -77.10453083333333, "rental_uris": {"ios": "https://dc.lft.to/lastmile_qr_scan", "android": "https://dc.lft.to/lastmile_qr_scan"}}, {"name": "f2d3cb294c180a6fa3d9fcaac226f16d", "fusion_lat": 0.0, "type": "electric_scooter", "lat": 38.91417033333333, "is_reserved": 0, "is_disabled": 0, "fusion_lon": 0.0, "bike_id": "f2d3cb294c180a6fa3d9fcaac226f16d", "lon": -77.00973716666667, "rental_uris": {"ios": "https://dc.lft.to/lastmile_qr_scan", "android": "https://dc.lft.to/lastmile_qr_scan"}}, {"name": "00ab3122e40f29d72cbaaa7c777b0cfb", "fusion_lat": 0.0, "type": "electric_scooter", "lat": 38.91880483333333, "is_reserved": 0, "is_disabled": 0, "fusion_lon": 0.0, "bike_id": "00ab3122e40f29d72cbaaa7c777b0cfb", "lon": -77.034973, "rental_uris": {"ios": "https://dc.lft.to/lastmile_qr_scan", "android": "https://dc.lft.to/lastmile_qr_scan"}}, {"name": "00c83d2496ca6b3dde22fb6d57d5854a", "fusion_lat": 0.0, "type": "electric_bike", "lat": 38.86872783333333, "is_reserved": 0, "is_disabled": 0, "fusion_lon": 0.0, "bike_id": "00c83d2496ca6b3dde22fb6d57d5854a", "lon": -76.91662716666667, "rental_uris": {"ios": "https://dc.lft.to/lastmile_qr_scan", "android": "https://dc.lft.to/lastmile_qr_scan"}}, {"name": "51f8e26e8f9d63e33efc47ce521b498c", "fusion_lat": 0.0, "type": "electric_scooter", "lat": 38.90397883333333, "is_reserved": 0, "is_disabled": 0, "fusion_lon": 0.0, "bike_id": "51f8e26e8f9d63e33efc47ce521b498c", "lon": -76.99004266666667, "rental_uris": {"ios": "https://dc.lft.to/lastmile_qr_scan", "android": "https://dc.lft.to/lastmile_qr_scan"}}, {"name": "d46eafbf526c2e11952d6dca1507950c", "fusion_lat": 0.0, "type": "electric_bike", "lat": 38.9114435, "is_reserved": 0, "is_disabled": 0, "fusion_lon": 0.0, "bike_id": "d46eafbf526c2e11952d6dca1507950c", "lon": -77.06575416666666, "rental_uris": {"ios": "https://dc.lft.to/lastmile_qr_scan", "android": "https://dc.lft.to/lastmile_qr_scan"}}, {"name": "4bb631208afd2f973c8d4fef409ee543", "fusion_lat": 0.0, "type": "electric_scooter", "lat": 38.93973116666667, "is_reserved": 0, "is_disabled": 0, "fusion_lon": 0.0, "bike_id": "4bb631208afd2f973c8d4fef409ee543", "lon": -77.03559633333333, "rental_uris": {"ios": "https://dc.lft.to/lastmile_qr_scan", "android": "https://dc.lft.to/lastmile_qr_scan"}}, {"name": "719ac71be374ddf8deac09d8831348e2", "fusion_lat": 0.0, "type": "electric_scooter", "lat": 38.910690833333334, "is_reserved": 0, "is_disabled": 0, "fusion_lon": 0.0, "bike_id": "719ac71be374ddf8deac09d8831348e2", "lon": -76.99705883333333, "rental_uris": {"ios": "https://dc.lft.to/lastmile_qr_scan", "android": "https://dc.lft.to/lastmile_qr_scan"}}, {"name": "1d756305b2c6c97c8594bd94ba7947b2", "fusion_lat": 0.0, "type": "electric_scooter", "lat": 38.907189833333334, "is_reserved": 0, "is_disabled": 0, "fusion_lon": 0.0, "bike_id": "1d756305b2c6c97c8594bd94ba7947b2", "lon": -77.02972416666667, "rental_uris": {"ios": "https://dc.lft.to/lastmile_qr_scan", "android": "https://dc.lft.to/lastmile_qr_scan"}}, {"name": "694e157679766a11d9b74a3bf478b4aa", "fusion_lat": 0.0, "type": "electric_bike", "lat": 38.96286383333333, "is_reserved": 0, "is_disabled": 0, "fusion_lon": 0.0, "bike_id": "694e157679766a11d9b74a3bf478b4aa", "lon": -77.03248516666666, "rental_uris": {"ios": "https://dc.lft.to/lastmile_qr_scan", "android": "https://dc.lft.to/lastmile_qr_scan"}}, {"name": "ca6d51081b4801c0b1b9ca3a4aba4ddf", "fusion_lat": 0.0, "type": "electric_scooter", "lat": 38.88745333333333, "is_reserved": 0, "is_disabled": 0, "fusion_lon": 0.0, "bike_id": "ca6d51081b4801c0b1b9ca3a4aba4ddf", "lon": -77.0213595, "rental_uris": {"ios": "https://dc.lft.to/lastmile_qr_scan", "android": "https://dc.lft.to/lastmile_qr_scan"}}, {"name": "5474c21d584197eaa5bb6bde12ebe9c6", "fusion_lat": 0.0, "type": "electric_scooter", "lat": 38.92527916666667, "is_reserved": 0, "is_disabled": 0, "fusion_lon": 0.0, "bike_id": "5474c21d584197eaa5bb6bde12ebe9c6", "lon": -77.05539816666666, "rental_uris": {"ios": "https://dc.lft.to/lastmile_qr_scan", "android": "https://dc.lft.to/lastmile_qr_scan"}}, {"name": "00922dad03373a899560bf20a044d7f2", "fusion_lat": 0.0, "type": "electric_scooter", "lat": 38.89967883333333, "is_reserved": 0, "is_disabled": 0, "fusion_lon": 0.0, "bike_id": "00922dad03373a899560bf20a044d7f2", "lon": -76.93963233333334, "rental_uris": {"ios": "https://dc.lft.to/lastmile_qr_scan", "android": "https://dc.lft.to/lastmile_qr_scan"}}, {"name": "bba9974e8854e26ae8990525db629f73", "fusion_lat": 0.0, "type": "electric_bike", "lat": 38.8484485, "is_reserved": 0, "is_disabled": 0, "fusion_lon": 0.0, "bike_id": "bba9974e8854e26ae8990525db629f73", "lon": -77.0804665, "rental_uris": {"ios": "https://dc.lft.to/lastmile_qr_scan", "android": "https://dc.lft.to/lastmile_qr_scan"}}, {"name": "cd582c4eae71df6e0b5f996a22f0728d", "fusion_lat": 0.0, "type": "electric_scooter", "lat": 38.88428916666667, "is_reserved": 0, "is_disabled": 0, "fusion_lon": 0.0, "bike_id": "cd582c4eae71df6e0b5f996a22f0728d", "lon": -76.95753316666666, "rental_uris": {"ios": "https://dc.lft.to/lastmile_qr_scan", "android": "https://dc.lft.to/lastmile_qr_scan"}}, {"name": "ea46c2030c04107124a7333e94ccdb16", "fusion_lat": 0.0, "type": "electric_scooter", "lat": 38.89760833333333, "is_reserved": 0, "is_disabled": 0, "fusion_lon": 0.0, "bike_id": "ea46c2030c04107124a7333e94ccdb16", "lon": -77.03107483333334, "rental_uris": {"ios": "https://dc.lft.to/lastmile_qr_scan", "android": "https://dc.lft.to/lastmile_qr_scan"}}, {"name": "6a537000e652b28a31c62199b858fdc9", "fusion_lat": 0.0, "type": "electric_scooter", "lat": 38.85711466666667, "is_reserved": 0, "is_disabled": 0, "fusion_lon": 0.0, "bike_id": "6a537000e652b28a31c62199b858fdc9", "lon": -76.98130833333333, "rental_uris": {"ios": "https://dc.lft.to/lastmile_qr_scan", "android": "https://dc.lft.to/lastmile_qr_scan"}}, {"name": "722215e66a0beddf8770853d504cb39d", "fusion_lat": 0.0, "type": "electric_scooter", "lat": 38.89961133333333, "is_reserved": 0, "is_disabled": 0, "fusion_lon": 0.0, "bike_id": "722215e66a0beddf8770853d504cb39d", "lon": -77.039331, "rental_uris": {"ios": "https://dc.lft.to/lastmile_qr_scan", "android": "https://dc.lft.to/lastmile_qr_scan"}}, {"name": "c790d7a76a8011c0c1437b0d00ea140c", "fusion_lat": 0.0, "type": "electric_bike", "lat": 38.959636333333336, "is_reserved": 0, "is_disabled": 0, "fusion_lon": 0.0, "bike_id": "c790d7a76a8011c0c1437b0d00ea140c", "lon": -77.1009345, "rental_uris": {"ios": "https://dc.lft.to/lastmile_qr_scan", "android": "https://dc.lft.to/lastmile_qr_scan"}}, {"name": "725300adca0d34181430f7f4d8d79747", "fusion_lat": 0.0, "type": "electric_bike", "lat": 38.911909333333334, "is_reserved": 0, "is_disabled": 0, "fusion_lon": 0.0, "bike_id": "725300adca0d34181430f7f4d8d79747", "lon": -77.0019595, "rental_uris": {"ios": "https://dc.lft.to/lastmile_qr_scan", "android": "https://dc.lft.to/lastmile_qr_scan"}}, {"name": "5fac2148be5a863889c548df36364d19", "fusion_lat": 0.0, "type": "electric_bike", "lat": 38.8579315, "is_reserved": 0, "is_disabled": 0, "fusion_lon": 0.0, "bike_id": "5fac2148be5a863889c548df36364d19", "lon": -76.9874345, "rental_uris": {"ios": "https://dc.lft.to/lastmile_qr_scan", "android": "https://dc.lft.to/lastmile_qr_scan"}}, {"name": "0e890c568664c823c973dba9ce4295ce", "fusion_lat": 0.0, "type": "electric_scooter", "lat": 38.906489666666666, "is_reserved": 0, "is_disabled": 0, "fusion_lon": 0.0, "bike_id": "0e890c568664c823c973dba9ce4295ce", "lon": -77.011385, "rental_uris": {"ios": "https://dc.lft.to/lastmile_qr_scan", "android": "https://dc.lft.to/lastmile_qr_scan"}}, {"name": "bfbb77b6d2a6ff9476ba7c1788e26caa", "fusion_lat": 0.0, "type": "electric_scooter", "lat": 38.900004333333335, "is_reserved": 0, "is_disabled": 0, "fusion_lon": 0.0, "bike_id": "bfbb77b6d2a6ff9476ba7c1788e26caa", "lon": -76.99624683333333, "rental_uris": {"ios": "https://dc.lft.to/lastmile_qr_scan", "android": "https://dc.lft.to/lastmile_qr_scan"}}, {"name": "133a23b14f30bcd3634d40df40be32b2", "fusion_lat": 0.0, "type": "electric_bike", "lat": 38.889864333333335, "is_reserved": 0, "is_disabled": 0, "fusion_lon": 0.0, "bike_id": "133a23b14f30bcd3634d40df40be32b2", "lon": -76.99512066666666, "rental_uris": {"ios": "https://dc.lft.to/lastmile_qr_scan", "android": "https://dc.lft.to/lastmile_qr_scan"}}, {"name": "757db5c22a779c2bca63272a6683ef80", "fusion_lat": 0.0, "type": "electric_scooter", "lat": 38.901459, "is_reserved": 0, "is_disabled": 0, "fusion_lon": 0.0, "bike_id": "757db5c22a779c2bca63272a6683ef80", "lon": -77.03967416666667, "rental_uris": {"ios": "https://dc.lft.to/lastmile_qr_scan", "android": "https://dc.lft.to/lastmile_qr_scan"}}, {"name": "eaa7dc18f80e9c5df77bb2313e869faa", "fusion_lat": 0.0, "type": "electric_scooter", "lat": 38.91261266666667, "is_reserved": 0, "is_disabled": 0, "fusion_lon": 0.0, "bike_id": "eaa7dc18f80e9c5df77bb2313e869faa", "lon": -77.014347, "rental_uris": {"ios": "https://dc.lft.to/lastmile_qr_scan", "android": "https://dc.lft.to/lastmile_qr_scan"}}, {"name": "dde3fc1f0b08e8906fa5144e909f6058", "fusion_lat": 0.0, "type": "electric_scooter", "lat": 38.84543016666667, "is_reserved": 0, "is_disabled": 0, "fusion_lon": 0.0, "bike_id": "dde3fc1f0b08e8906fa5144e909f6058", "lon": -76.995977, "rental_uris": {"ios": "https://dc.lft.to/lastmile_qr_scan", "android": "https://dc.lft.to/lastmile_qr_scan"}}, {"name": "ec27ee5827d5239a05c37ab14fc1b286", "fusion_lat": 0.0, "type": "electric_scooter", "lat": 38.90031416666667, "is_reserved": 0, "is_disabled": 0, "fusion_lon": 0.0, "bike_id": "ec27ee5827d5239a05c37ab14fc1b286", "lon": -77.00196283333334, "rental_uris": {"ios": "https://dc.lft.to/lastmile_qr_scan", "android": "https://dc.lft.to/lastmile_qr_scan"}}, {"name": "0d9990c66637de76271a397cb19dd87b", "fusion_lat": 0.0, "type": "electric_scooter", "lat": 38.9132575, "is_reserved": 0, "is_disabled": 0, "fusion_lon": 0.0, "bike_id": "0d9990c66637de76271a397cb19dd87b", "lon": -77.0454015, "rental_uris": {"ios": "https://dc.lft.to/lastmile_qr_scan", "android": "https://dc.lft.to/lastmile_qr_scan"}}, {"name": "4b758191eb82b05b347ff23d025c8913", "fusion_lat": 0.0, "type": "electric_scooter", "lat": 38.918506666666666, "is_reserved": 0, "is_disabled": 0, "fusion_lon": 0.0, "bike_id": "4b758191eb82b05b347ff23d025c8913", "lon": -77.02601366666667, "rental_uris": {"ios": "https://dc.lft.to/lastmile_qr_scan", "android": "https://dc.lft.to/lastmile_qr_scan"}}, {"name": "e9dfa3e02fca412c48b3597514bac6f6", "fusion_lat": 0.0, "type": "electric_scooter", "lat": 38.90418366666667, "is_reserved": 0, "is_disabled": 0, "fusion_lon": 0.0, "bike_id": "e9dfa3e02fca412c48b3597514bac6f6", "lon": -76.97887, "rental_uris": {"ios": "https://dc.lft.to/lastmile_qr_scan", "android": "https://dc.lft.to/lastmile_qr_scan"}}, {"name": "a91707f1b20e66d9f158f1acf93f08db", "fusion_lat": 0.0, "type": "electric_scooter", "lat": 38.916332833333335, "is_reserved": 0, "is_disabled": 0, "fusion_lon": 0.0, "bike_id": "a91707f1b20e66d9f158f1acf93f08db", "lon": -77.00107716666666, "rental_uris": {"ios": "https://dc.lft.to/lastmile_qr_scan", "android": "https://dc.lft.to/lastmile_qr_scan"}}, {"name": "ad2708faaffb91d561c3b8aeb35fd51b", "fusion_lat": 0.0, "type": "electric_scooter", "lat": 38.9283025, "is_reserved": 0, "is_disabled": 0, "fusion_lon": 0.0, "bike_id": "ad2708faaffb91d561c3b8aeb35fd51b", "lon": -77.0371655, "rental_uris": {"ios": "https://dc.lft.to/lastmile_qr_scan", "android": "https://dc.lft.to/lastmile_qr_scan"}}, {"name": "8485e72a4667c913eb752f1e6d8279f4", "fusion_lat": 0.0, "type": "electric_scooter", "lat": 38.86046483333333, "is_reserved": 0, "is_disabled": 0, "fusion_lon": 0.0, "bike_id": "8485e72a4667c913eb752f1e6d8279f4", "lon": -76.98498616666667, "rental_uris": {"ios": "https://dc.lft.to/lastmile_qr_scan", "android": "https://dc.lft.to/lastmile_qr_scan"}}, {"name": "0a1a21ae780434d6a95545c196b9594c", "fusion_lat": 0.0, "type": "electric_bike", "lat": 38.903286666666666, "is_reserved": 0, "is_disabled": 0, "fusion_lon": 0.0, "bike_id": "0a1a21ae780434d6a95545c196b9594c", "lon": -76.97319833333333, "rental_uris": {"ios": "https://dc.lft.to/lastmile_qr_scan", "android": "https://dc.lft.to/lastmile_qr_scan"}}, {"name": "49f6473c8725f40f05aedec21b1040e6", "fusion_lat": 0.0, "type": "electric_scooter", "lat": 38.932670333333334, "is_reserved": 0, "is_disabled": 0, "fusion_lon": 0.0, "bike_id": "49f6473c8725f40f05aedec21b1040e6", "lon": -77.03896383333333, "rental_uris": {"ios": "https://dc.lft.to/lastmile_qr_scan", "android": "https://dc.lft.to/lastmile_qr_scan"}}, {"name": "7b46c8dfd4e711266d8d475925878755", "fusion_lat": 0.0, "type": "electric_scooter", "lat": 38.911927, "is_reserved": 0, "is_disabled": 0, "fusion_lon": 0.0, "bike_id": "7b46c8dfd4e711266d8d475925878755", "lon": -77.03188933333334, "rental_uris": {"ios": "https://dc.lft.to/lastmile_qr_scan", "android": "https://dc.lft.to/lastmile_qr_scan"}}, {"name": "2ad401b3661ea0830ee58d4f639790a2", "fusion_lat": 0.0, "type": "electric_bike", "lat": 38.992327333333336, "is_reserved": 0, "is_disabled": 0, "fusion_lon": 0.0, "bike_id": "2ad401b3661ea0830ee58d4f639790a2", "lon": -76.87824433333333, "rental_uris": {"ios": "https://dc.lft.to/lastmile_qr_scan", "android": "https://dc.lft.to/lastmile_qr_scan"}}, {"name": "57448cac3d3e840630fe224ea8987132", "fusion_lat": 0.0, "type": "electric_bike", "lat": 38.88427266666667, "is_reserved": 0, "is_disabled": 0, "fusion_lon": 0.0, "bike_id": "57448cac3d3e840630fe224ea8987132", "lon": -76.95768699999999, "rental_uris": {"ios": "https://dc.lft.to/lastmile_qr_scan", "android": "https://dc.lft.to/lastmile_qr_scan"}}, {"name": "65eefa7270061488037ddb104f7e9c39", "fusion_lat": 0.0, "type": "electric_scooter", "lat": 38.87267516666667, "is_reserved": 0, "is_disabled": 0, "fusion_lon": 0.0, "bike_id": "65eefa7270061488037ddb104f7e9c39", "lon": -77.01533716666667, "rental_uris": {"ios": "https://dc.lft.to/lastmile_qr_scan", "android": "https://dc.lft.to/lastmile_qr_scan"}}, {"name": "c8e53cf964c7a5db5c56a3c364ea4da4", "fusion_lat": 0.0, "type": "electric_bike", "lat": 38.9052515, "is_reserved": 0, "is_disabled": 0, "fusion_lon": 0.0, "bike_id": "c8e53cf964c7a5db5c56a3c364ea4da4", "lon": -77.07189533333333, "rental_uris": {"ios": "https://dc.lft.to/lastmile_qr_scan", "android": "https://dc.lft.to/lastmile_qr_scan"}}, {"name": "ef704e66acecec33b82e164a29cd0b71", "fusion_lat": 0.0, "type": "electric_scooter", "lat": 38.903418333333335, "is_reserved": 0, "is_disabled": 0, "fusion_lon": 0.0, "bike_id": "ef704e66acecec33b82e164a29cd0b71", "lon": -76.94666366666667, "rental_uris": {"ios": "https://dc.lft.to/lastmile_qr_scan", "android": "https://dc.lft.to/lastmile_qr_scan"}}, {"name": "7380b75d7b69be0b9dbb654a811c2fbd", "fusion_lat": 0.0, "type": "electric_bike", "lat": 38.943676833333335, "is_reserved": 0, "is_disabled": 0, "fusion_lon": 0.0, "bike_id": "7380b75d7b69be0b9dbb654a811c2fbd", "lon": -77.00343666666667, "rental_uris": {"ios": "https://dc.lft.to/lastmile_qr_scan", "android": "https://dc.lft.to/lastmile_qr_scan"}}, {"name": "353cad311bd6fe13c509bf7eaaf7660e", "fusion_lat": 0.0, "type": "electric_scooter", "lat": 38.9054565, "is_reserved": 0, "is_disabled": 0, "fusion_lon": 0.0, "bike_id": "353cad311bd6fe13c509bf7eaaf7660e", "lon": -77.00541316666667, "rental_uris": {"ios": "https://dc.lft.to/lastmile_qr_scan", "android": "https://dc.lft.to/lastmile_qr_scan"}}, {"name": "9dbf9a5c809f2b5d5690c31443a60bcd", "fusion_lat": 0.0, "type": "electric_bike", "lat": 38.94916883333333, "is_reserved": 0, "is_disabled": 0, "fusion_lon": 0.0, "bike_id": "9dbf9a5c809f2b5d5690c31443a60bcd", "lon": -77.00842816666666, "rental_uris": {"ios": "https://dc.lft.to/lastmile_qr_scan", "android": "https://dc.lft.to/lastmile_qr_scan"}}, {"name": "859f7eee52a589d75a704a7b9833a77c", "fusion_lat": 0.0, "type": "electric_scooter", "lat": 38.92355933333333, "is_reserved": 0, "is_disabled": 0, "fusion_lon": 0.0, "bike_id": "859f7eee52a589d75a704a7b9833a77c", "lon": -77.0505825, "rental_uris": {"ios": "https://dc.lft.to/lastmile_qr_scan", "android": "https://dc.lft.to/lastmile_qr_scan"}}, {"name": "1ff7fe859f3909ba3cc61b9a7c213b5c", "fusion_lat": 0.0, "type": "electric_scooter", "lat": 38.92528633333333, "is_reserved": 0, "is_disabled": 0, "fusion_lon": 0.0, "bike_id": "1ff7fe859f3909ba3cc61b9a7c213b5c", "lon": -77.032153, "rental_uris": {"ios": "https://dc.lft.to/lastmile_qr_scan", "android": "https://dc.lft.to/lastmile_qr_scan"}}, {"name": "c14461f8f6f9c5cc125940d0def6a789", "fusion_lat": 0.0, "type": "electric_scooter", "lat": 38.9369035, "is_reserved": 0, "is_disabled": 0, "fusion_lon": 0.0, "bike_id": "c14461f8f6f9c5cc125940d0def6a789", "lon": -77.03282533333334, "rental_uris": {"ios": "https://dc.lft.to/lastmile_qr_scan", "android": "https://dc.lft.to/lastmile_qr_scan"}}, {"name": "69b61c2f74be84e74f2378c018cbdda0", "fusion_lat": 0.0, "type": "electric_scooter", "lat": 38.8965955, "is_reserved": 0, "is_disabled": 0, "fusion_lon": 0.0, "bike_id": "69b61c2f74be84e74f2378c018cbdda0", "lon": -77.05034616666667, "rental_uris": {"ios": "https://dc.lft.to/lastmile_qr_scan", "android": "https://dc.lft.to/lastmile_qr_scan"}}, {"name": "68259a3c696b6158e5472565f210394e", "fusion_lat": 0.0, "type": "electric_bike", "lat": 38.850660833333336, "is_reserved": 0, "is_disabled": 0, "fusion_lon": 0.0, "bike_id": "68259a3c696b6158e5472565f210394e", "lon": -76.97331366666667, "rental_uris": {"ios": "https://dc.lft.to/lastmile_qr_scan", "android": "https://dc.lft.to/lastmile_qr_scan"}}, {"name": "de09bd42e03b84e8b7c418aef83d3d14", "fusion_lat": 0.0, "type": "electric_scooter", "lat": 38.92022133333333, "is_reserved": 0, "is_disabled": 0, "fusion_lon": 0.0, "bike_id": "de09bd42e03b84e8b7c418aef83d3d14", "lon": -77.0347415, "rental_uris": {"ios": "https://dc.lft.to/lastmile_qr_scan", "android": "https://dc.lft.to/lastmile_qr_scan"}}, {"name": "1b36bc9e79c4c4b56b525a4245861dd6", "fusion_lat": 0.0, "type": "electric_scooter", "lat": 38.92397283333333, "is_reserved": 0, "is_disabled": 0, "fusion_lon": 0.0, "bike_id": "1b36bc9e79c4c4b56b525a4245861dd6", "lon": -77.0320595, "rental_uris": {"ios": "https://dc.lft.to/lastmile_qr_scan", "android": "https://dc.lft.to/lastmile_qr_scan"}}, {"name": "dd413b7308e504472fd69296872b0fa9", "fusion_lat": 0.0, "type": "electric_scooter", "lat": 38.96181633333333, "is_reserved": 0, "is_disabled": 0, "fusion_lon": 0.0, "bike_id": "dd413b7308e504472fd69296872b0fa9", "lon": -77.03228383333334, "rental_uris": {"ios": "https://dc.lft.to/lastmile_qr_scan", "android": "https://dc.lft.to/lastmile_qr_scan"}}, {"name": "a469cc254ab739f151090a7e1504ddcf", "fusion_lat": 0.0, "type": "electric_scooter", "lat": 38.896037166666666, "is_reserved": 0, "is_disabled": 0, "fusion_lon": 0.0, "bike_id": "a469cc254ab739f151090a7e1504ddcf", "lon": -77.04674866666667, "rental_uris": {"ios": "https://dc.lft.to/lastmile_qr_scan", "android": "https://dc.lft.to/lastmile_qr_scan"}}, {"name": "d8ff80536cf4c8bc1aca4920f921b1b4", "fusion_lat": 0.0, "type": "electric_scooter", "lat": 38.902462, "is_reserved": 0, "is_disabled": 0, "fusion_lon": 0.0, "bike_id": "d8ff80536cf4c8bc1aca4920f921b1b4", "lon": -77.04578066666667, "rental_uris": {"ios": "https://dc.lft.to/lastmile_qr_scan", "android": "https://dc.lft.to/lastmile_qr_scan"}}, {"name": "08e8b8d15d820ce569c6458a1b0df757", "fusion_lat": 0.0, "type": "electric_scooter", "lat": 38.9171155, "is_reserved": 0, "is_disabled": 0, "fusion_lon": 0.0, "bike_id": "08e8b8d15d820ce569c6458a1b0df757", "lon": -77.02894866666666, "rental_uris": {"ios": "https://dc.lft.to/lastmile_qr_scan", "android": "https://dc.lft.to/lastmile_qr_scan"}}, {"name": "0ffc4330743bd26767a9509ffc36efef", "fusion_lat": 0.0, "type": "electric_scooter", "lat": 38.89491433333333, "is_reserved": 0, "is_disabled": 0, "fusion_lon": 0.0, "bike_id": "0ffc4330743bd26767a9509ffc36efef", "lon": -77.01013283333333, "rental_uris": {"ios": "https://dc.lft.to/lastmile_qr_scan", "android": "https://dc.lft.to/lastmile_qr_scan"}}, {"name": "5de2a1bc39e21c0233eb6b6111f24739", "fusion_lat": 0.0, "type": "electric_bike", "lat": 38.8443165, "is_reserved": 0, "is_disabled": 0, "fusion_lon": 0.0, "bike_id": "5de2a1bc39e21c0233eb6b6111f24739", "lon": -77.11262216666667, "rental_uris": {"ios": "https://dc.lft.to/lastmile_qr_scan", "android": "https://dc.lft.to/lastmile_qr_scan"}}, {"name": "9fdf26f706e31882583b4590cb6fd8cd", "fusion_lat": 0.0, "type": "electric_scooter", "lat": 38.904488, "is_reserved": 0, "is_disabled": 0, "fusion_lon": 0.0, "bike_id": "9fdf26f706e31882583b4590cb6fd8cd", "lon": -77.0309065, "rental_uris": {"ios": "https://dc.lft.to/lastmile_qr_scan", "android": "https://dc.lft.to/lastmile_qr_scan"}}, {"name": "852dbe80612bcd8c311b724c6a5ec96c", "fusion_lat": 0.0, "type": "electric_scooter", "lat": 38.917108166666665, "is_reserved": 0, "is_disabled": 0, "fusion_lon": 0.0, "bike_id": "852dbe80612bcd8c311b724c6a5ec96c", "lon": -77.0386485, "rental_uris": {"ios": "https://dc.lft.to/lastmile_qr_scan", "android": "https://dc.lft.to/lastmile_qr_scan"}}, {"name": "2940ea54a5e2166af987c184067ec8d6", "fusion_lat": 0.0, "type": "electric_scooter", "lat": 38.90847083333333, "is_reserved": 0, "is_disabled": 0, "fusion_lon": 0.0, "bike_id": "2940ea54a5e2166af987c184067ec8d6", "lon": -77.025955, "rental_uris": {"ios": "https://dc.lft.to/lastmile_qr_scan", "android": "https://dc.lft.to/lastmile_qr_scan"}}, {"name": "fb99bf45771cce2c4f87912b0f81f079", "fusion_lat": 0.0, "type": "electric_bike", "lat": 38.886188, "is_reserved": 0, "is_disabled": 0, "fusion_lon": 0.0, "bike_id": "fb99bf45771cce2c4f87912b0f81f079", "lon": -77.107554, "rental_uris": {"ios": "https://dc.lft.to/lastmile_qr_scan", "android": "https://dc.lft.to/lastmile_qr_scan"}}, {"name": "b3bff805b142076a33eca761b9e1f584", "fusion_lat": 0.0, "type": "electric_bike", "lat": 39.05350633333333, "is_reserved": 0, "is_disabled": 0, "fusion_lon": 0.0, "bike_id": "b3bff805b142076a33eca761b9e1f584", "lon": -77.1359695, "rental_uris": {"ios": "https://dc.lft.to/lastmile_qr_scan", "android": "https://dc.lft.to/lastmile_qr_scan"}}, {"name": "eb8e78bcdc321cfa82a5e17b26637f52", "fusion_lat": 0.0, "type": "electric_scooter", "lat": 38.93387516666667, "is_reserved": 0, "is_disabled": 0, "fusion_lon": 0.0, "bike_id": "eb8e78bcdc321cfa82a5e17b26637f52", "lon": -77.07387766666666, "rental_uris": {"ios": "https://dc.lft.to/lastmile_qr_scan", "android": "https://dc.lft.to/lastmile_qr_scan"}}, {"name": "5e648a02d7186506e43fec7ff336e167", "fusion_lat": 0.0, "type": "electric_scooter", "lat": 38.86264083333333, "is_reserved": 0, "is_disabled": 0, "fusion_lon": 0.0, "bike_id": "5e648a02d7186506e43fec7ff336e167", "lon": -76.98715, "rental_uris": {"ios": "https://dc.lft.to/lastmile_qr_scan", "android": "https://dc.lft.to/lastmile_qr_scan"}}, {"name": "fea3b7f4172bf4bddea5c94e43ae2d9d", "fusion_lat": 0.0, "type": "electric_scooter", "lat": 38.907267, "is_reserved": 0, "is_disabled": 0, "fusion_lon": 0.0, "bike_id": "fea3b7f4172bf4bddea5c94e43ae2d9d", "lon": -77.01077166666667, "rental_uris": {"ios": "https://dc.lft.to/lastmile_qr_scan", "android": "https://dc.lft.to/lastmile_qr_scan"}}, {"name": "3c033659526fdde32199e22a7cc8def5", "fusion_lat": 0.0, "type": "electric_scooter", "lat": 38.901461, "is_reserved": 0, "is_disabled": 0, "fusion_lon": 0.0, "bike_id": "3c033659526fdde32199e22a7cc8def5", "lon": -76.97421333333334, "rental_uris": {"ios": "https://dc.lft.to/lastmile_qr_scan", "android": "https://dc.lft.to/lastmile_qr_scan"}}, {"name": "d02dc221a1649584e11564a629af0a6a", "fusion_lat": 0.0, "type": "electric_scooter", "lat": 38.91825883333333, "is_reserved": 0, "is_disabled": 0, "fusion_lon": 0.0, "bike_id": "d02dc221a1649584e11564a629af0a6a", "lon": -77.024185, "rental_uris": {"ios": "https://dc.lft.to/lastmile_qr_scan", "android": "https://dc.lft.to/lastmile_qr_scan"}}, {"name": "a7dfa6152207d1f9b2ec067617d5a049", "fusion_lat": 0.0, "type": "electric_scooter", "lat": 38.9129485, "is_reserved": 0, "is_disabled": 0, "fusion_lon": 0.0, "bike_id": "a7dfa6152207d1f9b2ec067617d5a049", "lon": -77.06115366666667, "rental_uris": {"ios": "https://dc.lft.to/lastmile_qr_scan", "android": "https://dc.lft.to/lastmile_qr_scan"}}, {"name": "f702d22178f5853db1c4e7e2b5f27323", "fusion_lat": 0.0, "type": "electric_scooter", "lat": 38.942574666666665, "is_reserved": 0, "is_disabled": 0, "fusion_lon": 0.0, "bike_id": "f702d22178f5853db1c4e7e2b5f27323", "lon": -77.04135633333334, "rental_uris": {"ios": "https://dc.lft.to/lastmile_qr_scan", "android": "https://dc.lft.to/lastmile_qr_scan"}}, {"name": "a7d0ddf0727729f40a9ed61260f5e076", "fusion_lat": 0.0, "type": "electric_scooter", "lat": 38.91814933333333, "is_reserved": 0, "is_disabled": 0, "fusion_lon": 0.0, "bike_id": "a7d0ddf0727729f40a9ed61260f5e076", "lon": -77.01282233333333, "rental_uris": {"ios": "https://dc.lft.to/lastmile_qr_scan", "android": "https://dc.lft.to/lastmile_qr_scan"}}, {"name": "61b6acba2c2d87f690198d79630a8161", "fusion_lat": 0.0, "type": "electric_scooter", "lat": 38.937293833333335, "is_reserved": 0, "is_disabled": 0, "fusion_lon": 0.0, "bike_id": "61b6acba2c2d87f690198d79630a8161", "lon": -77.0326895, "rental_uris": {"ios": "https://dc.lft.to/lastmile_qr_scan", "android": "https://dc.lft.to/lastmile_qr_scan"}}, {"name": "14648da740335733157b4f066362bb9d", "fusion_lat": 0.0, "type": "electric_scooter", "lat": 38.865085666666666, "is_reserved": 0, "is_disabled": 0, "fusion_lon": 0.0, "bike_id": "14648da740335733157b4f066362bb9d", "lon": -76.9900335, "rental_uris": {"ios": "https://dc.lft.to/lastmile_qr_scan", "android": "https://dc.lft.to/lastmile_qr_scan"}}, {"name": "8dfff860ff59a870c223b511dd184e80", "fusion_lat": 0.0, "type": "electric_scooter", "lat": 38.92471716666667, "is_reserved": 0, "is_disabled": 0, "fusion_lon": 0.0, "bike_id": "8dfff860ff59a870c223b511dd184e80", "lon": -77.02715133333334, "rental_uris": {"ios": "https://dc.lft.to/lastmile_qr_scan", "android": "https://dc.lft.to/lastmile_qr_scan"}}, {"name": "0aaa982328aa38537045aaf47db2b965", "fusion_lat": 0.0, "type": "electric_scooter", "lat": 38.90061766666667, "is_reserved": 0, "is_disabled": 0, "fusion_lon": 0.0, "bike_id": "0aaa982328aa38537045aaf47db2b965", "lon": -77.04889283333333, "rental_uris": {"ios": "https://dc.lft.to/lastmile_qr_scan", "android": "https://dc.lft.to/lastmile_qr_scan"}}, {"name": "6b2d53d6cc2f88cb4f4adbaa351ff440", "fusion_lat": 0.0, "type": "electric_scooter", "lat": 38.915671, "is_reserved": 0, "is_disabled": 0, "fusion_lon": 0.0, "bike_id": "6b2d53d6cc2f88cb4f4adbaa351ff440", "lon": -77.0315945, "rental_uris": {"ios": "https://dc.lft.to/lastmile_qr_scan", "android": "https://dc.lft.to/lastmile_qr_scan"}}, {"name": "cd11fd8dcd8a79881697b5fbbd8c1353", "fusion_lat": 0.0, "type": "electric_bike", "lat": 38.87531466666667, "is_reserved": 0, "is_disabled": 0, "fusion_lon": 0.0, "bike_id": "cd11fd8dcd8a79881697b5fbbd8c1353", "lon": -77.19909516666667, "rental_uris": {"ios": "https://dc.lft.to/lastmile_qr_scan", "android": "https://dc.lft.to/lastmile_qr_scan"}}, {"name": "acb146dd0e3de5898601aa6510d177b3", "fusion_lat": 0.0, "type": "electric_scooter", "lat": 38.91825566666667, "is_reserved": 0, "is_disabled": 0, "fusion_lon": 0.0, "bike_id": "acb146dd0e3de5898601aa6510d177b3", "lon": -77.027989, "rental_uris": {"ios": "https://dc.lft.to/lastmile_qr_scan", "android": "https://dc.lft.to/lastmile_qr_scan"}}, {"name": "9c2d47f990ae21c225066b69e9264ce3", "fusion_lat": 0.0, "type": "electric_scooter", "lat": 38.899094, "is_reserved": 0, "is_disabled": 0, "fusion_lon": 0.0, "bike_id": "9c2d47f990ae21c225066b69e9264ce3", "lon": -76.9336755, "rental_uris": {"ios": "https://dc.lft.to/lastmile_qr_scan", "android": "https://dc.lft.to/lastmile_qr_scan"}}, {"name": "2ffe5646e22701c6f3a1146ebd421d39", "fusion_lat": 0.0, "type": "electric_bike", "lat": 38.857938833333336, "is_reserved": 0, "is_disabled": 0, "fusion_lon": 0.0, "bike_id": "2ffe5646e22701c6f3a1146ebd421d39", "lon": -77.099608, "rental_uris": {"ios": "https://dc.lft.to/lastmile_qr_scan", "android": "https://dc.lft.to/lastmile_qr_scan"}}, {"name": "74511b6e364db012c0532b855966d87a", "fusion_lat": 0.0, "type": "electric_scooter", "lat": 38.876372333333336, "is_reserved": 0, "is_disabled": 0, "fusion_lon": 0.0, "bike_id": "74511b6e364db012c0532b855966d87a", "lon": -77.007349, "rental_uris": {"ios": "https://dc.lft.to/lastmile_qr_scan", "android": "https://dc.lft.to/lastmile_qr_scan"}}, {"name": "021e3b2b74af8f2b20b07bcc1d043ffa", "fusion_lat": 0.0, "type": "electric_scooter", "lat": 38.884561, "is_reserved": 0, "is_disabled": 0, "fusion_lon": 0.0, "bike_id": "021e3b2b74af8f2b20b07bcc1d043ffa", "lon": -76.924695, "rental_uris": {"ios": "https://dc.lft.to/lastmile_qr_scan", "android": "https://dc.lft.to/lastmile_qr_scan"}}, {"name": "f5de8c601ecb65f663918d0f7052fbac", "fusion_lat": 0.0, "type": "electric_scooter", "lat": 38.87936216666667, "is_reserved": 0, "is_disabled": 0, "fusion_lon": 0.0, "bike_id": "f5de8c601ecb65f663918d0f7052fbac", "lon": -77.02114016666667, "rental_uris": {"ios": "https://dc.lft.to/lastmile_qr_scan", "android": "https://dc.lft.to/lastmile_qr_scan"}}, {"name": "3299971a0a6f661bc1bfde34bc796266", "fusion_lat": 0.0, "type": "electric_scooter", "lat": 38.916476333333335, "is_reserved": 0, "is_disabled": 0, "fusion_lon": 0.0, "bike_id": "3299971a0a6f661bc1bfde34bc796266", "lon": -77.048053, "rental_uris": {"ios": "https://dc.lft.to/lastmile_qr_scan", "android": "https://dc.lft.to/lastmile_qr_scan"}}, {"name": "6c93c430f9e7e18aca12dbd1ffc18518", "fusion_lat": 0.0, "type": "electric_bike", "lat": 39.094572, "is_reserved": 0, "is_disabled": 0, "fusion_lon": 0.0, "bike_id": "6c93c430f9e7e18aca12dbd1ffc18518", "lon": -77.149936, "rental_uris": {"ios": "https://dc.lft.to/lastmile_qr_scan", "android": "https://dc.lft.to/lastmile_qr_scan"}}, {"name": "7ea3076a8bd9095361f7b106ce2ad0bb", "fusion_lat": 0.0, "type": "electric_scooter", "lat": 38.9272925, "is_reserved": 0, "is_disabled": 0, "fusion_lon": 0.0, "bike_id": "7ea3076a8bd9095361f7b106ce2ad0bb", "lon": -77.00568866666667, "rental_uris": {"ios": "https://dc.lft.to/lastmile_qr_scan", "android": "https://dc.lft.to/lastmile_qr_scan"}}, {"name": "2ad442405d21279c865616517cde59d7", "fusion_lat": 0.0, "type": "electric_scooter", "lat": 38.92890516666667, "is_reserved": 0, "is_disabled": 0, "fusion_lon": 0.0, "bike_id": "2ad442405d21279c865616517cde59d7", "lon": -77.05449783333333, "rental_uris": {"ios": "https://dc.lft.to/lastmile_qr_scan", "android": "https://dc.lft.to/lastmile_qr_scan"}}, {"name": "0e3e1aff33837f603264d911f0021065", "fusion_lat": 0.0, "type": "electric_scooter", "lat": 38.9200785, "is_reserved": 0, "is_disabled": 0, "fusion_lon": 0.0, "bike_id": "0e3e1aff33837f603264d911f0021065", "lon": -77.0820285, "rental_uris": {"ios": "https://dc.lft.to/lastmile_qr_scan", "android": "https://dc.lft.to/lastmile_qr_scan"}}, {"name": "d0cca56c4fd4a6f695760a2198537ac9", "fusion_lat": 0.0, "type": "electric_bike", "lat": 38.919107, "is_reserved": 0, "is_disabled": 0, "fusion_lon": 0.0, "bike_id": "d0cca56c4fd4a6f695760a2198537ac9", "lon": -77.00063, "rental_uris": {"ios": "https://dc.lft.to/lastmile_qr_scan", "android": "https://dc.lft.to/lastmile_qr_scan"}}, {"name": "4be5953e0b95a01c4436bb8c5b8e57e6", "fusion_lat": 0.0, "type": "electric_scooter", "lat": 38.89376883333333, "is_reserved": 0, "is_disabled": 0, "fusion_lon": 0.0, "bike_id": "4be5953e0b95a01c4436bb8c5b8e57e6", "lon": -76.950002, "rental_uris": {"ios": "https://dc.lft.to/lastmile_qr_scan", "android": "https://dc.lft.to/lastmile_qr_scan"}}, {"name": "e3a90d0672b2e8704c7656df8e015510", "fusion_lat": 0.0, "type": "electric_bike", "lat": 38.88352883333334, "is_reserved": 0, "is_disabled": 0, "fusion_lon": 0.0, "bike_id": "e3a90d0672b2e8704c7656df8e015510", "lon": -77.18295833333333, "rental_uris": {"ios": "https://dc.lft.to/lastmile_qr_scan", "android": "https://dc.lft.to/lastmile_qr_scan"}}, {"name": "c8df86d086ad64825f2eb8c8f3f613a6", "fusion_lat": 0.0, "type": "electric_scooter", "lat": 38.885962666666664, "is_reserved": 0, "is_disabled": 0, "fusion_lon": 0.0, "bike_id": "c8df86d086ad64825f2eb8c8f3f613a6", "lon": -77.02203833333333, "rental_uris": {"ios": "https://dc.lft.to/lastmile_qr_scan", "android": "https://dc.lft.to/lastmile_qr_scan"}}, {"name": "7963d463eefb97d2ac9262032437ad0a", "fusion_lat": 0.0, "type": "electric_scooter", "lat": 38.927266333333336, "is_reserved": 0, "is_disabled": 0, "fusion_lon": 0.0, "bike_id": "7963d463eefb97d2ac9262032437ad0a", "lon": -77.0714085, "rental_uris": {"ios": "https://dc.lft.to/lastmile_qr_scan", "android": "https://dc.lft.to/lastmile_qr_scan"}}, {"name": "5497999d7bedd23f4ad96e9fdc7192e4", "fusion_lat": 0.0, "type": "electric_scooter", "lat": 38.935324666666666, "is_reserved": 0, "is_disabled": 0, "fusion_lon": 0.0, "bike_id": "5497999d7bedd23f4ad96e9fdc7192e4", "lon": -77.032639, "rental_uris": {"ios": "https://dc.lft.to/lastmile_qr_scan", "android": "https://dc.lft.to/lastmile_qr_scan"}}, {"name": "c2f0484770ba7497962a904de937d312", "fusion_lat": 0.0, "type": "electric_scooter", "lat": 38.909786, "is_reserved": 0, "is_disabled": 0, "fusion_lon": 0.0, "bike_id": "c2f0484770ba7497962a904de937d312", "lon": -77.01714533333333, "rental_uris": {"ios": "https://dc.lft.to/lastmile_qr_scan", "android": "https://dc.lft.to/lastmile_qr_scan"}}, {"name": "3e2781b77bd96a829d0c4b8763e061f7", "fusion_lat": 0.0, "type": "electric_scooter", "lat": 38.905676666666665, "is_reserved": 0, "is_disabled": 0, "fusion_lon": 0.0, "bike_id": "3e2781b77bd96a829d0c4b8763e061f7", "lon": -77.04879333333334, "rental_uris": {"ios": "https://dc.lft.to/lastmile_qr_scan", "android": "https://dc.lft.to/lastmile_qr_scan"}}, {"name": "1d2e8d1b1b72f71d986759515c0837d0", "fusion_lat": 0.0, "type": "electric_scooter", "lat": 38.965653, "is_reserved": 0, "is_disabled": 0, "fusion_lon": 0.0, "bike_id": "1d2e8d1b1b72f71d986759515c0837d0", "lon": -77.01628683333334, "rental_uris": {"ios": "https://dc.lft.to/lastmile_qr_scan", "android": "https://dc.lft.to/lastmile_qr_scan"}}, {"name": "c5200527e37ce638160fc20fe3b3c216", "fusion_lat": 0.0, "type": "electric_bike", "lat": 38.91314666666667, "is_reserved": 0, "is_disabled": 0, "fusion_lon": 0.0, "bike_id": "c5200527e37ce638160fc20fe3b3c216", "lon": -76.97607866666667, "rental_uris": {"ios": "https://dc.lft.to/lastmile_qr_scan", "android": "https://dc.lft.to/lastmile_qr_scan"}}, {"name": "8a169274bccc8fc459fcae0d061b8428", "fusion_lat": 0.0, "type": "electric_scooter", "lat": 38.938750666666664, "is_reserved": 0, "is_disabled": 0, "fusion_lon": 0.0, "bike_id": "8a169274bccc8fc459fcae0d061b8428", "lon": -77.03259066666666, "rental_uris": {"ios": "https://dc.lft.to/lastmile_qr_scan", "android": "https://dc.lft.to/lastmile_qr_scan"}}, {"name": "1097ae3ad4031f10fbea32c6624717cc", "fusion_lat": 0.0, "type": "electric_scooter", "lat": 38.93015583333333, "is_reserved": 0, "is_disabled": 0, "fusion_lon": 0.0, "bike_id": "1097ae3ad4031f10fbea32c6624717cc", "lon": -77.037839, "rental_uris": {"ios": "https://dc.lft.to/lastmile_qr_scan", "android": "https://dc.lft.to/lastmile_qr_scan"}}, {"name": "5a36ab7b586a2d4ce1211792740e302a", "fusion_lat": 0.0, "type": "electric_scooter", "lat": 38.8983635, "is_reserved": 0, "is_disabled": 0, "fusion_lon": 0.0, "bike_id": "5a36ab7b586a2d4ce1211792740e302a", "lon": -77.0201195, "rental_uris": {"ios": "https://dc.lft.to/lastmile_qr_scan", "android": "https://dc.lft.to/lastmile_qr_scan"}}, {"name": "f9101d35d81bdfeb1ec6983903e29e90", "fusion_lat": 0.0, "type": "electric_scooter", "lat": 38.912137666666666, "is_reserved": 0, "is_disabled": 0, "fusion_lon": 0.0, "bike_id": "f9101d35d81bdfeb1ec6983903e29e90", "lon": -77.076035, "rental_uris": {"ios": "https://dc.lft.to/lastmile_qr_scan", "android": "https://dc.lft.to/lastmile_qr_scan"}}, {"name": "51e2e98bab7b60b45104ded0a89c007b", "fusion_lat": 0.0, "type": "electric_bike", "lat": 38.8554545, "is_reserved": 0, "is_disabled": 0, "fusion_lon": 0.0, "bike_id": "51e2e98bab7b60b45104ded0a89c007b", "lon": -77.10713716666666, "rental_uris": {"ios": "https://dc.lft.to/lastmile_qr_scan", "android": "https://dc.lft.to/lastmile_qr_scan"}}, {"name": "b35a1846dd45e67ad6a2b6b003b639e1", "fusion_lat": 0.0, "type": "electric_scooter", "lat": 38.894868833333334, "is_reserved": 0, "is_disabled": 0, "fusion_lon": 0.0, "bike_id": "b35a1846dd45e67ad6a2b6b003b639e1", "lon": -76.94873916666667, "rental_uris": {"ios": "https://dc.lft.to/lastmile_qr_scan", "android": "https://dc.lft.to/lastmile_qr_scan"}}, {"name": "22943258262dc9528f44b0cc8f2370da", "fusion_lat": 0.0, "type": "electric_bike", "lat": 38.93416283333333, "is_reserved": 0, "is_disabled": 0, "fusion_lon": 0.0, "bike_id": "22943258262dc9528f44b0cc8f2370da", "lon": -77.0250935, "rental_uris": {"ios": "https://dc.lft.to/lastmile_qr_scan", "android": "https://dc.lft.to/lastmile_qr_scan"}}, {"name": "ca7a012fbcc9bec7c2a73886bb91322f", "fusion_lat": 0.0, "type": "electric_scooter", "lat": 38.899152666666666, "is_reserved": 0, "is_disabled": 0, "fusion_lon": 0.0, "bike_id": "ca7a012fbcc9bec7c2a73886bb91322f", "lon": -77.07096983333334, "rental_uris": {"ios": "https://dc.lft.to/lastmile_qr_scan", "android": "https://dc.lft.to/lastmile_qr_scan"}}, {"name": "73d09a003561c3bd8773a9fe12fe1f76", "fusion_lat": 0.0, "type": "electric_scooter", "lat": 38.905086833333336, "is_reserved": 0, "is_disabled": 0, "fusion_lon": 0.0, "bike_id": "73d09a003561c3bd8773a9fe12fe1f76", "lon": -77.05118466666667, "rental_uris": {"ios": "https://dc.lft.to/lastmile_qr_scan", "android": "https://dc.lft.to/lastmile_qr_scan"}}, {"name": "843bb24d4e6b567cdf59ff6b35ec32e4", "fusion_lat": 0.0, "type": "electric_scooter", "lat": 38.911889333333335, "is_reserved": 0, "is_disabled": 0, "fusion_lon": 0.0, "bike_id": "843bb24d4e6b567cdf59ff6b35ec32e4", "lon": -77.06087333333333, "rental_uris": {"ios": "https://dc.lft.to/lastmile_qr_scan", "android": "https://dc.lft.to/lastmile_qr_scan"}}, {"name": "ae224126309fc632d38bb4e5fba55c33", "fusion_lat": 0.0, "type": "electric_scooter", "lat": 38.889969666666666, "is_reserved": 0, "is_disabled": 0, "fusion_lon": 0.0, "bike_id": "ae224126309fc632d38bb4e5fba55c33", "lon": -76.95413166666667, "rental_uris": {"ios": "https://dc.lft.to/lastmile_qr_scan", "android": "https://dc.lft.to/lastmile_qr_scan"}}, {"name": "a9acf168fed59317111347fbe5bad231", "fusion_lat": 0.0, "type": "electric_scooter", "lat": 38.902881, "is_reserved": 0, "is_disabled": 0, "fusion_lon": 0.0, "bike_id": "a9acf168fed59317111347fbe5bad231", "lon": -77.043757, "rental_uris": {"ios": "https://dc.lft.to/lastmile_qr_scan", "android": "https://dc.lft.to/lastmile_qr_scan"}}, {"name": "04c7fef97e5437a259671e93f5a550e0", "fusion_lat": 0.0, "type": "electric_scooter", "lat": 38.8953765, "is_reserved": 0, "is_disabled": 0, "fusion_lon": 0.0, "bike_id": "04c7fef97e5437a259671e93f5a550e0", "lon": -77.031003, "rental_uris": {"ios": "https://dc.lft.to/lastmile_qr_scan", "android": "https://dc.lft.to/lastmile_qr_scan"}}, {"name": "9b600f927c21e53ee98d13eae668f293", "fusion_lat": 0.0, "type": "electric_scooter", "lat": 38.9096635, "is_reserved": 0, "is_disabled": 0, "fusion_lon": 0.0, "bike_id": "9b600f927c21e53ee98d13eae668f293", "lon": -77.044789, "rental_uris": {"ios": "https://dc.lft.to/lastmile_qr_scan", "android": "https://dc.lft.to/lastmile_qr_scan"}}, {"name": "c779276dec660643197cf7b54edb0c9d", "fusion_lat": 0.0, "type": "electric_scooter", "lat": 38.91922733333333, "is_reserved": 0, "is_disabled": 0, "fusion_lon": 0.0, "bike_id": "c779276dec660643197cf7b54edb0c9d", "lon": -77.02357083333334, "rental_uris": {"ios": "https://dc.lft.to/lastmile_qr_scan", "android": "https://dc.lft.to/lastmile_qr_scan"}}, {"name": "773afa0508c2779bac4b5acdff623cc1", "fusion_lat": 0.0, "type": "electric_bike", "lat": 38.953612, "is_reserved": 0, "is_disabled": 0, "fusion_lon": 0.0, "bike_id": "773afa0508c2779bac4b5acdff623cc1", "lon": -77.088605, "rental_uris": {"ios": "https://dc.lft.to/lastmile_qr_scan", "android": "https://dc.lft.to/lastmile_qr_scan"}}, {"name": "0b37baacff0ea185a4bc024814f15621", "fusion_lat": 0.0, "type": "electric_scooter", "lat": 38.90262883333333, "is_reserved": 0, "is_disabled": 0, "fusion_lon": 0.0, "bike_id": "0b37baacff0ea185a4bc024814f15621", "lon": -77.0321245, "rental_uris": {"ios": "https://dc.lft.to/lastmile_qr_scan", "android": "https://dc.lft.to/lastmile_qr_scan"}}, {"name": "2a2ea7d2555b3671a221ddcde2132340", "fusion_lat": 0.0, "type": "electric_scooter", "lat": 38.925116, "is_reserved": 0, "is_disabled": 0, "fusion_lon": 0.0, "bike_id": "2a2ea7d2555b3671a221ddcde2132340", "lon": -77.023904, "rental_uris": {"ios": "https://dc.lft.to/lastmile_qr_scan", "android": "https://dc.lft.to/lastmile_qr_scan"}}, {"name": "187220588a03e2dd37771d5fea48f9a1", "fusion_lat": 0.0, "type": "electric_scooter", "lat": 38.9181045, "is_reserved": 0, "is_disabled": 0, "fusion_lon": 0.0, "bike_id": "187220588a03e2dd37771d5fea48f9a1", "lon": -77.01145983333333, "rental_uris": {"ios": "https://dc.lft.to/lastmile_qr_scan", "android": "https://dc.lft.to/lastmile_qr_scan"}}, {"name": "d8b8d264d52c10a82011a217df7bf825", "fusion_lat": 0.0, "type": "electric_scooter", "lat": 38.89740166666667, "is_reserved": 0, "is_disabled": 0, "fusion_lon": 0.0, "bike_id": "d8b8d264d52c10a82011a217df7bf825", "lon": -77.04655016666666, "rental_uris": {"ios": "https://dc.lft.to/lastmile_qr_scan", "android": "https://dc.lft.to/lastmile_qr_scan"}}, {"name": "017cadea77cce0e30ba4921bffca4ad5", "fusion_lat": 0.0, "type": "electric_scooter", "lat": 38.904698333333336, "is_reserved": 0, "is_disabled": 0, "fusion_lon": 0.0, "bike_id": "017cadea77cce0e30ba4921bffca4ad5", "lon": -77.04172233333334, "rental_uris": {"ios": "https://dc.lft.to/lastmile_qr_scan", "android": "https://dc.lft.to/lastmile_qr_scan"}}, {"name": "385503282215d434df88c26f16a9d984", "fusion_lat": 0.0, "type": "electric_scooter", "lat": 38.89654133333333, "is_reserved": 0, "is_disabled": 0, "fusion_lon": 0.0, "bike_id": "385503282215d434df88c26f16a9d984", "lon": -77.048902, "rental_uris": {"ios": "https://dc.lft.to/lastmile_qr_scan", "android": "https://dc.lft.to/lastmile_qr_scan"}}, {"name": "9019c7bcbdd4c2f3bbf33dd876a0af87", "fusion_lat": 0.0, "type": "electric_scooter", "lat": 38.89226333333333, "is_reserved": 0, "is_disabled": 0, "fusion_lon": 0.0, "bike_id": "9019c7bcbdd4c2f3bbf33dd876a0af87", "lon": -77.04505, "rental_uris": {"ios": "https://dc.lft.to/lastmile_qr_scan", "android": "https://dc.lft.to/lastmile_qr_scan"}}, {"name": "c3e3dd1ef08e0a62bd8608accb0b190f", "fusion_lat": 0.0, "type": "electric_scooter", "lat": 38.92428616666667, "is_reserved": 0, "is_disabled": 0, "fusion_lon": 0.0, "bike_id": "c3e3dd1ef08e0a62bd8608accb0b190f", "lon": -77.05180133333333, "rental_uris": {"ios": "https://dc.lft.to/lastmile_qr_scan", "android": "https://dc.lft.to/lastmile_qr_scan"}}, {"name": "b3835f1802c6beb989e7f223162868ce", "fusion_lat": 0.0, "type": "electric_scooter", "lat": 38.9498085, "is_reserved": 0, "is_disabled": 0, "fusion_lon": 0.0, "bike_id": "b3835f1802c6beb989e7f223162868ce", "lon": -77.03499066666667, "rental_uris": {"ios": "https://dc.lft.to/lastmile_qr_scan", "android": "https://dc.lft.to/lastmile_qr_scan"}}, {"name": "1eed1c53a2004af70e0701f54e6a08fc", "fusion_lat": 0.0, "type": "electric_scooter", "lat": 38.90454916666667, "is_reserved": 0, "is_disabled": 0, "fusion_lon": 0.0, "bike_id": "1eed1c53a2004af70e0701f54e6a08fc", "lon": -77.04182616666667, "rental_uris": {"ios": "https://dc.lft.to/lastmile_qr_scan", "android": "https://dc.lft.to/lastmile_qr_scan"}}, {"name": "0553eaaa053418d90de8ff243fef5fe9", "fusion_lat": 0.0, "type": "electric_scooter", "lat": 38.93446383333333, "is_reserved": 0, "is_disabled": 0, "fusion_lon": 0.0, "bike_id": "0553eaaa053418d90de8ff243fef5fe9", "lon": -77.04652616666667, "rental_uris": {"ios": "https://dc.lft.to/lastmile_qr_scan", "android": "https://dc.lft.to/lastmile_qr_scan"}}, {"name": "fee018f2eea418b32b45061e0c0a2475", "fusion_lat": 0.0, "type": "electric_scooter", "lat": 38.902431166666666, "is_reserved": 0, "is_disabled": 0, "fusion_lon": 0.0, "bike_id": "fee018f2eea418b32b45061e0c0a2475", "lon": -77.00201316666667, "rental_uris": {"ios": "https://dc.lft.to/lastmile_qr_scan", "android": "https://dc.lft.to/lastmile_qr_scan"}}, {"name": "eda470a10f2f34da3bf9d0f34851c040", "fusion_lat": 0.0, "type": "electric_scooter", "lat": 38.88345866666667, "is_reserved": 0, "is_disabled": 0, "fusion_lon": 0.0, "bike_id": "eda470a10f2f34da3bf9d0f34851c040", "lon": -77.031673, "rental_uris": {"ios": "https://dc.lft.to/lastmile_qr_scan", "android": "https://dc.lft.to/lastmile_qr_scan"}}, {"name": "c3a70a681170a2cd2baad621ed0a0ab7", "fusion_lat": 0.0, "type": "electric_scooter", "lat": 38.939682833333336, "is_reserved": 0, "is_disabled": 0, "fusion_lon": 0.0, "bike_id": "c3a70a681170a2cd2baad621ed0a0ab7", "lon": -77.03203716666667, "rental_uris": {"ios": "https://dc.lft.to/lastmile_qr_scan", "android": "https://dc.lft.to/lastmile_qr_scan"}}, {"name": "a9d9251bd3195115f0dda819626984ec", "fusion_lat": 0.0, "type": "electric_bike", "lat": 38.917585333333335, "is_reserved": 0, "is_disabled": 0, "fusion_lon": 0.0, "bike_id": "a9d9251bd3195115f0dda819626984ec", "lon": -76.97326866666667, "rental_uris": {"ios": "https://dc.lft.to/lastmile_qr_scan", "android": "https://dc.lft.to/lastmile_qr_scan"}}, {"name": "75f4ee4b1b2ada3aeef76bbdfbbfeb3b", "fusion_lat": 0.0, "type": "electric_bike", "lat": 38.9397405, "is_reserved": 0, "is_disabled": 0, "fusion_lon": 0.0, "bike_id": "75f4ee4b1b2ada3aeef76bbdfbbfeb3b", "lon": -76.98657766666666, "rental_uris": {"ios": "https://dc.lft.to/lastmile_qr_scan", "android": "https://dc.lft.to/lastmile_qr_scan"}}, {"name": "a8ffba42e89fa95c813e9b5d8f56345f", "fusion_lat": 0.0, "type": "electric_scooter", "lat": 38.939104666666665, "is_reserved": 0, "is_disabled": 0, "fusion_lon": 0.0, "bike_id": "a8ffba42e89fa95c813e9b5d8f56345f", "lon": -77.06041533333334, "rental_uris": {"ios": "https://dc.lft.to/lastmile_qr_scan", "android": "https://dc.lft.to/lastmile_qr_scan"}}, {"name": "3fa88f0c431d2062add31d0016cabb07", "fusion_lat": 0.0, "type": "electric_scooter", "lat": 38.86514666666667, "is_reserved": 0, "is_disabled": 0, "fusion_lon": 0.0, "bike_id": "3fa88f0c431d2062add31d0016cabb07", "lon": -76.973457, "rental_uris": {"ios": "https://dc.lft.to/lastmile_qr_scan", "android": "https://dc.lft.to/lastmile_qr_scan"}}, {"name": "79eaf6f5d4618cae3c6c302d4d58af69", "fusion_lat": 0.0, "type": "electric_bike", "lat": 38.8723815, "is_reserved": 0, "is_disabled": 0, "fusion_lon": 0.0, "bike_id": "79eaf6f5d4618cae3c6c302d4d58af69", "lon": -77.01165816666666, "rental_uris": {"ios": "https://dc.lft.to/lastmile_qr_scan", "android": "https://dc.lft.to/lastmile_qr_scan"}}, {"name": "c8f3edd60864a2c178a354f6b7e30af3", "fusion_lat": 0.0, "type": "electric_scooter", "lat": 38.882068833333335, "is_reserved": 0, "is_disabled": 0, "fusion_lon": 0.0, "bike_id": "c8f3edd60864a2c178a354f6b7e30af3", "lon": -77.02315666666667, "rental_uris": {"ios": "https://dc.lft.to/lastmile_qr_scan", "android": "https://dc.lft.to/lastmile_qr_scan"}}, {"name": "d5b433a4991fe9f729d3828be2381d75", "fusion_lat": 0.0, "type": "electric_scooter", "lat": 38.91697, "is_reserved": 0, "is_disabled": 0, "fusion_lon": 0.0, "bike_id": "d5b433a4991fe9f729d3828be2381d75", "lon": -77.03078183333334, "rental_uris": {"ios": "https://dc.lft.to/lastmile_qr_scan", "android": "https://dc.lft.to/lastmile_qr_scan"}}, {"name": "e1b1fcb60fe597635b49c15bb53890c3", "fusion_lat": 0.0, "type": "electric_scooter", "lat": 38.91901933333333, "is_reserved": 0, "is_disabled": 0, "fusion_lon": 0.0, "bike_id": "e1b1fcb60fe597635b49c15bb53890c3", "lon": -77.00045883333334, "rental_uris": {"ios": "https://dc.lft.to/lastmile_qr_scan", "android": "https://dc.lft.to/lastmile_qr_scan"}}, {"name": "98368c48ebe582e2f6c4436784facfd2", "fusion_lat": 0.0, "type": "electric_scooter", "lat": 38.866627333333334, "is_reserved": 0, "is_disabled": 0, "fusion_lon": 0.0, "bike_id": "98368c48ebe582e2f6c4436784facfd2", "lon": -76.98882833333333, "rental_uris": {"ios": "https://dc.lft.to/lastmile_qr_scan", "android": "https://dc.lft.to/lastmile_qr_scan"}}, {"name": "de16b330af68b72cd8e81a77f58a8cfe", "fusion_lat": 0.0, "type": "electric_bike", "lat": 38.92864483333334, "is_reserved": 0, "is_disabled": 0, "fusion_lon": 0.0, "bike_id": "de16b330af68b72cd8e81a77f58a8cfe", "lon": -77.03264266666666, "rental_uris": {"ios": "https://dc.lft.to/lastmile_qr_scan", "android": "https://dc.lft.to/lastmile_qr_scan"}}, {"name": "c728f65538136bd334de7942b250a02b", "fusion_lat": 0.0, "type": "electric_scooter", "lat": 38.9003605, "is_reserved": 0, "is_disabled": 0, "fusion_lon": 0.0, "bike_id": "c728f65538136bd334de7942b250a02b", "lon": -77.00210616666666, "rental_uris": {"ios": "https://dc.lft.to/lastmile_qr_scan", "android": "https://dc.lft.to/lastmile_qr_scan"}}, {"name": "859f612c398555dcf022d92ad5183757", "fusion_lat": 0.0, "type": "electric_scooter", "lat": 38.91716616666667, "is_reserved": 0, "is_disabled": 0, "fusion_lon": 0.0, "bike_id": "859f612c398555dcf022d92ad5183757", "lon": -77.0233115, "rental_uris": {"ios": "https://dc.lft.to/lastmile_qr_scan", "android": "https://dc.lft.to/lastmile_qr_scan"}}, {"name": "59dbd4f406d56666de7772d3d8fc69fc", "fusion_lat": 0.0, "type": "electric_scooter", "lat": 38.9242495, "is_reserved": 0, "is_disabled": 0, "fusion_lon": 0.0, "bike_id": "59dbd4f406d56666de7772d3d8fc69fc", "lon": -77.04242833333333, "rental_uris": {"ios": "https://dc.lft.to/lastmile_qr_scan", "android": "https://dc.lft.to/lastmile_qr_scan"}}, {"name": "346e5739f69ae7a7c211ddcd427778ba", "fusion_lat": 0.0, "type": "electric_bike", "lat": 38.91187583333333, "is_reserved": 0, "is_disabled": 0, "fusion_lon": 0.0, "bike_id": "346e5739f69ae7a7c211ddcd427778ba", "lon": -77.01148716666667, "rental_uris": {"ios": "https://dc.lft.to/lastmile_qr_scan", "android": "https://dc.lft.to/lastmile_qr_scan"}}, {"name": "84c8e789180875d1332d05c93a366548", "fusion_lat": 0.0, "type": "electric_scooter", "lat": 38.924338166666665, "is_reserved": 0, "is_disabled": 0, "fusion_lon": 0.0, "bike_id": "84c8e789180875d1332d05c93a366548", "lon": -77.04236833333333, "rental_uris": {"ios": "https://dc.lft.to/lastmile_qr_scan", "android": "https://dc.lft.to/lastmile_qr_scan"}}, {"name": "038ea14c4bd77b3913f7103f2537a832", "fusion_lat": 0.0, "type": "electric_scooter", "lat": 38.91816516666667, "is_reserved": 0, "is_disabled": 0, "fusion_lon": 0.0, "bike_id": "038ea14c4bd77b3913f7103f2537a832", "lon": -77.03683466666666, "rental_uris": {"ios": "https://dc.lft.to/lastmile_qr_scan", "android": "https://dc.lft.to/lastmile_qr_scan"}}, {"name": "7568ccd2f0df5046eb68d7d95f5e9fc3", "fusion_lat": 0.0, "type": "electric_bike", "lat": 38.85376016666667, "is_reserved": 0, "is_disabled": 0, "fusion_lon": 0.0, "bike_id": "7568ccd2f0df5046eb68d7d95f5e9fc3", "lon": -77.098672, "rental_uris": {"ios": "https://dc.lft.to/lastmile_qr_scan", "android": "https://dc.lft.to/lastmile_qr_scan"}}, {"name": "d14c17f1a5a29187e036d5cb0386b45a", "fusion_lat": 0.0, "type": "electric_scooter", "lat": 38.90519183333333, "is_reserved": 0, "is_disabled": 0, "fusion_lon": 0.0, "bike_id": "d14c17f1a5a29187e036d5cb0386b45a", "lon": -77.06889, "rental_uris": {"ios": "https://dc.lft.to/lastmile_qr_scan", "android": "https://dc.lft.to/lastmile_qr_scan"}}, {"name": "633c06d4d5f3b245ef5478b760e68f3b", "fusion_lat": 0.0, "type": "electric_scooter", "lat": 38.910222833333336, "is_reserved": 0, "is_disabled": 0, "fusion_lon": 0.0, "bike_id": "633c06d4d5f3b245ef5478b760e68f3b", "lon": -77.044444, "rental_uris": {"ios": "https://dc.lft.to/lastmile_qr_scan", "android": "https://dc.lft.to/lastmile_qr_scan"}}, {"name": "658f0beb04ed0eee15a8cb2f4c05cb3a", "fusion_lat": 0.0, "type": "electric_scooter", "lat": 38.936668833333336, "is_reserved": 0, "is_disabled": 0, "fusion_lon": 0.0, "bike_id": "658f0beb04ed0eee15a8cb2f4c05cb3a", "lon": -77.03263183333334, "rental_uris": {"ios": "https://dc.lft.to/lastmile_qr_scan", "android": "https://dc.lft.to/lastmile_qr_scan"}}, {"name": "aff6a2be4510c938133da4dd14230d88", "fusion_lat": 0.0, "type": "electric_scooter", "lat": 38.90562366666666, "is_reserved": 0, "is_disabled": 0, "fusion_lon": 0.0, "bike_id": "aff6a2be4510c938133da4dd14230d88", "lon": -77.02430666666666, "rental_uris": {"ios": "https://dc.lft.to/lastmile_qr_scan", "android": "https://dc.lft.to/lastmile_qr_scan"}}, {"name": "787837bf8bdd24ce6f67f63e26cf318e", "fusion_lat": 0.0, "type": "electric_scooter", "lat": 38.91712533333333, "is_reserved": 0, "is_disabled": 0, "fusion_lon": 0.0, "bike_id": "787837bf8bdd24ce6f67f63e26cf318e", "lon": -77.03542166666666, "rental_uris": {"ios": "https://dc.lft.to/lastmile_qr_scan", "android": "https://dc.lft.to/lastmile_qr_scan"}}, {"name": "d3e26d72cef898d7c40000c6c01b1612", "fusion_lat": 0.0, "type": "electric_scooter", "lat": 38.938203333333334, "is_reserved": 0, "is_disabled": 0, "fusion_lon": 0.0, "bike_id": "d3e26d72cef898d7c40000c6c01b1612", "lon": -77.024868, "rental_uris": {"ios": "https://dc.lft.to/lastmile_qr_scan", "android": "https://dc.lft.to/lastmile_qr_scan"}}, {"name": "b7e1bf33922c7a9298e185a073c9ea83", "fusion_lat": 0.0, "type": "electric_scooter", "lat": 38.917701666666666, "is_reserved": 0, "is_disabled": 0, "fusion_lon": 0.0, "bike_id": "b7e1bf33922c7a9298e185a073c9ea83", "lon": -77.04751983333334, "rental_uris": {"ios": "https://dc.lft.to/lastmile_qr_scan", "android": "https://dc.lft.to/lastmile_qr_scan"}}, {"name": "024794bb397e14090d0e17fb47216aab", "fusion_lat": 0.0, "type": "electric_scooter", "lat": 38.906282166666664, "is_reserved": 0, "is_disabled": 0, "fusion_lon": 0.0, "bike_id": "024794bb397e14090d0e17fb47216aab", "lon": -77.005975, "rental_uris": {"ios": "https://dc.lft.to/lastmile_qr_scan", "android": "https://dc.lft.to/lastmile_qr_scan"}}, {"name": "940cf70be88408abaf693f87f46afb2e", "fusion_lat": 0.0, "type": "electric_scooter", "lat": 38.8922255, "is_reserved": 0, "is_disabled": 0, "fusion_lon": 0.0, "bike_id": "940cf70be88408abaf693f87f46afb2e", "lon": -77.01373383333333, "rental_uris": {"ios": "https://dc.lft.to/lastmile_qr_scan", "android": "https://dc.lft.to/lastmile_qr_scan"}}, {"name": "7f30d1069064fdb0b3b31e9bcc76bf3d", "fusion_lat": 0.0, "type": "electric_scooter", "lat": 38.878067, "is_reserved": 0, "is_disabled": 0, "fusion_lon": 0.0, "bike_id": "7f30d1069064fdb0b3b31e9bcc76bf3d", "lon": -77.00354666666667, "rental_uris": {"ios": "https://dc.lft.to/lastmile_qr_scan", "android": "https://dc.lft.to/lastmile_qr_scan"}}, {"name": "36938c4c1eac9f26b6240317ca2b7c3c", "fusion_lat": 0.0, "type": "electric_bike", "lat": 38.89219683333334, "is_reserved": 0, "is_disabled": 0, "fusion_lon": 0.0, "bike_id": "36938c4c1eac9f26b6240317ca2b7c3c", "lon": -77.10781933333334, "rental_uris": {"ios": "https://dc.lft.to/lastmile_qr_scan", "android": "https://dc.lft.to/lastmile_qr_scan"}}, {"name": "36729f794c69250ea972439537fa5a6b", "fusion_lat": 0.0, "type": "electric_scooter", "lat": 38.909469333333334, "is_reserved": 0, "is_disabled": 0, "fusion_lon": 0.0, "bike_id": "36729f794c69250ea972439537fa5a6b", "lon": -77.0269555, "rental_uris": {"ios": "https://dc.lft.to/lastmile_qr_scan", "android": "https://dc.lft.to/lastmile_qr_scan"}}, {"name": "02c9496bee45d11c14195d9cd326d614", "fusion_lat": 0.0, "type": "electric_bike", "lat": 38.95281033333333, "is_reserved": 0, "is_disabled": 0, "fusion_lon": 0.0, "bike_id": "02c9496bee45d11c14195d9cd326d614", "lon": -77.06977866666666, "rental_uris": {"ios": "https://dc.lft.to/lastmile_qr_scan", "android": "https://dc.lft.to/lastmile_qr_scan"}}, {"name": "2d02d3555075adc818294cd8c57e1a35", "fusion_lat": 0.0, "type": "electric_scooter", "lat": 38.866890166666664, "is_reserved": 0, "is_disabled": 0, "fusion_lon": 0.0, "bike_id": "2d02d3555075adc818294cd8c57e1a35", "lon": -76.9891, "rental_uris": {"ios": "https://dc.lft.to/lastmile_qr_scan", "android": "https://dc.lft.to/lastmile_qr_scan"}}, {"name": "09c22dd17c864042b01f253f2483d0c0", "fusion_lat": 0.0, "type": "electric_scooter", "lat": 38.921854, "is_reserved": 0, "is_disabled": 0, "fusion_lon": 0.0, "bike_id": "09c22dd17c864042b01f253f2483d0c0", "lon": -77.04016333333334, "rental_uris": {"ios": "https://dc.lft.to/lastmile_qr_scan", "android": "https://dc.lft.to/lastmile_qr_scan"}}, {"name": "0dbd0a09565e312b17bdc6151523a1a5", "fusion_lat": 0.0, "type": "electric_scooter", "lat": 38.90258383333333, "is_reserved": 0, "is_disabled": 0, "fusion_lon": 0.0, "bike_id": "0dbd0a09565e312b17bdc6151523a1a5", "lon": -77.0345785, "rental_uris": {"ios": "https://dc.lft.to/lastmile_qr_scan", "android": "https://dc.lft.to/lastmile_qr_scan"}}, {"name": "188b0dc622ec0bc0586706a7ad4c7582", "fusion_lat": 0.0, "type": "electric_scooter", "lat": 38.89190333333333, "is_reserved": 0, "is_disabled": 0, "fusion_lon": 0.0, "bike_id": "188b0dc622ec0bc0586706a7ad4c7582", "lon": -77.01582933333333, "rental_uris": {"ios": "https://dc.lft.to/lastmile_qr_scan", "android": "https://dc.lft.to/lastmile_qr_scan"}}, {"name": "5e04f855b1e5a69be58a75a1eba7f649", "fusion_lat": 0.0, "type": "electric_scooter", "lat": 38.8838505, "is_reserved": 0, "is_disabled": 0, "fusion_lon": 0.0, "bike_id": "5e04f855b1e5a69be58a75a1eba7f649", "lon": -77.02619583333333, "rental_uris": {"ios": "https://dc.lft.to/lastmile_qr_scan", "android": "https://dc.lft.to/lastmile_qr_scan"}}, {"name": "0fb492519ba0168b7ea95f067dd2c4ec", "fusion_lat": 0.0, "type": "electric_scooter", "lat": 38.910728, "is_reserved": 0, "is_disabled": 0, "fusion_lon": 0.0, "bike_id": "0fb492519ba0168b7ea95f067dd2c4ec", "lon": -77.06716766666666, "rental_uris": {"ios": "https://dc.lft.to/lastmile_qr_scan", "android": "https://dc.lft.to/lastmile_qr_scan"}}, {"name": "8e3bcea9892f1032f22dd3b560fbe92a", "fusion_lat": 0.0, "type": "electric_bike", "lat": 38.93324616666666, "is_reserved": 0, "is_disabled": 0, "fusion_lon": 0.0, "bike_id": "8e3bcea9892f1032f22dd3b560fbe92a", "lon": -77.03622433333334, "rental_uris": {"ios": "https://dc.lft.to/lastmile_qr_scan", "android": "https://dc.lft.to/lastmile_qr_scan"}}, {"name": "a720c3c41a1b797999e0f6bf8b909175", "fusion_lat": 0.0, "type": "electric_scooter", "lat": 38.9098505, "is_reserved": 0, "is_disabled": 0, "fusion_lon": 0.0, "bike_id": "a720c3c41a1b797999e0f6bf8b909175", "lon": -77.0388045, "rental_uris": {"ios": "https://dc.lft.to/lastmile_qr_scan", "android": "https://dc.lft.to/lastmile_qr_scan"}}, {"name": "cfeea0983ac26cb49b9758860ee21b4e", "fusion_lat": 0.0, "type": "electric_scooter", "lat": 38.873028166666664, "is_reserved": 0, "is_disabled": 0, "fusion_lon": 0.0, "bike_id": "cfeea0983ac26cb49b9758860ee21b4e", "lon": -77.009826, "rental_uris": {"ios": "https://dc.lft.to/lastmile_qr_scan", "android": "https://dc.lft.to/lastmile_qr_scan"}}, {"name": "39a2e05315d0180692f7154b408e6df5", "fusion_lat": 0.0, "type": "electric_scooter", "lat": 38.9847395, "is_reserved": 0, "is_disabled": 0, "fusion_lon": 0.0, "bike_id": "39a2e05315d0180692f7154b408e6df5", "lon": -77.026445, "rental_uris": {"ios": "https://dc.lft.to/lastmile_qr_scan", "android": "https://dc.lft.to/lastmile_qr_scan"}}, {"name": "a7b496fe69aef5b36fd076a99879955a", "fusion_lat": 0.0, "type": "electric_scooter", "lat": 38.912903, "is_reserved": 0, "is_disabled": 0, "fusion_lon": 0.0, "bike_id": "a7b496fe69aef5b36fd076a99879955a", "lon": -77.06160316666667, "rental_uris": {"ios": "https://dc.lft.to/lastmile_qr_scan", "android": "https://dc.lft.to/lastmile_qr_scan"}}, {"name": "4bcbfe6c8fa1ebae78d8dfefb0697db6", "fusion_lat": 0.0, "type": "electric_scooter", "lat": 38.915654, "is_reserved": 0, "is_disabled": 0, "fusion_lon": 0.0, "bike_id": "4bcbfe6c8fa1ebae78d8dfefb0697db6", "lon": -77.0294565, "rental_uris": {"ios": "https://dc.lft.to/lastmile_qr_scan", "android": "https://dc.lft.to/lastmile_qr_scan"}}, {"name": "d4ebb9e5c41f2c5d3be56c6ae572c291", "fusion_lat": 0.0, "type": "electric_scooter", "lat": 38.942896166666664, "is_reserved": 0, "is_disabled": 0, "fusion_lon": 0.0, "bike_id": "d4ebb9e5c41f2c5d3be56c6ae572c291", "lon": -77.02171083333333, "rental_uris": {"ios": "https://dc.lft.to/lastmile_qr_scan", "android": "https://dc.lft.to/lastmile_qr_scan"}}, {"name": "d4d4bf3a3fc073beb3171dcac3a8d71a", "fusion_lat": 0.0, "type": "electric_scooter", "lat": 38.92478966666667, "is_reserved": 0, "is_disabled": 0, "fusion_lon": 0.0, "bike_id": "d4d4bf3a3fc073beb3171dcac3a8d71a", "lon": -77.02755933333333, "rental_uris": {"ios": "https://dc.lft.to/lastmile_qr_scan", "android": "https://dc.lft.to/lastmile_qr_scan"}}, {"name": "00edd9132e130c5d5d080f4019dc3e32", "fusion_lat": 0.0, "type": "electric_scooter", "lat": 38.916391833333336, "is_reserved": 0, "is_disabled": 0, "fusion_lon": 0.0, "bike_id": "00edd9132e130c5d5d080f4019dc3e32", "lon": -77.0390625, "rental_uris": {"ios": "https://dc.lft.to/lastmile_qr_scan", "android": "https://dc.lft.to/lastmile_qr_scan"}}, {"name": "19bc4cd6c56b74c4e7359805bb8b83cd", "fusion_lat": 0.0, "type": "electric_scooter", "lat": 38.900465833333335, "is_reserved": 0, "is_disabled": 0, "fusion_lon": 0.0, "bike_id": "19bc4cd6c56b74c4e7359805bb8b83cd", "lon": -76.98513466666667, "rental_uris": {"ios": "https://dc.lft.to/lastmile_qr_scan", "android": "https://dc.lft.to/lastmile_qr_scan"}}, {"name": "9bda20ca6630cba8a1b0556409fed114", "fusion_lat": 0.0, "type": "electric_scooter", "lat": 38.88614833333333, "is_reserved": 0, "is_disabled": 0, "fusion_lon": 0.0, "bike_id": "9bda20ca6630cba8a1b0556409fed114", "lon": -76.978189, "rental_uris": {"ios": "https://dc.lft.to/lastmile_qr_scan", "android": "https://dc.lft.to/lastmile_qr_scan"}}, {"name": "fa8886971242aa7cd75d83d2aedce694", "fusion_lat": 0.0, "type": "electric_scooter", "lat": 38.91705433333333, "is_reserved": 0, "is_disabled": 0, "fusion_lon": 0.0, "bike_id": "fa8886971242aa7cd75d83d2aedce694", "lon": -77.01245416666667, "rental_uris": {"ios": "https://dc.lft.to/lastmile_qr_scan", "android": "https://dc.lft.to/lastmile_qr_scan"}}, {"name": "e791bfa73c526b854da9bee1c74a7ef7", "fusion_lat": 0.0, "type": "electric_scooter", "lat": 38.915509, "is_reserved": 0, "is_disabled": 0, "fusion_lon": 0.0, "bike_id": "e791bfa73c526b854da9bee1c74a7ef7", "lon": -77.03855433333334, "rental_uris": {"ios": "https://dc.lft.to/lastmile_qr_scan", "android": "https://dc.lft.to/lastmile_qr_scan"}}, {"name": "49db39f8e1bed78b082a3927b6ab18de", "fusion_lat": 0.0, "type": "electric_scooter", "lat": 38.88741366666667, "is_reserved": 0, "is_disabled": 0, "fusion_lon": 0.0, "bike_id": "49db39f8e1bed78b082a3927b6ab18de", "lon": -77.015339, "rental_uris": {"ios": "https://dc.lft.to/lastmile_qr_scan", "android": "https://dc.lft.to/lastmile_qr_scan"}}, {"name": "daa07d55828bbb3602485bbe53b08d63", "fusion_lat": 0.0, "type": "electric_scooter", "lat": 38.90536983333333, "is_reserved": 0, "is_disabled": 0, "fusion_lon": 0.0, "bike_id": "daa07d55828bbb3602485bbe53b08d63", "lon": -77.06282383333334, "rental_uris": {"ios": "https://dc.lft.to/lastmile_qr_scan", "android": "https://dc.lft.to/lastmile_qr_scan"}}, {"name": "de4c685477f9cfa3cdc55a73c5b838cb", "fusion_lat": 0.0, "type": "electric_scooter", "lat": 38.91848516666667, "is_reserved": 0, "is_disabled": 0, "fusion_lon": 0.0, "bike_id": "de4c685477f9cfa3cdc55a73c5b838cb", "lon": -77.00169466666667, "rental_uris": {"ios": "https://dc.lft.to/lastmile_qr_scan", "android": "https://dc.lft.to/lastmile_qr_scan"}}, {"name": "ea777b6e9e6dbd7d7a7fe026c31f763e", "fusion_lat": 0.0, "type": "electric_bike", "lat": 38.88638, "is_reserved": 0, "is_disabled": 0, "fusion_lon": 0.0, "bike_id": "ea777b6e9e6dbd7d7a7fe026c31f763e", "lon": -76.95481433333333, "rental_uris": {"ios": "https://dc.lft.to/lastmile_qr_scan", "android": "https://dc.lft.to/lastmile_qr_scan"}}, {"name": "3fb153756d4edc65691f23af77532da1", "fusion_lat": 0.0, "type": "electric_scooter", "lat": 38.912730333333336, "is_reserved": 0, "is_disabled": 0, "fusion_lon": 0.0, "bike_id": "3fb153756d4edc65691f23af77532da1", "lon": -77.03863933333334, "rental_uris": {"ios": "https://dc.lft.to/lastmile_qr_scan", "android": "https://dc.lft.to/lastmile_qr_scan"}}, {"name": "3e16050018877fc63cdf39705e1631b8", "fusion_lat": 0.0, "type": "electric_scooter", "lat": 38.93550333333334, "is_reserved": 0, "is_disabled": 0, "fusion_lon": 0.0, "bike_id": "3e16050018877fc63cdf39705e1631b8", "lon": -77.059837, "rental_uris": {"ios": "https://dc.lft.to/lastmile_qr_scan", "android": "https://dc.lft.to/lastmile_qr_scan"}}, {"name": "f42fa00de1d5c32cc60a5e8c715a985f", "fusion_lat": 0.0, "type": "electric_bike", "lat": 38.89835683333333, "is_reserved": 0, "is_disabled": 0, "fusion_lon": 0.0, "bike_id": "f42fa00de1d5c32cc60a5e8c715a985f", "lon": -77.11798266666666, "rental_uris": {"ios": "https://dc.lft.to/lastmile_qr_scan", "android": "https://dc.lft.to/lastmile_qr_scan"}}, {"name": "61efd9810da466558f10120c90aacbf0", "fusion_lat": 0.0, "type": "electric_scooter", "lat": 38.907999333333336, "is_reserved": 0, "is_disabled": 0, "fusion_lon": 0.0, "bike_id": "61efd9810da466558f10120c90aacbf0", "lon": -77.03188516666667, "rental_uris": {"ios": "https://dc.lft.to/lastmile_qr_scan", "android": "https://dc.lft.to/lastmile_qr_scan"}}, {"name": "595366d9f5e808305a4e15d04217a114", "fusion_lat": 0.0, "type": "electric_bike", "lat": 38.90421933333333, "is_reserved": 0, "is_disabled": 0, "fusion_lon": 0.0, "bike_id": "595366d9f5e808305a4e15d04217a114", "lon": -76.98803616666666, "rental_uris": {"ios": "https://dc.lft.to/lastmile_qr_scan", "android": "https://dc.lft.to/lastmile_qr_scan"}}, {"name": "d26e703555c06b16ca825e99179783ba", "fusion_lat": 0.0, "type": "electric_scooter", "lat": 38.92569533333333, "is_reserved": 0, "is_disabled": 0, "fusion_lon": 0.0, "bike_id": "d26e703555c06b16ca825e99179783ba", "lon": -77.029662, "rental_uris": {"ios": "https://dc.lft.to/lastmile_qr_scan", "android": "https://dc.lft.to/lastmile_qr_scan"}}, {"name": "ac0d78f3556eb02d5d5eabc41b808c40", "fusion_lat": 0.0, "type": "electric_scooter", "lat": 38.936442, "is_reserved": 0, "is_disabled": 0, "fusion_lon": 0.0, "bike_id": "ac0d78f3556eb02d5d5eabc41b808c40", "lon": -77.0345575, "rental_uris": {"ios": "https://dc.lft.to/lastmile_qr_scan", "android": "https://dc.lft.to/lastmile_qr_scan"}}, {"name": "75610112bb0c6f96f92e0d08c6b0152b", "fusion_lat": 0.0, "type": "electric_scooter", "lat": 38.923573, "is_reserved": 0, "is_disabled": 0, "fusion_lon": 0.0, "bike_id": "75610112bb0c6f96f92e0d08c6b0152b", "lon": -77.05057916666667, "rental_uris": {"ios": "https://dc.lft.to/lastmile_qr_scan", "android": "https://dc.lft.to/lastmile_qr_scan"}}, {"name": "12e520e2baec12e7b9489aa2cd5a9769", "fusion_lat": 0.0, "type": "electric_scooter", "lat": 38.87806883333333, "is_reserved": 0, "is_disabled": 0, "fusion_lon": 0.0, "bike_id": "12e520e2baec12e7b9489aa2cd5a9769", "lon": -77.00555083333333, "rental_uris": {"ios": "https://dc.lft.to/lastmile_qr_scan", "android": "https://dc.lft.to/lastmile_qr_scan"}}, {"name": "1441e588f5fa67c27216929e8491fc37", "fusion_lat": 0.0, "type": "electric_bike", "lat": 38.939637, "is_reserved": 0, "is_disabled": 0, "fusion_lon": 0.0, "bike_id": "1441e588f5fa67c27216929e8491fc37", "lon": -77.36090833333333, "rental_uris": {"ios": "https://dc.lft.to/lastmile_qr_scan", "android": "https://dc.lft.to/lastmile_qr_scan"}}, {"name": "475533cdef2e9dcbf424168b46d5eaa0", "fusion_lat": 0.0, "type": "electric_scooter", "lat": 38.899750833333336, "is_reserved": 0, "is_disabled": 0, "fusion_lon": 0.0, "bike_id": "475533cdef2e9dcbf424168b46d5eaa0", "lon": -77.05572033333333, "rental_uris": {"ios": "https://dc.lft.to/lastmile_qr_scan", "android": "https://dc.lft.to/lastmile_qr_scan"}}, {"name": "d12282880c845e545c6ef109eb034139", "fusion_lat": 0.0, "type": "electric_scooter", "lat": 38.9297375, "is_reserved": 0, "is_disabled": 0, "fusion_lon": 0.0, "bike_id": "d12282880c845e545c6ef109eb034139", "lon": -77.02793783333334, "rental_uris": {"ios": "https://dc.lft.to/lastmile_qr_scan", "android": "https://dc.lft.to/lastmile_qr_scan"}}, {"name": "c864e7d244ae05f54762b529f44bb506", "fusion_lat": 0.0, "type": "electric_bike", "lat": 38.959289166666665, "is_reserved": 0, "is_disabled": 0, "fusion_lon": 0.0, "bike_id": "c864e7d244ae05f54762b529f44bb506", "lon": -76.92536666666666, "rental_uris": {"ios": "https://dc.lft.to/lastmile_qr_scan", "android": "https://dc.lft.to/lastmile_qr_scan"}}, {"name": "7a2d9c0c3433215ce136d559cff8a710", "fusion_lat": 0.0, "type": "electric_scooter", "lat": 38.909706166666666, "is_reserved": 0, "is_disabled": 0, "fusion_lon": 0.0, "bike_id": "7a2d9c0c3433215ce136d559cff8a710", "lon": -77.02179383333333, "rental_uris": {"ios": "https://dc.lft.to/lastmile_qr_scan", "android": "https://dc.lft.to/lastmile_qr_scan"}}, {"name": "ea73a2703d60cf282632e46dd560da68", "fusion_lat": 0.0, "type": "electric_scooter", "lat": 38.91329316666667, "is_reserved": 0, "is_disabled": 0, "fusion_lon": 0.0, "bike_id": "ea73a2703d60cf282632e46dd560da68", "lon": -77.031803, "rental_uris": {"ios": "https://dc.lft.to/lastmile_qr_scan", "android": "https://dc.lft.to/lastmile_qr_scan"}}, {"name": "fc15002ae93045c423a9e6178796df8a", "fusion_lat": 0.0, "type": "electric_scooter", "lat": 38.9027955, "is_reserved": 0, "is_disabled": 0, "fusion_lon": 0.0, "bike_id": "fc15002ae93045c423a9e6178796df8a", "lon": -77.036686, "rental_uris": {"ios": "https://dc.lft.to/lastmile_qr_scan", "android": "https://dc.lft.to/lastmile_qr_scan"}}, {"name": "8637cce9694e4e3cbb11225eade251ef", "fusion_lat": 0.0, "type": "electric_scooter", "lat": 38.91483216666666, "is_reserved": 0, "is_disabled": 0, "fusion_lon": 0.0, "bike_id": "8637cce9694e4e3cbb11225eade251ef", "lon": -77.04085266666667, "rental_uris": {"ios": "https://dc.lft.to/lastmile_qr_scan", "android": "https://dc.lft.to/lastmile_qr_scan"}}, {"name": "896651b6db602fbd95601d41f4bf16dc", "fusion_lat": 0.0, "type": "electric_scooter", "lat": 38.87690516666667, "is_reserved": 0, "is_disabled": 0, "fusion_lon": 0.0, "bike_id": "896651b6db602fbd95601d41f4bf16dc", "lon": -77.017554, "rental_uris": {"ios": "https://dc.lft.to/lastmile_qr_scan", "android": "https://dc.lft.to/lastmile_qr_scan"}}, {"name": "fae3fd9f5151bde77d2cbb5238c2f804", "fusion_lat": 0.0, "type": "electric_scooter", "lat": 38.900242666666664, "is_reserved": 0, "is_disabled": 0, "fusion_lon": 0.0, "bike_id": "fae3fd9f5151bde77d2cbb5238c2f804", "lon": -77.05329066666667, "rental_uris": {"ios": "https://dc.lft.to/lastmile_qr_scan", "android": "https://dc.lft.to/lastmile_qr_scan"}}, {"name": "e740f5407181f13c926fc3e048fad118", "fusion_lat": 0.0, "type": "electric_bike", "lat": 38.845949166666664, "is_reserved": 0, "is_disabled": 0, "fusion_lon": 0.0, "bike_id": "e740f5407181f13c926fc3e048fad118", "lon": -76.96882116666667, "rental_uris": {"ios": "https://dc.lft.to/lastmile_qr_scan", "android": "https://dc.lft.to/lastmile_qr_scan"}}, {"name": "22e569e541db4017bc33d6322b1fc555", "fusion_lat": 0.0, "type": "electric_bike", "lat": 38.87753933333333, "is_reserved": 0, "is_disabled": 0, "fusion_lon": 0.0, "bike_id": "22e569e541db4017bc33d6322b1fc555", "lon": -76.97989366666667, "rental_uris": {"ios": "https://dc.lft.to/lastmile_qr_scan", "android": "https://dc.lft.to/lastmile_qr_scan"}}, {"name": "a75e9de7547b5d19081b5a854a38c91e", "fusion_lat": 0.0, "type": "electric_bike", "lat": 38.926933166666664, "is_reserved": 0, "is_disabled": 0, "fusion_lon": 0.0, "bike_id": "a75e9de7547b5d19081b5a854a38c91e", "lon": -77.00794383333333, "rental_uris": {"ios": "https://dc.lft.to/lastmile_qr_scan", "android": "https://dc.lft.to/lastmile_qr_scan"}}, {"name": "aef686e57c8595e79b6f1fb5803fbf64", "fusion_lat": 0.0, "type": "electric_scooter", "lat": 38.92827033333333, "is_reserved": 0, "is_disabled": 0, "fusion_lon": 0.0, "bike_id": "aef686e57c8595e79b6f1fb5803fbf64", "lon": -77.02258683333334, "rental_uris": {"ios": "https://dc.lft.to/lastmile_qr_scan", "android": "https://dc.lft.to/lastmile_qr_scan"}}, {"name": "c8e1d02ead9f5759d674c1a4c32b1ad3", "fusion_lat": 0.0, "type": "electric_scooter", "lat": 38.93599433333333, "is_reserved": 0, "is_disabled": 0, "fusion_lon": 0.0, "bike_id": "c8e1d02ead9f5759d674c1a4c32b1ad3", "lon": -77.05634316666666, "rental_uris": {"ios": "https://dc.lft.to/lastmile_qr_scan", "android": "https://dc.lft.to/lastmile_qr_scan"}}, {"name": "1d87adbd1a98007dd186a5f6f29d0e2d", "fusion_lat": 0.0, "type": "electric_scooter", "lat": 38.897756333333334, "is_reserved": 0, "is_disabled": 0, "fusion_lon": 0.0, "bike_id": "1d87adbd1a98007dd186a5f6f29d0e2d", "lon": -77.05150433333333, "rental_uris": {"ios": "https://dc.lft.to/lastmile_qr_scan", "android": "https://dc.lft.to/lastmile_qr_scan"}}, {"name": "887c4f80621e31a3db1d422e0699b7a0", "fusion_lat": 0.0, "type": "electric_scooter", "lat": 38.913298166666664, "is_reserved": 0, "is_disabled": 0, "fusion_lon": 0.0, "bike_id": "887c4f80621e31a3db1d422e0699b7a0", "lon": -77.03184266666666, "rental_uris": {"ios": "https://dc.lft.to/lastmile_qr_scan", "android": "https://dc.lft.to/lastmile_qr_scan"}}, {"name": "d398c7b64826316e94e9046594815009", "fusion_lat": 0.0, "type": "electric_scooter", "lat": 38.9171585, "is_reserved": 0, "is_disabled": 0, "fusion_lon": 0.0, "bike_id": "d398c7b64826316e94e9046594815009", "lon": -77.0288875, "rental_uris": {"ios": "https://dc.lft.to/lastmile_qr_scan", "android": "https://dc.lft.to/lastmile_qr_scan"}}, {"name": "3de74789e9b738cc0c5945edb89b14cf", "fusion_lat": 0.0, "type": "electric_scooter", "lat": 38.90251583333333, "is_reserved": 0, "is_disabled": 0, "fusion_lon": 0.0, "bike_id": "3de74789e9b738cc0c5945edb89b14cf", "lon": -77.01757133333334, "rental_uris": {"ios": "https://dc.lft.to/lastmile_qr_scan", "android": "https://dc.lft.to/lastmile_qr_scan"}}, {"name": "590da0748835c51d68f9e06c39e972d6", "fusion_lat": 0.0, "type": "electric_scooter", "lat": 38.878476166666665, "is_reserved": 0, "is_disabled": 0, "fusion_lon": 0.0, "bike_id": "590da0748835c51d68f9e06c39e972d6", "lon": -77.000336, "rental_uris": {"ios": "https://dc.lft.to/lastmile_qr_scan", "android": "https://dc.lft.to/lastmile_qr_scan"}}, {"name": "9682b316b2f08c547ad46c8e0bf6b022", "fusion_lat": 0.0, "type": "electric_scooter", "lat": 38.92092683333333, "is_reserved": 0, "is_disabled": 0, "fusion_lon": 0.0, "bike_id": "9682b316b2f08c547ad46c8e0bf6b022", "lon": -77.07559466666666, "rental_uris": {"ios": "https://dc.lft.to/lastmile_qr_scan", "android": "https://dc.lft.to/lastmile_qr_scan"}}, {"name": "531f580dca12151a1c063ca477a89105", "fusion_lat": 0.0, "type": "electric_scooter", "lat": 38.901347, "is_reserved": 0, "is_disabled": 0, "fusion_lon": 0.0, "bike_id": "531f580dca12151a1c063ca477a89105", "lon": -77.03200183333334, "rental_uris": {"ios": "https://dc.lft.to/lastmile_qr_scan", "android": "https://dc.lft.to/lastmile_qr_scan"}},