{"data": {"bikes": [{"fusion_lat": 0.0, "name": "006cf117c988d53a4b73698e22a5a176", "is_disabled": 0, "rental_uris": {"android": "https://dc.lft.to/lastmile_qr_scan", "ios": "https://dc.lft.to/lastmile_qr_scan"}, "fusion_lon": 0.0, "lat": 38.924632333333335, "bike_id": "006cf117c988d53a4b73698e22a5a176", "type": "electric_scooter", "is_reserved": 0, "lon": -77.020237}, {"fusion_lat": 0.0, "name": "1628770486fd1b8bd8d75f7e21ba0f2f", "is_disabled": 0, "rental_uris": {"android": "https://dc.lft.to/lastmile_qr_scan", "ios": "https://dc.lft.to/lastmile_qr_scan"}, "fusion_lon": 0.0, "lat": 38.91549083333334, "bike_id": "1628770486fd1b8bd8d75f7e21ba0f2f", "type": "electric_scooter", "is_reserved": 0, "lon": -77.0214415}, {"fusion_lat": 0.0, "name": "467b71fd262ead4933602bb1893964dd", "is_disabled": 0, "rental_uris": {"android": "https://dc.lft.to/lastmile_qr_scan", "ios": "https://dc.lft.to/lastmile_qr_scan"}, "fusion_lon": 0.0, "lat": 38.91992716666667, "bike_id": "467b71fd262ead4933602bb1893964dd", "type": "electric_scooter", "is_reserved": 0, "lon": -77.03221883333333}, {"fusion_lat": 0.0, "name": "e2d018c5bbb10ffad3ed20f516ce66ca", "is_disabled": 0, "rental_uris": {"android": "https://dc.lft.to/lastmile_qr_scan", "ios": "https://dc.lft.to/lastmile_qr_scan"}, "fusion_lon": 0.0, "lat": 38.907698333333336, "bike_id": "e2d018c5bbb10ffad3ed20f516ce66ca", "type": "electric_scooter", "is_reserved": 0, "lon": -77.04208833333334}, {"fusion_lat": 0.0, "name": "f053f27ebeb740353a7445ab49c1f5fd", "is_disabled": 0, "rental_uris": {"android": "https://dc.lft.to/lastmile_qr_scan", "ios": "https://dc.lft.to/lastmile_qr_scan"}, "fusion_lon": 0.0, "lat": 38.90271833333333, "bike_id": "f053f27ebeb740353a7445ab49c1f5fd", "type": "electric_scooter", "is_reserved": 0, "lon": -76.929009}, {"fusion_lat": 0.0, "name": "75e9ec6a02c1dbeb13e564128d75bfd1", "is_disabled": 0, "rental_uris": {"android": "https://dc.lft.to/lastmile_qr_scan", "ios": "https://dc.lft.to/lastmile_qr_scan"}, "fusion_lon": 0.0, "lat": 38.918945666666666, "bike_id": "75e9ec6a02c1dbeb13e564128d75bfd1", "type": "electric_scooter", "is_reserved": 0, "lon": -77.02302016666667}, {"fusion_lat": 0.0, "name": "8b353fb08abca813032d84e9f5598fe0", "is_disabled": 0, "rental_uris": {"android": "https://dc.lft.to/lastmile_qr_scan", "ios": "https://dc.lft.to/lastmile_qr_scan"}, "fusion_lon": 0.0, "lat": 38.887495, "bike_id": "8b353fb08abca813032d84e9f5598fe0", "type": "electric_scooter", "is_reserved": 0, "lon": -77.0317725}, {"fusion_lat": 0.0, "name": "8f8cac4e292742725afb30fd89715bf7", "is_disabled": 0, "rental_uris": {"android": "https://dc.lft.to/lastmile_qr_scan", "ios": "https://dc.lft.to/lastmile_qr_scan"}, "fusion_lon": 0.0, "lat": 38.898841833333336, "bike_id": "8f8cac4e292742725afb30fd89715bf7", "type": "electric_scooter", "is_reserved": 0, "lon": -77.05313366666667}, {"fusion_lat": 0.0, "name": "ff3dd8b1f7c864b7299538a9c7663f41", "is_disabled": 0, "rental_uris": {"android": "https://dc.lft.to/lastmile_qr_scan", "ios": "https://dc.lft.to/lastmile_qr_scan"}, "fusion_lon": 0.0, "lat": 38.91271316666667, "bike_id": "ff3dd8b1f7c864b7299538a9c7663f41", "type": "electric_scooter", "is_reserved": 0, "lon": -77.04507083333333}, {"fusion_lat": 0.0, "name": "e69263fa9fae029ebf4076dbf2613568", "is_disabled": 0, "rental_uris": {"android": "https://dc.lft.to/lastmile_qr_scan", "ios": "https://dc.lft.to/lastmile_qr_scan"}, "fusion_lon": 0.0, "lat": 38.911041166666664, "bike_id": "e69263fa9fae029ebf4076dbf2613568", "type": "electric_bike", "is_reserved": 0, "lon": -77.07354716666667}, {"fusion_lat": 0.0, "name": "d71dd00f3b50e2ffb4a55823c110040a", "is_disabled": 0, "rental_uris": {"android": "https://dc.lft.to/lastmile_qr_scan", "ios": "https://dc.lft.to/lastmile_qr_scan"}, "fusion_lon": 0.0, "lat": 38.90118866666667, "bike_id": "d71dd00f3b50e2ffb4a55823c110040a", "type": "electric_scooter", "is_reserved": 0, "lon": -77.00215366666667}, {"fusion_lat": 0.0, "name": "8f6341364e1e21c48f02043fe6960607", "is_disabled": 0, "rental_uris": {"android": "https://dc.lft.to/lastmile_qr_scan", "ios": "https://dc.lft.to/lastmile_qr_scan"}, "fusion_lon": 0.0, "lat": 38.91711566666667, "bike_id": "8f6341364e1e21c48f02043fe6960607", "type": "electric_scooter", "is_reserved": 0, "lon": -76.97664016666667}, {"fusion_lat": 0.0, "name": "a3275cfd0267f408df71ac3d59d86928", "is_disabled": 0, "rental_uris": {"android": "https://dc.lft.to/lastmile_qr_scan", "ios": "https://dc.lft.to/lastmile_qr_scan"}, "fusion_lon": 0.0, "lat": 38.92236416666667, "bike_id": "a3275cfd0267f408df71ac3d59d86928", "type": "electric_scooter", "is_reserved": 0, "lon": -77.02909333333334}, {"fusion_lat": 0.0, "name": "bc4322a7ebbaa9d12a5a371ab4dafd1f", "is_disabled": 0, "rental_uris": {"android": "https://dc.lft.to/lastmile_qr_scan", "ios": "https://dc.lft.to/lastmile_qr_scan"}, "fusion_lon": 0.0, "lat": 38.8848485, "bike_id": "bc4322a7ebbaa9d12a5a371ab4dafd1f", "type": "electric_scooter", "is_reserved": 0, "lon": -77.00715383333333}, {"fusion_lat": 0.0, "name": "c62aa2ec1ca7a1d91b900ca3278ddb8b", "is_disabled": 0, "rental_uris": {"android": "https://dc.lft.to/lastmile_qr_scan", "ios": "https://dc.lft.to/lastmile_qr_scan"}, "fusion_lon": 0.0, "lat": 38.88739283333334, "bike_id": "c62aa2ec1ca7a1d91b900ca3278ddb8b", "type": "electric_scooter", "is_reserved": 0, "lon": -77.0226815}, {"fusion_lat": 0.0, "name": "0b1d0f2bf587cec7700bc6f4d619cf77", "is_disabled": 0, "rental_uris": {"android": "https://dc.lft.to/lastmile_qr_scan", "ios": "https://dc.lft.to/lastmile_qr_scan"}, "fusion_lon": 0.0, "lat": 38.91720633333333, "bike_id": "0b1d0f2bf587cec7700bc6f4d619cf77", "type": "electric_scooter", "is_reserved": 0, "lon": -77.03217916666667}, {"fusion_lat": 0.0, "name": "7c7f3e50556d634bed46b1966b179d12", "is_disabled": 0, "rental_uris": {"android": "https://dc.lft.to/lastmile_qr_scan", "ios": "https://dc.lft.to/lastmile_qr_scan"}, "fusion_lon": 0.0, "lat": 38.84914583333333, "bike_id": "7c7f3e50556d634bed46b1966b179d12", "type": "electric_bike", "is_reserved": 0, "lon": -77.09980216666666}, {"fusion_lat": 0.0, "name": "f9bbda902848cc790eee382c7dedbf8d", "is_disabled": 0, "rental_uris": {"android": "https://dc.lft.to/lastmile_qr_scan", "ios": "https://dc.lft.to/lastmile_qr_scan"}, "fusion_lon": 0.0, "lat": 38.91658133333333, "bike_id": "f9bbda902848cc790eee382c7dedbf8d", "type": "electric_scooter", "is_reserved": 0, "lon": -77.03860466666667}, {"fusion_lat": 0.0, "name": "579c7aa2235132702f655ab428cc5e13", "is_disabled": 0, "rental_uris": {"android": "https://dc.lft.to/lastmile_qr_scan", "ios": "https://dc.lft.to/lastmile_qr_scan"}, "fusion_lon": 0.0, "lat": 38.90102433333333, "bike_id": "579c7aa2235132702f655ab428cc5e13", "type": "electric_scooter", "is_reserved": 0, "lon": -77.03165766666666}, {"fusion_lat": 0.0, "name": "d7b302de75fff5b6062d9212b79991a6", "is_disabled": 0, "rental_uris": {"android": "https://dc.lft.to/lastmile_qr_scan", "ios": "https://dc.lft.to/lastmile_qr_scan"}, "fusion_lon": 0.0, "lat": 38.92812816666667, "bike_id": "d7b302de75fff5b6062d9212b79991a6", "type": "electric_scooter", "is_reserved": 0, "lon": -77.043599}, {"fusion_lat": 0.0, "name": "b3604f1cf545a3feb5be17e8141d6815", "is_disabled": 0, "rental_uris": {"android": "https://dc.lft.to/lastmile_qr_scan", "ios": "https://dc.lft.to/lastmile_qr_scan"}, "fusion_lon": 0.0, "lat": 38.9156645, "bike_id": "b3604f1cf545a3feb5be17e8141d6815", "type": "electric_scooter", "is_reserved": 0, "lon": -77.04500433333334}, {"fusion_lat": 0.0, "name": "f9cd9ad1eadfb39f5ddd781882d11bb0", "is_disabled": 0, "rental_uris": {"android": "https://dc.lft.to/lastmile_qr_scan", "ios": "https://dc.lft.to/lastmile_qr_scan"}, "fusion_lon": 0.0, "lat": 38.918449333333335, "bike_id": "f9cd9ad1eadfb39f5ddd781882d11bb0", "type": "electric_scooter", "is_reserved": 0, "lon": -77.024054}, {"fusion_lat": 0.0, "name": "92c1bc040c5aa76aecd84ae003836d1e", "is_disabled": 0, "rental_uris": {"android": "https://dc.lft.to/lastmile_qr_scan", "ios": "https://dc.lft.to/lastmile_qr_scan"}, "fusion_lon": 0.0, "lat": 38.88898283333333, "bike_id": "92c1bc040c5aa76aecd84ae003836d1e", "type": "electric_scooter", "is_reserved": 0, "lon": -76.992022}, {"fusion_lat": 0.0, "name": "43961d545d7b3ffcb8f9b99a8299a755", "is_disabled": 0, "rental_uris": {"android": "https://dc.lft.to/lastmile_qr_scan", "ios": "https://dc.lft.to/lastmile_qr_scan"}, "fusion_lon": 0.0, "lat": 38.9198585, "bike_id": "43961d545d7b3ffcb8f9b99a8299a755", "type": "electric_scooter", "is_reserved": 0, "lon": -77.04196283333333}, {"fusion_lat": 0.0, "name": "3d5de0f7a15d8b2ddf1a433d40f6b238", "is_disabled": 0, "rental_uris": {"android": "https://dc.lft.to/lastmile_qr_scan", "ios": "https://dc.lft.to/lastmile_qr_scan"}, "fusion_lon": 0.0, "lat": 38.898477166666666, "bike_id": "3d5de0f7a15d8b2ddf1a433d40f6b238", "type": "electric_scooter", "is_reserved": 0, "lon": -76.9903075}, {"fusion_lat": 0.0, "name": "f5a2a885dc45c558acf3749ece169809", "is_disabled": 0, "rental_uris": {"android": "https://dc.lft.to/lastmile_qr_scan", "ios": "https://dc.lft.to/lastmile_qr_scan"}, "fusion_lon": 0.0, "lat": 38.87821816666667, "bike_id": "f5a2a885dc45c558acf3749ece169809", "type": "electric_scooter", "is_reserved": 0, "lon": -77.00132566666667}, {"fusion_lat": 0.0, "name": "079e7b442c5c4d1552d7c62651a0ae4b", "is_disabled": 0, "rental_uris": {"android": "https://dc.lft.to/lastmile_qr_scan", "ios": "https://dc.lft.to/lastmile_qr_scan"}, "fusion_lon": 0.0, "lat": 38.86516133333333, "bike_id": "079e7b442c5c4d1552d7c62651a0ae4b", "type": "electric_bike", "is_reserved": 0, "lon": -76.97325266666667}, {"fusion_lat": 0.0, "name": "29f3597ea0c580f94871e85954c39507", "is_disabled": 0, "rental_uris": {"android": "https://dc.lft.to/lastmile_qr_scan", "ios": "https://dc.lft.to/lastmile_qr_scan"}, "fusion_lon": 0.0, "lat": 38.9192345, "bike_id": "29f3597ea0c580f94871e85954c39507", "type": "electric_scooter", "is_reserved": 0, "lon": -77.0318755}, {"fusion_lat": 0.0, "name": "524569116ec45a64021d7d0a48d78c6e", "is_disabled": 0, "rental_uris": {"android": "https://dc.lft.to/lastmile_qr_scan", "ios": "https://dc.lft.to/lastmile_qr_scan"}, "fusion_lon": 0.0, "lat": 38.95084133333334, "bike_id": "524569116ec45a64021d7d0a48d78c6e", "type": "electric_scooter", "is_reserved": 0, "lon": -77.0271545}, {"fusion_lat": 0.0, "name": "d89ae18eb2dad2eaac11c3dd02ae3bfc", "is_disabled": 0, "rental_uris": {"android": "https://dc.lft.to/lastmile_qr_scan", "ios": "https://dc.lft.to/lastmile_qr_scan"}, "fusion_lon": 0.0, "lat": 38.9237805, "bike_id": "d89ae18eb2dad2eaac11c3dd02ae3bfc", "type": "electric_scooter", "is_reserved": 0, "lon": -77.05153783333333}, {"fusion_lat": 0.0, "name": "7cb1da0cfa44803510b3da15cede2824", "is_disabled": 0, "rental_uris": {"android": "https://dc.lft.to/lastmile_qr_scan", "ios": "https://dc.lft.to/lastmile_qr_scan"}, "fusion_lon": 0.0, "lat": 38.929043, "bike_id": "7cb1da0cfa44803510b3da15cede2824", "type": "electric_scooter", "is_reserved": 0, "lon": -77.0325715}, {"fusion_lat": 0.0, "name": "9962625582141ad9c39f744090f5907c", "is_disabled": 0, "rental_uris": {"android": "https://dc.lft.to/lastmile_qr_scan", "ios": "https://dc.lft.to/lastmile_qr_scan"}, "fusion_lon": 0.0, "lat": 38.95547783333333, "bike_id": "9962625582141ad9c39f744090f5907c", "type": "electric_bike", "is_reserved": 0, "lon": -77.069411}, {"fusion_lat": 0.0, "name": "6830804658ce9f0a349abd156851cddc", "is_disabled": 0, "rental_uris": {"android": "https://dc.lft.to/lastmile_qr_scan", "ios": "https://dc.lft.to/lastmile_qr_scan"}, "fusion_lon": 0.0, "lat": 38.898393666666664, "bike_id": "6830804658ce9f0a349abd156851cddc", "type": "electric_scooter", "is_reserved": 0, "lon": -77.03401216666667}, {"fusion_lat": 0.0, "name": "c97a1c2f73d1e031452eaf0ec8a6e90b", "is_disabled": 0, "rental_uris": {"android": "https://dc.lft.to/lastmile_qr_scan", "ios": "https://dc.lft.to/lastmile_qr_scan"}, "fusion_lon": 0.0, "lat": 38.90022316666666, "bike_id": "c97a1c2f73d1e031452eaf0ec8a6e90b", "type": "electric_scooter", "is_reserved": 0, "lon": -76.99624566666667}, {"fusion_lat": 0.0, "name": "e98c35d787b365d1e556195c01ff412e", "is_disabled": 0, "rental_uris": {"android": "https://dc.lft.to/lastmile_qr_scan", "ios": "https://dc.lft.to/lastmile_qr_scan"}, "fusion_lon": 0.0, "lat": 38.879134666666666, "bike_id": "e98c35d787b365d1e556195c01ff412e", "type": "electric_scooter", "is_reserved": 0, "lon": -77.00560883333333}, {"fusion_lat": 0.0, "name": "5e832bac267d72b49f8263a55bd711c0", "is_disabled": 0, "rental_uris": {"android": "https://dc.lft.to/lastmile_qr_scan", "ios": "https://dc.lft.to/lastmile_qr_scan"}, "fusion_lon": 0.0, "lat": 38.90021633333333, "bike_id": "5e832bac267d72b49f8263a55bd711c0", "type": "electric_scooter", "is_reserved": 0, "lon": -77.0161965}, {"fusion_lat": 0.0, "name": "28f15ae86fd56aa29c6375436ba54f98", "is_disabled": 0, "rental_uris": {"android": "https://dc.lft.to/lastmile_qr_scan", "ios": "https://dc.lft.to/lastmile_qr_scan"}, "fusion_lon": 0.0, "lat": 38.9450535, "bike_id": "28f15ae86fd56aa29c6375436ba54f98", "type": "electric_bike", "is_reserved": 0, "lon": -77.00669116666667}, {"fusion_lat": 0.0, "name": "047fb7e0de1cca2308317faa26dc87a1", "is_disabled": 0, "rental_uris": {"android": "https://dc.lft.to/lastmile_qr_scan", "ios": "https://dc.lft.to/lastmile_qr_scan"}, "fusion_lon": 0.0, "lat": 38.895884, "bike_id": "047fb7e0de1cca2308317faa26dc87a1", "type": "electric_scooter", "is_reserved": 0, "lon": -77.02167066666667}, {"fusion_lat": 0.0, "name": "360e37b3e171912bc726c27b2fc3ebab", "is_disabled": 0, "rental_uris": {"android": "https://dc.lft.to/lastmile_qr_scan", "ios": "https://dc.lft.to/lastmile_qr_scan"}, "fusion_lon": 0.0, "lat": 38.916549333333336, "bike_id": "360e37b3e171912bc726c27b2fc3ebab", "type": "electric_scooter", "is_reserved": 0, "lon": -77.047824}, {"fusion_lat": 0.0, "name": "071275e5701b587d946a872407e4e08a", "is_disabled": 0, "rental_uris": {"android": "https://dc.lft.to/lastmile_qr_scan", "ios": "https://dc.lft.to/lastmile_qr_scan"}, "fusion_lon": 0.0, "lat": 38.95289, "bike_id": "071275e5701b587d946a872407e4e08a", "type": "electric_scooter", "is_reserved": 0, "lon": -77.0688215}, {"fusion_lat": 0.0, "name": "1983b00f32130c1c9eb1914083b91854", "is_disabled": 0, "rental_uris": {"android": "https://dc.lft.to/lastmile_qr_scan", "ios": "https://dc.lft.to/lastmile_qr_scan"}, "fusion_lon": 0.0, "lat": 38.9158745, "bike_id": "1983b00f32130c1c9eb1914083b91854", "type": "electric_scooter", "is_reserved": 0, "lon": -77.04330416666667}, {"fusion_lat": 0.0, "name": "d87f6d54d93392ba222b4462dfbf0fce", "is_disabled": 0, "rental_uris": {"android": "https://dc.lft.to/lastmile_qr_scan", "ios": "https://dc.lft.to/lastmile_qr_scan"}, "fusion_lon": 0.0, "lat": 38.916074, "bike_id": "d87f6d54d93392ba222b4462dfbf0fce", "type": "electric_scooter", "is_reserved": 0, "lon": -77.023162}, {"fusion_lat": 0.0, "name": "c95c949c46342eca431b896aa025952f", "is_disabled": 0, "rental_uris": {"android": "https://dc.lft.to/lastmile_qr_scan", "ios": "https://dc.lft.to/lastmile_qr_scan"}, "fusion_lon": 0.0, "lat": 38.90690983333333, "bike_id": "c95c949c46342eca431b896aa025952f", "type": "electric_scooter", "is_reserved": 0, "lon": -77.03593766666667}, {"fusion_lat": 0.0, "name": "bc955694e18ab540380ecec5ffb3395a", "is_disabled": 0, "rental_uris": {"android": "https://dc.lft.to/lastmile_qr_scan", "ios": "https://dc.lft.to/lastmile_qr_scan"}, "fusion_lon": 0.0, "lat": 38.90597266666666, "bike_id": "bc955694e18ab540380ecec5ffb3395a", "type": "electric_scooter", "is_reserved": 0, "lon": -77.06281316666667}, {"fusion_lat": 0.0, "name": "96a3a00236c84978e6f8ad3e2fc3caa0", "is_disabled": 0, "rental_uris": {"android": "https://dc.lft.to/lastmile_qr_scan", "ios": "https://dc.lft.to/lastmile_qr_scan"}, "fusion_lon": 0.0, "lat": 38.88483683333333, "bike_id": "96a3a00236c84978e6f8ad3e2fc3caa0", "type": "electric_scooter", "is_reserved": 0, "lon": -77.014871}, {"fusion_lat": 0.0, "name": "8ad7c1bec2db322d0cf74cb1a73443b8", "is_disabled": 0, "rental_uris": {"android": "https://dc.lft.to/lastmile_qr_scan", "ios": "https://dc.lft.to/lastmile_qr_scan"}, "fusion_lon": 0.0, "lat": 38.9084245, "bike_id": "8ad7c1bec2db322d0cf74cb1a73443b8", "type": "electric_scooter", "is_reserved": 0, "lon": -77.04671566666667}, {"fusion_lat": 0.0, "name": "3020278a979c11eb49974a65320c7c86", "is_disabled": 0, "rental_uris": {"android": "https://dc.lft.to/lastmile_qr_scan", "ios": "https://dc.lft.to/lastmile_qr_scan"}, "fusion_lon": 0.0, "lat": 38.92214766666667, "bike_id": "3020278a979c11eb49974a65320c7c86", "type": "electric_scooter", "is_reserved": 0, "lon": -77.0424105}, {"fusion_lat": 0.0, "name": "174c5856ffaec492d03d2bf3f43aab5d", "is_disabled": 0, "rental_uris": {"android": "https://dc.lft.to/lastmile_qr_scan", "ios": "https://dc.lft.to/lastmile_qr_scan"}, "fusion_lon": 0.0, "lat": 38.892409, "bike_id": "174c5856ffaec492d03d2bf3f43aab5d", "type": "electric_scooter", "is_reserved": 0, "lon": -77.03958066666667}, {"fusion_lat": 0.0, "name": "5dc0da181090bb152469e79dfbff4de4", "is_disabled": 0, "rental_uris": {"android": "https://dc.lft.to/lastmile_qr_scan", "ios": "https://dc.lft.to/lastmile_qr_scan"}, "fusion_lon": 0.0, "lat": 38.9004785, "bike_id": "5dc0da181090bb152469e79dfbff4de4", "type": "electric_scooter", "is_reserved": 0, "lon": -76.98555366666666}, {"fusion_lat": 0.0, "name": "fadd8a62e5020289c45717c63ec7995f", "is_disabled": 0, "rental_uris": {"android": "https://dc.lft.to/lastmile_qr_scan", "ios": "https://dc.lft.to/lastmile_qr_scan"}, "fusion_lon": 0.0, "lat": 38.9144955, "bike_id": "fadd8a62e5020289c45717c63ec7995f", "type": "electric_scooter", "is_reserved": 0, "lon": -77.044727}, {"fusion_lat": 0.0, "name": "f46f74b9ed8bc822ab1b3390a03556ce", "is_disabled": 0, "rental_uris": {"android": "https://dc.lft.to/lastmile_qr_scan", "ios": "https://dc.lft.to/lastmile_qr_scan"}, "fusion_lon": 0.0, "lat": 38.889903333333336, "bike_id": "f46f74b9ed8bc822ab1b3390a03556ce", "type": "electric_scooter", "is_reserved": 0, "lon": -76.9142055}, {"fusion_lat": 0.0, "name": "3f02a9ab3e9a576b54c701b68ee8824a", "is_disabled": 0, "rental_uris": {"android": "https://dc.lft.to/lastmile_qr_scan", "ios": "https://dc.lft.to/lastmile_qr_scan"}, "fusion_lon": 0.0, "lat": 38.905702833333336, "bike_id": "3f02a9ab3e9a576b54c701b68ee8824a", "type": "electric_scooter", "is_reserved": 0, "lon": -77.046744}, {"fusion_lat": 0.0, "name": "7ee9ee44b2f3b467e114f1d8532eb7d8", "is_disabled": 0, "rental_uris": {"android": "https://dc.lft.to/lastmile_qr_scan", "ios": "https://dc.lft.to/lastmile_qr_scan"}, "fusion_lon": 0.0, "lat": 38.91088933333333, "bike_id": "7ee9ee44b2f3b467e114f1d8532eb7d8", "type": "electric_scooter", "is_reserved": 0, "lon": -77.02184466666667}, {"fusion_lat": 0.0, "name": "d4c6abc991df027982f4a652d329dab1", "is_disabled": 0, "rental_uris": {"android": "https://dc.lft.to/lastmile_qr_scan", "ios": "https://dc.lft.to/lastmile_qr_scan"}, "fusion_lon": 0.0, "lat": 38.906406833333335, "bike_id": "d4c6abc991df027982f4a652d329dab1", "type": "electric_scooter", "is_reserved": 0, "lon": -77.00587366666667}, {"fusion_lat": 0.0, "name": "842b7ef52f18f63c30a9fa9a975200c6", "is_disabled": 0, "rental_uris": {"android": "https://dc.lft.to/lastmile_qr_scan", "ios": "https://dc.lft.to/lastmile_qr_scan"}, "fusion_lon": 0.0, "lat": 38.95797833333334, "bike_id": "842b7ef52f18f63c30a9fa9a975200c6", "type": "electric_bike", "is_reserved": 0, "lon": -76.9604655}, {"fusion_lat": 0.0, "name": "f2d6cdd0a81232da40c5942e2b9d815a", "is_disabled": 0, "rental_uris": {"android": "https://dc.lft.to/lastmile_qr_scan", "ios": "https://dc.lft.to/lastmile_qr_scan"}, "fusion_lon": 0.0, "lat": 38.934418, "bike_id": "f2d6cdd0a81232da40c5942e2b9d815a", "type": "electric_bike", "is_reserved": 0, "lon": -77.02732766666666}, {"fusion_lat": 0.0, "name": "88a7958e34ec3a66d8c7a57848e94e2c", "is_disabled": 0, "rental_uris": {"android": "https://dc.lft.to/lastmile_qr_scan", "ios": "https://dc.lft.to/lastmile_qr_scan"}, "fusion_lon": 0.0, "lat": 38.9155035, "bike_id": "88a7958e34ec3a66d8c7a57848e94e2c", "type": "electric_scooter", "is_reserved": 0, "lon": -77.02144266666667}, {"fusion_lat": 0.0, "name": "ad1e44b079162b9a3edf3bd26b18b596", "is_disabled": 0, "rental_uris": {"android": "https://dc.lft.to/lastmile_qr_scan", "ios": "https://dc.lft.to/lastmile_qr_scan"}, "fusion_lon": 0.0, "lat": 38.924934666666665, "bike_id": "ad1e44b079162b9a3edf3bd26b18b596", "type": "electric_scooter", "is_reserved": 0, "lon": -77.0523255}, {"fusion_lat": 0.0, "name": "12fbafe23b5af6668403b1c73f136d1c", "is_disabled": 0, "rental_uris": {"android": "https://dc.lft.to/lastmile_qr_scan", "ios": "https://dc.lft.to/lastmile_qr_scan"}, "fusion_lon": 0.0, "lat": 38.92092066666667, "bike_id": "12fbafe23b5af6668403b1c73f136d1c", "type": "electric_scooter", "is_reserved": 0, "lon": -77.01778283333333}, {"fusion_lat": 0.0, "name": "e1a43d12c044b822db4a7c4d244d4674", "is_disabled": 0, "rental_uris": {"android": "https://dc.lft.to/lastmile_qr_scan", "ios": "https://dc.lft.to/lastmile_qr_scan"}, "fusion_lon": 0.0, "lat": 38.921986, "bike_id": "e1a43d12c044b822db4a7c4d244d4674", "type": "electric_scooter", "is_reserved": 0, "lon": -77.08082766666666}, {"fusion_lat": 0.0, "name": "39d484ec62f8112d30b38d538a56c8e4", "is_disabled": 0, "rental_uris": {"android": "https://dc.lft.to/lastmile_qr_scan", "ios": "https://dc.lft.to/lastmile_qr_scan"}, "fusion_lon": 0.0, "lat": 38.931152, "bike_id": "39d484ec62f8112d30b38d538a56c8e4", "type": "electric_scooter", "is_reserved": 0, "lon": -77.02088}, {"fusion_lat": 0.0, "name": "801fed0c50e37cf24337ff64062b52ca", "is_disabled": 0, "rental_uris": {"android": "https://dc.lft.to/lastmile_qr_scan", "ios": "https://dc.lft.to/lastmile_qr_scan"}, "fusion_lon": 0.0, "lat": 38.89207366666667, "bike_id": "801fed0c50e37cf24337ff64062b52ca", "type": "electric_scooter", "is_reserved": 0, "lon": -77.02657783333333}, {"fusion_lat": 0.0, "name": "6ff87fdff039b920e03bdeca5ad8581f", "is_disabled": 0, "rental_uris": {"android": "https://dc.lft.to/lastmile_qr_scan", "ios": "https://dc.lft.to/lastmile_qr_scan"}, "fusion_lon": 0.0, "lat": 38.885199666666665, "bike_id": "6ff87fdff039b920e03bdeca5ad8581f", "type": "electric_scooter", "is_reserved": 0, "lon": -76.9771255}, {"fusion_lat": 0.0, "name": "23006a758d6b8b35cdee7de874a441e9", "is_disabled": 0, "rental_uris": {"android": "https://dc.lft.to/lastmile_qr_scan", "ios": "https://dc.lft.to/lastmile_qr_scan"}, "fusion_lon": 0.0, "lat": 38.8442265, "bike_id": "23006a758d6b8b35cdee7de874a441e9", "type": "electric_scooter", "is_reserved": 0, "lon": -76.99780583333333}, {"fusion_lat": 0.0, "name": "b246f62954e223e0f0ae7fe33637afd5", "is_disabled": 0, "rental_uris": {"android": "https://dc.lft.to/lastmile_qr_scan", "ios": "https://dc.lft.to/lastmile_qr_scan"}, "fusion_lon": 0.0, "lat": 38.90627116666667, "bike_id": "b246f62954e223e0f0ae7fe33637afd5", "type": "electric_scooter", "is_reserved": 0, "lon": -77.02602516666667}, {"fusion_lat": 0.0, "name": "3707c541a0b1991c813018610d8e6455", "is_disabled": 0, "rental_uris": {"android": "https://dc.lft.to/lastmile_qr_scan", "ios": "https://dc.lft.to/lastmile_qr_scan"}, "fusion_lon": 0.0, "lat": 38.911111166666664, "bike_id": "3707c541a0b1991c813018610d8e6455", "type": "electric_scooter", "is_reserved": 0, "lon": -77.0812695}, {"fusion_lat": 0.0, "name": "0df5e49a5831ffeb82e08660d79647c9", "is_disabled": 0, "rental_uris": {"android": "https://dc.lft.to/lastmile_qr_scan", "ios": "https://dc.lft.to/lastmile_qr_scan"}, "fusion_lon": 0.0, "lat": 38.8974725, "bike_id": "0df5e49a5831ffeb82e08660d79647c9", "type": "electric_scooter", "is_reserved": 0, "lon": -77.00365583333334}, {"fusion_lat": 0.0, "name": "0e9f937fa991dc8923306aa5a91a96c3", "is_disabled": 0, "rental_uris": {"android": "https://dc.lft.to/lastmile_qr_scan", "ios": "https://dc.lft.to/lastmile_qr_scan"}, "fusion_lon": 0.0, "lat": 38.907759166666665, "bike_id": "0e9f937fa991dc8923306aa5a91a96c3", "type": "electric_scooter", "is_reserved": 0, "lon": -77.03840083333333}, {"fusion_lat": 0.0, "name": "65b179bcef39c03a115f9eeb24e6ea61", "is_disabled": 0, "rental_uris": {"android": "https://dc.lft.to/lastmile_qr_scan", "ios": "https://dc.lft.to/lastmile_qr_scan"}, "fusion_lon": 0.0, "lat": 38.893210833333335, "bike_id": "65b179bcef39c03a115f9eeb24e6ea61", "type": "electric_bike", "is_reserved": 0, "lon": -76.95124583333333}, {"fusion_lat": 0.0, "name": "d258cc194731b729646c1a3b08595122", "is_disabled": 0, "rental_uris": {"android": "https://dc.lft.to/lastmile_qr_scan", "ios": "https://dc.lft.to/lastmile_qr_scan"}, "fusion_lon": 0.0, "lat": 38.899547166666665, "bike_id": "d258cc194731b729646c1a3b08595122", "type": "electric_scooter", "is_reserved": 0, "lon": -77.0198605}, {"fusion_lat": 0.0, "name": "b983e920086492a9eec3bb6477c4ba0e", "is_disabled": 0, "rental_uris": {"android": "https://dc.lft.to/lastmile_qr_scan", "ios": "https://dc.lft.to/lastmile_qr_scan"}, "fusion_lon": 0.0, "lat": 38.913236166666664, "bike_id": "b983e920086492a9eec3bb6477c4ba0e", "type": "electric_scooter", "is_reserved": 0, "lon": -77.0196785}, {"fusion_lat": 0.0, "name": "e4f19f1c0e9b2659a0be07d95a986b66", "is_disabled": 0, "rental_uris": {"android": "https://dc.lft.to/lastmile_qr_scan", "ios": "https://dc.lft.to/lastmile_qr_scan"}, "fusion_lon": 0.0, "lat": 38.9094515, "bike_id": "e4f19f1c0e9b2659a0be07d95a986b66", "type": "electric_scooter", "is_reserved": 0, "lon": -77.0324465}, {"fusion_lat": 0.0, "name": "2b5b81972383fc8b08f09dd107dbecc9", "is_disabled": 0, "rental_uris": {"android": "https://dc.lft.to/lastmile_qr_scan", "ios": "https://dc.lft.to/lastmile_qr_scan"}, "fusion_lon": 0.0, "lat": 38.88407383333333, "bike_id": "2b5b81972383fc8b08f09dd107dbecc9", "type": "electric_scooter", "is_reserved": 0, "lon": -77.02992816666666}, {"fusion_lat": 0.0, "name": "b33ac0f9372e3d10658dbe94910496e1", "is_disabled": 0, "rental_uris": {"android": "https://dc.lft.to/lastmile_qr_scan", "ios": "https://dc.lft.to/lastmile_qr_scan"}, "fusion_lon": 0.0, "lat": 38.87393216666667, "bike_id": "b33ac0f9372e3d10658dbe94910496e1", "type": "electric_scooter", "is_reserved": 0, "lon": -77.0145645}, {"fusion_lat": 0.0, "name": "f00fa5fd8c409076bb1aa338d5f31384", "is_disabled": 0, "rental_uris": {"android": "https://dc.lft.to/lastmile_qr_scan", "ios": "https://dc.lft.to/lastmile_qr_scan"}, "fusion_lon": 0.0, "lat": 38.91745616666667, "bike_id": "f00fa5fd8c409076bb1aa338d5f31384", "type": "electric_scooter", "is_reserved": 0, "lon": -77.01222633333333}, {"fusion_lat": 0.0, "name": "50455e82878d05792559d0c46c4403f1", "is_disabled": 0, "rental_uris": {"android": "https://dc.lft.to/lastmile_qr_scan", "ios": "https://dc.lft.to/lastmile_qr_scan"}, "fusion_lon": 0.0, "lat": 38.89227566666667, "bike_id": "50455e82878d05792559d0c46c4403f1", "type": "electric_scooter", "is_reserved": 0, "lon": -77.02205666666667}, {"fusion_lat": 0.0, "name": "9b94042b7e2ad8af6be8848ed7e3da89", "is_disabled": 0, "rental_uris": {"android": "https://dc.lft.to/lastmile_qr_scan", "ios": "https://dc.lft.to/lastmile_qr_scan"}, "fusion_lon": 0.0, "lat": 38.90973266666666, "bike_id": "9b94042b7e2ad8af6be8848ed7e3da89", "type": "electric_scooter", "is_reserved": 0, "lon": -77.04840316666667}, {"fusion_lat": 0.0, "name": "0d74acc0ca3fd8e84c228444da9cf933", "is_disabled": 0, "rental_uris": {"android": "https://dc.lft.to/lastmile_qr_scan", "ios": "https://dc.lft.to/lastmile_qr_scan"}, "fusion_lon": 0.0, "lat": 38.9397025, "bike_id": "0d74acc0ca3fd8e84c228444da9cf933", "type": "electric_scooter", "is_reserved": 0, "lon": -77.03283766666667}, {"fusion_lat": 0.0, "name": "702264348c962a6329f30cdac88f8b31", "is_disabled": 0, "rental_uris": {"android": "https://dc.lft.to/lastmile_qr_scan", "ios": "https://dc.lft.to/lastmile_qr_scan"}, "fusion_lon": 0.0, "lat": 38.82775083333333, "bike_id": "702264348c962a6329f30cdac88f8b31", "type": "electric_bike", "is_reserved": 0, "lon": -77.12488833333333}, {"fusion_lat": 0.0, "name": "149ae288c247ac074a4b4b406ba8c3c8", "is_disabled": 0, "rental_uris": {"android": "https://dc.lft.to/lastmile_qr_scan", "ios": "https://dc.lft.to/lastmile_qr_scan"}, "fusion_lon": 0.0, "lat": 38.9089385, "bike_id": "149ae288c247ac074a4b4b406ba8c3c8", "type": "electric_scooter", "is_reserved": 0, "lon": -77.04396433333334}, {"fusion_lat": 0.0, "name": "4474e4750db0c264d4c82235ec76dc5b", "is_disabled": 0, "rental_uris": {"android": "https://dc.lft.to/lastmile_qr_scan", "ios": "https://dc.lft.to/lastmile_qr_scan"}, "fusion_lon": 0.0, "lat": 38.900327, "bike_id": "4474e4750db0c264d4c82235ec76dc5b", "type": "electric_scooter", "is_reserved": 0, "lon": -76.99261916666667}, {"fusion_lat": 0.0, "name": "109a37303cb0c4063727aeabfcd0aa6f", "is_disabled": 0, "rental_uris": {"android": "https://dc.lft.to/lastmile_qr_scan", "ios": "https://dc.lft.to/lastmile_qr_scan"}, "fusion_lon": 0.0, "lat": 38.941780333333334, "bike_id": "109a37303cb0c4063727aeabfcd0aa6f", "type": "electric_scooter", "is_reserved": 0, "lon": -77.02493583333333}, {"fusion_lat": 0.0, "name": "8016a88aae6b8ebaddb31d811d911c10", "is_disabled": 0, "rental_uris": {"android": "https://dc.lft.to/lastmile_qr_scan", "ios": "https://dc.lft.to/lastmile_qr_scan"}, "fusion_lon": 0.0, "lat": 38.914319, "bike_id": "8016a88aae6b8ebaddb31d811d911c10", "type": "electric_scooter", "is_reserved": 0, "lon": -77.022877}, {"fusion_lat": 0.0, "name": "bf1eafa477042a949bf8677d32922b4e", "is_disabled": 0, "rental_uris": {"android": "https://dc.lft.to/lastmile_qr_scan", "ios": "https://dc.lft.to/lastmile_qr_scan"}, "fusion_lon": 0.0, "lat": 38.908277, "bike_id": "bf1eafa477042a949bf8677d32922b4e", "type": "electric_scooter", "is_reserved": 0, "lon": -77.0022035}, {"fusion_lat": 0.0, "name": "18a74b38b4173db9657ba88470ba4bf9", "is_disabled": 0, "rental_uris": {"android": "https://dc.lft.to/lastmile_qr_scan", "ios": "https://dc.lft.to/lastmile_qr_scan"}, "fusion_lon": 0.0, "lat": 38.9231995, "bike_id": "18a74b38b4173db9657ba88470ba4bf9", "type": "electric_scooter", "is_reserved": 0, "lon": -77.038112}, {"fusion_lat": 0.0, "name": "a354c1347ee325c0878cc967f9b75b9d", "is_disabled": 0, "rental_uris": {"android": "https://dc.lft.to/lastmile_qr_scan", "ios": "https://dc.lft.to/lastmile_qr_scan"}, "fusion_lon": 0.0, "lat": 38.939716, "bike_id": "a354c1347ee325c0878cc967f9b75b9d", "type": "electric_scooter", "is_reserved": 0, "lon": -77.0328275}, {"fusion_lat": 0.0, "name": "af3985df31ee672b351658e0a333ec83", "is_disabled": 0, "rental_uris": {"android": "https://dc.lft.to/lastmile_qr_scan", "ios": "https://dc.lft.to/lastmile_qr_scan"}, "fusion_lon": 0.0, "lat": 38.928542166666666, "bike_id": "af3985df31ee672b351658e0a333ec83", "type": "electric_scooter", "is_reserved": 0, "lon": -77.0352725}, {"fusion_lat": 0.0, "name": "0e39b33bfdcce0212a087f52e54bd747", "is_disabled": 0, "rental_uris": {"android": "https://dc.lft.to/lastmile_qr_scan", "ios": "https://dc.lft.to/lastmile_qr_scan"}, "fusion_lon": 0.0, "lat": 38.902074, "bike_id": "0e39b33bfdcce0212a087f52e54bd747", "type": "electric_scooter", "is_reserved": 0, "lon": -76.98615883333333}, {"fusion_lat": 0.0, "name": "d4cfc06c73f07272840ea39f9da2db5b", "is_disabled": 0, "rental_uris": {"android": "https://dc.lft.to/lastmile_qr_scan", "ios": "https://dc.lft.to/lastmile_qr_scan"}, "fusion_lon": 0.0, "lat": 38.87915666666667, "bike_id": "d4cfc06c73f07272840ea39f9da2db5b", "type": "electric_scooter", "is_reserved": 0, "lon": -77.00572933333333}, {"fusion_lat": 0.0, "name": "ce22cc2c0529b9929a96009aaca7fd90", "is_disabled": 0, "rental_uris": {"android": "https://dc.lft.to/lastmile_qr_scan", "ios": "https://dc.lft.to/lastmile_qr_scan"}, "fusion_lon": 0.0, "lat": 38.88509833333333, "bike_id": "ce22cc2c0529b9929a96009aaca7fd90", "type": "electric_scooter", "is_reserved": 0, "lon": -77.01118433333333}, {"fusion_lat": 0.0, "name": "ea0f7127901fc75194c9865340c1ffd6", "is_disabled": 0, "rental_uris": {"android": "https://dc.lft.to/lastmile_qr_scan", "ios": "https://dc.lft.to/lastmile_qr_scan"}, "fusion_lon": 0.0, "lat": 38.88739366666667, "bike_id": "ea0f7127901fc75194c9865340c1ffd6", "type": "electric_scooter", "is_reserved": 0, "lon": -77.0178705}, {"fusion_lat": 0.0, "name": "67d0f1020d4655e50394753a9e91d19b", "is_disabled": 0, "rental_uris": {"android": "https://dc.lft.to/lastmile_qr_scan", "ios": "https://dc.lft.to/lastmile_qr_scan"}, "fusion_lon": 0.0, "lat": 38.887252333333336, "bike_id": "67d0f1020d4655e50394753a9e91d19b", "type": "electric_scooter", "is_reserved": 0, "lon": -76.98358833333333}, {"fusion_lat": 0.0, "name": "96f5f3ab95fac306178f832df3b381d5", "is_disabled": 0, "rental_uris": {"android": "https://dc.lft.to/lastmile_qr_scan", "ios": "https://dc.lft.to/lastmile_qr_scan"}, "fusion_lon": 0.0, "lat": 38.919975666666666, "bike_id": "96f5f3ab95fac306178f832df3b381d5", "type": "electric_scooter", "is_reserved": 0, "lon": -77.03281216666667}, {"fusion_lat": 0.0, "name": "daea36dbe47559c6fd527532bcd6b83f", "is_disabled": 0, "rental_uris": {"android": "https://dc.lft.to/lastmile_qr_scan", "ios": "https://dc.lft.to/lastmile_qr_scan"}, "fusion_lon": 0.0, "lat": 38.91558533333333, "bike_id": "daea36dbe47559c6fd527532bcd6b83f", "type": "electric_scooter", "is_reserved": 0, "lon": -77.01062933333333}, {"fusion_lat": 0.0, "name": "359633ec645269e790a4f04d10ee9479", "is_disabled": 0, "rental_uris": {"android": "https://dc.lft.to/lastmile_qr_scan", "ios": "https://dc.lft.to/lastmile_qr_scan"}, "fusion_lon": 0.0, "lat": 38.90373316666667, "bike_id": "359633ec645269e790a4f04d10ee9479", "type": "electric_scooter", "is_reserved": 0, "lon": -77.01632116666667}, {"fusion_lat": 0.0, "name": "01415ef6998341ac74131942f3869b53", "is_disabled": 0, "rental_uris": {"android": "https://dc.lft.to/lastmile_qr_scan", "ios": "https://dc.lft.to/lastmile_qr_scan"}, "fusion_lon": 0.0, "lat": 38.89983383333333, "bike_id": "01415ef6998341ac74131942f3869b53", "type": "electric_scooter", "is_reserved": 0, "lon": -77.01195383333334}, {"fusion_lat": 0.0, "name": "718327f68283d212c7174f25711f8e4a", "is_disabled": 0, "rental_uris": {"android": "https://dc.lft.to/lastmile_qr_scan", "ios": "https://dc.lft.to/lastmile_qr_scan"}, "fusion_lon": 0.0, "lat": 38.9120485, "bike_id": "718327f68283d212c7174f25711f8e4a", "type": "electric_scooter", "is_reserved": 0, "lon": -77.00653583333333}, {"fusion_lat": 0.0, "name": "802b7151b0571d70fbf72c3edd2530da", "is_disabled": 0, "rental_uris": {"android": "https://dc.lft.to/lastmile_qr_scan", "ios": "https://dc.lft.to/lastmile_qr_scan"}, "fusion_lon": 0.0, "lat": 38.8873575, "bike_id": "802b7151b0571d70fbf72c3edd2530da", "type": "electric_scooter", "is_reserved": 0, "lon": -77.00329316666667}, {"fusion_lat": 0.0, "name": "f6bcb001ad21b631b94ed16299760c18", "is_disabled": 0, "rental_uris": {"android": "https://dc.lft.to/lastmile_qr_scan", "ios": "https://dc.lft.to/lastmile_qr_scan"}, "fusion_lon": 0.0, "lat": 38.89737, "bike_id": "f6bcb001ad21b631b94ed16299760c18", "type": "electric_scooter", "is_reserved": 0, "lon": -77.02767133333333}, {"fusion_lat": 0.0, "name": "9f58872393bb03bd5e00ffcbda15c7d1", "is_disabled": 0, "rental_uris": {"android": "https://dc.lft.to/lastmile_qr_scan", "ios": "https://dc.lft.to/lastmile_qr_scan"}, "fusion_lon": 0.0, "lat": 38.902928833333334, "bike_id": "9f58872393bb03bd5e00ffcbda15c7d1", "type": "electric_scooter", "is_reserved": 0, "lon": -77.039498}, {"fusion_lat": 0.0, "name": "6d14f58401eb7d4c7f6e9c10d06370b9", "is_disabled": 0, "rental_uris": {"android": "https://dc.lft.to/lastmile_qr_scan", "ios": "https://dc.lft.to/lastmile_qr_scan"}, "fusion_lon": 0.0, "lat": 38.89972816666667, "bike_id": "6d14f58401eb7d4c7f6e9c10d06370b9", "type": "electric_scooter", "is_reserved": 0, "lon": -76.98712216666667}, {"fusion_lat": 0.0, "name": "055afa33a30593b0977ac587eb1da88d", "is_disabled": 0, "rental_uris": {"android": "https://dc.lft.to/lastmile_qr_scan", "ios": "https://dc.lft.to/lastmile_qr_scan"}, "fusion_lon": 0.0, "lat": 38.9158875, "bike_id": "055afa33a30593b0977ac587eb1da88d", "type": "electric_scooter", "is_reserved": 0, "lon": -76.98391216666667}, {"fusion_lat": 0.0, "name": "2c996cb55ac01664a704247581637fe8", "is_disabled": 0, "rental_uris": {"android": "https://dc.lft.to/lastmile_qr_scan", "ios": "https://dc.lft.to/lastmile_qr_scan"}, "fusion_lon": 0.0, "lat": 38.92073583333333, "bike_id": "2c996cb55ac01664a704247581637fe8", "type": "electric_bike", "is_reserved": 0, "lon": -76.989505}, {"fusion_lat": 0.0, "name": "a5addcd04b0b3c7a99db7fd44175b52f", "is_disabled": 0, "rental_uris": {"android": "https://dc.lft.to/lastmile_qr_scan", "ios": "https://dc.lft.to/lastmile_qr_scan"}, "fusion_lon": 0.0, "lat": 38.88833116666667, "bike_id": "a5addcd04b0b3c7a99db7fd44175b52f", "type": "electric_scooter", "is_reserved": 0, "lon": -77.01510483333334}, {"fusion_lat": 0.0, "name": "da2db5bb43aea1d9caa3622204375ad4", "is_disabled": 0, "rental_uris": {"android": "https://dc.lft.to/lastmile_qr_scan", "ios": "https://dc.lft.to/lastmile_qr_scan"}, "fusion_lon": 0.0, "lat": 38.9208225, "bike_id": "da2db5bb43aea1d9caa3622204375ad4", "type": "electric_scooter", "is_reserved": 0, "lon": -77.0253275}, {"fusion_lat": 0.0, "name": "6242e319f91923babfe1cbeb3e201786", "is_disabled": 0, "rental_uris": {"android": "https://dc.lft.to/lastmile_qr_scan", "ios": "https://dc.lft.to/lastmile_qr_scan"}, "fusion_lon": 0.0, "lat": 38.933778, "bike_id": "6242e319f91923babfe1cbeb3e201786", "type": "electric_scooter", "is_reserved": 0, "lon": -77.0389785}, {"fusion_lat": 0.0, "name": "79366bd00a8b6be1e138ecbc91bb8e7b", "is_disabled": 0, "rental_uris": {"android": "https://dc.lft.to/lastmile_qr_scan", "ios": "https://dc.lft.to/lastmile_qr_scan"}, "fusion_lon": 0.0, "lat": 38.9262175, "bike_id": "79366bd00a8b6be1e138ecbc91bb8e7b", "type": "electric_scooter", "is_reserved": 0, "lon": -77.03503183333333}, {"fusion_lat": 0.0, "name": "d72fc0283463dee7d515acae8026a503", "is_disabled": 0, "rental_uris": {"android": "https://dc.lft.to/lastmile_qr_scan", "ios": "https://dc.lft.to/lastmile_qr_scan"}, "fusion_lon": 0.0, "lat": 38.89808083333333, "bike_id": "d72fc0283463dee7d515acae8026a503", "type": "electric_scooter", "is_reserved": 0, "lon": -77.02498533333333}, {"fusion_lat": 0.0, "name": "f70b773228b98888dbb4b4db59504b64", "is_disabled": 0, "rental_uris": {"android": "https://dc.lft.to/lastmile_qr_scan", "ios": "https://dc.lft.to/lastmile_qr_scan"}, "fusion_lon": 0.0, "lat": 38.92006083333333, "bike_id": "f70b773228b98888dbb4b4db59504b64", "type": "electric_scooter", "is_reserved": 0, "lon": -77.04181933333334}, {"fusion_lat": 0.0, "name": "cbbbc992e9b1d9225544907f0cfc1cd2", "is_disabled": 0, "rental_uris": {"android": "https://dc.lft.to/lastmile_qr_scan", "ios": "https://dc.lft.to/lastmile_qr_scan"}, "fusion_lon": 0.0, "lat": 38.8974025, "bike_id": "cbbbc992e9b1d9225544907f0cfc1cd2", "type": "electric_scooter", "is_reserved": 0, "lon": -77.027685}, {"fusion_lat": 0.0, "name": "e6ceb5d53b5bd945e2f9a26337e46aa3", "is_disabled": 0, "rental_uris": {"android": "https://dc.lft.to/lastmile_qr_scan", "ios": "https://dc.lft.to/lastmile_qr_scan"}, "fusion_lon": 0.0, "lat": 38.9244945, "bike_id": "e6ceb5d53b5bd945e2f9a26337e46aa3", "type": "electric_scooter", "is_reserved": 0, "lon": -76.99911983333334}, {"fusion_lat": 0.0, "name": "661328a0060be2eddfac06392cf87b9d", "is_disabled": 0, "rental_uris": {"android": "https://dc.lft.to/lastmile_qr_scan", "ios": "https://dc.lft.to/lastmile_qr_scan"}, "fusion_lon": 0.0, "lat": 38.90231816666667, "bike_id": "661328a0060be2eddfac06392cf87b9d", "type": "electric_scooter", "is_reserved": 0, "lon": -77.02605966666667}, {"fusion_lat": 0.0, "name": "243ed34c282d321c41999db665e3002c", "is_disabled": 0, "rental_uris": {"android": "https://dc.lft.to/lastmile_qr_scan", "ios": "https://dc.lft.to/lastmile_qr_scan"}, "fusion_lon": 0.0, "lat": 38.909553, "bike_id": "243ed34c282d321c41999db665e3002c", "type": "electric_scooter", "is_reserved": 0, "lon": -77.03248733333334}, {"fusion_lat": 0.0, "name": "40f0ffd0ec7be229571c2520c38cff36", "is_disabled": 0, "rental_uris": {"android": "https://dc.lft.to/lastmile_qr_scan", "ios": "https://dc.lft.to/lastmile_qr_scan"}, "fusion_lon": 0.0, "lat": 38.88383366666667, "bike_id": "40f0ffd0ec7be229571c2520c38cff36", "type": "electric_scooter", "is_reserved": 0, "lon": -77.02596233333334}, {"fusion_lat": 0.0, "name": "6aa7e2cd86a00ddf7f2a9784d1b36781", "is_disabled": 0, "rental_uris": {"android": "https://dc.lft.to/lastmile_qr_scan", "ios": "https://dc.lft.to/lastmile_qr_scan"}, "fusion_lon": 0.0, "lat": 38.965888166666666, "bike_id": "6aa7e2cd86a00ddf7f2a9784d1b36781", "type": "electric_scooter", "is_reserved": 0, "lon": -77.015979}, {"fusion_lat": 0.0, "name": "d15009cb50c8fecab6dd73412d95796a", "is_disabled": 0, "rental_uris": {"android": "https://dc.lft.to/lastmile_qr_scan", "ios": "https://dc.lft.to/lastmile_qr_scan"}, "fusion_lon": 0.0, "lat": 38.9129025, "bike_id": "d15009cb50c8fecab6dd73412d95796a", "type": "electric_scooter", "is_reserved": 0, "lon": -77.04522916666667}, {"fusion_lat": 0.0, "name": "cf7ae4bef435b5db4ee0d5f030f9c881", "is_disabled": 0, "rental_uris": {"android": "https://dc.lft.to/lastmile_qr_scan", "ios": "https://dc.lft.to/lastmile_qr_scan"}, "fusion_lon": 0.0, "lat": 38.89989816666667, "bike_id": "cf7ae4bef435b5db4ee0d5f030f9c881", "type": "electric_scooter", "is_reserved": 0, "lon": -76.99255166666667}, {"fusion_lat": 0.0, "name": "63348cd5e1cb0ddc61eb4a5ad79a3975", "is_disabled": 0, "rental_uris": {"android": "https://dc.lft.to/lastmile_qr_scan", "ios": "https://dc.lft.to/lastmile_qr_scan"}, "fusion_lon": 0.0, "lat": 38.935841, "bike_id": "63348cd5e1cb0ddc61eb4a5ad79a3975", "type": "electric_scooter", "is_reserved": 0, "lon": -77.03344666666666}, {"fusion_lat": 0.0, "name": "96f087b858380addc65f76513ef41730", "is_disabled": 0, "rental_uris": {"android": "https://dc.lft.to/lastmile_qr_scan", "ios": "https://dc.lft.to/lastmile_qr_scan"}, "fusion_lon": 0.0, "lat": 38.906240333333336, "bike_id": "96f087b858380addc65f76513ef41730", "type": "electric_scooter", "is_reserved": 0, "lon": -77.02549716666667}, {"fusion_lat": 0.0, "name": "035d0d2c9eb75c17f645d5e4a8a3ebd8", "is_disabled": 0, "rental_uris": {"android": "https://dc.lft.to/lastmile_qr_scan", "ios": "https://dc.lft.to/lastmile_qr_scan"}, "fusion_lon": 0.0, "lat": 38.9099545, "bike_id": "035d0d2c9eb75c17f645d5e4a8a3ebd8", "type": "electric_scooter", "is_reserved": 0, "lon": -77.0346495}, {"fusion_lat": 0.0, "name": "b19da33b84b167b9ae8ba207a2cb3007", "is_disabled": 0, "rental_uris": {"android": "https://dc.lft.to/lastmile_qr_scan", "ios": "https://dc.lft.to/lastmile_qr_scan"}, "fusion_lon": 0.0, "lat": 38.921493166666664, "bike_id": "b19da33b84b167b9ae8ba207a2cb3007", "type": "electric_scooter", "is_reserved": 0, "lon": -77.0434485}, {"fusion_lat": 0.0, "name": "742e7ef1a5d855cb4d04d8de272458ee", "is_disabled": 0, "rental_uris": {"android": "https://dc.lft.to/lastmile_qr_scan", "ios": "https://dc.lft.to/lastmile_qr_scan"}, "fusion_lon": 0.0, "lat": 38.92284516666667, "bike_id": "742e7ef1a5d855cb4d04d8de272458ee", "type": "electric_scooter", "is_reserved": 0, "lon": -77.0233305}, {"fusion_lat": 0.0, "name": "75c38b60e0763c294cd560fcf78cb8a6", "is_disabled": 0, "rental_uris": {"android": "https://dc.lft.to/lastmile_qr_scan", "ios": "https://dc.lft.to/lastmile_qr_scan"}, "fusion_lon": 0.0, "lat": 38.887169166666666, "bike_id": "75c38b60e0763c294cd560fcf78cb8a6", "type": "electric_scooter", "is_reserved": 0, "lon": -77.02223716666667}, {"fusion_lat": 0.0, "name": "cc080527487cab124e5bcee64e176112", "is_disabled": 0, "rental_uris": {"android": "https://dc.lft.to/lastmile_qr_scan", "ios": "https://dc.lft.to/lastmile_qr_scan"}, "fusion_lon": 0.0, "lat": 38.88303666666667, "bike_id": "cc080527487cab124e5bcee64e176112", "type": "electric_scooter", "is_reserved": 0, "lon": -77.01394883333333}, {"fusion_lat": 0.0, "name": "8a3872f3b79c54bf46411fba70002e8f", "is_disabled": 0, "rental_uris": {"android": "https://dc.lft.to/lastmile_qr_scan", "ios": "https://dc.lft.to/lastmile_qr_scan"}, "fusion_lon": 0.0, "lat": 38.920713666666664, "bike_id": "8a3872f3b79c54bf46411fba70002e8f", "type": "electric_scooter", "is_reserved": 0, "lon": -77.02318016666666}, {"fusion_lat": 0.0, "name": "4b0f262a64b5dbd7a72ad109f4b66e9d", "is_disabled": 0, "rental_uris": {"android": "https://dc.lft.to/lastmile_qr_scan", "ios": "https://dc.lft.to/lastmile_qr_scan"}, "fusion_lon": 0.0, "lat": 38.90706433333333, "bike_id": "4b0f262a64b5dbd7a72ad109f4b66e9d", "type": "electric_scooter", "is_reserved": 0, "lon": -77.050584}, {"fusion_lat": 0.0, "name": "57ef04678b85179e5688992ae3f9f775", "is_disabled": 0, "rental_uris": {"android": "https://dc.lft.to/lastmile_qr_scan", "ios": "https://dc.lft.to/lastmile_qr_scan"}, "fusion_lon": 0.0, "lat": 38.9017045, "bike_id": "57ef04678b85179e5688992ae3f9f775", "type": "electric_scooter", "is_reserved": 0, "lon": -76.99266233333333}, {"fusion_lat": 0.0, "name": "4c7e1deda2da369c67387b5979d1124b", "is_disabled": 0, "rental_uris": {"android": "https://dc.lft.to/lastmile_qr_scan", "ios": "https://dc.lft.to/lastmile_qr_scan"}, "fusion_lon": 0.0, "lat": 38.90548166666667, "bike_id": "4c7e1deda2da369c67387b5979d1124b", "type": "electric_scooter", "is_reserved": 0, "lon": -77.04581466666667}, {"fusion_lat": 0.0, "name": "7c04b136ee4cc2a6f48875f126f1ffe9", "is_disabled": 0, "rental_uris": {"android": "https://dc.lft.to/lastmile_qr_scan", "ios": "https://dc.lft.to/lastmile_qr_scan"}, "fusion_lon": 0.0, "lat": 38.94806, "bike_id": "7c04b136ee4cc2a6f48875f126f1ffe9", "type": "electric_bike", "is_reserved": 0, "lon": -77.07963183333334}, {"fusion_lat": 0.0, "name": "151639d3f8e9849449be6a26ac54b14e", "is_disabled": 0, "rental_uris": {"android": "https://dc.lft.to/lastmile_qr_scan", "ios": "https://dc.lft.to/lastmile_qr_scan"}, "fusion_lon": 0.0, "lat": 38.9051095, "bike_id": "151639d3f8e9849449be6a26ac54b14e", "type": "electric_scooter", "is_reserved": 0, "lon": -77.00882033333333}, {"fusion_lat": 0.0, "name": "d544002857c7c6e806efd0175a9f450d", "is_disabled": 0, "rental_uris": {"android": "https://dc.lft.to/lastmile_qr_scan", "ios": "https://dc.lft.to/lastmile_qr_scan"}, "fusion_lon": 0.0, "lat": 38.901087833333335, "bike_id": "d544002857c7c6e806efd0175a9f450d", "type": "electric_scooter", "is_reserved": 0, "lon": -77.031835}, {"fusion_lat": 0.0, "name": "48a52d3d3e13f8ee49ae183427f1359a", "is_disabled": 0, "rental_uris": {"android": "https://dc.lft.to/lastmile_qr_scan", "ios": "https://dc.lft.to/lastmile_qr_scan"}, "fusion_lon": 0.0, "lat": 38.88733233333333, "bike_id": "48a52d3d3e13f8ee49ae183427f1359a", "type": "electric_scooter", "is_reserved": 0, "lon": -77.01515283333333}, {"fusion_lat": 0.0, "name": "ef2cb6a9afac9806a184ca850025e60e", "is_disabled": 0, "rental_uris": {"android": "https://dc.lft.to/lastmile_qr_scan", "ios": "https://dc.lft.to/lastmile_qr_scan"}, "fusion_lon": 0.0, "lat": 38.92846933333333, "bike_id": "ef2cb6a9afac9806a184ca850025e60e", "type": "electric_scooter", "is_reserved": 0, "lon": -77.01365533333333}, {"fusion_lat": 0.0, "name": "55ebe0ac0ab2470bb3218e25a8a3c253", "is_disabled": 0, "rental_uris": {"android": "https://dc.lft.to/lastmile_qr_scan", "ios": "https://dc.lft.to/lastmile_qr_scan"}, "fusion_lon": 0.0, "lat": 38.9218035, "bike_id": "55ebe0ac0ab2470bb3218e25a8a3c253", "type": "electric_scooter", "is_reserved": 0, "lon": -77.04033733333333}, {"fusion_lat": 0.0, "name": "3c2af939f2ceb0a4af74a9d2510b811c", "is_disabled": 0, "rental_uris": {"android": "https://dc.lft.to/lastmile_qr_scan", "ios": "https://dc.lft.to/lastmile_qr_scan"}, "fusion_lon": 0.0, "lat": 38.87101283333333, "bike_id": "3c2af939f2ceb0a4af74a9d2510b811c", "type": "electric_scooter", "is_reserved": 0, "lon": -77.00574516666667}, {"fusion_lat": 0.0, "name": "cf5ff9f1c66e2bd9f03fbfdcc1f01690", "is_disabled": 0, "rental_uris": {"android": "https://dc.lft.to/lastmile_qr_scan", "ios": "https://dc.lft.to/lastmile_qr_scan"}, "fusion_lon": 0.0, "lat": 38.80669966666667, "bike_id": "cf5ff9f1c66e2bd9f03fbfdcc1f01690", "type": "electric_bike", "is_reserved": 0, "lon": -77.06922633333333}, {"fusion_lat": 0.0, "name": "4620205bbc04550e194b5563ff4dc57a", "is_disabled": 0, "rental_uris": {"android": "https://dc.lft.to/lastmile_qr_scan", "ios": "https://dc.lft.to/lastmile_qr_scan"}, "fusion_lon": 0.0, "lat": 38.89228716666667, "bike_id": "4620205bbc04550e194b5563ff4dc57a", "type": "electric_scooter", "is_reserved": 0, "lon": -76.98824683333333}, {"fusion_lat": 0.0, "name": "3854f7801999788a183be5eaef35d5de", "is_disabled": 0, "rental_uris": {"android": "https://dc.lft.to/lastmile_qr_scan", "ios": "https://dc.lft.to/lastmile_qr_scan"}, "fusion_lon": 0.0, "lat": 38.92239283333333, "bike_id": "3854f7801999788a183be5eaef35d5de", "type": "electric_scooter", "is_reserved": 0, "lon": -77.0290765}, {"fusion_lat": 0.0, "name": "9a6d0ef42b2bfda14a1f771f0ece8e14", "is_disabled": 0, "rental_uris": {"android": "https://dc.lft.to/lastmile_qr_scan", "ios": "https://dc.lft.to/lastmile_qr_scan"}, "fusion_lon": 0.0, "lat": 38.88732733333333, "bike_id": "9a6d0ef42b2bfda14a1f771f0ece8e14", "type": "electric_scooter", "is_reserved": 0, "lon": -77.00349133333333}, {"fusion_lat": 0.0, "name": "d3c056c978a70f9ba81dad04cae6d20a", "is_disabled": 0, "rental_uris": {"android": "https://dc.lft.to/lastmile_qr_scan", "ios": "https://dc.lft.to/lastmile_qr_scan"}, "fusion_lon": 0.0, "lat": 38.9071645, "bike_id": "d3c056c978a70f9ba81dad04cae6d20a", "type": "electric_scooter", "is_reserved": 0, "lon": -77.0481735}, {"fusion_lat": 0.0, "name": "e140d7170b525d6ea4cd90ada65a7b1a", "is_disabled": 0, "rental_uris": {"android": "https://dc.lft.to/lastmile_qr_scan", "ios": "https://dc.lft.to/lastmile_qr_scan"}, "fusion_lon": 0.0, "lat": 38.91624566666667, "bike_id": "e140d7170b525d6ea4cd90ada65a7b1a", "type": "electric_scooter", "is_reserved": 0, "lon": -77.01348033333333}, {"fusion_lat": 0.0, "name": "b080ea122210f75b42236ef358565552", "is_disabled": 0, "rental_uris": {"android": "https://dc.lft.to/lastmile_qr_scan", "ios": "https://dc.lft.to/lastmile_qr_scan"}, "fusion_lon": 0.0, "lat": 38.923217, "bike_id": "b080ea122210f75b42236ef358565552", "type": "electric_scooter", "is_reserved": 0, "lon": -77.02083783333333}, {"fusion_lat": 0.0, "name": "c05e8d4055ee853e9da818b9d306ef45", "is_disabled": 0, "rental_uris": {"android": "https://dc.lft.to/lastmile_qr_scan", "ios": "https://dc.lft.to/lastmile_qr_scan"}, "fusion_lon": 0.0, "lat": 38.905499, "bike_id": "c05e8d4055ee853e9da818b9d306ef45", "type": "electric_scooter", "is_reserved": 0, "lon": -77.06278533333334}, {"fusion_lat": 0.0, "name": "28e9aaa25b30cf1ef1999e78e49c89f1", "is_disabled": 0, "rental_uris": {"android": "https://dc.lft.to/lastmile_qr_scan", "ios": "https://dc.lft.to/lastmile_qr_scan"}, "fusion_lon": 0.0, "lat": 38.88392416666667, "bike_id": "28e9aaa25b30cf1ef1999e78e49c89f1", "type": "electric_scooter", "is_reserved": 0, "lon": -77.0261015}, {"fusion_lat": 0.0, "name": "599d0397f4c36f311677488cebd282f8", "is_disabled": 0, "rental_uris": {"android": "https://dc.lft.to/lastmile_qr_scan", "ios": "https://dc.lft.to/lastmile_qr_scan"}, "fusion_lon": 0.0, "lat": 38.885533, "bike_id": "599d0397f4c36f311677488cebd282f8", "type": "electric_scooter", "is_reserved": 0, "lon": -77.02003316666666}, {"fusion_lat": 0.0, "name": "9b32a4aefa90b2390ba6e531eeb3b32a", "is_disabled": 0, "rental_uris": {"android": "https://dc.lft.to/lastmile_qr_scan", "ios": "https://dc.lft.to/lastmile_qr_scan"}, "fusion_lon": 0.0, "lat": 38.94065233333333, "bike_id": "9b32a4aefa90b2390ba6e531eeb3b32a", "type": "electric_bike", "is_reserved": 0, "lon": -76.9946485}, {"fusion_lat": 0.0, "name": "1802bb959f81cdfa9996b665ef16cc5c", "is_disabled": 0, "rental_uris": {"android": "https://dc.lft.to/lastmile_qr_scan", "ios": "https://dc.lft.to/lastmile_qr_scan"}, "fusion_lon": 0.0, "lat": 38.90303566666667, "bike_id": "1802bb959f81cdfa9996b665ef16cc5c", "type": "electric_scooter", "is_reserved": 0, "lon": -77.01186816666667}, {"fusion_lat": 0.0, "name": "cfe55022b457f0d4c6b3ce56411e6c7c", "is_disabled": 0, "rental_uris": {"android": "https://dc.lft.to/lastmile_qr_scan", "ios": "https://dc.lft.to/lastmile_qr_scan"}, "fusion_lon": 0.0, "lat": 38.934623333333334, "bike_id": "cfe55022b457f0d4c6b3ce56411e6c7c", "type": "electric_scooter", "is_reserved": 0, "lon": -77.04120416666666}, {"fusion_lat": 0.0, "name": "4a3c2bc20241206c2ad79c28d122759a", "is_disabled": 0, "rental_uris": {"android": "https://dc.lft.to/lastmile_qr_scan", "ios": "https://dc.lft.to/lastmile_qr_scan"}, "fusion_lon": 0.0, "lat": 38.93046433333333, "bike_id": "4a3c2bc20241206c2ad79c28d122759a", "type": "electric_scooter", "is_reserved": 0, "lon": -77.03216933333333}, {"fusion_lat": 0.0, "name": "f399a2c49ee3f7c2bfd38251745ce09b", "is_disabled": 0, "rental_uris": {"android": "https://dc.lft.to/lastmile_qr_scan", "ios": "https://dc.lft.to/lastmile_qr_scan"}, "fusion_lon": 0.0, "lat": 38.895026666666666, "bike_id": "f399a2c49ee3f7c2bfd38251745ce09b", "type": "electric_scooter", "is_reserved": 0, "lon": -77.00332916666666}, {"fusion_lat": 0.0, "name": "08293a6bb84c5516f7343617561a883a", "is_disabled": 0, "rental_uris": {"android": "https://dc.lft.to/lastmile_qr_scan", "ios": "https://dc.lft.to/lastmile_qr_scan"}, "fusion_lon": 0.0, "lat": 38.926057666666665, "bike_id": "08293a6bb84c5516f7343617561a883a", "type": "electric_scooter", "is_reserved": 0, "lon": -77.02389816666667}, {"fusion_lat": 0.0, "name": "05d23f18bb80e6154e047ee144f1f24b", "is_disabled": 0, "rental_uris": {"android": "https://dc.lft.to/lastmile_qr_scan", "ios": "https://dc.lft.to/lastmile_qr_scan"}, "fusion_lon": 0.0, "lat": 38.926102, "bike_id": "05d23f18bb80e6154e047ee144f1f24b", "type": "electric_scooter", "is_reserved": 0, "lon": -77.04201066666667}, {"fusion_lat": 0.0, "name": "54ceccfa48d0c754d7a0000eb98426d9", "is_disabled": 0, "rental_uris": {"android": "https://dc.lft.to/lastmile_qr_scan", "ios": "https://dc.lft.to/lastmile_qr_scan"}, "fusion_lon": 0.0, "lat": 38.887336, "bike_id": "54ceccfa48d0c754d7a0000eb98426d9", "type": "electric_scooter", "is_reserved": 0, "lon": -77.01514083333333}, {"fusion_lat": 0.0, "name": "7afa9ac984155e0941460f328276c14a", "is_disabled": 0, "rental_uris": {"android": "https://dc.lft.to/lastmile_qr_scan", "ios": "https://dc.lft.to/lastmile_qr_scan"}, "fusion_lon": 0.0, "lat": 38.8392895, "bike_id": "7afa9ac984155e0941460f328276c14a", "type": "electric_bike", "is_reserved": 0, "lon": -77.07899516666667}, {"fusion_lat": 0.0, "name": "e84449030b97c8540ffc2d225edec351", "is_disabled": 0, "rental_uris": {"android": "https://dc.lft.to/lastmile_qr_scan", "ios": "https://dc.lft.to/lastmile_qr_scan"}, "fusion_lon": 0.0, "lat": 38.933664666666665, "bike_id": "e84449030b97c8540ffc2d225edec351", "type": "electric_scooter", "is_reserved": 0, "lon": -77.04423966666667}, {"fusion_lat": 0.0, "name": "9917cb537032dcc182d53e7b3d65f2f8", "is_disabled": 0, "rental_uris": {"android": "https://dc.lft.to/lastmile_qr_scan", "ios": "https://dc.lft.to/lastmile_qr_scan"}, "fusion_lon": 0.0, "lat": 38.907083666666665, "bike_id": "9917cb537032dcc182d53e7b3d65f2f8", "type": "electric_scooter", "is_reserved": 0, "lon": -77.0075965}, {"fusion_lat": 0.0, "name": "e357f555cd135342e34d9d86c1fb557b", "is_disabled": 0, "rental_uris": {"android": "https://dc.lft.to/lastmile_qr_scan", "ios": "https://dc.lft.to/lastmile_qr_scan"}, "fusion_lon": 0.0, "lat": 38.933601833333334, "bike_id": "e357f555cd135342e34d9d86c1fb557b", "type": "electric_scooter", "is_reserved": 0, "lon": -77.03886366666667}, {"fusion_lat": 0.0, "name": "ae1a6de30589f46ab011327cb7af1769", "is_disabled": 0, "rental_uris": {"android": "https://dc.lft.to/lastmile_qr_scan", "ios": "https://dc.lft.to/lastmile_qr_scan"}, "fusion_lon": 0.0, "lat": 38.89559966666667, "bike_id": "ae1a6de30589f46ab011327cb7af1769", "type": "electric_scooter", "is_reserved": 0, "lon": -77.024032}, {"fusion_lat": 0.0, "name": "61133ff3a339c3aeb5226ea075057348", "is_disabled": 0, "rental_uris": {"android": "https://dc.lft.to/lastmile_qr_scan", "ios": "https://dc.lft.to/lastmile_qr_scan"}, "fusion_lon": 0.0, "lat": 38.9003435, "bike_id": "61133ff3a339c3aeb5226ea075057348", "type": "electric_scooter", "is_reserved": 0, "lon": -77.024116}, {"fusion_lat": 0.0, "name": "121ba98c0d00c5e93b7b05824be8c9b3", "is_disabled": 0, "rental_uris": {"android": "https://dc.lft.to/lastmile_qr_scan", "ios": "https://dc.lft.to/lastmile_qr_scan"}, "fusion_lon": 0.0, "lat": 38.873675, "bike_id": "121ba98c0d00c5e93b7b05824be8c9b3", "type": "electric_scooter", "is_reserved": 0, "lon": -77.00124883333334}, {"fusion_lat": 0.0, "name": "0f969393619fb1cfb3e9fa606610b332", "is_disabled": 0, "rental_uris": {"android": "https://dc.lft.to/lastmile_qr_scan", "ios": "https://dc.lft.to/lastmile_qr_scan"}, "fusion_lon": 0.0, "lat": 38.987852833333335, "bike_id": "0f969393619fb1cfb3e9fa606610b332", "type": "electric_bike", "is_reserved": 0, "lon": -77.1410555}, {"fusion_lat": 0.0, "name": "0d2d69908e9131a4cf3630c2c53fa8b9", "is_disabled": 0, "rental_uris": {"android": "https://dc.lft.to/lastmile_qr_scan", "ios": "https://dc.lft.to/lastmile_qr_scan"}, "fusion_lon": 0.0, "lat": 38.952477333333334, "bike_id": "0d2d69908e9131a4cf3630c2c53fa8b9", "type": "electric_scooter", "is_reserved": 0, "lon": -77.0021775}, {"fusion_lat": 0.0, "name": "d3ef62dd38baca8549f422ab68be5d52", "is_disabled": 0, "rental_uris": {"android": "https://dc.lft.to/lastmile_qr_scan", "ios": "https://dc.lft.to/lastmile_qr_scan"}, "fusion_lon": 0.0, "lat": 38.940799, "bike_id": "d3ef62dd38baca8549f422ab68be5d52", "type": "electric_bike", "is_reserved": 0, "lon": -77.00026183333334}, {"fusion_lat": 0.0, "name": "6fa9106fe27dcc3ce80e1e67a73a4cd7", "is_disabled": 0, "rental_uris": {"android": "https://dc.lft.to/lastmile_qr_scan", "ios": "https://dc.lft.to/lastmile_qr_scan"}, "fusion_lon": 0.0, "lat": 38.90869933333333, "bike_id": "6fa9106fe27dcc3ce80e1e67a73a4cd7", "type": "electric_scooter", "is_reserved": 0, "lon": -77.023902}, {"fusion_lat": 0.0, "name": "5186e4350d1cd9fa3c1a08c092edfb93", "is_disabled": 0, "rental_uris": {"android": "https://dc.lft.to/lastmile_qr_scan", "ios": "https://dc.lft.to/lastmile_qr_scan"}, "fusion_lon": 0.0, "lat": 38.917104, "bike_id": "5186e4350d1cd9fa3c1a08c092edfb93", "type": "electric_scooter", "is_reserved": 0, "lon": -77.0297225}, {"fusion_lat": 0.0, "name": "76ebca06e598d4a4c442bb9c01864ddc", "is_disabled": 0, "rental_uris": {"android": "https://dc.lft.to/lastmile_qr_scan", "ios": "https://dc.lft.to/lastmile_qr_scan"}, "fusion_lon": 0.0, "lat": 38.88710066666667, "bike_id": "76ebca06e598d4a4c442bb9c01864ddc", "type": "electric_scooter", "is_reserved": 0, "lon": -77.0258135}, {"fusion_lat": 0.0, "name": "48f709877b856759ea2c12c4d531d2fc", "is_disabled": 0, "rental_uris": {"android": "https://dc.lft.to/lastmile_qr_scan", "ios": "https://dc.lft.to/lastmile_qr_scan"}, "fusion_lon": 0.0, "lat": 38.904376, "bike_id": "48f709877b856759ea2c12c4d531d2fc", "type": "electric_scooter", "is_reserved": 0, "lon": -77.05887633333333}, {"fusion_lat": 0.0, "name": "dc8492ffec3a7e533c643a9def610cab", "is_disabled": 0, "rental_uris": {"android": "https://dc.lft.to/lastmile_qr_scan", "ios": "https://dc.lft.to/lastmile_qr_scan"}, "fusion_lon": 0.0, "lat": 38.9416685, "bike_id": "dc8492ffec3a7e533c643a9def610cab", "type": "electric_bike", "is_reserved": 0, "lon": -76.96651133333333}, {"fusion_lat": 0.0, "name": "edbc6619f7303d80a43c1d42c1c81397", "is_disabled": 0, "rental_uris": {"android": "https://dc.lft.to/lastmile_qr_scan", "ios": "https://dc.lft.to/lastmile_qr_scan"}, "fusion_lon": 0.0, "lat": 38.984225, "bike_id": "edbc6619f7303d80a43c1d42c1c81397", "type": "electric_scooter", "is_reserved": 0, "lon": -77.03544983333333}, {"fusion_lat": 0.0, "name": "2f473b90198fc6e2341b8b832a86aef5", "is_disabled": 0, "rental_uris": {"android": "https://dc.lft.to/lastmile_qr_scan", "ios": "https://dc.lft.to/lastmile_qr_scan"}, "fusion_lon": 0.0, "lat": 38.90593533333333, "bike_id": "2f473b90198fc6e2341b8b832a86aef5", "type": "electric_scooter", "is_reserved": 0, "lon": -77.0629955}, {"fusion_lat": 0.0, "name": "1fd9a6b71b590160bb3a043ecc830fca", "is_disabled": 0, "rental_uris": {"android": "https://dc.lft.to/lastmile_qr_scan", "ios": "https://dc.lft.to/lastmile_qr_scan"}, "fusion_lon": 0.0, "lat": 38.876626333333334, "bike_id": "1fd9a6b71b590160bb3a043ecc830fca", "type": "electric_scooter", "is_reserved": 0, "lon": -76.99625066666667}, {"fusion_lat": 0.0, "name": "c5e22b61a1956c7dec397163922dc5e2", "is_disabled": 0, "rental_uris": {"android": "https://dc.lft.to/lastmile_qr_scan", "ios": "https://dc.lft.to/lastmile_qr_scan"}, "fusion_lon": 0.0, "lat": 38.911761, "bike_id": "c5e22b61a1956c7dec397163922dc5e2", "type": "electric_bike", "is_reserved": 0, "lon": -77.0384125}, {"fusion_lat": 0.0, "name": "dda6a7235a6b20e0a4fceeed9772bbd7", "is_disabled": 0, "rental_uris": {"android": "https://dc.lft.to/lastmile_qr_scan", "ios": "https://dc.lft.to/lastmile_qr_scan"}, "fusion_lon": 0.0, "lat": 38.9275315, "bike_id": "dda6a7235a6b20e0a4fceeed9772bbd7", "type": "electric_scooter", "is_reserved": 0, "lon": -77.0243875}, {"fusion_lat": 0.0, "name": "d98b09562044c86447f338604f5630c6", "is_disabled": 0, "rental_uris": {"android": "https://dc.lft.to/lastmile_qr_scan", "ios": "https://dc.lft.to/lastmile_qr_scan"}, "fusion_lon": 0.0, "lat": 38.92306466666667, "bike_id": "d98b09562044c86447f338604f5630c6", "type": "electric_scooter", "is_reserved": 0, "lon": -77.04229633333334}, {"fusion_lat": 0.0, "name": "c58649f9ef7150144018e02ae5888ed4", "is_disabled": 0, "rental_uris": {"android": "https://dc.lft.to/lastmile_qr_scan", "ios": "https://dc.lft.to/lastmile_qr_scan"}, "fusion_lon": 0.0, "lat": 38.9575715, "bike_id": "c58649f9ef7150144018e02ae5888ed4", "type": "electric_scooter", "is_reserved": 0, "lon": -77.020597}, {"fusion_lat": 0.0, "name": "3b7727e8c1f29b97d9154895be9eec45", "is_disabled": 0, "rental_uris": {"android": "https://dc.lft.to/lastmile_qr_scan", "ios": "https://dc.lft.to/lastmile_qr_scan"}, "fusion_lon": 0.0, "lat": 38.8982145, "bike_id": "3b7727e8c1f29b97d9154895be9eec45", "type": "electric_scooter", "is_reserved": 0, "lon": -77.03334}, {"fusion_lat": 0.0, "name": "3e1e3c7076d317f8a8753aa51a91ccaf", "is_disabled": 0, "rental_uris": {"android": "https://dc.lft.to/lastmile_qr_scan", "ios": "https://dc.lft.to/lastmile_qr_scan"}, "fusion_lon": 0.0, "lat": 38.92036083333333, "bike_id": "3e1e3c7076d317f8a8753aa51a91ccaf", "type": "electric_bike", "is_reserved": 0, "lon": -76.97958166666666}, {"fusion_lat": 0.0, "name": "8703563ff343e4409cfc189f7efc525f", "is_disabled": 0, "rental_uris": {"android": "https://dc.lft.to/lastmile_qr_scan", "ios": "https://dc.lft.to/lastmile_qr_scan"}, "fusion_lon": 0.0, "lat": 38.884969166666664, "bike_id": "8703563ff343e4409cfc189f7efc525f", "type": "electric_scooter", "is_reserved": 0, "lon": -76.98060866666667}, {"fusion_lat": 0.0, "name": "3955f4604082ff068095a5530860f698", "is_disabled": 0, "rental_uris": {"android": "https://dc.lft.to/lastmile_qr_scan", "ios": "https://dc.lft.to/lastmile_qr_scan"}, "fusion_lon": 0.0, "lat": 38.919108333333334, "bike_id": "3955f4604082ff068095a5530860f698", "type": "electric_scooter", "is_reserved": 0, "lon": -77.0282}, {"fusion_lat": 0.0, "name": "5b13051d8d30f750067462c88a0b9190", "is_disabled": 0, "rental_uris": {"android": "https://dc.lft.to/lastmile_qr_scan", "ios": "https://dc.lft.to/lastmile_qr_scan"}, "fusion_lon": 0.0, "lat": 38.88727466666667, "bike_id": "5b13051d8d30f750067462c88a0b9190", "type": "electric_scooter", "is_reserved": 0, "lon": -77.03203833333333}, {"fusion_lat": 0.0, "name": "b473eaf21eea032aaa35de41e941fdae", "is_disabled": 0, "rental_uris": {"android": "https://dc.lft.to/lastmile_qr_scan", "ios": "https://dc.lft.to/lastmile_qr_scan"}, "fusion_lon": 0.0, "lat": 38.90063833333333, "bike_id": "b473eaf21eea032aaa35de41e941fdae", "type": "electric_scooter", "is_reserved": 0, "lon": -76.927489}, {"fusion_lat": 0.0, "name": "6319c05e6005af32031d6506f097be52", "is_disabled": 0, "rental_uris": {"android": "https://dc.lft.to/lastmile_qr_scan", "ios": "https://dc.lft.to/lastmile_qr_scan"}, "fusion_lon": 0.0, "lat": 38.92362683333333, "bike_id": "6319c05e6005af32031d6506f097be52", "type": "electric_scooter", "is_reserved": 0, "lon": -77.05124483333333}, {"fusion_lat": 0.0, "name": "c5a72b5f9bd6e9f4c15296b6dba54a85", "is_disabled": 0, "rental_uris": {"android": "https://dc.lft.to/lastmile_qr_scan", "ios": "https://dc.lft.to/lastmile_qr_scan"}, "fusion_lon": 0.0, "lat": 38.896750833333336, "bike_id": "c5a72b5f9bd6e9f4c15296b6dba54a85", "type": "electric_scooter", "is_reserved": 0, "lon": -77.050984}, {"fusion_lat": 0.0, "name": "2d28ee507092d3512615ffe7e4df482d", "is_disabled": 0, "rental_uris": {"android": "https://dc.lft.to/lastmile_qr_scan", "ios": "https://dc.lft.to/lastmile_qr_scan"}, "fusion_lon": 0.0, "lat": 38.90116016666666, "bike_id": "2d28ee507092d3512615ffe7e4df482d", "type": "electric_scooter", "is_reserved": 0, "lon": -77.00217633333334}, {"fusion_lat": 0.0, "name": "c43d5129454f2d78d236d3d2ea788f10", "is_disabled": 0, "rental_uris": {"android": "https://dc.lft.to/lastmile_qr_scan", "ios": "https://dc.lft.to/lastmile_qr_scan"}, "fusion_lon": 0.0, "lat": 38.89544183333334, "bike_id": "c43d5129454f2d78d236d3d2ea788f10", "type": "electric_scooter", "is_reserved": 0, "lon": -76.94968833333333}, {"fusion_lat": 0.0, "name": "50a704b1b399fcd97b1c7fe7d3650eb7", "is_disabled": 0, "rental_uris": {"android": "https://dc.lft.to/lastmile_qr_scan", "ios": "https://dc.lft.to/lastmile_qr_scan"}, "fusion_lon": 0.0, "lat": 38.918042, "bike_id": "50a704b1b399fcd97b1c7fe7d3650eb7", "type": "electric_scooter", "is_reserved": 0, "lon": -77.02877183333334}, {"fusion_lat": 0.0, "name": "261a6135fe755fac7f890371bb05813f", "is_disabled": 0, "rental_uris": {"android": "https://dc.lft.to/lastmile_qr_scan", "ios": "https://dc.lft.to/lastmile_qr_scan"}, "fusion_lon": 0.0, "lat": 38.8752645, "bike_id": "261a6135fe755fac7f890371bb05813f", "type": "electric_scooter", "is_reserved": 0, "lon": -77.0050745}, {"fusion_lat": 0.0, "name": "8ab25de470a4885ba621c855356d522d", "is_disabled": 0, "rental_uris": {"android": "https://dc.lft.to/lastmile_qr_scan", "ios": "https://dc.lft.to/lastmile_qr_scan"}, "fusion_lon": 0.0, "lat": 38.937530833333334, "bike_id": "8ab25de470a4885ba621c855356d522d", "type": "electric_bike", "is_reserved": 0, "lon": -76.95825883333333}, {"fusion_lat": 0.0, "name": "2bad3f22223e5874b05a302c9c54dab6", "is_disabled": 0, "rental_uris": {"android": "https://dc.lft.to/lastmile_qr_scan", "ios": "https://dc.lft.to/lastmile_qr_scan"}, "fusion_lon": 0.0, "lat": 38.949007333333334, "bike_id": "2bad3f22223e5874b05a302c9c54dab6", "type": "electric_bike", "is_reserved": 0, "lon": -76.96373983333334}, {"fusion_lat": 0.0, "name": "1bb4b3a2ee3ebc053524eb9d4887e6a3", "is_disabled": 0, "rental_uris": {"android": "https://dc.lft.to/lastmile_qr_scan", "ios": "https://dc.lft.to/lastmile_qr_scan"}, "fusion_lon": 0.0, "lat": 38.907705166666666, "bike_id": "1bb4b3a2ee3ebc053524eb9d4887e6a3", "type": "electric_scooter", "is_reserved": 0, "lon": -76.99715966666666}, {"fusion_lat": 0.0, "name": "3d9fdbdff4485d62ee83d8852baedc88", "is_disabled": 0, "rental_uris": {"android": "https://dc.lft.to/lastmile_qr_scan", "ios": "https://dc.lft.to/lastmile_qr_scan"}, "fusion_lon": 0.0, "lat": 38.915540666666665, "bike_id": "3d9fdbdff4485d62ee83d8852baedc88", "type": "electric_scooter", "is_reserved": 0, "lon": -77.0439315}, {"fusion_lat": 0.0, "name": "6adfc9fb84c637d5f49ec99329100d29", "is_disabled": 0, "rental_uris": {"android": "https://dc.lft.to/lastmile_qr_scan", "ios": "https://dc.lft.to/lastmile_qr_scan"}, "fusion_lon": 0.0, "lat": 38.92509966666667, "bike_id": "6adfc9fb84c637d5f49ec99329100d29", "type": "electric_scooter", "is_reserved": 0, "lon": -77.052415}, {"fusion_lat": 0.0, "name": "83613e7f37e8bcb77b40d7400f5ded76", "is_disabled": 0, "rental_uris": {"android": "https://dc.lft.to/lastmile_qr_scan", "ios": "https://dc.lft.to/lastmile_qr_scan"}, "fusion_lon": 0.0, "lat": 38.90393666666667, "bike_id": "83613e7f37e8bcb77b40d7400f5ded76", "type": "electric_scooter", "is_reserved": 0, "lon": -77.00189783333333}, {"fusion_lat": 0.0, "name": "2fc97d37680ea6c2257f586209f22be8", "is_disabled": 0, "rental_uris": {"android": "https://dc.lft.to/lastmile_qr_scan", "ios": "https://dc.lft.to/lastmile_qr_scan"}, "fusion_lon": 0.0, "lat": 38.884275, "bike_id": "2fc97d37680ea6c2257f586209f22be8", "type": "electric_scooter", "is_reserved": 0, "lon": -76.99611016666667}, {"fusion_lat": 0.0, "name": "473b51db84218ca4bf1b8ea7c3bd2817", "is_disabled": 0, "rental_uris": {"android": "https://dc.lft.to/lastmile_qr_scan", "ios": "https://dc.lft.to/lastmile_qr_scan"}, "fusion_lon": 0.0, "lat": 38.9101975, "bike_id": "473b51db84218ca4bf1b8ea7c3bd2817", "type": "electric_scooter", "is_reserved": 0, "lon": -77.06929183333334}, {"fusion_lat": 0.0, "name": "bfe9e6db49c55f0c61e99275a9e435c5", "is_disabled": 0, "rental_uris": {"android": "https://dc.lft.to/lastmile_qr_scan", "ios": "https://dc.lft.to/lastmile_qr_scan"}, "fusion_lon": 0.0, "lat": 38.941079333333334, "bike_id": "bfe9e6db49c55f0c61e99275a9e435c5", "type": "electric_scooter", "is_reserved": 0, "lon": -77.00042416666666}, {"fusion_lat": 0.0, "name": "e40b5cf760b417f284bee3234a7afd78", "is_disabled": 0, "rental_uris": {"android": "https://dc.lft.to/lastmile_qr_scan", "ios": "https://dc.lft.to/lastmile_qr_scan"}, "fusion_lon": 0.0, "lat": 38.89381066666667, "bike_id": "e40b5cf760b417f284bee3234a7afd78", "type": "electric_scooter", "is_reserved": 0, "lon": -76.92301333333333}, {"fusion_lat": 0.0, "name": "34563f432b4fd2cdee25d124c4c3031a", "is_disabled": 0, "rental_uris": {"android": "https://dc.lft.to/lastmile_qr_scan", "ios": "https://dc.lft.to/lastmile_qr_scan"}, "fusion_lon": 0.0, "lat": 38.95507116666667, "bike_id": "34563f432b4fd2cdee25d124c4c3031a", "type": "electric_scooter", "is_reserved": 0, "lon": -77.0284335}, {"fusion_lat": 0.0, "name": "16d8a982c6211704c6c362b5a1e8e675", "is_disabled": 0, "rental_uris": {"android": "https://dc.lft.to/lastmile_qr_scan", "ios": "https://dc.lft.to/lastmile_qr_scan"}, "fusion_lon": 0.0, "lat": 38.923219, "bike_id": "16d8a982c6211704c6c362b5a1e8e675", "type": "electric_scooter", "is_reserved": 0, "lon": -77.0354785}, {"fusion_lat": 0.0, "name": "3943ef6cb783e5f775199f498d9fbbf8", "is_disabled": 0, "rental_uris": {"android": "https://dc.lft.to/lastmile_qr_scan", "ios": "https://dc.lft.to/lastmile_qr_scan"}, "fusion_lon": 0.0, "lat": 38.87984766666667, "bike_id": "3943ef6cb783e5f775199f498d9fbbf8", "type": "electric_scooter", "is_reserved": 0, "lon": -76.983878}, {"fusion_lat": 0.0, "name": "d0ee233e6f73bbfc9c79f9cc08e31e2c", "is_disabled": 0, "rental_uris": {"android": "https://dc.lft.to/lastmile_qr_scan", "ios": "https://dc.lft.to/lastmile_qr_scan"}, "fusion_lon": 0.0, "lat": 38.903723666666664, "bike_id": "d0ee233e6f73bbfc9c79f9cc08e31e2c", "type": "electric_scooter", "is_reserved": 0, "lon": -77.01798866666667}, {"fusion_lat": 0.0, "name": "65314fadc9ce79a6c909db9f71955c70", "is_disabled": 0, "rental_uris": {"android": "https://dc.lft.to/lastmile_qr_scan", "ios": "https://dc.lft.to/lastmile_qr_scan"}, "fusion_lon": 0.0, "lat": 38.93087633333333, "bike_id": "65314fadc9ce79a6c909db9f71955c70", "type": "electric_scooter", "is_reserved": 0, "lon": -77.0199455}, {"fusion_lat": 0.0, "name": "97aaf00d2b655b2163d97d5574a7898c", "is_disabled": 0, "rental_uris": {"android": "https://dc.lft.to/lastmile_qr_scan", "ios": "https://dc.lft.to/lastmile_qr_scan"}, "fusion_lon": 0.0, "lat": 38.89702166666667, "bike_id": "97aaf00d2b655b2163d97d5574a7898c", "type": "electric_scooter", "is_reserved": 0, "lon": -77.02472433333334}, {"fusion_lat": 0.0, "name": "4f985e18942162f7d72b148f973b9048", "is_disabled": 0, "rental_uris": {"android": "https://dc.lft.to/lastmile_qr_scan", "ios": "https://dc.lft.to/lastmile_qr_scan"}, "fusion_lon": 0.0, "lat": 38.899757, "bike_id": "4f985e18942162f7d72b148f973b9048", "type": "electric_scooter", "is_reserved": 0, "lon": -77.05270583333333}, {"fusion_lat": 0.0, "name": "f55dd7ff60d7741a062f61c0515b1fd6", "is_disabled": 0, "rental_uris": {"android": "https://dc.lft.to/lastmile_qr_scan", "ios": "https://dc.lft.to/lastmile_qr_scan"}, "fusion_lon": 0.0, "lat": 38.93461466666667, "bike_id": "f55dd7ff60d7741a062f61c0515b1fd6", "type": "electric_scooter", "is_reserved": 0, "lon": -77.04121716666667}, {"fusion_lat": 0.0, "name": "ddd4a78a8a196bb7e89ed316ee26a773", "is_disabled": 0, "rental_uris": {"android": "https://dc.lft.to/lastmile_qr_scan", "ios": "https://dc.lft.to/lastmile_qr_scan"}, "fusion_lon": 0.0, "lat": 38.8873065, "bike_id": "ddd4a78a8a196bb7e89ed316ee26a773", "type": "electric_scooter", "is_reserved": 0, "lon": -77.01512516666666}, {"fusion_lat": 0.0, "name": "1aaa8ab05b213c9339025268e0c0e9d1", "is_disabled": 0, "rental_uris": {"android": "https://dc.lft.to/lastmile_qr_scan", "ios": "https://dc.lft.to/lastmile_qr_scan"}, "fusion_lon": 0.0, "lat": 38.90103333333333, "bike_id": "1aaa8ab05b213c9339025268e0c0e9d1", "type": "electric_scooter", "is_reserved": 0, "lon": -76.9304235}, {"fusion_lat": 0.0, "name": "3a90a954546b854e761d016df95dca81", "is_disabled": 0, "rental_uris": {"android": "https://dc.lft.to/lastmile_qr_scan", "ios": "https://dc.lft.to/lastmile_qr_scan"}, "fusion_lon": 0.0, "lat": 38.87667366666667, "bike_id": "3a90a954546b854e761d016df95dca81", "type": "electric_scooter", "is_reserved": 0, "lon": -77.00343933333333}, {"fusion_lat": 0.0, "name": "00bfbc3a40a4e26fed48d0e6a22f3f9c", "is_disabled": 0, "rental_uris": {"android": "https://dc.lft.to/lastmile_qr_scan", "ios": "https://dc.lft.to/lastmile_qr_scan"}, "fusion_lon": 0.0, "lat": 38.91106833333333, "bike_id": "00bfbc3a40a4e26fed48d0e6a22f3f9c", "type": "electric_scooter", "is_reserved": 0, "lon": -77.031615}, {"fusion_lat": 0.0, "name": "8e3529de2660b3bd2b4c864159ade869", "is_disabled": 0, "rental_uris": {"android": "https://dc.lft.to/lastmile_qr_scan", "ios": "https://dc.lft.to/lastmile_qr_scan"}, "fusion_lon": 0.0, "lat": 38.923079, "bike_id": "8e3529de2660b3bd2b4c864159ade869", "type": "electric_scooter", "is_reserved": 0, "lon": -77.04034733333333}, {"fusion_lat": 0.0, "name": "29e883253da3970794793a6131757283", "is_disabled": 0, "rental_uris": {"android": "https://dc.lft.to/lastmile_qr_scan", "ios": "https://dc.lft.to/lastmile_qr_scan"}, "fusion_lon": 0.0, "lat": 38.92343316666667, "bike_id": "29e883253da3970794793a6131757283", "type": "electric_scooter", "is_reserved": 0, "lon": -77.05220183333333}, {"fusion_lat": 0.0, "name": "e885628bfa4702081dac912cc569ea4d", "is_disabled": 0, "rental_uris": {"android": "https://dc.lft.to/lastmile_qr_scan", "ios": "https://dc.lft.to/lastmile_qr_scan"}, "fusion_lon": 0.0, "lat": 38.903475666666665, "bike_id": "e885628bfa4702081dac912cc569ea4d", "type": "electric_scooter", "is_reserved": 0, "lon": -76.9747765}, {"fusion_lat": 0.0, "name": "4207648faf2fb840eb0f193a9d05fc77", "is_disabled": 0, "rental_uris": {"android": "https://dc.lft.to/lastmile_qr_scan", "ios": "https://dc.lft.to/lastmile_qr_scan"}, "fusion_lon": 0.0, "lat": 38.92243116666667, "bike_id": "4207648faf2fb840eb0f193a9d05fc77", "type": "electric_scooter", "is_reserved": 0, "lon": -77.03911266666667}, {"fusion_lat": 0.0, "name": "6a8e544ac30650d0666ecdf78040b905", "is_disabled": 0, "rental_uris": {"android": "https://dc.lft.to/lastmile_qr_scan", "ios": "https://dc.lft.to/lastmile_qr_scan"}, "fusion_lon": 0.0, "lat": 38.9317385, "bike_id": "6a8e544ac30650d0666ecdf78040b905", "type": "electric_scooter", "is_reserved": 0, "lon": -77.0200065}, {"fusion_lat": 0.0, "name": "54ff7d07f85d180ed171c1f3a2bba248", "is_disabled": 0, "rental_uris": {"android": "https://dc.lft.to/lastmile_qr_scan", "ios": "https://dc.lft.to/lastmile_qr_scan"}, "fusion_lon": 0.0, "lat": 38.90792733333333, "bike_id": "54ff7d07f85d180ed171c1f3a2bba248", "type": "electric_scooter", "is_reserved": 0, "lon": -77.0427475}, {"fusion_lat": 0.0, "name": "333838ad049e9c745e5eab6fd2bece8e", "is_disabled": 0, "rental_uris": {"android": "https://dc.lft.to/lastmile_qr_scan", "ios": "https://dc.lft.to/lastmile_qr_scan"}, "fusion_lon": 0.0, "lat": 38.924646833333334, "bike_id": "333838ad049e9c745e5eab6fd2bece8e", "type": "electric_scooter", "is_reserved": 0, "lon": -77.02076066666666}, {"fusion_lat": 0.0, "name": "4126ef93b21a671adcf7578c5a7543ac", "is_disabled": 0, "rental_uris": {"android": "https://dc.lft.to/lastmile_qr_scan", "ios": "https://dc.lft.to/lastmile_qr_scan"}, "fusion_lon": 0.0, "lat": 38.8737855, "bike_id": "4126ef93b21a671adcf7578c5a7543ac", "type": "electric_scooter", "is_reserved": 0, "lon": -77.00043333333333}, {"fusion_lat": 0.0, "name": "2c75c509cf382dbfd304fcbd1004c6a2", "is_disabled": 0, "rental_uris": {"android": "https://dc.lft.to/lastmile_qr_scan", "ios": "https://dc.lft.to/lastmile_qr_scan"}, "fusion_lon": 0.0, "lat": 39.0342155, "bike_id": "2c75c509cf382dbfd304fcbd1004c6a2", "type": "electric_bike", "is_reserved": 0, "lon": -77.04293966666667}, {"fusion_lat": 0.0, "name": "a34d907c095d7583fc4f1f5178bab101", "is_disabled": 0, "rental_uris": {"android": "https://dc.lft.to/lastmile_qr_scan", "ios": "https://dc.lft.to/lastmile_qr_scan"}, "fusion_lon": 0.0, "lat": 38.91914533333333, "bike_id": "a34d907c095d7583fc4f1f5178bab101", "type": "electric_scooter", "is_reserved": 0, "lon": -77.02734866666667}, {"fusion_lat": 0.0, "name": "058ee506a7133e33aa37772fd9932aac", "is_disabled": 0, "rental_uris": {"android": "https://dc.lft.to/lastmile_qr_scan", "ios": "https://dc.lft.to/lastmile_qr_scan"}, "fusion_lon": 0.0, "lat": 38.85360683333333, "bike_id": "058ee506a7133e33aa37772fd9932aac", "type": "electric_bike", "is_reserved": 0, "lon": -77.11493066666667}, {"fusion_lat": 0.0, "name": "65ab599834472a84dd297784077fbe94", "is_disabled": 0, "rental_uris": {"android": "https://dc.lft.to/lastmile_qr_scan", "ios": "https://dc.lft.to/lastmile_qr_scan"}, "fusion_lon": 0.0, "lat": 38.897526, "bike_id": "65ab599834472a84dd297784077fbe94", "type": "electric_scooter", "is_reserved": 0, "lon": -77.026951}, {"fusion_lat": 0.0, "name": "4969b5be5a3fd4de1660a6809d5ef003", "is_disabled": 0, "rental_uris": {"android": "https://dc.lft.to/lastmile_qr_scan", "ios": "https://dc.lft.to/lastmile_qr_scan"}, "fusion_lon": 0.0, "lat": 38.9360445, "bike_id": "4969b5be5a3fd4de1660a6809d5ef003", "type": "electric_scooter", "is_reserved": 0, "lon": -77.05861116666667}, {"fusion_lat": 0.0, "name": "03131b73c6b3a34e4f0781264a51ee5d", "is_disabled": 0, "rental_uris": {"android": "https://dc.lft.to/lastmile_qr_scan", "ios": "https://dc.lft.to/lastmile_qr_scan"}, "fusion_lon": 0.0, "lat": 38.9171625, "bike_id": "03131b73c6b3a34e4f0781264a51ee5d", "type": "electric_scooter", "is_reserved": 0, "lon": -77.03872283333334}, {"fusion_lat": 0.0, "name": "dfc5b15e70a1bb73e55c49e13ecb5d80", "is_disabled": 0, "rental_uris": {"android": "https://dc.lft.to/lastmile_qr_scan", "ios": "https://dc.lft.to/lastmile_qr_scan"}, "fusion_lon": 0.0, "lat": 38.883076333333335, "bike_id": "dfc5b15e70a1bb73e55c49e13ecb5d80", "type": "electric_scooter", "is_reserved": 0, "lon": -77.01752416666666}, {"fusion_lat": 0.0, "name": "a705aa387ebb90c4860b65d4eac8c9b1", "is_disabled": 0, "rental_uris": {"android": "https://dc.lft.to/lastmile_qr_scan", "ios": "https://dc.lft.to/lastmile_qr_scan"}, "fusion_lon": 0.0, "lat": 38.87483133333333, "bike_id": "a705aa387ebb90c4860b65d4eac8c9b1", "type": "electric_scooter", "is_reserved": 0, "lon": -77.00589666666667}, {"fusion_lat": 0.0, "name": "baef60a8d386c167faef829737c3739a", "is_disabled": 0, "rental_uris": {"android": "https://dc.lft.to/lastmile_qr_scan", "ios": "https://dc.lft.to/lastmile_qr_scan"}, "fusion_lon": 0.0, "lat": 38.87743666666667, "bike_id": "baef60a8d386c167faef829737c3739a", "type": "electric_scooter", "is_reserved": 0, "lon": -76.99664966666667}, {"fusion_lat": 0.0, "name": "0ece861921c440383530ed45f0b7e67b", "is_disabled": 0, "rental_uris": {"android": "https://dc.lft.to/lastmile_qr_scan", "ios": "https://dc.lft.to/lastmile_qr_scan"}, "fusion_lon": 0.0, "lat": 38.916772, "bike_id": "0ece861921c440383530ed45f0b7e67b", "type": "electric_scooter", "is_reserved": 0, "lon": -77.0304405}, {"fusion_lat": 0.0, "name": "022570b8622ba99648ce4a4b1f434e98", "is_disabled": 0, "rental_uris": {"android": "https://dc.lft.to/lastmile_qr_scan", "ios": "https://dc.lft.to/lastmile_qr_scan"}, "fusion_lon": 0.0, "lat": 38.9190385, "bike_id": "022570b8622ba99648ce4a4b1f434e98", "type": "electric_scooter", "is_reserved": 0, "lon": -77.02410066666667}, {"fusion_lat": 0.0, "name": "b58b6e4463ffbf2ca6d046552000c77b", "is_disabled": 0, "rental_uris": {"android": "https://dc.lft.to/lastmile_qr_scan", "ios": "https://dc.lft.to/lastmile_qr_scan"}, "fusion_lon": 0.0, "lat": 38.89772, "bike_id": "b58b6e4463ffbf2ca6d046552000c77b", "type": "electric_scooter", "is_reserved": 0, "lon": -76.98462516666666}, {"fusion_lat": 0.0, "name": "e253f78bf08b0ed4667425caadd6b8aa", "is_disabled": 0, "rental_uris": {"android": "https://dc.lft.to/lastmile_qr_scan", "ios": "https://dc.lft.to/lastmile_qr_scan"}, "fusion_lon": 0.0, "lat": 38.88718433333333, "bike_id": "e253f78bf08b0ed4667425caadd6b8aa", "type": "electric_scooter", "is_reserved": 0, "lon": -77.02583983333334}, {"fusion_lat": 0.0, "name": "2235d2e50ce39960b1cc35c0e356701b", "is_disabled": 0, "rental_uris": {"android": "https://dc.lft.to/lastmile_qr_scan", "ios": "https://dc.lft.to/lastmile_qr_scan"}, "fusion_lon": 0.0, "lat": 38.87579183333333, "bike_id": "2235d2e50ce39960b1cc35c0e356701b", "type": "electric_bike", "is_reserved": 0, "lon": -77.23414316666667}, {"fusion_lat": 0.0, "name": "dc88eb3bf25399403532ead5f24b8a3f", "is_disabled": 0, "rental_uris": {"android": "https://dc.lft.to/lastmile_qr_scan", "ios": "https://dc.lft.to/lastmile_qr_scan"}, "fusion_lon": 0.0, "lat": 38.935347, "bike_id": "dc88eb3bf25399403532ead5f24b8a3f", "type": "electric_scooter", "is_reserved": 0, "lon": -77.05750733333333}, {"fusion_lat": 0.0, "name": "77dc2b1e5580c990b2c750b570c7d855", "is_disabled": 0, "rental_uris": {"android": "https://dc.lft.to/lastmile_qr_scan", "ios": "https://dc.lft.to/lastmile_qr_scan"}, "fusion_lon": 0.0, "lat": 38.9000715, "bike_id": "77dc2b1e5580c990b2c750b570c7d855", "type": "electric_scooter", "is_reserved": 0, "lon": -77.027418}, {"fusion_lat": 0.0, "name": "e50dc6d2a8a82ea2ec7c2a8e98ab5a85", "is_disabled": 0, "rental_uris": {"android": "https://dc.lft.to/lastmile_qr_scan", "ios": "https://dc.lft.to/lastmile_qr_scan"}, "fusion_lon": 0.0, "lat": 38.90244966666667, "bike_id": "e50dc6d2a8a82ea2ec7c2a8e98ab5a85", "type": "electric_scooter", "is_reserved": 0, "lon": -77.01802966666666}, {"fusion_lat": 0.0, "name": "c2c5256d1acdc91c5225c80fa904ba4b", "is_disabled": 0, "rental_uris": {"android": "https://dc.lft.to/lastmile_qr_scan", "ios": "https://dc.lft.to/lastmile_qr_scan"}, "fusion_lon": 0.0, "lat": 38.909170833333334, "bike_id": "c2c5256d1acdc91c5225c80fa904ba4b", "type": "electric_scooter", "is_reserved": 0, "lon": -77.032083}, {"fusion_lat": 0.0, "name": "e01572c331f3143927840f21754b785d", "is_disabled": 0, "rental_uris": {"android": "https://dc.lft.to/lastmile_qr_scan", "ios": "https://dc.lft.to/lastmile_qr_scan"}, "fusion_lon": 0.0, "lat": 38.907290833333334, "bike_id": "e01572c331f3143927840f21754b785d", "type": "electric_scooter", "is_reserved": 0, "lon": -77.02804116666667}, {"fusion_lat": 0.0, "name": "33c2790c8c3b7c7544f2657f7cc3c209", "is_disabled": 0, "rental_uris": {"android": "https://dc.lft.to/lastmile_qr_scan", "ios": "https://dc.lft.to/lastmile_qr_scan"}, "fusion_lon": 0.0, "lat": 38.928362666666665, "bike_id": "33c2790c8c3b7c7544f2657f7cc3c209", "type": "electric_scooter", "is_reserved": 0, "lon": -77.0158565}, {"fusion_lat": 0.0, "name": "876271e5576ed2631c32ead2684b42e9", "is_disabled": 0, "rental_uris": {"android": "https://dc.lft.to/lastmile_qr_scan", "ios": "https://dc.lft.to/lastmile_qr_scan"}, "fusion_lon": 0.0, "lat": 38.8991115, "bike_id": "876271e5576ed2631c32ead2684b42e9", "type": "electric_scooter", "is_reserved": 0, "lon": -76.94588566666667}, {"fusion_lat": 0.0, "name": "ea4f5823e4a0215a5acf8cb49899d94f", "is_disabled": 0, "rental_uris": {"android": "https://dc.lft.to/lastmile_qr_scan", "ios": "https://dc.lft.to/lastmile_qr_scan"}, "fusion_lon": 0.0, "lat": 38.891941333333335, "bike_id": "ea4f5823e4a0215a5acf8cb49899d94f", "type": "electric_scooter", "is_reserved": 0, "lon": -77.01554433333334}, {"fusion_lat": 0.0, "name": "29e9ef173dbff0e957ae49b950812e9f", "is_disabled": 0, "rental_uris": {"android": "https://dc.lft.to/lastmile_qr_scan", "ios": "https://dc.lft.to/lastmile_qr_scan"}, "fusion_lon": 0.0, "lat": 38.908405, "bike_id": "29e9ef173dbff0e957ae49b950812e9f", "type": "electric_scooter", "is_reserved": 0, "lon": -77.03300816666666}, {"fusion_lat": 0.0, "name": "d216ae3ac0ff044da29652bd36bf2cad", "is_disabled": 0, "rental_uris": {"android": "https://dc.lft.to/lastmile_qr_scan", "ios": "https://dc.lft.to/lastmile_qr_scan"}, "fusion_lon": 0.0, "lat": 38.90786533333333, "bike_id": "d216ae3ac0ff044da29652bd36bf2cad", "type": "electric_scooter", "is_reserved": 0, "lon": -77.0426125}, {"fusion_lat": 0.0, "name": "32126cb86eb1001d99cbd9303cf81e44", "is_disabled": 0, "rental_uris": {"android": "https://dc.lft.to/lastmile_qr_scan", "ios": "https://dc.lft.to/lastmile_qr_scan"}, "fusion_lon": 0.0, "lat": 38.91495, "bike_id": "32126cb86eb1001d99cbd9303cf81e44", "type": "electric_scooter", "is_reserved": 0, "lon": -77.01999433333333}, {"fusion_lat": 0.0, "name": "24c49e817bf885b0a47cad8a2da6e4e2", "is_disabled": 0, "rental_uris": {"android": "https://dc.lft.to/lastmile_qr_scan", "ios": "https://dc.lft.to/lastmile_qr_scan"}, "fusion_lon": 0.0, "lat": 38.885236, "bike_id": "24c49e817bf885b0a47cad8a2da6e4e2", "type": "electric_scooter", "is_reserved": 0, "lon": -76.92924666666667}, {"fusion_lat": 0.0, "name": "0ddd284dd61f439f7c66b16a02a6c275", "is_disabled": 0, "rental_uris": {"android": "https://dc.lft.to/lastmile_qr_scan", "ios": "https://dc.lft.to/lastmile_qr_scan"}, "fusion_lon": 0.0, "lat": 38.92092516666666, "bike_id": "0ddd284dd61f439f7c66b16a02a6c275", "type": "electric_scooter", "is_reserved": 0, "lon": -77.0255465}, {"fusion_lat": 0.0, "name": "5bc244bf2684bef8f723a3970372c241", "is_disabled": 0, "rental_uris": {"android": "https://dc.lft.to/lastmile_qr_scan", "ios": "https://dc.lft.to/lastmile_qr_scan"}, "fusion_lon": 0.0, "lat": 38.91404283333333, "bike_id": "5bc244bf2684bef8f723a3970372c241", "type": "electric_scooter", "is_reserved": 0, "lon": -77.040078}, {"fusion_lat": 0.0, "name": "ba3d9777b3bc79fbdecb9f0029c74116", "is_disabled": 0, "rental_uris": {"android": "https://dc.lft.to/lastmile_qr_scan", "ios": "https://dc.lft.to/lastmile_qr_scan"}, "fusion_lon": 0.0, "lat": 38.89904466666667, "bike_id": "ba3d9777b3bc79fbdecb9f0029c74116", "type": "electric_scooter", "is_reserved": 0, "lon": -76.93364083333333}, {"fusion_lat": 0.0, "name": "f5f47ad53fad53ee853c5d8f2c952999", "is_disabled": 0, "rental_uris": {"android": "https://dc.lft.to/lastmile_qr_scan", "ios": "https://dc.lft.to/lastmile_qr_scan"}, "fusion_lon": 0.0, "lat": 38.89874233333333, "bike_id": "f5f47ad53fad53ee853c5d8f2c952999", "type": "electric_scooter", "is_reserved": 0, "lon": -76.9318425}, {"fusion_lat": 0.0, "name": "83b62d790ef44168acb8a4de172d32d5", "is_disabled": 0, "rental_uris": {"android": "https://dc.lft.to/lastmile_qr_scan", "ios": "https://dc.lft.to/lastmile_qr_scan"}, "fusion_lon": 0.0, "lat": 38.901264833333336, "bike_id": "83b62d790ef44168acb8a4de172d32d5", "type": "electric_scooter", "is_reserved": 0, "lon": -77.02608016666667}, {"fusion_lat": 0.0, "name": "5dbe7dce968227f0bec84efc20c1df63", "is_disabled": 0, "rental_uris": {"android": "https://dc.lft.to/lastmile_qr_scan", "ios": "https://dc.lft.to/lastmile_qr_scan"}, "fusion_lon": 0.0, "lat": 38.923385, "bike_id": "5dbe7dce968227f0bec84efc20c1df63", "type": "electric_scooter", "is_reserved": 0, "lon": -77.05170583333333}, {"fusion_lat": 0.0, "name": "43a1b9f598e98f5229e0937197c69b2f", "is_disabled": 0, "rental_uris": {"android": "https://dc.lft.to/lastmile_qr_scan", "ios": "https://dc.lft.to/lastmile_qr_scan"}, "fusion_lon": 0.0, "lat": 39.05254683333333, "bike_id": "43a1b9f598e98f5229e0937197c69b2f", "type": "electric_bike", "is_reserved": 0, "lon": -77.080667}, {"fusion_lat": 0.0, "name": "488656c91322b0733b8e4bc5c3fa0874", "is_disabled": 0, "rental_uris": {"android": "https://dc.lft.to/lastmile_qr_scan", "ios": "https://dc.lft.to/lastmile_qr_scan"}, "fusion_lon": 0.0, "lat": 38.91800816666667, "bike_id": "488656c91322b0733b8e4bc5c3fa0874", "type": "electric_scooter", "is_reserved": 0, "lon": -77.04015266666667}, {"fusion_lat": 0.0, "name": "5b49de3ad96dfa58b780fb4cec473df6", "is_disabled": 0, "rental_uris": {"android": "https://dc.lft.to/lastmile_qr_scan", "ios": "https://dc.lft.to/lastmile_qr_scan"}, "fusion_lon": 0.0, "lat": 38.923839, "bike_id": "5b49de3ad96dfa58b780fb4cec473df6", "type": "electric_scooter", "is_reserved": 0, "lon": -77.0408245}, {"fusion_lat": 0.0, "name": "4825f8ae275c5f39e19d5b74e6be92e5", "is_disabled": 0, "rental_uris": {"android": "https://dc.lft.to/lastmile_qr_scan", "ios": "https://dc.lft.to/lastmile_qr_scan"}, "fusion_lon": 0.0, "lat": 38.909899, "bike_id": "4825f8ae275c5f39e19d5b74e6be92e5", "type": "electric_scooter", "is_reserved": 0, "lon": -77.0384315}, {"fusion_lat": 0.0, "name": "ac9f8c48356ebdf6f8fc300b797315f7", "is_disabled": 0, "rental_uris": {"android": "https://dc.lft.to/lastmile_qr_scan", "ios": "https://dc.lft.to/lastmile_qr_scan"}, "fusion_lon": 0.0, "lat": 38.8844465, "bike_id": "ac9f8c48356ebdf6f8fc300b797315f7", "type": "electric_scooter", "is_reserved": 0, "lon": -76.99617233333333}, {"fusion_lat": 0.0, "name": "41b6928839400081f5129eb1896284b5", "is_disabled": 0, "rental_uris": {"android": "https://dc.lft.to/lastmile_qr_scan", "ios": "https://dc.lft.to/lastmile_qr_scan"}, "fusion_lon": 0.0, "lat": 38.92011, "bike_id": "41b6928839400081f5129eb1896284b5", "type": "electric_scooter", "is_reserved": 0, "lon": -77.04178883333333}, {"fusion_lat": 0.0, "name": "b013715870c81c1d9c7eb5274faa8df7", "is_disabled": 0, "rental_uris": {"android": "https://dc.lft.to/lastmile_qr_scan", "ios": "https://dc.lft.to/lastmile_qr_scan"}, "fusion_lon": 0.0, "lat": 38.900705, "bike_id": "b013715870c81c1d9c7eb5274faa8df7", "type": "electric_scooter", "is_reserved": 0, "lon": -77.0384385}, {"fusion_lat": 0.0, "name": "8ae749ac2f0aab65a2d6d5c127230a5c", "is_disabled": 0, "rental_uris": {"android": "https://dc.lft.to/lastmile_qr_scan", "ios": "https://dc.lft.to/lastmile_qr_scan"}, "fusion_lon": 0.0, "lat": 38.8954155, "bike_id": "8ae749ac2f0aab65a2d6d5c127230a5c", "type": "electric_scooter", "is_reserved": 0, "lon": -76.98094066666667}, {"fusion_lat": 0.0, "name": "3b9ff7dc68d9e03a6d7d83ea04e73a6a", "is_disabled": 0, "rental_uris": {"android": "https://dc.lft.to/lastmile_qr_scan", "ios": "https://dc.lft.to/lastmile_qr_scan"}, "fusion_lon": 0.0, "lat": 38.9192455, "bike_id": "3b9ff7dc68d9e03a6d7d83ea04e73a6a", "type": "electric_scooter", "is_reserved": 0, "lon": -77.03179616666667}, {"fusion_lat": 0.0, "name": "fb2aebd9a70332bb4dba511a6825632d", "is_disabled": 0, "rental_uris": {"android": "https://dc.lft.to/lastmile_qr_scan", "ios": "https://dc.lft.to/lastmile_qr_scan"}, "fusion_lon": 0.0, "lat": 38.84755916666667, "bike_id": "fb2aebd9a70332bb4dba511a6825632d", "type": "electric_scooter", "is_reserved": 0, "lon": -76.9950105}, {"fusion_lat": 0.0, "name": "3884e479c9a7e6eb9bb893c451073a94", "is_disabled": 0, "rental_uris": {"android": "https://dc.lft.to/lastmile_qr_scan", "ios": "https://dc.lft.to/lastmile_qr_scan"}, "fusion_lon": 0.0, "lat": 38.88374733333333, "bike_id": "3884e479c9a7e6eb9bb893c451073a94", "type": "electric_scooter", "is_reserved": 0, "lon": -77.02632466666667}, {"fusion_lat": 0.0, "name": "eb2e04cb86eed41adbe0fe7df1ab763b", "is_disabled": 0, "rental_uris": {"android": "https://dc.lft.to/lastmile_qr_scan", "ios": "https://dc.lft.to/lastmile_qr_scan"}, "fusion_lon": 0.0, "lat": 38.89217683333333, "bike_id": "eb2e04cb86eed41adbe0fe7df1ab763b", "type": "electric_scooter", "is_reserved": 0, "lon": -77.023667}, {"fusion_lat": 0.0, "name": "42f3a9232bb465ee73ddfce053618158", "is_disabled": 0, "rental_uris": {"android": "https://dc.lft.to/lastmile_qr_scan", "ios": "https://dc.lft.to/lastmile_qr_scan"}, "fusion_lon": 0.0, "lat": 38.9033465, "bike_id": "42f3a9232bb465ee73ddfce053618158", "type": "electric_scooter", "is_reserved": 0, "lon": -77.0627735}, {"fusion_lat": 0.0, "name": "2c71857594194dd94ada689e3ec7c97e", "is_disabled": 0, "rental_uris": {"android": "https://dc.lft.to/lastmile_qr_scan", "ios": "https://dc.lft.to/lastmile_qr_scan"}, "fusion_lon": 0.0, "lat": 38.899973, "bike_id": "2c71857594194dd94ada689e3ec7c97e", "type": "electric_scooter", "is_reserved": 0, "lon": -77.0219115}, {"fusion_lat": 0.0, "name": "deaee551e5eaaf9e240355e24f465f21", "is_disabled": 0, "rental_uris": {"android": "https://dc.lft.to/lastmile_qr_scan", "ios": "https://dc.lft.to/lastmile_qr_scan"}, "fusion_lon": 0.0, "lat": 38.89878983333333, "bike_id": "deaee551e5eaaf9e240355e24f465f21", "type": "electric_bike", "is_reserved": 0, "lon": -77.11336566666667}, {"fusion_lat": 0.0, "name": "7a12fd30f54fcc4dfc3625cdcc604a03", "is_disabled": 0, "rental_uris": {"android": "https://dc.lft.to/lastmile_qr_scan", "ios": "https://dc.lft.to/lastmile_qr_scan"}, "fusion_lon": 0.0, "lat": 38.957339833333336, "bike_id": "7a12fd30f54fcc4dfc3625cdcc604a03", "type": "electric_bike", "is_reserved": 0, "lon": -77.0216485}, {"fusion_lat": 0.0, "name": "fe8d3fcbc4818052d21673a8ebab9f5a", "is_disabled": 0, "rental_uris": {"android": "https://dc.lft.to/lastmile_qr_scan", "ios": "https://dc.lft.to/lastmile_qr_scan"}, "fusion_lon": 0.0, "lat": 38.88187966666667, "bike_id": "fe8d3fcbc4818052d21673a8ebab9f5a", "type": "electric_scooter", "is_reserved": 0, "lon": -77.02779233333334}, {"fusion_lat": 0.0, "name": "ad944b32a4e091af526ad4ec5db92211", "is_disabled": 0, "rental_uris": {"android": "https://dc.lft.to/lastmile_qr_scan", "ios": "https://dc.lft.to/lastmile_qr_scan"}, "fusion_lon": 0.0, "lat": 38.90556733333333, "bike_id": "ad944b32a4e091af526ad4ec5db92211", "type": "electric_scooter", "is_reserved": 0, "lon": -77.01680566666667}, {"fusion_lat": 0.0, "name": "8fa7192c9be970c4ff9576815a2e8ac7", "is_disabled": 0, "rental_uris": {"android": "https://dc.lft.to/lastmile_qr_scan", "ios": "https://dc.lft.to/lastmile_qr_scan"}, "fusion_lon": 0.0, "lat": 39.01413516666667, "bike_id": "8fa7192c9be970c4ff9576815a2e8ac7", "type": "electric_bike", "is_reserved": 0, "lon": -77.045015}, {"fusion_lat": 0.0, "name": "14223e94d63825a1f59e2a2264df79d9", "is_disabled": 0, "rental_uris": {"android": "https://dc.lft.to/lastmile_qr_scan", "ios": "https://dc.lft.to/lastmile_qr_scan"}, "fusion_lon": 0.0, "lat": 38.95558466666667, "bike_id": "14223e94d63825a1f59e2a2264df79d9", "type": "electric_bike", "is_reserved": 0, "lon": -77.02439833333334}, {"fusion_lat": 0.0, "name": "396e001317e6b1d9efe0a3171c1fc1b3", "is_disabled": 0, "rental_uris": {"android": "https://dc.lft.to/lastmile_qr_scan", "ios": "https://dc.lft.to/lastmile_qr_scan"}, "fusion_lon": 0.0, "lat": 38.90702516666666, "bike_id": "396e001317e6b1d9efe0a3171c1fc1b3", "type": "electric_scooter", "is_reserved": 0, "lon": -77.0354695}, {"fusion_lat": 0.0, "name": "9e10ca0b4e5853ad7cde0d86b0c9d528", "is_disabled": 0, "rental_uris": {"android": "https://dc.lft.to/lastmile_qr_scan", "ios": "https://dc.lft.to/lastmile_qr_scan"}, "fusion_lon": 0.0, "lat": 38.84423316666667, "bike_id": "9e10ca0b4e5853ad7cde0d86b0c9d528", "type": "electric_scooter", "is_reserved": 0, "lon": -76.99780466666667}, {"fusion_lat": 0.0, "name": "66683563c095d25e0f2c258e9bf33c63", "is_disabled": 0, "rental_uris": {"android": "https://dc.lft.to/lastmile_qr_scan", "ios": "https://dc.lft.to/lastmile_qr_scan"}, "fusion_lon": 0.0, "lat": 38.886591833333334, "bike_id": "66683563c095d25e0f2c258e9bf33c63", "type": "electric_scooter", "is_reserved": 0, "lon": -77.03388166666667}, {"fusion_lat": 0.0, "name": "69015483760c15b7b6d9eebd1e28922d", "is_disabled": 0, "rental_uris": {"android": "https://dc.lft.to/lastmile_qr_scan", "ios": "https://dc.lft.to/lastmile_qr_scan"}, "fusion_lon": 0.0, "lat": 38.91675983333333, "bike_id": "69015483760c15b7b6d9eebd1e28922d", "type": "electric_scooter", "is_reserved": 0, "lon": -77.02722333333334}, {"fusion_lat": 0.0, "name": "3e2dc7d0bcf0c97a90b69ba093051810", "is_disabled": 0, "rental_uris": {"android": "https://dc.lft.to/lastmile_qr_scan", "ios": "https://dc.lft.to/lastmile_qr_scan"}, "fusion_lon": 0.0, "lat": 38.896026, "bike_id": "3e2dc7d0bcf0c97a90b69ba093051810", "type": "electric_scooter", "is_reserved": 0, "lon": -77.02199133333333}, {"fusion_lat": 0.0, "name": "5caee9b887720052b601ac40ff662ec0", "is_disabled": 0, "rental_uris": {"android": "https://dc.lft.to/lastmile_qr_scan", "ios": "https://dc.lft.to/lastmile_qr_scan"}, "fusion_lon": 0.0, "lat": 38.902410333333336, "bike_id": "5caee9b887720052b601ac40ff662ec0", "type": "electric_scooter", "is_reserved": 0, "lon": -77.04347233333333}, {"fusion_lat": 0.0, "name": "8aa663180a7c5c64440f2eafced085d5", "is_disabled": 0, "rental_uris": {"android": "https://dc.lft.to/lastmile_qr_scan", "ios": "https://dc.lft.to/lastmile_qr_scan"}, "fusion_lon": 0.0, "lat": 38.924812, "bike_id": "8aa663180a7c5c64440f2eafced085d5", "type": "electric_scooter", "is_reserved": 0, "lon": -77.0522325}, {"fusion_lat": 0.0, "name": "51bfa3355768ee964bb136043893ca9e", "is_disabled": 0, "rental_uris": {"android": "https://dc.lft.to/lastmile_qr_scan", "ios": "https://dc.lft.to/lastmile_qr_scan"}, "fusion_lon": 0.0, "lat": 38.924394, "bike_id": "51bfa3355768ee964bb136043893ca9e", "type": "electric_scooter", "is_reserved": 0, "lon": -77.01871683333333}, {"fusion_lat": 0.0, "name": "3ba614ebfd8e3bfad4907eb840f6c8b1", "is_disabled": 0, "rental_uris": {"android": "https://dc.lft.to/lastmile_qr_scan", "ios": "https://dc.lft.to/lastmile_qr_scan"}, "fusion_lon": 0.0, "lat": 38.84132666666667, "bike_id": "3ba614ebfd8e3bfad4907eb840f6c8b1", "type": "electric_bike", "is_reserved": 0, "lon": -76.94765}, {"fusion_lat": 0.0, "name": "96e209c23c1e2a6316aca5c343163dbc", "is_disabled": 0, "rental_uris": {"android": "https://dc.lft.to/lastmile_qr_scan", "ios": "https://dc.lft.to/lastmile_qr_scan"}, "fusion_lon": 0.0, "lat": 38.91714983333333, "bike_id": "96e209c23c1e2a6316aca5c343163dbc", "type": "electric_scooter", "is_reserved": 0, "lon": -77.028945}, {"fusion_lat": 0.0, "name": "2bf6f28d91670ad843eb77394369c2f0", "is_disabled": 0, "rental_uris": {"android": "https://dc.lft.to/lastmile_qr_scan", "ios": "https://dc.lft.to/lastmile_qr_scan"}, "fusion_lon": 0.0, "lat": 38.88380433333333, "bike_id": "2bf6f28d91670ad843eb77394369c2f0", "type": "electric_scooter", "is_reserved": 0, "lon": -77.00529666666667}, {"fusion_lat": 0.0, "name": "c15b0da7727a1a27ead64c08d74926da", "is_disabled": 0, "rental_uris": {"android": "https://dc.lft.to/lastmile_qr_scan", "ios": "https://dc.lft.to/lastmile_qr_scan"}, "fusion_lon": 0.0, "lat": 38.920039833333334, "bike_id": "c15b0da7727a1a27ead64c08d74926da", "type": "electric_scooter", "is_reserved": 0, "lon": -77.0418675}, {"fusion_lat": 0.0, "name": "565b79af1fab0d63822dd3a216a1d1bd", "is_disabled": 0, "rental_uris": {"android": "https://dc.lft.to/lastmile_qr_scan", "ios": "https://dc.lft.to/lastmile_qr_scan"}, "fusion_lon": 0.0, "lat": 38.8476465, "bike_id": "565b79af1fab0d63822dd3a216a1d1bd", "type": "electric_bike", "is_reserved": 0, "lon": -76.9662745}, {"fusion_lat": 0.0, "name": "2034d1da114ccbda14ad8f45fbbd0aa8", "is_disabled": 0, "rental_uris": {"android": "https://dc.lft.to/lastmile_qr_scan", "ios": "https://dc.lft.to/lastmile_qr_scan"},