{"data": {"bikes": [{"lat": 38.927058, "fusion_lat": 0.0, "type": "electric_scooter", "bike_id": "01bb5871b285e31e6bed62dd5c9f33c1", "is_reserved": 0, "rental_uris": {"ios": "https://dc.lft.to/lastmile_qr_scan", "android": "https://dc.lft.to/lastmile_qr_scan"}, "is_disabled": 0, "lon": -77.02428683333333, "name": "01bb5871b285e31e6bed62dd5c9f33c1", "fusion_lon": 0.0}, {"lat": 38.9112455, "fusion_lat": 0.0, "type": "electric_scooter", "bike_id": "f05c49a8dc3c163b4db86656cfe32aaa", "is_reserved": 0, "rental_uris": {"ios": "https://dc.lft.to/lastmile_qr_scan", "android": "https://dc.lft.to/lastmile_qr_scan"}, "is_disabled": 0, "lon": -77.03142233333334, "name": "f05c49a8dc3c163b4db86656cfe32aaa", "fusion_lon": 0.0}, {"lat": 38.923620166666666, "fusion_lat": 0.0, "type": "electric_scooter", "bike_id": "c1171cc263a102bd3fc7c4e71a1b3769", "is_reserved": 0, "rental_uris": {"ios": "https://dc.lft.to/lastmile_qr_scan", "android": "https://dc.lft.to/lastmile_qr_scan"}, "is_disabled": 0, "lon": -77.05283516666667, "name": "c1171cc263a102bd3fc7c4e71a1b3769", "fusion_lon": 0.0}, {"lat": 38.87209216666667, "fusion_lat": 0.0, "type": "electric_scooter", "bike_id": "3d5b8277f71353947fa04f73a5e39af6", "is_reserved": 0, "rental_uris": {"ios": "https://dc.lft.to/lastmile_qr_scan", "android": "https://dc.lft.to/lastmile_qr_scan"}, "is_disabled": 0, "lon": -77.0097265, "name": "3d5b8277f71353947fa04f73a5e39af6", "fusion_lon": 0.0}, {"lat": 38.9169625, "fusion_lat": 0.0, "type": "electric_scooter", "bike_id": "48a260ab05266e1b5f623ab9822eb98a", "is_reserved": 0, "rental_uris": {"ios": "https://dc.lft.to/lastmile_qr_scan", "android": "https://dc.lft.to/lastmile_qr_scan"}, "is_disabled": 0, "lon": -77.0251605, "name": "48a260ab05266e1b5f623ab9822eb98a", "fusion_lon": 0.0}, {"lat": 38.80759283333333, "fusion_lat": 0.0, "type": "electric_bike", "bike_id": "00144682c1f46368d243eaa766b065c7", "is_reserved": 0, "rental_uris": {"ios": "https://dc.lft.to/lastmile_qr_scan", "android": "https://dc.lft.to/lastmile_qr_scan"}, "is_disabled": 0, "lon": -77.09468883333334, "name": "00144682c1f46368d243eaa766b065c7", "fusion_lon": 0.0}, {"lat": 38.993454666666665, "fusion_lat": 0.0, "type": "electric_bike", "bike_id": "14b6f00beccf6cf7da2f35fa8c028e9f", "is_reserved": 0, "rental_uris": {"ios": "https://dc.lft.to/lastmile_qr_scan", "android": "https://dc.lft.to/lastmile_qr_scan"}, "is_disabled": 0, "lon": -77.1158095, "name": "14b6f00beccf6cf7da2f35fa8c028e9f", "fusion_lon": 0.0}, {"lat": 38.935789666666665, "fusion_lat": 0.0, "type": "electric_scooter", "bike_id": "9c9d69fba6627f6df3f70e88a062b01d", "is_reserved": 0, "rental_uris": {"ios": "https://dc.lft.to/lastmile_qr_scan", "android": "https://dc.lft.to/lastmile_qr_scan"}, "is_disabled": 0, "lon": -77.03364333333333, "name": "9c9d69fba6627f6df3f70e88a062b01d", "fusion_lon": 0.0}, {"lat": 38.922178, "fusion_lat": 0.0, "type": "electric_scooter", "bike_id": "650afd4e223e17a19510b295de31db17", "is_reserved": 0, "rental_uris": {"ios": "https://dc.lft.to/lastmile_qr_scan", "android": "https://dc.lft.to/lastmile_qr_scan"}, "is_disabled": 0, "lon": -77.03289833333334, "name": "650afd4e223e17a19510b295de31db17", "fusion_lon": 0.0}, {"lat": 38.94178383333333, "fusion_lat": 0.0, "type": "electric_scooter", "bike_id": "c18d9a852d44c07b6baf9af8bf287ae9", "is_reserved": 0, "rental_uris": {"ios": "https://dc.lft.to/lastmile_qr_scan", "android": "https://dc.lft.to/lastmile_qr_scan"}, "is_disabled": 0, "lon": -77.02794266666666, "name": "c18d9a852d44c07b6baf9af8bf287ae9", "fusion_lon": 0.0}, {"lat": 38.86498233333333, "fusion_lat": 0.0, "type": "electric_scooter", "bike_id": "02a94da43611e13ac83fe880f824b47c", "is_reserved": 0, "rental_uris": {"ios": "https://dc.lft.to/lastmile_qr_scan", "android": "https://dc.lft.to/lastmile_qr_scan"}, "is_disabled": 0, "lon": -76.99009783333334, "name": "02a94da43611e13ac83fe880f824b47c", "fusion_lon": 0.0}, {"lat": 38.9059755, "fusion_lat": 0.0, "type": "electric_scooter", "bike_id": "e930585e37949492d2a44b546ac5443a", "is_reserved": 0, "rental_uris": {"ios": "https://dc.lft.to/lastmile_qr_scan", "android": "https://dc.lft.to/lastmile_qr_scan"}, "is_disabled": 0, "lon": -77.040811, "name": "e930585e37949492d2a44b546ac5443a", "fusion_lon": 0.0}, {"lat": 38.9257075, "fusion_lat": 0.0, "type": "electric_scooter", "bike_id": "b6ff5537a206ff04149060537d057276", "is_reserved": 0, "rental_uris": {"ios": "https://dc.lft.to/lastmile_qr_scan", "android": "https://dc.lft.to/lastmile_qr_scan"}, "is_disabled": 0, "lon": -77.03218966666667, "name": "b6ff5537a206ff04149060537d057276", "fusion_lon": 0.0}, {"lat": 38.903293833333336, "fusion_lat": 0.0, "type": "electric_scooter", "bike_id": "561c2df4f321fe2b2c09cf0dc34f1714", "is_reserved": 0, "rental_uris": {"ios": "https://dc.lft.to/lastmile_qr_scan", "android": "https://dc.lft.to/lastmile_qr_scan"}, "is_disabled": 0, "lon": -76.98283666666667, "name": "561c2df4f321fe2b2c09cf0dc34f1714", "fusion_lon": 0.0}, {"lat": 38.9195935, "fusion_lat": 0.0, "type": "electric_scooter", "bike_id": "03522553e30064f0e48f5e3285ead817", "is_reserved": 0, "rental_uris": {"ios": "https://dc.lft.to/lastmile_qr_scan", "android": "https://dc.lft.to/lastmile_qr_scan"}, "is_disabled": 0, "lon": -77.0348055, "name": "03522553e30064f0e48f5e3285ead817", "fusion_lon": 0.0}, {"lat": 38.908185, "fusion_lat": 0.0, "type": "electric_scooter", "bike_id": "44644c0eacdd66c2ed65c173347fac3a", "is_reserved": 0, "rental_uris": {"ios": "https://dc.lft.to/lastmile_qr_scan", "android": "https://dc.lft.to/lastmile_qr_scan"}, "is_disabled": 0, "lon": -77.03940266666666, "name": "44644c0eacdd66c2ed65c173347fac3a", "fusion_lon": 0.0}, {"lat": 38.91405066666667, "fusion_lat": 0.0, "type": "electric_scooter", "bike_id": "60dae384f0dd22494b848d60c2a76a4c", "is_reserved": 0, "rental_uris": {"ios": "https://dc.lft.to/lastmile_qr_scan", "android": "https://dc.lft.to/lastmile_qr_scan"}, "is_disabled": 0, "lon": -77.02663233333334, "name": "60dae384f0dd22494b848d60c2a76a4c", "fusion_lon": 0.0}, {"lat": 38.9115305, "fusion_lat": 0.0, "type": "electric_scooter", "bike_id": "dc2066f51270aed7c51e4dcc02546cc5", "is_reserved": 0, "rental_uris": {"ios": "https://dc.lft.to/lastmile_qr_scan", "android": "https://dc.lft.to/lastmile_qr_scan"}, "is_disabled": 0, "lon": -77.022911, "name": "dc2066f51270aed7c51e4dcc02546cc5", "fusion_lon": 0.0}, {"lat": 38.920922, "fusion_lat": 0.0, "type": "electric_scooter", "bike_id": "706f0a105befac5393a7262a7627a086", "is_reserved": 0, "rental_uris": {"ios": "https://dc.lft.to/lastmile_qr_scan", "android": "https://dc.lft.to/lastmile_qr_scan"}, "is_disabled": 0, "lon": -77.04207816666667, "name": "706f0a105befac5393a7262a7627a086", "fusion_lon": 0.0}, {"lat": 38.900665333333336, "fusion_lat": 0.0, "type": "electric_scooter", "bike_id": "7a78f8aa23567b44bef81f994fb01d49", "is_reserved": 0, "rental_uris": {"ios": "https://dc.lft.to/lastmile_qr_scan", "android": "https://dc.lft.to/lastmile_qr_scan"}, "is_disabled": 0, "lon": -76.92745566666666, "name": "7a78f8aa23567b44bef81f994fb01d49", "fusion_lon": 0.0}, {"lat": 38.96620566666667, "fusion_lat": 0.0, "type": "electric_bike", "bike_id": "31d93b49c5621776472fb361cd660e59", "is_reserved": 0, "rental_uris": {"ios": "https://dc.lft.to/lastmile_qr_scan", "android": "https://dc.lft.to/lastmile_qr_scan"}, "is_disabled": 0, "lon": -77.03427366666666, "name": "31d93b49c5621776472fb361cd660e59", "fusion_lon": 0.0}, {"lat": 38.88702333333333, "fusion_lat": 0.0, "type": "electric_scooter", "bike_id": "94954afaca954f1e7422fe558c7365bf", "is_reserved": 0, "rental_uris": {"ios": "https://dc.lft.to/lastmile_qr_scan", "android": "https://dc.lft.to/lastmile_qr_scan"}, "is_disabled": 0, "lon": -77.00353166666666, "name": "94954afaca954f1e7422fe558c7365bf", "fusion_lon": 0.0}, {"lat": 38.915184333333336, "fusion_lat": 0.0, "type": "electric_scooter", "bike_id": "220ace852676d8985f93c883b99c562e", "is_reserved": 0, "rental_uris": {"ios": "https://dc.lft.to/lastmile_qr_scan", "android": "https://dc.lft.to/lastmile_qr_scan"}, "is_disabled": 0, "lon": -77.01984933333334, "name": "220ace852676d8985f93c883b99c562e", "fusion_lon": 0.0}, {"lat": 38.905311, "fusion_lat": 0.0, "type": "electric_scooter", "bike_id": "a269e414ff15edb42f6d5d035f832667", "is_reserved": 0, "rental_uris": {"ios": "https://dc.lft.to/lastmile_qr_scan", "android": "https://dc.lft.to/lastmile_qr_scan"}, "is_disabled": 0, "lon": -77.06138166666666, "name": "a269e414ff15edb42f6d5d035f832667", "fusion_lon": 0.0}, {"lat": 38.92341666666667, "fusion_lat": 0.0, "type": "electric_scooter", "bike_id": "3b5a7d8cd693b7271731de82780930d7", "is_reserved": 0, "rental_uris": {"ios": "https://dc.lft.to/lastmile_qr_scan", "android": "https://dc.lft.to/lastmile_qr_scan"}, "is_disabled": 0, "lon": -77.04177516666667, "name": "3b5a7d8cd693b7271731de82780930d7", "fusion_lon": 0.0}, {"lat": 38.96322216666667, "fusion_lat": 0.0, "type": "electric_bike", "bike_id": "b7a009d5cd0db1aea3d2ace0e5d910ca", "is_reserved": 0, "rental_uris": {"ios": "https://dc.lft.to/lastmile_qr_scan", "android": "https://dc.lft.to/lastmile_qr_scan"}, "is_disabled": 0, "lon": -76.97357216666667, "name": "b7a009d5cd0db1aea3d2ace0e5d910ca", "fusion_lon": 0.0}, {"lat": 38.963071666666664, "fusion_lat": 0.0, "type": "electric_bike", "bike_id": "e9f6884a69b2a182b067b937ebe16244", "is_reserved": 0, "rental_uris": {"ios": "https://dc.lft.to/lastmile_qr_scan", "android": "https://dc.lft.to/lastmile_qr_scan"}, "is_disabled": 0, "lon": -77.0110565, "name": "e9f6884a69b2a182b067b937ebe16244", "fusion_lon": 0.0}, {"lat": 38.89227733333333, "fusion_lat": 0.0, "type": "electric_scooter", "bike_id": "3a25214c0d7b98f56eadf82702a42d50", "is_reserved": 0, "rental_uris": {"ios": "https://dc.lft.to/lastmile_qr_scan", "android": "https://dc.lft.to/lastmile_qr_scan"}, "is_disabled": 0, "lon": -77.02757733333333, "name": "3a25214c0d7b98f56eadf82702a42d50", "fusion_lon": 0.0}, {"lat": 38.91353016666667, "fusion_lat": 0.0, "type": "electric_scooter", "bike_id": "c3b1f78dc5456833fe5620f0bdcd0f8b", "is_reserved": 0, "rental_uris": {"ios": "https://dc.lft.to/lastmile_qr_scan", "android": "https://dc.lft.to/lastmile_qr_scan"}, "is_disabled": 0, "lon": -77.03183966666667, "name": "c3b1f78dc5456833fe5620f0bdcd0f8b", "fusion_lon": 0.0}, {"lat": 38.95530333333333, "fusion_lat": 0.0, "type": "electric_bike", "bike_id": "647313d7ed0044f0df5eb61d6789a756", "is_reserved": 0, "rental_uris": {"ios": "https://dc.lft.to/lastmile_qr_scan", "android": "https://dc.lft.to/lastmile_qr_scan"}, "is_disabled": 0, "lon": -76.96827566666667, "name": "647313d7ed0044f0df5eb61d6789a756", "fusion_lon": 0.0}, {"lat": 38.918138166666665, "fusion_lat": 0.0, "type": "electric_scooter", "bike_id": "033146eb70fe31ef4a5cdad5af32588e", "is_reserved": 0, "rental_uris": {"ios": "https://dc.lft.to/lastmile_qr_scan", "android": "https://dc.lft.to/lastmile_qr_scan"}, "is_disabled": 0, "lon": -77.08963716666666, "name": "033146eb70fe31ef4a5cdad5af32588e", "fusion_lon": 0.0}, {"lat": 38.905056, "fusion_lat": 0.0, "type": "electric_scooter", "bike_id": "cb6278d12c6dac99de5a9ceb1b6068d7", "is_reserved": 0, "rental_uris": {"ios": "https://dc.lft.to/lastmile_qr_scan", "android": "https://dc.lft.to/lastmile_qr_scan"}, "is_disabled": 0, "lon": -77.060173, "name": "cb6278d12c6dac99de5a9ceb1b6068d7", "fusion_lon": 0.0}, {"lat": 38.91913233333333, "fusion_lat": 0.0, "type": "electric_scooter", "bike_id": "a0274ea61932d4977fe378ca1bf89562", "is_reserved": 0, "rental_uris": {"ios": "https://dc.lft.to/lastmile_qr_scan", "android": "https://dc.lft.to/lastmile_qr_scan"}, "is_disabled": 0, "lon": -77.01539766666667, "name": "a0274ea61932d4977fe378ca1bf89562", "fusion_lon": 0.0}, {"lat": 38.8921405, "fusion_lat": 0.0, "type": "electric_scooter", "bike_id": "61ba523181626e6644f623af6818f11e", "is_reserved": 0, "rental_uris": {"ios": "https://dc.lft.to/lastmile_qr_scan", "android": "https://dc.lft.to/lastmile_qr_scan"}, "is_disabled": 0, "lon": -77.04659233333334, "name": "61ba523181626e6644f623af6818f11e", "fusion_lon": 0.0}, {"lat": 38.9015315, "fusion_lat": 0.0, "type": "electric_scooter", "bike_id": "da2607bb995a65fb896dbba4715ad6b5", "is_reserved": 0, "rental_uris": {"ios": "https://dc.lft.to/lastmile_qr_scan", "android": "https://dc.lft.to/lastmile_qr_scan"}, "is_disabled": 0, "lon": -76.93060116666666, "name": "da2607bb995a65fb896dbba4715ad6b5", "fusion_lon": 0.0}, {"lat": 39.062957, "fusion_lat": 0.0, "type": "electric_bike", "bike_id": "a1d05cd29b70fc344fe1de09a6388e71", "is_reserved": 0, "rental_uris": {"ios": "https://dc.lft.to/lastmile_qr_scan", "android": "https://dc.lft.to/lastmile_qr_scan"}, "is_disabled": 0, "lon": -77.04979666666667, "name": "a1d05cd29b70fc344fe1de09a6388e71", "fusion_lon": 0.0}, {"lat": 38.9135955, "fusion_lat": 0.0, "type": "electric_scooter", "bike_id": "21a2cc09427b266b7d6e9d812d9cae6f", "is_reserved": 0, "rental_uris": {"ios": "https://dc.lft.to/lastmile_qr_scan", "android": "https://dc.lft.to/lastmile_qr_scan"}, "is_disabled": 0, "lon": -77.0449165, "name": "21a2cc09427b266b7d6e9d812d9cae6f", "fusion_lon": 0.0}, {"lat": 38.919762, "fusion_lat": 0.0, "type": "electric_scooter", "bike_id": "5d5265b750b0d4f8f037661b089a8f28", "is_reserved": 0, "rental_uris": {"ios": "https://dc.lft.to/lastmile_qr_scan", "android": "https://dc.lft.to/lastmile_qr_scan"}, "is_disabled": 0, "lon": -77.02172716666666, "name": "5d5265b750b0d4f8f037661b089a8f28", "fusion_lon": 0.0}, {"lat": 38.8922045, "fusion_lat": 0.0, "type": "electric_scooter", "bike_id": "e9d91594325af5d0b87e13b8c125de9d", "is_reserved": 0, "rental_uris": {"ios": "https://dc.lft.to/lastmile_qr_scan", "android": "https://dc.lft.to/lastmile_qr_scan"}, "is_disabled": 0, "lon": -77.02580483333334, "name": "e9d91594325af5d0b87e13b8c125de9d", "fusion_lon": 0.0}, {"lat": 38.93232233333333, "fusion_lat": 0.0, "type": "electric_scooter", "bike_id": "8f7218502cbe2effe5f30d7cb745202e", "is_reserved": 0, "rental_uris": {"ios": "https://dc.lft.to/lastmile_qr_scan", "android": "https://dc.lft.to/lastmile_qr_scan"}, "is_disabled": 0, "lon": -77.04641066666667, "name": "8f7218502cbe2effe5f30d7cb745202e", "fusion_lon": 0.0}, {"lat": 38.90371, "fusion_lat": 0.0, "type": "electric_scooter", "bike_id": "c5bea7c926a589ece13f91b9906e40ae", "is_reserved": 0, "rental_uris": {"ios": "https://dc.lft.to/lastmile_qr_scan", "android": "https://dc.lft.to/lastmile_qr_scan"}, "is_disabled": 0, "lon": -76.93759566666667, "name": "c5bea7c926a589ece13f91b9906e40ae", "fusion_lon": 0.0}, {"lat": 38.92017416666667, "fusion_lat": 0.0, "type": "electric_scooter", "bike_id": "911f597d116eef993174e5445ea98937", "is_reserved": 0, "rental_uris": {"ios": "https://dc.lft.to/lastmile_qr_scan", "android": "https://dc.lft.to/lastmile_qr_scan"}, "is_disabled": 0, "lon": -77.01945183333333, "name": "911f597d116eef993174e5445ea98937", "fusion_lon": 0.0}, {"lat": 38.902671833333336, "fusion_lat": 0.0, "type": "electric_scooter", "bike_id": "3f44850c67622058e6886ee7556e589b", "is_reserved": 0, "rental_uris": {"ios": "https://dc.lft.to/lastmile_qr_scan", "android": "https://dc.lft.to/lastmile_qr_scan"}, "is_disabled": 0, "lon": -77.03850983333334, "name": "3f44850c67622058e6886ee7556e589b", "fusion_lon": 0.0}, {"lat": 38.87666816666667, "fusion_lat": 0.0, "type": "electric_scooter", "bike_id": "a61f17e8bf17f6fedd47ead2fe1ba9a2", "is_reserved": 0, "rental_uris": {"ios": "https://dc.lft.to/lastmile_qr_scan", "android": "https://dc.lft.to/lastmile_qr_scan"}, "is_disabled": 0, "lon": -77.00575383333333, "name": "a61f17e8bf17f6fedd47ead2fe1ba9a2", "fusion_lon": 0.0}, {"lat": 38.917022833333334, "fusion_lat": 0.0, "type": "electric_scooter", "bike_id": "c794025cf76f3b12c9d8f695fbcb389f", "is_reserved": 0, "rental_uris": {"ios": "https://dc.lft.to/lastmile_qr_scan", "android": "https://dc.lft.to/lastmile_qr_scan"}, "is_disabled": 0, "lon": -77.00798, "name": "c794025cf76f3b12c9d8f695fbcb389f", "fusion_lon": 0.0}, {"lat": 38.90108016666667, "fusion_lat": 0.0, "type": "electric_scooter", "bike_id": "dacaff5c42c2037fa46c4df5d6d43fba", "is_reserved": 0, "rental_uris": {"ios": "https://dc.lft.to/lastmile_qr_scan", "android": "https://dc.lft.to/lastmile_qr_scan"}, "is_disabled": 0, "lon": -77.02004083333334, "name": "dacaff5c42c2037fa46c4df5d6d43fba", "fusion_lon": 0.0}, {"lat": 38.91860716666667, "fusion_lat": 0.0, "type": "electric_scooter", "bike_id": "f66053ab83e550828f37cecc7043372d", "is_reserved": 0, "rental_uris": {"ios": "https://dc.lft.to/lastmile_qr_scan", "android": "https://dc.lft.to/lastmile_qr_scan"}, "is_disabled": 0, "lon": -77.04177033333333, "name": "f66053ab83e550828f37cecc7043372d", "fusion_lon": 0.0}, {"lat": 38.9106105, "fusion_lat": 0.0, "type": "electric_scooter", "bike_id": "fa3bac6c7028bfbc7369729685e4c9fd", "is_reserved": 0, "rental_uris": {"ios": "https://dc.lft.to/lastmile_qr_scan", "android": "https://dc.lft.to/lastmile_qr_scan"}, "is_disabled": 0, "lon": -77.030912, "name": "fa3bac6c7028bfbc7369729685e4c9fd", "fusion_lon": 0.0}, {"lat": 38.94290933333333, "fusion_lat": 0.0, "type": "electric_scooter", "bike_id": "2c7ada4b9a5259e9c7a66ecd40875891", "is_reserved": 0, "rental_uris": {"ios": "https://dc.lft.to/lastmile_qr_scan", "android": "https://dc.lft.to/lastmile_qr_scan"}, "is_disabled": 0, "lon": -77.021734, "name": "2c7ada4b9a5259e9c7a66ecd40875891", "fusion_lon": 0.0}, {"lat": 38.878395833333336, "fusion_lat": 0.0, "type": "electric_scooter", "bike_id": "57e14fae4bc64b383d71007564b88dac", "is_reserved": 0, "rental_uris": {"ios": "https://dc.lft.to/lastmile_qr_scan", "android": "https://dc.lft.to/lastmile_qr_scan"}, "is_disabled": 0, "lon": -77.01967816666667, "name": "57e14fae4bc64b383d71007564b88dac", "fusion_lon": 0.0}, {"lat": 38.910387, "fusion_lat": 0.0, "type": "electric_scooter", "bike_id": "c6c983e6ca57b4133b17acf6eaa34cc8", "is_reserved": 0, "rental_uris": {"ios": "https://dc.lft.to/lastmile_qr_scan", "android": "https://dc.lft.to/lastmile_qr_scan"}, "is_disabled": 0, "lon": -77.03841916666667, "name": "c6c983e6ca57b4133b17acf6eaa34cc8", "fusion_lon": 0.0}, {"lat": 38.888105833333334, "fusion_lat": 0.0, "type": "electric_scooter", "bike_id": "36d06521c0d5cd04d2c37edaf938315b", "is_reserved": 0, "rental_uris": {"ios": "https://dc.lft.to/lastmile_qr_scan", "android": "https://dc.lft.to/lastmile_qr_scan"}, "is_disabled": 0, "lon": -76.93346316666667, "name": "36d06521c0d5cd04d2c37edaf938315b", "fusion_lon": 0.0}, {"lat": 38.917196833333335, "fusion_lat": 0.0, "type": "electric_scooter", "bike_id": "cf68189c7824f06d96b1fb875b1f17c9", "is_reserved": 0, "rental_uris": {"ios": "https://dc.lft.to/lastmile_qr_scan", "android": "https://dc.lft.to/lastmile_qr_scan"}, "is_disabled": 0, "lon": -77.029741, "name": "cf68189c7824f06d96b1fb875b1f17c9", "fusion_lon": 0.0}, {"lat": 38.920303, "fusion_lat": 0.0, "type": "electric_scooter", "bike_id": "01010e5224a5f1d72ea274d35895803b", "is_reserved": 0, "rental_uris": {"ios": "https://dc.lft.to/lastmile_qr_scan", "android": "https://dc.lft.to/lastmile_qr_scan"}, "is_disabled": 0, "lon": -77.0122265, "name": "01010e5224a5f1d72ea274d35895803b", "fusion_lon": 0.0}, {"lat": 38.917037666666666, "fusion_lat": 0.0, "type": "electric_scooter", "bike_id": "6271453cdcff581ef9b1a8bf2e4d2e17", "is_reserved": 0, "rental_uris": {"ios": "https://dc.lft.to/lastmile_qr_scan", "android": "https://dc.lft.to/lastmile_qr_scan"}, "is_disabled": 0, "lon": -77.029265, "name": "6271453cdcff581ef9b1a8bf2e4d2e17", "fusion_lon": 0.0}, {"lat": 38.9023555, "fusion_lat": 0.0, "type": "electric_scooter", "bike_id": "e06e60d9d161a2a57e5b22eb37c693f8", "is_reserved": 0, "rental_uris": {"ios": "https://dc.lft.to/lastmile_qr_scan", "android": "https://dc.lft.to/lastmile_qr_scan"}, "is_disabled": 0, "lon": -77.01758466666666, "name": "e06e60d9d161a2a57e5b22eb37c693f8", "fusion_lon": 0.0}, {"lat": 38.91324183333333, "fusion_lat": 0.0, "type": "electric_scooter", "bike_id": "b69dc85b4099748d3c53bb86a3241cfe", "is_reserved": 0, "rental_uris": {"ios": "https://dc.lft.to/lastmile_qr_scan", "android": "https://dc.lft.to/lastmile_qr_scan"}, "is_disabled": 0, "lon": -77.031891, "name": "b69dc85b4099748d3c53bb86a3241cfe", "fusion_lon": 0.0}, {"lat": 38.84466066666667, "fusion_lat": 0.0, "type": "electric_bike", "bike_id": "fbc6aa9074296e3a0ffe7c3c07df00b4", "is_reserved": 0, "rental_uris": {"ios": "https://dc.lft.to/lastmile_qr_scan", "android": "https://dc.lft.to/lastmile_qr_scan"}, "is_disabled": 0, "lon": -76.98754983333333, "name": "fbc6aa9074296e3a0ffe7c3c07df00b4", "fusion_lon": 0.0}, {"lat": 38.907519666666666, "fusion_lat": 0.0, "type": "electric_scooter", "bike_id": "b83f27818668c062374c1005bcf9dcac", "is_reserved": 0, "rental_uris": {"ios": "https://dc.lft.to/lastmile_qr_scan", "android": "https://dc.lft.to/lastmile_qr_scan"}, "is_disabled": 0, "lon": -77.03190616666667, "name": "b83f27818668c062374c1005bcf9dcac", "fusion_lon": 0.0}, {"lat": 38.91978916666667, "fusion_lat": 0.0, "type": "electric_scooter", "bike_id": "288bf96d8a1af86ada75d154899be7ef", "is_reserved": 0, "rental_uris": {"ios": "https://dc.lft.to/lastmile_qr_scan", "android": "https://dc.lft.to/lastmile_qr_scan"}, "is_disabled": 0, "lon": -77.03204916666667, "name": "288bf96d8a1af86ada75d154899be7ef", "fusion_lon": 0.0}, {"lat": 38.92856366666667, "fusion_lat": 0.0, "type": "electric_scooter", "bike_id": "cc84b4adaafbc30020bf7814986acdad", "is_reserved": 0, "rental_uris": {"ios": "https://dc.lft.to/lastmile_qr_scan", "android": "https://dc.lft.to/lastmile_qr_scan"}, "is_disabled": 0, "lon": -77.02328133333333, "name": "cc84b4adaafbc30020bf7814986acdad", "fusion_lon": 0.0}, {"lat": 38.853523333333335, "fusion_lat": 0.0, "type": "electric_bike", "bike_id": "1ae7916aa2868f5bfa91bba411c8d784", "is_reserved": 0, "rental_uris": {"ios": "https://dc.lft.to/lastmile_qr_scan", "android": "https://dc.lft.to/lastmile_qr_scan"}, "is_disabled": 0, "lon": -77.134721, "name": "1ae7916aa2868f5bfa91bba411c8d784", "fusion_lon": 0.0}, {"lat": 38.8973325, "fusion_lat": 0.0, "type": "electric_scooter", "bike_id": "e8ea071041737083be3bd144deb0762f", "is_reserved": 0, "rental_uris": {"ios": "https://dc.lft.to/lastmile_qr_scan", "android": "https://dc.lft.to/lastmile_qr_scan"}, "is_disabled": 0, "lon": -77.0427385, "name": "e8ea071041737083be3bd144deb0762f", "fusion_lon": 0.0}, {"lat": 38.90842816666667, "fusion_lat": 0.0, "type": "electric_scooter", "bike_id": "86eaea4f7e16a199c26c5e4198f5b25f", "is_reserved": 0, "rental_uris": {"ios": "https://dc.lft.to/lastmile_qr_scan", "android": "https://dc.lft.to/lastmile_qr_scan"}, "is_disabled": 0, "lon": -77.04005716666667, "name": "86eaea4f7e16a199c26c5e4198f5b25f", "fusion_lon": 0.0}, {"lat": 38.930935166666664, "fusion_lat": 0.0, "type": "electric_scooter", "bike_id": "80fdbfc0a3fa6ea742179c22ec12b9ec", "is_reserved": 0, "rental_uris": {"ios": "https://dc.lft.to/lastmile_qr_scan", "android": "https://dc.lft.to/lastmile_qr_scan"}, "is_disabled": 0, "lon": -77.02567383333333, "name": "80fdbfc0a3fa6ea742179c22ec12b9ec", "fusion_lon": 0.0}, {"lat": 38.9084225, "fusion_lat": 0.0, "type": "electric_scooter", "bike_id": "6b618458a892d8b98c6d9f82703813bf", "is_reserved": 0, "rental_uris": {"ios": "https://dc.lft.to/lastmile_qr_scan", "android": "https://dc.lft.to/lastmile_qr_scan"}, "is_disabled": 0, "lon": -77.0367265, "name": "6b618458a892d8b98c6d9f82703813bf", "fusion_lon": 0.0}, {"lat": 38.941994, "fusion_lat": 0.0, "type": "electric_scooter", "bike_id": "88745129895700c149d059f3f01190e6", "is_reserved": 0, "rental_uris": {"ios": "https://dc.lft.to/lastmile_qr_scan", "android": "https://dc.lft.to/lastmile_qr_scan"}, "is_disabled": 0, "lon": -77.02513533333334, "name": "88745129895700c149d059f3f01190e6", "fusion_lon": 0.0}, {"lat": 38.906681666666664, "fusion_lat": 0.0, "type": "electric_scooter", "bike_id": "d524bb2548acbc3ae5f63a9dffcde849", "is_reserved": 0, "rental_uris": {"ios": "https://dc.lft.to/lastmile_qr_scan", "android": "https://dc.lft.to/lastmile_qr_scan"}, "is_disabled": 0, "lon": -77.02714866666666, "name": "d524bb2548acbc3ae5f63a9dffcde849", "fusion_lon": 0.0}, {"lat": 38.89866466666667, "fusion_lat": 0.0, "type": "electric_scooter", "bike_id": "e3e677bedf6466e236f88e9c0aa2f7fb", "is_reserved": 0, "rental_uris": {"ios": "https://dc.lft.to/lastmile_qr_scan", "android": "https://dc.lft.to/lastmile_qr_scan"}, "is_disabled": 0, "lon": -76.9466385, "name": "e3e677bedf6466e236f88e9c0aa2f7fb", "fusion_lon": 0.0}, {"lat": 38.9349575, "fusion_lat": 0.0, "type": "electric_scooter", "bike_id": "f8f6d33f3f3be8fc8c0d7999d0533104", "is_reserved": 0, "rental_uris": {"ios": "https://dc.lft.to/lastmile_qr_scan", "android": "https://dc.lft.to/lastmile_qr_scan"}, "is_disabled": 0, "lon": -77.073968, "name": "f8f6d33f3f3be8fc8c0d7999d0533104", "fusion_lon": 0.0}, {"lat": 38.897459166666664, "fusion_lat": 0.0, "type": "electric_scooter", "bike_id": "fd9019b1cf4a10c2f8050b6da9c7b510", "is_reserved": 0, "rental_uris": {"ios": "https://dc.lft.to/lastmile_qr_scan", "android": "https://dc.lft.to/lastmile_qr_scan"}, "is_disabled": 0, "lon": -77.0334215, "name": "fd9019b1cf4a10c2f8050b6da9c7b510", "fusion_lon": 0.0}, {"lat": 38.87547433333334, "fusion_lat": 0.0, "type": "electric_scooter", "bike_id": "5fb30d84fd567affaa818238f7d88343", "is_reserved": 0, "rental_uris": {"ios": "https://dc.lft.to/lastmile_qr_scan", "android": "https://dc.lft.to/lastmile_qr_scan"}, "is_disabled": 0, "lon": -77.00506616666667, "name": "5fb30d84fd567affaa818238f7d88343", "fusion_lon": 0.0}, {"lat": 38.9156345, "fusion_lat": 0.0, "type": "electric_scooter", "bike_id": "f73b07478fd7566996ac112d348a39d5", "is_reserved": 0, "rental_uris": {"ios": "https://dc.lft.to/lastmile_qr_scan", "android": "https://dc.lft.to/lastmile_qr_scan"}, "is_disabled": 0, "lon": -77.03865483333334, "name": "f73b07478fd7566996ac112d348a39d5", "fusion_lon": 0.0}, {"lat": 38.89780716666667, "fusion_lat": 0.0, "type": "electric_scooter", "bike_id": "fd82dbe630e2bd929bf4c041b51bfa11", "is_reserved": 0, "rental_uris": {"ios": "https://dc.lft.to/lastmile_qr_scan", "android": "https://dc.lft.to/lastmile_qr_scan"}, "is_disabled": 0, "lon": -77.05485616666667, "name": "fd82dbe630e2bd929bf4c041b51bfa11", "fusion_lon": 0.0}, {"lat": 38.8922155, "fusion_lat": 0.0, "type": "electric_scooter", "bike_id": "2438f6da5a41201b5c29c2cf85312a94", "is_reserved": 0, "rental_uris": {"ios": "https://dc.lft.to/lastmile_qr_scan", "android": "https://dc.lft.to/lastmile_qr_scan"}, "is_disabled": 0, "lon": -77.0468695, "name": "2438f6da5a41201b5c29c2cf85312a94", "fusion_lon": 0.0}, {"lat": 38.905218166666664, "fusion_lat": 0.0, "type": "electric_scooter", "bike_id": "66fdc156fb34ce9b61899b8b72507c89", "is_reserved": 0, "rental_uris": {"ios": "https://dc.lft.to/lastmile_qr_scan", "android": "https://dc.lft.to/lastmile_qr_scan"}, "is_disabled": 0, "lon": -77.06606016666667, "name": "66fdc156fb34ce9b61899b8b72507c89", "fusion_lon": 0.0}, {"lat": 38.897500666666666, "fusion_lat": 0.0, "type": "electric_scooter", "bike_id": "f2fb943df9828221898b8e1c47422a0f", "is_reserved": 0, "rental_uris": {"ios": "https://dc.lft.to/lastmile_qr_scan", "android": "https://dc.lft.to/lastmile_qr_scan"}, "is_disabled": 0, "lon": -77.03298733333334, "name": "f2fb943df9828221898b8e1c47422a0f", "fusion_lon": 0.0}, {"lat": 38.87851533333333, "fusion_lat": 0.0, "type": "electric_scooter", "bike_id": "744b6ec1cefcb93390b7e4c1a1a258a1", "is_reserved": 0, "rental_uris": {"ios": "https://dc.lft.to/lastmile_qr_scan", "android": "https://dc.lft.to/lastmile_qr_scan"}, "is_disabled": 0, "lon": -77.0081125, "name": "744b6ec1cefcb93390b7e4c1a1a258a1", "fusion_lon": 0.0}, {"lat": 38.9261245, "fusion_lat": 0.0, "type": "electric_scooter", "bike_id": "636bfc50fc4edb368b1fc3202fa5db32", "is_reserved": 0, "rental_uris": {"ios": "https://dc.lft.to/lastmile_qr_scan", "android": "https://dc.lft.to/lastmile_qr_scan"}, "is_disabled": 0, "lon": -77.02653166666667, "name": "636bfc50fc4edb368b1fc3202fa5db32", "fusion_lon": 0.0}, {"lat": 38.954985, "fusion_lat": 0.0, "type": "electric_bike", "bike_id": "ed00eb2b8d8f3cb71e1f325bde0ca4b8", "is_reserved": 0, "rental_uris": {"ios": "https://dc.lft.to/lastmile_qr_scan", "android": "https://dc.lft.to/lastmile_qr_scan"}, "is_disabled": 0, "lon": -76.99355566666667, "name": "ed00eb2b8d8f3cb71e1f325bde0ca4b8", "fusion_lon": 0.0}, {"lat": 38.876487166666664, "fusion_lat": 0.0, "type": "electric_scooter", "bike_id": "fdff3466904f996268bb1443f11c15c4", "is_reserved": 0, "rental_uris": {"ios": "https://dc.lft.to/lastmile_qr_scan", "android": "https://dc.lft.to/lastmile_qr_scan"}, "is_disabled": 0, "lon": -76.96516183333334, "name": "fdff3466904f996268bb1443f11c15c4", "fusion_lon": 0.0}, {"lat": 38.903467, "fusion_lat": 0.0, "type": "electric_scooter", "bike_id": "1a549bad6d08e1d2adc5227139fd94f8", "is_reserved": 0, "rental_uris": {"ios": "https://dc.lft.to/lastmile_qr_scan", "android": "https://dc.lft.to/lastmile_qr_scan"}, "is_disabled": 0, "lon": -76.985099, "name": "1a549bad6d08e1d2adc5227139fd94f8", "fusion_lon": 0.0}, {"lat": 38.919239166666664, "fusion_lat": 0.0, "type": "electric_scooter", "bike_id": "db610a46b06199b2a26d06272dc6c349", "is_reserved": 0, "rental_uris": {"ios": "https://dc.lft.to/lastmile_qr_scan", "android": "https://dc.lft.to/lastmile_qr_scan"}, "is_disabled": 0, "lon": -77.02942066666667, "name": "db610a46b06199b2a26d06272dc6c349", "fusion_lon": 0.0}, {"lat": 38.95933566666667, "fusion_lat": 0.0, "type": "electric_scooter", "bike_id": "30a83369a871fc015192768c1837689c", "is_reserved": 0, "rental_uris": {"ios": "https://dc.lft.to/lastmile_qr_scan", "android": "https://dc.lft.to/lastmile_qr_scan"}, "is_disabled": 0, "lon": -77.03122233333333, "name": "30a83369a871fc015192768c1837689c", "fusion_lon": 0.0}, {"lat": 38.9419925, "fusion_lat": 0.0, "type": "electric_scooter", "bike_id": "e8f75bb50031f7563c59b294c5f202d3", "is_reserved": 0, "rental_uris": {"ios": "https://dc.lft.to/lastmile_qr_scan", "android": "https://dc.lft.to/lastmile_qr_scan"}, "is_disabled": 0, "lon": -77.023509, "name": "e8f75bb50031f7563c59b294c5f202d3", "fusion_lon": 0.0}, {"lat": 38.95133333333333, "fusion_lat": 0.0, "type": "electric_scooter", "bike_id": "a3f3d200f7fe0e3b19ebc13d6f6a88d4", "is_reserved": 0, "rental_uris": {"ios": "https://dc.lft.to/lastmile_qr_scan", "android": "https://dc.lft.to/lastmile_qr_scan"}, "is_disabled": 0, "lon": -77.02725616666666, "name": "a3f3d200f7fe0e3b19ebc13d6f6a88d4", "fusion_lon": 0.0}, {"lat": 38.958422666666664, "fusion_lat": 0.0, "type": "electric_scooter", "bike_id": "042e6d1216e3923c4fa6d08cfbb91b71", "is_reserved": 0, "rental_uris": {"ios": "https://dc.lft.to/lastmile_qr_scan", "android": "https://dc.lft.to/lastmile_qr_scan"}, "is_disabled": 0, "lon": -77.01509716666666, "name": "042e6d1216e3923c4fa6d08cfbb91b71", "fusion_lon": 0.0}, {"lat": 38.89364066666667, "fusion_lat": 0.0, "type": "electric_scooter", "bike_id": "308e26702a4ffd5437157909f538dc5e", "is_reserved": 0, "rental_uris": {"ios": "https://dc.lft.to/lastmile_qr_scan", "android": "https://dc.lft.to/lastmile_qr_scan"}, "is_disabled": 0, "lon": -76.99086166666666, "name": "308e26702a4ffd5437157909f538dc5e", "fusion_lon": 0.0}, {"lat": 39.036976, "fusion_lat": 0.0, "type": "electric_bike", "bike_id": "83f237e545be00a0ce2a11eacd07b88f", "is_reserved": 0, "rental_uris": {"ios": "https://dc.lft.to/lastmile_qr_scan", "android": "https://dc.lft.to/lastmile_qr_scan"}, "is_disabled": 0, "lon": -77.02854066666667, "name": "83f237e545be00a0ce2a11eacd07b88f", "fusion_lon": 0.0}, {"lat": 38.89221416666667, "fusion_lat": 0.0, "type": "electric_scooter", "bike_id": "15c66b22da0ea87e9294e4f04d623f6e", "is_reserved": 0, "rental_uris": {"ios": "https://dc.lft.to/lastmile_qr_scan", "android": "https://dc.lft.to/lastmile_qr_scan"}, "is_disabled": 0, "lon": -77.04309116666667, "name": "15c66b22da0ea87e9294e4f04d623f6e", "fusion_lon": 0.0}, {"lat": 38.92446316666667, "fusion_lat": 0.0, "type": "electric_scooter", "bike_id": "8cf7ae275a55f057f4983be98ab37b82", "is_reserved": 0, "rental_uris": {"ios": "https://dc.lft.to/lastmile_qr_scan", "android": "https://dc.lft.to/lastmile_qr_scan"}, "is_disabled": 0, "lon": -77.0225845, "name": "8cf7ae275a55f057f4983be98ab37b82", "fusion_lon": 0.0}, {"lat": 38.8859515, "fusion_lat": 0.0, "type": "electric_scooter", "bike_id": "b950a166850682c6c24614beea3e828f", "is_reserved": 0, "rental_uris": {"ios": "https://dc.lft.to/lastmile_qr_scan", "android": "https://dc.lft.to/lastmile_qr_scan"}, "is_disabled": 0, "lon": -76.99622666666667, "name": "b950a166850682c6c24614beea3e828f", "fusion_lon": 0.0}, {"lat": 38.8954515, "fusion_lat": 0.0, "type": "electric_scooter", "bike_id": "989554474a37d92523ba061c954ff51f", "is_reserved": 0, "rental_uris": {"ios": "https://dc.lft.to/lastmile_qr_scan", "android": "https://dc.lft.to/lastmile_qr_scan"}, "is_disabled": 0, "lon": -76.92951566666666, "name": "989554474a37d92523ba061c954ff51f", "fusion_lon": 0.0}, {"lat": 38.926754, "fusion_lat": 0.0, "type": "electric_scooter", "bike_id": "c4074f7dcaab178c4398ffc707117a12", "is_reserved": 0, "rental_uris": {"ios": "https://dc.lft.to/lastmile_qr_scan", "android": "https://dc.lft.to/lastmile_qr_scan"}, "is_disabled": 0, "lon": -77.043596, "name": "c4074f7dcaab178c4398ffc707117a12", "fusion_lon": 0.0}, {"lat": 38.85785, "fusion_lat": 0.0, "type": "electric_bike", "bike_id": "d22adef0dbbc3e13aa1f51f8652e99b7", "is_reserved": 0, "rental_uris": {"ios": "https://dc.lft.to/lastmile_qr_scan", "android": "https://dc.lft.to/lastmile_qr_scan"}, "is_disabled": 0, "lon": -77.12019983333333, "name": "d22adef0dbbc3e13aa1f51f8652e99b7", "fusion_lon": 0.0}, {"lat": 38.86266666666667, "fusion_lat": 0.0, "type": "electric_bike", "bike_id": "f53f03ad15b069d224039181fbae0f40", "is_reserved": 0, "rental_uris": {"ios": "https://dc.lft.to/lastmile_qr_scan", "android": "https://dc.lft.to/lastmile_qr_scan"}, "is_disabled": 0, "lon": -76.9834915, "name": "f53f03ad15b069d224039181fbae0f40", "fusion_lon": 0.0}, {"lat": 38.9169735, "fusion_lat": 0.0, "type": "electric_scooter", "bike_id": "73a7e10993ce87c510380f855869661d", "is_reserved": 0, "rental_uris": {"ios": "https://dc.lft.to/lastmile_qr_scan", "android": "https://dc.lft.to/lastmile_qr_scan"}, "is_disabled": 0, "lon": -77.04111933333333, "name": "73a7e10993ce87c510380f855869661d", "fusion_lon": 0.0}, {"lat": 38.897499, "fusion_lat": 0.0, "type": "electric_scooter", "bike_id": "bf6cb91fa30485c84e60ae060eeea4c7", "is_reserved": 0, "rental_uris": {"ios": "https://dc.lft.to/lastmile_qr_scan", "android": "https://dc.lft.to/lastmile_qr_scan"}, "is_disabled": 0, "lon": -77.04420583333334, "name": "bf6cb91fa30485c84e60ae060eeea4c7", "fusion_lon": 0.0}, {"lat": 38.9224735, "fusion_lat": 0.0, "type": "electric_scooter", "bike_id": "afdc9c919084c6d8241146f5e8ee3e8e", "is_reserved": 0, "rental_uris": {"ios": "https://dc.lft.to/lastmile_qr_scan", "android": "https://dc.lft.to/lastmile_qr_scan"}, "is_disabled": 0, "lon": -77.03105816666667, "name": "afdc9c919084c6d8241146f5e8ee3e8e", "fusion_lon": 0.0}, {"lat": 38.9173975, "fusion_lat": 0.0, "type": "electric_scooter", "bike_id": "68add80542aecd478ebb894411262e32", "is_reserved": 0, "rental_uris": {"ios": "https://dc.lft.to/lastmile_qr_scan", "android": "https://dc.lft.to/lastmile_qr_scan"}, "is_disabled": 0, "lon": -77.03638383333333, "name": "68add80542aecd478ebb894411262e32", "fusion_lon": 0.0}, {"lat": 38.935139, "fusion_lat": 0.0, "type": "electric_scooter", "bike_id": "6be9f4ea0aa7b8f1ed7854baa2f2b618", "is_reserved": 0, "rental_uris": {"ios": "https://dc.lft.to/lastmile_qr_scan", "android": "https://dc.lft.to/lastmile_qr_scan"}, "is_disabled": 0, "lon": -77.03290483333333, "name": "6be9f4ea0aa7b8f1ed7854baa2f2b618", "fusion_lon": 0.0}, {"lat": 38.904441, "fusion_lat": 0.0, "type": "electric_scooter", "bike_id": "8e8ef5187cbdb086247b46b3d4a60817", "is_reserved": 0, "rental_uris": {"ios": "https://dc.lft.to/lastmile_qr_scan", "android": "https://dc.lft.to/lastmile_qr_scan"}, "is_disabled": 0, "lon": -77.04345233333333, "name": "8e8ef5187cbdb086247b46b3d4a60817", "fusion_lon": 0.0}, {"lat": 38.9055505, "fusion_lat": 0.0, "type": "electric_scooter", "bike_id": "48bb191c34b06cc9b689376cb892cd1a", "is_reserved": 0, "rental_uris": {"ios": "https://dc.lft.to/lastmile_qr_scan", "android": "https://dc.lft.to/lastmile_qr_scan"}, "is_disabled": 0, "lon": -76.99620416666667, "name": "48bb191c34b06cc9b689376cb892cd1a", "fusion_lon": 0.0}, {"lat": 38.908651666666664, "fusion_lat": 0.0, "type": "electric_scooter", "bike_id": "3740830d5ee9224b48202bd8a4cdad00", "is_reserved": 0, "rental_uris": {"ios": "https://dc.lft.to/lastmile_qr_scan", "android": "https://dc.lft.to/lastmile_qr_scan"}, "is_disabled": 0, "lon": -77.02407233333334, "name": "3740830d5ee9224b48202bd8a4cdad00", "fusion_lon": 0.0}, {"lat": 38.9095295, "fusion_lat": 0.0, "type": "electric_scooter", "bike_id": "b2f2a3e0b426f8913e0cb40445eda48b", "is_reserved": 0, "rental_uris": {"ios": "https://dc.lft.to/lastmile_qr_scan", "android": "https://dc.lft.to/lastmile_qr_scan"}, "is_disabled": 0, "lon": -77.0486885, "name": "b2f2a3e0b426f8913e0cb40445eda48b", "fusion_lon": 0.0}, {"lat": 38.95235666666667, "fusion_lat": 0.0, "type": "electric_bike", "bike_id": "58a423812fcdab027b6d3e7ca2d3d96c", "is_reserved": 0, "rental_uris": {"ios": "https://dc.lft.to/lastmile_qr_scan", "android": "https://dc.lft.to/lastmile_qr_scan"}, "is_disabled": 0, "lon": -77.0076395, "name": "58a423812fcdab027b6d3e7ca2d3d96c", "fusion_lon": 0.0}, {"lat": 38.89541, "fusion_lat": 0.0, "type": "electric_scooter", "bike_id": "294e58d45027ad2178824531fd75bb50", "is_reserved": 0, "rental_uris": {"ios": "https://dc.lft.to/lastmile_qr_scan", "android": "https://dc.lft.to/lastmile_qr_scan"}, "is_disabled": 0, "lon": -77.01095233333334, "name": "294e58d45027ad2178824531fd75bb50", "fusion_lon": 0.0}, {"lat": 38.89828416666667, "fusion_lat": 0.0, "type": "electric_scooter", "bike_id": "6c9c4eef27c5883d90b7be1b62843e79", "is_reserved": 0, "rental_uris": {"ios": "https://dc.lft.to/lastmile_qr_scan", "android": "https://dc.lft.to/lastmile_qr_scan"}, "is_disabled": 0, "lon": -77.02512116666666, "name": "6c9c4eef27c5883d90b7be1b62843e79", "fusion_lon": 0.0}, {"lat": 38.80425733333333, "fusion_lat": 0.0, "type": "electric_bike", "bike_id": "9cc159c9a84f735444e9a95f435ae386", "is_reserved": 0, "rental_uris": {"ios": "https://dc.lft.to/lastmile_qr_scan", "android": "https://dc.lft.to/lastmile_qr_scan"}, "is_disabled": 0, "lon": -77.0557305, "name": "9cc159c9a84f735444e9a95f435ae386", "fusion_lon": 0.0}, {"lat": 38.95170733333333, "fusion_lat": 0.0, "type": "electric_bike", "bike_id": "722127219e14d536a1bbe1f0cecc7dc8", "is_reserved": 0, "rental_uris": {"ios": "https://dc.lft.to/lastmile_qr_scan", "android": "https://dc.lft.to/lastmile_qr_scan"}, "is_disabled": 0, "lon": -76.96390916666667, "name": "722127219e14d536a1bbe1f0cecc7dc8", "fusion_lon": 0.0}, {"lat": 38.862443166666665, "fusion_lat": 0.0, "type": "electric_scooter", "bike_id": "dd000b1f16117b6f1f59ab966a750e9a", "is_reserved": 0, "rental_uris": {"ios": "https://dc.lft.to/lastmile_qr_scan", "android": "https://dc.lft.to/lastmile_qr_scan"}, "is_disabled": 0, "lon": -76.99497533333333, "name": "dd000b1f16117b6f1f59ab966a750e9a", "fusion_lon": 0.0}, {"lat": 38.93635866666666, "fusion_lat": 0.0, "type": "electric_scooter", "bike_id": "9c87f9011f30e3867ffea519dfae8433", "is_reserved": 0, "rental_uris": {"ios": "https://dc.lft.to/lastmile_qr_scan", "android": "https://dc.lft.to/lastmile_qr_scan"}, "is_disabled": 0, "lon": -77.058855, "name": "9c87f9011f30e3867ffea519dfae8433", "fusion_lon": 0.0}, {"lat": 38.9083495, "fusion_lat": 0.0, "type": "electric_scooter", "bike_id": "e9c16156b7efe8729d13d12b4f91dbde", "is_reserved": 0, "rental_uris": {"ios": "https://dc.lft.to/lastmile_qr_scan", "android": "https://dc.lft.to/lastmile_qr_scan"}, "is_disabled": 0, "lon": -77.03847016666667, "name": "e9c16156b7efe8729d13d12b4f91dbde", "fusion_lon": 0.0}, {"lat": 38.90072966666666, "fusion_lat": 0.0, "type": "electric_scooter", "bike_id": "0637d6484bbde60a67c7ab60a8a86ba8", "is_reserved": 0, "rental_uris": {"ios": "https://dc.lft.to/lastmile_qr_scan", "android": "https://dc.lft.to/lastmile_qr_scan"}, "is_disabled": 0, "lon": -76.98525683333334, "name": "0637d6484bbde60a67c7ab60a8a86ba8", "fusion_lon": 0.0}, {"lat": 38.8924555, "fusion_lat": 0.0, "type": "electric_bike", "bike_id": "faaf8e987c1510ab6c4dc7d2decfefd5", "is_reserved": 0, "rental_uris": {"ios": "https://dc.lft.to/lastmile_qr_scan", "android": "https://dc.lft.to/lastmile_qr_scan"}, "is_disabled": 0, "lon": -76.9854995, "name": "faaf8e987c1510ab6c4dc7d2decfefd5", "fusion_lon": 0.0}, {"lat": 38.91739883333334, "fusion_lat": 0.0, "type": "electric_scooter", "bike_id": "f7f0b0b5a613456b74ab360115e5dab5", "is_reserved": 0, "rental_uris": {"ios": "https://dc.lft.to/lastmile_qr_scan", "android": "https://dc.lft.to/lastmile_qr_scan"}, "is_disabled": 0, "lon": -77.03641333333333, "name": "f7f0b0b5a613456b74ab360115e5dab5", "fusion_lon": 0.0}, {"lat": 38.893164, "fusion_lat": 0.0, "type": "electric_scooter", "bike_id": "e1ea3feeb21a0acad7a939be8674e0f8", "is_reserved": 0, "rental_uris": {"ios": "https://dc.lft.to/lastmile_qr_scan", "android": "https://dc.lft.to/lastmile_qr_scan"}, "is_disabled": 0, "lon": -77.01228466666667, "name": "e1ea3feeb21a0acad7a939be8674e0f8", "fusion_lon": 0.0}, {"lat": 38.914949, "fusion_lat": 0.0, "type": "electric_scooter", "bike_id": "2e057cf5b1a57af1997e519999c60bc3", "is_reserved": 0, "rental_uris": {"ios": "https://dc.lft.to/lastmile_qr_scan", "android": "https://dc.lft.to/lastmile_qr_scan"}, "is_disabled": 0, "lon": -77.01995366666667, "name": "2e057cf5b1a57af1997e519999c60bc3", "fusion_lon": 0.0}, {"lat": 38.85512716666667, "fusion_lat": 0.0, "type": "electric_bike", "bike_id": "210d9007e1a45c9cc05727e59f267d03", "is_reserved": 0, "rental_uris": {"ios": "https://dc.lft.to/lastmile_qr_scan", "android": "https://dc.lft.to/lastmile_qr_scan"}, "is_disabled": 0, "lon": -76.983967, "name": "210d9007e1a45c9cc05727e59f267d03", "fusion_lon": 0.0}, {"lat": 38.874582, "fusion_lat": 0.0, "type": "electric_scooter", "bike_id": "c99d56e4615a6cbb2c17aa9a0e4965cf", "is_reserved": 0, "rental_uris": {"ios": "https://dc.lft.to/lastmile_qr_scan", "android": "https://dc.lft.to/lastmile_qr_scan"}, "is_disabled": 0, "lon": -77.00941466666667, "name": "c99d56e4615a6cbb2c17aa9a0e4965cf", "fusion_lon": 0.0}, {"lat": 38.90368383333333, "fusion_lat": 0.0, "type": "electric_scooter", "bike_id": "a7623318710681885077dd2237e00c5e", "is_reserved": 0, "rental_uris": {"ios": "https://dc.lft.to/lastmile_qr_scan", "android": "https://dc.lft.to/lastmile_qr_scan"}, "is_disabled": 0, "lon": -77.044776, "name": "a7623318710681885077dd2237e00c5e", "fusion_lon": 0.0}, {"lat": 38.90502166666667, "fusion_lat": 0.0, "type": "electric_scooter", "bike_id": "f69a699dd171ea62a17a9760815a3e07", "is_reserved": 0, "rental_uris": {"ios": "https://dc.lft.to/lastmile_qr_scan", "android": "https://dc.lft.to/lastmile_qr_scan"}, "is_disabled": 0, "lon": -77.060149, "name": "f69a699dd171ea62a17a9760815a3e07", "fusion_lon": 0.0}, {"lat": 38.920376833333336, "fusion_lat": 0.0, "type": "electric_scooter", "bike_id": "967c2692d2c895006c551cde48116aaa", "is_reserved": 0, "rental_uris": {"ios": "https://dc.lft.to/lastmile_qr_scan", "android": "https://dc.lft.to/lastmile_qr_scan"}, "is_disabled": 0, "lon": -77.02611933333333, "name": "967c2692d2c895006c551cde48116aaa", "fusion_lon": 0.0}, {"lat": 38.909486666666666, "fusion_lat": 0.0, "type": "electric_scooter", "bike_id": "c98d398a140696cf9f8101655f335320", "is_reserved": 0, "rental_uris": {"ios": "https://dc.lft.to/lastmile_qr_scan", "android": "https://dc.lft.to/lastmile_qr_scan"}, "is_disabled": 0, "lon": -77.0338195, "name": "c98d398a140696cf9f8101655f335320", "fusion_lon": 0.0}, {"lat": 38.885280333333334, "fusion_lat": 0.0, "type": "electric_scooter", "bike_id": "b85c12de7cae4cd5700c7c8b99227cda", "is_reserved": 0, "rental_uris": {"ios": "https://dc.lft.to/lastmile_qr_scan", "android": "https://dc.lft.to/lastmile_qr_scan"}, "is_disabled": 0, "lon": -77.01136983333333, "name": "b85c12de7cae4cd5700c7c8b99227cda", "fusion_lon": 0.0}, {"lat": 38.92221333333333, "fusion_lat": 0.0, "type": "electric_scooter", "bike_id": "1ea41179a6701371ceb8ccd3f2536e65", "is_reserved": 0, "rental_uris": {"ios": "https://dc.lft.to/lastmile_qr_scan", "android": "https://dc.lft.to/lastmile_qr_scan"}, "is_disabled": 0, "lon": -77.03455966666667, "name": "1ea41179a6701371ceb8ccd3f2536e65", "fusion_lon": 0.0}, {"lat": 38.92430916666667, "fusion_lat": 0.0, "type": "electric_bike", "bike_id": "51fa07dbe7a941f4f23bbeefe9f91b72", "is_reserved": 0, "rental_uris": {"ios": "https://dc.lft.to/lastmile_qr_scan", "android": "https://dc.lft.to/lastmile_qr_scan"}, "is_disabled": 0, "lon": -76.99655316666667, "name": "51fa07dbe7a941f4f23bbeefe9f91b72", "fusion_lon": 0.0}, {"lat": 38.94591666666667, "fusion_lat": 0.0, "type": "electric_scooter", "bike_id": "4fc0e32db4541a43a633470ef98014df", "is_reserved": 0, "rental_uris": {"ios": "https://dc.lft.to/lastmile_qr_scan", "android": "https://dc.lft.to/lastmile_qr_scan"}, "is_disabled": 0, "lon": -77.07035866666666, "name": "4fc0e32db4541a43a633470ef98014df", "fusion_lon": 0.0}, {"lat": 38.907352, "fusion_lat": 0.0, "type": "electric_scooter", "bike_id": "6fc86c288e23ed91a412054218dea34e", "is_reserved": 0, "rental_uris": {"ios": "https://dc.lft.to/lastmile_qr_scan", "android": "https://dc.lft.to/lastmile_qr_scan"}, "is_disabled": 0, "lon": -76.9862775, "name": "6fc86c288e23ed91a412054218dea34e", "fusion_lon": 0.0}, {"lat": 38.90596083333333, "fusion_lat": 0.0, "type": "electric_scooter", "bike_id": "adddc5700af7bba84e0ae965e5aad982", "is_reserved": 0, "rental_uris": {"ios": "https://dc.lft.to/lastmile_qr_scan", "android": "https://dc.lft.to/lastmile_qr_scan"}, "is_disabled": 0, "lon": -77.070071, "name": "adddc5700af7bba84e0ae965e5aad982", "fusion_lon": 0.0}, {"lat": 38.8973365, "fusion_lat": 0.0, "type": "electric_scooter", "bike_id": "f8d2173aafcc12e29396c746ee13896f", "is_reserved": 0, "rental_uris": {"ios": "https://dc.lft.to/lastmile_qr_scan", "android": "https://dc.lft.to/lastmile_qr_scan"}, "is_disabled": 0, "lon": -77.05474716666667, "name": "f8d2173aafcc12e29396c746ee13896f", "fusion_lon": 0.0}, {"lat": 38.876788166666664, "fusion_lat": 0.0, "type": "electric_scooter", "bike_id": "d79e48ef65b1cf5aeeda695e8d75a648", "is_reserved": 0, "rental_uris": {"ios": "https://dc.lft.to/lastmile_qr_scan", "android": "https://dc.lft.to/lastmile_qr_scan"}, "is_disabled": 0, "lon": -76.99824983333333, "name": "d79e48ef65b1cf5aeeda695e8d75a648", "fusion_lon": 0.0}, {"lat": 38.90952866666667, "fusion_lat": 0.0, "type": "electric_scooter", "bike_id": "d78bb04731460ce4e62b7e50aa59342d", "is_reserved": 0, "rental_uris": {"ios": "https://dc.lft.to/lastmile_qr_scan", "android": "https://dc.lft.to/lastmile_qr_scan"}, "is_disabled": 0, "lon": -77.03361883333334, "name": "d78bb04731460ce4e62b7e50aa59342d", "fusion_lon": 0.0}, {"lat": 38.897377666666664, "fusion_lat": 0.0, "type": "electric_scooter", "bike_id": "42ce2cd1b3dd7798163c84060f95315c", "is_reserved": 0, "rental_uris": {"ios": "https://dc.lft.to/lastmile_qr_scan", "android": "https://dc.lft.to/lastmile_qr_scan"}, "is_disabled": 0, "lon": -77.00766283333333, "name": "42ce2cd1b3dd7798163c84060f95315c", "fusion_lon": 0.0}, {"lat": 38.902590000000004, "fusion_lat": 0.0, "type": "electric_scooter", "bike_id": "824ba3ef142866e34b5f1fce91ddcf90", "is_reserved": 0, "rental_uris": {"ios": "https://dc.lft.to/lastmile_qr_scan", "android": "https://dc.lft.to/lastmile_qr_scan"}, "is_disabled": 0, "lon": -76.97550266666667, "name": "824ba3ef142866e34b5f1fce91ddcf90", "fusion_lon": 0.0}, {"lat": 38.967246, "fusion_lat": 0.0, "type": "electric_scooter", "bike_id": "2ab2b5f89a9c45d3a9591e4a43994625", "is_reserved": 0, "rental_uris": {"ios": "https://dc.lft.to/lastmile_qr_scan", "android": "https://dc.lft.to/lastmile_qr_scan"}, "is_disabled": 0, "lon": -77.01866866666667, "name": "2ab2b5f89a9c45d3a9591e4a43994625", "fusion_lon": 0.0}, {"lat": 38.93541533333333, "fusion_lat": 0.0, "type": "electric_scooter", "bike_id": "7f64a93e72c1ddf548533af703ae00a5", "is_reserved": 0, "rental_uris": {"ios": "https://dc.lft.to/lastmile_qr_scan", "android": "https://dc.lft.to/lastmile_qr_scan"}, "is_disabled": 0, "lon": -77.02346433333334, "name": "7f64a93e72c1ddf548533af703ae00a5", "fusion_lon": 0.0}, {"lat": 39.0398875, "fusion_lat": 0.0, "type": "electric_bike", "bike_id": "15155e064c855d060f2990230428fd31", "is_reserved": 0, "rental_uris": {"ios": "https://dc.lft.to/lastmile_qr_scan", "android": "https://dc.lft.to/lastmile_qr_scan"}, "is_disabled": 0, "lon": -76.999232, "name": "15155e064c855d060f2990230428fd31", "fusion_lon": 0.0}, {"lat": 38.912571, "fusion_lat": 0.0, "type": "electric_scooter", "bike_id": "6be1dd84f200e6e64c7ef165b09b9020", "is_reserved": 0, "rental_uris": {"ios": "https://dc.lft.to/lastmile_qr_scan", "android": "https://dc.lft.to/lastmile_qr_scan"}, "is_disabled": 0, "lon": -77.03826983333333, "name": "6be1dd84f200e6e64c7ef165b09b9020", "fusion_lon": 0.0}, {"lat": 38.88661483333333, "fusion_lat": 0.0, "type": "electric_bike", "bike_id": "f0e44a92d6ba66e46fa4143f28f84422", "is_reserved": 0, "rental_uris": {"ios": "https://dc.lft.to/lastmile_qr_scan", "android": "https://dc.lft.to/lastmile_qr_scan"}, "is_disabled": 0, "lon": -77.1624035, "name": "f0e44a92d6ba66e46fa4143f28f84422", "fusion_lon": 0.0}, {"lat": 38.90685933333334, "fusion_lat": 0.0, "type": "electric_scooter", "bike_id": "a2d3ef3efe5b8be88ff2c89b1e9211fa", "is_reserved": 0, "rental_uris": {"ios": "https://dc.lft.to/lastmile_qr_scan", "android": "https://dc.lft.to/lastmile_qr_scan"}, "is_disabled": 0, "lon": -77.05329433333333, "name": "a2d3ef3efe5b8be88ff2c89b1e9211fa", "fusion_lon": 0.0}, {"lat": 38.91291183333333, "fusion_lat": 0.0, "type": "electric_scooter", "bike_id": "b3bb23c9eca3c1c6d29adc3c2a6302f6", "is_reserved": 0, "rental_uris": {"ios": "https://dc.lft.to/lastmile_qr_scan", "android": "https://dc.lft.to/lastmile_qr_scan"}, "is_disabled": 0, "lon": -77.01974483333333, "name": "b3bb23c9eca3c1c6d29adc3c2a6302f6", "fusion_lon": 0.0}, {"lat": 38.91311816666666, "fusion_lat": 0.0, "type": "electric_scooter", "bike_id": "e02fc85ca12868f502cda80459cac5f5", "is_reserved": 0, "rental_uris": {"ios": "https://dc.lft.to/lastmile_qr_scan", "android": "https://dc.lft.to/lastmile_qr_scan"}, "is_disabled": 0, "lon": -77.041763, "name": "e02fc85ca12868f502cda80459cac5f5", "fusion_lon": 0.0}, {"lat": 38.93115983333333, "fusion_lat": 0.0, "type": "electric_scooter", "bike_id": "3d16b111c72aaf2caaa4038c400587fe", "is_reserved": 0, "rental_uris": {"ios": "https://dc.lft.to/lastmile_qr_scan", "android": "https://dc.lft.to/lastmile_qr_scan"}, "is_disabled": 0, "lon": -77.0209715, "name": "3d16b111c72aaf2caaa4038c400587fe", "fusion_lon": 0.0}, {"lat": 38.907744, "fusion_lat": 0.0, "type": "electric_scooter", "bike_id": "bfe8f6cf0ed13d2365f362d57cf356ac", "is_reserved": 0, "rental_uris": {"ios": "https://dc.lft.to/lastmile_qr_scan", "android": "https://dc.lft.to/lastmile_qr_scan"}, "is_disabled": 0, "lon": -77.02041983333334, "name": "bfe8f6cf0ed13d2365f362d57cf356ac", "fusion_lon": 0.0}, {"lat": 38.91262, "fusion_lat": 0.0, "type": "electric_scooter", "bike_id": "0b5b7d15906b755f9fef5a832c0cc6b5", "is_reserved": 0, "rental_uris": {"ios": "https://dc.lft.to/lastmile_qr_scan", "android": "https://dc.lft.to/lastmile_qr_scan"}, "is_disabled": 0, "lon": -77.044668, "name": "0b5b7d15906b755f9fef5a832c0cc6b5", "fusion_lon": 0.0}, {"lat": 38.90052333333333, "fusion_lat": 0.0, "type": "electric_scooter", "bike_id": "641c9a55e171ca9b4c0f65d56b99beac", "is_reserved": 0, "rental_uris": {"ios": "https://dc.lft.to/lastmile_qr_scan", "android": "https://dc.lft.to/lastmile_qr_scan"}, "is_disabled": 0, "lon": -77.04846533333334, "name": "641c9a55e171ca9b4c0f65d56b99beac", "fusion_lon": 0.0}, {"lat": 38.908272333333336, "fusion_lat": 0.0, "type": "electric_bike", "bike_id": "f4e7b11d488d3c940fcdc80aa69653b2", "is_reserved": 0, "rental_uris": {"ios": "https://dc.lft.to/lastmile_qr_scan", "android": "https://dc.lft.to/lastmile_qr_scan"}, "is_disabled": 0, "lon": -76.94154016666667, "name": "f4e7b11d488d3c940fcdc80aa69653b2", "fusion_lon": 0.0}, {"lat": 38.9287555, "fusion_lat": 0.0, "type": "electric_scooter", "bike_id": "d582eaf09e0785ea39026ee4c2ac82af", "is_reserved": 0, "rental_uris": {"ios": "https://dc.lft.to/lastmile_qr_scan", "android": "https://dc.lft.to/lastmile_qr_scan"}, "is_disabled": 0, "lon": -77.03441066666667, "name": "d582eaf09e0785ea39026ee4c2ac82af", "fusion_lon": 0.0}, {"lat": 38.862549, "fusion_lat": 0.0, "type": "electric_scooter", "bike_id": "d4e06ecd15f214d76e74ad9d72269657", "is_reserved": 0, "rental_uris": {"ios": "https://dc.lft.to/lastmile_qr_scan", "android": "https://dc.lft.to/lastmile_qr_scan"}, "is_disabled": 0, "lon": -76.99267883333333, "name": "d4e06ecd15f214d76e74ad9d72269657", "fusion_lon": 0.0}, {"lat": 38.87137383333334, "fusion_lat": 0.0, "type": "electric_scooter", "bike_id": "10331b80a50d337e2f546ba657b8d961", "is_reserved": 0, "rental_uris": {"ios": "https://dc.lft.to/lastmile_qr_scan", "android": "https://dc.lft.to/lastmile_qr_scan"}, "is_disabled": 0, "lon": -77.00756316666667, "name": "10331b80a50d337e2f546ba657b8d961", "fusion_lon": 0.0}, {"lat": 38.948974, "fusion_lat": 0.0, "type": "electric_bike", "bike_id": "078328d7cb4cbde234ca3fd158963cc5", "is_reserved": 0, "rental_uris": {"ios": "https://dc.lft.to/lastmile_qr_scan", "android": "https://dc.lft.to/lastmile_qr_scan"}, "is_disabled": 0, "lon": -76.963756, "name": "078328d7cb4cbde234ca3fd158963cc5", "fusion_lon": 0.0}, {"lat": 38.88530033333333, "fusion_lat": 0.0, "type": "electric_scooter", "bike_id": "e8977d8a6c5fd1c892f74e2cec074c6f", "is_reserved": 0, "rental_uris": {"ios": "https://dc.lft.to/lastmile_qr_scan", "android": "https://dc.lft.to/lastmile_qr_scan"}, "is_disabled": 0, "lon": -76.99115416666666, "name": "e8977d8a6c5fd1c892f74e2cec074c6f", "fusion_lon": 0.0}, {"lat": 38.90521783333333, "fusion_lat": 0.0, "type": "electric_scooter", "bike_id": "42caa99ccc46677ae5eab674aeadb6c2", "is_reserved": 0, "rental_uris": {"ios": "https://dc.lft.to/lastmile_qr_scan", "android": "https://dc.lft.to/lastmile_qr_scan"}, "is_disabled": 0, "lon": -77.0608265, "name": "42caa99ccc46677ae5eab674aeadb6c2", "fusion_lon": 0.0}, {"lat": 38.917474, "fusion_lat": 0.0, "type": "electric_scooter", "bike_id": "02bb46d5d5bc434ed0eefc81bc6b2a50", "is_reserved": 0, "rental_uris": {"ios": "https://dc.lft.to/lastmile_qr_scan", "android": "https://dc.lft.to/lastmile_qr_scan"}, "is_disabled": 0, "lon": -77.02492966666667, "name": "02bb46d5d5bc434ed0eefc81bc6b2a50", "fusion_lon": 0.0}, {"lat": 38.88404583333333, "fusion_lat": 0.0, "type": "electric_bike", "bike_id": "501d083930be9e411571a9b846d34238", "is_reserved": 0, "rental_uris": {"ios": "https://dc.lft.to/lastmile_qr_scan", "android": "https://dc.lft.to/lastmile_qr_scan"}, "is_disabled": 0, "lon": -76.96061983333334, "name": "501d083930be9e411571a9b846d34238", "fusion_lon": 0.0}, {"lat": 38.90406316666667, "fusion_lat": 0.0, "type": "electric_scooter", "bike_id": "bcd37dc279c46936cb7ead41f27a1ece", "is_reserved": 0, "rental_uris": {"ios": "https://dc.lft.to/lastmile_qr_scan", "android": "https://dc.lft.to/lastmile_qr_scan"}, "is_disabled": 0, "lon": -77.03264583333333, "name": "bcd37dc279c46936cb7ead41f27a1ece", "fusion_lon": 0.0}, {"lat": 38.91719233333333, "fusion_lat": 0.0, "type": "electric_scooter", "bike_id": "5041fdae353ef39850826171657e4f44", "is_reserved": 0, "rental_uris": {"ios": "https://dc.lft.to/lastmile_qr_scan", "android": "https://dc.lft.to/lastmile_qr_scan"}, "is_disabled": 0, "lon": -77.025117, "name": "5041fdae353ef39850826171657e4f44", "fusion_lon": 0.0}, {"lat": 38.901651666666666, "fusion_lat": 0.0, "type": "electric_scooter", "bike_id": "689b460103193c9a89fc7bd4ff00ac2f", "is_reserved": 0, "rental_uris": {"ios": "https://dc.lft.to/lastmile_qr_scan", "android": "https://dc.lft.to/lastmile_qr_scan"}, "is_disabled": 0, "lon": -77.0161605, "name": "689b460103193c9a89fc7bd4ff00ac2f", "fusion_lon": 0.0}, {"lat": 38.801185333333336, "fusion_lat": 0.0, "type": "electric_bike", "bike_id": "abf463dc3c0452cd64fd40a36392e41a", "is_reserved": 0, "rental_uris": {"ios": "https://dc.lft.to/lastmile_qr_scan", "android": "https://dc.lft.to/lastmile_qr_scan"}, "is_disabled": 0, "lon": -77.07047833333333, "name": "abf463dc3c0452cd64fd40a36392e41a", "fusion_lon": 0.0}, {"lat": 38.909849, "fusion_lat": 0.0, "type": "electric_scooter", "bike_id": "17ce33cdf2d216d70bc12361d2ba7979", "is_reserved": 0, "rental_uris": {"ios": "https://dc.lft.to/lastmile_qr_scan", "android": "https://dc.lft.to/lastmile_qr_scan"}, "is_disabled": 0, "lon": -77.03363966666667, "name": "17ce33cdf2d216d70bc12361d2ba7979", "fusion_lon": 0.0}, {"lat": 38.918603833333336, "fusion_lat": 0.0, "type": "electric_scooter", "bike_id": "954d8e2f74ab072c022e11fc3020434b", "is_reserved": 0, "rental_uris": {"ios": "https://dc.lft.to/lastmile_qr_scan", "android": "https://dc.lft.to/lastmile_qr_scan"}, "is_disabled": 0, "lon": -77.04189516666666, "name": "954d8e2f74ab072c022e11fc3020434b", "fusion_lon": 0.0}, {"lat": 38.8314375, "fusion_lat": 0.0, "type": "electric_scooter", "bike_id": "7d607d4f44e5f5ee503d5c087e1baf10", "is_reserved": 0, "rental_uris": {"ios": "https://dc.lft.to/lastmile_qr_scan", "android": "https://dc.lft.to/lastmile_qr_scan"}, "is_disabled": 0, "lon": -77.051218, "name": "7d607d4f44e5f5ee503d5c087e1baf10", "fusion_lon": 0.0}, {"lat": 38.87939933333333, "fusion_lat": 0.0, "type": "electric_scooter", "bike_id": "c62387a895ca9db8124811ad716e47fa", "is_reserved": 0, "rental_uris": {"ios": "https://dc.lft.to/lastmile_qr_scan", "android": "https://dc.lft.to/lastmile_qr_scan"}, "is_disabled": 0, "lon": -77.00063666666667, "name": "c62387a895ca9db8124811ad716e47fa", "fusion_lon": 0.0}, {"lat": 38.899614666666665, "fusion_lat": 0.0, "type": "electric_bike", "bike_id": "c0b3ffcdcb9cf16909d9e959b9afd39f", "is_reserved": 0, "rental_uris": {"ios": "https://dc.lft.to/lastmile_qr_scan", "android": "https://dc.lft.to/lastmile_qr_scan"}, "is_disabled": 0, "lon": -76.98676566666667, "name": "c0b3ffcdcb9cf16909d9e959b9afd39f", "fusion_lon": 0.0}, {"lat": 38.907338333333335, "fusion_lat": 0.0, "type": "electric_scooter", "bike_id": "3b95b9a6fb3391a81d46eca539a851e7", "is_reserved": 0, "rental_uris": {"ios": "https://dc.lft.to/lastmile_qr_scan", "android": "https://dc.lft.to/lastmile_qr_scan"}, "is_disabled": 0, "lon": -76.97971366666667, "name": "3b95b9a6fb3391a81d46eca539a851e7", "fusion_lon": 0.0}, {"lat": 38.87393266666667, "fusion_lat": 0.0, "type": "electric_scooter", "bike_id": "873a93fd7c39990d1f6219f074f588cb", "is_reserved": 0, "rental_uris": {"ios": "https://dc.lft.to/lastmile_qr_scan", "android": "https://dc.lft.to/lastmile_qr_scan"}, "is_disabled": 0, "lon": -77.00142816666667, "name": "873a93fd7c39990d1f6219f074f588cb", "fusion_lon": 0.0}, {"lat": 38.863903666666666, "fusion_lat": 0.0, "type": "electric_scooter", "bike_id": "26daa35078774528dd5ce25d5182255d", "is_reserved": 0, "rental_uris": {"ios": "https://dc.lft.to/lastmile_qr_scan", "android": "https://dc.lft.to/lastmile_qr_scan"}, "is_disabled": 0, "lon": -76.99043033333334, "name": "26daa35078774528dd5ce25d5182255d", "fusion_lon": 0.0}, {"lat": 38.90575116666667, "fusion_lat": 0.0, "type": "electric_scooter", "bike_id": "558848c5e268960114cb8c678a429148", "is_reserved": 0, "rental_uris": {"ios": "https://dc.lft.to/lastmile_qr_scan", "android": "https://dc.lft.to/lastmile_qr_scan"}, "is_disabled": 0, "lon": -77.04174033333334, "name": "558848c5e268960114cb8c678a429148", "fusion_lon": 0.0}, {"lat": 38.900491333333335, "fusion_lat": 0.0, "type": "electric_scooter", "bike_id": "164f0e449f65f6ef0a90e57b9a9304fd", "is_reserved": 0, "rental_uris": {"ios": "https://dc.lft.to/lastmile_qr_scan", "android": "https://dc.lft.to/lastmile_qr_scan"}, "is_disabled": 0, "lon": -76.9193465, "name": "164f0e449f65f6ef0a90e57b9a9304fd", "fusion_lon": 0.0}, {"lat": 38.899860833333335, "fusion_lat": 0.0, "type": "electric_scooter", "bike_id": "aa8ff21ab35ecc9a4f5c58f76bd5165d", "is_reserved": 0, "rental_uris": {"ios": "https://dc.lft.to/lastmile_qr_scan", "android": "https://dc.lft.to/lastmile_qr_scan"}, "is_disabled": 0, "lon": -76.95000666666667, "name": "aa8ff21ab35ecc9a4f5c58f76bd5165d", "fusion_lon": 0.0}, {"lat": 38.9168, "fusion_lat": 0.0, "type": "electric_scooter", "bike_id": "c9ddf6ceb942d499f4ae4ca1c55b7e34", "is_reserved": 0, "rental_uris": {"ios": "https://dc.lft.to/lastmile_qr_scan", "android": "https://dc.lft.to/lastmile_qr_scan"}, "is_disabled": 0, "lon": -77.029792, "name": "c9ddf6ceb942d499f4ae4ca1c55b7e34", "fusion_lon": 0.0}, {"lat": 38.920668666666664, "fusion_lat": 0.0, "type": "electric_scooter", "bike_id": "96c1c733aecd72c02ca971299fd31505", "is_reserved": 0, "rental_uris": {"ios": "https://dc.lft.to/lastmile_qr_scan", "android": "https://dc.lft.to/lastmile_qr_scan"}, "is_disabled": 0, "lon": -77.0271025, "name": "96c1c733aecd72c02ca971299fd31505", "fusion_lon": 0.0}, {"lat": 38.85892466666667, "fusion_lat": 0.0, "type": "electric_scooter", "bike_id": "18c8ce37e9b52e7ba30d661ef4c53699", "is_reserved": 0, "rental_uris": {"ios": "https://dc.lft.to/lastmile_qr_scan", "android": "https://dc.lft.to/lastmile_qr_scan"}, "is_disabled": 0, "lon": -76.997234, "name": "18c8ce37e9b52e7ba30d661ef4c53699", "fusion_lon": 0.0}, {"lat": 38.93170083333333, "fusion_lat": 0.0, "type": "electric_scooter", "bike_id": "50dd68b4b83956461d8c0871dcd96e07", "is_reserved": 0, "rental_uris": {"ios": "https://dc.lft.to/lastmile_qr_scan", "android": "https://dc.lft.to/lastmile_qr_scan"}, "is_disabled": 0, "lon": -77.0281965, "name": "50dd68b4b83956461d8c0871dcd96e07", "fusion_lon": 0.0}, {"lat": 38.91638533333333, "fusion_lat": 0.0, "type": "electric_scooter", "bike_id": "4b8b3c6205bd9e10208822f7a4c95ee4", "is_reserved": 0, "rental_uris": {"ios": "https://dc.lft.to/lastmile_qr_scan", "android": "https://dc.lft.to/lastmile_qr_scan"}, "is_disabled": 0, "lon": -77.03972316666666, "name": "4b8b3c6205bd9e10208822f7a4c95ee4", "fusion_lon": 0.0}, {"lat": 38.8851715, "fusion_lat": 0.0, "type": "electric_scooter", "bike_id": "f308ff97f97d0931402b81de8bbf919e", "is_reserved": 0, "rental_uris": {"ios": "https://dc.lft.to/lastmile_qr_scan", "android": "https://dc.lft.to/lastmile_qr_scan"}, "is_disabled": 0, "lon": -77.02198933333334, "name": "f308ff97f97d0931402b81de8bbf919e", "fusion_lon": 0.0}, {"lat": 38.92944333333333, "fusion_lat": 0.0, "type": "electric_scooter", "bike_id": "342daedac54cc102ab25dc28a9fe3d01", "is_reserved": 0, "rental_uris": {"ios": "https://dc.lft.to/lastmile_qr_scan", "android": "https://dc.lft.to/lastmile_qr_scan"}, "is_disabled": 0, "lon": -77.01987866666667, "name": "342daedac54cc102ab25dc28a9fe3d01", "fusion_lon": 0.0}, {"lat": 38.930824, "fusion_lat": 0.0, "type": "electric_scooter", "bike_id": "2b79cbeac8847c8a20cf78c46c9e6824", "is_reserved": 0, "rental_uris": {"ios": "https://dc.lft.to/lastmile_qr_scan", "android": "https://dc.lft.to/lastmile_qr_scan"}, "is_disabled": 0, "lon": -77.0280735, "name": "2b79cbeac8847c8a20cf78c46c9e6824", "fusion_lon": 0.0}, {"lat": 38.87884733333333, "fusion_lat": 0.0, "type": "electric_bike", "bike_id": "344450d959f581ba1d3e409e8ab004e1", "is_reserved": 0, "rental_uris": {"ios": "https://dc.lft.to/lastmile_qr_scan", "android": "https://dc.lft.to/lastmile_qr_scan"}, "is_disabled": 0, "lon": -77.0961145, "name": "344450d959f581ba1d3e409e8ab004e1", "fusion_lon": 0.0}, {"lat": 38.898505166666666, "fusion_lat": 0.0, "type": "electric_scooter", "bike_id": "87a16d75665ad3a3717394c63c1e73ac", "is_reserved": 0, "rental_uris": {"ios": "https://dc.lft.to/lastmile_qr_scan", "android": "https://dc.lft.to/lastmile_qr_scan"}, "is_disabled": 0, "lon": -77.03384933333334, "name": "87a16d75665ad3a3717394c63c1e73ac", "fusion_lon": 0.0}, {"lat": 38.92795666666667, "fusion_lat": 0.0, "type": "electric_scooter", "bike_id": "9df6391f038a24cbe93fda8e4211ea9a", "is_reserved": 0, "rental_uris": {"ios": "https://dc.lft.to/lastmile_qr_scan", "android": "https://dc.lft.to/lastmile_qr_scan"}, "is_disabled": 0, "lon": -77.02206416666667, "name": "9df6391f038a24cbe93fda8e4211ea9a", "fusion_lon": 0.0}, {"lat": 38.897718166666664, "fusion_lat": 0.0, "type": "electric_scooter", "bike_id": "6c3192254581f28fe99858c48b548064", "is_reserved": 0, "rental_uris": {"ios": "https://dc.lft.to/lastmile_qr_scan", "android": "https://dc.lft.to/lastmile_qr_scan"}, "is_disabled": 0, "lon": -77.009133, "name": "6c3192254581f28fe99858c48b548064", "fusion_lon": 0.0}, {"lat": 38.915647, "fusion_lat": 0.0, "type": "electric_scooter", "bike_id": "105f30641f9789105f309d37966bfa53", "is_reserved": 0, "rental_uris": {"ios": "https://dc.lft.to/lastmile_qr_scan", "android": "https://dc.lft.to/lastmile_qr_scan"}, "is_disabled": 0, "lon": -77.0323935, "name": "105f30641f9789105f309d37966bfa53", "fusion_lon": 0.0}, {"lat": 38.917696666666664, "fusion_lat": 0.0, "type": "electric_scooter", "bike_id": "412f2eb8e8d7d4614b9e8fba7a7830d0", "is_reserved": 0, "rental_uris": {"ios": "https://dc.lft.to/lastmile_qr_scan", "android": "https://dc.lft.to/lastmile_qr_scan"}, "is_disabled": 0, "lon": -77.040595, "name": "412f2eb8e8d7d4614b9e8fba7a7830d0", "fusion_lon": 0.0}, {"lat": 38.911336, "fusion_lat": 0.0, "type": "electric_scooter", "bike_id": "454b9c400baeab5271c00da6fc228210", "is_reserved": 0, "rental_uris": {"ios": "https://dc.lft.to/lastmile_qr_scan", "android": "https://dc.lft.to/lastmile_qr_scan"}, "is_disabled": 0, "lon": -77.03202833333333, "name": "454b9c400baeab5271c00da6fc228210", "fusion_lon": 0.0}, {"lat": 38.897204, "fusion_lat": 0.0, "type": "electric_scooter", "bike_id": "b8e908fce40a91d94d7f92719c268e9e", "is_reserved": 0, "rental_uris": {"ios": "https://dc.lft.to/lastmile_qr_scan", "android": "https://dc.lft.to/lastmile_qr_scan"}, "is_disabled": 0, "lon": -77.02123, "name": "b8e908fce40a91d94d7f92719c268e9e", "fusion_lon": 0.0}, {"lat": 38.936880333333335, "fusion_lat": 0.0, "type": "electric_scooter", "bike_id": "57db032a0c0f373c2bcb180e8e35d179", "is_reserved": 0, "rental_uris": {"ios": "https://dc.lft.to/lastmile_qr_scan", "android": "https://dc.lft.to/lastmile_qr_scan"}, "is_disabled": 0, "lon": -77.03279966666666, "name": "57db032a0c0f373c2bcb180e8e35d179", "fusion_lon": 0.0}, {"lat": 38.8925205, "fusion_lat": 0.0, "type": "electric_bike", "bike_id": "ea5b3e5c188dd4de3b92506205cbaf39", "is_reserved": 0, "rental_uris": {"ios": "https://dc.lft.to/lastmile_qr_scan", "android": "https://dc.lft.to/lastmile_qr_scan"}, "is_disabled": 0, "lon": -77.00236466666667, "name": "ea5b3e5c188dd4de3b92506205cbaf39", "fusion_lon": 0.0}, {"lat": 38.948041, "fusion_lat": 0.0, "type": "electric_scooter", "bike_id": "0765754f24089eda3e4fb6889df7ea48", "is_reserved": 0, "rental_uris": {"ios": "https://dc.lft.to/lastmile_qr_scan", "android": "https://dc.lft.to/lastmile_qr_scan"}, "is_disabled": 0, "lon": -77.080147, "name": "0765754f24089eda3e4fb6889df7ea48", "fusion_lon": 0.0}, {"lat": 39.0527875, "fusion_lat": 0.0, "type": "electric_bike", "bike_id": "74d05c2518780a32e8ede216ec724136", "is_reserved": 0, "rental_uris": {"ios": "https://dc.lft.to/lastmile_qr_scan", "android": "https://dc.lft.to/lastmile_qr_scan"}, "is_disabled": 0, "lon": -77.08067266666667, "name": "74d05c2518780a32e8ede216ec724136", "fusion_lon": 0.0}, {"lat": 38.901539, "fusion_lat": 0.0, "type": "electric_scooter", "bike_id": "426cffd39f00ae700e504b0e4b8f0cad", "is_reserved": 0, "rental_uris": {"ios": "https://dc.lft.to/lastmile_qr_scan", "android": "https://dc.lft.to/lastmile_qr_scan"}, "is_disabled": 0, "lon": -77.04137, "name": "426cffd39f00ae700e504b0e4b8f0cad", "fusion_lon": 0.0}, {"lat": 38.8710505, "fusion_lat": 0.0, "type": "electric_scooter", "bike_id": "386da9a8d55dcbcc6e6d4d823201de91", "is_reserved": 0, "rental_uris": {"ios": "https://dc.lft.to/lastmile_qr_scan", "android": "https://dc.lft.to/lastmile_qr_scan"}, "is_disabled": 0, "lon": -76.96573766666667, "name": "386da9a8d55dcbcc6e6d4d823201de91", "fusion_lon": 0.0}, {"lat": 38.91469683333333, "fusion_lat": 0.0, "type": "electric_scooter", "bike_id": "7ca74016ad61418dee30d2c03426e5df", "is_reserved": 0, "rental_uris": {"ios": "https://dc.lft.to/lastmile_qr_scan", "android": "https://dc.lft.to/lastmile_qr_scan"}, "is_disabled": 0, "lon": -76.984181, "name": "7ca74016ad61418dee30d2c03426e5df", "fusion_lon": 0.0}, {"lat": 38.91704033333333, "fusion_lat": 0.0, "type": "electric_scooter", "bike_id": "234ebee66a643e59a266847942a82bc5", "is_reserved": 0, "rental_uris": {"ios": "https://dc.lft.to/lastmile_qr_scan", "android": "https://dc.lft.to/lastmile_qr_scan"}, "is_disabled": 0, "lon": -77.006555, "name": "234ebee66a643e59a266847942a82bc5", "fusion_lon": 0.0}, {"lat": 38.86700666666667, "fusion_lat": 0.0, "type": "electric_scooter", "bike_id": "ba92735feaff34650e08fbcbb2328482", "is_reserved": 0, "rental_uris": {"ios": "https://dc.lft.to/lastmile_qr_scan", "android": "https://dc.lft.to/lastmile_qr_scan"}, "is_disabled": 0, "lon": -76.98715383333334, "name": "ba92735feaff34650e08fbcbb2328482", "fusion_lon": 0.0}, {"lat": 38.915461, "fusion_lat": 0.0, "type": "electric_scooter", "bike_id": "598a3117f15c18881e3b95013e4182f9", "is_reserved": 0, "rental_uris": {"ios": "https://dc.lft.to/lastmile_qr_scan", "android": "https://dc.lft.to/lastmile_qr_scan"}, "is_disabled": 0, "lon": -76.98363983333333, "name": "598a3117f15c18881e3b95013e4182f9", "fusion_lon": 0.0}, {"lat": 38.878286, "fusion_lat": 0.0, "type": "electric_scooter", "bike_id": "db9a1ecfc3266ad6083e25b7ebe4d7af", "is_reserved": 0, "rental_uris": {"ios": "https://dc.lft.to/lastmile_qr_scan", "android": "https://dc.lft.to/lastmile_qr_scan"}, "is_disabled": 0, "lon": -76.9631015, "name": "db9a1ecfc3266ad6083e25b7ebe4d7af", "fusion_lon": 0.0}, {"lat": 38.940909833333336, "fusion_lat": 0.0, "type": "electric_scooter", "bike_id": "0fbc115f0cd3cef3298d726a89da6928", "is_reserved": 0, "rental_uris": {"ios": "https://dc.lft.to/lastmile_qr_scan", "android": "https://dc.lft.to/lastmile_qr_scan"}, "is_disabled": 0, "lon": -77.02717383333334, "name": "0fbc115f0cd3cef3298d726a89da6928", "fusion_lon": 0.0}, {"lat": 38.897454833333335, "fusion_lat": 0.0, "type": "electric_scooter", "bike_id": "cd8b02c26ca40c2a0cd3f4df8006919f", "is_reserved": 0, "rental_uris": {"ios": "https://dc.lft.to/lastmile_qr_scan", "android": "https://dc.lft.to/lastmile_qr_scan"}, "is_disabled": 0, "lon": -77.00774583333333, "name": "cd8b02c26ca40c2a0cd3f4df8006919f", "fusion_lon": 0.0}, {"lat": 38.87427433333333, "fusion_lat": 0.0, "type": "electric_scooter", "bike_id": "2d17577f995f3142c404c90083c25f38", "is_reserved": 0, "rental_uris": {"ios": "https://dc.lft.to/lastmile_qr_scan", "android": "https://dc.lft.to/lastmile_qr_scan"}, "is_disabled": 0, "lon": -77.0005545, "name": "2d17577f995f3142c404c90083c25f38", "fusion_lon": 0.0}, {"lat": 38.904478166666664, "fusion_lat": 0.0, "type": "electric_scooter", "bike_id": "d50a3e90052ec49aeeace04c1b39842e", "is_reserved": 0, "rental_uris": {"ios": "https://dc.lft.to/lastmile_qr_scan", "android": "https://dc.lft.to/lastmile_qr_scan"}, "is_disabled": 0, "lon": -77.01739233333333, "name": "d50a3e90052ec49aeeace04c1b39842e", "fusion_lon": 0.0}, {"lat": 38.90190916666667, "fusion_lat": 0.0, "type": "electric_scooter", "bike_id": "c77c56ec3e1c6ff9f4ea54df4d8dd734", "is_reserved": 0, "rental_uris": {"ios": "https://dc.lft.to/lastmile_qr_scan", "android": "https://dc.lft.to/lastmile_qr_scan"}, "is_disabled": 0, "lon": -77.01301016666666, "name": "c77c56ec3e1c6ff9f4ea54df4d8dd734", "fusion_lon": 0.0}, {"lat": 38.9094625, "fusion_lat": 0.0, "type": "electric_scooter", "bike_id": "d10c1ae248c45fc7552d303a78051747", "is_reserved": 0, "rental_uris": {"ios": "https://dc.lft.to/lastmile_qr_scan", "android": "https://dc.lft.to/lastmile_qr_scan"}, "is_disabled": 0, "lon": -77.0319995, "name": "d10c1ae248c45fc7552d303a78051747", "fusion_lon": 0.0}, {"lat": 38.87198983333333, "fusion_lat": 0.0, "type": "electric_scooter", "bike_id": "df1a88f36b59d27a72447465f1a23642", "is_reserved": 0, "rental_uris": {"ios": "https://dc.lft.to/lastmile_qr_scan", "android": "https://dc.lft.to/lastmile_qr_scan"}, "is_disabled": 0, "lon": -77.009335, "name": "df1a88f36b59d27a72447465f1a23642", "fusion_lon": 0.0}, {"lat": 38.92052433333333, "fusion_lat": 0.0, "type": "electric_scooter", "bike_id": "93c428caaea3a41a04c249c4f0bac9cd", "is_reserved": 0, "rental_uris": {"ios": "https://dc.lft.to/lastmile_qr_scan", "android": "https://dc.lft.to/lastmile_qr_scan"}, "is_disabled": 0, "lon": -77.02401166666667, "name": "93c428caaea3a41a04c249c4f0bac9cd", "fusion_lon": 0.0}, {"lat": 38.90244833333333, "fusion_lat": 0.0, "type": "electric_scooter", "bike_id": "7117d7f2f37a41799cb2de055e966867", "is_reserved": 0, "rental_uris": {"ios": "https://dc.lft.to/lastmile_qr_scan", "android": "https://dc.lft.to/lastmile_qr_scan"}, "is_disabled": 0, "lon": -77.03461433333334, "name": "7117d7f2f37a41799cb2de055e966867", "fusion_lon": 0.0}, {"lat": 38.9186855, "fusion_lat": 0.0, "type": "electric_scooter", "bike_id": "6c24c780fd6a52330bf30fd1bd02cc77", "is_reserved": 0, "rental_uris": {"ios": "https://dc.lft.to/lastmile_qr_scan", "android": "https://dc.lft.to/lastmile_qr_scan"}, "is_disabled": 0, "lon": -77.041606, "name": "6c24c780fd6a52330bf30fd1bd02cc77", "fusion_lon": 0.0}, {"lat": 39.014822833333334, "fusion_lat": 0.0, "type": "electric_bike", "bike_id": "1621077a1c48c2995439f5cb9141b85e", "is_reserved": 0, "rental_uris": {"ios": "https://dc.lft.to/lastmile_qr_scan", "android": "https://dc.lft.to/lastmile_qr_scan"}, "is_disabled": 0, "lon": -77.05494016666667, "name": "1621077a1c48c2995439f5cb9141b85e", "fusion_lon": 0.0}, {"lat": 38.92875383333333, "fusion_lat": 0.0, "type": "electric_scooter", "bike_id": "766c4ae76d44a339e3173317f56fd1d0", "is_reserved": 0, "rental_uris": {"ios": "https://dc.lft.to/lastmile_qr_scan", "android": "https://dc.lft.to/lastmile_qr_scan"}, "is_disabled": 0, "lon": -77.012324, "name": "766c4ae76d44a339e3173317f56fd1d0", "fusion_lon": 0.0}, {"lat": 38.91774566666667, "fusion_lat": 0.0, "type": "electric_scooter", "bike_id": "17235a8a77a98ec2373608170a148aa3", "is_reserved": 0, "rental_uris": {"ios": "https://dc.lft.to/lastmile_qr_scan", "android": "https://dc.lft.to/lastmile_qr_scan"}, "is_disabled": 0, "lon": -77.03577483333333, "name": "17235a8a77a98ec2373608170a148aa3", "fusion_lon": 0.0}, {"lat": 38.91197116666667, "fusion_lat": 0.0, "type": "electric_scooter", "bike_id": "9345eed9324c43a82801a3e83d7b1b1d", "is_reserved": 0, "rental_uris": {"ios": "https://dc.lft.to/lastmile_qr_scan", "android": "https://dc.lft.to/lastmile_qr_scan"}, "is_disabled": 0, "lon": -77.02346366666667, "name": "9345eed9324c43a82801a3e83d7b1b1d", "fusion_lon": 0.0}, {"lat": 38.907162166666666, "fusion_lat": 0.0, "type": "electric_scooter", "bike_id": "a7a39fc1ff9210c8d541b7d60f4cda46", "is_reserved": 0, "rental_uris": {"ios": "https://dc.lft.to/lastmile_qr_scan", "android": "https://dc.lft.to/lastmile_qr_scan"}, "is_disabled": 0, "lon": -77.03186183333334, "name": "a7a39fc1ff9210c8d541b7d60f4cda46", "fusion_lon": 0.0}, {"lat": 38.907828, "fusion_lat": 0.0, "type": "electric_scooter", "bike_id": "d1e877b0a0477eeb30db1e6d70377905", "is_reserved": 0, "rental_uris": {"ios": "https://dc.lft.to/lastmile_qr_scan", "android": "https://dc.lft.to/lastmile_qr_scan"}, "is_disabled": 0, "lon": -77.03828483333334, "name": "d1e877b0a0477eeb30db1e6d70377905", "fusion_lon": 0.0}, {"lat": 38.89607316666667, "fusion_lat": 0.0, "type": "electric_scooter", "bike_id": "03d87ead9b6dc977ca4ea5a82bef5a15", "is_reserved": 0, "rental_uris": {"ios": "https://dc.lft.to/lastmile_qr_scan", "android": "https://dc.lft.to/lastmile_qr_scan"}, "is_disabled": 0, "lon": -77.0544195, "name": "03d87ead9b6dc977ca4ea5a82bef5a15", "fusion_lon": 0.0}, {"lat": 38.917700333333336, "fusion_lat": 0.0, "type": "electric_scooter", "bike_id": "67340b791b73e7e1f8b7288526875a7b", "is_reserved": 0, "rental_uris": {"ios": "https://dc.lft.to/lastmile_qr_scan", "android": "https://dc.lft.to/lastmile_qr_scan"}, "is_disabled": 0, "lon": -77.040608, "name": "67340b791b73e7e1f8b7288526875a7b", "fusion_lon": 0.0}, {"lat": 38.8764125, "fusion_lat": 0.0, "type": "electric_scooter", "bike_id": "ae0fa945d5eff31ec64bbade772dba39", "is_reserved": 0, "rental_uris": {"ios": "https://dc.lft.to/lastmile_qr_scan", "android": "https://dc.lft.to/lastmile_qr_scan"}, "is_disabled": 0, "lon": -77.00453366666666, "name": "ae0fa945d5eff31ec64bbade772dba39", "fusion_lon": 0.0}, {"lat": 38.909496, "fusion_lat": 0.0, "type": "electric_scooter", "bike_id": "1a449cc3b6f01d5a60b1574356ba65c2", "is_reserved": 0, "rental_uris": {"ios": "https://dc.lft.to/lastmile_qr_scan", "android": "https://dc.lft.to/lastmile_qr_scan"}, "is_disabled": 0, "lon": -77.034462, "name": "1a449cc3b6f01d5a60b1574356ba65c2", "fusion_lon": 0.0}, {"lat": 38.906129, "fusion_lat": 0.0, "type": "electric_scooter", "bike_id": "9841a8fd7228ffbd45b734a66f613036", "is_reserved": 0, "rental_uris": {"ios": "https://dc.lft.to/lastmile_qr_scan", "android": "https://dc.lft.to/lastmile_qr_scan"}, "is_disabled": 0, "lon": -77.04150183333333, "name": "9841a8fd7228ffbd45b734a66f613036", "fusion_lon": 0.0}, {"lat": 38.932285, "fusion_lat": 0.0, "type": "electric_bike", "bike_id": "df3a777d2d26c948d164a9b98cfb7344", "is_reserved": 0, "rental_uris": {"ios": "https://dc.lft.to/lastmile_qr_scan", "android": "https://dc.lft.to/lastmile_qr_scan"}, "is_disabled": 0, "lon": -77.181201, "name": "df3a777d2d26c948d164a9b98cfb7344", "fusion_lon": 0.0}, {"lat": 38.91346016666667, "fusion_lat": 0.0, "type": "electric_scooter", "bike_id": "98f242d20d897e681f57334f21148131", "is_reserved": 0, "rental_uris": {"ios": "https://dc.lft.to/lastmile_qr_scan", "android": "https://dc.lft.to/lastmile_qr_scan"}, "is_disabled": 0, "lon": -77.03256766666667, "name": "98f242d20d897e681f57334f21148131", "fusion_lon": 0.0}, {"lat": 38.86622166666667, "fusion_lat": 0.0, "type": "electric_scooter", "bike_id": "765f19c290f541d92ce8991f73f9196e", "is_reserved": 0, "rental_uris": {"ios": "https://dc.lft.to/lastmile_qr_scan", "android": "https://dc.lft.to/lastmile_qr_scan"}, "is_disabled": 0, "lon": -77.087854, "name": "765f19c290f541d92ce8991f73f9196e", "fusion_lon": 0.0}, {"lat": 38.93411366666667, "fusion_lat": 0.0, "type": "electric_scooter", "bike_id": "c086b72a43f6a6185605be50441acf8a", "is_reserved": 0, "rental_uris": {"ios": "https://dc.lft.to/lastmile_qr_scan", "android": "https://dc.lft.to/lastmile_qr_scan"}, "is_disabled": 0, "lon": -77.04151633333333, "name": "c086b72a43f6a6185605be50441acf8a", "fusion_lon": 0.0}, {"lat": 38.922433166666664, "fusion_lat": 0.0, "type": "electric_scooter", "bike_id": "d290fc8ee4aabd636621c564f4537755", "is_reserved": 0, "rental_uris": {"ios": "https://dc.lft.to/lastmile_qr_scan", "android": "https://dc.lft.to/lastmile_qr_scan"}, "is_disabled": 0, "lon": -77.0420745, "name": "d290fc8ee4aabd636621c564f4537755", "fusion_lon": 0.0}, {"lat": 38.91367283333334, "fusion_lat": 0.0, "type": "electric_scooter", "bike_id": "d85a193e81b01bdbcfcc308a046b4584", "is_reserved": 0, "rental_uris": {"ios": "https://dc.lft.to/lastmile_qr_scan", "android": "https://dc.lft.to/lastmile_qr_scan"}, "is_disabled": 0, "lon": -77.06618983333334, "name": "d85a193e81b01bdbcfcc308a046b4584", "fusion_lon": 0.0}, {"lat": 38.921362333333335, "fusion_lat": 0.0, "type": "electric_scooter", "bike_id": "98baa32aea506a1413b785bb2d31868b", "is_reserved": 0, "rental_uris": {"ios": "https://dc.lft.to/lastmile_qr_scan", "android": "https://dc.lft.to/lastmile_qr_scan"}, "is_disabled": 0, "lon": -77.0253125, "name": "98baa32aea506a1413b785bb2d31868b", "fusion_lon": 0.0}, {"lat": 38.89967983333333, "fusion_lat": 0.0, "type": "electric_scooter", "bike_id": "f7f14a8cba57d57cdd82b2bba4260a66", "is_reserved": 0, "rental_uris": {"ios": "https://dc.lft.to/lastmile_qr_scan", "android": "https://dc.lft.to/lastmile_qr_scan"}, "is_disabled": 0, "lon": -77.052697, "name": "f7f14a8cba57d57cdd82b2bba4260a66", "fusion_lon": 0.0}, {"lat": 38.900368, "fusion_lat": 0.0, "type": "electric_scooter", "bike_id": "4958e71be188077e964fa438779f8e2e", "is_reserved": 0, "rental_uris": {"ios": "https://dc.lft.to/lastmile_qr_scan", "android": "https://dc.lft.to/lastmile_qr_scan"}, "is_disabled": 0, "lon": -77.000977, "name": "4958e71be188077e964fa438779f8e2e", "fusion_lon": 0.0}, {"lat": 38.915582, "fusion_lat": 0.0, "type": "electric_scooter", "bike_id": "3dedcc633ca59980bf001fbca97d9453", "is_reserved": 0, "rental_uris": {"ios": "https://dc.lft.to/lastmile_qr_scan", "android": "https://dc.lft.to/lastmile_qr_scan"}, "is_disabled": 0, "lon": -77.0387245, "name": "3dedcc633ca59980bf001fbca97d9453", "fusion_lon": 0.0}, {"lat": 38.9021165, "fusion_lat": 0.0, "type": "electric_scooter", "bike_id": "66ba9dd28bb47165f0fc9b242159d133", "is_reserved": 0, "rental_uris": {"ios": "https://dc.lft.to/lastmile_qr_scan", "android": "https://dc.lft.to/lastmile_qr_scan"}, "is_disabled": 0, "lon": -77.06127266666667, "name": "66ba9dd28bb47165f0fc9b242159d133", "fusion_lon": 0.0}, {"lat": 38.911923, "fusion_lat": 0.0, "type": "electric_scooter", "bike_id": "0471c9129abd012af8bb56a57c281fd4", "is_reserved": 0, "rental_uris": {"ios": "https://dc.lft.to/lastmile_qr_scan", "android": "https://dc.lft.to/lastmile_qr_scan"}, "is_disabled": 0, "lon": -77.03286166666666, "name": "0471c9129abd012af8bb56a57c281fd4", "fusion_lon": 0.0}, {"lat": 38.90331966666667, "fusion_lat": 0.0, "type": "electric_scooter", "bike_id": "fa5a2db830beb283556c9e7a2e87a84d", "is_reserved": 0, "rental_uris": {"ios": "https://dc.lft.to/lastmile_qr_scan", "android": "https://dc.lft.to/lastmile_qr_scan"}, "is_disabled": 0, "lon": -76.97589233333333, "name": "fa5a2db830beb283556c9e7a2e87a84d", "fusion_lon": 0.0}, {"lat": 38.89722416666667, "fusion_lat": 0.0, "type": "electric_scooter", "bike_id": "3e6e4711eb22d858ce3cf35d33513b42", "is_reserved": 0, "rental_uris": {"ios": "https://dc.lft.to/lastmile_qr_scan", "android": "https://dc.lft.to/lastmile_qr_scan"}, "is_disabled": 0, "lon": -77.03329183333334, "name": "3e6e4711eb22d858ce3cf35d33513b42", "fusion_lon": 0.0}, {"lat": 38.917018166666665, "fusion_lat": 0.0, "type": "electric_scooter", "bike_id": "5e38e5690e1daf5c521000a50710b4ad", "is_reserved": 0, "rental_uris": {"ios": "https://dc.lft.to/lastmile_qr_scan", "android": "https://dc.lft.to/lastmile_qr_scan"}, "is_disabled": 0, "lon": -77.041729, "name": "5e38e5690e1daf5c521000a50710b4ad", "fusion_lon": 0.0}, {"lat": 38.870686666666664, "fusion_lat": 0.0, "type": "electric_scooter", "bike_id": "6d15094908a1cd86e5bd5ba0d2114d46", "is_reserved": 0, "rental_uris": {"ios": "https://dc.lft.to/lastmile_qr_scan", "android": "https://dc.lft.to/lastmile_qr_scan"}, "is_disabled": 0, "lon": -76.98921933333334, "name": "6d15094908a1cd86e5bd5ba0d2114d46", "fusion_lon": 0.0}, {"lat": 38.9237135, "fusion_lat": 0.0, "type": "electric_scooter", "bike_id": "2af8ffaaf556e489e5f408cd5f91ade7", "is_reserved": 0, "rental_uris": {"ios": "https://dc.lft.to/lastmile_qr_scan", "android": "https://dc.lft.to/lastmile_qr_scan"}, "is_disabled": 0, "lon": -77.04310683333334, "name": "2af8ffaaf556e489e5f408cd5f91ade7", "fusion_lon": 0.0}, {"lat": 38.89670566666667, "fusion_lat": 0.0, "type": "electric_scooter", "bike_id": "a8620b8fc5c855e6cbc9ea1ed0e285df", "is_reserved": 0, "rental_uris": {"ios": "https://dc.lft.to/lastmile_qr_scan", "android": "https://dc.lft.to/lastmile_qr_scan"}, "is_disabled": 0, "lon": -76.988186, "name": "a8620b8fc5c855e6cbc9ea1ed0e285df", "fusion_lon": 0.0}, {"lat": 38.92828733333333, "fusion_lat": 0.0, "type": "electric_scooter", "bike_id": "3f9086578a3be017bd21817463db41c4", "is_reserved": 0, "rental_uris": {"ios": "https://dc.lft.to/lastmile_qr_scan", "android": "https://dc.lft.to/lastmile_qr_scan"}, "is_disabled": 0, "lon": -77.022547, "name": "3f9086578a3be017bd21817463db41c4", "fusion_lon": 0.0}, {"lat": 38.9067845, "fusion_lat": 0.0, "type": "electric_scooter", "bike_id": "7be1ba73fa2d330b9d4dad38f2cd8217", "is_reserved": 0, "rental_uris": {"ios": "https://dc.lft.to/lastmile_qr_scan", "android": "https://dc.lft.to/lastmile_qr_scan"}, "is_disabled": 0, "lon": -77.07161566666667, "name": "7be1ba73fa2d330b9d4dad38f2cd8217", "fusion_lon": 0.0}, {"lat": 38.92106833333333, "fusion_lat": 0.0, "type": "electric_scooter", "bike_id": "e2dec4175d197c68484bb00e5151f692", "is_reserved": 0, "rental_uris": {"ios": "https://dc.lft.to/lastmile_qr_scan", "android": "https://dc.lft.to/lastmile_qr_scan"}, "is_disabled": 0, "lon": -77.03052183333334, "name": "e2dec4175d197c68484bb00e5151f692", "fusion_lon": 0.0}, {"lat": 38.919713333333334, "fusion_lat": 0.0, "type": "electric_scooter", "bike_id": "c8609b82b462a72f5835590f60e86bbd", "is_reserved": 0, "rental_uris": {"ios": "https://dc.lft.to/lastmile_qr_scan", "android": "https://dc.lft.to/lastmile_qr_scan"}, "is_disabled": 0, "lon": -77.03212016666667, "name": "c8609b82b462a72f5835590f60e86bbd", "fusion_lon": 0.0}, {"lat": 38.913642333333335, "fusion_lat": 0.0, "type": "electric_scooter", "bike_id": "9756623f5144a8314da69f9f63a1989c", "is_reserved": 0, "rental_uris": {"ios": "https://dc.lft.to/lastmile_qr_scan", "android": "https://dc.lft.to/lastmile_qr_scan"}, "is_disabled": 0, "lon": -77.0448625, "name": "9756623f5144a8314da69f9f63a1989c", "fusion_lon": 0.0}, {"lat": 38.90258266666667, "fusion_lat": 0.0, "type": "electric_scooter", "bike_id": "be65e53148fe86671e81fcc9c987fe12", "is_reserved": 0, "rental_uris": {"ios": "https://dc.lft.to/lastmile_qr_scan", "android": "https://dc.lft.to/lastmile_qr_scan"}, "is_disabled": 0, "lon": -77.03973566666667, "name": "be65e53148fe86671e81fcc9c987fe12", "fusion_lon": 0.0}, {"lat": 38.9046885, "fusion_lat": 0.0, "type": "electric_scooter", "bike_id": "bc46e7d67771bbc97190dfe1f2fee1e1", "is_reserved": 0, "rental_uris": {"ios": "https://dc.lft.to/lastmile_qr_scan", "android": "https://dc.lft.to/lastmile_qr_scan"}, "is_disabled": 0, "lon": -77.05354383333334, "name": "bc46e7d67771bbc97190dfe1f2fee1e1", "fusion_lon": 0.0}, {"lat": 38.887156833333336, "fusion_lat": 0.0, "type": "electric_scooter", "bike_id": "5f01c1222152431a352d72f7f6139f48", "is_reserved": 0, "rental_uris": {"ios": "https://dc.lft.to/lastmile_qr_scan", "android": "https://dc.lft.to/lastmile_qr_scan"}, "is_disabled": 0, "lon": -77.022084, "name": "5f01c1222152431a352d72f7f6139f48", "fusion_lon": 0.0}, {"lat": 38.863708333333335, "fusion_lat": 0.0, "type": "electric_scooter", "bike_id": "810ede8df603c17095be290ceb72ddad", "is_reserved": 0, "rental_uris": {"ios": "https://dc.lft.to/lastmile_qr_scan", "android": "https://dc.lft.to/lastmile_qr_scan"}, "is_disabled": 0, "lon": -76.99061333333333, "name": "810ede8df603c17095be290ceb72ddad", "fusion_lon": 0.0}, {"lat": 38.913143833333336, "fusion_lat": 0.0, "type": "electric_bike", "bike_id": "e76a7b5d3f9ae88fae2976226fb27fba", "is_reserved": 0, "rental_uris": {"ios": "https://dc.lft.to/lastmile_qr_scan", "android": "https://dc.lft.to/lastmile_qr_scan"}, "is_disabled": 0, "lon": -77.22314716666666, "name": "e76a7b5d3f9ae88fae2976226fb27fba", "fusion_lon": 0.0}, {"lat": 38.90391566666667, "fusion_lat": 0.0, "type": "electric_scooter", "bike_id": "3b318ecf05084f3c01704b48b2bdfc6c", "is_reserved": 0, "rental_uris": {"ios": "https://dc.lft.to/lastmile_qr_scan", "android": "https://dc.lft.to/lastmile_qr_scan"}, "is_disabled": 0, "lon": -77.01619183333334, "name": "3b318ecf05084f3c01704b48b2bdfc6c", "fusion_lon": 0.0}, {"lat": 38.90850783333333, "fusion_lat": 0.0, "type": "electric_scooter", "bike_id": "84f59d7de0dc8291543ec2d44f52d2d4", "is_reserved": 0, "rental_uris": {"ios": "https://dc.lft.to/lastmile_qr_scan", "android": "https://dc.lft.to/lastmile_qr_scan"}, "is_disabled": 0, "lon": -76.997969, "name": "84f59d7de0dc8291543ec2d44f52d2d4", "fusion_lon": 0.0}, {"lat": 38.8837235, "fusion_lat": 0.0, "type": "electric_scooter", "bike_id": "09acf3b2c4c8d4a60f29bc6e63960a41", "is_reserved": 0, "rental_uris": {"ios": "https://dc.lft.to/lastmile_qr_scan", "android": "https://dc.lft.to/lastmile_qr_scan"}, "is_disabled": 0, "lon": -76.99519033333333, "name": "09acf3b2c4c8d4a60f29bc6e63960a41", "fusion_lon": 0.0}, {"lat": 38.8668875, "fusion_lat": 0.0, "type": "electric_scooter", "bike_id": "30fe589fa5f55ced227daf610adda892", "is_reserved": 0, "rental_uris": {"ios": "https://dc.lft.to/lastmile_qr_scan", "android": "https://dc.lft.to/lastmile_qr_scan"}, "is_disabled": 0, "lon": -76.98560933333333, "name": "30fe589fa5f55ced227daf610adda892", "fusion_lon": 0.0}, {"lat": 38.915322833333335, "fusion_lat": 0.0, "type": "electric_scooter", "bike_id": "13729b78e3ef919f83ac30ff61d87c5c", "is_reserved": 0, "rental_uris": {"ios": "https://dc.lft.to/lastmile_qr_scan", "android": "https://dc.lft.to/lastmile_qr_scan"}, "is_disabled": 0, "lon": -77.03200533333333, "name": "13729b78e3ef919f83ac30ff61d87c5c", "fusion_lon": 0.0}, {"lat": 38.9109415, "fusion_lat": 0.0, "type": "electric_scooter", "bike_id": "cee5bdda8ea2a769079a50bdbe537b94", "is_reserved": 0, "rental_uris": {"ios": "https://dc.lft.to/lastmile_qr_scan", "android": "https://dc.lft.to/lastmile_qr_scan"}, "is_disabled": 0, "lon": -77.03203783333333, "name": "cee5bdda8ea2a769079a50bdbe537b94", "fusion_lon": 0.0}, {"lat": 38.91559566666667, "fusion_lat": 0.0, "type": "electric_scooter", "bike_id": "ca3a00dad7ad6133c8d111f2be71de73", "is_reserved": 0, "rental_uris": {"ios": "https://dc.lft.to/lastmile_qr_scan", "android": "https://dc.lft.to/lastmile_qr_scan"}, "is_disabled": 0, "lon": -77.03161516666667, "name": "ca3a00dad7ad6133c8d111f2be71de73", "fusion_lon": 0.0}, {"lat": 38.91679716666667, "fusion_lat": 0.0, "type": "electric_scooter", "bike_id": "52e9f130e6c5b081dfad9359a747f886", "is_reserved": 0, "rental_uris": {"ios": "https://dc.lft.to/lastmile_qr_scan", "android": "https://dc.lft.to/lastmile_qr_scan"}, "is_disabled": 0, "lon": -77.02409083333333, "name": "52e9f130e6c5b081dfad9359a747f886", "fusion_lon": 0.0}, {"lat": 38.897310166666664, "fusion_lat": 0.0, "type": "electric_scooter", "bike_id": "c068c38ce0f10eaff6b9c0df86d0e34d", "is_reserved": 0, "rental_uris": {"ios": "https://dc.lft.to/lastmile_qr_scan", "android": "https://dc.lft.to/lastmile_qr_scan"}, "is_disabled": 0, "lon": -77.0250195, "name": "c068c38ce0f10eaff6b9c0df86d0e34d", "fusion_lon": 0.0}, {"lat": 38.92657166666667, "fusion_lat": 0.0, "type": "electric_bike", "bike_id": "fe0727a90fe94ddd99699603a1afa67b", "is_reserved": 0, "rental_uris": {"ios": "https://dc.lft.to/lastmile_qr_scan", "android": "https://dc.lft.to/lastmile_qr_scan"}, "is_disabled": 0, "lon": -77.02416483333333, "name": "fe0727a90fe94ddd99699603a1afa67b", "fusion_lon": 0.0}, {"lat": 38.93686616666667, "fusion_lat": 0.0, "type": "electric_scooter", "bike_id": "9ab7bccde6cc82da06446628021c3153", "is_reserved": 0, "rental_uris": {"ios": "https://dc.lft.to/lastmile_qr_scan", "android": "https://dc.lft.to/lastmile_qr_scan"}, "is_disabled": 0, "lon": -77.03279516666667, "name": "9ab7bccde6cc82da06446628021c3153", "fusion_lon": 0.0}, {"lat": 38.91221733333333, "fusion_lat": 0.0, "type": "electric_scooter", "bike_id": "0dca36038faa8cf81a8edb45c691d2d6", "is_reserved": 0, "rental_uris": {"ios": "https://dc.lft.to/lastmile_qr_scan", "android": "https://dc.lft.to/lastmile_qr_scan"}, "is_disabled": 0, "lon": -77.04502033333333, "name": "0dca36038faa8cf81a8edb45c691d2d6", "fusion_lon": 0.0}, {"lat": 38.8360805, "fusion_lat": 0.0, "type": "electric_bike", "bike_id": "d676acc6b38f555720e40ab557e5a07b", "is_reserved": 0, "rental_uris": {"ios": "https://dc.lft.to/lastmile_qr_scan", "android": "https://dc.lft.to/lastmile_qr_scan"}, "is_disabled": 0, "lon": -77.00384983333333, "name": "d676acc6b38f555720e40ab557e5a07b", "fusion_lon": 0.0}, {"lat": 38.896243166666665, "fusion_lat": 0.0, "type": "electric_scooter", "bike_id": "16640c5154ee4c9b9378bc5119ca5495", "is_reserved": 0, "rental_uris": {"ios": "https://dc.lft.to/lastmile_qr_scan", "android": "https://dc.lft.to/lastmile_qr_scan"}, "is_disabled": 0, "lon": -77.00024316666666, "name": "16640c5154ee4c9b9378bc5119ca5495", "fusion_lon": 0.0}, {"lat": 38.861928166666665, "fusion_lat": 0.0, "type": "electric_bike", "bike_id": "26b167755130baec56d312c9d4b63326", "is_reserved": 0, "rental_uris": {"ios": "https://dc.lft.to/lastmile_qr_scan", "android": "https://dc.lft.to/lastmile_qr_scan"}, "is_disabled": 0, "lon": -76.94805316666667, "name": "26b167755130baec56d312c9d4b63326", "fusion_lon": 0.0}, {"lat": 38.8810125, "fusion_lat": 0.0, "type": "electric_scooter", "bike_id": "f688ad5e9ec38ba8a3c01429112aac5a", "is_reserved": 0, "rental_uris": {"ios": "https://dc.lft.to/lastmile_qr_scan", "android": "https://dc.lft.to/lastmile_qr_scan"}, "is_disabled": 0, "lon": -76.99510116666667, "name": "f688ad5e9ec38ba8a3c01429112aac5a", "fusion_lon": 0.0}, {"lat": 38.946161333333336, "fusion_lat": 0.0, "type": "electric_scooter", "bike_id": "42a0efa70edd02cb25e0d168eb8df88f", "is_reserved": 0, "rental_uris": {"ios": "https://dc.lft.to/lastmile_qr_scan", "android": "https://dc.lft.to/lastmile_qr_scan"}, "is_disabled": 0, "lon": -77.02655383333334, "name": "42a0efa70edd02cb25e0d168eb8df88f", "fusion_lon": 0.0}, {"lat": 38.910461166666664, "fusion_lat": 0.0, "type": "electric_scooter", "bike_id": "665edc1b383172e450f6211e01aa547e", "is_reserved": 0, "rental_uris": {"ios": "https://dc.lft.to/lastmile_qr_scan", "android": "https://dc.lft.to/lastmile_qr_scan"}, "is_disabled": 0, "lon": -77.03994866666666, "name": "665edc1b383172e450f6211e01aa547e", "fusion_lon": 0.0}, {"lat": 38.93917966666667, "fusion_lat": 0.0, "type": "electric_scooter", "bike_id": "aa66ab66c0ea438848ba59b276d31028", "is_reserved": 0, "rental_uris": {"ios": "https://dc.lft.to/lastmile_qr_scan", "android": "https://dc.lft.to/lastmile_qr_scan"}, "is_disabled": 0, "lon": -77.03265116666667, "name": "aa66ab66c0ea438848ba59b276d31028", "fusion_lon": 0.0}, {"lat": 38.92757916666667, "fusion_lat": 0.0, "type": "electric_scooter", "bike_id": "7c5c8289dc98e343447bc4a0afa70754", "is_reserved": 0, "rental_uris": {"ios": "https://dc.lft.to/lastmile_qr_scan", "android": "https://dc.lft.to/lastmile_qr_scan"}, "is_disabled": 0, "lon": -77.03277766666666, "name": "7c5c8289dc98e343447bc4a0afa70754", "fusion_lon": 0.0}, {"lat": 38.8961865, "fusion_lat": 0.0, "type": "electric_scooter", "bike_id": "6fe1958a96438f2a7b3c91ef061eebdf", "is_reserved": 0, "rental_uris": {"ios": "https://dc.lft.to/lastmile_qr_scan", "android": "https://dc.lft.to/lastmile_qr_scan"}, "is_disabled": 0, "lon": -76.98571933333334, "name": "6fe1958a96438f2a7b3c91ef061eebdf", "fusion_lon": 0.0}, {"lat": 38.91038566666667, "fusion_lat": 0.0, "type": "electric_scooter", "bike_id": "058c454fffbc4262980d859f84f16189", "is_reserved": 0, "rental_uris": {"ios": "https://dc.lft.to/lastmile_qr_scan", "android": "https://dc.lft.to/lastmile_qr_scan"}, "is_disabled": 0, "lon": -77.038402, "name": "058c454fffbc4262980d859f84f16189", "fusion_lon": 0.0}, {"lat": 38.917983, "fusion_lat": 0.0, "type": "electric_scooter", "bike_id": "d5a2757bca156e975c71de4414248c1a", "is_reserved": 0, "rental_uris": {"ios": "https://dc.lft.to/lastmile_qr_scan", "android": "https://dc.lft.to/lastmile_qr_scan"}, "is_disabled": 0, "lon": -77.04556166666667, "name": "d5a2757bca156e975c71de4414248c1a", "fusion_lon": 0.0}, {"lat": 38.903718, "fusion_lat": 0.0, "type": "electric_scooter", "bike_id": "74aa47dbb774ad1773e4452d387d1d99", "is_reserved": 0, "rental_uris": {"ios": "https://dc.lft.to/lastmile_qr_scan", "android": "https://dc.lft.to/lastmile_qr_scan"}, "is_disabled": 0, "lon": -77.04896883333333, "name": "74aa47dbb774ad1773e4452d387d1d99", "fusion_lon": 0.0}, {"lat": 38.923595166666665, "fusion_lat": 0.0, "type": "electric_scooter", "bike_id": "a0f4f29692d75aeedee66bf542324879", "is_reserved": 0, "rental_uris": {"ios": "https://dc.lft.to/lastmile_qr_scan", "android": "https://dc.lft.to/lastmile_qr_scan"}, "is_disabled": 0, "lon": -77.04155816666666, "name": "a0f4f29692d75aeedee66bf542324879", "fusion_lon": 0.0}, {"lat": 38.951989, "fusion_lat": 0.0, "type": "electric_scooter", "bike_id": "dbeac3dbd4ded266a05b0cb18eeeacb2", "is_reserved": 0, "rental_uris": {"ios": "https://dc.lft.to/lastmile_qr_scan", "android": "https://dc.lft.to/lastmile_qr_scan"}, "is_disabled": 0, "lon": -77.0273355, "name": "dbeac3dbd4ded266a05b0cb18eeeacb2", "fusion_lon": 0.0}, {"lat": 38.9091635, "fusion_lat": 0.0, "type": "electric_scooter", "bike_id": "5089e72d2d954878fe50c80a68cc321d", "is_reserved": 0, "rental_uris": {"ios": "https://dc.lft.to/lastmile_qr_scan", "android": "https://dc.lft.to/lastmile_qr_scan"}, "is_disabled": 0, "lon": -77.04205766666666, "name": "5089e72d2d954878fe50c80a68cc321d", "fusion_lon": 0.0}, {"lat": 38.901605833333335, "fusion_lat": 0.0, "type": "electric_scooter", "bike_id": "f0c574f2ec36801048fb64e437f233f7", "is_reserved": 0, "rental_uris": {"ios": "https://dc.lft.to/lastmile_qr_scan", "android": "https://dc.lft.to/lastmile_qr_scan"}, "is_disabled": 0, "lon": -77.00847466666667, "name": "f0c574f2ec36801048fb64e437f233f7", "fusion_lon": 0.0}, {"lat": 38.9052275, "fusion_lat": 0.0, "type": "electric_scooter", "bike_id": "0a4031c75bf7fe6b3891f66d7490ee65", "is_reserved": 0, "rental_uris": {"ios": "https://dc.lft.to/lastmile_qr_scan", "android": "https://dc.lft.to/lastmile_qr_scan"}, "is_disabled": 0, "lon": -77.04186833333333, "name": "0a4031c75bf7fe6b3891f66d7490ee65", "fusion_lon": 0.0}, {"lat": 38.900307166666664, "fusion_lat": 0.0, "type": "electric_scooter", "bike_id": "75c30c6fadfe6e9eb97456fb92c0e53b", "is_reserved": 0, "rental_uris": {"ios": "https://dc.lft.to/lastmile_qr_scan", "android": "https://dc.lft.to/lastmile_qr_scan"}, "is_disabled": 0, "lon": -76.98062916666666, "name": "75c30c6fadfe6e9eb97456fb92c0e53b", "fusion_lon": 0.0}, {"lat": 38.9115155, "fusion_lat": 0.0, "type": "electric_scooter", "bike_id": "35c1d39452f54883d3c52f79ce83d6d3", "is_reserved": 0, "rental_uris": {"ios": "https://dc.lft.to/lastmile_qr_scan", "android": "https://dc.lft.to/lastmile_qr_scan"}, "is_disabled": 0, "lon": -77.038379, "name": "35c1d39452f54883d3c52f79ce83d6d3", "fusion_lon": 0.0}, {"lat": 38.9211155, "fusion_lat": 0.0, "type": "electric_scooter", "bike_id": "09f399e41d5f37009dd758c6998991d8", "is_reserved": 0, "rental_uris": {"ios": "https://dc.lft.to/lastmile_qr_scan", "android": "https://dc.lft.to/lastmile_qr_scan"}, "is_disabled": 0, "lon": -77.03330783333334, "name": "09f399e41d5f37009dd758c6998991d8", "fusion_lon": 0.0}, {"lat": 38.902439333333334, "fusion_lat": 0.0, "type": "electric_scooter", "bike_id": "7e796e91b7102ff43f19dc8c05dbc0f7", "is_reserved": 0, "rental_uris": {"ios": "https://dc.lft.to/lastmile_qr_scan", "android": "https://dc.lft.to/lastmile_qr_scan"}, "is_disabled": 0, "lon": -76.97410066666667, "name": "7e796e91b7102ff43f19dc8c05dbc0f7", "fusion_lon": 0.0}, {"lat": 38.904832666666664, "fusion_lat": 0.0, "type": "electric_scooter", "bike_id": "dec62387dd6e90374896ebbf958b127c", "is_reserved": 0, "rental_uris": {"ios": "https://dc.lft.to/lastmile_qr_scan", "android": "https://dc.lft.to/lastmile_qr_scan"}, "is_disabled": 0, "lon": -77.03958183333333, "name": "dec62387dd6e90374896ebbf958b127c", "fusion_lon": 0.0}, {"lat": 38.933784833333334, "fusion_lat": 0.0, "type": "electric_scooter", "bike_id": "6ef6bf8436c798da019b0b436a2ae75d", "is_reserved": 0, "rental_uris": {"ios": "https://dc.lft.to/lastmile_qr_scan", "android": "https://dc.lft.to/lastmile_qr_scan"}, "is_disabled": 0, "lon": -77.05759133333333, "name": "6ef6bf8436c798da019b0b436a2ae75d", "fusion_lon": 0.0}, {"lat": 38.907723833333336, "fusion_lat": 0.0, "type": "electric_scooter", "bike_id": "47af14958a98ea40684a02a87913c06d", "is_reserved": 0, "rental_uris": {"ios": "https://dc.lft.to/lastmile_qr_scan", "android": "https://dc.lft.to/lastmile_qr_scan"},