{"data": {"bikes": [{"lat": 38.90453383333333, "type": "electric_scooter", "rental_uris": {"android": "https://dc.lft.to/lastmile_qr_scan", "ios": "https://dc.lft.to/lastmile_qr_scan"}, "fusion_lat": 0.0, "name": "a574ac8fd3d9d3953d3233f755a96a13", "is_reserved": 0, "is_disabled": 0, "bike_id": "a574ac8fd3d9d3953d3233f755a96a13", "fusion_lon": 0.0, "lon": -77.04886416666666}, {"lat": 38.887587333333336, "type": "electric_scooter", "rental_uris": {"android": "https://dc.lft.to/lastmile_qr_scan", "ios": "https://dc.lft.to/lastmile_qr_scan"}, "fusion_lat": 0.0, "name": "282554781c066b8d6023d525125b3120", "is_reserved": 0, "is_disabled": 0, "bike_id": "282554781c066b8d6023d525125b3120", "fusion_lon": 0.0, "lon": -77.00042983333333}, {"lat": 38.928815166666666, "type": "electric_scooter", "rental_uris": {"android": "https://dc.lft.to/lastmile_qr_scan", "ios": "https://dc.lft.to/lastmile_qr_scan"}, "fusion_lat": 0.0, "name": "aad7944c46dc9fff61602ade4637a094", "is_reserved": 0, "is_disabled": 0, "bike_id": "aad7944c46dc9fff61602ade4637a094", "fusion_lon": 0.0, "lon": -77.0324115}, {"lat": 38.90305816666667, "type": "electric_scooter", "rental_uris": {"android": "https://dc.lft.to/lastmile_qr_scan", "ios": "https://dc.lft.to/lastmile_qr_scan"}, "fusion_lat": 0.0, "name": "de16514ccf2cb5a945256867cc130911", "is_reserved": 0, "is_disabled": 0, "bike_id": "de16514ccf2cb5a945256867cc130911", "fusion_lon": 0.0, "lon": -76.97808616666667}, {"lat": 38.88721533333333, "type": "electric_scooter", "rental_uris": {"android": "https://dc.lft.to/lastmile_qr_scan", "ios": "https://dc.lft.to/lastmile_qr_scan"}, "fusion_lat": 0.0, "name": "2ad3911cda33efbf0a2a275530674bf3", "is_reserved": 0, "is_disabled": 0, "bike_id": "2ad3911cda33efbf0a2a275530674bf3", "fusion_lon": 0.0, "lon": -77.02578466666667}, {"lat": 38.920401, "type": "electric_scooter", "rental_uris": {"android": "https://dc.lft.to/lastmile_qr_scan", "ios": "https://dc.lft.to/lastmile_qr_scan"}, "fusion_lat": 0.0, "name": "6466025b853cd0fa10aa9e55ad7da22d", "is_reserved": 0, "is_disabled": 0, "bike_id": "6466025b853cd0fa10aa9e55ad7da22d", "fusion_lon": 0.0, "lon": -77.03383566666666}, {"lat": 38.90974633333333, "type": "electric_scooter", "rental_uris": {"android": "https://dc.lft.to/lastmile_qr_scan", "ios": "https://dc.lft.to/lastmile_qr_scan"}, "fusion_lat": 0.0, "name": "75b885fcfbd920bd419843e1b9c0176e", "is_reserved": 0, "is_disabled": 0, "bike_id": "75b885fcfbd920bd419843e1b9c0176e", "fusion_lon": 0.0, "lon": -77.02184633333333}, {"lat": 38.9122115, "type": "electric_scooter", "rental_uris": {"android": "https://dc.lft.to/lastmile_qr_scan", "ios": "https://dc.lft.to/lastmile_qr_scan"}, "fusion_lat": 0.0, "name": "3f1722fffb03b527b10aec840c351512", "is_reserved": 0, "is_disabled": 0, "bike_id": "3f1722fffb03b527b10aec840c351512", "fusion_lon": 0.0, "lon": -77.031816}, {"lat": 38.923361, "type": "electric_scooter", "rental_uris": {"android": "https://dc.lft.to/lastmile_qr_scan", "ios": "https://dc.lft.to/lastmile_qr_scan"}, "fusion_lat": 0.0, "name": "a4cf3e2cef8e7b414857c81b124a56f7", "is_reserved": 0, "is_disabled": 0, "bike_id": "a4cf3e2cef8e7b414857c81b124a56f7", "fusion_lon": 0.0, "lon": -77.0191245}, {"lat": 38.932125666666664, "type": "electric_scooter", "rental_uris": {"android": "https://dc.lft.to/lastmile_qr_scan", "ios": "https://dc.lft.to/lastmile_qr_scan"}, "fusion_lat": 0.0, "name": "0726f21738ad11df2073baf097b6e67e", "is_reserved": 0, "is_disabled": 0, "bike_id": "0726f21738ad11df2073baf097b6e67e", "fusion_lon": 0.0, "lon": -77.038633}, {"lat": 38.90799833333333, "type": "electric_scooter", "rental_uris": {"android": "https://dc.lft.to/lastmile_qr_scan", "ios": "https://dc.lft.to/lastmile_qr_scan"}, "fusion_lat": 0.0, "name": "5ae613664e8567733a38f67a90440a06", "is_reserved": 0, "is_disabled": 0, "bike_id": "5ae613664e8567733a38f67a90440a06", "fusion_lon": 0.0, "lon": -77.04984433333334}, {"lat": 38.923410833333335, "type": "electric_scooter", "rental_uris": {"android": "https://dc.lft.to/lastmile_qr_scan", "ios": "https://dc.lft.to/lastmile_qr_scan"}, "fusion_lat": 0.0, "name": "d10532ab93c2f10d9913fc8c7c08cc6c", "is_reserved": 0, "is_disabled": 0, "bike_id": "d10532ab93c2f10d9913fc8c7c08cc6c", "fusion_lon": 0.0, "lon": -77.05114433333334}, {"lat": 38.919625333333336, "type": "electric_scooter", "rental_uris": {"android": "https://dc.lft.to/lastmile_qr_scan", "ios": "https://dc.lft.to/lastmile_qr_scan"}, "fusion_lat": 0.0, "name": "f440f6cf198eca9d988bbc29123334ae", "is_reserved": 0, "is_disabled": 0, "bike_id": "f440f6cf198eca9d988bbc29123334ae", "fusion_lon": 0.0, "lon": -77.00215383333334}, {"lat": 38.91334283333333, "type": "electric_scooter", "rental_uris": {"android": "https://dc.lft.to/lastmile_qr_scan", "ios": "https://dc.lft.to/lastmile_qr_scan"}, "fusion_lat": 0.0, "name": "525eeefffbc311dd965c0312be27bc3e", "is_reserved": 0, "is_disabled": 0, "bike_id": "525eeefffbc311dd965c0312be27bc3e", "fusion_lon": 0.0, "lon": -77.03719233333334}, {"lat": 38.89587733333333, "type": "electric_scooter", "rental_uris": {"android": "https://dc.lft.to/lastmile_qr_scan", "ios": "https://dc.lft.to/lastmile_qr_scan"}, "fusion_lat": 0.0, "name": "fcbf3dffeb87fee3cdd4dabd35f58b73", "is_reserved": 0, "is_disabled": 0, "bike_id": "fcbf3dffeb87fee3cdd4dabd35f58b73", "fusion_lon": 0.0, "lon": -77.02163533333334}, {"lat": 38.9265415, "type": "electric_scooter", "rental_uris": {"android": "https://dc.lft.to/lastmile_qr_scan", "ios": "https://dc.lft.to/lastmile_qr_scan"}, "fusion_lat": 0.0, "name": "01db34af8a86056f5e160bfb2f64630a", "is_reserved": 0, "is_disabled": 0, "bike_id": "01db34af8a86056f5e160bfb2f64630a", "fusion_lon": 0.0, "lon": -77.02438966666666}, {"lat": 38.904337, "type": "electric_scooter", "rental_uris": {"android": "https://dc.lft.to/lastmile_qr_scan", "ios": "https://dc.lft.to/lastmile_qr_scan"}, "fusion_lat": 0.0, "name": "f0acf545df8f78926312ea59bb59ef9c", "is_reserved": 0, "is_disabled": 0, "bike_id": "f0acf545df8f78926312ea59bb59ef9c", "fusion_lon": 0.0, "lon": -77.058235}, {"lat": 38.89923316666667, "type": "electric_scooter", "rental_uris": {"android": "https://dc.lft.to/lastmile_qr_scan", "ios": "https://dc.lft.to/lastmile_qr_scan"}, "fusion_lat": 0.0, "name": "71132319d4674c93fab223fed9aa60ff", "is_reserved": 0, "is_disabled": 0, "bike_id": "71132319d4674c93fab223fed9aa60ff", "fusion_lon": 0.0, "lon": -77.051367}, {"lat": 38.90951466666667, "type": "electric_scooter", "rental_uris": {"android": "https://dc.lft.to/lastmile_qr_scan", "ios": "https://dc.lft.to/lastmile_qr_scan"}, "fusion_lat": 0.0, "name": "7347cca7a2a5459d2be52fb7abcbd646", "is_reserved": 0, "is_disabled": 0, "bike_id": "7347cca7a2a5459d2be52fb7abcbd646", "fusion_lon": 0.0, "lon": -77.02375083333334}, {"lat": 38.952019666666665, "type": "electric_scooter", "rental_uris": {"android": "https://dc.lft.to/lastmile_qr_scan", "ios": "https://dc.lft.to/lastmile_qr_scan"}, "fusion_lat": 0.0, "name": "0aeb0fc2dd19354b541d72ca5261c7bb", "is_reserved": 0, "is_disabled": 0, "bike_id": "0aeb0fc2dd19354b541d72ca5261c7bb", "fusion_lon": 0.0, "lon": -77.02735766666666}, {"lat": 38.88187583333333, "type": "electric_scooter", "rental_uris": {"android": "https://dc.lft.to/lastmile_qr_scan", "ios": "https://dc.lft.to/lastmile_qr_scan"}, "fusion_lat": 0.0, "name": "c608e90219f0afff6214eaba2f767dc1", "is_reserved": 0, "is_disabled": 0, "bike_id": "c608e90219f0afff6214eaba2f767dc1", "fusion_lon": 0.0, "lon": -76.9903}, {"lat": 38.925632, "type": "electric_scooter", "rental_uris": {"android": "https://dc.lft.to/lastmile_qr_scan", "ios": "https://dc.lft.to/lastmile_qr_scan"}, "fusion_lat": 0.0, "name": "a05085cdf6afd347f7b75c8b05c2fb00", "is_reserved": 0, "is_disabled": 0, "bike_id": "a05085cdf6afd347f7b75c8b05c2fb00", "fusion_lon": 0.0, "lon": -77.05269766666666}, {"lat": 38.9038855, "type": "electric_scooter", "rental_uris": {"android": "https://dc.lft.to/lastmile_qr_scan", "ios": "https://dc.lft.to/lastmile_qr_scan"}, "fusion_lat": 0.0, "name": "6ed32c20b49bb745b0125aebf2fcd68e", "is_reserved": 0, "is_disabled": 0, "bike_id": "6ed32c20b49bb745b0125aebf2fcd68e", "fusion_lon": 0.0, "lon": -76.9894725}, {"lat": 38.908567833333336, "type": "electric_scooter", "rental_uris": {"android": "https://dc.lft.to/lastmile_qr_scan", "ios": "https://dc.lft.to/lastmile_qr_scan"}, "fusion_lat": 0.0, "name": "f733b6cffe58507a80b765e6c56f2d31", "is_reserved": 0, "is_disabled": 0, "bike_id": "f733b6cffe58507a80b765e6c56f2d31", "fusion_lon": 0.0, "lon": -77.04362}, {"lat": 38.901816833333335, "type": "electric_scooter", "rental_uris": {"android": "https://dc.lft.to/lastmile_qr_scan", "ios": "https://dc.lft.to/lastmile_qr_scan"}, "fusion_lat": 0.0, "name": "b1359fefb8f5e3ecff3e18f490f5de53", "is_reserved": 0, "is_disabled": 0, "bike_id": "b1359fefb8f5e3ecff3e18f490f5de53", "fusion_lon": 0.0, "lon": -76.93479483333333}, {"lat": 38.90271, "type": "electric_scooter", "rental_uris": {"android": "https://dc.lft.to/lastmile_qr_scan", "ios": "https://dc.lft.to/lastmile_qr_scan"}, "fusion_lat": 0.0, "name": "3f5a7cb06d88981e209461a70a433ccb", "is_reserved": 0, "is_disabled": 0, "bike_id": "3f5a7cb06d88981e209461a70a433ccb", "fusion_lon": 0.0, "lon": -77.03412166666666}, {"lat": 38.943292166666666, "type": "electric_scooter", "rental_uris": {"android": "https://dc.lft.to/lastmile_qr_scan", "ios": "https://dc.lft.to/lastmile_qr_scan"}, "fusion_lat": 0.0, "name": "cd45e9905ad9a7932d545edecd638d04", "is_reserved": 0, "is_disabled": 0, "bike_id": "cd45e9905ad9a7932d545edecd638d04", "fusion_lon": 0.0, "lon": -77.01479266666666}, {"lat": 38.9147695, "type": "electric_scooter", "rental_uris": {"android": "https://dc.lft.to/lastmile_qr_scan", "ios": "https://dc.lft.to/lastmile_qr_scan"}, "fusion_lat": 0.0, "name": "e4a805de1924949b3baef49fcc8daf0a", "is_reserved": 0, "is_disabled": 0, "bike_id": "e4a805de1924949b3baef49fcc8daf0a", "fusion_lon": 0.0, "lon": -77.04611266666667}, {"lat": 38.905138666666666, "type": "electric_scooter", "rental_uris": {"android": "https://dc.lft.to/lastmile_qr_scan", "ios": "https://dc.lft.to/lastmile_qr_scan"}, "fusion_lat": 0.0, "name": "98795351ab53139d7a04587fd6c596ba", "is_reserved": 0, "is_disabled": 0, "bike_id": "98795351ab53139d7a04587fd6c596ba", "fusion_lon": 0.0, "lon": -77.06467416666666}, {"lat": 38.8718055, "type": "electric_scooter", "rental_uris": {"android": "https://dc.lft.to/lastmile_qr_scan", "ios": "https://dc.lft.to/lastmile_qr_scan"}, "fusion_lat": 0.0, "name": "885f11a48b275801e53c858fa80cbc92", "is_reserved": 0, "is_disabled": 0, "bike_id": "885f11a48b275801e53c858fa80cbc92", "fusion_lon": 0.0, "lon": -77.00570766666667}, {"lat": 38.9562035, "type": "electric_bike", "rental_uris": {"android": "https://dc.lft.to/lastmile_qr_scan", "ios": "https://dc.lft.to/lastmile_qr_scan"}, "fusion_lat": 0.0, "name": "681f3deb15480a3bff6590ef7156ff57", "is_reserved": 0, "is_disabled": 0, "bike_id": "681f3deb15480a3bff6590ef7156ff57", "fusion_lon": 0.0, "lon": -76.93900866666667}, {"lat": 38.89814616666666, "type": "electric_scooter", "rental_uris": {"android": "https://dc.lft.to/lastmile_qr_scan", "ios": "https://dc.lft.to/lastmile_qr_scan"}, "fusion_lat": 0.0, "name": "c4943312e8333a4689e16e3af60d3f30", "is_reserved": 0, "is_disabled": 0, "bike_id": "c4943312e8333a4689e16e3af60d3f30", "fusion_lon": 0.0, "lon": -77.0257445}, {"lat": 38.911155, "type": "electric_scooter", "rental_uris": {"android": "https://dc.lft.to/lastmile_qr_scan", "ios": "https://dc.lft.to/lastmile_qr_scan"}, "fusion_lat": 0.0, "name": "0288e467010d061288a8537e44f4b1a2", "is_reserved": 0, "is_disabled": 0, "bike_id": "0288e467010d061288a8537e44f4b1a2", "fusion_lon": 0.0, "lon": -76.99748666666666}, {"lat": 38.884880833333334, "type": "electric_scooter", "rental_uris": {"android": "https://dc.lft.to/lastmile_qr_scan", "ios": "https://dc.lft.to/lastmile_qr_scan"}, "fusion_lat": 0.0, "name": "93052349b688d163c8b6f372e0ad1e99", "is_reserved": 0, "is_disabled": 0, "bike_id": "93052349b688d163c8b6f372e0ad1e99", "fusion_lon": 0.0, "lon": -77.02973633333333}, {"lat": 38.927916833333335, "type": "electric_scooter", "rental_uris": {"android": "https://dc.lft.to/lastmile_qr_scan", "ios": "https://dc.lft.to/lastmile_qr_scan"}, "fusion_lat": 0.0, "name": "e07847f1e252c98e4ee9c526a3b6886b", "is_reserved": 0, "is_disabled": 0, "bike_id": "e07847f1e252c98e4ee9c526a3b6886b", "fusion_lon": 0.0, "lon": -77.01563883333333}, {"lat": 38.912958833333334, "type": "electric_scooter", "rental_uris": {"android": "https://dc.lft.to/lastmile_qr_scan", "ios": "https://dc.lft.to/lastmile_qr_scan"}, "fusion_lat": 0.0, "name": "8facf98368dd74d4192d66053b09e6a6", "is_reserved": 0, "is_disabled": 0, "bike_id": "8facf98368dd74d4192d66053b09e6a6", "fusion_lon": 0.0, "lon": -76.98687266666667}, {"lat": 38.921051, "type": "electric_scooter", "rental_uris": {"android": "https://dc.lft.to/lastmile_qr_scan", "ios": "https://dc.lft.to/lastmile_qr_scan"}, "fusion_lat": 0.0, "name": "f7ff938e99bdf5f8bc362fb1c824df0c", "is_reserved": 0, "is_disabled": 0, "bike_id": "f7ff938e99bdf5f8bc362fb1c824df0c", "fusion_lon": 0.0, "lon": -77.04381766666667}, {"lat": 38.887442, "type": "electric_scooter", "rental_uris": {"android": "https://dc.lft.to/lastmile_qr_scan", "ios": "https://dc.lft.to/lastmile_qr_scan"}, "fusion_lat": 0.0, "name": "49090d442d7ce541522fdb8dd86e6551", "is_reserved": 0, "is_disabled": 0, "bike_id": "49090d442d7ce541522fdb8dd86e6551", "fusion_lon": 0.0, "lon": -77.0141055}, {"lat": 38.87613566666667, "type": "electric_scooter", "rental_uris": {"android": "https://dc.lft.to/lastmile_qr_scan", "ios": "https://dc.lft.to/lastmile_qr_scan"}, "fusion_lat": 0.0, "name": "e6d8ef10367f8e987e7163377a70cd3b", "is_reserved": 0, "is_disabled": 0, "bike_id": "e6d8ef10367f8e987e7163377a70cd3b", "fusion_lon": 0.0, "lon": -77.00605783333333}, {"lat": 38.9203255, "type": "electric_scooter", "rental_uris": {"android": "https://dc.lft.to/lastmile_qr_scan", "ios": "https://dc.lft.to/lastmile_qr_scan"}, "fusion_lat": 0.0, "name": "5ba759d70eae0afcaaa1a721c02ceb97", "is_reserved": 0, "is_disabled": 0, "bike_id": "5ba759d70eae0afcaaa1a721c02ceb97", "fusion_lon": 0.0, "lon": -76.98992666666666}, {"lat": 38.90791216666667, "type": "electric_scooter", "rental_uris": {"android": "https://dc.lft.to/lastmile_qr_scan", "ios": "https://dc.lft.to/lastmile_qr_scan"}, "fusion_lat": 0.0, "name": "fe60eeb80d1a39cf8cd0b5545898faa4", "is_reserved": 0, "is_disabled": 0, "bike_id": "fe60eeb80d1a39cf8cd0b5545898faa4", "fusion_lon": 0.0, "lon": -77.03195166666667}, {"lat": 38.86961216666667, "type": "electric_scooter", "rental_uris": {"android": "https://dc.lft.to/lastmile_qr_scan", "ios": "https://dc.lft.to/lastmile_qr_scan"}, "fusion_lat": 0.0, "name": "7eb0e1e57d367784fa151b5c4bca0d05", "is_reserved": 0, "is_disabled": 0, "bike_id": "7eb0e1e57d367784fa151b5c4bca0d05", "fusion_lon": 0.0, "lon": -77.01377516666666}, {"lat": 38.921741, "type": "electric_scooter", "rental_uris": {"android": "https://dc.lft.to/lastmile_qr_scan", "ios": "https://dc.lft.to/lastmile_qr_scan"}, "fusion_lat": 0.0, "name": "0509c609cff3dd1ec642679920884b0f", "is_reserved": 0, "is_disabled": 0, "bike_id": "0509c609cff3dd1ec642679920884b0f", "fusion_lon": 0.0, "lon": -77.03837766666666}, {"lat": 38.934487, "type": "electric_scooter", "rental_uris": {"android": "https://dc.lft.to/lastmile_qr_scan", "ios": "https://dc.lft.to/lastmile_qr_scan"}, "fusion_lat": 0.0, "name": "7545b7616dcc5d3c5f66853e6490c1f7", "is_reserved": 0, "is_disabled": 0, "bike_id": "7545b7616dcc5d3c5f66853e6490c1f7", "fusion_lon": 0.0, "lon": -77.038683}, {"lat": 38.9055165, "type": "electric_scooter", "rental_uris": {"android": "https://dc.lft.to/lastmile_qr_scan", "ios": "https://dc.lft.to/lastmile_qr_scan"}, "fusion_lat": 0.0, "name": "5e6efc015d8eaff8200c712bf46fb9d6", "is_reserved": 0, "is_disabled": 0, "bike_id": "5e6efc015d8eaff8200c712bf46fb9d6", "fusion_lon": 0.0, "lon": -77.00584483333333}, {"lat": 38.9071035, "type": "electric_scooter", "rental_uris": {"android": "https://dc.lft.to/lastmile_qr_scan", "ios": "https://dc.lft.to/lastmile_qr_scan"}, "fusion_lat": 0.0, "name": "f7ab057ad64abe8b9ed034e206ecb429", "is_reserved": 0, "is_disabled": 0, "bike_id": "f7ab057ad64abe8b9ed034e206ecb429", "fusion_lon": 0.0, "lon": -77.03206433333334}, {"lat": 38.892218666666665, "type": "electric_scooter", "rental_uris": {"android": "https://dc.lft.to/lastmile_qr_scan", "ios": "https://dc.lft.to/lastmile_qr_scan"}, "fusion_lat": 0.0, "name": "30d208885857f5fa435f457fb1f8ae0a", "is_reserved": 0, "is_disabled": 0, "bike_id": "30d208885857f5fa435f457fb1f8ae0a", "fusion_lon": 0.0, "lon": -77.04501133333333}, {"lat": 38.897254, "type": "electric_scooter", "rental_uris": {"android": "https://dc.lft.to/lastmile_qr_scan", "ios": "https://dc.lft.to/lastmile_qr_scan"}, "fusion_lat": 0.0, "name": "53eb7938d998ff1b4adcaa8d4afe0a21", "is_reserved": 0, "is_disabled": 0, "bike_id": "53eb7938d998ff1b4adcaa8d4afe0a21", "fusion_lon": 0.0, "lon": -77.01870016666666}, {"lat": 38.928356, "type": "electric_scooter", "rental_uris": {"android": "https://dc.lft.to/lastmile_qr_scan", "ios": "https://dc.lft.to/lastmile_qr_scan"}, "fusion_lat": 0.0, "name": "dcb49de065541b96cb99a71107aa572c", "is_reserved": 0, "is_disabled": 0, "bike_id": "dcb49de065541b96cb99a71107aa572c", "fusion_lon": 0.0, "lon": -77.03275333333333}, {"lat": 38.935139166666666, "type": "electric_bike", "rental_uris": {"android": "https://dc.lft.to/lastmile_qr_scan", "ios": "https://dc.lft.to/lastmile_qr_scan"}, "fusion_lat": 0.0, "name": "79d90991defc30af0d86b7278da90eba", "is_reserved": 0, "is_disabled": 0, "bike_id": "79d90991defc30af0d86b7278da90eba", "fusion_lon": 0.0, "lon": -76.98353633333333}, {"lat": 38.90022666666667, "type": "electric_scooter", "rental_uris": {"android": "https://dc.lft.to/lastmile_qr_scan", "ios": "https://dc.lft.to/lastmile_qr_scan"}, "fusion_lat": 0.0, "name": "983bdbff437ca4159c51f1594f9e1af6", "is_reserved": 0, "is_disabled": 0, "bike_id": "983bdbff437ca4159c51f1594f9e1af6", "fusion_lon": 0.0, "lon": -76.99141783333333}, {"lat": 38.9370935, "type": "electric_scooter", "rental_uris": {"android": "https://dc.lft.to/lastmile_qr_scan", "ios": "https://dc.lft.to/lastmile_qr_scan"}, "fusion_lat": 0.0, "name": "e02bf90fcabf9c2dafa15311e048299a", "is_reserved": 0, "is_disabled": 0, "bike_id": "e02bf90fcabf9c2dafa15311e048299a", "fusion_lon": 0.0, "lon": -77.03640216666666}, {"lat": 38.962306833333336, "type": "electric_bike", "rental_uris": {"android": "https://dc.lft.to/lastmile_qr_scan", "ios": "https://dc.lft.to/lastmile_qr_scan"}, "fusion_lat": 0.0, "name": "951946611519fd06830bc2368abd58da", "is_reserved": 0, "is_disabled": 0, "bike_id": "951946611519fd06830bc2368abd58da", "fusion_lon": 0.0, "lon": -76.927965}, {"lat": 38.915934, "type": "electric_scooter", "rental_uris": {"android": "https://dc.lft.to/lastmile_qr_scan", "ios": "https://dc.lft.to/lastmile_qr_scan"}, "fusion_lat": 0.0, "name": "748817a354245827cac9eb3444249272", "is_reserved": 0, "is_disabled": 0, "bike_id": "748817a354245827cac9eb3444249272", "fusion_lon": 0.0, "lon": -77.049068}, {"lat": 38.94661133333334, "type": "electric_bike", "rental_uris": {"android": "https://dc.lft.to/lastmile_qr_scan", "ios": "https://dc.lft.to/lastmile_qr_scan"}, "fusion_lat": 0.0, "name": "3d47cadcdb6239ca85d258642d1c14ea", "is_reserved": 0, "is_disabled": 0, "bike_id": "3d47cadcdb6239ca85d258642d1c14ea", "fusion_lon": 0.0, "lon": -76.9567345}, {"lat": 38.940139333333335, "type": "electric_scooter", "rental_uris": {"android": "https://dc.lft.to/lastmile_qr_scan", "ios": "https://dc.lft.to/lastmile_qr_scan"}, "fusion_lat": 0.0, "name": "042eef85e4b083010c2838cdee7966bc", "is_reserved": 0, "is_disabled": 0, "bike_id": "042eef85e4b083010c2838cdee7966bc", "fusion_lon": 0.0, "lon": -77.02539166666666}, {"lat": 38.907282, "type": "electric_scooter", "rental_uris": {"android": "https://dc.lft.to/lastmile_qr_scan", "ios": "https://dc.lft.to/lastmile_qr_scan"}, "fusion_lat": 0.0, "name": "b4f08481c0c5c7d16b01974ba36edc5a", "is_reserved": 0, "is_disabled": 0, "bike_id": "b4f08481c0c5c7d16b01974ba36edc5a", "fusion_lon": 0.0, "lon": -77.01138033333334}, {"lat": 38.947440666666665, "type": "electric_scooter", "rental_uris": {"android": "https://dc.lft.to/lastmile_qr_scan", "ios": "https://dc.lft.to/lastmile_qr_scan"}, "fusion_lat": 0.0, "name": "60cb9e6ac96449a3596659215641ea26", "is_reserved": 0, "is_disabled": 0, "bike_id": "60cb9e6ac96449a3596659215641ea26", "fusion_lon": 0.0, "lon": -77.032861}, {"lat": 38.917015166666665, "type": "electric_scooter", "rental_uris": {"android": "https://dc.lft.to/lastmile_qr_scan", "ios": "https://dc.lft.to/lastmile_qr_scan"}, "fusion_lat": 0.0, "name": "a4ee2132c518b0f712917a5836bb4b1c", "is_reserved": 0, "is_disabled": 0, "bike_id": "a4ee2132c518b0f712917a5836bb4b1c", "fusion_lon": 0.0, "lon": -77.02735716666666}, {"lat": 38.88724533333333, "type": "electric_scooter", "rental_uris": {"android": "https://dc.lft.to/lastmile_qr_scan", "ios": "https://dc.lft.to/lastmile_qr_scan"}, "fusion_lat": 0.0, "name": "b3a07c993f2a4918289abe86681fe042", "is_reserved": 0, "is_disabled": 0, "bike_id": "b3a07c993f2a4918289abe86681fe042", "fusion_lon": 0.0, "lon": -77.02138866666667}, {"lat": 38.9139445, "type": "electric_scooter", "rental_uris": {"android": "https://dc.lft.to/lastmile_qr_scan", "ios": "https://dc.lft.to/lastmile_qr_scan"}, "fusion_lat": 0.0, "name": "df377fe2f1fff9c6d4a63d092db397d8", "is_reserved": 0, "is_disabled": 0, "bike_id": "df377fe2f1fff9c6d4a63d092db397d8", "fusion_lon": 0.0, "lon": -77.02493416666667}, {"lat": 38.915669666666666, "type": "electric_scooter", "rental_uris": {"android": "https://dc.lft.to/lastmile_qr_scan", "ios": "https://dc.lft.to/lastmile_qr_scan"}, "fusion_lat": 0.0, "name": "1fdc5ef506e19dbe8d31d9feb0b2cb96", "is_reserved": 0, "is_disabled": 0, "bike_id": "1fdc5ef506e19dbe8d31d9feb0b2cb96", "fusion_lon": 0.0, "lon": -77.03643366666667}, {"lat": 38.918617166666664, "type": "electric_scooter", "rental_uris": {"android": "https://dc.lft.to/lastmile_qr_scan", "ios": "https://dc.lft.to/lastmile_qr_scan"}, "fusion_lat": 0.0, "name": "4cf5a3974f8b876232b6ded0b95e20dc", "is_reserved": 0, "is_disabled": 0, "bike_id": "4cf5a3974f8b876232b6ded0b95e20dc", "fusion_lon": 0.0, "lon": -77.0417225}, {"lat": 38.91807683333333, "type": "electric_scooter", "rental_uris": {"android": "https://dc.lft.to/lastmile_qr_scan", "ios": "https://dc.lft.to/lastmile_qr_scan"}, "fusion_lat": 0.0, "name": "096b396fb1244dbca8fd927b46404692", "is_reserved": 0, "is_disabled": 0, "bike_id": "096b396fb1244dbca8fd927b46404692", "fusion_lon": 0.0, "lon": -77.02692366666666}, {"lat": 38.84820933333334, "type": "electric_bike", "rental_uris": {"android": "https://dc.lft.to/lastmile_qr_scan", "ios": "https://dc.lft.to/lastmile_qr_scan"}, "fusion_lat": 0.0, "name": "16308e6758335eff1ada1e7138b6f118", "is_reserved": 0, "is_disabled": 0, "bike_id": "16308e6758335eff1ada1e7138b6f118", "fusion_lon": 0.0, "lon": -77.07903683333333}, {"lat": 38.91115383333333, "type": "electric_scooter", "rental_uris": {"android": "https://dc.lft.to/lastmile_qr_scan", "ios": "https://dc.lft.to/lastmile_qr_scan"}, "fusion_lat": 0.0, "name": "dba6e10e0bbc43217b58797c3da3707d", "is_reserved": 0, "is_disabled": 0, "bike_id": "dba6e10e0bbc43217b58797c3da3707d", "fusion_lon": 0.0, "lon": -77.04476783333334}, {"lat": 38.9039005, "type": "electric_scooter", "rental_uris": {"android": "https://dc.lft.to/lastmile_qr_scan", "ios": "https://dc.lft.to/lastmile_qr_scan"}, "fusion_lat": 0.0, "name": "0068c3da2a941414fd2a84902317ab58", "is_reserved": 0, "is_disabled": 0, "bike_id": "0068c3da2a941414fd2a84902317ab58", "fusion_lon": 0.0, "lon": -77.0386495}, {"lat": 38.91246733333333, "type": "electric_scooter", "rental_uris": {"android": "https://dc.lft.to/lastmile_qr_scan", "ios": "https://dc.lft.to/lastmile_qr_scan"}, "fusion_lat": 0.0, "name": "ce6b3d3d9c0311d04b2e87faa3651d98", "is_reserved": 0, "is_disabled": 0, "bike_id": "ce6b3d3d9c0311d04b2e87faa3651d98", "fusion_lon": 0.0, "lon": -77.03884083333334}, {"lat": 38.86974433333334, "type": "electric_scooter", "rental_uris": {"android": "https://dc.lft.to/lastmile_qr_scan", "ios": "https://dc.lft.to/lastmile_qr_scan"}, "fusion_lat": 0.0, "name": "4ffa4f816403bfa67680f190dcde09d0", "is_reserved": 0, "is_disabled": 0, "bike_id": "4ffa4f816403bfa67680f190dcde09d0", "fusion_lon": 0.0, "lon": -77.01078966666667}, {"lat": 38.90008616666667, "type": "electric_scooter", "rental_uris": {"android": "https://dc.lft.to/lastmile_qr_scan", "ios": "https://dc.lft.to/lastmile_qr_scan"}, "fusion_lat": 0.0, "name": "f5f3d65928487a44e1bdfa30f01d13b7", "is_reserved": 0, "is_disabled": 0, "bike_id": "f5f3d65928487a44e1bdfa30f01d13b7", "fusion_lon": 0.0, "lon": -76.9890745}, {"lat": 38.91706933333333, "type": "electric_scooter", "rental_uris": {"android": "https://dc.lft.to/lastmile_qr_scan", "ios": "https://dc.lft.to/lastmile_qr_scan"}, "fusion_lat": 0.0, "name": "4b9611e734ac0cdc9018bd3b83e547fe", "is_reserved": 0, "is_disabled": 0, "bike_id": "4b9611e734ac0cdc9018bd3b83e547fe", "fusion_lon": 0.0, "lon": -77.024234}, {"lat": 38.909759666666666, "type": "electric_scooter", "rental_uris": {"android": "https://dc.lft.to/lastmile_qr_scan", "ios": "https://dc.lft.to/lastmile_qr_scan"}, "fusion_lat": 0.0, "name": "43ffcdfe1606eea3cb26d94cc3d163f7", "is_reserved": 0, "is_disabled": 0, "bike_id": "43ffcdfe1606eea3cb26d94cc3d163f7", "fusion_lon": 0.0, "lon": -77.03863783333334}, {"lat": 38.941803, "type": "electric_scooter", "rental_uris": {"android": "https://dc.lft.to/lastmile_qr_scan", "ios": "https://dc.lft.to/lastmile_qr_scan"}, "fusion_lat": 0.0, "name": "3e119e7374003e77ba9fbd2ea18cb23a", "is_reserved": 0, "is_disabled": 0, "bike_id": "3e119e7374003e77ba9fbd2ea18cb23a", "fusion_lon": 0.0, "lon": -77.02532183333334}, {"lat": 38.923136666666664, "type": "electric_scooter", "rental_uris": {"android": "https://dc.lft.to/lastmile_qr_scan", "ios": "https://dc.lft.to/lastmile_qr_scan"}, "fusion_lat": 0.0, "name": "e4adc82f0f40fdfa1bd78d79cdb206f0", "is_reserved": 0, "is_disabled": 0, "bike_id": "e4adc82f0f40fdfa1bd78d79cdb206f0", "fusion_lon": 0.0, "lon": -77.026961}, {"lat": 38.89991216666667, "type": "electric_scooter", "rental_uris": {"android": "https://dc.lft.to/lastmile_qr_scan", "ios": "https://dc.lft.to/lastmile_qr_scan"}, "fusion_lat": 0.0, "name": "5f22580492f7e69edeb99eaf5b3a5d40", "is_reserved": 0, "is_disabled": 0, "bike_id": "5f22580492f7e69edeb99eaf5b3a5d40", "fusion_lon": 0.0, "lon": -77.02367383333333}, {"lat": 38.929910666666665, "type": "electric_scooter", "rental_uris": {"android": "https://dc.lft.to/lastmile_qr_scan", "ios": "https://dc.lft.to/lastmile_qr_scan"}, "fusion_lat": 0.0, "name": "016b0320bb928979d615bd18cc0fabef", "is_reserved": 0, "is_disabled": 0, "bike_id": "016b0320bb928979d615bd18cc0fabef", "fusion_lon": 0.0, "lon": -77.03799583333333}, {"lat": 38.90947416666667, "type": "electric_scooter", "rental_uris": {"android": "https://dc.lft.to/lastmile_qr_scan", "ios": "https://dc.lft.to/lastmile_qr_scan"}, "fusion_lat": 0.0, "name": "592a03013d03735483021e09f9dc797d", "is_reserved": 0, "is_disabled": 0, "bike_id": "592a03013d03735483021e09f9dc797d", "fusion_lon": 0.0, "lon": -77.03948666666666}, {"lat": 38.93052183333333, "type": "electric_scooter", "rental_uris": {"android": "https://dc.lft.to/lastmile_qr_scan", "ios": "https://dc.lft.to/lastmile_qr_scan"}, "fusion_lat": 0.0, "name": "90b1c6045bdf49d474f1d54e808f71bc", "is_reserved": 0, "is_disabled": 0, "bike_id": "90b1c6045bdf49d474f1d54e808f71bc", "fusion_lon": 0.0, "lon": -77.02326833333333}, {"lat": 38.883470833333334, "type": "electric_scooter", "rental_uris": {"android": "https://dc.lft.to/lastmile_qr_scan", "ios": "https://dc.lft.to/lastmile_qr_scan"}, "fusion_lat": 0.0, "name": "04c65ba9570302e78b98806dd1fff93f", "is_reserved": 0, "is_disabled": 0, "bike_id": "04c65ba9570302e78b98806dd1fff93f", "fusion_lon": 0.0, "lon": -76.9949325}, {"lat": 38.917104, "type": "electric_scooter", "rental_uris": {"android": "https://dc.lft.to/lastmile_qr_scan", "ios": "https://dc.lft.to/lastmile_qr_scan"}, "fusion_lat": 0.0, "name": "271f3e157a51e1a8f3668189f322a112", "is_reserved": 0, "is_disabled": 0, "bike_id": "271f3e157a51e1a8f3668189f322a112", "fusion_lon": 0.0, "lon": -77.028755}, {"lat": 38.9059295, "type": "electric_scooter", "rental_uris": {"android": "https://dc.lft.to/lastmile_qr_scan", "ios": "https://dc.lft.to/lastmile_qr_scan"}, "fusion_lat": 0.0, "name": "dd50b7839836360a790b09f33d0a5e9d", "is_reserved": 0, "is_disabled": 0, "bike_id": "dd50b7839836360a790b09f33d0a5e9d", "fusion_lon": 0.0, "lon": -77.0435445}, {"lat": 38.862036833333335, "type": "electric_bike", "rental_uris": {"android": "https://dc.lft.to/lastmile_qr_scan", "ios": "https://dc.lft.to/lastmile_qr_scan"}, "fusion_lat": 0.0, "name": "b8642019ab9cefe0d1de6d05dacf133d", "is_reserved": 0, "is_disabled": 0, "bike_id": "b8642019ab9cefe0d1de6d05dacf133d", "fusion_lon": 0.0, "lon": -76.99539716666666}, {"lat": 38.91257916666667, "type": "electric_scooter", "rental_uris": {"android": "https://dc.lft.to/lastmile_qr_scan", "ios": "https://dc.lft.to/lastmile_qr_scan"}, "fusion_lat": 0.0, "name": "532a3d3b8ab14651c222287c3d894824", "is_reserved": 0, "is_disabled": 0, "bike_id": "532a3d3b8ab14651c222287c3d894824", "fusion_lon": 0.0, "lon": -76.97207633333333}, {"lat": 38.929666, "type": "electric_scooter", "rental_uris": {"android": "https://dc.lft.to/lastmile_qr_scan", "ios": "https://dc.lft.to/lastmile_qr_scan"}, "fusion_lat": 0.0, "name": "23e9e0c412bb9a952a8b0201a5057306", "is_reserved": 0, "is_disabled": 0, "bike_id": "23e9e0c412bb9a952a8b0201a5057306", "fusion_lon": 0.0, "lon": -77.02801116666667}, {"lat": 38.9158015, "type": "electric_scooter", "rental_uris": {"android": "https://dc.lft.to/lastmile_qr_scan", "ios": "https://dc.lft.to/lastmile_qr_scan"}, "fusion_lat": 0.0, "name": "ff14a074e3622270dc9fd22a884e66c4", "is_reserved": 0, "is_disabled": 0, "bike_id": "ff14a074e3622270dc9fd22a884e66c4", "fusion_lon": 0.0, "lon": -77.012211}, {"lat": 38.87646133333333, "type": "electric_scooter", "rental_uris": {"android": "https://dc.lft.to/lastmile_qr_scan", "ios": "https://dc.lft.to/lastmile_qr_scan"}, "fusion_lat": 0.0, "name": "fb24b80f0a5c111d5b1e30650aa3c716", "is_reserved": 0, "is_disabled": 0, "bike_id": "fb24b80f0a5c111d5b1e30650aa3c716", "fusion_lon": 0.0, "lon": -77.00113733333333}, {"lat": 38.91945, "type": "electric_scooter", "rental_uris": {"android": "https://dc.lft.to/lastmile_qr_scan", "ios": "https://dc.lft.to/lastmile_qr_scan"}, "fusion_lat": 0.0, "name": "9dbc9f7a3b20369f82f0f9246ac95fa5", "is_reserved": 0, "is_disabled": 0, "bike_id": "9dbc9f7a3b20369f82f0f9246ac95fa5", "fusion_lon": 0.0, "lon": -77.02504016666667}, {"lat": 38.91841083333333, "type": "electric_scooter", "rental_uris": {"android": "https://dc.lft.to/lastmile_qr_scan", "ios": "https://dc.lft.to/lastmile_qr_scan"}, "fusion_lat": 0.0, "name": "b140ac77b50e1a6cdf981a2144d4e625", "is_reserved": 0, "is_disabled": 0, "bike_id": "b140ac77b50e1a6cdf981a2144d4e625", "fusion_lon": 0.0, "lon": -77.04827633333333}, {"lat": 38.89713366666667, "type": "electric_scooter", "rental_uris": {"android": "https://dc.lft.to/lastmile_qr_scan", "ios": "https://dc.lft.to/lastmile_qr_scan"}, "fusion_lat": 0.0, "name": "199037e51f8a5feed58282bee5ee324b", "is_reserved": 0, "is_disabled": 0, "bike_id": "199037e51f8a5feed58282bee5ee324b", "fusion_lon": 0.0, "lon": -77.0079875}, {"lat": 38.91183, "type": "electric_scooter", "rental_uris": {"android": "https://dc.lft.to/lastmile_qr_scan", "ios": "https://dc.lft.to/lastmile_qr_scan"}, "fusion_lat": 0.0, "name": "02fdd9d81649abe2c1d1bfbf00cdab6b", "is_reserved": 0, "is_disabled": 0, "bike_id": "02fdd9d81649abe2c1d1bfbf00cdab6b", "fusion_lon": 0.0, "lon": -77.04821683333333}, {"lat": 38.91961383333334, "type": "electric_scooter", "rental_uris": {"android": "https://dc.lft.to/lastmile_qr_scan", "ios": "https://dc.lft.to/lastmile_qr_scan"}, "fusion_lat": 0.0, "name": "7991cff3b2ca596aabf87edfea826c7e", "is_reserved": 0, "is_disabled": 0, "bike_id": "7991cff3b2ca596aabf87edfea826c7e", "fusion_lon": 0.0, "lon": -77.01221166666667}, {"lat": 38.876686166666666, "type": "electric_scooter", "rental_uris": {"android": "https://dc.lft.to/lastmile_qr_scan", "ios": "https://dc.lft.to/lastmile_qr_scan"}, "fusion_lat": 0.0, "name": "6bb762e26b15f55cb61c965e310ee74c", "is_reserved": 0, "is_disabled": 0, "bike_id": "6bb762e26b15f55cb61c965e310ee74c", "fusion_lon": 0.0, "lon": -77.00589166666667}, {"lat": 38.90579816666666, "type": "electric_scooter", "rental_uris": {"android": "https://dc.lft.to/lastmile_qr_scan", "ios": "https://dc.lft.to/lastmile_qr_scan"}, "fusion_lat": 0.0, "name": "17005719aeb0f0fc30c0bbf436e5de5e", "is_reserved": 0, "is_disabled": 0, "bike_id": "17005719aeb0f0fc30c0bbf436e5de5e", "fusion_lon": 0.0, "lon": -77.04431116666666}, {"lat": 38.90535283333333, "type": "electric_scooter", "rental_uris": {"android": "https://dc.lft.to/lastmile_qr_scan", "ios": "https://dc.lft.to/lastmile_qr_scan"}, "fusion_lat": 0.0, "name": "6cd2fe4612c7bba3b03a927bee8c9f5c", "is_reserved": 0, "is_disabled": 0, "bike_id": "6cd2fe4612c7bba3b03a927bee8c9f5c", "fusion_lon": 0.0, "lon": -77.05640116666666}, {"lat": 38.90153933333333, "type": "electric_scooter", "rental_uris": {"android": "https://dc.lft.to/lastmile_qr_scan", "ios": "https://dc.lft.to/lastmile_qr_scan"}, "fusion_lat": 0.0, "name": "58100af99ba7f2beaf8523ebfdd3cb44", "is_reserved": 0, "is_disabled": 0, "bike_id": "58100af99ba7f2beaf8523ebfdd3cb44", "fusion_lon": 0.0, "lon": -76.98085783333333}, {"lat": 38.899893666666664, "type": "electric_scooter", "rental_uris": {"android": "https://dc.lft.to/lastmile_qr_scan", "ios": "https://dc.lft.to/lastmile_qr_scan"}, "fusion_lat": 0.0, "name": "1efd044a52530776add322d61285fab3", "is_reserved": 0, "is_disabled": 0, "bike_id": "1efd044a52530776add322d61285fab3", "fusion_lon": 0.0, "lon": -77.0230755}, {"lat": 38.90058166666667, "type": "electric_scooter", "rental_uris": {"android": "https://dc.lft.to/lastmile_qr_scan", "ios": "https://dc.lft.to/lastmile_qr_scan"}, "fusion_lat": 0.0, "name": "42c2e00e656313c2e9aee8e77395cf9a", "is_reserved": 0, "is_disabled": 0, "bike_id": "42c2e00e656313c2e9aee8e77395cf9a", "fusion_lon": 0.0, "lon": -77.04887883333333}, {"lat": 38.91805333333333, "type": "electric_scooter", "rental_uris": {"android": "https://dc.lft.to/lastmile_qr_scan", "ios": "https://dc.lft.to/lastmile_qr_scan"}, "fusion_lat": 0.0, "name": "e599ed64f92c944628ee160f31e54769", "is_reserved": 0, "is_disabled": 0, "bike_id": "e599ed64f92c944628ee160f31e54769", "fusion_lon": 0.0, "lon": -77.02684166666667}, {"lat": 38.91726283333333, "type": "electric_scooter", "rental_uris": {"android": "https://dc.lft.to/lastmile_qr_scan", "ios": "https://dc.lft.to/lastmile_qr_scan"}, "fusion_lat": 0.0, "name": "e119ece745b765b81add13a12d0b870b", "is_reserved": 0, "is_disabled": 0, "bike_id": "e119ece745b765b81add13a12d0b870b", "fusion_lon": 0.0, "lon": -77.03623183333333}, {"lat": 38.895441, "type": "electric_scooter", "rental_uris": {"android": "https://dc.lft.to/lastmile_qr_scan", "ios": "https://dc.lft.to/lastmile_qr_scan"}, "fusion_lat": 0.0, "name": "b60b517abaa2d4fd728c661b8963dbce", "is_reserved": 0, "is_disabled": 0, "bike_id": "b60b517abaa2d4fd728c661b8963dbce", "fusion_lon": 0.0, "lon": -76.99017316666666}, {"lat": 38.94290633333333, "type": "electric_scooter", "rental_uris": {"android": "https://dc.lft.to/lastmile_qr_scan", "ios": "https://dc.lft.to/lastmile_qr_scan"}, "fusion_lat": 0.0, "name": "f45bf9ddaaeb3b151221b1642fb44d9d", "is_reserved": 0, "is_disabled": 0, "bike_id": "f45bf9ddaaeb3b151221b1642fb44d9d", "fusion_lon": 0.0, "lon": -77.02174583333333}, {"lat": 38.922492, "type": "electric_scooter", "rental_uris": {"android": "https://dc.lft.to/lastmile_qr_scan", "ios": "https://dc.lft.to/lastmile_qr_scan"}, "fusion_lat": 0.0, "name": "53fda61591d7fa7ec334f512384fd24b", "is_reserved": 0, "is_disabled": 0, "bike_id": "53fda61591d7fa7ec334f512384fd24b", "fusion_lon": 0.0, "lon": -77.03529783333333}, {"lat": 38.912822, "type": "electric_scooter", "rental_uris": {"android": "https://dc.lft.to/lastmile_qr_scan", "ios": "https://dc.lft.to/lastmile_qr_scan"}, "fusion_lat": 0.0, "name": "6f2c76d28f58e2da9e40eac960f3d542", "is_reserved": 0, "is_disabled": 0, "bike_id": "6f2c76d28f58e2da9e40eac960f3d542", "fusion_lon": 0.0, "lon": -77.03664183333333}, {"lat": 38.928455166666666, "type": "electric_scooter", "rental_uris": {"android": "https://dc.lft.to/lastmile_qr_scan", "ios": "https://dc.lft.to/lastmile_qr_scan"}, "fusion_lat": 0.0, "name": "96ee1f5ca2823e8ac85b77482f7a12b9", "is_reserved": 0, "is_disabled": 0, "bike_id": "96ee1f5ca2823e8ac85b77482f7a12b9", "fusion_lon": 0.0, "lon": -77.0328845}, {"lat": 38.908551333333335, "type": "electric_scooter", "rental_uris": {"android": "https://dc.lft.to/lastmile_qr_scan", "ios": "https://dc.lft.to/lastmile_qr_scan"}, "fusion_lat": 0.0, "name": "aa4b861a816cc52e79cd2f28c05db20d", "is_reserved": 0, "is_disabled": 0, "bike_id": "aa4b861a816cc52e79cd2f28c05db20d", "fusion_lon": 0.0, "lon": -77.06393133333333}, {"lat": 38.87215366666667, "type": "electric_scooter", "rental_uris": {"android": "https://dc.lft.to/lastmile_qr_scan", "ios": "https://dc.lft.to/lastmile_qr_scan"}, "fusion_lat": 0.0, "name": "5b0408e9a9b3e9a684f2698f1c483775", "is_reserved": 0, "is_disabled": 0, "bike_id": "5b0408e9a9b3e9a684f2698f1c483775", "fusion_lon": 0.0, "lon": -77.01229233333333}, {"lat": 38.892177833333335, "type": "electric_scooter", "rental_uris": {"android": "https://dc.lft.to/lastmile_qr_scan", "ios": "https://dc.lft.to/lastmile_qr_scan"}, "fusion_lat": 0.0, "name": "04d48cb53440123ec7c4c8827cf99250", "is_reserved": 0, "is_disabled": 0, "bike_id": "04d48cb53440123ec7c4c8827cf99250", "fusion_lon": 0.0, "lon": -77.02633533333334}, {"lat": 38.90397316666667, "type": "electric_scooter", "rental_uris": {"android": "https://dc.lft.to/lastmile_qr_scan", "ios": "https://dc.lft.to/lastmile_qr_scan"}, "fusion_lat": 0.0, "name": "3766139b2e34d8fd3db4e355ab46fca8", "is_reserved": 0, "is_disabled": 0, "bike_id": "3766139b2e34d8fd3db4e355ab46fca8", "fusion_lon": 0.0, "lon": -77.06807633333334}, {"lat": 38.904561666666666, "type": "electric_scooter", "rental_uris": {"android": "https://dc.lft.to/lastmile_qr_scan", "ios": "https://dc.lft.to/lastmile_qr_scan"}, "fusion_lat": 0.0, "name": "dac8986ebb88963ab6a22a799d91948b", "is_reserved": 0, "is_disabled": 0, "bike_id": "dac8986ebb88963ab6a22a799d91948b", "fusion_lon": 0.0, "lon": -77.00167516666667}, {"lat": 38.93195433333333, "type": "electric_scooter", "rental_uris": {"android": "https://dc.lft.to/lastmile_qr_scan", "ios": "https://dc.lft.to/lastmile_qr_scan"}, "fusion_lat": 0.0, "name": "782c7b79eba254875e9a5e91df40101d", "is_reserved": 0, "is_disabled": 0, "bike_id": "782c7b79eba254875e9a5e91df40101d", "fusion_lon": 0.0, "lon": -77.03072783333333}, {"lat": 38.877111166666666, "type": "electric_scooter", "rental_uris": {"android": "https://dc.lft.to/lastmile_qr_scan", "ios": "https://dc.lft.to/lastmile_qr_scan"}, "fusion_lat": 0.0, "name": "8b2ae0bb736ae2857650d9dcfe4a19ae", "is_reserved": 0, "is_disabled": 0, "bike_id": "8b2ae0bb736ae2857650d9dcfe4a19ae", "fusion_lon": 0.0, "lon": -76.99693166666667}, {"lat": 38.9059695, "type": "electric_scooter", "rental_uris": {"android": "https://dc.lft.to/lastmile_qr_scan", "ios": "https://dc.lft.to/lastmile_qr_scan"}, "fusion_lat": 0.0, "name": "ac4cc15e47263371625330530a281555", "is_reserved": 0, "is_disabled": 0, "bike_id": "ac4cc15e47263371625330530a281555", "fusion_lon": 0.0, "lon": -77.05695533333333}, {"lat": 38.88534633333333, "type": "electric_scooter", "rental_uris": {"android": "https://dc.lft.to/lastmile_qr_scan", "ios": "https://dc.lft.to/lastmile_qr_scan"}, "fusion_lat": 0.0, "name": "62fb391538fefa7d37606e226bd20e1e", "is_reserved": 0, "is_disabled": 0, "bike_id": "62fb391538fefa7d37606e226bd20e1e", "fusion_lon": 0.0, "lon": -77.00065366666666}, {"lat": 38.86000166666667, "type": "electric_bike", "rental_uris": {"android": "https://dc.lft.to/lastmile_qr_scan", "ios": "https://dc.lft.to/lastmile_qr_scan"}, "fusion_lat": 0.0, "name": "0e988c046b7622122e1598c6a7f86cf5", "is_reserved": 0, "is_disabled": 0, "bike_id": "0e988c046b7622122e1598c6a7f86cf5", "fusion_lon": 0.0, "lon": -77.05757283333334}, {"lat": 38.9213115, "type": "electric_scooter", "rental_uris": {"android": "https://dc.lft.to/lastmile_qr_scan", "ios": "https://dc.lft.to/lastmile_qr_scan"}, "fusion_lat": 0.0, "name": "9753f47eee3e0127ae2f404b05b1335a", "is_reserved": 0, "is_disabled": 0, "bike_id": "9753f47eee3e0127ae2f404b05b1335a", "fusion_lon": 0.0, "lon": -77.03533366666667}, {"lat": 38.924007833333334, "type": "electric_scooter", "rental_uris": {"android": "https://dc.lft.to/lastmile_qr_scan", "ios": "https://dc.lft.to/lastmile_qr_scan"}, "fusion_lat": 0.0, "name": "8bc6efbdf873ad06a062e81eafcd334e", "is_reserved": 0, "is_disabled": 0, "bike_id": "8bc6efbdf873ad06a062e81eafcd334e", "fusion_lon": 0.0, "lon": -77.025611}, {"lat": 38.997772, "type": "electric_bike", "rental_uris": {"android": "https://dc.lft.to/lastmile_qr_scan", "ios": "https://dc.lft.to/lastmile_qr_scan"}, "fusion_lat": 0.0, "name": "f15e07098dd96f650a5e280e864fff6d", "is_reserved": 0, "is_disabled": 0, "bike_id": "f15e07098dd96f650a5e280e864fff6d", "fusion_lon": 0.0, "lon": -77.04714066666666}, {"lat": 38.89235816666667, "type": "electric_scooter", "rental_uris": {"android": "https://dc.lft.to/lastmile_qr_scan", "ios": "https://dc.lft.to/lastmile_qr_scan"}, "fusion_lat": 0.0, "name": "bce4131ad937e2f157fc48b299942059", "is_reserved": 0, "is_disabled": 0, "bike_id": "bce4131ad937e2f157fc48b299942059", "fusion_lon": 0.0, "lon": -77.0318705}, {"lat": 38.9074045, "type": "electric_scooter", "rental_uris": {"android": "https://dc.lft.to/lastmile_qr_scan", "ios": "https://dc.lft.to/lastmile_qr_scan"}, "fusion_lat": 0.0, "name": "41c7421c6b42421584934e473f1fcbdd", "is_reserved": 0, "is_disabled": 0, "bike_id": "41c7421c6b42421584934e473f1fcbdd", "fusion_lon": 0.0, "lon": -77.04527916666666}, {"lat": 38.90079, "type": "electric_scooter", "rental_uris": {"android": "https://dc.lft.to/lastmile_qr_scan", "ios": "https://dc.lft.to/lastmile_qr_scan"}, "fusion_lat": 0.0, "name": "030ea2a4ab44459c8e5ac91d049cdc54", "is_reserved": 0, "is_disabled": 0, "bike_id": "030ea2a4ab44459c8e5ac91d049cdc54", "fusion_lon": 0.0, "lon": -77.04761066666667}, {"lat": 38.92022633333333, "type": "electric_scooter", "rental_uris": {"android": "https://dc.lft.to/lastmile_qr_scan", "ios": "https://dc.lft.to/lastmile_qr_scan"}, "fusion_lat": 0.0, "name": "f2c1487bdce2a473f6dfff30307edf2b", "is_reserved": 0, "is_disabled": 0, "bike_id": "f2c1487bdce2a473f6dfff30307edf2b", "fusion_lon": 0.0, "lon": -77.0716405}, {"lat": 38.92852033333333, "type": "electric_scooter", "rental_uris": {"android": "https://dc.lft.to/lastmile_qr_scan", "ios": "https://dc.lft.to/lastmile_qr_scan"}, "fusion_lat": 0.0, "name": "8dc7f7cbcd1dd0fe27d5b3dc2497bd65", "is_reserved": 0, "is_disabled": 0, "bike_id": "8dc7f7cbcd1dd0fe27d5b3dc2497bd65", "fusion_lon": 0.0, "lon": -77.03443433333334}, {"lat": 38.917084333333335, "type": "electric_scooter", "rental_uris": {"android": "https://dc.lft.to/lastmile_qr_scan", "ios": "https://dc.lft.to/lastmile_qr_scan"}, "fusion_lat": 0.0, "name": "b2def28d5061e57cf86a74dc2cf1304d", "is_reserved": 0, "is_disabled": 0, "bike_id": "b2def28d5061e57cf86a74dc2cf1304d", "fusion_lon": 0.0, "lon": -77.03250033333333}, {"lat": 38.86962533333333, "type": "electric_scooter", "rental_uris": {"android": "https://dc.lft.to/lastmile_qr_scan", "ios": "https://dc.lft.to/lastmile_qr_scan"}, "fusion_lat": 0.0, "name": "96dcbefd22b6c0ace60b061dc99d1957", "is_reserved": 0, "is_disabled": 0, "bike_id": "96dcbefd22b6c0ace60b061dc99d1957", "fusion_lon": 0.0, "lon": -77.01376533333334}, {"lat": 38.93966533333333, "type": "electric_scooter", "rental_uris": {"android": "https://dc.lft.to/lastmile_qr_scan", "ios": "https://dc.lft.to/lastmile_qr_scan"}, "fusion_lat": 0.0, "name": "81240c8146a608f417555b59fd621c8b", "is_reserved": 0, "is_disabled": 0, "bike_id": "81240c8146a608f417555b59fd621c8b", "fusion_lon": 0.0, "lon": -77.03256116666667}, {"lat": 38.91095166666667, "type": "electric_scooter", "rental_uris": {"android": "https://dc.lft.to/lastmile_qr_scan", "ios": "https://dc.lft.to/lastmile_qr_scan"}, "fusion_lat": 0.0, "name": "e103b4eda26025b9792681379d85f1c3", "is_reserved": 0, "is_disabled": 0, "bike_id": "e103b4eda26025b9792681379d85f1c3", "fusion_lon": 0.0, "lon": -77.0735975}, {"lat": 38.92563, "type": "electric_scooter", "rental_uris": {"android": "https://dc.lft.to/lastmile_qr_scan", "ios": "https://dc.lft.to/lastmile_qr_scan"}, "fusion_lat": 0.0, "name": "cd3cfbe8a873156f7510fd90c1cf592c", "is_reserved": 0, "is_disabled": 0, "bike_id": "cd3cfbe8a873156f7510fd90c1cf592c", "fusion_lon": 0.0, "lon": -77.05259816666667}, {"lat": 38.94275716666667, "type": "electric_scooter", "rental_uris": {"android": "https://dc.lft.to/lastmile_qr_scan", "ios": "https://dc.lft.to/lastmile_qr_scan"}, "fusion_lat": 0.0, "name": "dbcccd9df932ff69292cdf0c941416d0", "is_reserved": 0, "is_disabled": 0, "bike_id": "dbcccd9df932ff69292cdf0c941416d0", "fusion_lon": 0.0, "lon": -77.029443}, {"lat": 38.9283695, "type": "electric_scooter", "rental_uris": {"android": "https://dc.lft.to/lastmile_qr_scan", "ios": "https://dc.lft.to/lastmile_qr_scan"}, "fusion_lat": 0.0, "name": "730d1d062623489797ce97c785ff7a53", "is_reserved": 0, "is_disabled": 0, "bike_id": "730d1d062623489797ce97c785ff7a53", "fusion_lon": 0.0, "lon": -77.03280033333333}, {"lat": 38.89701216666667, "type": "electric_scooter", "rental_uris": {"android": "https://dc.lft.to/lastmile_qr_scan", "ios": "https://dc.lft.to/lastmile_qr_scan"}, "fusion_lat": 0.0, "name": "0c9d2fb1643fe13e1928449829bf5e3f", "is_reserved": 0, "is_disabled": 0, "bike_id": "0c9d2fb1643fe13e1928449829bf5e3f", "fusion_lon": 0.0, "lon": -77.026953}, {"lat": 38.896642666666665, "type": "electric_scooter", "rental_uris": {"android": "https://dc.lft.to/lastmile_qr_scan", "ios": "https://dc.lft.to/lastmile_qr_scan"}, "fusion_lat": 0.0, "name": "34505f22c94a7b92c4cdbd557830b45a", "is_reserved": 0, "is_disabled": 0, "bike_id": "34505f22c94a7b92c4cdbd557830b45a", "fusion_lon": 0.0, "lon": -76.98840066666666}, {"lat": 38.85528933333333, "type": "electric_bike", "rental_uris": {"android": "https://dc.lft.to/lastmile_qr_scan", "ios": "https://dc.lft.to/lastmile_qr_scan"}, "fusion_lat": 0.0, "name": "ff4ca5b3f9fe15141ffdff03de8e4a6c", "is_reserved": 0, "is_disabled": 0, "bike_id": "ff4ca5b3f9fe15141ffdff03de8e4a6c", "fusion_lon": 0.0, "lon": -76.98437366666667}, {"lat": 38.883962833333335, "type": "electric_scooter", "rental_uris": {"android": "https://dc.lft.to/lastmile_qr_scan", "ios": "https://dc.lft.to/lastmile_qr_scan"}, "fusion_lat": 0.0, "name": "6995e27982b1c1bce785ef8852ba03de", "is_reserved": 0, "is_disabled": 0, "bike_id": "6995e27982b1c1bce785ef8852ba03de", "fusion_lon": 0.0, "lon": -76.93051033333333}, {"lat": 38.91697466666667, "type": "electric_scooter", "rental_uris": {"android": "https://dc.lft.to/lastmile_qr_scan", "ios": "https://dc.lft.to/lastmile_qr_scan"}, "fusion_lat": 0.0, "name": "21c2868383f3e41d43966149f5fac967", "is_reserved": 0, "is_disabled": 0, "bike_id": "21c2868383f3e41d43966149f5fac967", "fusion_lon": 0.0, "lon": -77.03591083333333}, {"lat": 38.9158505, "type": "electric_scooter", "rental_uris": {"android": "https://dc.lft.to/lastmile_qr_scan", "ios": "https://dc.lft.to/lastmile_qr_scan"}, "fusion_lat": 0.0, "name": "45e10015515d9eba61d402b603bb69eb", "is_reserved": 0, "is_disabled": 0, "bike_id": "45e10015515d9eba61d402b603bb69eb", "fusion_lon": 0.0, "lon": -77.04174683333333}, {"lat": 38.921223833333336, "type": "electric_scooter", "rental_uris": {"android": "https://dc.lft.to/lastmile_qr_scan", "ios": "https://dc.lft.to/lastmile_qr_scan"}, "fusion_lat": 0.0, "name": "405d74550b04a5f08337a8286c5bf4f0", "is_reserved": 0, "is_disabled": 0, "bike_id": "405d74550b04a5f08337a8286c5bf4f0", "fusion_lon": 0.0, "lon": -77.0415315}, {"lat": 38.95625033333334, "type": "electric_bike", "rental_uris": {"android": "https://dc.lft.to/lastmile_qr_scan", "ios": "https://dc.lft.to/lastmile_qr_scan"}, "fusion_lat": 0.0, "name": "235757a133e0a913886cf16fc4ebf91a", "is_reserved": 0, "is_disabled": 0, "bike_id": "235757a133e0a913886cf16fc4ebf91a", "fusion_lon": 0.0, "lon": -77.02321733333333}, {"lat": 38.91418433333333, "type": "electric_scooter", "rental_uris": {"android": "https://dc.lft.to/lastmile_qr_scan", "ios": "https://dc.lft.to/lastmile_qr_scan"}, "fusion_lat": 0.0, "name": "50e0d77a9e9eabe19b182734af081a7b", "is_reserved": 0, "is_disabled": 0, "bike_id": "50e0d77a9e9eabe19b182734af081a7b", "fusion_lon": 0.0, "lon": -77.01802466666666}, {"lat": 38.921193, "type": "electric_scooter", "rental_uris": {"android": "https://dc.lft.to/lastmile_qr_scan", "ios": "https://dc.lft.to/lastmile_qr_scan"}, "fusion_lat": 0.0, "name": "c87a951cb20cd1d12782abb0a519a68e", "is_reserved": 0, "is_disabled": 0, "bike_id": "c87a951cb20cd1d12782abb0a519a68e", "fusion_lon": 0.0, "lon": -77.01213933333334}, {"lat": 38.917078333333336, "type": "electric_scooter", "rental_uris": {"android": "https://dc.lft.to/lastmile_qr_scan", "ios": "https://dc.lft.to/lastmile_qr_scan"}, "fusion_lat": 0.0, "name": "9ab21c999f671ce74d31d7d1e4f3e207", "is_reserved": 0, "is_disabled": 0, "bike_id": "9ab21c999f671ce74d31d7d1e4f3e207", "fusion_lon": 0.0, "lon": -77.030939}, {"lat": 38.872063, "type": "electric_scooter", "rental_uris": {"android": "https://dc.lft.to/lastmile_qr_scan", "ios": "https://dc.lft.to/lastmile_qr_scan"}, "fusion_lat": 0.0, "name": "e2a928cb12b2a63c87a97b391632b974", "is_reserved": 0, "is_disabled": 0, "bike_id": "e2a928cb12b2a63c87a97b391632b974", "fusion_lon": 0.0, "lon": -77.00577616666666}, {"lat": 38.924156333333336, "type": "electric_bike", "rental_uris": {"android": "https://dc.lft.to/lastmile_qr_scan", "ios": "https://dc.lft.to/lastmile_qr_scan"}, "fusion_lat": 0.0, "name": "f91bfa6ccaeaba760017ddad6c2d2103", "is_reserved": 0, "is_disabled": 0, "bike_id": "f91bfa6ccaeaba760017ddad6c2d2103", "fusion_lon": 0.0, "lon": -77.05053216666667}, {"lat": 38.91602066666667, "type": "electric_scooter", "rental_uris": {"android": "https://dc.lft.to/lastmile_qr_scan", "ios": "https://dc.lft.to/lastmile_qr_scan"}, "fusion_lat": 0.0, "name": "99ed47e38bbdef9f0dec289a90989b18", "is_reserved": 0, "is_disabled": 0, "bike_id": "99ed47e38bbdef9f0dec289a90989b18", "fusion_lon": 0.0, "lon": -77.022886}, {"lat": 38.895451, "type": "electric_scooter", "rental_uris": {"android": "https://dc.lft.to/lastmile_qr_scan", "ios": "https://dc.lft.to/lastmile_qr_scan"}, "fusion_lat": 0.0, "name": "585370976623e37219444b3849e617d0", "is_reserved": 0, "is_disabled": 0, "bike_id": "585370976623e37219444b3849e617d0", "fusion_lon": 0.0, "lon": -76.98338716666666}, {"lat": 38.86977866666667, "type": "electric_scooter", "rental_uris": {"android": "https://dc.lft.to/lastmile_qr_scan", "ios": "https://dc.lft.to/lastmile_qr_scan"}, "fusion_lat": 0.0, "name": "3f3ac5f7208b8d4d77fcb561aeeb43d3", "is_reserved": 0, "is_disabled": 0, "bike_id": "3f3ac5f7208b8d4d77fcb561aeeb43d3", "fusion_lon": 0.0, "lon": -77.01371216666666}, {"lat": 38.914772, "type": "electric_scooter", "rental_uris": {"android": "https://dc.lft.to/lastmile_qr_scan", "ios": "https://dc.lft.to/lastmile_qr_scan"}, "fusion_lat": 0.0, "name": "41659530ad408f4dcf417897114996ea", "is_reserved": 0, "is_disabled": 0, "bike_id": "41659530ad408f4dcf417897114996ea", "fusion_lon": 0.0, "lon": -77.03755233333334}, {"lat": 38.873667166666664, "type": "electric_scooter", "rental_uris": {"android": "https://dc.lft.to/lastmile_qr_scan", "ios": "https://dc.lft.to/lastmile_qr_scan"}, "fusion_lat": 0.0, "name": "71b0c479aaefe933c0aa4d66c128eb46", "is_reserved": 0, "is_disabled": 0, "bike_id": "71b0c479aaefe933c0aa4d66c128eb46", "fusion_lon": 0.0, "lon": -77.00133716666667}, {"lat": 38.90464, "type": "electric_scooter", "rental_uris": {"android": "https://dc.lft.to/lastmile_qr_scan", "ios": "https://dc.lft.to/lastmile_qr_scan"}, "fusion_lat": 0.0, "name": "02a80a25ac71a9311cac652f558c02ea", "is_reserved": 0, "is_disabled": 0, "bike_id": "02a80a25ac71a9311cac652f558c02ea", "fusion_lon": 0.0, "lon": -77.066074}, {"lat": 38.987812166666664, "type": "electric_bike", "rental_uris": {"android": "https://dc.lft.to/lastmile_qr_scan", "ios": "https://dc.lft.to/lastmile_qr_scan"}, "fusion_lat": 0.0, "name": "7c4da6f190b7208eedd07d92df5afac0", "is_reserved": 0, "is_disabled": 0, "bike_id": "7c4da6f190b7208eedd07d92df5afac0", "fusion_lon": 0.0, "lon": -77.14102483333333}, {"lat": 38.932255833333336, "type": "electric_scooter", "rental_uris": {"android": "https://dc.lft.to/lastmile_qr_scan", "ios": "https://dc.lft.to/lastmile_qr_scan"}, "fusion_lat": 0.0, "name": "001607b43db4ff1d5509eaaef0237566", "is_reserved": 0, "is_disabled": 0, "bike_id": "001607b43db4ff1d5509eaaef0237566", "fusion_lon": 0.0, "lon": -77.02975616666667}, {"lat": 38.88729433333334, "type": "electric_scooter", "rental_uris": {"android": "https://dc.lft.to/lastmile_qr_scan", "ios": "https://dc.lft.to/lastmile_qr_scan"}, "fusion_lat": 0.0, "name": "9549c6622acd67b9830f4ea0606ebbb8", "is_reserved": 0, "is_disabled": 0, "bike_id": "9549c6622acd67b9830f4ea0606ebbb8", "fusion_lon": 0.0, "lon": -77.01336516666667}, {"lat": 38.916651, "type": "electric_scooter", "rental_uris": {"android": "https://dc.lft.to/lastmile_qr_scan", "ios": "https://dc.lft.to/lastmile_qr_scan"}, "fusion_lat": 0.0, "name": "932d98a0e19347ca9657c751115fd843", "is_reserved": 0, "is_disabled": 0, "bike_id": "932d98a0e19347ca9657c751115fd843", "fusion_lon": 0.0, "lon": -77.0240845}, {"lat": 38.88419366666667, "type": "electric_scooter", "rental_uris": {"android": "https://dc.lft.to/lastmile_qr_scan", "ios": "https://dc.lft.to/lastmile_qr_scan"}, "fusion_lat": 0.0, "name": "a65aff103c463701427a46348567b3c9", "is_reserved": 0, "is_disabled": 0, "bike_id": "a65aff103c463701427a46348567b3c9", "fusion_lon": 0.0, "lon": -77.00685333333334}, {"lat": 38.87312383333333, "type": "electric_scooter", "rental_uris": {"android": "https://dc.lft.to/lastmile_qr_scan", "ios": "https://dc.lft.to/lastmile_qr_scan"}, "fusion_lat": 0.0, "name": "c6d350c9ec5c27c9ea4e7088d8f86958", "is_reserved": 0, "is_disabled": 0, "bike_id": "c6d350c9ec5c27c9ea4e7088d8f86958", "fusion_lon": 0.0, "lon": -77.00143966666667}, {"lat": 38.933448166666665, "type": "electric_scooter", "rental_uris": {"android": "https://dc.lft.to/lastmile_qr_scan", "ios": "https://dc.lft.to/lastmile_qr_scan"}, "fusion_lat": 0.0, "name": "d8a44d9d9c31aaa573f4afab00da4de0", "is_reserved": 0, "is_disabled": 0, "bike_id": "d8a44d9d9c31aaa573f4afab00da4de0", "fusion_lon": 0.0, "lon": -77.06196933333334}, {"lat": 38.91543766666667, "type": "electric_scooter", "rental_uris": {"android": "https://dc.lft.to/lastmile_qr_scan", "ios": "https://dc.lft.to/lastmile_qr_scan"}, "fusion_lat": 0.0, "name": "7dda8141cddfe3797323f8476a5808d0", "is_reserved": 0, "is_disabled": 0, "bike_id": "7dda8141cddfe3797323f8476a5808d0", "fusion_lon": 0.0, "lon": -77.038541}, {"lat": 38.91409216666667, "type": "electric_scooter", "rental_uris": {"android": "https://dc.lft.to/lastmile_qr_scan", "ios": "https://dc.lft.to/lastmile_qr_scan"}, "fusion_lat": 0.0, "name": "4bc879d7e45973dbfa8354619c9c82ed", "is_reserved": 0, "is_disabled": 0, "bike_id": "4bc879d7e45973dbfa8354619c9c82ed", "fusion_lon": 0.0, "lon": -77.02099166666666}, {"lat": 38.897447166666666, "type": "electric_scooter", "rental_uris": {"android": "https://dc.lft.to/lastmile_qr_scan", "ios": "https://dc.lft.to/lastmile_qr_scan"}, "fusion_lat": 0.0, "name": "fbbad6bd8474def1a5f1128e447d034e", "is_reserved": 0, "is_disabled": 0, "bike_id": "fbbad6bd8474def1a5f1128e447d034e", "fusion_lon": 0.0, "lon": -77.01292283333333}, {"lat": 38.89221916666666, "type": "electric_scooter", "rental_uris": {"android": "https://dc.lft.to/lastmile_qr_scan", "ios": "https://dc.lft.to/lastmile_qr_scan"}, "fusion_lat": 0.0, "name": "24235ddce127787f19a7de79e9033931", "is_reserved": 0, "is_disabled": 0, "bike_id": "24235ddce127787f19a7de79e9033931", "fusion_lon": 0.0, "lon": -77.02644783333334}, {"lat": 38.925919666666665, "type": "electric_scooter", "rental_uris": {"android": "https://dc.lft.to/lastmile_qr_scan", "ios": "https://dc.lft.to/lastmile_qr_scan"}, "fusion_lat": 0.0, "name": "31efed3c0f0b96062179e28af320f96d", "is_reserved": 0, "is_disabled": 0, "bike_id": "31efed3c0f0b96062179e28af320f96d", "fusion_lon": 0.0, "lon": -77.035553}, {"lat": 38.914789, "type": "electric_scooter", "rental_uris": {"android": "https://dc.lft.to/lastmile_qr_scan", "ios": "https://dc.lft.to/lastmile_qr_scan"}, "fusion_lat": 0.0, "name": "4527fe901310b01093e94f473f6cf90c", "is_reserved": 0, "is_disabled": 0, "bike_id": "4527fe901310b01093e94f473f6cf90c", "fusion_lon": 0.0, "lon": -77.04609233333333}, {"lat": 38.9177995, "type": "electric_scooter", "rental_uris": {"android": "https://dc.lft.to/lastmile_qr_scan", "ios": "https://dc.lft.to/lastmile_qr_scan"}, "fusion_lat": 0.0, "name": "7efc08dd86667dab4d204e5c4d3a3b0c", "is_reserved": 0, "is_disabled": 0, "bike_id": "7efc08dd86667dab4d204e5c4d3a3b0c", "fusion_lon": 0.0, "lon": -77.032261}, {"lat": 38.924718666666664, "type": "electric_scooter", "rental_uris": {"android": "https://dc.lft.to/lastmile_qr_scan", "ios": "https://dc.lft.to/lastmile_qr_scan"}, "fusion_lat": 0.0, "name": "5872559a9402e9856d8ec72f83678741", "is_reserved": 0, "is_disabled": 0, "bike_id": "5872559a9402e9856d8ec72f83678741", "fusion_lon": 0.0, "lon": -77.03561616666667}, {"lat": 38.922016, "type": "electric_scooter", "rental_uris": {"android": "https://dc.lft.to/lastmile_qr_scan", "ios": "https://dc.lft.to/lastmile_qr_scan"}, "fusion_lat": 0.0, "name": "fb828ae87fa8f1b63e7471527ff77a5b", "is_reserved": 0, "is_disabled": 0, "bike_id": "fb828ae87fa8f1b63e7471527ff77a5b", "fusion_lon": 0.0, "lon": -77.04202466666666}, {"lat": 38.922315833333336, "type": "electric_scooter", "rental_uris": {"android": "https://dc.lft.to/lastmile_qr_scan", "ios": "https://dc.lft.to/lastmile_qr_scan"}, "fusion_lat": 0.0, "name": "0586250f98ec35a3ad34a490c6558c77", "is_reserved": 0, "is_disabled": 0, "bike_id": "0586250f98ec35a3ad34a490c6558c77", "fusion_lon": 0.0, "lon": -76.9753155}, {"lat": 38.917110666666666, "type": "electric_scooter", "rental_uris": {"android": "https://dc.lft.to/lastmile_qr_scan", "ios": "https://dc.lft.to/lastmile_qr_scan"}, "fusion_lat": 0.0, "name": "ee5b67be61420ada386597183c8b142c", "is_reserved": 0, "is_disabled": 0, "bike_id": "ee5b67be61420ada386597183c8b142c", "fusion_lon": 0.0, "lon": -77.030996}, {"lat": 38.90144433333333, "type": "electric_scooter", "rental_uris": {"android": "https://dc.lft.to/lastmile_qr_scan", "ios": "https://dc.lft.to/lastmile_qr_scan"}, "fusion_lat": 0.0, "name": "81c256444424e53a7a699d476dfb8b10", "is_reserved": 0, "is_disabled": 0, "bike_id": "81c256444424e53a7a699d476dfb8b10", "fusion_lon": 0.0, "lon": -76.974221}, {"lat": 38.915942333333334, "type": "electric_scooter", "rental_uris": {"android": "https://dc.lft.to/lastmile_qr_scan", "ios": "https://dc.lft.to/lastmile_qr_scan"}, "fusion_lat": 0.0, "name": "d478d01655a3e47c0dce56a1e77471bd", "is_reserved": 0, "is_disabled": 0, "bike_id": "d478d01655a3e47c0dce56a1e77471bd", "fusion_lon": 0.0, "lon": -77.04526266666667}, {"lat": 38.9078575, "type": "electric_scooter", "rental_uris": {"android": "https://dc.lft.to/lastmile_qr_scan", "ios": "https://dc.lft.to/lastmile_qr_scan"}, "fusion_lat": 0.0, "name": "14e69913075af3968860aa44c61f7780", "is_reserved": 0, "is_disabled": 0, "bike_id": "14e69913075af3968860aa44c61f7780", "fusion_lon": 0.0, "lon": -77.03606316666666}, {"lat": 38.92020683333333, "type": "electric_scooter", "rental_uris": {"android": "https://dc.lft.to/lastmile_qr_scan", "ios": "https://dc.lft.to/lastmile_qr_scan"}, "fusion_lat": 0.0, "name": "90a41e1c0c460a31e84412910c7ff961", "is_reserved": 0, "is_disabled": 0, "bike_id": "90a41e1c0c460a31e84412910c7ff961", "fusion_lon": 0.0, "lon": -77.0311995}, {"lat": 38.90835083333333, "type": "electric_scooter", "rental_uris": {"android": "https://dc.lft.to/lastmile_qr_scan", "ios": "https://dc.lft.to/lastmile_qr_scan"}, "fusion_lat": 0.0, "name": "5f057a55318a8e374c2bcd139598fa5f", "is_reserved": 0, "is_disabled": 0, "bike_id": "5f057a55318a8e374c2bcd139598fa5f", "fusion_lon": 0.0, "lon": -77.04346483333333}, {"lat": 38.8874, "type": "electric_scooter", "rental_uris": {"android": "https://dc.lft.to/lastmile_qr_scan", "ios": "https://dc.lft.to/lastmile_qr_scan"}, "fusion_lat": 0.0, "name": "6b7f3284dcaae05075aa165da0dc223b", "is_reserved": 0, "is_disabled": 0, "bike_id": "6b7f3284dcaae05075aa165da0dc223b", "fusion_lon": 0.0, "lon": -77.01779066666667}, {"lat": 38.91593133333333, "type": "electric_scooter", "rental_uris": {"android": "https://dc.lft.to/lastmile_qr_scan", "ios": "https://dc.lft.to/lastmile_qr_scan"}, "fusion_lat": 0.0, "name": "a41487bfa158a820c71820b25bfe1924", "is_reserved": 0, "is_disabled": 0, "bike_id": "a41487bfa158a820c71820b25bfe1924", "fusion_lon": 0.0, "lon": -77.01483433333334}, {"lat": 38.88764466666667, "type": "electric_scooter", "rental_uris": {"android": "https://dc.lft.to/lastmile_qr_scan", "ios": "https://dc.lft.to/lastmile_qr_scan"}, "fusion_lat": 0.0, "name": "1b98234c0ea7e93b6e628c501eb7ff2a", "is_reserved": 0, "is_disabled": 0, "bike_id": "1b98234c0ea7e93b6e628c501eb7ff2a", "fusion_lon": 0.0, "lon": -76.98293383333333}, {"lat": 38.914157833333334, "type": "electric_scooter", "rental_uris": {"android": "https://dc.lft.to/lastmile_qr_scan", "ios": "https://dc.lft.to/lastmile_qr_scan"}, "fusion_lat": 0.0, "name": "12a2f3fb297358f14a59c3f662e69815", "is_reserved": 0, "is_disabled": 0, "bike_id": "12a2f3fb297358f14a59c3f662e69815", "fusion_lon": 0.0, "lon": -77.02092633333334}, {"lat": 38.92148916666667, "type": "electric_scooter", "rental_uris": {"android": "https://dc.lft.to/lastmile_qr_scan", "ios": "https://dc.lft.to/lastmile_qr_scan"}, "fusion_lat": 0.0, "name": "170e1b932e31813fdce98795f7d33e79", "is_reserved": 0, "is_disabled": 0, "bike_id": "170e1b932e31813fdce98795f7d33e79", "fusion_lon": 0.0, "lon": -77.03381483333334}, {"lat": 38.90514916666667, "type": "electric_scooter", "rental_uris": {"android": "https://dc.lft.to/lastmile_qr_scan", "ios": "https://dc.lft.to/lastmile_qr_scan"}, "fusion_lat": 0.0, "name": "37de9a513c9796b4a3ea8cf5353b856d", "is_reserved": 0, "is_disabled": 0, "bike_id": "37de9a513c9796b4a3ea8cf5353b856d", "fusion_lon": 0.0, "lon": -77.04865866666667}, {"lat": 38.87826483333333, "type": "electric_scooter", "rental_uris": {"android": "https://dc.lft.to/lastmile_qr_scan", "ios": "https://dc.lft.to/lastmile_qr_scan"}, "fusion_lat": 0.0, "name": "dc97f3b8dc8799da57391b82cb04c2ce", "is_reserved": 0, "is_disabled": 0, "bike_id": "dc97f3b8dc8799da57391b82cb04c2ce", "fusion_lon": 0.0, "lon": -77.0062525}, {"lat": 38.93042, "type": "electric_scooter", "rental_uris": {"android": "https://dc.lft.to/lastmile_qr_scan", "ios": "https://dc.lft.to/lastmile_qr_scan"}, "fusion_lat": 0.0, "name": "704bf8a62399aaa3d05b45e0872586fe", "is_reserved": 0, "is_disabled": 0, "bike_id": "704bf8a62399aaa3d05b45e0872586fe", "fusion_lon": 0.0, "lon": -77.032262}, {"lat": 38.956434, "type": "electric_scooter", "rental_uris": {"android": "https://dc.lft.to/lastmile_qr_scan", "ios": "https://dc.lft.to/lastmile_qr_scan"}, "fusion_lat": 0.0, "name": "24870648d592f2f03006c8eef543c190", "is_reserved": 0, "is_disabled": 0, "bike_id": "24870648d592f2f03006c8eef543c190", "fusion_lon": 0.0, "lon": -77.00981366666667}, {"lat": 38.896175666666664, "type": "electric_scooter", "rental_uris": {"android": "https://dc.lft.to/lastmile_qr_scan", "ios": "https://dc.lft.to/lastmile_qr_scan"}, "fusion_lat": 0.0, "name": "5edb5340bec96f7c15fdc6be00b4bae2", "is_reserved": 0, "is_disabled": 0, "bike_id": "5edb5340bec96f7c15fdc6be00b4bae2", "fusion_lon": 0.0, "lon": -76.985707}, {"lat": 38.925999166666664, "type": "electric_scooter", "rental_uris": {"android": "https://dc.lft.to/lastmile_qr_scan", "ios": "https://dc.lft.to/lastmile_qr_scan"}, "fusion_lat": 0.0, "name": "2272ec3d2709a7339147d03b626fa642", "is_reserved": 0, "is_disabled": 0, "bike_id": "2272ec3d2709a7339147d03b626fa642", "fusion_lon": 0.0, "lon": -77.02388083333334}, {"lat": 38.920905, "type": "electric_scooter", "rental_uris": {"android": "https://dc.lft.to/lastmile_qr_scan", "ios": "https://dc.lft.to/lastmile_qr_scan"}, "fusion_lat": 0.0, "name": "a5c998861ad00c67f66610d963376164", "is_reserved": 0, "is_disabled": 0, "bike_id": "a5c998861ad00c67f66610d963376164", "fusion_lon": 0.0, "lon": -77.02529883333334}, {"lat": 38.87059566666667, "type": "electric_bike", "rental_uris": {"android": "https://dc.lft.to/lastmile_qr_scan", "ios": "https://dc.lft.to/lastmile_qr_scan"}, "fusion_lat": 0.0, "name": "ffb6c734ffd39193a18a0a42ff4eaaa3", "is_reserved": 0, "is_disabled": 0, "bike_id": "ffb6c734ffd39193a18a0a42ff4eaaa3", "fusion_lon": 0.0, "lon": -77.0136205}, {"lat": 38.8955, "type": "electric_scooter", "rental_uris": {"android": "https://dc.lft.to/lastmile_qr_scan", "ios": "https://dc.lft.to/lastmile_qr_scan"}, "fusion_lat": 0.0, "name": "bce45c830039060e69f7e077c4eea1c0", "is_reserved": 0, "is_disabled": 0, "bike_id": "bce45c830039060e69f7e077c4eea1c0", "fusion_lon": 0.0, "lon": -77.00926783333334}, {"lat": 38.90276266666667, "type": "electric_scooter", "rental_uris": {"android": "https://dc.lft.to/lastmile_qr_scan", "ios": "https://dc.lft.to/lastmile_qr_scan"}, "fusion_lat": 0.0, "name": "17abbf7dd1d8f4d1ab25a48b9f689684", "is_reserved": 0, "is_disabled": 0, "bike_id": "17abbf7dd1d8f4d1ab25a48b9f689684", "fusion_lon": 0.0, "lon": -77.0342365}, {"lat": 38.95727383333333, "type": "electric_scooter", "rental_uris": {"android": "https://dc.lft.to/lastmile_qr_scan", "ios": "https://dc.lft.to/lastmile_qr_scan"}, "fusion_lat": 0.0, "name": "d5f52c477902c6c8fee412c159003630", "is_reserved": 0, "is_disabled": 0, "bike_id": "d5f52c477902c6c8fee412c159003630", "fusion_lon": 0.0, "lon": -77.02407116666667}, {"lat": 38.8992415, "type": "electric_scooter", "rental_uris": {"android": "https://dc.lft.to/lastmile_qr_scan", "ios": "https://dc.lft.to/lastmile_qr_scan"}, "fusion_lat": 0.0, "name": "ce3a98131327af69f3d56e2387842bee", "is_reserved": 0, "is_disabled": 0, "bike_id": "ce3a98131327af69f3d56e2387842bee", "fusion_lon": 0.0, "lon": -77.01270366666667}, {"lat": 38.93449066666667, "type": "electric_scooter", "rental_uris": {"android": "https://dc.lft.to/lastmile_qr_scan", "ios": "https://dc.lft.to/lastmile_qr_scan"}, "fusion_lat": 0.0, "name": "11633c1b900e8bbdb419a05841066756", "is_reserved": 0, "is_disabled": 0, "bike_id": "11633c1b900e8bbdb419a05841066756", "fusion_lon": 0.0, "lon": -77.02918216666667}, {"lat": 38.92825666666667, "type": "electric_scooter", "rental_uris": {"android": "https://dc.lft.to/lastmile_qr_scan", "ios": "https://dc.lft.to/lastmile_qr_scan"}, "fusion_lat": 0.0, "name": "577bfd5fb05927a09ba456727c441ae4", "is_reserved": 0, "is_disabled": 0, "bike_id": "577bfd5fb05927a09ba456727c441ae4", "fusion_lon": 0.0, "lon": -77.054264}, {"lat": 38.9026425, "type": "electric_scooter", "rental_uris": {"android": "https://dc.lft.to/lastmile_qr_scan", "ios": "https://dc.lft.to/lastmile_qr_scan"}, "fusion_lat": 0.0, "name": "2a93340f0020903a17152d508386ade1", "is_reserved": 0, "is_disabled": 0, "bike_id": "2a93340f0020903a17152d508386ade1", "fusion_lon": 0.0, "lon": -77.05312533333333}, {"lat": 38.92493283333334, "type": "electric_scooter", "rental_uris": {"android": "https://dc.lft.to/lastmile_qr_scan", "ios": "https://dc.lft.to/lastmile_qr_scan"}, "fusion_lat": 0.0, "name": "8be8331e1579f83f05e9d50e6f98f328", "is_reserved": 0, "is_disabled": 0, "bike_id": "8be8331e1579f83f05e9d50e6f98f328", "fusion_lon": 0.0, "lon": -77.02408466666667}, {"lat": 38.915994833333336, "type": "electric_scooter", "rental_uris": {"android": "https://dc.lft.to/lastmile_qr_scan", "ios": "https://dc.lft.to/lastmile_qr_scan"}, "fusion_lat": 0.0, "name": "79da0fe3d982ccd8a957e8189103e82f", "is_reserved": 0, "is_disabled": 0, "bike_id": "79da0fe3d982ccd8a957e8189103e82f", "fusion_lon": 0.0, "lon": -77.032017}, {"lat": 38.953549833333334, "type": "electric_bike", "rental_uris": {"android": "https://dc.lft.to/lastmile_qr_scan", "ios": "https://dc.lft.to/lastmile_qr_scan"}, "fusion_lat": 0.0, "name": "4153a56f9146cf93a4aeed6592ea72bb", "is_reserved": 0, "is_disabled": 0, "bike_id": "4153a56f9146cf93a4aeed6592ea72bb", "fusion_lon": 0.0, "lon": -76.98098533333334}, {"lat": 38.91115383333333, "type": "electric_scooter", "rental_uris": {"android": "https://dc.lft.to/lastmile_qr_scan", "ios": "https://dc.lft.to/lastmile_qr_scan"}, "fusion_lat": 0.0, "name": "ca76dab247790f80537bd3dd108352bc", "is_reserved": 0, "is_disabled": 0, "bike_id": "ca76dab247790f80537bd3dd108352bc", "fusion_lon": 0.0, "lon": -77.03836933333334}, {"lat": 38.93025566666667, "type": "electric_scooter", "rental_uris": {"android": "https://dc.lft.to/lastmile_qr_scan", "ios": "https://dc.lft.to/lastmile_qr_scan"}, "fusion_lat": 0.0, "name": "6b2a7172c30d86a479b7f91408b189f6", "is_reserved": 0, "is_disabled": 0, "bike_id": "6b2a7172c30d86a479b7f91408b189f6", "fusion_lon": 0.0, "lon": -77.05734783333334}, {"lat": 38.909926166666665, "type": "electric_scooter", "rental_uris": {"android": "https://dc.lft.to/lastmile_qr_scan", "ios": "https://dc.lft.to/lastmile_qr_scan"}, "fusion_lat": 0.0, "name": "80d1b0095240458d2398c5d2ef4604ca", "is_reserved": 0, "is_disabled": 0, "bike_id": "80d1b0095240458d2398c5d2ef4604ca", "fusion_lon": 0.0, "lon": -77.04008866666666}, {"lat": 38.980424166666666, "type": "electric_bike", "rental_uris": {"android": "https://dc.lft.to/lastmile_qr_scan", "ios": "https://dc.lft.to/lastmile_qr_scan"}, "fusion_lat": 0.0, "name": "549203abfaef715cda8f014692575303", "is_reserved": 0, "is_disabled": 0, "bike_id": "549203abfaef715cda8f014692575303", "fusion_lon": 0.0, "lon": -76.9578895}, {"lat": 38.916896666666666, "type": "electric_scooter", "rental_uris": {"android": "https://dc.lft.to/lastmile_qr_scan", "ios": "https://dc.lft.to/lastmile_qr_scan"}, "fusion_lat": 0.0, "name": "9b352cc33438d53c67040782067cbae6", "is_reserved": 0, "is_disabled": 0, "bike_id": "9b352cc33438d53c67040782067cbae6", "fusion_lon": 0.0, "lon": -77.03038}, {"lat": 38.941902166666665, "type": "electric_scooter", "rental_uris": {"android": "https://dc.lft.to/lastmile_qr_scan", "ios": "https://dc.lft.to/lastmile_qr_scan"}, "fusion_lat": 0.0, "name": "0327a2b6ab731eadfea838058645fc26", "is_reserved": 0, "is_disabled": 0, "bike_id": "0327a2b6ab731eadfea838058645fc26", "fusion_lon": 0.0, "lon": -77.04111916666666}, {"lat": 38.94266366666667, "type": "electric_scooter", "rental_uris": {"android": "https://dc.lft.to/lastmile_qr_scan", "ios": "https://dc.lft.to/lastmile_qr_scan"}, "fusion_lat": 0.0, "name": "c200cdf39e71771025700387a02628dc", "is_reserved": 0, "is_disabled": 0, "bike_id": "c200cdf39e71771025700387a02628dc", "fusion_lon": 0.0, "lon": -77.03262183333334}, {"lat": 38.907098833333336, "type": "electric_scooter", "rental_uris": {"android": "https://dc.lft.to/lastmile_qr_scan", "ios": "https://dc.lft.to/lastmile_qr_scan"}, "fusion_lat": 0.0, "name": "8f257e1cae0136734450c2ac6ff34b4d", "is_reserved": 0, "is_disabled": 0, "bike_id": "8f257e1cae0136734450c2ac6ff34b4d", "fusion_lon": 0.0, "lon": -77.025212}, {"lat": 38.870196166666666, "type": "electric_bike", "rental_uris": {"android": "https://dc.lft.to/lastmile_qr_scan", "ios": "https://dc.lft.to/lastmile_qr_scan"}, "fusion_lat": 0.0, "name": "bc644ef9b3a9c633f9648187e10653b0", "is_reserved": 0, "is_disabled": 0, "bike_id": "bc644ef9b3a9c633f9648187e10653b0", "fusion_lon": 0.0, "lon": -77.22887383333334}, {"lat": 38.89233466666667, "type": "electric_scooter", "rental_uris": {"android": "https://dc.lft.to/lastmile_qr_scan", "ios": "https://dc.lft.to/lastmile_qr_scan"}, "fusion_lat": 0.0, "name": "8fe0664de1eb1122392c7aaa41ee09a5", "is_reserved": 0, "is_disabled": 0, "bike_id": "8fe0664de1eb1122392c7aaa41ee09a5", "fusion_lon": 0.0, "lon": -77.04362416666666}, {"lat": 38.9191345, "type": "electric_scooter", "rental_uris": {"android": "https://dc.lft.to/lastmile_qr_scan", "ios": "https://dc.lft.to/lastmile_qr_scan"}, "fusion_lat": 0.0, "name": "9941b043f4c1d0f0bbdc495b7c08a913", "is_reserved": 0, "is_disabled": 0, "bike_id": "9941b043f4c1d0f0bbdc495b7c08a913", "fusion_lon": 0.0, "lon": -77.03264766666666}, {"lat": 38.87082516666667, "type": "electric_bike", "rental_uris": {"android": "https://dc.lft.to/lastmile_qr_scan", "ios": "https://dc.lft.to/lastmile_qr_scan"}, "fusion_lat": 0.0, "name": "716449808077c181a36f5e74e1f72e61", "is_reserved": 0, "is_disabled": 0, "bike_id": "716449808077c181a36f5e74e1f72e61", "fusion_lon": 0.0, "lon": -77.01214533333334}, {"lat": 38.92714483333334, "type": "electric_bike", "rental_uris": {"android": "https://dc.lft.to/lastmile_qr_scan", "ios": "https://dc.lft.to/lastmile_qr_scan"}, "fusion_lat": 0.0, "name": "0c3b78c1a8a267ecefb7cc9605182f69", "is_reserved": 0, "is_disabled": 0, "bike_id": "0c3b78c1a8a267ecefb7cc9605182f69", "fusion_lon": 0.0, "lon": -77.02090933333334}, {"lat": 38.89786083333333, "type": "electric_scooter", "rental_uris": {"android": "https://dc.lft.to/lastmile_qr_scan", "ios": "https://dc.lft.to/lastmile_qr_scan"}, "fusion_lat": 0.0, "name": "d0bc8f25643f5825a337caee4480ca46", "is_reserved": 0, "is_disabled": 0, "bike_id": "d0bc8f25643f5825a337caee4480ca46", "fusion_lon": 0.0, "lon": -76.9473255}, {"lat": 38.91699283333333, "type": "electric_scooter", "rental_uris": {"android": "https://dc.lft.to/lastmile_qr_scan", "ios": "https://dc.lft.to/lastmile_qr_scan"}, "fusion_lat": 0.0, "name": "ac77d018104037f82484d9a6aeac36cc", "is_reserved": 0, "is_disabled": 0, "bike_id": "ac77d018104037f82484d9a6aeac36cc", "fusion_lon": 0.0, "lon": -77.03334783333334}, {"lat": 38.903798, "type": "electric_scooter", "rental_uris": {"android": "https://dc.lft.to/lastmile_qr_scan", "ios": "https://dc.lft.to/lastmile_qr_scan"}, "fusion_lat": 0.0, "name": "19a1fbfeb79862cf53c905c29cdec40c", "is_reserved": 0, "is_disabled": 0, "bike_id": "19a1fbfeb79862cf53c905c29cdec40c", "fusion_lon": 0.0, "lon": -77.02979133333334}, {"lat": 38.927968666666665, "type": "electric_scooter", "rental_uris": {"android": "https://dc.lft.to/lastmile_qr_scan", "ios": "https://dc.lft.to/lastmile_qr_scan"}, "fusion_lat": 0.0, "name": "b7fead86fda7c3b7dd784573159fdbab", "is_reserved": 0, "is_disabled": 0, "bike_id": "b7fead86fda7c3b7dd784573159fdbab", "fusion_lon": 0.0, "lon": -77.02736483333334}, {"lat": 38.907182666666664, "type": "electric_scooter", "rental_uris": {"android": "https://dc.lft.to/lastmile_qr_scan", "ios": "https://dc.lft.to/lastmile_qr_scan"}, "fusion_lat": 0.0, "name": "88f2839845deb095b4699159c9f52631", "is_reserved": 0, "is_disabled": 0, "bike_id": "88f2839845deb095b4699159c9f52631", "fusion_lon": 0.0, "lon": -77.013817}, {"lat": 38.88740833333333, "type": "electric_scooter", "rental_uris": {"android": "https://dc.lft.to/lastmile_qr_scan", "ios": "https://dc.lft.to/lastmile_qr_scan"}, "fusion_lat": 0.0, "name": "f424889ce4ff6e299c415f384158b9c2", "is_reserved": 0, "is_disabled": 0, "bike_id": "f424889ce4ff6e299c415f384158b9c2", "fusion_lon": 0.0, "lon": -77.02569183333334}, {"lat": 38.836308333333335, "type": "electric_bike", "rental_uris": {"android": "https://dc.lft.to/lastmile_qr_scan", "ios": "https://dc.lft.to/lastmile_qr_scan"}, "fusion_lat": 0.0, "name": "8c2ccb834d5fb09da5e67647f39876a9", "is_reserved": 0, "is_disabled": 0, "bike_id": "8c2ccb834d5fb09da5e67647f39876a9", "fusion_lon": 0.0, "lon": -77.0695605}, {"lat": 38.921420833333336, "type": "electric_scooter", "rental_uris": {"android": "https://dc.lft.to/lastmile_qr_scan", "ios": "https://dc.lft.to/lastmile_qr_scan"}, "fusion_lat": 0.0, "name": "3a560ff0389c958a494335b802a4e9f2", "is_reserved": 0, "is_disabled": 0, "bike_id": "3a560ff0389c958a494335b802a4e9f2", "fusion_lon": 0.0, "lon": -77.04357116666667}, {"lat": 38.918574666666665, "type": "electric_bike", "rental_uris": {"android": "https://dc.lft.to/lastmile_qr_scan", "ios": "https://dc.lft.to/lastmile_qr_scan"}, "fusion_lat": 0.0, "name": "33193b60884636b9a4bdfec9e90734d1", "is_reserved": 0, "is_disabled": 0, "bike_id": "33193b60884636b9a4bdfec9e90734d1", "fusion_lon": 0.0, "lon": -76.96086183333334}, {"lat": 38.89922383333333, "type": "electric_scooter", "rental_uris": {"android": "https://dc.lft.to/lastmile_qr_scan", "ios": "https://dc.lft.to/lastmile_qr_scan"}, "fusion_lat": 0.0, "name": "1890bb0cb32f24bc6eba19012270f0a9", "is_reserved": 0, "is_disabled": 0, "bike_id": "1890bb0cb32f24bc6eba19012270f0a9", "fusion_lon": 0.0, "lon": -77.01273916666666}, {"lat": 38.9287535, "type": "electric_scooter", "rental_uris": {"android": "https://dc.lft.to/lastmile_qr_scan", "ios": "https://dc.lft.to/lastmile_qr_scan"}, "fusion_lat": 0.0, "name": "5a7bcc1683b67082f856f88df66a906c", "is_reserved": 0, "is_disabled": 0, "bike_id": "5a7bcc1683b67082f856f88df66a906c", "fusion_lon": 0.0, "lon": -77.04123966666667}, {"lat": 38.90652683333333, "type": "electric_scooter", "rental_uris": {"android": "https://dc.lft.to/lastmile_qr_scan", "ios": "https://dc.lft.to/lastmile_qr_scan"}, "fusion_lat": 0.0, "name": "7ed5b785bda814fde4e8dd8244b38734", "is_reserved": 0, "is_disabled": 0, "bike_id": "7ed5b785bda814fde4e8dd8244b38734", "fusion_lon": 0.0, "lon": -77.00959633333333}, {"lat": 38.870850833333336, "type": "electric_scooter", "rental_uris": {"android": "https://dc.lft.to/lastmile_qr_scan", "ios": "https://dc.lft.to/lastmile_qr_scan"}, "fusion_lat": 0.0, "name": "0e170acff33dea48682c18738b1eada8", "is_reserved": 0, "is_disabled": 0, "bike_id": "0e170acff33dea48682c18738b1eada8", "fusion_lon": 0.0, "lon": -77.013721}, {"lat": 38.934839333333336, "type": "electric_scooter", "rental_uris": {"android": "https://dc.lft.to/lastmile_qr_scan", "ios": "https://dc.lft.to/lastmile_qr_scan"}, "fusion_lat": 0.0, "name": "bfb8d6bffec725923c0d1e751103041a", "is_reserved": 0, "is_disabled": 0, "bike_id": "bfb8d6bffec725923c0d1e751103041a", "fusion_lon": 0.0, "lon": -77.0727245}, {"lat": 38.898164333333334, "type": "electric_scooter", "rental_uris": {"android": "https://dc.lft.to/lastmile_qr_scan", "ios": "https://dc.lft.to/lastmile_qr_scan"}, "fusion_lat": 0.0, "name": "d8c84db42613d3ea26507b75764726f3", "is_reserved": 0, "is_disabled": 0, "bike_id": "d8c84db42613d3ea26507b75764726f3", "fusion_lon": 0.0, "lon": -77.04764666666667}, {"lat": 38.915729666666664, "type": "electric_scooter", "rental_uris": {"android": "https://dc.lft.to/lastmile_qr_scan", "ios": "https://dc.lft.to/lastmile_qr_scan"}, "fusion_lat": 0.0, "name": "2c64e5885aa48df7cd1eeaf0141f18f5", "is_reserved": 0, "is_disabled": 0, "bike_id": "2c64e5885aa48df7cd1eeaf0141f18f5", "fusion_lon": 0.0, "lon": -77.03202966666667}, {"lat": 38.9613955, "type": "electric_scooter", "rental_uris": {"android": "https://dc.lft.to/lastmile_qr_scan", "ios": "https://dc.lft.to/lastmile_qr_scan"}, "fusion_lat": 0.0, "name": "2b6305d4f3ee121c39cb561eca682067", "is_reserved": 0, "is_disabled": 0, "bike_id": "2b6305d4f3ee121c39cb561eca682067", "fusion_lon": 0.0, "lon": -77.02800483333333}, {"lat": 38.871779833333335, "type": "electric_scooter", "rental_uris": {"android": "https://dc.lft.to/lastmile_qr_scan", "ios": "https://dc.lft.to/lastmile_qr_scan"}, "fusion_lat": 0.0, "name": "1517df84f10620399b52f754eda2573f", "is_reserved": 0, "is_disabled": 0, "bike_id": "1517df84f10620399b52f754eda2573f", "fusion_lon": 0.0, "lon": -77.0057455}, {"lat": 38.9032655, "type": "electric_scooter", "rental_uris": {"android": "https://dc.lft.to/lastmile_qr_scan", "ios": "https://dc.lft.to/lastmile_qr_scan"}, "fusion_lat": 0.0, "name": "30e6d7cc74c6fded6e0edcc0f2fd6908", "is_reserved": 0, "is_disabled": 0, "bike_id": "30e6d7cc74c6fded6e0edcc0f2fd6908", "fusion_lon": 0.0, "lon": -77.02447666666667}, {"lat": 38.90778066666667, "type": "electric_scooter", "rental_uris": {"android": "https://dc.lft.to/lastmile_qr_scan", "ios": "https://dc.lft.to/lastmile_qr_scan"}, "fusion_lat": 0.0, "name": "4b93225d262c4627d636d89af082b6a3", "is_reserved": 0, "is_disabled": 0, "bike_id": "4b93225d262c4627d636d89af082b6a3", "fusion_lon": 0.0, "lon": -76.93524083333334}, {"lat": 38.89253, "type": "electric_scooter", "rental_uris": {"android": "https://dc.lft.to/lastmile_qr_scan", "ios": "https://dc.lft.to/lastmile_qr_scan"}, "fusion_lat": 0.0, "name": "02c59ba7534035de70da85c8d83f98e2", "is_reserved": 0, "is_disabled": 0, "bike_id": "02c59ba7534035de70da85c8d83f98e2", "fusion_lon": 0.0, "lon": -77.03381516666667}, {"lat": 38.89898733333333, "type": "electric_scooter", "rental_uris": {"android": "https://dc.lft.to/lastmile_qr_scan", "ios": "https://dc.lft.to/lastmile_qr_scan"}, "fusion_lat": 0.0, "name": "7bb79d6c0056bad0b8fa4c6f3e4b6c57", "is_reserved": 0, "is_disabled": 0, "bike_id": "7bb79d6c0056bad0b8fa4c6f3e4b6c57", "fusion_lon": 0.0, "lon": -76.98498533333333}, {"lat": 38.90572216666666, "type": "electric_scooter", "rental_uris": {"android": "https://dc.lft.to/lastmile_qr_scan", "ios": "https://dc.lft.to/lastmile_qr_scan"}, "fusion_lat": 0.0, "name": "499cb493a6676030fd4493cb84d02714", "is_reserved": 0, "is_disabled": 0, "bike_id": "499cb493a6676030fd4493cb84d02714", "fusion_lon": 0.0, "lon": -77.00874133333333}, {"lat": 38.90161416666667, "type": "electric_scooter", "rental_uris": {"android": "https://dc.lft.to/lastmile_qr_scan", "ios": "https://dc.lft.to/lastmile_qr_scan"}, "fusion_lat": 0.0, "name": "f2e3c932020311beb8c74026c43a3782", "is_reserved": 0, "is_disabled": 0, "bike_id": "f2e3c932020311beb8c74026c43a3782", "fusion_lon": 0.0, "lon": -77.0160965}, {"lat": 38.91354166666667, "type": "electric_scooter", "rental_uris": {"android": "https://dc.lft.to/lastmile_qr_scan", "ios": "https://dc.lft.to/lastmile_qr_scan"}, "fusion_lat": 0.0, "name": "f4ab99d51cfaf1d72969967ce6e14f3a", "is_reserved": 0, "is_disabled": 0, "bike_id": "f4ab99d51cfaf1d72969967ce6e14f3a", "fusion_lon": 0.0, "lon": -77.02048583333334}, {"lat": 38.892456333333335, "type": "electric_scooter", "rental_uris": {"android": "https://dc.lft.to/lastmile_qr_scan", "ios": "https://dc.lft.to/lastmile_qr_scan"}, "fusion_lat": 0.0, "name": "720a91eb60dbbcd1c586a122cb0b9efa", "is_reserved": 0, "is_disabled": 0, "bike_id": "720a91eb60dbbcd1c586a122cb0b9efa", "fusion_lon": 0.0, "lon": -76.98836283333333}, {"lat": 39.004782166666665, "type": "electric_bike", "rental_uris": {"android": "https://dc.lft.to/lastmile_qr_scan", "ios": "https://dc.lft.to/lastmile_qr_scan"}, "fusion_lat": 0.0, "name": "48a58966c3f63db8860908c0d3d7713d", "is_reserved": 0, "is_disabled": 0, "bike_id": "48a58966c3f63db8860908c0d3d7713d", "fusion_lon": 0.0, "lon": -77.02186683333333}, {"lat": 38.88402216666667, "type": "electric_bike", "rental_uris": {"android": "https://dc.lft.to/lastmile_qr_scan", "ios": "https://dc.lft.to/lastmile_qr_scan"}, "fusion_lat": 0.0, "name": "7e960454e46323f5ebae2b61265641f6", "is_reserved": 0, "is_disabled": 0, "bike_id": "7e960454e46323f5ebae2b61265641f6", "fusion_lon": 0.0, "lon": -76.9606335}, {"lat": 38.901241, "type": "electric_scooter", "rental_uris": {"android": "https://dc.lft.to/lastmile_qr_scan", "ios": "https://dc.lft.to/lastmile_qr_scan"}, "fusion_lat": 0.0, "name": "4badd5bc660ed38c176bb76fc83f6523", "is_reserved": 0, "is_disabled": 0, "bike_id": "4badd5bc660ed38c176bb76fc83f6523", "fusion_lon": 0.0, "lon": -77.0021435}, {"lat": 38.92737616666667, "type": "electric_scooter", "rental_uris": {"android": "https://dc.lft.to/lastmile_qr_scan", "ios": "https://dc.lft.to/lastmile_qr_scan"}, "fusion_lat": 0.0, "name": "896a5cce7c3cc039017bb2f6c6fbb183", "is_reserved": 0, "is_disabled": 0, "bike_id": "896a5cce7c3cc039017bb2f6c6fbb183", "fusion_lon": 0.0, "lon": -76.9956295}, {"lat": 38.83579833333334, "type": "electric_bike", "rental_uris": {"android": "https://dc.lft.to/lastmile_qr_scan", "ios": "https://dc.lft.to/lastmile_qr_scan"}, "fusion_lat": 0.0, "name": "a483c7a4865db5db91b715216da22b00", "is_reserved": 0, "is_disabled": 0, "bike_id": "a483c7a4865db5db91b715216da22b00", "fusion_lon": 0.0, "lon": -76.9901095}, {"lat": 38.922187, "type": "electric_scooter", "rental_uris": {"android": "https://dc.lft.to/lastmile_qr_scan", "ios": "https://dc.lft.to/lastmile_qr_scan"}, "fusion_lat": 0.0, "name": "009c793d801ee4ad11f7b7903a7abdb7", "is_reserved": 0, "is_disabled": 0, "bike_id": "009c793d801ee4ad11f7b7903a7abdb7", "fusion_lon": 0.0, "lon": -77.02121083333333}, {"lat": 38.903401333333335, "type": "electric_scooter", "rental_uris": {"android": "https://dc.lft.to/lastmile_qr_scan", "ios": "https://dc.lft.to/lastmile_qr_scan"}, "fusion_lat": 0.0, "name": "285c281c36548ca080841cae84fdc7d6", "is_reserved": 0, "is_disabled": 0, "bike_id": "285c281c36548ca080841cae84fdc7d6", "fusion_lon": 0.0, "lon": -77.03983916666667}, {"lat": 38.8766535, "type": "electric_scooter", "rental_uris": {"android": "https://dc.lft.to/lastmile_qr_scan", "ios": "https://dc.lft.to/lastmile_qr_scan"}, "fusion_lat": 0.0, "name": "8d1e7199fa611dedd8cebfe458f1bb48", "is_reserved": 0, "is_disabled": 0, "bike_id": "8d1e7199fa611dedd8cebfe458f1bb48", "fusion_lon": 0.0, "lon": -77.00317816666667}, {"lat": 38.91792316666667, "type": "electric_scooter", "rental_uris": {"android": "https://dc.lft.to/lastmile_qr_scan", "ios": "https://dc.lft.to/lastmile_qr_scan"}, "fusion_lat": 0.0, "name": "9cabf728a72542c329c79121d6cbf7ba", "is_reserved": 0, "is_disabled": 0, "bike_id": "9cabf728a72542c329c79121d6cbf7ba", "fusion_lon": 0.0, "lon": -77.04436383333334}, {"lat": 38.9221875, "type": "electric_scooter", "rental_uris": {"android": "https://dc.lft.to/lastmile_qr_scan", "ios": "https://dc.lft.to/lastmile_qr_scan"}, "fusion_lat": 0.0, "name": "1854e9ae87a99129fe1f3817e80f6ae8", "is_reserved": 0, "is_disabled": 0, "bike_id": "1854e9ae87a99129fe1f3817e80f6ae8", "fusion_lon": 0.0, "lon": -77.020229}, {"lat": 38.90669183333333, "type": "electric_scooter", "rental_uris": {"android": "https://dc.lft.to/lastmile_qr_scan", "ios": "https://dc.lft.to/lastmile_qr_scan"}, "fusion_lat": 0.0, "name": "73e8d16cf463e6d77ae92f5c93ea34bf", "is_reserved": 0, "is_disabled": 0, "bike_id": "73e8d16cf463e6d77ae92f5c93ea34bf", "fusion_lon": 0.0, "lon": -77.02711666666667}, {"lat": 38.90949033333333, "type": "electric_scooter", "rental_uris": {"android": "https://dc.lft.to/lastmile_qr_scan", "ios": "https://dc.lft.to/lastmile_qr_scan"}, "fusion_lat": 0.0, "name": "8112551fa6c5d353f382944ad53af3ad", "is_reserved": 0, "is_disabled": 0, "bike_id": "8112551fa6c5d353f382944ad53af3ad", "fusion_lon": 0.0, "lon": -77.04617483333334}, {"lat": 38.90858383333333, "type": "electric_scooter", "rental_uris": {"android": "https://dc.lft.to/lastmile_qr_scan", "ios": "https://dc.lft.to/lastmile_qr_scan"}, "fusion_lat": 0.0, "name": "a7df0ca86cf65c0bf422b4a263ffd099", "is_reserved": 0, "is_disabled": 0, "bike_id": "a7df0ca86cf65c0bf422b4a263ffd099", "fusion_lon": 0.0, "lon": -77.0285135}, {"lat": 38.89998533333333, "type": "electric_scooter", "rental_uris": {"android": "https://dc.lft.to/lastmile_qr_scan", "ios": "https://dc.lft.to/lastmile_qr_scan"}, "fusion_lat": 0.0, "name": "8354baaeaaf7ab57e2e0ac4e1aeba2d7", "is_reserved": 0, "is_disabled": 0, "bike_id": "8354baaeaaf7ab57e2e0ac4e1aeba2d7", "fusion_lon": 0.0, "lon": -77.0064665}, {"lat": 38.90531416666666, "type": "electric_scooter", "rental_uris": {"android": "https://dc.lft.to/lastmile_qr_scan", "ios": "https://dc.lft.to/lastmile_qr_scan"}, "fusion_lat": 0.0, "name": "c9572b47e673ab408623f42674d0c839", "is_reserved": 0, "is_disabled": 0, "bike_id": "c9572b47e673ab408623f42674d0c839", "fusion_lon": 0.0, "lon": -77.05642133333333}, {"lat": 38.92449633333333, "type": "electric_scooter", "rental_uris": {"android": "https://dc.lft.to/lastmile_qr_scan", "ios": "https://dc.lft.to/lastmile_qr_scan"}, "fusion_lat": 0.0, "name": "143be848d2f3c824c1762877d0cace32", "is_reserved": 0, "is_disabled": 0, "bike_id": "143be848d2f3c824c1762877d0cace32", "fusion_lon": 0.0, "lon": -77.0203835}, {"lat": 38.927090666666665, "type": "electric_scooter", "rental_uris": {"android": "https://dc.lft.to/lastmile_qr_scan", "ios": "https://dc.lft.to/lastmile_qr_scan"}, "fusion_lat": 0.0, "name": "e25b34be54d65de420ef0783aa42cc4b", "is_reserved": 0, "is_disabled": 0, "bike_id": "e25b34be54d65de420ef0783aa42cc4b", "fusion_lon": 0.0, "lon": -77.04054833333333}, {"lat": 38.89723016666667, "type": "electric_scooter", "rental_uris": {"android": "https://dc.lft.to/lastmile_qr_scan", "ios": "https://dc.lft.to/lastmile_qr_scan"}, "fusion_lat": 0.0, "name": "51bdbeb969b4dd175bfe2bd36a5e68c9", "is_reserved": 0, "is_disabled": 0, "bike_id": "51bdbeb969b4dd175bfe2bd36a5e68c9", "fusion_lon": 0.0, "lon": -77.02333483333334}, {"lat": 38.89663216666667, "type": "electric_scooter", "rental_uris": {"android": "https://dc.lft.to/lastmile_qr_scan", "ios": "https://dc.lft.to/lastmile_qr_scan"}, "fusion_lat": 0.0, "name": "6b0c4b1d9ab067cd257620013ad002f3", "is_reserved": 0, "is_disabled": 0, "bike_id": "6b0c4b1d9ab067cd257620013ad002f3", "fusion_lon": 0.0, "lon": -76.93207683333333}, {"lat": 38.915643833333334, "type": "electric_scooter", "rental_uris": {"android": "https://dc.lft.to/lastmile_qr_scan", "ios": "https://dc.lft.to/lastmile_qr_scan"}, "fusion_lat": 0.0, "name": "df663c18e4ffa8af2cc34eabe4aa2a3e", "is_reserved": 0, "is_disabled": 0, "bike_id": "df663c18e4ffa8af2cc34eabe4aa2a3e", "fusion_lon": 0.0, "lon": -77.0201165}, {"lat": 38.92336783333333, "type": "electric_scooter", "rental_uris": {"android": "https://dc.lft.to/lastmile_qr_scan", "ios": "https://dc.lft.to/lastmile_qr_scan"}, "fusion_lat": 0.0, "name": "68f2be513339dac7d275884932384525", "is_reserved": 0, "is_disabled": 0, "bike_id": "68f2be513339dac7d275884932384525", "fusion_lon": 0.0, "lon": -77.019055}, {"lat": 38.87653683333333, "type": "electric_bike", "rental_uris": {"android": "https://dc.lft.to/lastmile_qr_scan", "ios": "https://dc.lft.to/lastmile_qr_scan"}, "fusion_lat": 0.0, "name": "918576a85c52a1c25b44253ca72a2641", "is_reserved": 0, "is_disabled": 0, "bike_id": "918576a85c52a1c25b44253ca72a2641", "fusion_lon": 0.0, "lon": -77.01561683333334}, {"lat": 38.90153433333333, "type": "electric_scooter", "rental_uris": {"android": "https://dc.lft.to/lastmile_qr_scan", "ios": "https://dc.lft.to/lastmile_qr_scan"}, "fusion_lat": 0.0, "name": "fd93e35afe059a59acb7364c4e5cdea4", "is_reserved": 0, "is_disabled": 0, "bike_id": "fd93e35afe059a59acb7364c4e5cdea4", "fusion_lon": 0.0, "lon": -77.02697733333333}, {"lat": 38.88417316666666, "type": "electric_scooter", "rental_uris": {"android": "https://dc.lft.to/lastmile_qr_scan", "ios": "https://dc.lft.to/lastmile_qr_scan"}, "fusion_lat": 0.0, "name": "740d0414f7723ed248d4c352f752f6a9", "is_reserved": 0, "is_disabled": 0, "bike_id": "740d0414f7723ed248d4c352f752f6a9", "fusion_lon": 0.0, "lon": -77.00822583333333}, {"lat": 38.90027166666667, "type": "electric_scooter", "rental_uris": {"android": "https://dc.lft.to/lastmile_qr_scan", "ios": "https://dc.lft.to/lastmile_qr_scan"}, "fusion_lat": 0.0, "name": "baf3a323bbfa0b0e45c39f5a50e784b6", "is_reserved": 0, "is_disabled": 0, "bike_id": "baf3a323bbfa0b0e45c39f5a50e784b6", "fusion_lon": 0.0, "lon": -76.988379}, {"lat": 38.95593066666667, "type": "electric_scooter", "rental_uris": {"android": "https://dc.lft.to/lastmile_qr_scan", "ios": "https://dc.lft.to/lastmile_qr_scan"}, "fusion_lat": 0.0, "name": "b914a6d290ef17f7a78b33f3305d5ae7", "is_reserved": 0, "is_disabled": 0, "bike_id": "b914a6d290ef17f7a78b33f3305d5ae7", "fusion_lon": 0.0, "lon": -77.03366666666666}, {"lat": 38.9170585, "type": "electric_scooter", "rental_uris": {"android": "https://dc.lft.to/lastmile_qr_scan", "ios": "https://dc.lft.to/lastmile_qr_scan"}, "fusion_lat": 0.0, "name": "1f96011e21552f81ab4d419410db8674", "is_reserved": 0, "is_disabled": 0, "bike_id": "1f96011e21552f81ab4d419410db8674", "fusion_lon": 0.0, "lon": -77.028902}, {"lat": 38.874577, "type": "electric_scooter", "rental_uris": {"android": "https://dc.lft.to/lastmile_qr_scan", "ios": "https://dc.lft.to/lastmile_qr_scan"}, "fusion_lat": 0.0, "name": "55db1e6472bdc91ebb041c13a56f213b", "is_reserved": 0, "is_disabled": 0, "bike_id": "55db1e6472bdc91ebb041c13a56f213b", "fusion_lon": 0.0, "lon": -77.00928083333334}, {"lat": 38.9142565, "type": "electric_scooter", "rental_uris": {"android": "https://dc.lft.to/lastmile_qr_scan", "ios": "https://dc.lft.to/lastmile_qr_scan"}, "fusion_lat": 0.0, "name": "4a61bf6093134fd23e5c0d09d59092f2", "is_reserved": 0, "is_disabled": 0, "bike_id": "4a61bf6093134fd23e5c0d09d59092f2", "fusion_lon": 0.0, "lon": -77.0180105}, {"lat": 38.8960315, "type": "electric_scooter", "rental_uris": {"android": "https://dc.lft.to/lastmile_qr_scan", "ios": "https://dc.lft.to/lastmile_qr_scan"}, "fusion_lat": 0.0, "name": "6f44411a6c9fa60c5e60c0565fe24c5c", "is_reserved": 0, "is_disabled": 0, "bike_id": "6f44411a6c9fa60c5e60c0565fe24c5c", "fusion_lon": 0.0, "lon": -77.02347583333334}, {"lat": 38.972556166666664, "type": "electric_bike", "rental_uris": {"android": "https://dc.lft.to/lastmile_qr_scan", "ios": "https://dc.lft.to/lastmile_qr_scan"}, "fusion_lat": 0.0, "name": "e0bf3842823598634c34b0fc5cdb8f8f", "is_reserved": 0, "is_disabled": 0, "bike_id": "e0bf3842823598634c34b0fc5cdb8f8f", "fusion_lon": 0.0, "lon": -76.99277783333334}, {"lat": 38.92464916666667, "type": "electric_scooter", "rental_uris": {"android": "https://dc.lft.to/lastmile_qr_scan", "ios": "https://dc.lft.to/lastmile_qr_scan"}, "fusion_lat": 0.0, "name": "283acc926e7cc4858d05184bc81c126f", "is_reserved": 0, "is_disabled": 0, "bike_id": "283acc926e7cc4858d05184bc81c126f", "fusion_lon": 0.0, "lon": -77.02697683333334}, {"lat": 38.92999983333333, "type": "electric_scooter", "rental_uris": {"android": "https://dc.lft.to/lastmile_qr_scan", "ios": "https://dc.lft.to/lastmile_qr_scan"}, "fusion_lat": 0.0, "name": "623c7ac89d56f98bf87f836e35e0b3ab", "is_reserved": 0, "is_disabled": 0, "bike_id": "623c7ac89d56f98bf87f836e35e0b3ab", "fusion_lon": 0.0, "lon": -77.03259533333333}, {"lat": 38.923042833333334, "type": "electric_scooter", "rental_uris": {"android": "https://dc.lft.to/lastmile_qr_scan", "ios": "https://dc.lft.to/lastmile_qr_scan"}, "fusion_lat": 0.0, "name": "f747099f46c8b30c0837614b47e8b81d", "is_reserved": 0, "is_disabled": 0, "bike_id": "f747099f46c8b30c0837614b47e8b81d", "fusion_lon": 0.0, "lon": -77.03044083333333}, {"lat": 38.88511416666667, "type": "electric_scooter", "rental_uris": {"android": "https://dc.lft.to/lastmile_qr_scan", "ios": "https://dc.lft.to/lastmile_qr_scan"}, "fusion_lat": 0.0, "name": "bf52b14c8c45f81d5a5f1b69e7dc351b", "is_reserved": 0, "is_disabled": 0, "bike_id": "bf52b14c8c45f81d5a5f1b69e7dc351b", "fusion_lon": 0.0, "lon": -77.0147785}, {"lat": 38.908274, "type": "electric_scooter", "rental_uris": {"android": "https://dc.lft.to/lastmile_qr_scan", "ios": "https://dc.lft.to/lastmile_qr_scan"}, "fusion_lat": 0.0, "name": "515dfbc336b04e25ea99be294f9c419b", "is_reserved": 0, "is_disabled": 0, "bike_id": "515dfbc336b04e25ea99be294f9c419b", "fusion_lon": 0.0, "lon": -77.03943933333333}, {"lat": 38.95597016666667, "type": "electric_bike", "rental_uris": {"android": "https://dc.lft.to/lastmile_qr_scan", "ios": "https://dc.lft.to/lastmile_qr_scan"}, "fusion_lat": 0.0, "name": "6e208b9295c444e2553c6d5b499032a0", "is_reserved": 0, "is_disabled": 0, "bike_id": "6e208b9295c444e2553c6d5b499032a0", "fusion_lon": 0.0, "lon": -77.010154}, {"lat": 38.8995435, "type": "electric_bike", "rental_uris": {"android": "https://dc.lft.to/lastmile_qr_scan", "ios": "https://dc.lft.to/lastmile_qr_scan"}, "fusion_lat": 0.0, "name": "9dbcbdbe6d80db5219e6885adccd75c8", "is_reserved": 0, "is_disabled": 0, "bike_id": "9dbcbdbe6d80db5219e6885adccd75c8", "fusion_lon": 0.0, "lon": -76.98677433333333}, {"lat": 38.93454583333333, "type": "electric_scooter", "rental_uris": {"android": "https://dc.lft.to/lastmile_qr_scan", "ios": "https://dc.lft.to/lastmile_qr_scan"}, "fusion_lat": 0.0, "name": "548f3cad78e720c3247166a3ccfecead", "is_reserved": 0, "is_disabled": 0, "bike_id": "548f3cad78e720c3247166a3ccfecead", "fusion_lon": 0.0, "lon": -77.0721715}, {"lat": 38.91725233333333, "type": "electric_scooter", "rental_uris": {"android": "https://dc.lft.to/lastmile_qr_scan", "ios": "https://dc.lft.to/lastmile_qr_scan"}, "fusion_lat": 0.0, "name": "af5bcda99393808eb8ef6b7347b64ec3", "is_reserved": 0, "is_disabled": 0, "bike_id": "af5bcda99393808eb8ef6b7347b64ec3", "fusion_lon": 0.0, "lon": -77.06849066666666}, {"lat": 38.92518366666667, "type": "electric_scooter", "rental_uris": {"android": "https://dc.lft.to/lastmile_qr_scan", "ios": "https://dc.lft.to/lastmile_qr_scan"}, "fusion_lat": 0.0, "name": "32565b62d5617f5b1908658cccec4f0a", "is_reserved": 0, "is_disabled": 0, "bike_id": "32565b62d5617f5b1908658cccec4f0a", "fusion_lon": 0.0, "lon": -77.07708016666666}, {"lat": 38.88818283333333, "type": "electric_scooter", "rental_uris": {"android": "https://dc.lft.to/lastmile_qr_scan", "ios": "https://dc.lft.to/lastmile_qr_scan"}, "fusion_lat": 0.0, "name": "3aa3894fba961d0e33a927ef801c002a", "is_reserved": 0, "is_disabled": 0, "bike_id": "3aa3894fba961d0e33a927ef801c002a", "fusion_lon": 0.0, "lon": -76.97725016666666}, {"lat": 38.88821516666667, "type": "electric_scooter", "rental_uris": {"android": "https://dc.lft.to/lastmile_qr_scan", "ios": "https://dc.lft.to/lastmile_qr_scan"}, "fusion_lat": 0.0, "name": "6e68ddca8c6b9dc84b466c3a552fad8f", "is_reserved": 0, "is_disabled": 0, "bike_id": "6e68ddca8c6b9dc84b466c3a552fad8f", "fusion_lon": 0.0, "lon": -76.977183}, {"lat": 38.91148716666667, "type": "electric_scooter", "rental_uris": {"android": "https://dc.lft.to/lastmile_qr_scan", "ios": "https://dc.lft.to/lastmile_qr_scan"}, "fusion_lat": 0.0, "name": "8466e1e0f75264b8e2f1d549d9b7dfdb", "is_reserved": 0, "is_disabled": 0, "bike_id": "8466e1e0f75264b8e2f1d549d9b7dfdb", "fusion_lon": 0.0, "lon": -77.0874715}, {"lat": 38.8954545, "type": "electric_scooter", "rental_uris": {"android": "https://dc.lft.to/lastmile_qr_scan", "ios": "https://dc.lft.to/lastmile_qr_scan"}, "fusion_lat": 0.0, "name": "26b9cd60a08fb54e493b778a3d3d0613", "is_reserved": 0, "is_disabled": 0, "bike_id": "26b9cd60a08fb54e493b778a3d3d0613", "fusion_lon": 0.0, "lon": -76.98340366666666}, {"lat": 38.915606, "type": "electric_scooter", "rental_uris": {"android": "https://dc.lft.to/lastmile_qr_scan", "ios": "https://dc.lft.to/lastmile_qr_scan"}, "fusion_lat": 0.0, "name": "184a66a8cc11a779d5e756a692d63af8", "is_reserved": 0, "is_disabled": 0, "bike_id": "184a66a8cc11a779d5e756a692d63af8", "fusion_lon": 0.0, "lon": -77.02008133333334}, {"lat": 38.90222083333333, "type": "electric_scooter", "rental_uris": {"android": "https://dc.lft.to/lastmile_qr_scan", "ios": "https://dc.lft.to/lastmile_qr_scan"}, "fusion_lat": 0.0, "name": "c6558e33f0ed7e2afe4266f28899bcc9", "is_reserved": 0, "is_disabled": 0, "bike_id": "c6558e33f0ed7e2afe4266f28899bcc9", "fusion_lon": 0.0, "lon": -77.00191883333333}, {"lat": 38.901457, "type": "electric_scooter", "rental_uris": {"android": "https://dc.lft.to/lastmile_qr_scan", "ios": "https://dc.lft.to/lastmile_qr_scan"}, "fusion_lat": 0.0, "name": "0153135cb0978b0ff99d26c31dd396a9", "is_reserved": 0, "is_disabled": 0, "bike_id": "0153135cb0978b0ff99d26c31dd396a9", "fusion_lon": 0.0, "lon": -77.06121433333334}, {"lat": 38.89534233333333, "type": "electric_scooter", "rental_uris": {"android": "https://dc.lft.to/lastmile_qr_scan", "ios": "https://dc.lft.to/lastmile_qr_scan"},