{"data": {"bikes": [{"bike_id": "b40125ea29ae21a0f26f5689f38b7a17", "type": "electric_scooter", "is_disabled": 0, "lat": 38.909469666666666, "rental_uris": {"ios": "https://dc.lft.to/lastmile_qr_scan", "android": "https://dc.lft.to/lastmile_qr_scan"}, "is_reserved": 0, "fusion_lon": 0.0, "fusion_lat": 0.0, "lon": -77.0269985, "name": "b40125ea29ae21a0f26f5689f38b7a17"}, {"bike_id": "e5dc36d03c0e1015435b4cb0b681f886", "type": "electric_scooter", "is_disabled": 0, "lat": 38.923413333333336, "rental_uris": {"ios": "https://dc.lft.to/lastmile_qr_scan", "android": "https://dc.lft.to/lastmile_qr_scan"}, "is_reserved": 0, "fusion_lon": 0.0, "fusion_lat": 0.0, "lon": -77.05046883333333, "name": "e5dc36d03c0e1015435b4cb0b681f886"}, {"bike_id": "183baa1c1544fc9477068d0a37697ba3", "type": "electric_scooter", "is_disabled": 0, "lat": 38.939597, "rental_uris": {"ios": "https://dc.lft.to/lastmile_qr_scan", "android": "https://dc.lft.to/lastmile_qr_scan"}, "is_reserved": 0, "fusion_lon": 0.0, "fusion_lat": 0.0, "lon": -77.02512883333333, "name": "183baa1c1544fc9477068d0a37697ba3"}, {"bike_id": "ac33c41892653ffbee06846c3ffbf824", "type": "electric_scooter", "is_disabled": 0, "lat": 38.908939833333335, "rental_uris": {"ios": "https://dc.lft.to/lastmile_qr_scan", "android": "https://dc.lft.to/lastmile_qr_scan"}, "is_reserved": 0, "fusion_lon": 0.0, "fusion_lat": 0.0, "lon": -77.08626133333334, "name": "ac33c41892653ffbee06846c3ffbf824"}, {"bike_id": "06405e95ce5ba8463bd61212fd7ea32a", "type": "electric_scooter", "is_disabled": 0, "lat": 38.91617466666667, "rental_uris": {"ios": "https://dc.lft.to/lastmile_qr_scan", "android": "https://dc.lft.to/lastmile_qr_scan"}, "is_reserved": 0, "fusion_lon": 0.0, "fusion_lat": 0.0, "lon": -77.03644133333333, "name": "06405e95ce5ba8463bd61212fd7ea32a"}, {"bike_id": "017f097738fbbf26ce77e197e8e50064", "type": "electric_scooter", "is_disabled": 0, "lat": 38.92547066666667, "rental_uris": {"ios": "https://dc.lft.to/lastmile_qr_scan", "android": "https://dc.lft.to/lastmile_qr_scan"}, "is_reserved": 0, "fusion_lon": 0.0, "fusion_lat": 0.0, "lon": -77.02283316666667, "name": "017f097738fbbf26ce77e197e8e50064"}, {"bike_id": "dc49c65fab21dcc611d8bd5c6e2b6537", "type": "electric_scooter", "is_disabled": 0, "lat": 38.870754, "rental_uris": {"ios": "https://dc.lft.to/lastmile_qr_scan", "android": "https://dc.lft.to/lastmile_qr_scan"}, "is_reserved": 0, "fusion_lon": 0.0, "fusion_lat": 0.0, "lon": -77.01189816666667, "name": "dc49c65fab21dcc611d8bd5c6e2b6537"}, {"bike_id": "f75d6131a0c0cab62f2d398c085e3d52", "type": "electric_scooter", "is_disabled": 0, "lat": 38.93196416666667, "rental_uris": {"ios": "https://dc.lft.to/lastmile_qr_scan", "android": "https://dc.lft.to/lastmile_qr_scan"}, "is_reserved": 0, "fusion_lon": 0.0, "fusion_lat": 0.0, "lon": -77.01955783333334, "name": "f75d6131a0c0cab62f2d398c085e3d52"}, {"bike_id": "e3471266fa94cc98f7d3aea8f8af8419", "type": "electric_scooter", "is_disabled": 0, "lat": 38.95902933333333, "rental_uris": {"ios": "https://dc.lft.to/lastmile_qr_scan", "android": "https://dc.lft.to/lastmile_qr_scan"}, "is_reserved": 0, "fusion_lon": 0.0, "fusion_lat": 0.0, "lon": -77.08597883333333, "name": "e3471266fa94cc98f7d3aea8f8af8419"}, {"bike_id": "ffc6d417ac395f028be0026a31e3ca2a", "type": "electric_scooter", "is_disabled": 0, "lat": 38.871166833333334, "rental_uris": {"ios": "https://dc.lft.to/lastmile_qr_scan", "android": "https://dc.lft.to/lastmile_qr_scan"}, "is_reserved": 0, "fusion_lon": 0.0, "fusion_lat": 0.0, "lon": -77.00755933333333, "name": "ffc6d417ac395f028be0026a31e3ca2a"}, {"bike_id": "f8d025ef2b8dc8bc6ae79d6027bfe2b1", "type": "electric_scooter", "is_disabled": 0, "lat": 38.916374833333336, "rental_uris": {"ios": "https://dc.lft.to/lastmile_qr_scan", "android": "https://dc.lft.to/lastmile_qr_scan"}, "is_reserved": 0, "fusion_lon": 0.0, "fusion_lat": 0.0, "lon": -77.0005095, "name": "f8d025ef2b8dc8bc6ae79d6027bfe2b1"}, {"bike_id": "ce3c11df75960e889e106384ea7d0ae3", "type": "electric_scooter", "is_disabled": 0, "lat": 38.91479416666667, "rental_uris": {"ios": "https://dc.lft.to/lastmile_qr_scan", "android": "https://dc.lft.to/lastmile_qr_scan"}, "is_reserved": 0, "fusion_lon": 0.0, "fusion_lat": 0.0, "lon": -77.02183283333333, "name": "ce3c11df75960e889e106384ea7d0ae3"}, {"bike_id": "cf4a9ee65a8321141fa95435c4eb3248", "type": "electric_bike", "is_disabled": 0, "lat": 38.8799945, "rental_uris": {"ios": "https://dc.lft.to/lastmile_qr_scan", "android": "https://dc.lft.to/lastmile_qr_scan"}, "is_reserved": 0, "fusion_lon": 0.0, "fusion_lat": 0.0, "lon": -76.985148, "name": "cf4a9ee65a8321141fa95435c4eb3248"}, {"bike_id": "aed6ab65a32f564237657b07d5c703ce", "type": "electric_scooter", "is_disabled": 0, "lat": 38.90162, "rental_uris": {"ios": "https://dc.lft.to/lastmile_qr_scan", "android": "https://dc.lft.to/lastmile_qr_scan"}, "is_reserved": 0, "fusion_lon": 0.0, "fusion_lat": 0.0, "lon": -77.02495733333333, "name": "aed6ab65a32f564237657b07d5c703ce"}, {"bike_id": "f42d0785974bbac6c8fa5c141d27d8a5", "type": "electric_scooter", "is_disabled": 0, "lat": 38.92478916666666, "rental_uris": {"ios": "https://dc.lft.to/lastmile_qr_scan", "android": "https://dc.lft.to/lastmile_qr_scan"}, "is_reserved": 0, "fusion_lon": 0.0, "fusion_lat": 0.0, "lon": -77.02843233333333, "name": "f42d0785974bbac6c8fa5c141d27d8a5"}, {"bike_id": "b867a1404dbb50f40330f03997e33817", "type": "electric_scooter", "is_disabled": 0, "lat": 38.9106525, "rental_uris": {"ios": "https://dc.lft.to/lastmile_qr_scan", "android": "https://dc.lft.to/lastmile_qr_scan"}, "is_reserved": 0, "fusion_lon": 0.0, "fusion_lat": 0.0, "lon": -77.03724483333333, "name": "b867a1404dbb50f40330f03997e33817"}, {"bike_id": "6262cf47dd5cec0d7d946681285c6438", "type": "electric_scooter", "is_disabled": 0, "lat": 38.9181795, "rental_uris": {"ios": "https://dc.lft.to/lastmile_qr_scan", "android": "https://dc.lft.to/lastmile_qr_scan"}, "is_reserved": 0, "fusion_lon": 0.0, "fusion_lat": 0.0, "lon": -77.00762033333334, "name": "6262cf47dd5cec0d7d946681285c6438"}, {"bike_id": "22de48cd3a04fbd6f4a69d087d8db11a", "type": "electric_bike", "is_disabled": 0, "lat": 38.93463466666667, "rental_uris": {"ios": "https://dc.lft.to/lastmile_qr_scan", "android": "https://dc.lft.to/lastmile_qr_scan"}, "is_reserved": 0, "fusion_lon": 0.0, "fusion_lat": 0.0, "lon": -77.0271195, "name": "22de48cd3a04fbd6f4a69d087d8db11a"}, {"bike_id": "4a0913a37dde6420fd32e08531d89e13", "type": "electric_scooter", "is_disabled": 0, "lat": 38.90335783333333, "rental_uris": {"ios": "https://dc.lft.to/lastmile_qr_scan", "android": "https://dc.lft.to/lastmile_qr_scan"}, "is_reserved": 0, "fusion_lon": 0.0, "fusion_lat": 0.0, "lon": -77.03664133333334, "name": "4a0913a37dde6420fd32e08531d89e13"}, {"bike_id": "da2a0f2ee30b3856838e0aae4e3ac07e", "type": "electric_scooter", "is_disabled": 0, "lat": 38.90530416666667, "rental_uris": {"ios": "https://dc.lft.to/lastmile_qr_scan", "android": "https://dc.lft.to/lastmile_qr_scan"}, "is_reserved": 0, "fusion_lon": 0.0, "fusion_lat": 0.0, "lon": -77.05939233333334, "name": "da2a0f2ee30b3856838e0aae4e3ac07e"}, {"bike_id": "8dfde6453e26594c79d14e4837d068c8", "type": "electric_scooter", "is_disabled": 0, "lat": 38.90340316666666, "rental_uris": {"ios": "https://dc.lft.to/lastmile_qr_scan", "android": "https://dc.lft.to/lastmile_qr_scan"}, "is_reserved": 0, "fusion_lon": 0.0, "fusion_lat": 0.0, "lon": -77.05293433333334, "name": "8dfde6453e26594c79d14e4837d068c8"}, {"bike_id": "a8001f1c4f0934607660d8acc711aefa", "type": "electric_scooter", "is_disabled": 0, "lat": 38.90948083333333, "rental_uris": {"ios": "https://dc.lft.to/lastmile_qr_scan", "android": "https://dc.lft.to/lastmile_qr_scan"}, "is_reserved": 0, "fusion_lon": 0.0, "fusion_lat": 0.0, "lon": -77.04502566666666, "name": "a8001f1c4f0934607660d8acc711aefa"}, {"bike_id": "7941f530bd814e72ded3c50489571c7c", "type": "electric_scooter", "is_disabled": 0, "lat": 38.90149683333333, "rental_uris": {"ios": "https://dc.lft.to/lastmile_qr_scan", "android": "https://dc.lft.to/lastmile_qr_scan"}, "is_reserved": 0, "fusion_lon": 0.0, "fusion_lat": 0.0, "lon": -76.9903135, "name": "7941f530bd814e72ded3c50489571c7c"}, {"bike_id": "d686f1c3d67cb9f009eded91c9bba1a6", "type": "electric_scooter", "is_disabled": 0, "lat": 38.89705933333333, "rental_uris": {"ios": "https://dc.lft.to/lastmile_qr_scan", "android": "https://dc.lft.to/lastmile_qr_scan"}, "is_reserved": 0, "fusion_lon": 0.0, "fusion_lat": 0.0, "lon": -76.9299975, "name": "d686f1c3d67cb9f009eded91c9bba1a6"}, {"bike_id": "977dd467267e9e7ac06cb87d7bb0bd2a", "type": "electric_scooter", "is_disabled": 0, "lat": 38.907319666666666, "rental_uris": {"ios": "https://dc.lft.to/lastmile_qr_scan", "android": "https://dc.lft.to/lastmile_qr_scan"}, "is_reserved": 0, "fusion_lon": 0.0, "fusion_lat": 0.0, "lon": -77.01317683333333, "name": "977dd467267e9e7ac06cb87d7bb0bd2a"}, {"bike_id": "bfe2703848092df9f7b34a47e39b9c17", "type": "electric_scooter", "is_disabled": 0, "lat": 38.914151333333336, "rental_uris": {"ios": "https://dc.lft.to/lastmile_qr_scan", "android": "https://dc.lft.to/lastmile_qr_scan"}, "is_reserved": 0, "fusion_lon": 0.0, "fusion_lat": 0.0, "lon": -77.02210433333333, "name": "bfe2703848092df9f7b34a47e39b9c17"}, {"bike_id": "7a78978c7125fe0a0b9d89baa342c5c5", "type": "electric_scooter", "is_disabled": 0, "lat": 38.90827133333333, "rental_uris": {"ios": "https://dc.lft.to/lastmile_qr_scan", "android": "https://dc.lft.to/lastmile_qr_scan"}, "is_reserved": 0, "fusion_lon": 0.0, "fusion_lat": 0.0, "lon": -76.9344725, "name": "7a78978c7125fe0a0b9d89baa342c5c5"}, {"bike_id": "33ca47902686df6fd5bcb9ac1081454f", "type": "electric_scooter", "is_disabled": 0, "lat": 38.9191265, "rental_uris": {"ios": "https://dc.lft.to/lastmile_qr_scan", "android": "https://dc.lft.to/lastmile_qr_scan"}, "is_reserved": 0, "fusion_lon": 0.0, "fusion_lat": 0.0, "lon": -77.03420416666667, "name": "33ca47902686df6fd5bcb9ac1081454f"}, {"bike_id": "b520a2a0d8e3066169ecf2cfa6c2bc17", "type": "electric_scooter", "is_disabled": 0, "lat": 38.910522, "rental_uris": {"ios": "https://dc.lft.to/lastmile_qr_scan", "android": "https://dc.lft.to/lastmile_qr_scan"}, "is_reserved": 0, "fusion_lon": 0.0, "fusion_lat": 0.0, "lon": -77.021991, "name": "b520a2a0d8e3066169ecf2cfa6c2bc17"}, {"bike_id": "ba7467443ed2a88183e9cd52c6113672", "type": "electric_bike", "is_disabled": 0, "lat": 38.85354233333333, "rental_uris": {"ios": "https://dc.lft.to/lastmile_qr_scan", "android": "https://dc.lft.to/lastmile_qr_scan"}, "is_reserved": 0, "fusion_lon": 0.0, "fusion_lat": 0.0, "lon": -77.08684516666666, "name": "ba7467443ed2a88183e9cd52c6113672"}, {"bike_id": "0c270b93616051c01b28cae0e2c8c314", "type": "electric_scooter", "is_disabled": 0, "lat": 38.86506516666667, "rental_uris": {"ios": "https://dc.lft.to/lastmile_qr_scan", "android": "https://dc.lft.to/lastmile_qr_scan"}, "is_reserved": 0, "fusion_lon": 0.0, "fusion_lat": 0.0, "lon": -76.99002883333333, "name": "0c270b93616051c01b28cae0e2c8c314"}, {"bike_id": "4cbd2f6913c4604ce8b2a58fff183597", "type": "electric_scooter", "is_disabled": 0, "lat": 38.8898845, "rental_uris": {"ios": "https://dc.lft.to/lastmile_qr_scan", "android": "https://dc.lft.to/lastmile_qr_scan"}, "is_reserved": 0, "fusion_lon": 0.0, "fusion_lat": 0.0, "lon": -77.00043066666667, "name": "4cbd2f6913c4604ce8b2a58fff183597"}, {"bike_id": "cba2dd204be49317ab4a2750af8cbc3f", "type": "electric_scooter", "is_disabled": 0, "lat": 38.908532, "rental_uris": {"ios": "https://dc.lft.to/lastmile_qr_scan", "android": "https://dc.lft.to/lastmile_qr_scan"}, "is_reserved": 0, "fusion_lon": 0.0, "fusion_lat": 0.0, "lon": -77.0196845, "name": "cba2dd204be49317ab4a2750af8cbc3f"}, {"bike_id": "cac0bd38999041f7d125a761c2fdb54d", "type": "electric_scooter", "is_disabled": 0, "lat": 38.906893, "rental_uris": {"ios": "https://dc.lft.to/lastmile_qr_scan", "android": "https://dc.lft.to/lastmile_qr_scan"}, "is_reserved": 0, "fusion_lon": 0.0, "fusion_lat": 0.0, "lon": -77.06515516666667, "name": "cac0bd38999041f7d125a761c2fdb54d"}, {"bike_id": "96ca92d9c8bec45c91264eb74c7d7074", "type": "electric_scooter", "is_disabled": 0, "lat": 38.96406733333333, "rental_uris": {"ios": "https://dc.lft.to/lastmile_qr_scan", "android": "https://dc.lft.to/lastmile_qr_scan"}, "is_reserved": 0, "fusion_lon": 0.0, "fusion_lat": 0.0, "lon": -77.02766783333334, "name": "96ca92d9c8bec45c91264eb74c7d7074"}, {"bike_id": "8c08235590b964b177ea25130460dedd", "type": "electric_scooter", "is_disabled": 0, "lat": 38.8689305, "rental_uris": {"ios": "https://dc.lft.to/lastmile_qr_scan", "android": "https://dc.lft.to/lastmile_qr_scan"}, "is_reserved": 0, "fusion_lon": 0.0, "fusion_lat": 0.0, "lon": -76.984447, "name": "8c08235590b964b177ea25130460dedd"}, {"bike_id": "b3e82682494da2528946a0d8760f5d62", "type": "electric_scooter", "is_disabled": 0, "lat": 38.878247, "rental_uris": {"ios": "https://dc.lft.to/lastmile_qr_scan", "android": "https://dc.lft.to/lastmile_qr_scan"}, "is_reserved": 0, "fusion_lon": 0.0, "fusion_lat": 0.0, "lon": -77.00743233333333, "name": "b3e82682494da2528946a0d8760f5d62"}, {"bike_id": "866bd2f12a40ed6ebddc8a026f25a9ab", "type": "electric_bike", "is_disabled": 0, "lat": 38.8380855, "rental_uris": {"ios": "https://dc.lft.to/lastmile_qr_scan", "android": "https://dc.lft.to/lastmile_qr_scan"}, "is_reserved": 0, "fusion_lon": 0.0, "fusion_lat": 0.0, "lon": -77.09524816666666, "name": "866bd2f12a40ed6ebddc8a026f25a9ab"}, {"bike_id": "868d7d3529861a9b0ba670747e503a45", "type": "electric_scooter", "is_disabled": 0, "lat": 38.92241683333334, "rental_uris": {"ios": "https://dc.lft.to/lastmile_qr_scan", "android": "https://dc.lft.to/lastmile_qr_scan"}, "is_reserved": 0, "fusion_lon": 0.0, "fusion_lat": 0.0, "lon": -77.03905716666667, "name": "868d7d3529861a9b0ba670747e503a45"}, {"bike_id": "b71ba6bd10a12d25a8b57f832e4cd135", "type": "electric_scooter", "is_disabled": 0, "lat": 38.9552665, "rental_uris": {"ios": "https://dc.lft.to/lastmile_qr_scan", "android": "https://dc.lft.to/lastmile_qr_scan"}, "is_reserved": 0, "fusion_lon": 0.0, "fusion_lat": 0.0, "lon": -77.02783566666666, "name": "b71ba6bd10a12d25a8b57f832e4cd135"}, {"bike_id": "2c2e927a787c10af54844eb7135dd169", "type": "electric_scooter", "is_disabled": 0, "lat": 38.909629, "rental_uris": {"ios": "https://dc.lft.to/lastmile_qr_scan", "android": "https://dc.lft.to/lastmile_qr_scan"}, "is_reserved": 0, "fusion_lon": 0.0, "fusion_lat": 0.0, "lon": -77.03820583333334, "name": "2c2e927a787c10af54844eb7135dd169"}, {"bike_id": "00084a3fec8b18be70ae3c2bf92bd0c2", "type": "electric_scooter", "is_disabled": 0, "lat": 38.90773133333333, "rental_uris": {"ios": "https://dc.lft.to/lastmile_qr_scan", "android": "https://dc.lft.to/lastmile_qr_scan"}, "is_reserved": 0, "fusion_lon": 0.0, "fusion_lat": 0.0, "lon": -77.04351633333333, "name": "00084a3fec8b18be70ae3c2bf92bd0c2"}, {"bike_id": "8b0cb2c37abb027db284722ecf8063c3", "type": "electric_scooter", "is_disabled": 0, "lat": 38.92467416666667, "rental_uris": {"ios": "https://dc.lft.to/lastmile_qr_scan", "android": "https://dc.lft.to/lastmile_qr_scan"}, "is_reserved": 0, "fusion_lon": 0.0, "fusion_lat": 0.0, "lon": -77.05229183333333, "name": "8b0cb2c37abb027db284722ecf8063c3"}, {"bike_id": "d74c9323683799ed8c5d3f982046aa41", "type": "electric_scooter", "is_disabled": 0, "lat": 38.966234, "rental_uris": {"ios": "https://dc.lft.to/lastmile_qr_scan", "android": "https://dc.lft.to/lastmile_qr_scan"}, "is_reserved": 0, "fusion_lon": 0.0, "fusion_lat": 0.0, "lon": -77.02249866666666, "name": "d74c9323683799ed8c5d3f982046aa41"}, {"bike_id": "a32d6f9d0909bb850f136f0da0f080b6", "type": "electric_scooter", "is_disabled": 0, "lat": 38.89247066666667, "rental_uris": {"ios": "https://dc.lft.to/lastmile_qr_scan", "android": "https://dc.lft.to/lastmile_qr_scan"}, "is_reserved": 0, "fusion_lon": 0.0, "fusion_lat": 0.0, "lon": -77.03957933333334, "name": "a32d6f9d0909bb850f136f0da0f080b6"}, {"bike_id": "2f727325be2c547c1531bf5f43257266", "type": "electric_scooter", "is_disabled": 0, "lat": 38.910456, "rental_uris": {"ios": "https://dc.lft.to/lastmile_qr_scan", "android": "https://dc.lft.to/lastmile_qr_scan"}, "is_reserved": 0, "fusion_lon": 0.0, "fusion_lat": 0.0, "lon": -77.04117466666666, "name": "2f727325be2c547c1531bf5f43257266"}, {"bike_id": "fff38b4002dbe350951acb2e200c616d", "type": "electric_scooter", "is_disabled": 0, "lat": 38.93454166666667, "rental_uris": {"ios": "https://dc.lft.to/lastmile_qr_scan", "android": "https://dc.lft.to/lastmile_qr_scan"}, "is_reserved": 0, "fusion_lon": 0.0, "fusion_lat": 0.0, "lon": -77.07221783333334, "name": "fff38b4002dbe350951acb2e200c616d"}, {"bike_id": "4f5e1a2640fa361695f76639b2a59a69", "type": "electric_scooter", "is_disabled": 0, "lat": 38.9073015, "rental_uris": {"ios": "https://dc.lft.to/lastmile_qr_scan", "android": "https://dc.lft.to/lastmile_qr_scan"}, "is_reserved": 0, "fusion_lon": 0.0, "fusion_lat": 0.0, "lon": -77.0148555, "name": "4f5e1a2640fa361695f76639b2a59a69"}, {"bike_id": "97267bfbb2f274f94ef553f0aca21092", "type": "electric_scooter", "is_disabled": 0, "lat": 38.90671616666667, "rental_uris": {"ios": "https://dc.lft.to/lastmile_qr_scan", "android": "https://dc.lft.to/lastmile_qr_scan"}, "is_reserved": 0, "fusion_lon": 0.0, "fusion_lat": 0.0, "lon": -77.07196116666667, "name": "97267bfbb2f274f94ef553f0aca21092"}, {"bike_id": "f55e6c6d5a75a893c055c3fea8f0cec6", "type": "electric_scooter", "is_disabled": 0, "lat": 38.9002995, "rental_uris": {"ios": "https://dc.lft.to/lastmile_qr_scan", "android": "https://dc.lft.to/lastmile_qr_scan"}, "is_reserved": 0, "fusion_lon": 0.0, "fusion_lat": 0.0, "lon": -76.98808366666667, "name": "f55e6c6d5a75a893c055c3fea8f0cec6"}, {"bike_id": "a358747ed8cdf82f9fe4630a3e942859", "type": "electric_scooter", "is_disabled": 0, "lat": 38.92985266666667, "rental_uris": {"ios": "https://dc.lft.to/lastmile_qr_scan", "android": "https://dc.lft.to/lastmile_qr_scan"}, "is_reserved": 0, "fusion_lon": 0.0, "fusion_lat": 0.0, "lon": -77.03475916666666, "name": "a358747ed8cdf82f9fe4630a3e942859"}, {"bike_id": "f114d369f334efc37b5392a72dc07da2", "type": "electric_scooter", "is_disabled": 0, "lat": 38.89869216666666, "rental_uris": {"ios": "https://dc.lft.to/lastmile_qr_scan", "android": "https://dc.lft.to/lastmile_qr_scan"}, "is_reserved": 0, "fusion_lon": 0.0, "fusion_lat": 0.0, "lon": -77.02020283333333, "name": "f114d369f334efc37b5392a72dc07da2"}, {"bike_id": "a30c53c31c080d187b9fe2cb698c3c84", "type": "electric_scooter", "is_disabled": 0, "lat": 38.90684733333333, "rental_uris": {"ios": "https://dc.lft.to/lastmile_qr_scan", "android": "https://dc.lft.to/lastmile_qr_scan"}, "is_reserved": 0, "fusion_lon": 0.0, "fusion_lat": 0.0, "lon": -77.06341116666667, "name": "a30c53c31c080d187b9fe2cb698c3c84"}, {"bike_id": "48cf3577577769013e4cea76addf25f6", "type": "electric_bike", "is_disabled": 0, "lat": 39.05636283333333, "rental_uris": {"ios": "https://dc.lft.to/lastmile_qr_scan", "android": "https://dc.lft.to/lastmile_qr_scan"}, "is_reserved": 0, "fusion_lon": 0.0, "fusion_lat": 0.0, "lon": -77.12524916666666, "name": "48cf3577577769013e4cea76addf25f6"}, {"bike_id": "31985d5906d56fbd9ccefd2f6ba89bda", "type": "electric_scooter", "is_disabled": 0, "lat": 38.91107616666667, "rental_uris": {"ios": "https://dc.lft.to/lastmile_qr_scan", "android": "https://dc.lft.to/lastmile_qr_scan"}, "is_reserved": 0, "fusion_lon": 0.0, "fusion_lat": 0.0, "lon": -77.01153816666667, "name": "31985d5906d56fbd9ccefd2f6ba89bda"}, {"bike_id": "48cf66314cfe6175c754eac14e6080c3", "type": "electric_scooter", "is_disabled": 0, "lat": 38.9297405, "rental_uris": {"ios": "https://dc.lft.to/lastmile_qr_scan", "android": "https://dc.lft.to/lastmile_qr_scan"}, "is_reserved": 0, "fusion_lon": 0.0, "fusion_lat": 0.0, "lon": -77.039475, "name": "48cf66314cfe6175c754eac14e6080c3"}, {"bike_id": "aa3de4cd88578e3a8544e8715d226a86", "type": "electric_scooter", "is_disabled": 0, "lat": 38.90285016666667, "rental_uris": {"ios": "https://dc.lft.to/lastmile_qr_scan", "android": "https://dc.lft.to/lastmile_qr_scan"}, "is_reserved": 0, "fusion_lon": 0.0, "fusion_lat": 0.0, "lon": -77.03655933333333, "name": "aa3de4cd88578e3a8544e8715d226a86"}, {"bike_id": "5ec226c73505998278b682eb95e840e3", "type": "electric_scooter", "is_disabled": 0, "lat": 38.92568266666667, "rental_uris": {"ios": "https://dc.lft.to/lastmile_qr_scan", "android": "https://dc.lft.to/lastmile_qr_scan"}, "is_reserved": 0, "fusion_lon": 0.0, "fusion_lat": 0.0, "lon": -77.05261116666667, "name": "5ec226c73505998278b682eb95e840e3"}, {"bike_id": "01031b4666550ae290fde88b99b4e5e5", "type": "electric_bike", "is_disabled": 0, "lat": 38.85539966666666, "rental_uris": {"ios": "https://dc.lft.to/lastmile_qr_scan", "android": "https://dc.lft.to/lastmile_qr_scan"}, "is_reserved": 0, "fusion_lon": 0.0, "fusion_lat": 0.0, "lon": -77.12024166666667, "name": "01031b4666550ae290fde88b99b4e5e5"}, {"bike_id": "f509f5992b6af64067b15f69871e865b", "type": "electric_scooter", "is_disabled": 0, "lat": 38.8953535, "rental_uris": {"ios": "https://dc.lft.to/lastmile_qr_scan", "android": "https://dc.lft.to/lastmile_qr_scan"}, "is_reserved": 0, "fusion_lon": 0.0, "fusion_lat": 0.0, "lon": -76.99479416666667, "name": "f509f5992b6af64067b15f69871e865b"}, {"bike_id": "1635df88686c6669c4ac2bea756c7988", "type": "electric_bike", "is_disabled": 0, "lat": 38.993253, "rental_uris": {"ios": "https://dc.lft.to/lastmile_qr_scan", "android": "https://dc.lft.to/lastmile_qr_scan"}, "is_reserved": 0, "fusion_lon": 0.0, "fusion_lat": 0.0, "lon": -76.94613216666667, "name": "1635df88686c6669c4ac2bea756c7988"}, {"bike_id": "5e2be7562730031e168a22870c8815fb", "type": "electric_scooter", "is_disabled": 0, "lat": 38.90034883333333, "rental_uris": {"ios": "https://dc.lft.to/lastmile_qr_scan", "android": "https://dc.lft.to/lastmile_qr_scan"}, "is_reserved": 0, "fusion_lon": 0.0, "fusion_lat": 0.0, "lon": -77.03426016666667, "name": "5e2be7562730031e168a22870c8815fb"}, {"bike_id": "d4179a8b3e15b57ac6c21a7432a58971", "type": "electric_scooter", "is_disabled": 0, "lat": 38.91397083333333, "rental_uris": {"ios": "https://dc.lft.to/lastmile_qr_scan", "android": "https://dc.lft.to/lastmile_qr_scan"}, "is_reserved": 0, "fusion_lon": 0.0, "fusion_lat": 0.0, "lon": -76.98195483333333, "name": "d4179a8b3e15b57ac6c21a7432a58971"}, {"bike_id": "10d4733f1be1e7d572d51c9e992709d0", "type": "electric_scooter", "is_disabled": 0, "lat": 38.90683816666667, "rental_uris": {"ios": "https://dc.lft.to/lastmile_qr_scan", "android": "https://dc.lft.to/lastmile_qr_scan"}, "is_reserved": 0, "fusion_lon": 0.0, "fusion_lat": 0.0, "lon": -77.02691666666666, "name": "10d4733f1be1e7d572d51c9e992709d0"}, {"bike_id": "a6b467538d9917d773dde9cbeb8e9962", "type": "electric_bike", "is_disabled": 0, "lat": 38.8548915, "rental_uris": {"ios": "https://dc.lft.to/lastmile_qr_scan", "android": "https://dc.lft.to/lastmile_qr_scan"}, "is_reserved": 0, "fusion_lon": 0.0, "fusion_lat": 0.0, "lon": -77.11616316666667, "name": "a6b467538d9917d773dde9cbeb8e9962"}, {"bike_id": "74ee5fbd7b8ab9126275de94ca150e04", "type": "electric_scooter", "is_disabled": 0, "lat": 38.909754666666664, "rental_uris": {"ios": "https://dc.lft.to/lastmile_qr_scan", "android": "https://dc.lft.to/lastmile_qr_scan"}, "is_reserved": 0, "fusion_lon": 0.0, "fusion_lat": 0.0, "lon": -77.03939466666667, "name": "74ee5fbd7b8ab9126275de94ca150e04"}, {"bike_id": "1e11a1a691099330848d4399e830907f", "type": "electric_scooter", "is_disabled": 0, "lat": 38.925917, "rental_uris": {"ios": "https://dc.lft.to/lastmile_qr_scan", "android": "https://dc.lft.to/lastmile_qr_scan"}, "is_reserved": 0, "fusion_lon": 0.0, "fusion_lat": 0.0, "lon": -77.02496133333334, "name": "1e11a1a691099330848d4399e830907f"}, {"bike_id": "6f4e27758f4d566f887384c664b8560a", "type": "electric_scooter", "is_disabled": 0, "lat": 38.9051295, "rental_uris": {"ios": "https://dc.lft.to/lastmile_qr_scan", "android": "https://dc.lft.to/lastmile_qr_scan"}, "is_reserved": 0, "fusion_lon": 0.0, "fusion_lat": 0.0, "lon": -77.04829516666666, "name": "6f4e27758f4d566f887384c664b8560a"}, {"bike_id": "f2754d020a37e45e6d2335fd47a825b2", "type": "electric_scooter", "is_disabled": 0, "lat": 38.86470216666667, "rental_uris": {"ios": "https://dc.lft.to/lastmile_qr_scan", "android": "https://dc.lft.to/lastmile_qr_scan"}, "is_reserved": 0, "fusion_lon": 0.0, "fusion_lat": 0.0, "lon": -76.98229383333333, "name": "f2754d020a37e45e6d2335fd47a825b2"}, {"bike_id": "fadd75ee443c8550b2bc69a6461418ae", "type": "electric_scooter", "is_disabled": 0, "lat": 38.936758833333336, "rental_uris": {"ios": "https://dc.lft.to/lastmile_qr_scan", "android": "https://dc.lft.to/lastmile_qr_scan"}, "is_reserved": 0, "fusion_lon": 0.0, "fusion_lat": 0.0, "lon": -77.03566766666667, "name": "fadd75ee443c8550b2bc69a6461418ae"}, {"bike_id": "2735def0ca882de59732a35dd65f7e17", "type": "electric_bike", "is_disabled": 0, "lat": 38.983668333333334, "rental_uris": {"ios": "https://dc.lft.to/lastmile_qr_scan", "android": "https://dc.lft.to/lastmile_qr_scan"}, "is_reserved": 0, "fusion_lon": 0.0, "fusion_lat": 0.0, "lon": -76.97210583333333, "name": "2735def0ca882de59732a35dd65f7e17"}, {"bike_id": "7fdc1e4bee9e442f5c56e9e7c5daf7f7", "type": "electric_scooter", "is_disabled": 0, "lat": 38.8624745, "rental_uris": {"ios": "https://dc.lft.to/lastmile_qr_scan", "android": "https://dc.lft.to/lastmile_qr_scan"}, "is_reserved": 0, "fusion_lon": 0.0, "fusion_lat": 0.0, "lon": -76.995035, "name": "7fdc1e4bee9e442f5c56e9e7c5daf7f7"}, {"bike_id": "981c439cae33e0efcc0af862c98de11c", "type": "electric_scooter", "is_disabled": 0, "lat": 38.96205766666667, "rental_uris": {"ios": "https://dc.lft.to/lastmile_qr_scan", "android": "https://dc.lft.to/lastmile_qr_scan"}, "is_reserved": 0, "fusion_lon": 0.0, "fusion_lat": 0.0, "lon": -77.0223265, "name": "981c439cae33e0efcc0af862c98de11c"}, {"bike_id": "fb62df65fb5122e6c75ad8c43c0d43ed", "type": "electric_scooter", "is_disabled": 0, "lat": 38.8929905, "rental_uris": {"ios": "https://dc.lft.to/lastmile_qr_scan", "android": "https://dc.lft.to/lastmile_qr_scan"}, "is_reserved": 0, "fusion_lon": 0.0, "fusion_lat": 0.0, "lon": -77.01229216666667, "name": "fb62df65fb5122e6c75ad8c43c0d43ed"}, {"bike_id": "1f726b4570249d05edddd2895d4c6d2c", "type": "electric_scooter", "is_disabled": 0, "lat": 38.95685183333333, "rental_uris": {"ios": "https://dc.lft.to/lastmile_qr_scan", "android": "https://dc.lft.to/lastmile_qr_scan"}, "is_reserved": 0, "fusion_lon": 0.0, "fusion_lat": 0.0, "lon": -77.02398766666667, "name": "1f726b4570249d05edddd2895d4c6d2c"}, {"bike_id": "da29ef5b163131910740e1c445aafa34", "type": "electric_scooter", "is_disabled": 0, "lat": 38.907269666666664, "rental_uris": {"ios": "https://dc.lft.to/lastmile_qr_scan", "android": "https://dc.lft.to/lastmile_qr_scan"}, "is_reserved": 0, "fusion_lon": 0.0, "fusion_lat": 0.0, "lon": -77.05324566666667, "name": "da29ef5b163131910740e1c445aafa34"}, {"bike_id": "71907c34dd3957b637b67c8be48d58d3", "type": "electric_scooter", "is_disabled": 0, "lat": 38.920642666666666, "rental_uris": {"ios": "https://dc.lft.to/lastmile_qr_scan", "android": "https://dc.lft.to/lastmile_qr_scan"}, "is_reserved": 0, "fusion_lon": 0.0, "fusion_lat": 0.0, "lon": -77.03469783333334, "name": "71907c34dd3957b637b67c8be48d58d3"}, {"bike_id": "4d3ad2c873a82e8b38a16b8c5830c70d", "type": "electric_scooter", "is_disabled": 0, "lat": 38.884897, "rental_uris": {"ios": "https://dc.lft.to/lastmile_qr_scan", "android": "https://dc.lft.to/lastmile_qr_scan"}, "is_reserved": 0, "fusion_lon": 0.0, "fusion_lat": 0.0, "lon": -77.015336, "name": "4d3ad2c873a82e8b38a16b8c5830c70d"}, {"bike_id": "e11555874b7b4f370e5c8aaac9b0fd0b", "type": "electric_scooter", "is_disabled": 0, "lat": 38.91099916666667, "rental_uris": {"ios": "https://dc.lft.to/lastmile_qr_scan", "android": "https://dc.lft.to/lastmile_qr_scan"}, "is_reserved": 0, "fusion_lon": 0.0, "fusion_lat": 0.0, "lon": -77.0447985, "name": "e11555874b7b4f370e5c8aaac9b0fd0b"}, {"bike_id": "a16a05e42534fddb78728e50a40895b4", "type": "electric_scooter", "is_disabled": 0, "lat": 38.9180825, "rental_uris": {"ios": "https://dc.lft.to/lastmile_qr_scan", "android": "https://dc.lft.to/lastmile_qr_scan"}, "is_reserved": 0, "fusion_lon": 0.0, "fusion_lat": 0.0, "lon": -77.04556016666666, "name": "a16a05e42534fddb78728e50a40895b4"}, {"bike_id": "5bcfd1790c83e888a58d4b5acc32d063", "type": "electric_scooter", "is_disabled": 0, "lat": 38.9205185, "rental_uris": {"ios": "https://dc.lft.to/lastmile_qr_scan", "android": "https://dc.lft.to/lastmile_qr_scan"}, "is_reserved": 0, "fusion_lon": 0.0, "fusion_lat": 0.0, "lon": -77.0244895, "name": "5bcfd1790c83e888a58d4b5acc32d063"}, {"bike_id": "8bbc9df55976e9a953f2d98d70aaf07f", "type": "electric_scooter", "is_disabled": 0, "lat": 38.9312205, "rental_uris": {"ios": "https://dc.lft.to/lastmile_qr_scan", "android": "https://dc.lft.to/lastmile_qr_scan"}, "is_reserved": 0, "fusion_lon": 0.0, "fusion_lat": 0.0, "lon": -77.02067383333333, "name": "8bbc9df55976e9a953f2d98d70aaf07f"}, {"bike_id": "4a1ef592f83003be94e8e2e1bec502f7", "type": "electric_scooter", "is_disabled": 0, "lat": 38.86217116666667, "rental_uris": {"ios": "https://dc.lft.to/lastmile_qr_scan", "android": "https://dc.lft.to/lastmile_qr_scan"}, "is_reserved": 0, "fusion_lon": 0.0, "fusion_lat": 0.0, "lon": -76.99486333333333, "name": "4a1ef592f83003be94e8e2e1bec502f7"}, {"bike_id": "c81331a8f762c6c0f0275fee061cb459", "type": "electric_scooter", "is_disabled": 0, "lat": 38.9026695, "rental_uris": {"ios": "https://dc.lft.to/lastmile_qr_scan", "android": "https://dc.lft.to/lastmile_qr_scan"}, "is_reserved": 0, "fusion_lon": 0.0, "fusion_lat": 0.0, "lon": -77.01967316666666, "name": "c81331a8f762c6c0f0275fee061cb459"}, {"bike_id": "8f5df5d3b27d78b721925121327638e7", "type": "electric_scooter", "is_disabled": 0, "lat": 38.88878833333333, "rental_uris": {"ios": "https://dc.lft.to/lastmile_qr_scan", "android": "https://dc.lft.to/lastmile_qr_scan"}, "is_reserved": 0, "fusion_lon": 0.0, "fusion_lat": 0.0, "lon": -76.99037516666667, "name": "8f5df5d3b27d78b721925121327638e7"}, {"bike_id": "6a50e127d66e3bba6668c28ecaa5be13", "type": "electric_scooter", "is_disabled": 0, "lat": 38.90501483333333, "rental_uris": {"ios": "https://dc.lft.to/lastmile_qr_scan", "android": "https://dc.lft.to/lastmile_qr_scan"}, "is_reserved": 0, "fusion_lon": 0.0, "fusion_lat": 0.0, "lon": -77.06010983333333, "name": "6a50e127d66e3bba6668c28ecaa5be13"}, {"bike_id": "f99772b165afe24ed228429fac2e6955", "type": "electric_scooter", "is_disabled": 0, "lat": 38.874616833333334, "rental_uris": {"ios": "https://dc.lft.to/lastmile_qr_scan", "android": "https://dc.lft.to/lastmile_qr_scan"}, "is_reserved": 0, "fusion_lon": 0.0, "fusion_lat": 0.0, "lon": -77.00948183333334, "name": "f99772b165afe24ed228429fac2e6955"}, {"bike_id": "fff0b653bc80c351520049d8d09806d6", "type": "electric_scooter", "is_disabled": 0, "lat": 38.89494416666667, "rental_uris": {"ios": "https://dc.lft.to/lastmile_qr_scan", "android": "https://dc.lft.to/lastmile_qr_scan"}, "is_reserved": 0, "fusion_lon": 0.0, "fusion_lat": 0.0, "lon": -76.9884355, "name": "fff0b653bc80c351520049d8d09806d6"}, {"bike_id": "4cfec9202c3df89a815b00fc2dbd956e", "type": "electric_scooter", "is_disabled": 0, "lat": 38.896302, "rental_uris": {"ios": "https://dc.lft.to/lastmile_qr_scan", "android": "https://dc.lft.to/lastmile_qr_scan"}, "is_reserved": 0, "fusion_lon": 0.0, "fusion_lat": 0.0, "lon": -77.02702966666666, "name": "4cfec9202c3df89a815b00fc2dbd956e"}, {"bike_id": "1c26eaaed55423a9d181b9b53b93e305", "type": "electric_scooter", "is_disabled": 0, "lat": 38.84314533333333, "rental_uris": {"ios": "https://dc.lft.to/lastmile_qr_scan", "android": "https://dc.lft.to/lastmile_qr_scan"}, "is_reserved": 0, "fusion_lon": 0.0, "fusion_lat": 0.0, "lon": -76.9992875, "name": "1c26eaaed55423a9d181b9b53b93e305"}, {"bike_id": "503840af53d17a92e0f0794e1094a1a9", "type": "electric_scooter", "is_disabled": 0, "lat": 38.92525, "rental_uris": {"ios": "https://dc.lft.to/lastmile_qr_scan", "android": "https://dc.lft.to/lastmile_qr_scan"}, "is_reserved": 0, "fusion_lon": 0.0, "fusion_lat": 0.0, "lon": -77.07726383333333, "name": "503840af53d17a92e0f0794e1094a1a9"}, {"bike_id": "a673da3625ac6fee692454a1308e8941", "type": "electric_scooter", "is_disabled": 0, "lat": 38.899692, "rental_uris": {"ios": "https://dc.lft.to/lastmile_qr_scan", "android": "https://dc.lft.to/lastmile_qr_scan"}, "is_reserved": 0, "fusion_lon": 0.0, "fusion_lat": 0.0, "lon": -76.983019, "name": "a673da3625ac6fee692454a1308e8941"}, {"bike_id": "e1523425fee0b29608891798818954ba", "type": "electric_bike", "is_disabled": 0, "lat": 38.990896, "rental_uris": {"ios": "https://dc.lft.to/lastmile_qr_scan", "android": "https://dc.lft.to/lastmile_qr_scan"}, "is_reserved": 0, "fusion_lon": 0.0, "fusion_lat": 0.0, "lon": -76.87494616666666, "name": "e1523425fee0b29608891798818954ba"}, {"bike_id": "e7db085d288ef1007d20490fab1550a3", "type": "electric_scooter", "is_disabled": 0, "lat": 38.909574, "rental_uris": {"ios": "https://dc.lft.to/lastmile_qr_scan", "android": "https://dc.lft.to/lastmile_qr_scan"}, "is_reserved": 0, "fusion_lon": 0.0, "fusion_lat": 0.0, "lon": -77.02308333333333, "name": "e7db085d288ef1007d20490fab1550a3"}, {"bike_id": "304bcc41566a29ecda388a621ad5ec9f", "type": "electric_scooter", "is_disabled": 0, "lat": 38.917012, "rental_uris": {"ios": "https://dc.lft.to/lastmile_qr_scan", "android": "https://dc.lft.to/lastmile_qr_scan"}, "is_reserved": 0, "fusion_lon": 0.0, "fusion_lat": 0.0, "lon": -77.03118416666666, "name": "304bcc41566a29ecda388a621ad5ec9f"}, {"bike_id": "c656238e666f3a757621697af7372330", "type": "electric_bike", "is_disabled": 0, "lat": 38.865140833333335, "rental_uris": {"ios": "https://dc.lft.to/lastmile_qr_scan", "android": "https://dc.lft.to/lastmile_qr_scan"}, "is_reserved": 0, "fusion_lon": 0.0, "fusion_lat": 0.0, "lon": -76.97336983333334, "name": "c656238e666f3a757621697af7372330"}, {"bike_id": "5fa28acbae1370a546ddcb29f8a1890f", "type": "electric_scooter", "is_disabled": 0, "lat": 38.892314, "rental_uris": {"ios": "https://dc.lft.to/lastmile_qr_scan", "android": "https://dc.lft.to/lastmile_qr_scan"}, "is_reserved": 0, "fusion_lon": 0.0, "fusion_lat": 0.0, "lon": -77.04996333333334, "name": "5fa28acbae1370a546ddcb29f8a1890f"}, {"bike_id": "987d144cda94df781a2751fedd8605ed", "type": "electric_scooter", "is_disabled": 0, "lat": 38.95092233333333, "rental_uris": {"ios": "https://dc.lft.to/lastmile_qr_scan", "android": "https://dc.lft.to/lastmile_qr_scan"}, "is_reserved": 0, "fusion_lon": 0.0, "fusion_lat": 0.0, "lon": -77.02962833333333, "name": "987d144cda94df781a2751fedd8605ed"}, {"bike_id": "6e5306b27334315ca3015aefa24ef6b6", "type": "electric_scooter", "is_disabled": 0, "lat": 38.89618383333333, "rental_uris": {"ios": "https://dc.lft.to/lastmile_qr_scan", "android": "https://dc.lft.to/lastmile_qr_scan"}, "is_reserved": 0, "fusion_lon": 0.0, "fusion_lat": 0.0, "lon": -76.98566666666666, "name": "6e5306b27334315ca3015aefa24ef6b6"}, {"bike_id": "3bf964144fec8a2a40c14e80a920ea4b", "type": "electric_scooter", "is_disabled": 0, "lat": 38.90160016666667, "rental_uris": {"ios": "https://dc.lft.to/lastmile_qr_scan", "android": "https://dc.lft.to/lastmile_qr_scan"}, "is_reserved": 0, "fusion_lon": 0.0, "fusion_lat": 0.0, "lon": -77.00856433333334, "name": "3bf964144fec8a2a40c14e80a920ea4b"}, {"bike_id": "9b158c1d041700f98f2d837f12f6cf01", "type": "electric_bike", "is_disabled": 0, "lat": 38.86194616666667, "rental_uris": {"ios": "https://dc.lft.to/lastmile_qr_scan", "android": "https://dc.lft.to/lastmile_qr_scan"}, "is_reserved": 0, "fusion_lon": 0.0, "fusion_lat": 0.0, "lon": -76.94802266666667, "name": "9b158c1d041700f98f2d837f12f6cf01"}, {"bike_id": "ba19ff09b23424072fdcebabfddc23f2", "type": "electric_scooter", "is_disabled": 0, "lat": 38.90530583333334, "rental_uris": {"ios": "https://dc.lft.to/lastmile_qr_scan", "android": "https://dc.lft.to/lastmile_qr_scan"}, "is_reserved": 0, "fusion_lon": 0.0, "fusion_lat": 0.0, "lon": -77.029518, "name": "ba19ff09b23424072fdcebabfddc23f2"}, {"bike_id": "fe860648d20097bc26a593a8f7804df0", "type": "electric_scooter", "is_disabled": 0, "lat": 38.91184783333333, "rental_uris": {"ios": "https://dc.lft.to/lastmile_qr_scan", "android": "https://dc.lft.to/lastmile_qr_scan"}, "is_reserved": 0, "fusion_lon": 0.0, "fusion_lat": 0.0, "lon": -77.04556033333333, "name": "fe860648d20097bc26a593a8f7804df0"}, {"bike_id": "b91787ca958f575d411c18f0de5d587a", "type": "electric_scooter", "is_disabled": 0, "lat": 38.91852166666666, "rental_uris": {"ios": "https://dc.lft.to/lastmile_qr_scan", "android": "https://dc.lft.to/lastmile_qr_scan"}, "is_reserved": 0, "fusion_lon": 0.0, "fusion_lat": 0.0, "lon": -77.02595566666666, "name": "b91787ca958f575d411c18f0de5d587a"}, {"bike_id": "6e321684b31ff6532efccecea2184392", "type": "electric_scooter", "is_disabled": 0, "lat": 38.90534366666667, "rental_uris": {"ios": "https://dc.lft.to/lastmile_qr_scan", "android": "https://dc.lft.to/lastmile_qr_scan"}, "is_reserved": 0, "fusion_lon": 0.0, "fusion_lat": 0.0, "lon": -77.04164583333333, "name": "6e321684b31ff6532efccecea2184392"}, {"bike_id": "edd94a29603b6552bbc80007dfb6f6e4", "type": "electric_scooter", "is_disabled": 0, "lat": 38.923557833333334, "rental_uris": {"ios": "https://dc.lft.to/lastmile_qr_scan", "android": "https://dc.lft.to/lastmile_qr_scan"}, "is_reserved": 0, "fusion_lon": 0.0, "fusion_lat": 0.0, "lon": -77.04155033333333, "name": "edd94a29603b6552bbc80007dfb6f6e4"}, {"bike_id": "817fae4d586b759d9d88df193bf32519", "type": "electric_scooter", "is_disabled": 0, "lat": 38.946189, "rental_uris": {"ios": "https://dc.lft.to/lastmile_qr_scan", "android": "https://dc.lft.to/lastmile_qr_scan"}, "is_reserved": 0, "fusion_lon": 0.0, "fusion_lat": 0.0, "lon": -77.02654433333333, "name": "817fae4d586b759d9d88df193bf32519"}, {"bike_id": "43288de164270d75fde8c78aa316209e", "type": "electric_scooter", "is_disabled": 0, "lat": 38.9037855, "rental_uris": {"ios": "https://dc.lft.to/lastmile_qr_scan", "android": "https://dc.lft.to/lastmile_qr_scan"}, "is_reserved": 0, "fusion_lon": 0.0, "fusion_lat": 0.0, "lon": -77.04912333333333, "name": "43288de164270d75fde8c78aa316209e"}, {"bike_id": "f0002650583f17e9d206017be04329a8", "type": "electric_scooter", "is_disabled": 0, "lat": 38.918006166666665, "rental_uris": {"ios": "https://dc.lft.to/lastmile_qr_scan", "android": "https://dc.lft.to/lastmile_qr_scan"}, "is_reserved": 0, "fusion_lon": 0.0, "fusion_lat": 0.0, "lon": -77.03435583333334, "name": "f0002650583f17e9d206017be04329a8"}, {"bike_id": "f8b16ff158a94b804d72338ee24d51f7", "type": "electric_scooter", "is_disabled": 0, "lat": 38.904005166666664, "rental_uris": {"ios": "https://dc.lft.to/lastmile_qr_scan", "android": "https://dc.lft.to/lastmile_qr_scan"}, "is_reserved": 0, "fusion_lon": 0.0, "fusion_lat": 0.0, "lon": -77.0057755, "name": "f8b16ff158a94b804d72338ee24d51f7"}, {"bike_id": "94d517b0609271970448fcae080a3540", "type": "electric_scooter", "is_disabled": 0, "lat": 38.9169375, "rental_uris": {"ios": "https://dc.lft.to/lastmile_qr_scan", "android": "https://dc.lft.to/lastmile_qr_scan"}, "is_reserved": 0, "fusion_lon": 0.0, "fusion_lat": 0.0, "lon": -77.025216, "name": "94d517b0609271970448fcae080a3540"}, {"bike_id": "61ec1ca44550b23ed2536a4910944f4b", "type": "electric_scooter", "is_disabled": 0, "lat": 38.93102866666667, "rental_uris": {"ios": "https://dc.lft.to/lastmile_qr_scan", "android": "https://dc.lft.to/lastmile_qr_scan"}, "is_reserved": 0, "fusion_lon": 0.0, "fusion_lat": 0.0, "lon": -77.02676783333334, "name": "61ec1ca44550b23ed2536a4910944f4b"}, {"bike_id": "a62a64a003e148a8acfa965524f2f8df", "type": "electric_scooter", "is_disabled": 0, "lat": 38.92178583333333, "rental_uris": {"ios": "https://dc.lft.to/lastmile_qr_scan", "android": "https://dc.lft.to/lastmile_qr_scan"}, "is_reserved": 0, "fusion_lon": 0.0, "fusion_lat": 0.0, "lon": -77.01915683333333, "name": "a62a64a003e148a8acfa965524f2f8df"}, {"bike_id": "a5b900f5684cbfb03c1ad21cf3bf751c", "type": "electric_scooter", "is_disabled": 0, "lat": 38.905033833333334, "rental_uris": {"ios": "https://dc.lft.to/lastmile_qr_scan", "android": "https://dc.lft.to/lastmile_qr_scan"}, "is_reserved": 0, "fusion_lon": 0.0, "fusion_lat": 0.0, "lon": -77.02512216666666, "name": "a5b900f5684cbfb03c1ad21cf3bf751c"}, {"bike_id": "c0cc1c41864e94e27c17ecb89f644af5", "type": "electric_scooter", "is_disabled": 0, "lat": 38.951524166666665, "rental_uris": {"ios": "https://dc.lft.to/lastmile_qr_scan", "android": "https://dc.lft.to/lastmile_qr_scan"}, "is_reserved": 0, "fusion_lon": 0.0, "fusion_lat": 0.0, "lon": -77.01865933333333, "name": "c0cc1c41864e94e27c17ecb89f644af5"}, {"bike_id": "fbf15c99e3331cabb66ac186c930a230", "type": "electric_scooter", "is_disabled": 0, "lat": 38.9573105, "rental_uris": {"ios": "https://dc.lft.to/lastmile_qr_scan", "android": "https://dc.lft.to/lastmile_qr_scan"}, "is_reserved": 0, "fusion_lon": 0.0, "fusion_lat": 0.0, "lon": -77.0240645, "name": "fbf15c99e3331cabb66ac186c930a230"}, {"bike_id": "ea18f4e98dc5225e72127b18aac88ece", "type": "electric_scooter", "is_disabled": 0, "lat": 38.864665, "rental_uris": {"ios": "https://dc.lft.to/lastmile_qr_scan", "android": "https://dc.lft.to/lastmile_qr_scan"}, "is_reserved": 0, "fusion_lon": 0.0, "fusion_lat": 0.0, "lon": -77.01258933333334, "name": "ea18f4e98dc5225e72127b18aac88ece"}, {"bike_id": "03c3a121942f2780edb78318095e6adb", "type": "electric_scooter", "is_disabled": 0, "lat": 38.92278683333333, "rental_uris": {"ios": "https://dc.lft.to/lastmile_qr_scan", "android": "https://dc.lft.to/lastmile_qr_scan"}, "is_reserved": 0, "fusion_lon": 0.0, "fusion_lat": 0.0, "lon": -76.99464216666667, "name": "03c3a121942f2780edb78318095e6adb"}, {"bike_id": "3410a05267bb81b02420839f8b3a7a5c", "type": "electric_scooter", "is_disabled": 0, "lat": 38.923751, "rental_uris": {"ios": "https://dc.lft.to/lastmile_qr_scan", "android": "https://dc.lft.to/lastmile_qr_scan"}, "is_reserved": 0, "fusion_lon": 0.0, "fusion_lat": 0.0, "lon": -77.02533683333333, "name": "3410a05267bb81b02420839f8b3a7a5c"}, {"bike_id": "e3c2c9792c2261a4086e89c5784924ef", "type": "electric_bike", "is_disabled": 0, "lat": 38.899635333333336, "rental_uris": {"ios": "https://dc.lft.to/lastmile_qr_scan", "android": "https://dc.lft.to/lastmile_qr_scan"}, "is_reserved": 0, "fusion_lon": 0.0, "fusion_lat": 0.0, "lon": -77.05140833333333, "name": "e3c2c9792c2261a4086e89c5784924ef"}, {"bike_id": "cef088e30aad8fb86af127e51a895662", "type": "electric_scooter", "is_disabled": 0, "lat": 38.9096065, "rental_uris": {"ios": "https://dc.lft.to/lastmile_qr_scan", "android": "https://dc.lft.to/lastmile_qr_scan"}, "is_reserved": 0, "fusion_lon": 0.0, "fusion_lat": 0.0, "lon": -77.04865, "name": "cef088e30aad8fb86af127e51a895662"}, {"bike_id": "eeeaef664fa32f931b671abc05869e95", "type": "electric_scooter", "is_disabled": 0, "lat": 38.904084, "rental_uris": {"ios": "https://dc.lft.to/lastmile_qr_scan", "android": "https://dc.lft.to/lastmile_qr_scan"}, "is_reserved": 0, "fusion_lon": 0.0, "fusion_lat": 0.0, "lon": -76.97331733333333, "name": "eeeaef664fa32f931b671abc05869e95"}, {"bike_id": "222664c5e4cce04259b1c3ac4eb1a499", "type": "electric_scooter", "is_disabled": 0, "lat": 38.917068, "rental_uris": {"ios": "https://dc.lft.to/lastmile_qr_scan", "android": "https://dc.lft.to/lastmile_qr_scan"}, "is_reserved": 0, "fusion_lon": 0.0, "fusion_lat": 0.0, "lon": -77.09577316666666, "name": "222664c5e4cce04259b1c3ac4eb1a499"}, {"bike_id": "850504a65ba52fffe85882542e7c80f9", "type": "electric_scooter", "is_disabled": 0, "lat": 38.93327683333333, "rental_uris": {"ios": "https://dc.lft.to/lastmile_qr_scan", "android": "https://dc.lft.to/lastmile_qr_scan"}, "is_reserved": 0, "fusion_lon": 0.0, "fusion_lat": 0.0, "lon": -77.03257866666667, "name": "850504a65ba52fffe85882542e7c80f9"}, {"bike_id": "326b142394c2fbff5f4705bf8bebddd2", "type": "electric_scooter", "is_disabled": 0, "lat": 38.923240666666665, "rental_uris": {"ios": "https://dc.lft.to/lastmile_qr_scan", "android": "https://dc.lft.to/lastmile_qr_scan"}, "is_reserved": 0, "fusion_lon": 0.0, "fusion_lat": 0.0, "lon": -77.02148666666666, "name": "326b142394c2fbff5f4705bf8bebddd2"}, {"bike_id": "a7d8d70b3ab28775ee6341c0a4870668", "type": "electric_bike", "is_disabled": 0, "lat": 38.956883833333336, "rental_uris": {"ios": "https://dc.lft.to/lastmile_qr_scan", "android": "https://dc.lft.to/lastmile_qr_scan"}, "is_reserved": 0, "fusion_lon": 0.0, "fusion_lat": 0.0, "lon": -77.022308, "name": "a7d8d70b3ab28775ee6341c0a4870668"}, {"bike_id": "0923066eb9bd01b92081827c8f5221a5", "type": "electric_scooter", "is_disabled": 0, "lat": 38.91981083333334, "rental_uris": {"ios": "https://dc.lft.to/lastmile_qr_scan", "android": "https://dc.lft.to/lastmile_qr_scan"}, "is_reserved": 0, "fusion_lon": 0.0, "fusion_lat": 0.0, "lon": -77.03203133333334, "name": "0923066eb9bd01b92081827c8f5221a5"}, {"bike_id": "e06b1c118d68ff2114b6ce4732652663", "type": "electric_scooter", "is_disabled": 0, "lat": 38.918125, "rental_uris": {"ios": "https://dc.lft.to/lastmile_qr_scan", "android": "https://dc.lft.to/lastmile_qr_scan"}, "is_reserved": 0, "fusion_lon": 0.0, "fusion_lat": 0.0, "lon": -77.031326, "name": "e06b1c118d68ff2114b6ce4732652663"}, {"bike_id": "d9f0cf8703453f759172edfa4f829e8b", "type": "electric_scooter", "is_disabled": 0, "lat": 38.908639, "rental_uris": {"ios": "https://dc.lft.to/lastmile_qr_scan", "android": "https://dc.lft.to/lastmile_qr_scan"}, "is_reserved": 0, "fusion_lon": 0.0, "fusion_lat": 0.0, "lon": -77.02824533333333, "name": "d9f0cf8703453f759172edfa4f829e8b"}, {"bike_id": "d6e3d697a71812c22d498847e9a4588e", "type": "electric_scooter", "is_disabled": 0, "lat": 38.932445666666666, "rental_uris": {"ios": "https://dc.lft.to/lastmile_qr_scan", "android": "https://dc.lft.to/lastmile_qr_scan"}, "is_reserved": 0, "fusion_lon": 0.0, "fusion_lat": 0.0, "lon": -77.0295775, "name": "d6e3d697a71812c22d498847e9a4588e"}, {"bike_id": "176b42998ccb8da94baa09382a57d7b5", "type": "electric_scooter", "is_disabled": 0, "lat": 38.93292783333333, "rental_uris": {"ios": "https://dc.lft.to/lastmile_qr_scan", "android": "https://dc.lft.to/lastmile_qr_scan"}, "is_reserved": 0, "fusion_lon": 0.0, "fusion_lat": 0.0, "lon": -77.03610133333333, "name": "176b42998ccb8da94baa09382a57d7b5"}, {"bike_id": "0dee814b514cbbff1c071588a9df021b", "type": "electric_scooter", "is_disabled": 0, "lat": 38.91043416666667, "rental_uris": {"ios": "https://dc.lft.to/lastmile_qr_scan", "android": "https://dc.lft.to/lastmile_qr_scan"}, "is_reserved": 0, "fusion_lon": 0.0, "fusion_lat": 0.0, "lon": -77.01020816666667, "name": "0dee814b514cbbff1c071588a9df021b"}, {"bike_id": "bf5d7f96640cbcb4353bdabd72814829", "type": "electric_scooter", "is_disabled": 0, "lat": 38.924649, "rental_uris": {"ios": "https://dc.lft.to/lastmile_qr_scan", "android": "https://dc.lft.to/lastmile_qr_scan"}, "is_reserved": 0, "fusion_lon": 0.0, "fusion_lat": 0.0, "lon": -77.05238683333333, "name": "bf5d7f96640cbcb4353bdabd72814829"}, {"bike_id": "63b0af17598517b265841d95c65e9f01", "type": "electric_scooter", "is_disabled": 0, "lat": 38.915623333333336, "rental_uris": {"ios": "https://dc.lft.to/lastmile_qr_scan", "android": "https://dc.lft.to/lastmile_qr_scan"}, "is_reserved": 0, "fusion_lon": 0.0, "fusion_lat": 0.0, "lon": -77.0317175, "name": "63b0af17598517b265841d95c65e9f01"}, {"bike_id": "8bf35487e46d1f0697cc5457120bdece", "type": "electric_scooter", "is_disabled": 0, "lat": 38.923086833333336, "rental_uris": {"ios": "https://dc.lft.to/lastmile_qr_scan", "android": "https://dc.lft.to/lastmile_qr_scan"}, "is_reserved": 0, "fusion_lon": 0.0, "fusion_lat": 0.0, "lon": -77.041174, "name": "8bf35487e46d1f0697cc5457120bdece"}, {"bike_id": "35a96892f763da9d21a72121de7599e9", "type": "electric_scooter", "is_disabled": 0, "lat": 38.91660566666667, "rental_uris": {"ios": "https://dc.lft.to/lastmile_qr_scan", "android": "https://dc.lft.to/lastmile_qr_scan"}, "is_reserved": 0, "fusion_lon": 0.0, "fusion_lat": 0.0, "lon": -77.02888816666666, "name": "35a96892f763da9d21a72121de7599e9"}, {"bike_id": "72d1bd168a2e387c4e1f25e700e3d0c5", "type": "electric_scooter", "is_disabled": 0, "lat": 38.91564566666667, "rental_uris": {"ios": "https://dc.lft.to/lastmile_qr_scan", "android": "https://dc.lft.to/lastmile_qr_scan"}, "is_reserved": 0, "fusion_lon": 0.0, "fusion_lat": 0.0, "lon": -77.04287266666667, "name": "72d1bd168a2e387c4e1f25e700e3d0c5"}, {"bike_id": "3527e02d8c9804f3216bee3623735d75", "type": "electric_scooter", "is_disabled": 0, "lat": 38.892230833333336, "rental_uris": {"ios": "https://dc.lft.to/lastmile_qr_scan", "android": "https://dc.lft.to/lastmile_qr_scan"}, "is_reserved": 0, "fusion_lon": 0.0, "fusion_lat": 0.0, "lon": -77.02574933333334, "name": "3527e02d8c9804f3216bee3623735d75"}, {"bike_id": "624289afdbd9fb4ab96188d5e54f9127", "type": "electric_scooter", "is_disabled": 0, "lat": 38.91240466666667, "rental_uris": {"ios": "https://dc.lft.to/lastmile_qr_scan", "android": "https://dc.lft.to/lastmile_qr_scan"}, "is_reserved": 0, "fusion_lon": 0.0, "fusion_lat": 0.0, "lon": -77.0091915, "name": "624289afdbd9fb4ab96188d5e54f9127"}, {"bike_id": "d6d93dbfaca0bbc4e19eb52d2a0e3be1", "type": "electric_scooter", "is_disabled": 0, "lat": 38.949009, "rental_uris": {"ios": "https://dc.lft.to/lastmile_qr_scan", "android": "https://dc.lft.to/lastmile_qr_scan"}, "is_reserved": 0, "fusion_lon": 0.0, "fusion_lat": 0.0, "lon": -77.00652216666667, "name": "d6d93dbfaca0bbc4e19eb52d2a0e3be1"}, {"bike_id": "141710eefa6408f384c7570e46e195ef", "type": "electric_scooter", "is_disabled": 0, "lat": 38.906452333333334, "rental_uris": {"ios": "https://dc.lft.to/lastmile_qr_scan", "android": "https://dc.lft.to/lastmile_qr_scan"}, "is_reserved": 0, "fusion_lon": 0.0, "fusion_lat": 0.0, "lon": -77.05324966666667, "name": "141710eefa6408f384c7570e46e195ef"}, {"bike_id": "11834c569645b2602c004ce892806a34", "type": "electric_scooter", "is_disabled": 0, "lat": 38.924076666666664, "rental_uris": {"ios": "https://dc.lft.to/lastmile_qr_scan", "android": "https://dc.lft.to/lastmile_qr_scan"}, "is_reserved": 0, "fusion_lon": 0.0, "fusion_lat": 0.0, "lon": -77.029794, "name": "11834c569645b2602c004ce892806a34"}, {"bike_id": "8f0fc4b6d4f80fa59604ab952f49b7fc", "type": "electric_scooter", "is_disabled": 0, "lat": 38.91597183333333, "rental_uris": {"ios": "https://dc.lft.to/lastmile_qr_scan", "android": "https://dc.lft.to/lastmile_qr_scan"}, "is_reserved": 0, "fusion_lon": 0.0, "fusion_lat": 0.0, "lon": -77.01231516666667, "name": "8f0fc4b6d4f80fa59604ab952f49b7fc"}, {"bike_id": "2d594cb2d0b85317ccba9d6066d824e2", "type": "electric_scooter", "is_disabled": 0, "lat": 38.907729833333335, "rental_uris": {"ios": "https://dc.lft.to/lastmile_qr_scan", "android": "https://dc.lft.to/lastmile_qr_scan"}, "is_reserved": 0, "fusion_lon": 0.0, "fusion_lat": 0.0, "lon": -77.012045, "name": "2d594cb2d0b85317ccba9d6066d824e2"}, {"bike_id": "1977325e4d93f09338b092af507201ce", "type": "electric_scooter", "is_disabled": 0, "lat": 38.872911333333334, "rental_uris": {"ios": "https://dc.lft.to/lastmile_qr_scan", "android": "https://dc.lft.to/lastmile_qr_scan"}, "is_reserved": 0, "fusion_lon": 0.0, "fusion_lat": 0.0, "lon": -77.00984316666667, "name": "1977325e4d93f09338b092af507201ce"}, {"bike_id": "8c18963163cc207e63c894abe80ed2c8", "type": "electric_bike", "is_disabled": 0, "lat": 38.91014466666667, "rental_uris": {"ios": "https://dc.lft.to/lastmile_qr_scan", "android": "https://dc.lft.to/lastmile_qr_scan"}, "is_reserved": 0, "fusion_lon": 0.0, "fusion_lat": 0.0, "lon": -77.22796883333334, "name": "8c18963163cc207e63c894abe80ed2c8"}, {"bike_id": "486f7d409bc8cfcd32240cc8e0d6e7c9", "type": "electric_scooter", "is_disabled": 0, "lat": 38.92140083333334, "rental_uris": {"ios": "https://dc.lft.to/lastmile_qr_scan", "android": "https://dc.lft.to/lastmile_qr_scan"}, "is_reserved": 0, "fusion_lon": 0.0, "fusion_lat": 0.0, "lon": -77.04572933333333, "name": "486f7d409bc8cfcd32240cc8e0d6e7c9"}, {"bike_id": "82a52ae7d510948f143871f4155bc40d", "type": "electric_scooter", "is_disabled": 0, "lat": 38.94702433333333, "rental_uris": {"ios": "https://dc.lft.to/lastmile_qr_scan", "android": "https://dc.lft.to/lastmile_qr_scan"}, "is_reserved": 0, "fusion_lon": 0.0, "fusion_lat": 0.0, "lon": -77.01941266666667, "name": "82a52ae7d510948f143871f4155bc40d"}, {"bike_id": "c1556479065bfae361d535da428a1ad6", "type": "electric_scooter", "is_disabled": 0, "lat": 38.919161, "rental_uris": {"ios": "https://dc.lft.to/lastmile_qr_scan", "android": "https://dc.lft.to/lastmile_qr_scan"}, "is_reserved": 0, "fusion_lon": 0.0, "fusion_lat": 0.0, "lon": -77.01416116666667, "name": "c1556479065bfae361d535da428a1ad6"}, {"bike_id": "9795555f018e99a8e0ac30c8d41af518", "type": "electric_scooter", "is_disabled": 0, "lat": 38.91409083333333, "rental_uris": {"ios": "https://dc.lft.to/lastmile_qr_scan", "android": "https://dc.lft.to/lastmile_qr_scan"}, "is_reserved": 0, "fusion_lon": 0.0, "fusion_lat": 0.0, "lon": -77.01553866666667, "name": "9795555f018e99a8e0ac30c8d41af518"}, {"bike_id": "4208afbbf584a596bf29c3852d0876e3", "type": "electric_scooter", "is_disabled": 0, "lat": 38.9243975, "rental_uris": {"ios": "https://dc.lft.to/lastmile_qr_scan", "android": "https://dc.lft.to/lastmile_qr_scan"}, "is_reserved": 0, "fusion_lon": 0.0, "fusion_lat": 0.0, "lon": -77.03351166666667, "name": "4208afbbf584a596bf29c3852d0876e3"}, {"bike_id": "7b11453040ca048eceaf11ce2ef50758", "type": "electric_scooter", "is_disabled": 0, "lat": 38.86974766666667, "rental_uris": {"ios": "https://dc.lft.to/lastmile_qr_scan", "android": "https://dc.lft.to/lastmile_qr_scan"}, "is_reserved": 0, "fusion_lon": 0.0, "fusion_lat": 0.0, "lon": -76.98174866666666, "name": "7b11453040ca048eceaf11ce2ef50758"}, {"bike_id": "c47edf110988db18d1babffbf5edab5c", "type": "electric_scooter", "is_disabled": 0, "lat": 38.92594716666667, "rental_uris": {"ios": "https://dc.lft.to/lastmile_qr_scan", "android": "https://dc.lft.to/lastmile_qr_scan"}, "is_reserved": 0, "fusion_lon": 0.0, "fusion_lat": 0.0, "lon": -77.0249415, "name": "c47edf110988db18d1babffbf5edab5c"}, {"bike_id": "1055701a6ca660dd1af46eda210c198f", "type": "electric_scooter", "is_disabled": 0, "lat": 38.90096366666667, "rental_uris": {"ios": "https://dc.lft.to/lastmile_qr_scan", "android": "https://dc.lft.to/lastmile_qr_scan"}, "is_reserved": 0, "fusion_lon": 0.0, "fusion_lat": 0.0, "lon": -77.05782266666667, "name": "1055701a6ca660dd1af46eda210c198f"}, {"bike_id": "b2fe6e0cf80cc52fd124512796b9aaf1", "type": "electric_scooter", "is_disabled": 0, "lat": 38.864411833333335, "rental_uris": {"ios": "https://dc.lft.to/lastmile_qr_scan", "android": "https://dc.lft.to/lastmile_qr_scan"}, "is_reserved": 0, "fusion_lon": 0.0, "fusion_lat": 0.0, "lon": -76.989872, "name": "b2fe6e0cf80cc52fd124512796b9aaf1"}, {"bike_id": "1a6b01ff1f2748742d98efb481892614", "type": "electric_scooter", "is_disabled": 0, "lat": 38.9285265, "rental_uris": {"ios": "https://dc.lft.to/lastmile_qr_scan", "android": "https://dc.lft.to/lastmile_qr_scan"}, "is_reserved": 0, "fusion_lon": 0.0, "fusion_lat": 0.0, "lon": -77.01951416666667, "name": "1a6b01ff1f2748742d98efb481892614"}, {"bike_id": "fb43b91598e96e2318a5974fc88d5065", "type": "electric_scooter", "is_disabled": 0, "lat": 38.916627, "rental_uris": {"ios": "https://dc.lft.to/lastmile_qr_scan", "android": "https://dc.lft.to/lastmile_qr_scan"}, "is_reserved": 0, "fusion_lon": 0.0, "fusion_lat": 0.0, "lon": -77.0385385, "name": "fb43b91598e96e2318a5974fc88d5065"}, {"bike_id": "db47af9a8c7fd37951db3dd5dbd4f792", "type": "electric_scooter", "is_disabled": 0, "lat": 38.910045, "rental_uris": {"ios": "https://dc.lft.to/lastmile_qr_scan", "android": "https://dc.lft.to/lastmile_qr_scan"}, "is_reserved": 0, "fusion_lon": 0.0, "fusion_lat": 0.0, "lon": -76.986383, "name": "db47af9a8c7fd37951db3dd5dbd4f792"}, {"bike_id": "60d6aa15ee126f5ad81e7a46f3c27128", "type": "electric_scooter", "is_disabled": 0, "lat": 38.9193375, "rental_uris": {"ios": "https://dc.lft.to/lastmile_qr_scan", "android": "https://dc.lft.to/lastmile_qr_scan"}, "is_reserved": 0, "fusion_lon": 0.0, "fusion_lat": 0.0, "lon": -77.04500766666666, "name": "60d6aa15ee126f5ad81e7a46f3c27128"}, {"bike_id": "6f995c7e7087e433284b91a8f948af0a", "type": "electric_bike", "is_disabled": 0, "lat": 38.88058633333333, "rental_uris": {"ios": "https://dc.lft.to/lastmile_qr_scan", "android": "https://dc.lft.to/lastmile_qr_scan"}, "is_reserved": 0, "fusion_lon": 0.0, "fusion_lat": 0.0, "lon": -76.96242833333334, "name": "6f995c7e7087e433284b91a8f948af0a"}, {"bike_id": "d930549c8ee2731ffe3e62a94cfed38c", "type": "electric_scooter", "is_disabled": 0, "lat": 38.921525833333334, "rental_uris": {"ios": "https://dc.lft.to/lastmile_qr_scan", "android": "https://dc.lft.to/lastmile_qr_scan"}, "is_reserved": 0, "fusion_lon": 0.0, "fusion_lat": 0.0, "lon": -77.0353405, "name": "d930549c8ee2731ffe3e62a94cfed38c"}, {"bike_id": "f21f0b790a37777968bd0af93d94aebb", "type": "electric_scooter", "is_disabled": 0, "lat": 38.936765666666666, "rental_uris": {"ios": "https://dc.lft.to/lastmile_qr_scan", "android": "https://dc.lft.to/lastmile_qr_scan"}, "is_reserved": 0, "fusion_lon": 0.0, "fusion_lat": 0.0, "lon": -77.03621416666667, "name": "f21f0b790a37777968bd0af93d94aebb"}, {"bike_id": "c957ea94ddfb8e2ce9d489364549d70b", "type": "electric_scooter", "is_disabled": 0, "lat": 38.94789683333333, "rental_uris": {"ios": "https://dc.lft.to/lastmile_qr_scan", "android": "https://dc.lft.to/lastmile_qr_scan"}, "is_reserved": 0, "fusion_lon": 0.0, "fusion_lat": 0.0, "lon": -77.02133483333333, "name": "c957ea94ddfb8e2ce9d489364549d70b"}, {"bike_id": "2935c084543eb06afb8f1ccc36809f77", "type": "electric_scooter", "is_disabled": 0, "lat": 38.91374733333333, "rental_uris": {"ios": "https://dc.lft.to/lastmile_qr_scan", "android": "https://dc.lft.to/lastmile_qr_scan"}, "is_reserved": 0, "fusion_lon": 0.0, "fusion_lat": 0.0, "lon": -77.07268783333333, "name": "2935c084543eb06afb8f1ccc36809f77"}, {"bike_id": "d08d941ab000cd32a482422125e329a7", "type": "electric_scooter", "is_disabled": 0, "lat": 38.9161185, "rental_uris": {"ios": "https://dc.lft.to/lastmile_qr_scan", "android": "https://dc.lft.to/lastmile_qr_scan"}, "is_reserved": 0, "fusion_lon": 0.0, "fusion_lat": 0.0, "lon": -77.0485785, "name": "d08d941ab000cd32a482422125e329a7"}, {"bike_id": "bf971b31b536e97fde58b6867d29ce63", "type": "electric_bike", "is_disabled": 0, "lat": 38.8727715, "rental_uris": {"ios": "https://dc.lft.to/lastmile_qr_scan", "android": "https://dc.lft.to/lastmile_qr_scan"}, "is_reserved": 0, "fusion_lon": 0.0, "fusion_lat": 0.0, "lon": -77.23319866666667, "name": "bf971b31b536e97fde58b6867d29ce63"}, {"bike_id": "24fc8016c5685f95e9dc3558e5843199", "type": "electric_scooter", "is_disabled": 0, "lat": 38.921510833333336, "rental_uris": {"ios": "https://dc.lft.to/lastmile_qr_scan", "android": "https://dc.lft.to/lastmile_qr_scan"}, "is_reserved": 0, "fusion_lon": 0.0, "fusion_lat": 0.0, "lon": -77.03870616666667, "name": "24fc8016c5685f95e9dc3558e5843199"}, {"bike_id": "0bc8997b3fd15ee652472e152729f082", "type": "electric_scooter", "is_disabled": 0, "lat": 38.8600865, "rental_uris": {"ios": "https://dc.lft.to/lastmile_qr_scan", "android": "https://dc.lft.to/lastmile_qr_scan"}, "is_reserved": 0, "fusion_lon": 0.0, "fusion_lat": 0.0, "lon": -76.98520316666666, "name": "0bc8997b3fd15ee652472e152729f082"}, {"bike_id": "b2e962e2824a35f0a83c5b6f9c48777e", "type": "electric_scooter", "is_disabled": 0, "lat": 38.92216283333333, "rental_uris": {"ios": "https://dc.lft.to/lastmile_qr_scan", "android": "https://dc.lft.to/lastmile_qr_scan"}, "is_reserved": 0, "fusion_lon": 0.0, "fusion_lat": 0.0, "lon": -77.03295033333333, "name": "b2e962e2824a35f0a83c5b6f9c48777e"}, {"bike_id": "5c04d94278ad26f4831830033eb600bb", "type": "electric_scooter", "is_disabled": 0, "lat": 38.9085075, "rental_uris": {"ios": "https://dc.lft.to/lastmile_qr_scan", "android": "https://dc.lft.to/lastmile_qr_scan"}, "is_reserved": 0, "fusion_lon": 0.0, "fusion_lat": 0.0, "lon": -77.00316566666666, "name": "5c04d94278ad26f4831830033eb600bb"}, {"bike_id": "edeb751ac126541a45232330284ba629", "type": "electric_scooter", "is_disabled": 0, "lat": 38.905954333333334, "rental_uris": {"ios": "https://dc.lft.to/lastmile_qr_scan", "android": "https://dc.lft.to/lastmile_qr_scan"}, "is_reserved": 0, "fusion_lon": 0.0, "fusion_lat": 0.0, "lon": -77.07012483333334, "name": "edeb751ac126541a45232330284ba629"}, {"bike_id": "2e0bc00b4fdc2c0dd957634263388d66", "type": "electric_scooter", "is_disabled": 0, "lat": 38.89195016666667, "rental_uris": {"ios": "https://dc.lft.to/lastmile_qr_scan", "android": "https://dc.lft.to/lastmile_qr_scan"}, "is_reserved": 0, "fusion_lon": 0.0, "fusion_lat": 0.0, "lon": -77.02977916666667, "name": "2e0bc00b4fdc2c0dd957634263388d66"}, {"bike_id": "c407f2ac482cbeea5061579d19637b8d", "type": "electric_scooter", "is_disabled": 0, "lat": 38.90855483333333, "rental_uris": {"ios": "https://dc.lft.to/lastmile_qr_scan", "android": "https://dc.lft.to/lastmile_qr_scan"}, "is_reserved": 0, "fusion_lon": 0.0, "fusion_lat": 0.0, "lon": -76.9996665, "name": "c407f2ac482cbeea5061579d19637b8d"}, {"bike_id": "7357480ba4dcc3be083c66c9c5fa5b9e", "type": "electric_scooter", "is_disabled": 0, "lat": 38.91919633333333, "rental_uris": {"ios": "https://dc.lft.to/lastmile_qr_scan", "android": "https://dc.lft.to/lastmile_qr_scan"}, "is_reserved": 0, "fusion_lon": 0.0, "fusion_lat": 0.0, "lon": -77.03363016666667, "name": "7357480ba4dcc3be083c66c9c5fa5b9e"}, {"bike_id": "4550db1efa92c06e467eb19dee73a9a9", "type": "electric_scooter", "is_disabled": 0, "lat": 38.919173666666666, "rental_uris": {"ios": "https://dc.lft.to/lastmile_qr_scan", "android": "https://dc.lft.to/lastmile_qr_scan"}, "is_reserved": 0, "fusion_lon": 0.0, "fusion_lat": 0.0, "lon": -77.02487366666666, "name": "4550db1efa92c06e467eb19dee73a9a9"}, {"bike_id": "0d8f5dd014a3ec43e5e8e35e8ceeea2c", "type": "electric_scooter", "is_disabled": 0, "lat": 38.93099566666667, "rental_uris": {"ios": "https://dc.lft.to/lastmile_qr_scan", "android": "https://dc.lft.to/lastmile_qr_scan"}, "is_reserved": 0, "fusion_lon": 0.0, "fusion_lat": 0.0, "lon": -77.02474633333334, "name": "0d8f5dd014a3ec43e5e8e35e8ceeea2c"}, {"bike_id": "1c292e9f4ffc3e8989b54e83caccadb1", "type": "electric_scooter", "is_disabled": 0, "lat": 38.91924, "rental_uris": {"ios": "https://dc.lft.to/lastmile_qr_scan", "android": "https://dc.lft.to/lastmile_qr_scan"}, "is_reserved": 0, "fusion_lon": 0.0, "fusion_lat": 0.0, "lon": -77.04626566666667, "name": "1c292e9f4ffc3e8989b54e83caccadb1"}, {"bike_id": "30451303387b1b368740760b68f04812", "type": "electric_scooter", "is_disabled": 0, "lat": 38.92661583333334, "rental_uris": {"ios": "https://dc.lft.to/lastmile_qr_scan", "android": "https://dc.lft.to/lastmile_qr_scan"}, "is_reserved": 0, "fusion_lon": 0.0, "fusion_lat": 0.0, "lon": -77.037295, "name": "30451303387b1b368740760b68f04812"}, {"bike_id": "a1e0eb7284418086d022437d5ff28b6e", "type": "electric_scooter", "is_disabled": 0, "lat": 38.918254166666664, "rental_uris": {"ios": "https://dc.lft.to/lastmile_qr_scan", "android": "https://dc.lft.to/lastmile_qr_scan"}, "is_reserved": 0, "fusion_lon": 0.0, "fusion_lat": 0.0, "lon": -77.04943266666666, "name": "a1e0eb7284418086d022437d5ff28b6e"}, {"bike_id": "90ddde00324ae828bc5173194533aa8b", "type": "electric_scooter", "is_disabled": 0, "lat": 38.907868, "rental_uris": {"ios": "https://dc.lft.to/lastmile_qr_scan", "android": "https://dc.lft.to/lastmile_qr_scan"}, "is_reserved": 0, "fusion_lon": 0.0, "fusion_lat": 0.0, "lon": -77.00957683333333, "name": "90ddde00324ae828bc5173194533aa8b"}, {"bike_id": "e1cd547ec3d94fb66bf069d6d742036e", "type": "electric_scooter", "is_disabled": 0, "lat": 38.939800166666664, "rental_uris": {"ios": "https://dc.lft.to/lastmile_qr_scan", "android": "https://dc.lft.to/lastmile_qr_scan"}, "is_reserved": 0, "fusion_lon": 0.0, "fusion_lat": 0.0, "lon": -77.03143783333333, "name": "e1cd547ec3d94fb66bf069d6d742036e"}, {"bike_id": "ee15ecff746abc8692eab3552c6ffbf2", "type": "electric_bike", "is_disabled": 0, "lat": 39.024372, "rental_uris": {"ios": "https://dc.lft.to/lastmile_qr_scan", "android": "https://dc.lft.to/lastmile_qr_scan"}, "is_reserved": 0, "fusion_lon": 0.0, "fusion_lat": 0.0, "lon": -77.1309765, "name": "ee15ecff746abc8692eab3552c6ffbf2"}, {"bike_id": "930d09056efdf99472371be6bd3a1adb", "type": "electric_scooter", "is_disabled": 0, "lat": 38.93461416666667, "rental_uris": {"ios": "https://dc.lft.to/lastmile_qr_scan", "android": "https://dc.lft.to/lastmile_qr_scan"}, "is_reserved": 0, "fusion_lon": 0.0, "fusion_lat": 0.0, "lon": -76.96438, "name": "930d09056efdf99472371be6bd3a1adb"}, {"bike_id": "b88e0797143fb878f90710aabf24db7f", "type": "electric_scooter", "is_disabled": 0, "lat": 38.941840666666664, "rental_uris": {"ios": "https://dc.lft.to/lastmile_qr_scan", "android": "https://dc.lft.to/lastmile_qr_scan"}, "is_reserved": 0, "fusion_lon": 0.0, "fusion_lat": 0.0, "lon": -77.024899, "name": "b88e0797143fb878f90710aabf24db7f"}, {"bike_id": "c70536c47c4821483bb2fc1d0f285a89", "type": "electric_scooter", "is_disabled": 0, "lat": 38.917676666666665, "rental_uris": {"ios": "https://dc.lft.to/lastmile_qr_scan", "android": "https://dc.lft.to/lastmile_qr_scan"}, "is_reserved": 0, "fusion_lon": 0.0, "fusion_lat": 0.0, "lon": -77.0345195, "name": "c70536c47c4821483bb2fc1d0f285a89"}, {"bike_id": "50fd5281671e4ed1920accd150a69297", "type": "electric_scooter", "is_disabled": 0, "lat": 38.904832666666664, "rental_uris": {"ios": "https://dc.lft.to/lastmile_qr_scan", "android": "https://dc.lft.to/lastmile_qr_scan"}, "is_reserved": 0, "fusion_lon": 0.0, "fusion_lat": 0.0, "lon": -77.053299, "name": "50fd5281671e4ed1920accd150a69297"}, {"bike_id": "721e52c34276d538023d9cf0ef2f8d9d", "type": "electric_scooter", "is_disabled": 0, "lat": 38.92614366666667, "rental_uris": {"ios": "https://dc.lft.to/lastmile_qr_scan", "android": "https://dc.lft.to/lastmile_qr_scan"}, "is_reserved": 0, "fusion_lon": 0.0, "fusion_lat": 0.0, "lon": -77.03689116666666, "name": "721e52c34276d538023d9cf0ef2f8d9d"}, {"bike_id": "fc02e48c2638b421f20b57f41b2c8cdd", "type": "electric_scooter", "is_disabled": 0, "lat": 38.929087333333335, "rental_uris": {"ios": "https://dc.lft.to/lastmile_qr_scan", "android": "https://dc.lft.to/lastmile_qr_scan"}, "is_reserved": 0, "fusion_lon": 0.0, "fusion_lat": 0.0, "lon": -77.03609783333333, "name": "fc02e48c2638b421f20b57f41b2c8cdd"}, {"bike_id": "6f1cc675cad0ae83f11e8fe5b1220cda", "type": "electric_scooter", "is_disabled": 0, "lat": 38.9040045, "rental_uris": {"ios": "https://dc.lft.to/lastmile_qr_scan", "android": "https://dc.lft.to/lastmile_qr_scan"}, "is_reserved": 0, "fusion_lon": 0.0, "fusion_lat": 0.0, "lon": -77.0179585, "name": "6f1cc675cad0ae83f11e8fe5b1220cda"}, {"bike_id": "22d9b1555df3601e437141301d9ad490", "type": "electric_bike", "is_disabled": 0, "lat": 38.947850833333334, "rental_uris": {"ios": "https://dc.lft.to/lastmile_qr_scan", "android": "https://dc.lft.to/lastmile_qr_scan"}, "is_reserved": 0, "fusion_lon": 0.0, "fusion_lat": 0.0, "lon": -76.97213266666667, "name": "22d9b1555df3601e437141301d9ad490"}, {"bike_id": "207e5de30a921eae1dad6068c370af42", "type": "electric_bike", "is_disabled": 0, "lat": 38.95711683333333, "rental_uris": {"ios": "https://dc.lft.to/lastmile_qr_scan", "android": "https://dc.lft.to/lastmile_qr_scan"}, "is_reserved": 0, "fusion_lon": 0.0, "fusion_lat": 0.0, "lon": -77.02406333333333, "name": "207e5de30a921eae1dad6068c370af42"}, {"bike_id": "e2f867a4df1105b107460a10940fe2c1", "type": "electric_scooter", "is_disabled": 0, "lat": 38.91144833333333, "rental_uris": {"ios": "https://dc.lft.to/lastmile_qr_scan", "android": "https://dc.lft.to/lastmile_qr_scan"}, "is_reserved": 0, "fusion_lon": 0.0, "fusion_lat": 0.0, "lon": -77.0280305, "name": "e2f867a4df1105b107460a10940fe2c1"}, {"bike_id": "a7773d8c6e18344b9868af08b35712e7", "type": "electric_scooter", "is_disabled": 0, "lat": 38.918192166666664, "rental_uris": {"ios": "https://dc.lft.to/lastmile_qr_scan", "android": "https://dc.lft.to/lastmile_qr_scan"}, "is_reserved": 0, "fusion_lon": 0.0, "fusion_lat": 0.0, "lon": -77.03260583333333, "name": "a7773d8c6e18344b9868af08b35712e7"}, {"bike_id": "8649e9f74dca93087a558dc6e5eccaa9", "type": "electric_scooter", "is_disabled": 0, "lat": 38.92617766666667, "rental_uris": {"ios": "https://dc.lft.to/lastmile_qr_scan", "android": "https://dc.lft.to/lastmile_qr_scan"}, "is_reserved": 0, "fusion_lon": 0.0, "fusion_lat": 0.0, "lon": -77.04330433333334, "name": "8649e9f74dca93087a558dc6e5eccaa9"}, {"bike_id": "fe3d767ef9603fe86f4bfa382e6354b9", "type": "electric_scooter", "is_disabled": 0, "lat": 38.913287833333335, "rental_uris": {"ios": "https://dc.lft.to/lastmile_qr_scan", "android": "https://dc.lft.to/lastmile_qr_scan"}, "is_reserved": 0, "fusion_lon": 0.0, "fusion_lat": 0.0, "lon": -77.01986233333334, "name": "fe3d767ef9603fe86f4bfa382e6354b9"}, {"bike_id": "a294e4deb00ca1d8f8380af1e4998ef8", "type": "electric_scooter", "is_disabled": 0, "lat": 38.93540266666667, "rental_uris": {"ios": "https://dc.lft.to/lastmile_qr_scan", "android": "https://dc.lft.to/lastmile_qr_scan"}, "is_reserved": 0, "fusion_lon": 0.0, "fusion_lat": 0.0, "lon": -77.03893183333334, "name": "a294e4deb00ca1d8f8380af1e4998ef8"}, {"bike_id": "a7b7fc4603a80c376d47073e3492440b", "type": "electric_scooter", "is_disabled": 0, "lat": 38.910108666666666, "rental_uris": {"ios": "https://dc.lft.to/lastmile_qr_scan", "android": "https://dc.lft.to/lastmile_qr_scan"}, "is_reserved": 0, "fusion_lon": 0.0, "fusion_lat": 0.0, "lon": -77.0162665, "name": "a7b7fc4603a80c376d47073e3492440b"}, {"bike_id": "f6ad946a3c42097c70784ded86a1f1b6", "type": "electric_scooter", "is_disabled": 0, "lat": 38.907976, "rental_uris": {"ios": "https://dc.lft.to/lastmile_qr_scan", "android": "https://dc.lft.to/lastmile_qr_scan"}, "is_reserved": 0, "fusion_lon": 0.0, "fusion_lat": 0.0, "lon": -77.03129583333333, "name": "f6ad946a3c42097c70784ded86a1f1b6"}, {"bike_id": "72841556f630fe46a13c3ee237092c57", "type": "electric_scooter", "is_disabled": 0, "lat": 38.91421483333333, "rental_uris": {"ios": "https://dc.lft.to/lastmile_qr_scan", "android": "https://dc.lft.to/lastmile_qr_scan"}, "is_reserved": 0, "fusion_lon": 0.0, "fusion_lat": 0.0, "lon": -77.02283983333334, "name": "72841556f630fe46a13c3ee237092c57"}, {"bike_id": "00c8b20f4c8c257576e1d516cca49ef2", "type": "electric_scooter", "is_disabled": 0, "lat": 38.899991, "rental_uris": {"ios": "https://dc.lft.to/lastmile_qr_scan", "android": "https://dc.lft.to/lastmile_qr_scan"}, "is_reserved": 0, "fusion_lon": 0.0, "fusion_lat": 0.0, "lon": -77.0120285, "name": "00c8b20f4c8c257576e1d516cca49ef2"}, {"bike_id": "f19df309fcef6a3c6f2698baf5e69e4c", "type": "electric_scooter", "is_disabled": 0, "lat": 38.9057285, "rental_uris": {"ios": "https://dc.lft.to/lastmile_qr_scan", "android": "https://dc.lft.to/lastmile_qr_scan"}, "is_reserved": 0, "fusion_lon": 0.0, "fusion_lat": 0.0, "lon": -77.01641016666666, "name": "f19df309fcef6a3c6f2698baf5e69e4c"}, {"bike_id": "54f52394ced26938271c599ef771a338", "type": "electric_scooter", "is_disabled": 0, "lat": 38.883904333333334, "rental_uris": {"ios": "https://dc.lft.to/lastmile_qr_scan", "android": "https://dc.lft.to/lastmile_qr_scan"}, "is_reserved": 0, "fusion_lon": 0.0, "fusion_lat": 0.0, "lon": -76.9544695, "name": "54f52394ced26938271c599ef771a338"}, {"bike_id": "46c5e346a222e005dceaf8de0b914938", "type": "electric_bike", "is_disabled": 0, "lat": 38.79605133333333, "rental_uris": {"ios": "https://dc.lft.to/lastmile_qr_scan", "android": "https://dc.lft.to/lastmile_qr_scan"}, "is_reserved": 0, "fusion_lon": 0.0, "fusion_lat": 0.0, "lon": -76.997417, "name": "46c5e346a222e005dceaf8de0b914938"}, {"bike_id": "68de604b69bec3e6af56c5473d147c57", "type": "electric_scooter", "is_disabled": 0, "lat": 38.903577166666665, "rental_uris": {"ios": "https://dc.lft.to/lastmile_qr_scan", "android": "https://dc.lft.to/lastmile_qr_scan"}, "is_reserved": 0, "fusion_lon": 0.0, "fusion_lat": 0.0, "lon": -77.0271455, "name": "68de604b69bec3e6af56c5473d147c57"}, {"bike_id": "0e390be09b95e3920fbabe69d16418bb", "type": "electric_scooter", "is_disabled": 0, "lat": 38.90694166666667, "rental_uris": {"ios": "https://dc.lft.to/lastmile_qr_scan", "android": "https://dc.lft.to/lastmile_qr_scan"}, "is_reserved": 0, "fusion_lon": 0.0, "fusion_lat": 0.0, "lon": -77.04180316666667, "name": "0e390be09b95e3920fbabe69d16418bb"}, {"bike_id": "dc218a1db2954783d08da633a6311ffa", "type": "electric_scooter", "is_disabled": 0, "lat": 38.924526166666666, "rental_uris": {"ios": "https://dc.lft.to/lastmile_qr_scan", "android": "https://dc.lft.to/lastmile_qr_scan"}, "is_reserved": 0, "fusion_lon": 0.0, "fusion_lat": 0.0, "lon": -77.03337133333333, "name": "dc218a1db2954783d08da633a6311ffa"}, {"bike_id": "c1e69a430e468c2af986fa239f2505b7", "type": "electric_scooter", "is_disabled": 0, "lat": 38.888864833333336, "rental_uris": {"ios": "https://dc.lft.to/lastmile_qr_scan", "android": "https://dc.lft.to/lastmile_qr_scan"}, "is_reserved": 0, "fusion_lon": 0.0, "fusion_lat": 0.0, "lon": -76.947802, "name": "c1e69a430e468c2af986fa239f2505b7"}, {"bike_id": "bf8b0ce0955c93cb257dc3978e9908ac", "type": "electric_scooter", "is_disabled": 0, "lat": 38.886752333333334, "rental_uris": {"ios": "https://dc.lft.to/lastmile_qr_scan", "android": "https://dc.lft.to/lastmile_qr_scan"}, "is_reserved": 0, "fusion_lon": 0.0, "fusion_lat": 0.0, "lon": -76.99143666666667, "name": "bf8b0ce0955c93cb257dc3978e9908ac"}, {"bike_id": "992a38f5e977245158832985d7e50f56", "type": "electric_scooter", "is_disabled": 0, "lat": 38.885132166666665, "rental_uris": {"ios": "https://dc.lft.to/lastmile_qr_scan", "android": "https://dc.lft.to/lastmile_qr_scan"}, "is_reserved": 0, "fusion_lon": 0.0, "fusion_lat": 0.0, "lon": -77.01722916666667, "name": "992a38f5e977245158832985d7e50f56"}, {"bike_id": "cd3c01b33d3584b8555e006beeeb13cf", "type": "electric_scooter", "is_disabled": 0, "lat": 38.904983666666666, "rental_uris": {"ios": "https://dc.lft.to/lastmile_qr_scan", "android": "https://dc.lft.to/lastmile_qr_scan"}, "is_reserved": 0, "fusion_lon": 0.0, "fusion_lat": 0.0, "lon": -77.0259805, "name": "cd3c01b33d3584b8555e006beeeb13cf"}, {"bike_id": "38c0b80a5f974a7797cb0a418be87d03", "type": "electric_bike", "is_disabled": 0, "lat": 38.911784, "rental_uris": {"ios": "https://dc.lft.to/lastmile_qr_scan", "android": "https://dc.lft.to/lastmile_qr_scan"}, "is_reserved": 0, "fusion_lon": 0.0, "fusion_lat": 0.0, "lon": -77.02945516666666, "name": "38c0b80a5f974a7797cb0a418be87d03"}, {"bike_id": "5e58b380203955174b7e2f8b104141f2", "type": "electric_scooter", "is_disabled": 0, "lat": 38.90317133333333, "rental_uris": {"ios": "https://dc.lft.to/lastmile_qr_scan", "android": "https://dc.lft.to/lastmile_qr_scan"}, "is_reserved": 0, "fusion_lon": 0.0, "fusion_lat": 0.0, "lon": -76.99504033333334, "name": "5e58b380203955174b7e2f8b104141f2"}, {"bike_id": "b1343514933ab4b7073e3d8c76923626", "type": "electric_scooter", "is_disabled": 0, "lat": 38.90138016666667, "rental_uris": {"ios": "https://dc.lft.to/lastmile_qr_scan", "android": "https://dc.lft.to/lastmile_qr_scan"}, "is_reserved": 0, "fusion_lon": 0.0, "fusion_lat": 0.0, "lon": -77.0385555, "name": "b1343514933ab4b7073e3d8c76923626"}, {"bike_id": "dfce3706b35af526de2a2cd1dc81a7a8", "type": "electric_scooter", "is_disabled": 0, "lat": 38.921505833333335, "rental_uris": {"ios": "https://dc.lft.to/lastmile_qr_scan", "android": "https://dc.lft.to/lastmile_qr_scan"}, "is_reserved": 0, "fusion_lon": 0.0, "fusion_lat": 0.0, "lon": -77.03531733333334, "name": "dfce3706b35af526de2a2cd1dc81a7a8"}, {"bike_id": "35d29c19dc3fd7350aaf2a542f388bcd", "type": "electric_scooter", "is_disabled": 0, "lat": 38.878460833333335, "rental_uris": {"ios": "https://dc.lft.to/lastmile_qr_scan", "android": "https://dc.lft.to/lastmile_qr_scan"}, "is_reserved": 0, "fusion_lon": 0.0, "fusion_lat": 0.0, "lon": -77.01970433333334, "name": "35d29c19dc3fd7350aaf2a542f388bcd"}, {"bike_id": "3f18b22b8d5a67366b7e001fdca31b1f", "type": "electric_scooter", "is_disabled": 0, "lat": 38.90667333333333, "rental_uris": {"ios": "https://dc.lft.to/lastmile_qr_scan", "android": "https://dc.lft.to/lastmile_qr_scan"}, "is_reserved": 0, "fusion_lon": 0.0, "fusion_lat": 0.0, "lon": -77.02967716666667, "name": "3f18b22b8d5a67366b7e001fdca31b1f"}, {"bike_id": "e6b8234881c1cb9de55b6a9fc6b453c4", "type": "electric_scooter", "is_disabled": 0, "lat": 38.94293016666666, "rental_uris": {"ios": "https://dc.lft.to/lastmile_qr_scan", "android": "https://dc.lft.to/lastmile_qr_scan"}, "is_reserved": 0, "fusion_lon": 0.0, "fusion_lat": 0.0, "lon": -77.021707, "name": "e6b8234881c1cb9de55b6a9fc6b453c4"}, {"bike_id": "88564e2f600677ddf57041c34acb6866", "type": "electric_scooter", "is_disabled": 0, "lat": 38.88809783333333, "rental_uris": {"ios": "https://dc.lft.to/lastmile_qr_scan", "android": "https://dc.lft.to/lastmile_qr_scan"}, "is_reserved": 0, "fusion_lon": 0.0, "fusion_lat": 0.0, "lon": -76.933479, "name": "88564e2f600677ddf57041c34acb6866"}, {"bike_id": "52a6185ef3d150fe645e4fe5f9234415", "type": "electric_scooter", "is_disabled": 0, "lat": 38.91721316666667, "rental_uris": {"ios": "https://dc.lft.to/lastmile_qr_scan", "android": "https://dc.lft.to/lastmile_qr_scan"}, "is_reserved": 0, "fusion_lon": 0.0, "fusion_lat": 0.0, "lon": -77.02971566666666, "name": "52a6185ef3d150fe645e4fe5f9234415"}, {"bike_id": "d2244247ddaa197b325abf292c1eaf0b", "type": "electric_bike", "is_disabled": 0, "lat": 38.8535375, "rental_uris": {"ios": "https://dc.lft.to/lastmile_qr_scan", "android": "https://dc.lft.to/lastmile_qr_scan"}, "is_reserved": 0, "fusion_lon": 0.0, "fusion_lat": 0.0, "lon": -77.134676, "name": "d2244247ddaa197b325abf292c1eaf0b"}, {"bike_id": "3e4effbc85c9d5b50ffaed315c20ddf8", "type": "electric_scooter", "is_disabled": 0, "lat": 38.9238375, "rental_uris": {"ios": "https://dc.lft.to/lastmile_qr_scan", "android": "https://dc.lft.to/lastmile_qr_scan"}, "is_reserved": 0, "fusion_lon": 0.0, "fusion_lat": 0.0, "lon": -77.03670733333334, "name": "3e4effbc85c9d5b50ffaed315c20ddf8"}, {"bike_id": "f01f1499ef1c26aa9729ef9ae2fb270c", "type": "electric_scooter", "is_disabled": 0, "lat": 38.927519333333336, "rental_uris": {"ios": "https://dc.lft.to/lastmile_qr_scan", "android": "https://dc.lft.to/lastmile_qr_scan"}, "is_reserved": 0, "fusion_lon": 0.0, "fusion_lat": 0.0, "lon": -77.025324, "name": "f01f1499ef1c26aa9729ef9ae2fb270c"}, {"bike_id": "7320a4d361f4bf29732245b45660e9eb", "type": "electric_scooter", "is_disabled": 0, "lat": 38.922633, "rental_uris": {"ios": "https://dc.lft.to/lastmile_qr_scan", "android": "https://dc.lft.to/lastmile_qr_scan"}, "is_reserved": 0, "fusion_lon": 0.0, "fusion_lat": 0.0, "lon": -76.99472183333333, "name": "7320a4d361f4bf29732245b45660e9eb"}, {"bike_id": "daa9187cfa8fca1ac657d9936df91890", "type": "electric_scooter", "is_disabled": 0, "lat": 38.918305833333335, "rental_uris": {"ios": "https://dc.lft.to/lastmile_qr_scan", "android": "https://dc.lft.to/lastmile_qr_scan"}, "is_reserved": 0, "fusion_lon": 0.0, "fusion_lat": 0.0, "lon": -77.04561016666666, "name": "daa9187cfa8fca1ac657d9936df91890"}, {"bike_id": "9ca497323225e3ded1897234e747506d", "type": "electric_scooter", "is_disabled": 0, "lat": 38.927788666666665, "rental_uris": {"ios": "https://dc.lft.to/lastmile_qr_scan", "android": "https://dc.lft.to/lastmile_qr_scan"}, "is_reserved": 0, "fusion_lon": 0.0, "fusion_lat": 0.0, "lon": -77.054155, "name": "9ca497323225e3ded1897234e747506d"}, {"bike_id": "6ebe910c93992d1cbcd87db2f8dac83f", "type": "electric_scooter", "is_disabled": 0, "lat": 38.92043866666667, "rental_uris": {"ios": "https://dc.lft.to/lastmile_qr_scan", "android": "https://dc.lft.to/lastmile_qr_scan"}, "is_reserved": 0, "fusion_lon": 0.0, "fusion_lat": 0.0, "lon": -77.03122283333333, "name": "6ebe910c93992d1cbcd87db2f8dac83f"}, {"bike_id": "8ce7468b8355f55efe91b3d01262f61b", "type": "electric_bike", "is_disabled": 0, "lat": 38.8295355, "rental_uris": {"ios": "https://dc.lft.to/lastmile_qr_scan", "android": "https://dc.lft.to/lastmile_qr_scan"}, "is_reserved": 0, "fusion_lon": 0.0, "fusion_lat": 0.0, "lon": -77.12355766666667, "name": "8ce7468b8355f55efe91b3d01262f61b"}, {"bike_id": "338a88021428a2095d3542464eed0bfd", "type": "electric_scooter", "is_disabled": 0, "lat": 38.90975266666667, "rental_uris": {"ios": "https://dc.lft.to/lastmile_qr_scan", "android": "https://dc.lft.to/lastmile_qr_scan"}, "is_reserved": 0, "fusion_lon": 0.0, "fusion_lat": 0.0, "lon": -77.03815183333333, "name": "338a88021428a2095d3542464eed0bfd"}, {"bike_id": "4a72f6678b582518ed4076f9f5121a1e", "type": "electric_scooter", "is_disabled": 0, "lat": 38.91690416666667, "rental_uris": {"ios": "https://dc.lft.to/lastmile_qr_scan", "android": "https://dc.lft.to/lastmile_qr_scan"}, "is_reserved": 0, "fusion_lon": 0.0, "fusion_lat": 0.0, "lon": -77.0259985, "name": "4a72f6678b582518ed4076f9f5121a1e"}, {"bike_id": "cafe07d80f253896822209a05c869e73", "type": "electric_scooter", "is_disabled": 0, "lat": 38.86204166666667, "rental_uris": {"ios": "https://dc.lft.to/lastmile_qr_scan", "android": "https://dc.lft.to/lastmile_qr_scan"}, "is_reserved": 0, "fusion_lon": 0.0, "fusion_lat": 0.0, "lon": -76.99469116666667, "name": "cafe07d80f253896822209a05c869e73"}, {"bike_id": "b8acef81fa5fa5f3822b2cd0a57b5447", "type": "electric_scooter", "is_disabled": 0, "lat": 38.92636233333333, "rental_uris": {"ios": "https://dc.lft.to/lastmile_qr_scan", "android": "https://dc.lft.to/lastmile_qr_scan"}, "is_reserved": 0, "fusion_lon": 0.0, "fusion_lat": 0.0, "lon": -77.02171133333333, "name": "b8acef81fa5fa5f3822b2cd0a57b5447"}, {"bike_id": "c9944f5e84cda66152b7501a823775fd", "type": "electric_scooter", "is_disabled": 0, "lat": 38.9471425, "rental_uris": {"ios": "https://dc.lft.to/lastmile_qr_scan", "android": "https://dc.lft.to/lastmile_qr_scan"}, "is_reserved": 0, "fusion_lon": 0.0, "fusion_lat": 0.0, "lon": -77.02781733333333, "name": "c9944f5e84cda66152b7501a823775fd"}, {"bike_id": "116e02d5599f399a9e5871c92845afc0", "type": "electric_scooter", "is_disabled": 0, "lat": 38.907299, "rental_uris": {"ios": "https://dc.lft.to/lastmile_qr_scan", "android": "https://dc.lft.to/lastmile_qr_scan"}, "is_reserved": 0, "fusion_lon": 0.0, "fusion_lat": 0.0, "lon": -77.009734, "name": "116e02d5599f399a9e5871c92845afc0"}, {"bike_id": "7fb54ff9db1b38fa4c0bdc9abd94de8b", "type": "electric_scooter", "is_disabled": 0, "lat": 38.927883333333334, "rental_uris": {"ios": "https://dc.lft.to/lastmile_qr_scan", "android": "https://dc.lft.to/lastmile_qr_scan"}, "is_reserved": 0, "fusion_lon": 0.0, "fusion_lat": 0.0, "lon": -77.05261166666666, "name": "7fb54ff9db1b38fa4c0bdc9abd94de8b"}, {"bike_id": "e4cafe008757cbd90475d42216a808d0", "type": "electric_bike", "is_disabled": 0, "lat": 38.89293216666667, "rental_uris": {"ios": "https://dc.lft.to/lastmile_qr_scan", "android": "https://dc.lft.to/lastmile_qr_scan"}, "is_reserved": 0, "fusion_lon": 0.0, "fusion_lat": 0.0, "lon": -76.976161, "name": "e4cafe008757cbd90475d42216a808d0"}, {"bike_id": "a3883da33167bc780b93b44aa7ec54f4", "type": "electric_scooter", "is_disabled": 0, "lat": 38.88261766666667, "rental_uris": {"ios": "https://dc.lft.to/lastmile_qr_scan", "android": "https://dc.lft.to/lastmile_qr_scan"}, "is_reserved": 0, "fusion_lon": 0.0, "fusion_lat": 0.0, "lon": -76.99509166666667, "name": "a3883da33167bc780b93b44aa7ec54f4"}, {"bike_id": "71b4c5cd12626e0dddc7308786993530", "type": "electric_scooter", "is_disabled": 0, "lat": 38.866749666666664, "rental_uris": {"ios": "https://dc.lft.to/lastmile_qr_scan", "android": "https://dc.lft.to/lastmile_qr_scan"}, "is_reserved": 0, "fusion_lon": 0.0, "fusion_lat": 0.0, "lon": -76.985362, "name": "71b4c5cd12626e0dddc7308786993530"}, {"bike_id": "41083d072db707859188a2dc1a97bc4b", "type": "electric_scooter", "is_disabled": 0, "lat": 38.907927, "rental_uris": {"ios": "https://dc.lft.to/lastmile_qr_scan", "android": "https://dc.lft.to/lastmile_qr_scan"}, "is_reserved": 0, "fusion_lon": 0.0, "fusion_lat": 0.0, "lon": -77.03470883333334, "name": "41083d072db707859188a2dc1a97bc4b"}, {"bike_id": "9c69eb68e0e1fc579f2182cd281f8bc9", "type": "electric_scooter", "is_disabled": 0, "lat": 38.90147533333333, "rental_uris": {"ios": "https://dc.lft.to/lastmile_qr_scan", "android": "https://dc.lft.to/lastmile_qr_scan"}, "is_reserved": 0, "fusion_lon": 0.0, "fusion_lat": 0.0, "lon": -77.01499583333333, "name": "9c69eb68e0e1fc579f2182cd281f8bc9"}, {"bike_id": "ace6ebc5458869b9cc3dd6543211d78b", "type": "electric_scooter", "is_disabled": 0, "lat": 38.90286066666667, "rental_uris": {"ios": "https://dc.lft.to/lastmile_qr_scan", "android": "https://dc.lft.to/lastmile_qr_scan"}, "is_reserved": 0, "fusion_lon": 0.0, "fusion_lat": 0.0, "lon": -77.00346583333334, "name": "ace6ebc5458869b9cc3dd6543211d78b"}, {"bike_id": "ba88e1f80ffad0346d61950e28122dbb", "type": "electric_scooter", "is_disabled": 0, "lat": 38.92304633333333, "rental_uris": {"ios": "https://dc.lft.to/lastmile_qr_scan", "android": "https://dc.lft.to/lastmile_qr_scan"}, "is_reserved": 0, "fusion_lon": 0.0, "fusion_lat": 0.0, "lon": -77.01970416666667, "name": "ba88e1f80ffad0346d61950e28122dbb"}, {"bike_id": "90b4c14175dd7d4a08a46fb960cbf82e", "type": "electric_scooter", "is_disabled": 0, "lat": 38.921513, "rental_uris": {"ios": "https://dc.lft.to/lastmile_qr_scan", "android": "https://dc.lft.to/lastmile_qr_scan"}, "is_reserved": 0, "fusion_lon": 0.0, "fusion_lat": 0.0, "lon": -77.03531816666667, "name": "90b4c14175dd7d4a08a46fb960cbf82e"}, {"bike_id": "c88512619f6f2647f9544f0e1013379c", "type": "electric_scooter", "is_disabled": 0, "lat": 38.906787666666666, "rental_uris": {"ios": "https://dc.lft.to/lastmile_qr_scan", "android": "https://dc.lft.to/lastmile_qr_scan"}, "is_reserved": 0, "fusion_lon": 0.0, "fusion_lat": 0.0, "lon": -77.05322233333334, "name": "c88512619f6f2647f9544f0e1013379c"}, {"bike_id": "f376d6193d86130fef84f0b940255203", "type": "electric_scooter", "is_disabled": 0, "lat": 38.9285305, "rental_uris": {"ios": "https://dc.lft.to/lastmile_qr_scan", "android": "https://dc.lft.to/lastmile_qr_scan"}, "is_reserved": 0, "fusion_lon": 0.0, "fusion_lat": 0.0, "lon": -77.01948533333334, "name": "f376d6193d86130fef84f0b940255203"}, {"bike_id": "817827b3b6b2dffe31289debbe95f011", "type": "electric_scooter", "is_disabled": 0, "lat": 38.92091833333333, "rental_uris": {"ios": "https://dc.lft.to/lastmile_qr_scan", "android": "https://dc.lft.to/lastmile_qr_scan"}, "is_reserved": 0, "fusion_lon": 0.0, "fusion_lat": 0.0, "lon": -77.02534133333333, "name": "817827b3b6b2dffe31289debbe95f011"}, {"bike_id": "4be889886ec82919ed36f23088f5e285", "type": "electric_scooter", "is_disabled": 0, "lat": 38.95652783333333, "rental_uris": {"ios": "https://dc.lft.to/lastmile_qr_scan", "android": "https://dc.lft.to/lastmile_qr_scan"}, "is_reserved": 0, "fusion_lon": 0.0, "fusion_lat": 0.0, "lon": -77.01036916666666, "name": "4be889886ec82919ed36f23088f5e285"}, {"bike_id": "9669ec337c207593cbb3ecb0347e77fd", "type": "electric_scooter", "is_disabled": 0, "lat": 38.911188833333334, "rental_uris": {"ios": "https://dc.lft.to/lastmile_qr_scan", "android": "https://dc.lft.to/lastmile_qr_scan"}, "is_reserved": 0, "fusion_lon": 0.0, "fusion_lat": 0.0, "lon": -77.02233333333334, "name": "9669ec337c207593cbb3ecb0347e77fd"}, {"bike_id": "4b545ce937932772eb91df8dfc67affb", "type": "electric_scooter", "is_disabled": 0, "lat": 38.905562, "rental_uris": {"ios": "https://dc.lft.to/lastmile_qr_scan", "android": "https://dc.lft.to/lastmile_qr_scan"}, "is_reserved": 0, "fusion_lon": 0.0, "fusion_lat": 0.0, "lon": -76.98857683333334, "name": "4b545ce937932772eb91df8dfc67affb"}, {"bike_id": "73a2bca52f937412dc69816b0d1b22e7", "type": "electric_bike", "is_disabled": 0, "lat": 38.83429616666667, "rental_uris": {"ios": "https://dc.lft.to/lastmile_qr_scan", "android": "https://dc.lft.to/lastmile_qr_scan"}, "is_reserved": 0, "fusion_lon": 0.0, "fusion_lat": 0.0, "lon": -77.10353116666667, "name": "73a2bca52f937412dc69816b0d1b22e7"}, {"bike_id": "862b5b066db2c6003e8193aa6ec94b5e", "type": "electric_scooter", "is_disabled": 0, "lat": 38.883002833333336, "rental_uris": {"ios": "https://dc.lft.to/lastmile_qr_scan", "android": "https://dc.lft.to/lastmile_qr_scan"}, "is_reserved": 0, "fusion_lon": 0.0, "fusion_lat": 0.0, "lon": -76.94854, "name": "862b5b066db2c6003e8193aa6ec94b5e"}, {"bike_id": "1d41d39d88a8fcc13e2a6990967d29eb", "type": "electric_scooter", "is_disabled": 0, "lat": 38.90056033333333, "rental_uris": {"ios": "https://dc.lft.to/lastmile_qr_scan", "android": "https://dc.lft.to/lastmile_qr_scan"}, "is_reserved": 0, "fusion_lon": 0.0, "fusion_lat": 0.0, "lon": -77.04672666666667, "name": "1d41d39d88a8fcc13e2a6990967d29eb"}, {"bike_id": "f54c36f8b74f3462beae9f5faceb58c4", "type": "electric_bike", "is_disabled": 0, "lat": 38.96964333333333, "rental_uris": {"ios": "https://dc.lft.to/lastmile_qr_scan", "android": "https://dc.lft.to/lastmile_qr_scan"}, "is_reserved": 0, "fusion_lon": 0.0, "fusion_lat": 0.0, "lon": -76.95748316666666, "name": "f54c36f8b74f3462beae9f5faceb58c4"}, {"bike_id": "fd17bf6b9ec7c66795fd49f701f16a43", "type": "electric_scooter", "is_disabled": 0, "lat": 38.91597816666667, "rental_uris": {"ios": "https://dc.lft.to/lastmile_qr_scan", "android": "https://dc.lft.to/lastmile_qr_scan"}, "is_reserved": 0, "fusion_lon": 0.0, "fusion_lat": 0.0, "lon": -77.04465433333333, "name": "fd17bf6b9ec7c66795fd49f701f16a43"}, {"bike_id": "36def8e0effb7acf493b8a741cd52b57", "type": "electric_scooter", "is_disabled": 0, "lat": 38.912831, "rental_uris": {"ios": "https://dc.lft.to/lastmile_qr_scan", "android": "https://dc.lft.to/lastmile_qr_scan"}, "is_reserved": 0, "fusion_lon": 0.0, "fusion_lat": 0.0, "lon": -77.02713, "name": "36def8e0effb7acf493b8a741cd52b57"}, {"bike_id": "0f5c648217be9342d97aa27f7b71c5a4", "type": "electric_scooter", "is_disabled": 0, "lat": 38.90275583333333, "rental_uris": {"ios": "https://dc.lft.to/lastmile_qr_scan", "android": "https://dc.lft.to/lastmile_qr_scan"}, "is_reserved": 0, "fusion_lon": 0.0, "fusion_lat": 0.0, "lon": -77.01898333333334, "name": "0f5c648217be9342d97aa27f7b71c5a4"}, {"bike_id": "13e085a3eb04e6092a0f8d5abe4831f5", "type": "electric_scooter", "is_disabled": 0, "lat": 38.92319216666667, "rental_uris": {"ios": "https://dc.lft.to/lastmile_qr_scan", "android": "https://dc.lft.to/lastmile_qr_scan"}, "is_reserved": 0, "fusion_lon": 0.0, "fusion_lat": 0.0, "lon": -77.02801066666666, "name": "13e085a3eb04e6092a0f8d5abe4831f5"}, {"bike_id": "cc02f440775efcb44101d56a84844f0a", "type": "electric_scooter", "is_disabled": 0, "lat": 38.92473116666667, "rental_uris": {"ios": "https://dc.lft.to/lastmile_qr_scan", "android": "https://dc.lft.to/lastmile_qr_scan"}, "is_reserved": 0, "fusion_lon": 0.0, "fusion_lat": 0.0, "lon": -77.02831566666667, "name": "cc02f440775efcb44101d56a84844f0a"}, {"bike_id": "68f421767ec90cee801e76d8d6215b96", "type": "electric_scooter", "is_disabled": 0, "lat": 38.92613033333333, "rental_uris": {"ios": "https://dc.lft.to/lastmile_qr_scan", "android": "https://dc.lft.to/lastmile_qr_scan"}, "is_reserved": 0, "fusion_lon": 0.0, "fusion_lat": 0.0, "lon": -77.02161716666667, "name": "68f421767ec90cee801e76d8d6215b96"}, {"bike_id": "0d02615efe6b5c34930bbefdc50a4dcb", "type": "electric_scooter", "is_disabled": 0, "lat": 38.9000755, "rental_uris": {"ios": "https://dc.lft.to/lastmile_qr_scan", "android": "https://dc.lft.to/lastmile_qr_scan"}, "is_reserved": 0, "fusion_lon": 0.0, "fusion_lat": 0.0, "lon": -77.04672816666667, "name": "0d02615efe6b5c34930bbefdc50a4dcb"}, {"bike_id": "61c6da3b531bd077e974c3a307e5c838", "type": "electric_scooter", "is_disabled": 0, "lat": 38.935459, "rental_uris": {"ios": "https://dc.lft.to/lastmile_qr_scan", "android": "https://dc.lft.to/lastmile_qr_scan"}, "is_reserved": 0, "fusion_lon": 0.0, "fusion_lat": 0.0, "lon": -77.058579, "name": "61c6da3b531bd077e974c3a307e5c838"}, {"bike_id": "c722b747c38a7fbb8eab4ec05c3a6dec", "type": "electric_scooter", "is_disabled": 0, "lat": 38.8647175, "rental_uris": {"ios": "https://dc.lft.to/lastmile_qr_scan", "android": "https://dc.lft.to/lastmile_qr_scan"}, "is_reserved": 0, "fusion_lon": 0.0, "fusion_lat": 0.0, "lon": -76.97735566666667, "name": "c722b747c38a7fbb8eab4ec05c3a6dec"}, {"bike_id": "53a090b06c76f9f7cba43a39ec620a12", "type": "electric_scooter", "is_disabled": 0, "lat": 38.984344166666666, "rental_uris": {"ios": "https://dc.lft.to/lastmile_qr_scan", "android": "https://dc.lft.to/lastmile_qr_scan"}, "is_reserved": 0, "fusion_lon": 0.0, "fusion_lat": 0.0, "lon": -77.02675233333333, "name": "53a090b06c76f9f7cba43a39ec620a12"}, {"bike_id": "4bc67f325d0422749666085bd1c1fcee", "type": "electric_scooter", "is_disabled": 0, "lat": 38.900841, "rental_uris": {"ios": "https://dc.lft.to/lastmile_qr_scan", "android": "https://dc.lft.to/lastmile_qr_scan"}, "is_reserved": 0, "fusion_lon": 0.0, "fusion_lat": 0.0, "lon": -77.00633583333334, "name": "4bc67f325d0422749666085bd1c1fcee"}, {"bike_id": "843e895b0694b5185afbffaf5b41e179", "type": "electric_scooter", "is_disabled": 0, "lat": 38.9242245, "rental_uris": {"ios": "https://dc.lft.to/lastmile_qr_scan", "android": "https://dc.lft.to/lastmile_qr_scan"}, "is_reserved": 0, "fusion_lon": 0.0, "fusion_lat": 0.0, "lon": -77.022699, "name": "843e895b0694b5185afbffaf5b41e179"}, {"bike_id": "b51aeff77817f08fcca2c016cc2a3b9f", "type": "electric_scooter", "is_disabled": 0, "lat": 38.884151833333334, "rental_uris": {"ios": "https://dc.lft.to/lastmile_qr_scan", "android": "https://dc.lft.to/lastmile_qr_scan"}, "is_reserved": 0, "fusion_lon": 0.0, "fusion_lat": 0.0, "lon": -77.00745133333334, "name": "b51aeff77817f08fcca2c016cc2a3b9f"}, {"bike_id": "0226697c6c7c85d3f91f92080aa5ff56", "type": "electric_scooter", "is_disabled": 0, "lat": 38.917669333333336, "rental_uris": {"ios": "https://dc.lft.to/lastmile_qr_scan", "android": "https://dc.lft.to/lastmile_qr_scan"}, "is_reserved": 0, "fusion_lon": 0.0, "fusion_lat": 0.0, "lon": -77.04767833333334, "name": "0226697c6c7c85d3f91f92080aa5ff56"}, {"bike_id": "53a8f70e0a5fc2e79756de473a4cb3f4", "type": "electric_scooter", "is_disabled": 0, "lat": 38.86376633333333, "rental_uris": {"ios": "https://dc.lft.to/lastmile_qr_scan", "android": "https://dc.lft.to/lastmile_qr_scan"}, "is_reserved": 0, "fusion_lon": 0.0, "fusion_lat": 0.0, "lon": -76.990584, "name": "53a8f70e0a5fc2e79756de473a4cb3f4"}, {"bike_id": "21754bf37f956147cd6ee6365a4ca286", "type": "electric_scooter", "is_disabled": 0, "lat": 38.9354065, "rental_uris": {"ios": "https://dc.lft.to/lastmile_qr_scan", "android": "https://dc.lft.to/lastmile_qr_scan"}, "is_reserved": 0, "fusion_lon": 0.0, "fusion_lat": 0.0, "lon": -77.02506083333333, "name": "21754bf37f956147cd6ee6365a4ca286"}, {"bike_id": "63222cb3ee4d6268ddd5d552de16b5b0", "type": "electric_scooter", "is_disabled": 0, "lat": 38.8723345, "rental_uris": {"ios": "https://dc.lft.to/lastmile_qr_scan", "android": "https://dc.lft.to/lastmile_qr_scan"}, "is_reserved": 0, "fusion_lon": 0.0, "fusion_lat": 0.0, "lon": -77.01149433333333, "name": "63222cb3ee4d6268ddd5d552de16b5b0"}, {"bike_id": "03f25de027461dd654a28e5834fb0c13", "type": "electric_scooter", "is_disabled": 0, "lat": 38.928247166666665, "rental_uris": {"ios": "https://dc.lft.to/lastmile_qr_scan", "android": "https://dc.lft.to/lastmile_qr_scan"}, "is_reserved": 0, "fusion_lon": 0.0, "fusion_lat": 0.0, "lon": -77.02258833333333, "name": "03f25de027461dd654a28e5834fb0c13"}, {"bike_id": "a4fd0a4bba5c2e20569726c32e74712e", "type": "electric_bike", "is_disabled": 0, "lat": 38.940209, "rental_uris": {"ios": "https://dc.lft.to/lastmile_qr_scan", "android": "https://dc.lft.to/lastmile_qr_scan"}, "is_reserved": 0, "fusion_lon": 0.0, "fusion_lat": 0.0, "lon": -76.97606633333334, "name": "a4fd0a4bba5c2e20569726c32e74712e"}, {"bike_id": "a80b3c3285739d1bba453f42ccedbeb7", "type": "electric_bike", "is_disabled": 0, "lat": 38.95638916666667, "rental_uris": {"ios": "https://dc.lft.to/lastmile_qr_scan", "android": "https://dc.lft.to/lastmile_qr_scan"}, "is_reserved": 0, "fusion_lon": 0.0, "fusion_lat": 0.0, "lon": -76.9387715, "name": "a80b3c3285739d1bba453f42ccedbeb7"}, {"bike_id": "6fdb8ad269f75f7012eaa06f5e00dbc9", "type": "electric_scooter", "is_disabled": 0, "lat": 38.9084725, "rental_uris": {"ios": "https://dc.lft.to/lastmile_qr_scan", "android": "https://dc.lft.to/lastmile_qr_scan"}, "is_reserved": 0, "fusion_lon": 0.0, "fusion_lat": 0.0, "lon": -76.99796216666667, "name": "6fdb8ad269f75f7012eaa06f5e00dbc9"}, {"bike_id": "9fa4500cddad5d41bac707350382976c", "type": "electric_scooter", "is_disabled": 0, "lat": 38.88375383333333, "rental_uris": {"ios": "https://dc.lft.to/lastmile_qr_scan", "android": "https://dc.lft.to/lastmile_qr_scan"}, "is_reserved": 0, "fusion_lon": 0.0, "fusion_lat": 0.0, "lon": -77.02652033333334, "name": "9fa4500cddad5d41bac707350382976c"}, {"bike_id": "ac46c257cae85a93a927be4f065ed26b", "type": "electric_scooter", "is_disabled": 0, "lat": 38.8668515, "rental_uris": {"ios": "https://dc.lft.to/lastmile_qr_scan", "android": "https://dc.lft.to/lastmile_qr_scan"}, "is_reserved": 0, "fusion_lon": 0.0, "fusion_lat": 0.0, "lon": -76.9856265, "name": "ac46c257cae85a93a927be4f065ed26b"}, {"bike_id": "43ad9067ba0454f2438e91b986564aab", "type": "electric_scooter", "is_disabled": 0, "lat": 38.9202545, "rental_uris": {"ios": "https://dc.lft.to/lastmile_qr_scan", "android": "https://dc.lft.to/lastmile_qr_scan"}, "is_reserved": 0, "fusion_lon": 0.0, "fusion_lat": 0.0, "lon": -77.03120433333333, "name": "43ad9067ba0454f2438e91b986564aab"}, {"bike_id": "d2c8b1554954a7c1c0af2380d0a9f9b0", "type": "electric_scooter", "is_disabled": 0, "lat": 38.91924483333333, "rental_uris": {"ios": "https://dc.lft.to/lastmile_qr_scan", "android": "https://dc.lft.to/lastmile_qr_scan"}, "is_reserved": 0, "fusion_lon": 0.0, "fusion_lat": 0.0, "lon": -77.04245683333333, "name": "d2c8b1554954a7c1c0af2380d0a9f9b0"}, {"bike_id": "6503adf1dac667f3b3dcc68689b4b752", "type": "electric_scooter", "is_disabled": 0, "lat": 38.902737333333334, "rental_uris": {"ios": "https://dc.lft.to/lastmile_qr_scan", "android": "https://dc.lft.to/lastmile_qr_scan"}, "is_reserved": 0, "fusion_lon": 0.0, "fusion_lat": 0.0, "lon": -77.03936283333333, "name": "6503adf1dac667f3b3dcc68689b4b752"}, {"bike_id": "4f0cf46c8b92f3fc62dec70ce5602cb2", "type": "electric_scooter", "is_disabled": 0, "lat": 38.90005433333333, "rental_uris": {"ios": "https://dc.lft.to/lastmile_qr_scan", "android": "https://dc.lft.to/lastmile_qr_scan"}, "is_reserved": 0, "fusion_lon": 0.0, "fusion_lat": 0.0, "lon": -77.00684416666667, "name": "4f0cf46c8b92f3fc62dec70ce5602cb2"}, {"bike_id": "76acf05a91adacc21e7d3dbbee3962ce", "type": "electric_scooter", "is_disabled": 0, "lat": 38.90582083333334, "rental_uris": {"ios": "https://dc.lft.to/lastmile_qr_scan", "android": "https://dc.lft.to/lastmile_qr_scan"}, "is_reserved": 0, "fusion_lon": 0.0, "fusion_lat": 0.0, "lon": -77.020016, "name": "76acf05a91adacc21e7d3dbbee3962ce"}, {"bike_id": "4fe5e9a10ef09f0848fb79e2bb4ba62b", "type": "electric_scooter", "is_disabled": 0, "lat": 38.864176, "rental_uris": {"ios": "https://dc.lft.to/lastmile_qr_scan", "android": "https://dc.lft.to/lastmile_qr_scan"}, "is_reserved": 0, "fusion_lon": 0.0, "fusion_lat": 0.0, "lon": -76.9804405, "name": "4fe5e9a10ef09f0848fb79e2bb4ba62b"}, {"bike_id": "3f101c4c90880dad85d3742920c510ae", "type": "electric_scooter", "is_disabled": 0, "lat": 38.91174633333333, "rental_uris": {"ios": "https://dc.lft.to/lastmile_qr_scan", "android": "https://dc.lft.to/lastmile_qr_scan"}, "is_reserved": 0, "fusion_lon": 0.0, "fusion_lat": 0.0, "lon": -77.06851566666667, "name": "3f101c4c90880dad85d3742920c510ae"},