{"data": {"bikes": [{"rental_uris": {"android": "https://dc.lft.to/lastmile_qr_scan", "ios": "https://dc.lft.to/lastmile_qr_scan"}, "lat": 38.93770166666667, "fusion_lon": 0.0, "fusion_lat": 0.0, "type": "electric_scooter", "bike_id": "f59e5a496134af3c018ccdedbeb72ae4", "lon": -77.03365133333334, "is_reserved": 0, "is_disabled": 0, "name": "f59e5a496134af3c018ccdedbeb72ae4"}, {"rental_uris": {"android": "https://dc.lft.to/lastmile_qr_scan", "ios": "https://dc.lft.to/lastmile_qr_scan"}, "lat": 38.906037833333336, "fusion_lon": 0.0, "fusion_lat": 0.0, "type": "electric_scooter", "bike_id": "22799d7057c5cd7e8ef443c7dcafe4b4", "lon": -77.02107983333333, "is_reserved": 0, "is_disabled": 0, "name": "22799d7057c5cd7e8ef443c7dcafe4b4"}, {"rental_uris": {"android": "https://dc.lft.to/lastmile_qr_scan", "ios": "https://dc.lft.to/lastmile_qr_scan"}, "lat": 38.90719166666667, "fusion_lon": 0.0, "fusion_lat": 0.0, "type": "electric_scooter", "bike_id": "48b4dd1c2c46a5f8a3817e8b4844cab6", "lon": -77.0086965, "is_reserved": 0, "is_disabled": 0, "name": "48b4dd1c2c46a5f8a3817e8b4844cab6"}, {"rental_uris": {"android": "https://dc.lft.to/lastmile_qr_scan", "ios": "https://dc.lft.to/lastmile_qr_scan"}, "lat": 38.90400283333334, "fusion_lon": 0.0, "fusion_lat": 0.0, "type": "electric_scooter", "bike_id": "510440bc7549dddcf946a27b485a4fc4", "lon": -77.06499866666667, "is_reserved": 0, "is_disabled": 0, "name": "510440bc7549dddcf946a27b485a4fc4"}, {"rental_uris": {"android": "https://dc.lft.to/lastmile_qr_scan", "ios": "https://dc.lft.to/lastmile_qr_scan"}, "lat": 38.91347833333333, "fusion_lon": 0.0, "fusion_lat": 0.0, "type": "electric_scooter", "bike_id": "82905b1d4a3bd9351fbb13bba7ea5b0a", "lon": -77.03182816666667, "is_reserved": 0, "is_disabled": 0, "name": "82905b1d4a3bd9351fbb13bba7ea5b0a"}, {"rental_uris": {"android": "https://dc.lft.to/lastmile_qr_scan", "ios": "https://dc.lft.to/lastmile_qr_scan"}, "lat": 38.92842616666667, "fusion_lon": 0.0, "fusion_lat": 0.0, "type": "electric_scooter", "bike_id": "681d17c509a28cc7b909d6a8c38dfdfc", "lon": -77.03272566666666, "is_reserved": 0, "is_disabled": 0, "name": "681d17c509a28cc7b909d6a8c38dfdfc"}, {"rental_uris": {"android": "https://dc.lft.to/lastmile_qr_scan", "ios": "https://dc.lft.to/lastmile_qr_scan"}, "lat": 38.884828666666664, "fusion_lon": 0.0, "fusion_lat": 0.0, "type": "electric_scooter", "bike_id": "a9c90f0d21f4686e9449b4dfe583f469", "lon": -77.033471, "is_reserved": 0, "is_disabled": 0, "name": "a9c90f0d21f4686e9449b4dfe583f469"}, {"rental_uris": {"android": "https://dc.lft.to/lastmile_qr_scan", "ios": "https://dc.lft.to/lastmile_qr_scan"}, "lat": 38.90192016666666, "fusion_lon": 0.0, "fusion_lat": 0.0, "type": "electric_scooter", "bike_id": "f2db396cb7a6cf0e6d6105b04796964b", "lon": -77.00210866666667, "is_reserved": 0, "is_disabled": 0, "name": "f2db396cb7a6cf0e6d6105b04796964b"}, {"rental_uris": {"android": "https://dc.lft.to/lastmile_qr_scan", "ios": "https://dc.lft.to/lastmile_qr_scan"}, "lat": 38.900909666666664, "fusion_lon": 0.0, "fusion_lat": 0.0, "type": "electric_scooter", "bike_id": "a4303319119acb5f49ffe1ec2c044602", "lon": -77.0161445, "is_reserved": 0, "is_disabled": 0, "name": "a4303319119acb5f49ffe1ec2c044602"}, {"rental_uris": {"android": "https://dc.lft.to/lastmile_qr_scan", "ios": "https://dc.lft.to/lastmile_qr_scan"}, "lat": 38.9013475, "fusion_lon": 0.0, "fusion_lat": 0.0, "type": "electric_scooter", "bike_id": "b68e66ac834baf809662508d32f7c874", "lon": -77.043829, "is_reserved": 0, "is_disabled": 0, "name": "b68e66ac834baf809662508d32f7c874"}, {"rental_uris": {"android": "https://dc.lft.to/lastmile_qr_scan", "ios": "https://dc.lft.to/lastmile_qr_scan"}, "lat": 38.899316, "fusion_lon": 0.0, "fusion_lat": 0.0, "type": "electric_scooter", "bike_id": "11556366b5af7d2b91c35dc1617cbd1b", "lon": -77.03920466666666, "is_reserved": 0, "is_disabled": 0, "name": "11556366b5af7d2b91c35dc1617cbd1b"}, {"rental_uris": {"android": "https://dc.lft.to/lastmile_qr_scan", "ios": "https://dc.lft.to/lastmile_qr_scan"}, "lat": 38.90046866666667, "fusion_lon": 0.0, "fusion_lat": 0.0, "type": "electric_scooter", "bike_id": "0cd9da66a30e24894bb6a01cc65a8ee4", "lon": -77.04742416666667, "is_reserved": 0, "is_disabled": 0, "name": "0cd9da66a30e24894bb6a01cc65a8ee4"}, {"rental_uris": {"android": "https://dc.lft.to/lastmile_qr_scan", "ios": "https://dc.lft.to/lastmile_qr_scan"}, "lat": 38.92061483333333, "fusion_lon": 0.0, "fusion_lat": 0.0, "type": "electric_scooter", "bike_id": "3355100d3235df8297da5e759f5a5ac7", "lon": -77.02301183333333, "is_reserved": 0, "is_disabled": 0, "name": "3355100d3235df8297da5e759f5a5ac7"}, {"rental_uris": {"android": "https://dc.lft.to/lastmile_qr_scan", "ios": "https://dc.lft.to/lastmile_qr_scan"}, "lat": 38.9237005, "fusion_lon": 0.0, "fusion_lat": 0.0, "type": "electric_scooter", "bike_id": "31b0ecb48d5dd064df5b81fb7850640a", "lon": -77.05265983333334, "is_reserved": 0, "is_disabled": 0, "name": "31b0ecb48d5dd064df5b81fb7850640a"}, {"rental_uris": {"android": "https://dc.lft.to/lastmile_qr_scan", "ios": "https://dc.lft.to/lastmile_qr_scan"}, "lat": 38.914075833333335, "fusion_lon": 0.0, "fusion_lat": 0.0, "type": "electric_scooter", "bike_id": "b6a9bbd81702e186838176837e21236f", "lon": -77.01015666666666, "is_reserved": 0, "is_disabled": 0, "name": "b6a9bbd81702e186838176837e21236f"}, {"rental_uris": {"android": "https://dc.lft.to/lastmile_qr_scan", "ios": "https://dc.lft.to/lastmile_qr_scan"}, "lat": 38.90865016666667, "fusion_lon": 0.0, "fusion_lat": 0.0, "type": "electric_scooter", "bike_id": "37d4eda6c9d2399b7ad9c65ccc6ace0d", "lon": -77.0709265, "is_reserved": 0, "is_disabled": 0, "name": "37d4eda6c9d2399b7ad9c65ccc6ace0d"}, {"rental_uris": {"android": "https://dc.lft.to/lastmile_qr_scan", "ios": "https://dc.lft.to/lastmile_qr_scan"}, "lat": 38.9224255, "fusion_lon": 0.0, "fusion_lat": 0.0, "type": "electric_scooter", "bike_id": "a888a21ba25241016f4d8e10066ace18", "lon": -77.03665283333333, "is_reserved": 0, "is_disabled": 0, "name": "a888a21ba25241016f4d8e10066ace18"}, {"rental_uris": {"android": "https://dc.lft.to/lastmile_qr_scan", "ios": "https://dc.lft.to/lastmile_qr_scan"}, "lat": 38.899095, "fusion_lon": 0.0, "fusion_lat": 0.0, "type": "electric_scooter", "bike_id": "b9e9b175447f91d37780c31eec6b0e90", "lon": -76.93389533333334, "is_reserved": 0, "is_disabled": 0, "name": "b9e9b175447f91d37780c31eec6b0e90"}, {"rental_uris": {"android": "https://dc.lft.to/lastmile_qr_scan", "ios": "https://dc.lft.to/lastmile_qr_scan"}, "lat": 38.884294833333335, "fusion_lon": 0.0, "fusion_lat": 0.0, "type": "electric_scooter", "bike_id": "463759ff59900347d1c49857c1235d3a", "lon": -77.03044233333334, "is_reserved": 0, "is_disabled": 0, "name": "463759ff59900347d1c49857c1235d3a"}, {"rental_uris": {"android": "https://dc.lft.to/lastmile_qr_scan", "ios": "https://dc.lft.to/lastmile_qr_scan"}, "lat": 38.89735783333333, "fusion_lon": 0.0, "fusion_lat": 0.0, "type": "electric_scooter", "bike_id": "e23fac7865930a10308c6394fcb370b4", "lon": -77.04080833333333, "is_reserved": 0, "is_disabled": 0, "name": "e23fac7865930a10308c6394fcb370b4"}, {"rental_uris": {"android": "https://dc.lft.to/lastmile_qr_scan", "ios": "https://dc.lft.to/lastmile_qr_scan"}, "lat": 38.9233155, "fusion_lon": 0.0, "fusion_lat": 0.0, "type": "electric_scooter", "bike_id": "a56c7fbf2dd90edccb4783e9b86304ea", "lon": -77.0568215, "is_reserved": 0, "is_disabled": 0, "name": "a56c7fbf2dd90edccb4783e9b86304ea"}, {"rental_uris": {"android": "https://dc.lft.to/lastmile_qr_scan", "ios": "https://dc.lft.to/lastmile_qr_scan"}, "lat": 38.89852966666667, "fusion_lon": 0.0, "fusion_lat": 0.0, "type": "electric_scooter", "bike_id": "9ec8357f719bb03564956ed07817220e", "lon": -77.05402733333334, "is_reserved": 0, "is_disabled": 0, "name": "9ec8357f719bb03564956ed07817220e"}, {"rental_uris": {"android": "https://dc.lft.to/lastmile_qr_scan", "ios": "https://dc.lft.to/lastmile_qr_scan"}, "lat": 38.892845333333334, "fusion_lon": 0.0, "fusion_lat": 0.0, "type": "electric_scooter", "bike_id": "e13357ff3fd77aaf12406834f9d306bd", "lon": -77.02609566666666, "is_reserved": 0, "is_disabled": 0, "name": "e13357ff3fd77aaf12406834f9d306bd"}, {"rental_uris": {"android": "https://dc.lft.to/lastmile_qr_scan", "ios": "https://dc.lft.to/lastmile_qr_scan"}, "lat": 38.91724383333333, "fusion_lon": 0.0, "fusion_lat": 0.0, "type": "electric_scooter", "bike_id": "62b902c48570d960b255d54ae8dfb1f4", "lon": -77.041717, "is_reserved": 0, "is_disabled": 0, "name": "62b902c48570d960b255d54ae8dfb1f4"}, {"rental_uris": {"android": "https://dc.lft.to/lastmile_qr_scan", "ios": "https://dc.lft.to/lastmile_qr_scan"}, "lat": 38.921772833333335, "fusion_lon": 0.0, "fusion_lat": 0.0, "type": "electric_scooter", "bike_id": "63e6803dff4aeb9b174515a25bc7f471", "lon": -77.0412275, "is_reserved": 0, "is_disabled": 0, "name": "63e6803dff4aeb9b174515a25bc7f471"}, {"rental_uris": {"android": "https://dc.lft.to/lastmile_qr_scan", "ios": "https://dc.lft.to/lastmile_qr_scan"}, "lat": 38.896206, "fusion_lon": 0.0, "fusion_lat": 0.0, "type": "electric_scooter", "bike_id": "68660cc117b7a0bf671ff5f8f59300ca", "lon": -76.9856215, "is_reserved": 0, "is_disabled": 0, "name": "68660cc117b7a0bf671ff5f8f59300ca"}, {"rental_uris": {"android": "https://dc.lft.to/lastmile_qr_scan", "ios": "https://dc.lft.to/lastmile_qr_scan"}, "lat": 38.9165135, "fusion_lon": 0.0, "fusion_lat": 0.0, "type": "electric_scooter", "bike_id": "7529a7626d75b8e7fc4b2dc02de66f30", "lon": -77.04170916666666, "is_reserved": 0, "is_disabled": 0, "name": "7529a7626d75b8e7fc4b2dc02de66f30"}, {"rental_uris": {"android": "https://dc.lft.to/lastmile_qr_scan", "ios": "https://dc.lft.to/lastmile_qr_scan"}, "lat": 38.8963275, "fusion_lon": 0.0, "fusion_lat": 0.0, "type": "electric_scooter", "bike_id": "d399a974dbf74bcf7a3d512274230a82", "lon": -77.0118175, "is_reserved": 0, "is_disabled": 0, "name": "d399a974dbf74bcf7a3d512274230a82"}, {"rental_uris": {"android": "https://dc.lft.to/lastmile_qr_scan", "ios": "https://dc.lft.to/lastmile_qr_scan"}, "lat": 38.899675333333334, "fusion_lon": 0.0, "fusion_lat": 0.0, "type": "electric_scooter", "bike_id": "7ae21fce7ae10a8337793065102f813d", "lon": -77.0468015, "is_reserved": 0, "is_disabled": 0, "name": "7ae21fce7ae10a8337793065102f813d"}, {"rental_uris": {"android": "https://dc.lft.to/lastmile_qr_scan", "ios": "https://dc.lft.to/lastmile_qr_scan"}, "lat": 38.896666333333336, "fusion_lon": 0.0, "fusion_lat": 0.0, "type": "electric_scooter", "bike_id": "e19e069eefa5efd19ccf78f28e5f6986", "lon": -76.932083, "is_reserved": 0, "is_disabled": 0, "name": "e19e069eefa5efd19ccf78f28e5f6986"}, {"rental_uris": {"android": "https://dc.lft.to/lastmile_qr_scan", "ios": "https://dc.lft.to/lastmile_qr_scan"}, "lat": 38.98532616666667, "fusion_lon": 0.0, "fusion_lat": 0.0, "type": "electric_bike", "bike_id": "08a9f256d6258df8349bb3d81498eeed", "lon": -77.00413816666666, "is_reserved": 0, "is_disabled": 0, "name": "08a9f256d6258df8349bb3d81498eeed"}, {"rental_uris": {"android": "https://dc.lft.to/lastmile_qr_scan", "ios": "https://dc.lft.to/lastmile_qr_scan"}, "lat": 38.92419566666667, "fusion_lon": 0.0, "fusion_lat": 0.0, "type": "electric_scooter", "bike_id": "4d50e48ec35a34a45a25af9d19ca9546", "lon": -77.01945166666667, "is_reserved": 0, "is_disabled": 0, "name": "4d50e48ec35a34a45a25af9d19ca9546"}, {"rental_uris": {"android": "https://dc.lft.to/lastmile_qr_scan", "ios": "https://dc.lft.to/lastmile_qr_scan"}, "lat": 38.88664383333333, "fusion_lon": 0.0, "fusion_lat": 0.0, "type": "electric_bike", "bike_id": "9e0daa7a0ca2468f7780f332dc2c8d01", "lon": -76.9960375, "is_reserved": 0, "is_disabled": 0, "name": "9e0daa7a0ca2468f7780f332dc2c8d01"}, {"rental_uris": {"android": "https://dc.lft.to/lastmile_qr_scan", "ios": "https://dc.lft.to/lastmile_qr_scan"}, "lat": 38.901831333333334, "fusion_lon": 0.0, "fusion_lat": 0.0, "type": "electric_scooter", "bike_id": "e4f1d20f2c0768f89ea94fbbad51a64f", "lon": -76.93465433333333, "is_reserved": 0, "is_disabled": 0, "name": "e4f1d20f2c0768f89ea94fbbad51a64f"}, {"rental_uris": {"android": "https://dc.lft.to/lastmile_qr_scan", "ios": "https://dc.lft.to/lastmile_qr_scan"}, "lat": 38.906329666666664, "fusion_lon": 0.0, "fusion_lat": 0.0, "type": "electric_scooter", "bike_id": "6dc5c17965fd491f488a2ad43798c0bb", "lon": -77.051382, "is_reserved": 0, "is_disabled": 0, "name": "6dc5c17965fd491f488a2ad43798c0bb"}, {"rental_uris": {"android": "https://dc.lft.to/lastmile_qr_scan", "ios": "https://dc.lft.to/lastmile_qr_scan"}, "lat": 38.92315116666666, "fusion_lon": 0.0, "fusion_lat": 0.0, "type": "electric_bike", "bike_id": "b03d9f6daeb0bfbe4784eca99f1af104", "lon": -77.0444515, "is_reserved": 0, "is_disabled": 0, "name": "b03d9f6daeb0bfbe4784eca99f1af104"}, {"rental_uris": {"android": "https://dc.lft.to/lastmile_qr_scan", "ios": "https://dc.lft.to/lastmile_qr_scan"}, "lat": 38.915423833333335, "fusion_lon": 0.0, "fusion_lat": 0.0, "type": "electric_scooter", "bike_id": "c4107097e7ead94189b8de6775be051f", "lon": -77.0445585, "is_reserved": 0, "is_disabled": 0, "name": "c4107097e7ead94189b8de6775be051f"}, {"rental_uris": {"android": "https://dc.lft.to/lastmile_qr_scan", "ios": "https://dc.lft.to/lastmile_qr_scan"}, "lat": 38.8887745, "fusion_lon": 0.0, "fusion_lat": 0.0, "type": "electric_bike", "bike_id": "0be9e625700fc71f553d3c1ea7db77c8", "lon": -76.95695883333333, "is_reserved": 0, "is_disabled": 0, "name": "0be9e625700fc71f553d3c1ea7db77c8"}, {"rental_uris": {"android": "https://dc.lft.to/lastmile_qr_scan", "ios": "https://dc.lft.to/lastmile_qr_scan"}, "lat": 38.91673766666667, "fusion_lon": 0.0, "fusion_lat": 0.0, "type": "electric_scooter", "bike_id": "ae1aa879a9e825e194a9b250873196cf", "lon": -77.03220866666666, "is_reserved": 0, "is_disabled": 0, "name": "ae1aa879a9e825e194a9b250873196cf"}, {"rental_uris": {"android": "https://dc.lft.to/lastmile_qr_scan", "ios": "https://dc.lft.to/lastmile_qr_scan"}, "lat": 38.92558533333333, "fusion_lon": 0.0, "fusion_lat": 0.0, "type": "electric_scooter", "bike_id": "80cad7eab49613d4cda97b168988b3e7", "lon": -77.05293566666667, "is_reserved": 0, "is_disabled": 0, "name": "80cad7eab49613d4cda97b168988b3e7"}, {"rental_uris": {"android": "https://dc.lft.to/lastmile_qr_scan", "ios": "https://dc.lft.to/lastmile_qr_scan"}, "lat": 38.900805, "fusion_lon": 0.0, "fusion_lat": 0.0, "type": "electric_scooter", "bike_id": "f5b1fa0026d788c7abbc09649fb85003", "lon": -77.05018266666667, "is_reserved": 0, "is_disabled": 0, "name": "f5b1fa0026d788c7abbc09649fb85003"}, {"rental_uris": {"android": "https://dc.lft.to/lastmile_qr_scan", "ios": "https://dc.lft.to/lastmile_qr_scan"}, "lat": 38.9047445, "fusion_lon": 0.0, "fusion_lat": 0.0, "type": "electric_scooter", "bike_id": "7f72ee92ec27a6e4d5de3873844145cb", "lon": -77.02594483333333, "is_reserved": 0, "is_disabled": 0, "name": "7f72ee92ec27a6e4d5de3873844145cb"}, {"rental_uris": {"android": "https://dc.lft.to/lastmile_qr_scan", "ios": "https://dc.lft.to/lastmile_qr_scan"}, "lat": 38.87840683333334, "fusion_lon": 0.0, "fusion_lat": 0.0, "type": "electric_scooter", "bike_id": "601503ce66497e8133b0c170830420d0", "lon": -77.02279916666667, "is_reserved": 0, "is_disabled": 0, "name": "601503ce66497e8133b0c170830420d0"}, {"rental_uris": {"android": "https://dc.lft.to/lastmile_qr_scan", "ios": "https://dc.lft.to/lastmile_qr_scan"}, "lat": 38.90475466666667, "fusion_lon": 0.0, "fusion_lat": 0.0, "type": "electric_scooter", "bike_id": "b6977dca8f02b9de3efd26e6f2de8f9d", "lon": -77.0486025, "is_reserved": 0, "is_disabled": 0, "name": "b6977dca8f02b9de3efd26e6f2de8f9d"}, {"rental_uris": {"android": "https://dc.lft.to/lastmile_qr_scan", "ios": "https://dc.lft.to/lastmile_qr_scan"}, "lat": 38.924699, "fusion_lon": 0.0, "fusion_lat": 0.0, "type": "electric_scooter", "bike_id": "bd9cbb3135087f73ac465523d2f5d0a4", "lon": -77.02213166666667, "is_reserved": 0, "is_disabled": 0, "name": "bd9cbb3135087f73ac465523d2f5d0a4"}, {"rental_uris": {"android": "https://dc.lft.to/lastmile_qr_scan", "ios": "https://dc.lft.to/lastmile_qr_scan"}, "lat": 38.93448216666667, "fusion_lon": 0.0, "fusion_lat": 0.0, "type": "electric_scooter", "bike_id": "b32a0b9880493442d98a13a65069fe8f", "lon": -77.03272316666667, "is_reserved": 0, "is_disabled": 0, "name": "b32a0b9880493442d98a13a65069fe8f"}, {"rental_uris": {"android": "https://dc.lft.to/lastmile_qr_scan", "ios": "https://dc.lft.to/lastmile_qr_scan"}, "lat": 38.909578833333335, "fusion_lon": 0.0, "fusion_lat": 0.0, "type": "electric_scooter", "bike_id": "36e48c92b174ae55888d7c539ed670dd", "lon": -77.00760383333333, "is_reserved": 0, "is_disabled": 0, "name": "36e48c92b174ae55888d7c539ed670dd"}, {"rental_uris": {"android": "https://dc.lft.to/lastmile_qr_scan", "ios": "https://dc.lft.to/lastmile_qr_scan"}, "lat": 38.8154825, "fusion_lon": 0.0, "fusion_lat": 0.0, "type": "electric_bike", "bike_id": "7331c096672a3ec877286f9eef264b2d", "lon": -77.0464105, "is_reserved": 0, "is_disabled": 0, "name": "7331c096672a3ec877286f9eef264b2d"}, {"rental_uris": {"android": "https://dc.lft.to/lastmile_qr_scan", "ios": "https://dc.lft.to/lastmile_qr_scan"}, "lat": 38.929058, "fusion_lon": 0.0, "fusion_lat": 0.0, "type": "electric_scooter", "bike_id": "89e302b6323ba27db65d733c89fb3c81", "lon": -77.05804633333334, "is_reserved": 0, "is_disabled": 0, "name": "89e302b6323ba27db65d733c89fb3c81"}, {"rental_uris": {"android": "https://dc.lft.to/lastmile_qr_scan", "ios": "https://dc.lft.to/lastmile_qr_scan"}, "lat": 38.900113833333336, "fusion_lon": 0.0, "fusion_lat": 0.0, "type": "electric_scooter", "bike_id": "816c15e220f405c7824ad452de27226b", "lon": -77.00186533333333, "is_reserved": 0, "is_disabled": 0, "name": "816c15e220f405c7824ad452de27226b"}, {"rental_uris": {"android": "https://dc.lft.to/lastmile_qr_scan", "ios": "https://dc.lft.to/lastmile_qr_scan"}, "lat": 38.9234345, "fusion_lon": 0.0, "fusion_lat": 0.0, "type": "electric_scooter", "bike_id": "bec01f9971d833749c308ce37951cb5a", "lon": -77.0189285, "is_reserved": 0, "is_disabled": 0, "name": "bec01f9971d833749c308ce37951cb5a"}, {"rental_uris": {"android": "https://dc.lft.to/lastmile_qr_scan", "ios": "https://dc.lft.to/lastmile_qr_scan"}, "lat": 38.901476, "fusion_lon": 0.0, "fusion_lat": 0.0, "type": "electric_scooter", "bike_id": "84ad4fa446f1d025eb7d91ada9dfcf05", "lon": -77.05007916666666, "is_reserved": 0, "is_disabled": 0, "name": "84ad4fa446f1d025eb7d91ada9dfcf05"}, {"rental_uris": {"android": "https://dc.lft.to/lastmile_qr_scan", "ios": "https://dc.lft.to/lastmile_qr_scan"}, "lat": 38.892298333333336, "fusion_lon": 0.0, "fusion_lat": 0.0, "type": "electric_scooter", "bike_id": "fcecafbee54227347ce94c57d06dbbc7", "lon": -77.03191016666666, "is_reserved": 0, "is_disabled": 0, "name": "fcecafbee54227347ce94c57d06dbbc7"}, {"rental_uris": {"android": "https://dc.lft.to/lastmile_qr_scan", "ios": "https://dc.lft.to/lastmile_qr_scan"}, "lat": 38.869432333333336, "fusion_lon": 0.0, "fusion_lat": 0.0, "type": "electric_scooter", "bike_id": "8531e79d60ac8302aa9564fcef1a8393", "lon": -76.97079483333333, "is_reserved": 0, "is_disabled": 0, "name": "8531e79d60ac8302aa9564fcef1a8393"}, {"rental_uris": {"android": "https://dc.lft.to/lastmile_qr_scan", "ios": "https://dc.lft.to/lastmile_qr_scan"}, "lat": 38.90161166666667, "fusion_lon": 0.0, "fusion_lat": 0.0, "type": "electric_scooter", "bike_id": "b1b1cc236fbd8a980a9d45e5bc5ee3db", "lon": -77.02701366666666, "is_reserved": 0, "is_disabled": 0, "name": "b1b1cc236fbd8a980a9d45e5bc5ee3db"}, {"rental_uris": {"android": "https://dc.lft.to/lastmile_qr_scan", "ios": "https://dc.lft.to/lastmile_qr_scan"}, "lat": 38.89544466666667, "fusion_lon": 0.0, "fusion_lat": 0.0, "type": "electric_scooter", "bike_id": "b8f43e2d725f492af6813ba45c9cd2b6", "lon": -76.98333733333334, "is_reserved": 0, "is_disabled": 0, "name": "b8f43e2d725f492af6813ba45c9cd2b6"}, {"rental_uris": {"android": "https://dc.lft.to/lastmile_qr_scan", "ios": "https://dc.lft.to/lastmile_qr_scan"}, "lat": 38.898077666666666, "fusion_lon": 0.0, "fusion_lat": 0.0, "type": "electric_scooter", "bike_id": "eb4a2e9467c019115e925f32be9d9740", "lon": -76.9792715, "is_reserved": 0, "is_disabled": 0, "name": "eb4a2e9467c019115e925f32be9d9740"}, {"rental_uris": {"android": "https://dc.lft.to/lastmile_qr_scan", "ios": "https://dc.lft.to/lastmile_qr_scan"}, "lat": 38.90587633333333, "fusion_lon": 0.0, "fusion_lat": 0.0, "type": "electric_scooter", "bike_id": "568abbbb346881a122f0a526a2ab411e", "lon": -77.00611283333333, "is_reserved": 0, "is_disabled": 0, "name": "568abbbb346881a122f0a526a2ab411e"}, {"rental_uris": {"android": "https://dc.lft.to/lastmile_qr_scan", "ios": "https://dc.lft.to/lastmile_qr_scan"}, "lat": 38.934044666666665, "fusion_lon": 0.0, "fusion_lat": 0.0, "type": "electric_scooter", "bike_id": "7d89504bbf4a359d32c8773dd8465315", "lon": -77.0413705, "is_reserved": 0, "is_disabled": 0, "name": "7d89504bbf4a359d32c8773dd8465315"}, {"rental_uris": {"android": "https://dc.lft.to/lastmile_qr_scan", "ios": "https://dc.lft.to/lastmile_qr_scan"}, "lat": 38.920224166666664, "fusion_lon": 0.0, "fusion_lat": 0.0, "type": "electric_scooter", "bike_id": "3f38b792ac965060aef3994328eeda71", "lon": -77.031201, "is_reserved": 0, "is_disabled": 0, "name": "3f38b792ac965060aef3994328eeda71"}, {"rental_uris": {"android": "https://dc.lft.to/lastmile_qr_scan", "ios": "https://dc.lft.to/lastmile_qr_scan"}, "lat": 38.95541866666667, "fusion_lon": 0.0, "fusion_lat": 0.0, "type": "electric_bike", "bike_id": "ab34b2773c2f17c05429613c37eea457", "lon": -76.96854633333334, "is_reserved": 0, "is_disabled": 0, "name": "ab34b2773c2f17c05429613c37eea457"}, {"rental_uris": {"android": "https://dc.lft.to/lastmile_qr_scan", "ios": "https://dc.lft.to/lastmile_qr_scan"}, "lat": 38.915145, "fusion_lon": 0.0, "fusion_lat": 0.0, "type": "electric_scooter", "bike_id": "8e304a32a13761a8239b7eb197e3e323", "lon": -77.02176516666667, "is_reserved": 0, "is_disabled": 0, "name": "8e304a32a13761a8239b7eb197e3e323"}, {"rental_uris": {"android": "https://dc.lft.to/lastmile_qr_scan", "ios": "https://dc.lft.to/lastmile_qr_scan"}, "lat": 38.92240433333333, "fusion_lon": 0.0, "fusion_lat": 0.0, "type": "electric_scooter", "bike_id": "ae423da5e0be4e771c55e18ad58f7cbb", "lon": -77.03907766666667, "is_reserved": 0, "is_disabled": 0, "name": "ae423da5e0be4e771c55e18ad58f7cbb"}, {"rental_uris": {"android": "https://dc.lft.to/lastmile_qr_scan", "ios": "https://dc.lft.to/lastmile_qr_scan"}, "lat": 38.838625, "fusion_lon": 0.0, "fusion_lat": 0.0, "type": "electric_bike", "bike_id": "40308283313c5a6e455e98ae7f4d62f8", "lon": -76.997015, "is_reserved": 0, "is_disabled": 0, "name": "40308283313c5a6e455e98ae7f4d62f8"}, {"rental_uris": {"android": "https://dc.lft.to/lastmile_qr_scan", "ios": "https://dc.lft.to/lastmile_qr_scan"}, "lat": 38.90193033333333, "fusion_lon": 0.0, "fusion_lat": 0.0, "type": "electric_scooter", "bike_id": "b7a8613201016dcc1919427ee04e106a", "lon": -77.050738, "is_reserved": 0, "is_disabled": 0, "name": "b7a8613201016dcc1919427ee04e106a"}, {"rental_uris": {"android": "https://dc.lft.to/lastmile_qr_scan", "ios": "https://dc.lft.to/lastmile_qr_scan"}, "lat": 38.924289333333334, "fusion_lon": 0.0, "fusion_lat": 0.0, "type": "electric_scooter", "bike_id": "9cdeb1a1de3e64c3fb0468dac943f6ea", "lon": -77.02248683333333, "is_reserved": 0, "is_disabled": 0, "name": "9cdeb1a1de3e64c3fb0468dac943f6ea"}, {"rental_uris": {"android": "https://dc.lft.to/lastmile_qr_scan", "ios": "https://dc.lft.to/lastmile_qr_scan"}, "lat": 38.89555133333333, "fusion_lon": 0.0, "fusion_lat": 0.0, "type": "electric_scooter", "bike_id": "c1aa8917b0cabb569532517746d1ca3d", "lon": -77.04673433333333, "is_reserved": 0, "is_disabled": 0, "name": "c1aa8917b0cabb569532517746d1ca3d"}, {"rental_uris": {"android": "https://dc.lft.to/lastmile_qr_scan", "ios": "https://dc.lft.to/lastmile_qr_scan"}, "lat": 38.920457166666665, "fusion_lon": 0.0, "fusion_lat": 0.0, "type": "electric_scooter", "bike_id": "95644b007dda7e68b844d2e572ce869a", "lon": -77.01760783333333, "is_reserved": 0, "is_disabled": 0, "name": "95644b007dda7e68b844d2e572ce869a"}, {"rental_uris": {"android": "https://dc.lft.to/lastmile_qr_scan", "ios": "https://dc.lft.to/lastmile_qr_scan"}, "lat": 38.85833566666667, "fusion_lon": 0.0, "fusion_lat": 0.0, "type": "electric_bike", "bike_id": "2b55b2941e1108ad9f280f04ad24204c", "lon": -77.11474766666667, "is_reserved": 0, "is_disabled": 0, "name": "2b55b2941e1108ad9f280f04ad24204c"}, {"rental_uris": {"android": "https://dc.lft.to/lastmile_qr_scan", "ios": "https://dc.lft.to/lastmile_qr_scan"}, "lat": 38.90302366666667, "fusion_lon": 0.0, "fusion_lat": 0.0, "type": "electric_scooter", "bike_id": "110f4d57c3a6ad1016318b5e7769b40c", "lon": -77.030598, "is_reserved": 0, "is_disabled": 0, "name": "110f4d57c3a6ad1016318b5e7769b40c"}, {"rental_uris": {"android": "https://dc.lft.to/lastmile_qr_scan", "ios": "https://dc.lft.to/lastmile_qr_scan"}, "lat": 38.92292233333333, "fusion_lon": 0.0, "fusion_lat": 0.0, "type": "electric_scooter", "bike_id": "8283dda5095ae7c22111f83600c9407d", "lon": -77.04273016666667, "is_reserved": 0, "is_disabled": 0, "name": "8283dda5095ae7c22111f83600c9407d"}, {"rental_uris": {"android": "https://dc.lft.to/lastmile_qr_scan", "ios": "https://dc.lft.to/lastmile_qr_scan"}, "lat": 38.94591966666667, "fusion_lon": 0.0, "fusion_lat": 0.0, "type": "electric_bike", "bike_id": "ed570350550c9c7a635d451232dd10c5", "lon": -77.02031, "is_reserved": 0, "is_disabled": 0, "name": "ed570350550c9c7a635d451232dd10c5"}, {"rental_uris": {"android": "https://dc.lft.to/lastmile_qr_scan", "ios": "https://dc.lft.to/lastmile_qr_scan"}, "lat": 38.8874965, "fusion_lon": 0.0, "fusion_lat": 0.0, "type": "electric_scooter", "bike_id": "98955874386395fa034f86deb64b8297", "lon": -77.01707116666667, "is_reserved": 0, "is_disabled": 0, "name": "98955874386395fa034f86deb64b8297"}, {"rental_uris": {"android": "https://dc.lft.to/lastmile_qr_scan", "ios": "https://dc.lft.to/lastmile_qr_scan"}, "lat": 38.916259, "fusion_lon": 0.0, "fusion_lat": 0.0, "type": "electric_scooter", "bike_id": "6e7b87017edf4437030092c18ba2c2b6", "lon": -77.02205, "is_reserved": 0, "is_disabled": 0, "name": "6e7b87017edf4437030092c18ba2c2b6"}, {"rental_uris": {"android": "https://dc.lft.to/lastmile_qr_scan", "ios": "https://dc.lft.to/lastmile_qr_scan"}, "lat": 38.904326833333336, "fusion_lon": 0.0, "fusion_lat": 0.0, "type": "electric_scooter", "bike_id": "977034eb67e8183a13b04e54a3c22849", "lon": -77.02841933333333, "is_reserved": 0, "is_disabled": 0, "name": "977034eb67e8183a13b04e54a3c22849"}, {"rental_uris": {"android": "https://dc.lft.to/lastmile_qr_scan", "ios": "https://dc.lft.to/lastmile_qr_scan"}, "lat": 38.905718, "fusion_lon": 0.0, "fusion_lat": 0.0, "type": "electric_scooter", "bike_id": "3d7e9ec3b112d81d704abc0af8a7e013", "lon": -77.04486466666667, "is_reserved": 0, "is_disabled": 0, "name": "3d7e9ec3b112d81d704abc0af8a7e013"}, {"rental_uris": {"android": "https://dc.lft.to/lastmile_qr_scan", "ios": "https://dc.lft.to/lastmile_qr_scan"}, "lat": 38.90593633333334, "fusion_lon": 0.0, "fusion_lat": 0.0, "type": "electric_scooter", "bike_id": "8c4563db727bf90ab10c1ddeb650d74d", "lon": -77.06272416666667, "is_reserved": 0, "is_disabled": 0, "name": "8c4563db727bf90ab10c1ddeb650d74d"}, {"rental_uris": {"android": "https://dc.lft.to/lastmile_qr_scan", "ios": "https://dc.lft.to/lastmile_qr_scan"}, "lat": 38.8770435, "fusion_lon": 0.0, "fusion_lat": 0.0, "type": "electric_scooter", "bike_id": "6444608c6c68a31ce16a527691c128b4", "lon": -77.006688, "is_reserved": 0, "is_disabled": 0, "name": "6444608c6c68a31ce16a527691c128b4"}, {"rental_uris": {"android": "https://dc.lft.to/lastmile_qr_scan", "ios": "https://dc.lft.to/lastmile_qr_scan"}, "lat": 38.904343, "fusion_lon": 0.0, "fusion_lat": 0.0, "type": "electric_scooter", "bike_id": "36ad500e64e4864a5d64c0ef933cc302", "lon": -77.0467585, "is_reserved": 0, "is_disabled": 0, "name": "36ad500e64e4864a5d64c0ef933cc302"}, {"rental_uris": {"android": "https://dc.lft.to/lastmile_qr_scan", "ios": "https://dc.lft.to/lastmile_qr_scan"}, "lat": 38.9206095, "fusion_lon": 0.0, "fusion_lat": 0.0, "type": "electric_scooter", "bike_id": "0e22966666d6c9cb9f4c0a565832e75d", "lon": -77.02543833333333, "is_reserved": 0, "is_disabled": 0, "name": "0e22966666d6c9cb9f4c0a565832e75d"}, {"rental_uris": {"android": "https://dc.lft.to/lastmile_qr_scan", "ios": "https://dc.lft.to/lastmile_qr_scan"}, "lat": 38.89286766666667, "fusion_lon": 0.0, "fusion_lat": 0.0, "type": "electric_scooter", "bike_id": "fdfcea2531753e3722656d25a22f2e6f", "lon": -77.019806, "is_reserved": 0, "is_disabled": 0, "name": "fdfcea2531753e3722656d25a22f2e6f"}, {"rental_uris": {"android": "https://dc.lft.to/lastmile_qr_scan", "ios": "https://dc.lft.to/lastmile_qr_scan"}, "lat": 38.918093999999996, "fusion_lon": 0.0, "fusion_lat": 0.0, "type": "electric_scooter", "bike_id": "9626c3638c7b3b9dc3307a84856f2188", "lon": -76.99964566666667, "is_reserved": 0, "is_disabled": 0, "name": "9626c3638c7b3b9dc3307a84856f2188"}, {"rental_uris": {"android": "https://dc.lft.to/lastmile_qr_scan", "ios": "https://dc.lft.to/lastmile_qr_scan"}, "lat": 38.898414833333334, "fusion_lon": 0.0, "fusion_lat": 0.0, "type": "electric_scooter", "bike_id": "bf37c41856f61090851066690f08c397", "lon": -77.04234116666667, "is_reserved": 0, "is_disabled": 0, "name": "bf37c41856f61090851066690f08c397"}, {"rental_uris": {"android": "https://dc.lft.to/lastmile_qr_scan", "ios": "https://dc.lft.to/lastmile_qr_scan"}, "lat": 38.88605166666667, "fusion_lon": 0.0, "fusion_lat": 0.0, "type": "electric_scooter", "bike_id": "97d5762efe3cefdab4f590dde453a075", "lon": -77.03106133333333, "is_reserved": 0, "is_disabled": 0, "name": "97d5762efe3cefdab4f590dde453a075"}, {"rental_uris": {"android": "https://dc.lft.to/lastmile_qr_scan", "ios": "https://dc.lft.to/lastmile_qr_scan"}, "lat": 38.865087333333335, "fusion_lon": 0.0, "fusion_lat": 0.0, "type": "electric_scooter", "bike_id": "de91424d4a6b2ad85138ca566d064da9", "lon": -76.97337466666667, "is_reserved": 0, "is_disabled": 0, "name": "de91424d4a6b2ad85138ca566d064da9"}, {"rental_uris": {"android": "https://dc.lft.to/lastmile_qr_scan", "ios": "https://dc.lft.to/lastmile_qr_scan"}, "lat": 38.91469083333333, "fusion_lon": 0.0, "fusion_lat": 0.0, "type": "electric_scooter", "bike_id": "a67ff1d1e5034686c8cd5e048fc05c79", "lon": -77.002061, "is_reserved": 0, "is_disabled": 0, "name": "a67ff1d1e5034686c8cd5e048fc05c79"}, {"rental_uris": {"android": "https://dc.lft.to/lastmile_qr_scan", "ios": "https://dc.lft.to/lastmile_qr_scan"}, "lat": 38.910379, "fusion_lon": 0.0, "fusion_lat": 0.0, "type": "electric_scooter", "bike_id": "29d559ebc7113fa2cc21027a7a32dcaf", "lon": -76.99740283333334, "is_reserved": 0, "is_disabled": 0, "name": "29d559ebc7113fa2cc21027a7a32dcaf"}, {"rental_uris": {"android": "https://dc.lft.to/lastmile_qr_scan", "ios": "https://dc.lft.to/lastmile_qr_scan"}, "lat": 38.899622666666666, "fusion_lon": 0.0, "fusion_lat": 0.0, "type": "electric_scooter", "bike_id": "52ee9a246ca9ae1125c13b05ab29088c", "lon": -77.0434585, "is_reserved": 0, "is_disabled": 0, "name": "52ee9a246ca9ae1125c13b05ab29088c"}, {"rental_uris": {"android": "https://dc.lft.to/lastmile_qr_scan", "ios": "https://dc.lft.to/lastmile_qr_scan"}, "lat": 38.90249716666667, "fusion_lon": 0.0, "fusion_lat": 0.0, "type": "electric_scooter", "bike_id": "1c61e39fde1063c1cecbeee6493cc4b2", "lon": -77.02482333333333, "is_reserved": 0, "is_disabled": 0, "name": "1c61e39fde1063c1cecbeee6493cc4b2"}, {"rental_uris": {"android": "https://dc.lft.to/lastmile_qr_scan", "ios": "https://dc.lft.to/lastmile_qr_scan"}, "lat": 38.91918583333333, "fusion_lon": 0.0, "fusion_lat": 0.0, "type": "electric_scooter", "bike_id": "36e240a3506064771d2a978f79a027ce", "lon": -77.03367866666666, "is_reserved": 0, "is_disabled": 0, "name": "36e240a3506064771d2a978f79a027ce"}, {"rental_uris": {"android": "https://dc.lft.to/lastmile_qr_scan", "ios": "https://dc.lft.to/lastmile_qr_scan"}, "lat": 38.898509, "fusion_lon": 0.0, "fusion_lat": 0.0, "type": "electric_scooter", "bike_id": "1c40ebb0436790647fc4e3056d221bf6", "lon": -76.93197766666667, "is_reserved": 0, "is_disabled": 0, "name": "1c40ebb0436790647fc4e3056d221bf6"}, {"rental_uris": {"android": "https://dc.lft.to/lastmile_qr_scan", "ios": "https://dc.lft.to/lastmile_qr_scan"}, "lat": 38.90586716666667, "fusion_lon": 0.0, "fusion_lat": 0.0, "type": "electric_scooter", "bike_id": "ad76fdae672004abc802282a77c43884", "lon": -76.98622116666667, "is_reserved": 0, "is_disabled": 0, "name": "ad76fdae672004abc802282a77c43884"}, {"rental_uris": {"android": "https://dc.lft.to/lastmile_qr_scan", "ios": "https://dc.lft.to/lastmile_qr_scan"}, "lat": 38.98521216666666, "fusion_lon": 0.0, "fusion_lat": 0.0, "type": "electric_scooter", "bike_id": "d4e0ed6348764070e7c256542f565979", "lon": -77.0542005, "is_reserved": 0, "is_disabled": 0, "name": "d4e0ed6348764070e7c256542f565979"}, {"rental_uris": {"android": "https://dc.lft.to/lastmile_qr_scan", "ios": "https://dc.lft.to/lastmile_qr_scan"}, "lat": 38.942993, "fusion_lon": 0.0, "fusion_lat": 0.0, "type": "electric_scooter", "bike_id": "d7a6f8a832a2836b667d1c06fdd1a4b7", "lon": -77.059344, "is_reserved": 0, "is_disabled": 0, "name": "d7a6f8a832a2836b667d1c06fdd1a4b7"}, {"rental_uris": {"android": "https://dc.lft.to/lastmile_qr_scan", "ios": "https://dc.lft.to/lastmile_qr_scan"}, "lat": 38.91802366666667, "fusion_lon": 0.0, "fusion_lat": 0.0, "type": "electric_scooter", "bike_id": "f1734f2475ad3ad0f329300eafbef146", "lon": -77.06824433333334, "is_reserved": 0, "is_disabled": 0, "name": "f1734f2475ad3ad0f329300eafbef146"}, {"rental_uris": {"android": "https://dc.lft.to/lastmile_qr_scan", "ios": "https://dc.lft.to/lastmile_qr_scan"}, "lat": 38.89001316666667, "fusion_lon": 0.0, "fusion_lat": 0.0, "type": "electric_scooter", "bike_id": "479eeda0de844c03c96de7472651c138", "lon": -77.02554416666666, "is_reserved": 0, "is_disabled": 0, "name": "479eeda0de844c03c96de7472651c138"}, {"rental_uris": {"android": "https://dc.lft.to/lastmile_qr_scan", "ios": "https://dc.lft.to/lastmile_qr_scan"}, "lat": 38.89969383333333, "fusion_lon": 0.0, "fusion_lat": 0.0, "type": "electric_scooter", "bike_id": "0a52b6213bb488fbb7b1868c23a8398f", "lon": -77.020104, "is_reserved": 0, "is_disabled": 0, "name": "0a52b6213bb488fbb7b1868c23a8398f"}, {"rental_uris": {"android": "https://dc.lft.to/lastmile_qr_scan", "ios": "https://dc.lft.to/lastmile_qr_scan"}, "lat": 38.8651485, "fusion_lon": 0.0, "fusion_lat": 0.0, "type": "electric_scooter", "bike_id": "2d1e426dd9edfd36bbbb45f33f448205", "lon": -76.99015133333333, "is_reserved": 0, "is_disabled": 0, "name": "2d1e426dd9edfd36bbbb45f33f448205"}, {"rental_uris": {"android": "https://dc.lft.to/lastmile_qr_scan", "ios": "https://dc.lft.to/lastmile_qr_scan"}, "lat": 38.91683333333334, "fusion_lon": 0.0, "fusion_lat": 0.0, "type": "electric_scooter", "bike_id": "c6a56d860cacadbb6ce85e97ce67df7f", "lon": -77.02970833333333, "is_reserved": 0, "is_disabled": 0, "name": "c6a56d860cacadbb6ce85e97ce67df7f"}, {"rental_uris": {"android": "https://dc.lft.to/lastmile_qr_scan", "ios": "https://dc.lft.to/lastmile_qr_scan"}, "lat": 38.93222183333334, "fusion_lon": 0.0, "fusion_lat": 0.0, "type": "electric_scooter", "bike_id": "33ef2ee16c51bbeb019f84a0c30b618b", "lon": -77.04121483333333, "is_reserved": 0, "is_disabled": 0, "name": "33ef2ee16c51bbeb019f84a0c30b618b"}, {"rental_uris": {"android": "https://dc.lft.to/lastmile_qr_scan", "ios": "https://dc.lft.to/lastmile_qr_scan"}, "lat": 38.89967633333333, "fusion_lon": 0.0, "fusion_lat": 0.0, "type": "electric_scooter", "bike_id": "41dcfce266f6fd6af5c99d4e2fb227b3", "lon": -77.02973683333333, "is_reserved": 0, "is_disabled": 0, "name": "41dcfce266f6fd6af5c99d4e2fb227b3"}, {"rental_uris": {"android": "https://dc.lft.to/lastmile_qr_scan", "ios": "https://dc.lft.to/lastmile_qr_scan"}, "lat": 38.898475166666664, "fusion_lon": 0.0, "fusion_lat": 0.0, "type": "electric_scooter", "bike_id": "1ccd8e2995cb808b1097494de2c792b3", "lon": -77.01376466666666, "is_reserved": 0, "is_disabled": 0, "name": "1ccd8e2995cb808b1097494de2c792b3"}, {"rental_uris": {"android": "https://dc.lft.to/lastmile_qr_scan", "ios": "https://dc.lft.to/lastmile_qr_scan"}, "lat": 38.92119733333333, "fusion_lon": 0.0, "fusion_lat": 0.0, "type": "electric_scooter", "bike_id": "ac2e7646d4032b46738082f4474e974f", "lon": -77.04129316666666, "is_reserved": 0, "is_disabled": 0, "name": "ac2e7646d4032b46738082f4474e974f"}, {"rental_uris": {"android": "https://dc.lft.to/lastmile_qr_scan", "ios": "https://dc.lft.to/lastmile_qr_scan"}, "lat": 38.890162833333335, "fusion_lon": 0.0, "fusion_lat": 0.0, "type": "electric_scooter", "bike_id": "198e5c7d503c99cf3caac09183e54157", "lon": -76.937326, "is_reserved": 0, "is_disabled": 0, "name": "198e5c7d503c99cf3caac09183e54157"}, {"rental_uris": {"android": "https://dc.lft.to/lastmile_qr_scan", "ios": "https://dc.lft.to/lastmile_qr_scan"}, "lat": 38.9358545, "fusion_lon": 0.0, "fusion_lat": 0.0, "type": "electric_scooter", "bike_id": "0d9c1b250b0eb37bce35fe3bfad427ef", "lon": -77.07430483333333, "is_reserved": 0, "is_disabled": 0, "name": "0d9c1b250b0eb37bce35fe3bfad427ef"}, {"rental_uris": {"android": "https://dc.lft.to/lastmile_qr_scan", "ios": "https://dc.lft.to/lastmile_qr_scan"}, "lat": 38.95652833333333, "fusion_lon": 0.0, "fusion_lat": 0.0, "type": "electric_scooter", "bike_id": "2f325bcb228014c678f115af8c804ba4", "lon": -77.0127755, "is_reserved": 0, "is_disabled": 0, "name": "2f325bcb228014c678f115af8c804ba4"}, {"rental_uris": {"android": "https://dc.lft.to/lastmile_qr_scan", "ios": "https://dc.lft.to/lastmile_qr_scan"}, "lat": 38.89853816666667, "fusion_lon": 0.0, "fusion_lat": 0.0, "type": "electric_scooter", "bike_id": "e3adba1c59335329d321e1a8ae495f32", "lon": -77.0317525, "is_reserved": 0, "is_disabled": 0, "name": "e3adba1c59335329d321e1a8ae495f32"}, {"rental_uris": {"android": "https://dc.lft.to/lastmile_qr_scan", "ios": "https://dc.lft.to/lastmile_qr_scan"}, "lat": 38.883481333333336, "fusion_lon": 0.0, "fusion_lat": 0.0, "type": "electric_scooter", "bike_id": "bfbc916ad94fe6d0164bb0ac680af765", "lon": -76.936277, "is_reserved": 0, "is_disabled": 0, "name": "bfbc916ad94fe6d0164bb0ac680af765"}, {"rental_uris": {"android": "https://dc.lft.to/lastmile_qr_scan", "ios": "https://dc.lft.to/lastmile_qr_scan"}, "lat": 38.898448333333334, "fusion_lon": 0.0, "fusion_lat": 0.0, "type": "electric_scooter", "bike_id": "5a873ea0c177ca0ff35d8410c32265b3", "lon": -76.94634883333333, "is_reserved": 0, "is_disabled": 0, "name": "5a873ea0c177ca0ff35d8410c32265b3"}, {"rental_uris": {"android": "https://dc.lft.to/lastmile_qr_scan", "ios": "https://dc.lft.to/lastmile_qr_scan"}, "lat": 38.8896955, "fusion_lon": 0.0, "fusion_lat": 0.0, "type": "electric_scooter", "bike_id": "23bd93687befa311e7ed78198bdd7831", "lon": -76.99161216666667, "is_reserved": 0, "is_disabled": 0, "name": "23bd93687befa311e7ed78198bdd7831"}, {"rental_uris": {"android": "https://dc.lft.to/lastmile_qr_scan", "ios": "https://dc.lft.to/lastmile_qr_scan"}, "lat": 38.89244083333333, "fusion_lon": 0.0, "fusion_lat": 0.0, "type": "electric_scooter", "bike_id": "85261f85b5f4a5327d50ac908f26a3c5", "lon": -77.05021383333333, "is_reserved": 0, "is_disabled": 0, "name": "85261f85b5f4a5327d50ac908f26a3c5"}, {"rental_uris": {"android": "https://dc.lft.to/lastmile_qr_scan", "ios": "https://dc.lft.to/lastmile_qr_scan"}, "lat": 38.908433333333335, "fusion_lon": 0.0, "fusion_lat": 0.0, "type": "electric_scooter", "bike_id": "3784ab66dfd208d7aa9b98b9231b50c6", "lon": -77.0549175, "is_reserved": 0, "is_disabled": 0, "name": "3784ab66dfd208d7aa9b98b9231b50c6"}, {"rental_uris": {"android": "https://dc.lft.to/lastmile_qr_scan", "ios": "https://dc.lft.to/lastmile_qr_scan"}, "lat": 38.9910095, "fusion_lon": 0.0, "fusion_lat": 0.0, "type": "electric_bike", "bike_id": "747ba787aa71e70d16c4bf4cf27be84d", "lon": -76.99373833333334, "is_reserved": 0, "is_disabled": 0, "name": "747ba787aa71e70d16c4bf4cf27be84d"}, {"rental_uris": {"android": "https://dc.lft.to/lastmile_qr_scan", "ios": "https://dc.lft.to/lastmile_qr_scan"}, "lat": 38.96256433333333, "fusion_lon": 0.0, "fusion_lat": 0.0, "type": "electric_scooter", "bike_id": "ad263d943757d1bd3741f9d805145605", "lon": -77.0297535, "is_reserved": 0, "is_disabled": 0, "name": "ad263d943757d1bd3741f9d805145605"}, {"rental_uris": {"android": "https://dc.lft.to/lastmile_qr_scan", "ios": "https://dc.lft.to/lastmile_qr_scan"}, "lat": 38.9248615, "fusion_lon": 0.0, "fusion_lat": 0.0, "type": "electric_scooter", "bike_id": "afd69cf9272349e5f1c12f9676402712", "lon": -77.05759766666667, "is_reserved": 0, "is_disabled": 0, "name": "afd69cf9272349e5f1c12f9676402712"}, {"rental_uris": {"android": "https://dc.lft.to/lastmile_qr_scan", "ios": "https://dc.lft.to/lastmile_qr_scan"}, "lat": 38.878742333333335, "fusion_lon": 0.0, "fusion_lat": 0.0, "type": "electric_scooter", "bike_id": "88905bdf6c5f5fa36d31ffa536e04e06", "lon": -77.02321383333333, "is_reserved": 0, "is_disabled": 0, "name": "88905bdf6c5f5fa36d31ffa536e04e06"}, {"rental_uris": {"android": "https://dc.lft.to/lastmile_qr_scan", "ios": "https://dc.lft.to/lastmile_qr_scan"}, "lat": 38.92021316666667, "fusion_lon": 0.0, "fusion_lat": 0.0, "type": "electric_bike", "bike_id": "59eed9a2e3d897b5e230729b5d6a0e80", "lon": -77.00333716666667, "is_reserved": 0, "is_disabled": 0, "name": "59eed9a2e3d897b5e230729b5d6a0e80"}, {"rental_uris": {"android": "https://dc.lft.to/lastmile_qr_scan", "ios": "https://dc.lft.to/lastmile_qr_scan"}, "lat": 38.90377683333333, "fusion_lon": 0.0, "fusion_lat": 0.0, "type": "electric_scooter", "bike_id": "993eb52d60e46121e1e1a3ef83e6ad31", "lon": -77.01779916666666, "is_reserved": 0, "is_disabled": 0, "name": "993eb52d60e46121e1e1a3ef83e6ad31"}, {"rental_uris": {"android": "https://dc.lft.to/lastmile_qr_scan", "ios": "https://dc.lft.to/lastmile_qr_scan"}, "lat": 38.91947066666667, "fusion_lon": 0.0, "fusion_lat": 0.0, "type": "electric_bike", "bike_id": "26fee7f3a2283405bf5f3ed58290e697", "lon": -77.0249485, "is_reserved": 0, "is_disabled": 0, "name": "26fee7f3a2283405bf5f3ed58290e697"}, {"rental_uris": {"android": "https://dc.lft.to/lastmile_qr_scan", "ios": "https://dc.lft.to/lastmile_qr_scan"}, "lat": 38.914145, "fusion_lon": 0.0, "fusion_lat": 0.0, "type": "electric_scooter", "bike_id": "c08d5ce622a38e54649600ea31178ebe", "lon": -77.02229183333333, "is_reserved": 0, "is_disabled": 0, "name": "c08d5ce622a38e54649600ea31178ebe"}, {"rental_uris": {"android": "https://dc.lft.to/lastmile_qr_scan", "ios": "https://dc.lft.to/lastmile_qr_scan"}, "lat": 38.90609033333333, "fusion_lon": 0.0, "fusion_lat": 0.0, "type": "electric_scooter", "bike_id": "30b2a0a7465ca5a871fce0f09ec333ea", "lon": -77.0399485, "is_reserved": 0, "is_disabled": 0, "name": "30b2a0a7465ca5a871fce0f09ec333ea"}, {"rental_uris": {"android": "https://dc.lft.to/lastmile_qr_scan", "ios": "https://dc.lft.to/lastmile_qr_scan"}, "lat": 38.9199105, "fusion_lon": 0.0, "fusion_lat": 0.0, "type": "electric_scooter", "bike_id": "acee747d6dfe0c7387e0cf9cc4eeb9b6", "lon": -77.01781233333334, "is_reserved": 0, "is_disabled": 0, "name": "acee747d6dfe0c7387e0cf9cc4eeb9b6"}, {"rental_uris": {"android": "https://dc.lft.to/lastmile_qr_scan", "ios": "https://dc.lft.to/lastmile_qr_scan"}, "lat": 38.926936, "fusion_lon": 0.0, "fusion_lat": 0.0, "type": "electric_scooter", "bike_id": "12fe4d757d447b35ee9125088183c459", "lon": -77.03581666666666, "is_reserved": 0, "is_disabled": 0, "name": "12fe4d757d447b35ee9125088183c459"}, {"rental_uris": {"android": "https://dc.lft.to/lastmile_qr_scan", "ios": "https://dc.lft.to/lastmile_qr_scan"}, "lat": 38.91539983333333, "fusion_lon": 0.0, "fusion_lat": 0.0, "type": "electric_scooter", "bike_id": "fc06b6cfc08b3764da085b3c3d9e697a", "lon": -77.04472733333333, "is_reserved": 0, "is_disabled": 0, "name": "fc06b6cfc08b3764da085b3c3d9e697a"}, {"rental_uris": {"android": "https://dc.lft.to/lastmile_qr_scan", "ios": "https://dc.lft.to/lastmile_qr_scan"}, "lat": 38.92602, "fusion_lon": 0.0, "fusion_lat": 0.0, "type": "electric_scooter", "bike_id": "1436bcc4f677d55ee943e49546f670c2", "lon": -77.0570655, "is_reserved": 0, "is_disabled": 0, "name": "1436bcc4f677d55ee943e49546f670c2"}, {"rental_uris": {"android": "https://dc.lft.to/lastmile_qr_scan", "ios": "https://dc.lft.to/lastmile_qr_scan"}, "lat": 38.9069365, "fusion_lon": 0.0, "fusion_lat": 0.0, "type": "electric_scooter", "bike_id": "26389155d97a6a1f922bcc48ed518fc4", "lon": -76.999558, "is_reserved": 0, "is_disabled": 0, "name": "26389155d97a6a1f922bcc48ed518fc4"}, {"rental_uris": {"android": "https://dc.lft.to/lastmile_qr_scan", "ios": "https://dc.lft.to/lastmile_qr_scan"}, "lat": 38.93535816666667, "fusion_lon": 0.0, "fusion_lat": 0.0, "type": "electric_scooter", "bike_id": "857d89cc04a1e2aa05273c9e59f0174b", "lon": -77.02344816666667, "is_reserved": 0, "is_disabled": 0, "name": "857d89cc04a1e2aa05273c9e59f0174b"}, {"rental_uris": {"android": "https://dc.lft.to/lastmile_qr_scan", "ios": "https://dc.lft.to/lastmile_qr_scan"}, "lat": 38.9202065, "fusion_lon": 0.0, "fusion_lat": 0.0, "type": "electric_scooter", "bike_id": "fbaed4b0909e6d9ac90a3cfcee0575e6", "lon": -77.03115316666667, "is_reserved": 0, "is_disabled": 0, "name": "fbaed4b0909e6d9ac90a3cfcee0575e6"}, {"rental_uris": {"android": "https://dc.lft.to/lastmile_qr_scan", "ios": "https://dc.lft.to/lastmile_qr_scan"}, "lat": 38.926041, "fusion_lon": 0.0, "fusion_lat": 0.0, "type": "electric_scooter", "bike_id": "5b627212678b24113ed259563b76bbd7", "lon": -77.02151966666666, "is_reserved": 0, "is_disabled": 0, "name": "5b627212678b24113ed259563b76bbd7"}, {"rental_uris": {"android": "https://dc.lft.to/lastmile_qr_scan", "ios": "https://dc.lft.to/lastmile_qr_scan"}, "lat": 38.923526333333335, "fusion_lon": 0.0, "fusion_lat": 0.0, "type": "electric_scooter", "bike_id": "47d21b0f8079973c1d65eb2c4535e44f", "lon": -77.04154533333333, "is_reserved": 0, "is_disabled": 0, "name": "47d21b0f8079973c1d65eb2c4535e44f"}, {"rental_uris": {"android": "https://dc.lft.to/lastmile_qr_scan", "ios": "https://dc.lft.to/lastmile_qr_scan"}, "lat": 38.898309833333336, "fusion_lon": 0.0, "fusion_lat": 0.0, "type": "electric_scooter", "bike_id": "a0a2312042fa663aed979f59f3ff26f9", "lon": -77.04355883333334, "is_reserved": 0, "is_disabled": 0, "name": "a0a2312042fa663aed979f59f3ff26f9"}, {"rental_uris": {"android": "https://dc.lft.to/lastmile_qr_scan", "ios": "https://dc.lft.to/lastmile_qr_scan"}, "lat": 38.90419166666667, "fusion_lon": 0.0, "fusion_lat": 0.0, "type": "electric_scooter", "bike_id": "0893851470b3cca16477b0a4b731718f", "lon": -77.0435635, "is_reserved": 0, "is_disabled": 0, "name": "0893851470b3cca16477b0a4b731718f"}, {"rental_uris": {"android": "https://dc.lft.to/lastmile_qr_scan", "ios": "https://dc.lft.to/lastmile_qr_scan"}, "lat": 38.90850733333333, "fusion_lon": 0.0, "fusion_lat": 0.0, "type": "electric_scooter", "bike_id": "4759b5ab8314430ddda066d40d80751b", "lon": -77.0452255, "is_reserved": 0, "is_disabled": 0, "name": "4759b5ab8314430ddda066d40d80751b"}, {"rental_uris": {"android": "https://dc.lft.to/lastmile_qr_scan", "ios": "https://dc.lft.to/lastmile_qr_scan"}, "lat": 38.92245166666667, "fusion_lon": 0.0, "fusion_lat": 0.0, "type": "electric_scooter", "bike_id": "1d2a20a37af518c68c0db345c2424458", "lon": -77.03907333333333, "is_reserved": 0, "is_disabled": 0, "name": "1d2a20a37af518c68c0db345c2424458"}, {"rental_uris": {"android": "https://dc.lft.to/lastmile_qr_scan", "ios": "https://dc.lft.to/lastmile_qr_scan"}, "lat": 38.91501233333334, "fusion_lon": 0.0, "fusion_lat": 0.0, "type": "electric_scooter", "bike_id": "3cea64525e537de06cd259fdc29ac47a", "lon": -77.04555383333333, "is_reserved": 0, "is_disabled": 0, "name": "3cea64525e537de06cd259fdc29ac47a"}, {"rental_uris": {"android": "https://dc.lft.to/lastmile_qr_scan", "ios": "https://dc.lft.to/lastmile_qr_scan"}, "lat": 38.89197866666667, "fusion_lon": 0.0, "fusion_lat": 0.0, "type": "electric_scooter", "bike_id": "8ebfe7d194990d5a2b4e52afb862a0bf", "lon": -77.00222283333333, "is_reserved": 0, "is_disabled": 0, "name": "8ebfe7d194990d5a2b4e52afb862a0bf"}, {"rental_uris": {"android": "https://dc.lft.to/lastmile_qr_scan", "ios": "https://dc.lft.to/lastmile_qr_scan"}, "lat": 38.91816583333333, "fusion_lon": 0.0, "fusion_lat": 0.0, "type": "electric_scooter", "bike_id": "f9b6f2ccfa7acd774aa056b0ad4bb8b6", "lon": -77.02716533333333, "is_reserved": 0, "is_disabled": 0, "name": "f9b6f2ccfa7acd774aa056b0ad4bb8b6"}, {"rental_uris": {"android": "https://dc.lft.to/lastmile_qr_scan", "ios": "https://dc.lft.to/lastmile_qr_scan"}, "lat": 38.891136833333334, "fusion_lon": 0.0, "fusion_lat": 0.0, "type": "electric_bike", "bike_id": "8f3b42d4643b571db503f4e476dba71a", "lon": -76.95196183333333, "is_reserved": 0, "is_disabled": 0, "name": "8f3b42d4643b571db503f4e476dba71a"}, {"rental_uris": {"android": "https://dc.lft.to/lastmile_qr_scan", "ios": "https://dc.lft.to/lastmile_qr_scan"}, "lat": 38.895921, "fusion_lon": 0.0, "fusion_lat": 0.0, "type": "electric_scooter", "bike_id": "6c99080e8c8abeead65f37c8f7ba8c74", "lon": -77.0271425, "is_reserved": 0, "is_disabled": 0, "name": "6c99080e8c8abeead65f37c8f7ba8c74"}, {"rental_uris": {"android": "https://dc.lft.to/lastmile_qr_scan", "ios": "https://dc.lft.to/lastmile_qr_scan"}, "lat": 38.9525865, "fusion_lon": 0.0, "fusion_lat": 0.0, "type": "electric_scooter", "bike_id": "a8b70de97e125d71850ccc662db9ed55", "lon": -77.02072516666667, "is_reserved": 0, "is_disabled": 0, "name": "a8b70de97e125d71850ccc662db9ed55"}, {"rental_uris": {"android": "https://dc.lft.to/lastmile_qr_scan", "ios": "https://dc.lft.to/lastmile_qr_scan"}, "lat": 38.932703, "fusion_lon": 0.0, "fusion_lat": 0.0, "type": "electric_bike", "bike_id": "fb35c0791a344312327104578d62aedd", "lon": -77.0656215, "is_reserved": 0, "is_disabled": 0, "name": "fb35c0791a344312327104578d62aedd"}, {"rental_uris": {"android": "https://dc.lft.to/lastmile_qr_scan", "ios": "https://dc.lft.to/lastmile_qr_scan"}, "lat": 38.9104675, "fusion_lon": 0.0, "fusion_lat": 0.0, "type": "electric_scooter", "bike_id": "1abba9e626907faa00470d65f78c207e", "lon": -77.0645965, "is_reserved": 0, "is_disabled": 0, "name": "1abba9e626907faa00470d65f78c207e"}, {"rental_uris": {"android": "https://dc.lft.to/lastmile_qr_scan", "ios": "https://dc.lft.to/lastmile_qr_scan"}, "lat": 38.9001335, "fusion_lon": 0.0, "fusion_lat": 0.0, "type": "electric_scooter", "bike_id": "b5e9bb0adf0be86684b467ecb558d487", "lon": -76.9868475, "is_reserved": 0, "is_disabled": 0, "name": "b5e9bb0adf0be86684b467ecb558d487"}, {"rental_uris": {"android": "https://dc.lft.to/lastmile_qr_scan", "ios": "https://dc.lft.to/lastmile_qr_scan"}, "lat": 38.919523833333336, "fusion_lon": 0.0, "fusion_lat": 0.0, "type": "electric_scooter", "bike_id": "8c5ca1e68bd481a9ba271957f37322d6", "lon": -77.01908083333333, "is_reserved": 0, "is_disabled": 0, "name": "8c5ca1e68bd481a9ba271957f37322d6"}, {"rental_uris": {"android": "https://dc.lft.to/lastmile_qr_scan", "ios": "https://dc.lft.to/lastmile_qr_scan"}, "lat": 38.926599, "fusion_lon": 0.0, "fusion_lat": 0.0, "type": "electric_scooter", "bike_id": "124f11767e1bc4c3b60d106c3c8f49fe", "lon": -77.02281533333333, "is_reserved": 0, "is_disabled": 0, "name": "124f11767e1bc4c3b60d106c3c8f49fe"}, {"rental_uris": {"android": "https://dc.lft.to/lastmile_qr_scan", "ios": "https://dc.lft.to/lastmile_qr_scan"}, "lat": 38.921370833333334, "fusion_lon": 0.0, "fusion_lat": 0.0, "type": "electric_scooter", "bike_id": "d2ee886c8ac646865ce1c7f9e44fe86d", "lon": -77.01905183333334, "is_reserved": 0, "is_disabled": 0, "name": "d2ee886c8ac646865ce1c7f9e44fe86d"}, {"rental_uris": {"android": "https://dc.lft.to/lastmile_qr_scan", "ios": "https://dc.lft.to/lastmile_qr_scan"}, "lat": 38.892292833333336, "fusion_lon": 0.0, "fusion_lat": 0.0, "type": "electric_scooter", "bike_id": "17871c40ffd3f3addb646a7ada41a7c2", "lon": -77.02410566666667, "is_reserved": 0, "is_disabled": 0, "name": "17871c40ffd3f3addb646a7ada41a7c2"}, {"rental_uris": {"android": "https://dc.lft.to/lastmile_qr_scan", "ios": "https://dc.lft.to/lastmile_qr_scan"}, "lat": 38.95880833333333, "fusion_lon": 0.0, "fusion_lat": 0.0, "type": "electric_bike", "bike_id": "e87182d1791d9765aec73d7117b2332b", "lon": -77.01024066666666, "is_reserved": 0, "is_disabled": 0, "name": "e87182d1791d9765aec73d7117b2332b"}, {"rental_uris": {"android": "https://dc.lft.to/lastmile_qr_scan", "ios": "https://dc.lft.to/lastmile_qr_scan"}, "lat": 38.899422333333334, "fusion_lon": 0.0, "fusion_lat": 0.0, "type": "electric_scooter", "bike_id": "805eaf25d94eeeb75d9d8f0127ec3418", "lon": -77.0293855, "is_reserved": 0, "is_disabled": 0, "name": "805eaf25d94eeeb75d9d8f0127ec3418"}, {"rental_uris": {"android": "https://dc.lft.to/lastmile_qr_scan", "ios": "https://dc.lft.to/lastmile_qr_scan"}, "lat": 38.90057766666666, "fusion_lon": 0.0, "fusion_lat": 0.0, "type": "electric_scooter", "bike_id": "e589b73dadb90a4264983f706b7be7e9", "lon": -77.04839083333333, "is_reserved": 0, "is_disabled": 0, "name": "e589b73dadb90a4264983f706b7be7e9"}, {"rental_uris": {"android": "https://dc.lft.to/lastmile_qr_scan", "ios": "https://dc.lft.to/lastmile_qr_scan"}, "lat": 38.9216505, "fusion_lon": 0.0, "fusion_lat": 0.0, "type": "electric_scooter", "bike_id": "cbff7341f6d5bf5e44e9f03e46912268", "lon": -77.02085316666667, "is_reserved": 0, "is_disabled": 0, "name": "cbff7341f6d5bf5e44e9f03e46912268"}, {"rental_uris": {"android": "https://dc.lft.to/lastmile_qr_scan", "ios": "https://dc.lft.to/lastmile_qr_scan"}, "lat": 38.8777485, "fusion_lon": 0.0, "fusion_lat": 0.0, "type": "electric_scooter", "bike_id": "4d42c10885f16132bc002021f8626593", "lon": -76.99620616666667, "is_reserved": 0, "is_disabled": 0, "name": "4d42c10885f16132bc002021f8626593"}, {"rental_uris": {"android": "https://dc.lft.to/lastmile_qr_scan", "ios": "https://dc.lft.to/lastmile_qr_scan"}, "lat": 38.897493, "fusion_lon": 0.0, "fusion_lat": 0.0, "type": "electric_scooter", "bike_id": "74a62455db2b77533a4ac2f0da068a87", "lon": -77.0188555, "is_reserved": 0, "is_disabled": 0, "name": "74a62455db2b77533a4ac2f0da068a87"}, {"rental_uris": {"android": "https://dc.lft.to/lastmile_qr_scan", "ios": "https://dc.lft.to/lastmile_qr_scan"}, "lat": 38.873790166666666, "fusion_lon": 0.0, "fusion_lat": 0.0, "type": "electric_scooter", "bike_id": "bfc15ab9419ca5efd7cfc1c27b76f864", "lon": -77.001313, "is_reserved": 0, "is_disabled": 0, "name": "bfc15ab9419ca5efd7cfc1c27b76f864"}, {"rental_uris": {"android": "https://dc.lft.to/lastmile_qr_scan", "ios": "https://dc.lft.to/lastmile_qr_scan"}, "lat": 38.918908, "fusion_lon": 0.0, "fusion_lat": 0.0, "type": "electric_scooter", "bike_id": "bd7ca59390b3e3d1e071d60ff57de4ec", "lon": -77.0382965, "is_reserved": 0, "is_disabled": 0, "name": "bd7ca59390b3e3d1e071d60ff57de4ec"}, {"rental_uris": {"android": "https://dc.lft.to/lastmile_qr_scan", "ios": "https://dc.lft.to/lastmile_qr_scan"}, "lat": 38.90000633333333, "fusion_lon": 0.0, "fusion_lat": 0.0, "type": "electric_scooter", "bike_id": "a28de3fefe4026e798363bdb972f237a", "lon": -77.0318165, "is_reserved": 0, "is_disabled": 0, "name": "a28de3fefe4026e798363bdb972f237a"}, {"rental_uris": {"android": "https://dc.lft.to/lastmile_qr_scan", "ios": "https://dc.lft.to/lastmile_qr_scan"}, "lat": 38.9118105, "fusion_lon": 0.0, "fusion_lat": 0.0, "type": "electric_scooter", "bike_id": "8a59643463a26e966c9a0bed95fbbca9", "lon": -77.03849, "is_reserved": 0, "is_disabled": 0, "name": "8a59643463a26e966c9a0bed95fbbca9"}, {"rental_uris": {"android": "https://dc.lft.to/lastmile_qr_scan", "ios": "https://dc.lft.to/lastmile_qr_scan"}, "lat": 38.91330766666667, "fusion_lon": 0.0, "fusion_lat": 0.0, "type": "electric_scooter", "bike_id": "76779c2470c123a8d57b3c02b6baba04", "lon": -77.01359683333334, "is_reserved": 0, "is_disabled": 0, "name": "76779c2470c123a8d57b3c02b6baba04"}, {"rental_uris": {"android": "https://dc.lft.to/lastmile_qr_scan", "ios": "https://dc.lft.to/lastmile_qr_scan"}, "lat": 38.943507833333335, "fusion_lon": 0.0, "fusion_lat": 0.0, "type": "electric_scooter", "bike_id": "590aa3410533eb8db2d87125132f2ce2", "lon": -77.02977833333334, "is_reserved": 0, "is_disabled": 0, "name": "590aa3410533eb8db2d87125132f2ce2"}, {"rental_uris": {"android": "https://dc.lft.to/lastmile_qr_scan", "ios": "https://dc.lft.to/lastmile_qr_scan"}, "lat": 38.879259833333336, "fusion_lon": 0.0, "fusion_lat": 0.0, "type": "electric_scooter", "bike_id": "714f34d1f75e29af0372e46c5755767c", "lon": -77.00527566666666, "is_reserved": 0, "is_disabled": 0, "name": "714f34d1f75e29af0372e46c5755767c"}, {"rental_uris": {"android": "https://dc.lft.to/lastmile_qr_scan", "ios": "https://dc.lft.to/lastmile_qr_scan"}, "lat": 38.90587166666667, "fusion_lon": 0.0, "fusion_lat": 0.0, "type": "electric_scooter", "bike_id": "0ff3cb3bb9f8ad57851fb7f3878297f8", "lon": -77.0417125, "is_reserved": 0, "is_disabled": 0, "name": "0ff3cb3bb9f8ad57851fb7f3878297f8"}, {"rental_uris": {"android": "https://dc.lft.to/lastmile_qr_scan", "ios": "https://dc.lft.to/lastmile_qr_scan"}, "lat": 38.925386, "fusion_lon": 0.0, "fusion_lat": 0.0, "type": "electric_scooter", "bike_id": "eff6e6e81eae67b0c32cd45fdf194f69", "lon": -77.04155333333334, "is_reserved": 0, "is_disabled": 0, "name": "eff6e6e81eae67b0c32cd45fdf194f69"}, {"rental_uris": {"android": "https://dc.lft.to/lastmile_qr_scan", "ios": "https://dc.lft.to/lastmile_qr_scan"}, "lat": 38.8990855, "fusion_lon": 0.0, "fusion_lat": 0.0, "type": "electric_scooter", "bike_id": "4c6d040ab0d56e11bf85aba696356da2", "lon": -77.03924766666667, "is_reserved": 0, "is_disabled": 0, "name": "4c6d040ab0d56e11bf85aba696356da2"}, {"rental_uris": {"android": "https://dc.lft.to/lastmile_qr_scan", "ios": "https://dc.lft.to/lastmile_qr_scan"}, "lat": 38.89230766666667, "fusion_lon": 0.0, "fusion_lat": 0.0, "type": "electric_scooter", "bike_id": "35062146c605c92fa71521fddb4042c5", "lon": -77.05000883333334, "is_reserved": 0, "is_disabled": 0, "name": "35062146c605c92fa71521fddb4042c5"}, {"rental_uris": {"android": "https://dc.lft.to/lastmile_qr_scan", "ios": "https://dc.lft.to/lastmile_qr_scan"}, "lat": 38.895127333333335, "fusion_lon": 0.0, "fusion_lat": 0.0, "type": "electric_scooter", "bike_id": "740fba71aace2c8e6f523742bbc3acc8", "lon": -76.94886966666667, "is_reserved": 0, "is_disabled": 0, "name": "740fba71aace2c8e6f523742bbc3acc8"}, {"rental_uris": {"android": "https://dc.lft.to/lastmile_qr_scan", "ios": "https://dc.lft.to/lastmile_qr_scan"}, "lat": 38.9075825, "fusion_lon": 0.0, "fusion_lat": 0.0, "type": "electric_scooter", "bike_id": "54da72a9cdf0da3853d3133ad45ae264", "lon": -77.01698966666666, "is_reserved": 0, "is_disabled": 0, "name": "54da72a9cdf0da3853d3133ad45ae264"}, {"rental_uris": {"android": "https://dc.lft.to/lastmile_qr_scan", "ios": "https://dc.lft.to/lastmile_qr_scan"}, "lat": 38.865174833333334, "fusion_lon": 0.0, "fusion_lat": 0.0, "type": "electric_bike", "bike_id": "13bf7c58e5ec2e221805368c43433188", "lon": -76.97317616666666, "is_reserved": 0, "is_disabled": 0, "name": "13bf7c58e5ec2e221805368c43433188"}, {"rental_uris": {"android": "https://dc.lft.to/lastmile_qr_scan", "ios": "https://dc.lft.to/lastmile_qr_scan"}, "lat": 38.900936333333334, "fusion_lon": 0.0, "fusion_lat": 0.0, "type": "electric_scooter", "bike_id": "c73064c3628581871295e8e8cb4d2ad7", "lon": -77.034341, "is_reserved": 0, "is_disabled": 0, "name": "c73064c3628581871295e8e8cb4d2ad7"}, {"rental_uris": {"android": "https://dc.lft.to/lastmile_qr_scan", "ios": "https://dc.lft.to/lastmile_qr_scan"}, "lat": 38.89361, "fusion_lon": 0.0, "fusion_lat": 0.0, "type": "electric_scooter", "bike_id": "185d40862ad2f29d2cf55223d395bb12", "lon": -77.003309, "is_reserved": 0, "is_disabled": 0, "name": "185d40862ad2f29d2cf55223d395bb12"}, {"rental_uris": {"android": "https://dc.lft.to/lastmile_qr_scan", "ios": "https://dc.lft.to/lastmile_qr_scan"}, "lat": 38.91174616666667, "fusion_lon": 0.0, "fusion_lat": 0.0, "type": "electric_scooter", "bike_id": "0768738a326f2e3d889a75dceefc3460", "lon": -77.074911, "is_reserved": 0, "is_disabled": 0, "name": "0768738a326f2e3d889a75dceefc3460"}, {"rental_uris": {"android": "https://dc.lft.to/lastmile_qr_scan", "ios": "https://dc.lft.to/lastmile_qr_scan"}, "lat": 38.941803666666665, "fusion_lon": 0.0, "fusion_lat": 0.0, "type": "electric_scooter", "bike_id": "fa36aa96fc962f5afd99626b92510dfc", "lon": -77.0240555, "is_reserved": 0, "is_disabled": 0, "name": "fa36aa96fc962f5afd99626b92510dfc"}, {"rental_uris": {"android": "https://dc.lft.to/lastmile_qr_scan", "ios": "https://dc.lft.to/lastmile_qr_scan"}, "lat": 38.95639083333333, "fusion_lon": 0.0, "fusion_lat": 0.0, "type": "electric_scooter", "bike_id": "b8c765ae74f3aa72c81d85acdbc61b1b", "lon": -77.01937383333333, "is_reserved": 0, "is_disabled": 0, "name": "b8c765ae74f3aa72c81d85acdbc61b1b"}, {"rental_uris": {"android": "https://dc.lft.to/lastmile_qr_scan", "ios": "https://dc.lft.to/lastmile_qr_scan"}, "lat": 38.923825, "fusion_lon": 0.0, "fusion_lat": 0.0, "type": "electric_scooter", "bike_id": "b6431061063c403c2a9640be8d4770a7", "lon": -77.03533433333334, "is_reserved": 0, "is_disabled": 0, "name": "b6431061063c403c2a9640be8d4770a7"}, {"rental_uris": {"android": "https://dc.lft.to/lastmile_qr_scan", "ios": "https://dc.lft.to/lastmile_qr_scan"}, "lat": 38.87737466666667, "fusion_lon": 0.0, "fusion_lat": 0.0, "type": "electric_bike", "bike_id": "3bc71ae1a402f132ac23041a0c4200c6", "lon": -77.14871483333333, "is_reserved": 0, "is_disabled": 0, "name": "3bc71ae1a402f132ac23041a0c4200c6"}, {"rental_uris": {"android": "https://dc.lft.to/lastmile_qr_scan", "ios": "https://dc.lft.to/lastmile_qr_scan"}, "lat": 38.87411516666667, "fusion_lon": 0.0, "fusion_lat": 0.0, "type": "electric_scooter", "bike_id": "5e7f37e39732ce8105bd73635d93965c", "lon": -77.00176266666666, "is_reserved": 0, "is_disabled": 0, "name": "5e7f37e39732ce8105bd73635d93965c"}, {"rental_uris": {"android": "https://dc.lft.to/lastmile_qr_scan", "ios": "https://dc.lft.to/lastmile_qr_scan"}, "lat": 38.89363633333333, "fusion_lon": 0.0, "fusion_lat": 0.0, "type": "electric_scooter", "bike_id": "f71763e6af167d513376a462fe9dfee0", "lon": -77.00327983333334, "is_reserved": 0, "is_disabled": 0, "name": "f71763e6af167d513376a462fe9dfee0"}, {"rental_uris": {"android": "https://dc.lft.to/lastmile_qr_scan", "ios": "https://dc.lft.to/lastmile_qr_scan"}, "lat": 38.898145666666665, "fusion_lon": 0.0, "fusion_lat": 0.0, "type": "electric_scooter", "bike_id": "d478cce52aac7ac9793c13042467dcc9", "lon": -77.01211083333334, "is_reserved": 0, "is_disabled": 0, "name": "d478cce52aac7ac9793c13042467dcc9"}, {"rental_uris": {"android": "https://dc.lft.to/lastmile_qr_scan", "ios": "https://dc.lft.to/lastmile_qr_scan"}, "lat": 38.90620066666666, "fusion_lon": 0.0, "fusion_lat": 0.0, "type": "electric_scooter", "bike_id": "a309719b78a9f947b33ff2f0cd32cd1c", "lon": -77.00586116666666, "is_reserved": 0, "is_disabled": 0, "name": "a309719b78a9f947b33ff2f0cd32cd1c"}, {"rental_uris": {"android": "https://dc.lft.to/lastmile_qr_scan", "ios": "https://dc.lft.to/lastmile_qr_scan"}, "lat": 38.9205875, "fusion_lon": 0.0, "fusion_lat": 0.0, "type": "electric_scooter", "bike_id": "7db180c0ee524a1c5cc6191137339501", "lon": -77.0153405, "is_reserved": 0, "is_disabled": 0, "name": "7db180c0ee524a1c5cc6191137339501"}, {"rental_uris": {"android": "https://dc.lft.to/lastmile_qr_scan", "ios": "https://dc.lft.to/lastmile_qr_scan"}, "lat": 38.89745666666666, "fusion_lon": 0.0, "fusion_lat": 0.0, "type": "electric_scooter", "bike_id": "434d5422677abea658cb1857b4db43f2", "lon": -77.01889366666667, "is_reserved": 0, "is_disabled": 0, "name": "434d5422677abea658cb1857b4db43f2"}, {"rental_uris": {"android": "https://dc.lft.to/lastmile_qr_scan", "ios": "https://dc.lft.to/lastmile_qr_scan"}, "lat": 38.936858666666666, "fusion_lon": 0.0, "fusion_lat": 0.0, "type": "electric_scooter", "bike_id": "0b2ba0c53ede7efd2ea1b73365787a8a", "lon": -77.03633266666667, "is_reserved": 0, "is_disabled": 0, "name": "0b2ba0c53ede7efd2ea1b73365787a8a"}, {"rental_uris": {"android": "https://dc.lft.to/lastmile_qr_scan", "ios": "https://dc.lft.to/lastmile_qr_scan"}, "lat": 38.91603683333334, "fusion_lon": 0.0, "fusion_lat": 0.0, "type": "electric_scooter", "bike_id": "5d00eeb891412e528608304a6e4fb73b", "lon": -77.04901933333333, "is_reserved": 0, "is_disabled": 0, "name": "5d00eeb891412e528608304a6e4fb73b"}, {"rental_uris": {"android": "https://dc.lft.to/lastmile_qr_scan", "ios": "https://dc.lft.to/lastmile_qr_scan"}, "lat": 38.93225533333333, "fusion_lon": 0.0, "fusion_lat": 0.0, "type": "electric_scooter", "bike_id": "8a3e533985fc6a1ca843d7ee9fc4b6cc", "lon": -77.07282233333333, "is_reserved": 0, "is_disabled": 0, "name": "8a3e533985fc6a1ca843d7ee9fc4b6cc"}, {"rental_uris": {"android": "https://dc.lft.to/lastmile_qr_scan", "ios": "https://dc.lft.to/lastmile_qr_scan"}, "lat": 38.92062983333334, "fusion_lon": 0.0, "fusion_lat": 0.0, "type": "electric_scooter", "bike_id": "863252105a1700409d2fbd8d698681ba", "lon": -77.02297566666667, "is_reserved": 0, "is_disabled": 0, "name": "863252105a1700409d2fbd8d698681ba"}, {"rental_uris": {"android": "https://dc.lft.to/lastmile_qr_scan", "ios": "https://dc.lft.to/lastmile_qr_scan"}, "lat": 38.90710766666667, "fusion_lon": 0.0, "fusion_lat": 0.0, "type": "electric_scooter", "bike_id": "dfe1a1a93bc57cd3dfaf7035f9d8e484", "lon": -77.031943, "is_reserved": 0, "is_disabled": 0, "name": "dfe1a1a93bc57cd3dfaf7035f9d8e484"}, {"rental_uris": {"android": "https://dc.lft.to/lastmile_qr_scan", "ios": "https://dc.lft.to/lastmile_qr_scan"}, "lat": 38.9074085, "fusion_lon": 0.0, "fusion_lat": 0.0, "type": "electric_scooter", "bike_id": "f3716114c7a23a0729ed294721c77556", "lon": -77.04168383333334, "is_reserved": 0, "is_disabled": 0, "name": "f3716114c7a23a0729ed294721c77556"}, {"rental_uris": {"android": "https://dc.lft.to/lastmile_qr_scan", "ios": "https://dc.lft.to/lastmile_qr_scan"}, "lat": 38.93696466666667, "fusion_lon": 0.0, "fusion_lat": 0.0, "type": "electric_scooter", "bike_id": "4808cfc685679316e04109dd44e77ea0", "lon": -77.0559975, "is_reserved": 0, "is_disabled": 0, "name": "4808cfc685679316e04109dd44e77ea0"}, {"rental_uris": {"android": "https://dc.lft.to/lastmile_qr_scan", "ios": "https://dc.lft.to/lastmile_qr_scan"}, "lat": 38.832974666666665, "fusion_lon": 0.0, "fusion_lat": 0.0, "type": "electric_bike", "bike_id": "680c29fbab66d86d69129f283f37ccf7", "lon": -77.08404583333333, "is_reserved": 0, "is_disabled": 0, "name": "680c29fbab66d86d69129f283f37ccf7"}, {"rental_uris": {"android": "https://dc.lft.to/lastmile_qr_scan", "ios": "https://dc.lft.to/lastmile_qr_scan"}, "lat": 38.95529233333333, "fusion_lon": 0.0, "fusion_lat": 0.0, "type": "electric_bike", "bike_id": "1ac08745b5a74a0be61e1ffd0d09412f", "lon": -76.96821033333333, "is_reserved": 0, "is_disabled": 0, "name": "1ac08745b5a74a0be61e1ffd0d09412f"}, {"rental_uris": {"android": "https://dc.lft.to/lastmile_qr_scan", "ios": "https://dc.lft.to/lastmile_qr_scan"}, "lat": 38.88824416666667, "fusion_lon": 0.0, "fusion_lat": 0.0, "type": "electric_scooter", "bike_id": "4741f77d5c31d8dbad89432f5dc32928", "lon": -76.977192, "is_reserved": 0, "is_disabled": 0, "name": "4741f77d5c31d8dbad89432f5dc32928"}, {"rental_uris": {"android": "https://dc.lft.to/lastmile_qr_scan", "ios": "https://dc.lft.to/lastmile_qr_scan"}, "lat": 38.897115666666664, "fusion_lon": 0.0, "fusion_lat": 0.0, "type": "electric_scooter", "bike_id": "ecded2d69b03600f93847d69893ae609", "lon": -77.032429, "is_reserved": 0, "is_disabled": 0, "name": "ecded2d69b03600f93847d69893ae609"}, {"rental_uris": {"android": "https://dc.lft.to/lastmile_qr_scan", "ios": "https://dc.lft.to/lastmile_qr_scan"}, "lat": 38.9000385, "fusion_lon": 0.0, "fusion_lat": 0.0, "type": "electric_scooter", "bike_id": "fd1a5643396a27bab79a826438f4f287", "lon": -77.032875, "is_reserved": 0, "is_disabled": 0, "name": "fd1a5643396a27bab79a826438f4f287"}, {"rental_uris": {"android": "https://dc.lft.to/lastmile_qr_scan", "ios": "https://dc.lft.to/lastmile_qr_scan"}, "lat": 38.924684, "fusion_lon": 0.0, "fusion_lat": 0.0, "type": "electric_scooter", "bike_id": "0f01f07f370febb10855cea168a1fb61", "lon": -77.05236183333334, "is_reserved": 0, "is_disabled": 0, "name": "0f01f07f370febb10855cea168a1fb61"}, {"rental_uris": {"android": "https://dc.lft.to/lastmile_qr_scan", "ios": "https://dc.lft.to/lastmile_qr_scan"}, "lat": 38.912727833333335, "fusion_lon": 0.0, "fusion_lat": 0.0, "type": "electric_scooter", "bike_id": "ac1b53815935176e6004499fa35616ac", "lon": -76.9856675, "is_reserved": 0, "is_disabled": 0, "name": "ac1b53815935176e6004499fa35616ac"}, {"rental_uris": {"android": "https://dc.lft.to/lastmile_qr_scan", "ios": "https://dc.lft.to/lastmile_qr_scan"}, "lat": 38.932077, "fusion_lon": 0.0, "fusion_lat": 0.0, "type": "electric_scooter", "bike_id": "6d45f2cab12c2d3b5eca9d78f7eaa01d", "lon": -77.0229785, "is_reserved": 0, "is_disabled": 0, "name": "6d45f2cab12c2d3b5eca9d78f7eaa01d"}, {"rental_uris": {"android": "https://dc.lft.to/lastmile_qr_scan", "ios": "https://dc.lft.to/lastmile_qr_scan"}, "lat": 38.92461183333333, "fusion_lon": 0.0, "fusion_lat": 0.0, "type": "electric_scooter", "bike_id": "6c8bdff86732853a76138ae172f41e89", "lon": -77.02197883333334, "is_reserved": 0, "is_disabled": 0, "name": "6c8bdff86732853a76138ae172f41e89"}, {"rental_uris": {"android": "https://dc.lft.to/lastmile_qr_scan", "ios": "https://dc.lft.to/lastmile_qr_scan"}, "lat": 38.881212833333336, "fusion_lon": 0.0, "fusion_lat": 0.0, "type": "electric_scooter", "bike_id": "1a3114b208fb89ac1a088e49803c0bf3", "lon": -76.99344733333334, "is_reserved": 0, "is_disabled": 0, "name": "1a3114b208fb89ac1a088e49803c0bf3"}, {"rental_uris": {"android": "https://dc.lft.to/lastmile_qr_scan", "ios": "https://dc.lft.to/lastmile_qr_scan"}, "lat": 38.89614266666667, "fusion_lon": 0.0, "fusion_lat": 0.0, "type": "electric_scooter", "bike_id": "af2cffbabd79a20cf57c177081954367", "lon": -77.04464233333333, "is_reserved": 0, "is_disabled": 0, "name": "af2cffbabd79a20cf57c177081954367"}, {"rental_uris": {"android": "https://dc.lft.to/lastmile_qr_scan", "ios": "https://dc.lft.to/lastmile_qr_scan"}, "lat": 39.0029795, "fusion_lon": 0.0, "fusion_lat": 0.0, "type": "electric_bike", "bike_id": "efcdf31972b49720bc2b1600eb6c572c", "lon": -76.90299466666667, "is_reserved": 0, "is_disabled": 0, "name": "efcdf31972b49720bc2b1600eb6c572c"}, {"rental_uris": {"android": "https://dc.lft.to/lastmile_qr_scan", "ios": "https://dc.lft.to/lastmile_qr_scan"}, "lat": 38.92640883333333, "fusion_lon": 0.0, "fusion_lat": 0.0, "type": "electric_scooter", "bike_id": "a36446c5c4afb486e5108ce918d847bb", "lon": -77.02163483333334, "is_reserved": 0, "is_disabled": 0, "name": "a36446c5c4afb486e5108ce918d847bb"}, {"rental_uris": {"android": "https://dc.lft.to/lastmile_qr_scan", "ios": "https://dc.lft.to/lastmile_qr_scan"}, "lat": 38.9078725, "fusion_lon": 0.0, "fusion_lat": 0.0, "type": "electric_scooter", "bike_id": "b05201b59e783e96594f84b1fc622c4e", "lon": -77.0319275, "is_reserved": 0, "is_disabled": 0, "name": "b05201b59e783e96594f84b1fc622c4e"}, {"rental_uris": {"android": "https://dc.lft.to/lastmile_qr_scan", "ios": "https://dc.lft.to/lastmile_qr_scan"}, "lat": 38.901233, "fusion_lon": 0.0, "fusion_lat": 0.0, "type": "electric_scooter", "bike_id": "884092f51f25d3abdee47e50e7c314a3", "lon": -77.03951016666667, "is_reserved": 0, "is_disabled": 0, "name": "884092f51f25d3abdee47e50e7c314a3"}, {"rental_uris": {"android": "https://dc.lft.to/lastmile_qr_scan", "ios": "https://dc.lft.to/lastmile_qr_scan"}, "lat": 38.88855266666667, "fusion_lon": 0.0, "fusion_lat": 0.0, "type": "electric_scooter", "bike_id": "75e2158fc90506fd4b3d8b6fbc72899f", "lon": -76.937107, "is_reserved": 0, "is_disabled": 0, "name": "75e2158fc90506fd4b3d8b6fbc72899f"}, {"rental_uris": {"android": "https://dc.lft.to/lastmile_qr_scan", "ios": "https://dc.lft.to/lastmile_qr_scan"}, "lat": 38.89775016666667, "fusion_lon": 0.0, "fusion_lat": 0.0, "type": "electric_scooter", "bike_id": "dc863f82baf3644c9b23e09186a026ed", "lon": -77.0268895, "is_reserved": 0, "is_disabled": 0, "name": "dc863f82baf3644c9b23e09186a026ed"}, {"rental_uris": {"android": "https://dc.lft.to/lastmile_qr_scan", "ios": "https://dc.lft.to/lastmile_qr_scan"}, "lat": 38.904135, "fusion_lon": 0.0, "fusion_lat": 0.0, "type": "electric_scooter", "bike_id": "7a6e64114624fecfe046202f2529d036", "lon": -77.06771516666667, "is_reserved": 0, "is_disabled": 0, "name": "7a6e64114624fecfe046202f2529d036"}, {"rental_uris": {"android": "https://dc.lft.to/lastmile_qr_scan", "ios": "https://dc.lft.to/lastmile_qr_scan"}, "lat": 38.90504466666667, "fusion_lon": 0.0, "fusion_lat": 0.0, "type": "electric_scooter", "bike_id": "b0dd69be26d478292515113a69f41180", "lon": -77.02945066666666, "is_reserved": 0, "is_disabled": 0, "name": "b0dd69be26d478292515113a69f41180"}, {"rental_uris": {"android": "https://dc.lft.to/lastmile_qr_scan", "ios": "https://dc.lft.to/lastmile_qr_scan"}, "lat": 38.89254666666667, "fusion_lon": 0.0, "fusion_lat": 0.0, "type": "electric_scooter", "bike_id": "9122f01623e1bd3cb7d38b2c7684ccfd", "lon": -77.04656083333333, "is_reserved": 0, "is_disabled": 0, "name": "9122f01623e1bd3cb7d38b2c7684ccfd"}, {"rental_uris": {"android": "https://dc.lft.to/lastmile_qr_scan", "ios": "https://dc.lft.to/lastmile_qr_scan"}, "lat": 38.891620333333336, "fusion_lon": 0.0, "fusion_lat": 0.0, "type": "electric_scooter", "bike_id": "c59290582b83b7294b84a897958589f9", "lon": -77.01500266666666, "is_reserved": 0, "is_disabled": 0, "name": "c59290582b83b7294b84a897958589f9"}, {"rental_uris": {"android": "https://dc.lft.to/lastmile_qr_scan", "ios": "https://dc.lft.to/lastmile_qr_scan"}, "lat": 38.92050583333334, "fusion_lon": 0.0, "fusion_lat": 0.0, "type": "electric_scooter", "bike_id": "92be4b2813fe4ac4c8ff50a6cc14ab67", "lon": -77.023613, "is_reserved": 0, "is_disabled": 0, "name": "92be4b2813fe4ac4c8ff50a6cc14ab67"}, {"rental_uris": {"android": "https://dc.lft.to/lastmile_qr_scan", "ios": "https://dc.lft.to/lastmile_qr_scan"}, "lat": 38.876323666666664, "fusion_lon": 0.0, "fusion_lat": 0.0, "type": "electric_scooter", "bike_id": "eff60359a43377434ff46e1aa5033345", "lon": -77.00378833333333, "is_reserved": 0, "is_disabled": 0, "name": "eff60359a43377434ff46e1aa5033345"}, {"rental_uris": {"android": "https://dc.lft.to/lastmile_qr_scan", "ios": "https://dc.lft.to/lastmile_qr_scan"}, "lat": 38.895914166666664, "fusion_lon": 0.0, "fusion_lat": 0.0, "type": "electric_scooter", "bike_id": "160a6bd0145e402c5aa64f53bf391b0e", "lon": -77.02695316666667, "is_reserved": 0, "is_disabled": 0, "name": "160a6bd0145e402c5aa64f53bf391b0e"}, {"rental_uris": {"android": "https://dc.lft.to/lastmile_qr_scan", "ios": "https://dc.lft.to/lastmile_qr_scan"}, "lat": 38.92416, "fusion_lon": 0.0, "fusion_lat": 0.0, "type": "electric_scooter", "bike_id": "cd462cf77ccb736329a2b142f7d75718", "lon": -77.02127616666667, "is_reserved": 0, "is_disabled": 0, "name": "cd462cf77ccb736329a2b142f7d75718"}, {"rental_uris": {"android": "https://dc.lft.to/lastmile_qr_scan", "ios": "https://dc.lft.to/lastmile_qr_scan"}, "lat": 38.91254766666667, "fusion_lon": 0.0, "fusion_lat": 0.0, "type": "electric_scooter", "bike_id": "7d515874f8ed966096795fbba0f6ce6e", "lon": -77.03691016666667, "is_reserved": 0, "is_disabled": 0, "name": "7d515874f8ed966096795fbba0f6ce6e"}, {"rental_uris": {"android": "https://dc.lft.to/lastmile_qr_scan", "ios": "https://dc.lft.to/lastmile_qr_scan"}, "lat": 38.9035325, "fusion_lon": 0.0, "fusion_lat": 0.0, "type": "electric_scooter", "bike_id": "c8d286f0b6781768ed3b61af68749f36", "lon": -77.024956, "is_reserved": 0, "is_disabled": 0, "name": "c8d286f0b6781768ed3b61af68749f36"}, {"rental_uris": {"android": "https://dc.lft.to/lastmile_qr_scan", "ios": "https://dc.lft.to/lastmile_qr_scan"}, "lat": 38.8988855, "fusion_lon": 0.0, "fusion_lat": 0.0, "type": "electric_scooter", "bike_id": "007345297f8140ffcdbb3debd53c8ef3", "lon": -77.04872783333333, "is_reserved": 0, "is_disabled": 0, "name": "007345297f8140ffcdbb3debd53c8ef3"}, {"rental_uris": {"android": "https://dc.lft.to/lastmile_qr_scan", "ios": "https://dc.lft.to/lastmile_qr_scan"}, "lat": 38.896337833333334, "fusion_lon": 0.0, "fusion_lat": 0.0, "type": "electric_scooter", "bike_id": "93fc8e956cd3e2b83be483c6716ebbf2", "lon": -77.0398405, "is_reserved": 0, "is_disabled": 0, "name": "93fc8e956cd3e2b83be483c6716ebbf2"}, {"rental_uris": {"android": "https://dc.lft.to/lastmile_qr_scan", "ios": "https://dc.lft.to/lastmile_qr_scan"}, "lat": 38.893680833333335, "fusion_lon": 0.0, "fusion_lat": 0.0, "type": "electric_scooter", "bike_id": "1acd8a6c3bd216d5c5d75b021a34577a", "lon": -77.03160166666666, "is_reserved": 0, "is_disabled": 0, "name": "1acd8a6c3bd216d5c5d75b021a34577a"}, {"rental_uris": {"android": "https://dc.lft.to/lastmile_qr_scan", "ios": "https://dc.lft.to/lastmile_qr_scan"}, "lat": 38.900155, "fusion_lon": 0.0, "fusion_lat": 0.0, "type": "electric_scooter", "bike_id": "9307221d5b424440bf72e892676004ea", "lon": -77.033347, "is_reserved": 0, "is_disabled": 0, "name": "9307221d5b424440bf72e892676004ea"}, {"rental_uris": {"android": "https://dc.lft.to/lastmile_qr_scan", "ios": "https://dc.lft.to/lastmile_qr_scan"}, "lat": 38.89020216666667, "fusion_lon": 0.0, "fusion_lat": 0.0, "type": "electric_scooter", "bike_id": "dc4ab064e632c04879094b7566771cb2", "lon": -76.9373225, "is_reserved": 0, "is_disabled": 0, "name": "dc4ab064e632c04879094b7566771cb2"}, {"rental_uris": {"android": "https://dc.lft.to/lastmile_qr_scan", "ios": "https://dc.lft.to/lastmile_qr_scan"}, "lat": 38.913371833333336, "fusion_lon": 0.0, "fusion_lat": 0.0, "type": "electric_scooter", "bike_id": "93dc607fbcf7315593e6490343fb4117", "lon": -77.00223566666666, "is_reserved": 0, "is_disabled": 0, "name": "93dc607fbcf7315593e6490343fb4117"}, {"rental_uris": {"android": "https://dc.lft.to/lastmile_qr_scan", "ios": "https://dc.lft.to/lastmile_qr_scan"}, "lat": 38.913442333333336, "fusion_lon": 0.0, "fusion_lat": 0.0, "type": "electric_scooter", "bike_id": "dcdc0a39bec81e0cb7383b5b964cab15", "lon": -77.00921516666666, "is_reserved": 0, "is_disabled": 0, "name": "dcdc0a39bec81e0cb7383b5b964cab15"}, {"rental_uris": {"android": "https://dc.lft.to/lastmile_qr_scan", "ios": "https://dc.lft.to/lastmile_qr_scan"}, "lat": 38.87323666666666, "fusion_lon": 0.0, "fusion_lat": 0.0, "type": "electric_bike", "bike_id": "d334cf382196ab1f99288abb54788c6f", "lon": -77.11410166666667, "is_reserved": 0, "is_disabled": 0, "name": "d334cf382196ab1f99288abb54788c6f"}, {"rental_uris": {"android": "https://dc.lft.to/lastmile_qr_scan", "ios": "https://dc.lft.to/lastmile_qr_scan"}, "lat": 38.93587483333334, "fusion_lon": 0.0, "fusion_lat": 0.0, "type": "electric_scooter", "bike_id": "f26d477711f4db6def97235ad92982e2", "lon": -77.05839266666666, "is_reserved": 0, "is_disabled": 0, "name": "f26d477711f4db6def97235ad92982e2"}, {"rental_uris": {"android": "https://dc.lft.to/lastmile_qr_scan", "ios": "https://dc.lft.to/lastmile_qr_scan"}, "lat": 38.8974605, "fusion_lon": 0.0, "fusion_lat": 0.0, "type": "electric_scooter", "bike_id": "820b5d576a0938de16c6ecb3bf4bf032", "lon": -77.04153716666667, "is_reserved": 0, "is_disabled": 0, "name": "820b5d576a0938de16c6ecb3bf4bf032"}, {"rental_uris": {"android": "https://dc.lft.to/lastmile_qr_scan", "ios": "https://dc.lft.to/lastmile_qr_scan"}, "lat": 38.893531333333335, "fusion_lon": 0.0, "fusion_lat": 0.0, "type": "electric_scooter", "bike_id": "246ffaac3ec19f0bde9d4ee2ceb0bc34", "lon": -77.00328683333333, "is_reserved": 0, "is_disabled": 0, "name": "246ffaac3ec19f0bde9d4ee2ceb0bc34"}, {"rental_uris": {"android": "https://dc.lft.to/lastmile_qr_scan", "ios": "https://dc.lft.to/lastmile_qr_scan"}, "lat": 39.001879, "fusion_lon": 0.0, "fusion_lat": 0.0, "type": "electric_bike", "bike_id": "10dddd1195e29203b05f11b1fa862e4f", "lon": -76.901843, "is_reserved": 0, "is_disabled": 0, "name": "10dddd1195e29203b05f11b1fa862e4f"}, {"rental_uris": {"android": "https://dc.lft.to/lastmile_qr_scan", "ios": "https://dc.lft.to/lastmile_qr_scan"}, "lat": 38.87388333333333, "fusion_lon": 0.0, "fusion_lat": 0.0, "type": "electric_scooter", "bike_id": "d930cf7cde8823c200910d0756cfdc5f", "lon": -77.0000865, "is_reserved": 0, "is_disabled": 0, "name": "d930cf7cde8823c200910d0756cfdc5f"}, {"rental_uris": {"android": "https://dc.lft.to/lastmile_qr_scan", "ios": "https://dc.lft.to/lastmile_qr_scan"}, "lat": 38.917444333333336, "fusion_lon": 0.0, "fusion_lat": 0.0, "type": "electric_scooter", "bike_id": "b248585fd9370e4566e12993b0dd3224", "lon": -77.0417125, "is_reserved": 0, "is_disabled": 0, "name": "b248585fd9370e4566e12993b0dd3224"}, {"rental_uris": {"android": "https://dc.lft.to/lastmile_qr_scan", "ios": "https://dc.lft.to/lastmile_qr_scan"}, "lat": 38.89907566666667, "fusion_lon": 0.0, "fusion_lat": 0.0, "type": "electric_scooter", "bike_id": "ae70ebf3119e5d471cde3cd1e3e057bc", "lon": -76.93387516666667, "is_reserved": 0, "is_disabled": 0, "name": "ae70ebf3119e5d471cde3cd1e3e057bc"}, {"rental_uris": {"android": "https://dc.lft.to/lastmile_qr_scan", "ios": "https://dc.lft.to/lastmile_qr_scan"}, "lat": 38.9025425, "fusion_lon": 0.0, "fusion_lat": 0.0, "type": "electric_scooter", "bike_id": "8528bbae143f1dfc4bdf29c209a6b4cb", "lon": -77.03829466666667, "is_reserved": 0, "is_disabled": 0, "name": "8528bbae143f1dfc4bdf29c209a6b4cb"}, {"rental_uris": {"android": "https://dc.lft.to/lastmile_qr_scan", "ios": "https://dc.lft.to/lastmile_qr_scan"}, "lat": 38.914333666666664, "fusion_lon": 0.0, "fusion_lat": 0.0, "type": "electric_scooter", "bike_id": "3a4aa45f6dc45c39a827fa8236378482", "lon": -77.02178533333333, "is_reserved": 0, "is_disabled": 0, "name": "3a4aa45f6dc45c39a827fa8236378482"}, {"rental_uris": {"android": "https://dc.lft.to/lastmile_qr_scan", "ios": "https://dc.lft.to/lastmile_qr_scan"}, "lat": 38.89405466666667, "fusion_lon": 0.0, "fusion_lat": 0.0, "type": "electric_scooter", "bike_id": "06e9fd52d428488fc6d6ef515f8ba26c", "lon": -77.02206866666667, "is_reserved": 0, "is_disabled": 0, "name": "06e9fd52d428488fc6d6ef515f8ba26c"}, {"rental_uris": {"android": "https://dc.lft.to/lastmile_qr_scan", "ios": "https://dc.lft.to/lastmile_qr_scan"}, "lat": 38.92061916666667, "fusion_lon": 0.0, "fusion_lat": 0.0, "type": "electric_scooter", "bike_id": "831ebe3d5127a63f73ffbc446938ff2a", "lon": -77.02293433333334, "is_reserved": 0, "is_disabled": 0, "name": "831ebe3d5127a63f73ffbc446938ff2a"}, {"rental_uris": {"android": "https://dc.lft.to/lastmile_qr_scan", "ios": "https://dc.lft.to/lastmile_qr_scan"}, "lat": 38.92317466666667, "fusion_lon": 0.0, "fusion_lat": 0.0, "type": "electric_scooter", "bike_id": "c96a6d9b15c2c9d7065f2f95bf948807", "lon": -77.043347, "is_reserved": 0, "is_disabled": 0, "name": "c96a6d9b15c2c9d7065f2f95bf948807"}, {"rental_uris": {"android": "https://dc.lft.to/lastmile_qr_scan", "ios": "https://dc.lft.to/lastmile_qr_scan"}, "lat": 38.891975, "fusion_lon": 0.0, "fusion_lat": 0.0, "type": "electric_scooter", "bike_id": "2c2a61ca7e43794a2664fc9e02cd470d", "lon": -77.00289583333333, "is_reserved": 0, "is_disabled": 0, "name": "2c2a61ca7e43794a2664fc9e02cd470d"}, {"rental_uris": {"android": "https://dc.lft.to/lastmile_qr_scan", "ios": "https://dc.lft.to/lastmile_qr_scan"}, "lat": 38.919139666666666, "fusion_lon": 0.0, "fusion_lat": 0.0, "type": "electric_scooter", "bike_id": "2a24f1f3014b8eec352922de8a11b07d", "lon": -77.03182833333334, "is_reserved": 0, "is_disabled": 0, "name": "2a24f1f3014b8eec352922de8a11b07d"}, {"rental_uris": {"android": "https://dc.lft.to/lastmile_qr_scan", "ios": "https://dc.lft.to/lastmile_qr_scan"}, "lat": 38.892225833333335, "fusion_lon": 0.0, "fusion_lat": 0.0, "type": "electric_scooter", "bike_id": "6d328e573d761507f03f6b24180585d5", "lon": -77.027656, "is_reserved": 0, "is_disabled": 0, "name": "6d328e573d761507f03f6b24180585d5"}, {"rental_uris": {"android": "https://dc.lft.to/lastmile_qr_scan", "ios": "https://dc.lft.to/lastmile_qr_scan"}, "lat": 38.871464833333334, "fusion_lon": 0.0, "fusion_lat": 0.0, "type": "electric_scooter", "bike_id": "1a440dcae8ac309cae40c303c0a92a6e", "lon": -76.97731816666666, "is_reserved": 0, "is_disabled": 0, "name": "1a440dcae8ac309cae40c303c0a92a6e"}, {"rental_uris": {"android": "https://dc.lft.to/lastmile_qr_scan", "ios": "https://dc.lft.to/lastmile_qr_scan"}, "lat": 38.89343383333333, "fusion_lon": 0.0, "fusion_lat": 0.0, "type": "electric_scooter", "bike_id": "6e6100811ad693ca2c9aa429d7902aa3", "lon": -77.00203683333334, "is_reserved": 0, "is_disabled": 0, "name": "6e6100811ad693ca2c9aa429d7902aa3"}, {"rental_uris": {"android": "https://dc.lft.to/lastmile_qr_scan", "ios": "https://dc.lft.to/lastmile_qr_scan"}, "lat": 38.8980695, "fusion_lon": 0.0, "fusion_lat": 0.0, "type": "electric_scooter", "bike_id": "a0badba90b6c470a9411a0b75911de87", "lon": -77.04896883333333, "is_reserved": 0, "is_disabled": 0, "name": "a0badba90b6c470a9411a0b75911de87"}, {"rental_uris": {"android": "https://dc.lft.to/lastmile_qr_scan", "ios": "https://dc.lft.to/lastmile_qr_scan"}, "lat": 38.915176333333335, "fusion_lon": 0.0, "fusion_lat": 0.0, "type": "electric_scooter", "bike_id": "a70e4f7cd98f0c85443b3b9cb87db5de", "lon": -77.0344815, "is_reserved": 0, "is_disabled": 0, "name": "a70e4f7cd98f0c85443b3b9cb87db5de"}, {"rental_uris": {"android": "https://dc.lft.to/lastmile_qr_scan", "ios": "https://dc.lft.to/lastmile_qr_scan"}, "lat": 38.898284333333336, "fusion_lon": 0.0, "fusion_lat": 0.0, "type": "electric_scooter", "bike_id": "151cb4138e45f2c4a104902b467e979a", "lon": -77.043727, "is_reserved": 0, "is_disabled": 0, "name": "151cb4138e45f2c4a104902b467e979a"}, {"rental_uris": {"android": "https://dc.lft.to/lastmile_qr_scan", "ios": "https://dc.lft.to/lastmile_qr_scan"}, "lat": 38.876878166666664, "fusion_lon": 0.0, "fusion_lat": 0.0, "type": "electric_scooter", "bike_id": "d55dbbac17212cd079c5d69d33adbd93", "lon": -77.00045783333333, "is_reserved": 0, "is_disabled": 0, "name": "d55dbbac17212cd079c5d69d33adbd93"}, {"rental_uris": {"android": "https://dc.lft.to/lastmile_qr_scan", "ios": "https://dc.lft.to/lastmile_qr_scan"}, "lat": 38.920732666666666, "fusion_lon": 0.0, "fusion_lat": 0.0, "type": "electric_scooter", "bike_id": "a5e841783e3706e9d448487129bd7287", "lon": -77.02310333333334, "is_reserved": 0, "is_disabled": 0, "name": "a5e841783e3706e9d448487129bd7287"}, {"rental_uris": {"android": "https://dc.lft.to/lastmile_qr_scan", "ios": "https://dc.lft.to/lastmile_qr_scan"}, "lat": 38.886021, "fusion_lon": 0.0, "fusion_lat": 0.0, "type": "electric_scooter", "bike_id": "08e3da8be40532bf9a21fe551b373474", "lon": -76.92507, "is_reserved": 0, "is_disabled": 0, "name": "08e3da8be40532bf9a21fe551b373474"}, {"rental_uris": {"android": "https://dc.lft.to/lastmile_qr_scan", "ios": "https://dc.lft.to/lastmile_qr_scan"}, "lat": 38.903450166666666, "fusion_lon": 0.0, "fusion_lat": 0.0, "type": "electric_scooter", "bike_id": "e9b38ed38d6491cc4b0cd71ed32c8975", "lon": -76.98131883333333, "is_reserved": 0, "is_disabled": 0, "name": "e9b38ed38d6491cc4b0cd71ed32c8975"}, {"rental_uris": {"android": "https://dc.lft.to/lastmile_qr_scan", "ios": "https://dc.lft.to/lastmile_qr_scan"}, "lat": 38.916680166666666, "fusion_lon": 0.0, "fusion_lat": 0.0, "type": "electric_scooter", "bike_id": "6b2b954b5c56a0245375cc7a9a23daf1", "lon": -77.056996, "is_reserved": 0, "is_disabled": 0, "name": "6b2b954b5c56a0245375cc7a9a23daf1"}, {"rental_uris": {"android": "https://dc.lft.to/lastmile_qr_scan", "ios": "https://dc.lft.to/lastmile_qr_scan"}, "lat": 38.956159166666666, "fusion_lon": 0.0, "fusion_lat": 0.0, "type": "electric_scooter", "bike_id": "d5e672c96f39ac0974b258737ec3c9d8", "lon": -77.02760283333333, "is_reserved": 0, "is_disabled": 0, "name": "d5e672c96f39ac0974b258737ec3c9d8"}, {"rental_uris": {"android": "https://dc.lft.to/lastmile_qr_scan", "ios": "https://dc.lft.to/lastmile_qr_scan"}, "lat": 38.877097666666664, "fusion_lon": 0.0, "fusion_lat": 0.0, "type": "electric_scooter", "bike_id": "c0d9c25cca26992f7029281526e5aa08", "lon": -77.01833483333333, "is_reserved": 0, "is_disabled": 0, "name": "c0d9c25cca26992f7029281526e5aa08"}, {"rental_uris": {"android": "https://dc.lft.to/lastmile_qr_scan", "ios": "https://dc.lft.to/lastmile_qr_scan"}, "lat": 38.88090666666667, "fusion_lon": 0.0, "fusion_lat": 0.0, "type": "electric_scooter", "bike_id": "9fae9cf3c686952782b077d6c9e7fd84", "lon": -76.9949685, "is_reserved": 0, "is_disabled": 0, "name": "9fae9cf3c686952782b077d6c9e7fd84"}, {"rental_uris": {"android": "https://dc.lft.to/lastmile_qr_scan", "ios": "https://dc.lft.to/lastmile_qr_scan"}, "lat": 38.89711, "fusion_lon": 0.0, "fusion_lat": 0.0, "type": "electric_scooter", "bike_id": "028f3105e7514799df86c19960b01467", "lon": -77.00363566666667, "is_reserved": 0, "is_disabled": 0, "name": "028f3105e7514799df86c19960b01467"}, {"rental_uris": {"android": "https://dc.lft.to/lastmile_qr_scan", "ios": "https://dc.lft.to/lastmile_qr_scan"}, "lat": 38.9224065, "fusion_lon": 0.0, "fusion_lat": 0.0, "type": "electric_scooter", "bike_id": "f5eed2adb773f40827992c53d2dbde2b", "lon": -77.0281405, "is_reserved": 0, "is_disabled": 0, "name": "f5eed2adb773f40827992c53d2dbde2b"}, {"rental_uris": {"android": "https://dc.lft.to/lastmile_qr_scan", "ios": "https://dc.lft.to/lastmile_qr_scan"}, "lat": 38.944415, "fusion_lon": 0.0, "fusion_lat": 0.0, "type": "electric_scooter", "bike_id": "395526fdb52e097ae8b70b976e0b4282", "lon": -77.029152, "is_reserved": 0, "is_disabled": 0, "name": "395526fdb52e097ae8b70b976e0b4282"}, {"rental_uris": {"android": "https://dc.lft.to/lastmile_qr_scan", "ios": "https://dc.lft.to/lastmile_qr_scan"}, "lat": 38.901407666666664, "fusion_lon": 0.0, "fusion_lat": 0.0, "type": "electric_scooter", "bike_id": "06a00b93821a9f400957400baedbdc49", "lon": -76.99606266666666, "is_reserved": 0, "is_disabled": 0, "name": "06a00b93821a9f400957400baedbdc49"}, {"rental_uris": {"android": "https://dc.lft.to/lastmile_qr_scan", "ios": "https://dc.lft.to/lastmile_qr_scan"}, "lat": 38.892196, "fusion_lon": 0.0, "fusion_lat": 0.0, "type": "electric_scooter", "bike_id": "67d48b15dce3be9e701bf7327632db3b", "lon": -77.0253455, "is_reserved": 0, "is_disabled": 0, "name": "67d48b15dce3be9e701bf7327632db3b"}, {"rental_uris": {"android": "https://dc.lft.to/lastmile_qr_scan", "ios": "https://dc.lft.to/lastmile_qr_scan"}, "lat": 38.9051325, "fusion_lon": 0.0, "fusion_lat": 0.0, "type": "electric_scooter", "bike_id": "11ffa9d6cdb9b0cf02f8d8f0b5f1b72d", "lon": -77.03076833333333, "is_reserved": 0, "is_disabled": 0, "name": "11ffa9d6cdb9b0cf02f8d8f0b5f1b72d"}, {"rental_uris": {"android": "https://dc.lft.to/lastmile_qr_scan", "ios": "https://dc.lft.to/lastmile_qr_scan"}, "lat": 38.89871566666667, "fusion_lon": 0.0, "fusion_lat": 0.0, "type": "electric_scooter", "bike_id": "11b3b18c694c231c4136a3caffcf2529", "lon": -77.0406435, "is_reserved": 0, "is_disabled": 0, "name": "11b3b18c694c231c4136a3caffcf2529"}, {"rental_uris": {"android": "https://dc.lft.to/lastmile_qr_scan", "ios": "https://dc.lft.to/lastmile_qr_scan"}, "lat": 38.905186666666665, "fusion_lon": 0.0, "fusion_lat": 0.0, "type": "electric_scooter", "bike_id": "22ee6f5e3e8beec0a563b1a35a7f5f37", "lon": -77.06870133333334, "is_reserved": 0, "is_disabled": 0, "name": "22ee6f5e3e8beec0a563b1a35a7f5f37"}, {"rental_uris": {"android": "https://dc.lft.to/lastmile_qr_scan", "ios": "https://dc.lft.to/lastmile_qr_scan"}, "lat": 38.89747466666667, "fusion_lon": 0.0, "fusion_lat": 0.0, "type": "electric_scooter", "bike_id": "2dc94219550e07bacb5e52c1adaeb2eb", "lon": -77.01358366666666, "is_reserved": 0, "is_disabled": 0, "name": "2dc94219550e07bacb5e52c1adaeb2eb"}, {"rental_uris": {"android": "https://dc.lft.to/lastmile_qr_scan", "ios": "https://dc.lft.to/lastmile_qr_scan"}, "lat": 38.876648833333334, "fusion_lon": 0.0, "fusion_lat": 0.0, "type": "electric_scooter", "bike_id": "f49f00d89e20613835819dbb583f1a99", "lon": -77.00571483333333, "is_reserved": 0, "is_disabled": 0, "name": "f49f00d89e20613835819dbb583f1a99"}, {"rental_uris": {"android": "https://dc.lft.to/lastmile_qr_scan", "ios": "https://dc.lft.to/lastmile_qr_scan"}, "lat": 38.911107, "fusion_lon": 0.0, "fusion_lat": 0.0, "type": "electric_scooter", "bike_id": "3a8057ef1d3eea9c4cc94b9e18fcdf1b", "lon": -77.03139116666667, "is_reserved": 0, "is_disabled": 0, "name": "3a8057ef1d3eea9c4cc94b9e18fcdf1b"}, {"rental_uris": {"android": "https://dc.lft.to/lastmile_qr_scan", "ios": "https://dc.lft.to/lastmile_qr_scan"}, "lat": 38.884310166666666, "fusion_lon": 0.0, "fusion_lat": 0.0, "type": "electric_scooter", "bike_id": "b7757187368e6b5a98367a11a2726937", "lon": -77.02788283333334, "is_reserved": 0, "is_disabled": 0, "name": "b7757187368e6b5a98367a11a2726937"}, {"rental_uris": {"android": "https://dc.lft.to/lastmile_qr_scan", "ios": "https://dc.lft.to/lastmile_qr_scan"}, "lat": 38.926056333333335, "fusion_lon": 0.0, "fusion_lat": 0.0, "type": "electric_scooter", "bike_id": "d6537e981866ae5b8aefb3ccf46f8965", "lon": -77.02151, "is_reserved": 0, "is_disabled": 0, "name": "d6537e981866ae5b8aefb3ccf46f8965"}, {"rental_uris": {"android": "https://dc.lft.to/lastmile_qr_scan", "ios": "https://dc.lft.to/lastmile_qr_scan"}, "lat": 38.896125, "fusion_lon": 0.0, "fusion_lat": 0.0, "type": "electric_scooter", "bike_id": "bb82c2bba0e67d0ca572ce66093c9d09", "lon": -77.04598583333333, "is_reserved": 0, "is_disabled": 0, "name": "bb82c2bba0e67d0ca572ce66093c9d09"}, {"rental_uris": {"android": "https://dc.lft.to/lastmile_qr_scan", "ios": "https://dc.lft.to/lastmile_qr_scan"}, "lat": 38.924293666666664, "fusion_lon": 0.0, "fusion_lat": 0.0, "type": "electric_scooter", "bike_id": "089ddbf4c197806f2f16982b0324e3e5", "lon": -77.01945166666667, "is_reserved": 0, "is_disabled": 0, "name": "089ddbf4c197806f2f16982b0324e3e5"}, {"rental_uris": {"android": "https://dc.lft.to/lastmile_qr_scan", "ios": "https://dc.lft.to/lastmile_qr_scan"}, "lat": 38.922474333333334, "fusion_lon": 0.0, "fusion_lat": 0.0, "type": "electric_scooter", "bike_id": "3ed643e426d503f4844fa7f231ca76ec", "lon": -77.07473033333333, "is_reserved": 0, "is_disabled": 0, "name": "3ed643e426d503f4844fa7f231ca76ec"}, {"rental_uris": {"android": "https://dc.lft.to/lastmile_qr_scan", "ios": "https://dc.lft.to/lastmile_qr_scan"}, "lat": 38.9288805, "fusion_lon": 0.0, "fusion_lat": 0.0, "type": "electric_scooter", "bike_id": "b937332df652ca1dd07e007f9d601013", "lon": -77.040785, "is_reserved": 0, "is_disabled": 0, "name": "b937332df652ca1dd07e007f9d601013"}, {"rental_uris": {"android": "https://dc.lft.to/lastmile_qr_scan", "ios": "https://dc.lft.to/lastmile_qr_scan"}, "lat": 38.90300633333333, "fusion_lon": 0.0, "fusion_lat": 0.0, "type": "electric_scooter", "bike_id": "09e3f0ccd0d590e1d76ce79711375f61", "lon": -77.03663866666666, "is_reserved": 0, "is_disabled": 0, "name": "09e3f0ccd0d590e1d76ce79711375f61"}, {"rental_uris": {"android": "https://dc.lft.to/lastmile_qr_scan", "ios": "https://dc.lft.to/lastmile_qr_scan"}, "lat": 38.926088, "fusion_lon": 0.0, "fusion_lat": 0.0, "type": "electric_scooter", "bike_id": "33814ed95e422c196ad84fe93103c171", "lon": -77.02159683333333, "is_reserved": 0, "is_disabled": 0, "name": "33814ed95e422c196ad84fe93103c171"}, {"rental_uris": {"android": "https://dc.lft.to/lastmile_qr_scan", "ios": "https://dc.lft.to/lastmile_qr_scan"}, "lat": 38.91332366666666, "fusion_lon": 0.0, "fusion_lat": 0.0, "type": "electric_scooter", "bike_id": "320be10f565e021440923c6909d848c6", "lon": -77.03188533333334, "is_reserved": 0, "is_disabled": 0, "name": "320be10f565e021440923c6909d848c6"}, {"rental_uris": {"android": "https://dc.lft.to/lastmile_qr_scan", "ios": "https://dc.lft.to/lastmile_qr_scan"}, "lat": 38.92094216666667, "fusion_lon": 0.0, "fusion_lat": 0.0, "type": "electric_scooter", "bike_id": "d5751fe66873fadc0dda4ac1f8607d01", "lon": -77.02507716666666, "is_reserved": 0, "is_disabled": 0, "name": "d5751fe66873fadc0dda4ac1f8607d01"}, {"rental_uris": {"android": "https://dc.lft.to/lastmile_qr_scan", "ios": "https://dc.lft.to/lastmile_qr_scan"}, "lat": 38.90411916666667, "fusion_lon": 0.0, "fusion_lat": 0.0, "type": "electric_scooter", "bike_id": "f7c5609d2b5790f83877520bc1a2fc3d", "lon": -76.973366, "is_reserved": 0, "is_disabled": 0, "name": "f7c5609d2b5790f83877520bc1a2fc3d"}, {"rental_uris": {"android": "https://dc.lft.to/lastmile_qr_scan", "ios": "https://dc.lft.to/lastmile_qr_scan"}, "lat": 38.910401666666665, "fusion_lon": 0.0, "fusion_lat": 0.0, "type": "electric_scooter", "bike_id": "fd54db319cc6ad70c0a4368e00cbda4c", "lon": -77.01371466666667, "is_reserved": 0, "is_disabled": 0, "name": "fd54db319cc6ad70c0a4368e00cbda4c"}, {"rental_uris": {"android": "https://dc.lft.to/lastmile_qr_scan", "ios": "https://dc.lft.to/lastmile_qr_scan"}, "lat": 38.94738183333333, "fusion_lon": 0.0, "fusion_lat": 0.0, "type": "electric_scooter", "bike_id": "eb90082cb046847edfb6c61d804fae39", "lon": -77.02364816666666, "is_reserved": 0, "is_disabled": 0, "name": "eb90082cb046847edfb6c61d804fae39"}, {"rental_uris": {"android": "https://dc.lft.to/lastmile_qr_scan", "ios": "https://dc.lft.to/lastmile_qr_scan"}, "lat": 38.90466266666667, "fusion_lon": 0.0, "fusion_lat": 0.0, "type": "electric_scooter", "bike_id": "c511fb1797112f5f1a760d6774a70cae", "lon": -77.02954133333333, "is_reserved": 0, "is_disabled": 0, "name": "c511fb1797112f5f1a760d6774a70cae"}, {"rental_uris": {"android": "https://dc.lft.to/lastmile_qr_scan", "ios": "https://dc.lft.to/lastmile_qr_scan"}, "lat": 38.92198833333333, "fusion_lon": 0.0, "fusion_lat": 0.0, "type": "electric_scooter", "bike_id": "c362a9827c0c7e06fa5763f997783d1b", "lon": -77.04011333333334, "is_reserved": 0, "is_disabled": 0, "name": "c362a9827c0c7e06fa5763f997783d1b"}, {"rental_uris": {"android": "https://dc.lft.to/lastmile_qr_scan", "ios": "https://dc.lft.to/lastmile_qr_scan"}, "lat": 38.9168915, "fusion_lon": 0.0, "fusion_lat": 0.0, "type": "electric_scooter", "bike_id": "3684c63a5bdf16de4a4999066aebf9bc", "lon": -77.038207, "is_reserved": 0, "is_disabled": 0, "name": "3684c63a5bdf16de4a4999066aebf9bc"}, {"rental_uris": {"android": "https://dc.lft.to/lastmile_qr_scan", "ios": "https://dc.lft.to/lastmile_qr_scan"}, "lat": 38.912028166666666, "fusion_lon": 0.0, "fusion_lat": 0.0, "type": "electric_scooter", "bike_id": "94ba3f5af5df12a2be29fdd03c89205a", "lon": -77.07307033333333, "is_reserved": 0, "is_disabled": 0, "name": "94ba3f5af5df12a2be29fdd03c89205a"}, {"rental_uris": {"android": "https://dc.lft.to/lastmile_qr_scan", "ios": "https://dc.lft.to/lastmile_qr_scan"}, "lat": 38.909509666666665, "fusion_lon": 0.0, "fusion_lat": 0.0, "type": "electric_scooter", "bike_id": "9d358a08ffb7eaadbc3dd5fa570b0e33", "lon": -77.00891183333333, "is_reserved": 0, "is_disabled": 0, "name": "9d358a08ffb7eaadbc3dd5fa570b0e33"}, {"rental_uris": {"android": "https://dc.lft.to/lastmile_qr_scan", "ios": "https://dc.lft.to/lastmile_qr_scan"}, "lat": 38.96647183333333, "fusion_lon": 0.0, "fusion_lat": 0.0, "type": "electric_scooter", "bike_id": "fa7c01f186a915625a6ab73bc31e6268", "lon": -77.02743633333333, "is_reserved": 0, "is_disabled": 0, "name": "fa7c01f186a915625a6ab73bc31e6268"}, {"rental_uris": {"android": "https://dc.lft.to/lastmile_qr_scan", "ios": "https://dc.lft.to/lastmile_qr_scan"}, "lat": 38.865160833333334, "fusion_lon": 0.0, "fusion_lat": 0.0, "type": "electric_scooter", "bike_id": "cf1d9e2f8acad09739a2fdca135b6b03", "lon": -76.990174, "is_reserved": 0, "is_disabled": 0, "name": "cf1d9e2f8acad09739a2fdca135b6b03"}, {"rental_uris": {"android": "https://dc.lft.to/lastmile_qr_scan", "ios": "https://dc.lft.to/lastmile_qr_scan"}, "lat": 38.900658, "fusion_lon": 0.0, "fusion_lat": 0.0, "type": "electric_scooter", "bike_id": "3c5f4d9bc578f7555f4d6a5830d684a6", "lon": -77.04170383333333, "is_reserved": 0, "is_disabled": 0, "name": "3c5f4d9bc578f7555f4d6a5830d684a6"},