{"data": {"bikes": [{"fusion_lat": 0.0, "name": "275e9d6a5f545b44277558336a14c548", "is_disabled": 0, "rental_uris": {"android": "https://dc.lft.to/lastmile_qr_scan", "ios": "https://dc.lft.to/lastmile_qr_scan"}, "fusion_lon": 0.0, "lat": 38.92523333333333, "bike_id": "275e9d6a5f545b44277558336a14c548", "type": "electric_scooter", "is_reserved": 0, "lon": -77.05044483333333}, {"fusion_lat": 0.0, "name": "bc8ad59e366ef16b152a9eb1aebe0f0d", "is_disabled": 0, "rental_uris": {"android": "https://dc.lft.to/lastmile_qr_scan", "ios": "https://dc.lft.to/lastmile_qr_scan"}, "fusion_lon": 0.0, "lat": 38.9063835, "bike_id": "bc8ad59e366ef16b152a9eb1aebe0f0d", "type": "electric_scooter", "is_reserved": 0, "lon": -77.00585283333334}, {"fusion_lat": 0.0, "name": "7ee7a8989041c570f7a207e65c71dab2", "is_disabled": 0, "rental_uris": {"android": "https://dc.lft.to/lastmile_qr_scan", "ios": "https://dc.lft.to/lastmile_qr_scan"}, "fusion_lon": 0.0, "lat": 38.890201166666664, "bike_id": "7ee7a8989041c570f7a207e65c71dab2", "type": "electric_scooter", "is_reserved": 0, "lon": -76.93735533333333}, {"fusion_lat": 0.0, "name": "af210926d2585e7c27a1ab471697cc70", "is_disabled": 0, "rental_uris": {"android": "https://dc.lft.to/lastmile_qr_scan", "ios": "https://dc.lft.to/lastmile_qr_scan"}, "fusion_lon": 0.0, "lat": 38.908130166666666, "bike_id": "af210926d2585e7c27a1ab471697cc70", "type": "electric_scooter", "is_reserved": 0, "lon": -77.04151283333333}, {"fusion_lat": 0.0, "name": "bf6088ec6c3fc001179955907b62d681", "is_disabled": 0, "rental_uris": {"android": "https://dc.lft.to/lastmile_qr_scan", "ios": "https://dc.lft.to/lastmile_qr_scan"}, "fusion_lon": 0.0, "lat": 38.932043, "bike_id": "bf6088ec6c3fc001179955907b62d681", "type": "electric_scooter", "is_reserved": 0, "lon": -77.034972}, {"fusion_lat": 0.0, "name": "ee8c82b5c67b2fac78e297a31e431925", "is_disabled": 0, "rental_uris": {"android": "https://dc.lft.to/lastmile_qr_scan", "ios": "https://dc.lft.to/lastmile_qr_scan"}, "fusion_lon": 0.0, "lat": 38.92107883333333, "bike_id": "ee8c82b5c67b2fac78e297a31e431925", "type": "electric_scooter", "is_reserved": 0, "lon": -77.0317715}, {"fusion_lat": 0.0, "name": "6cce4fd10387eb0a59485577d18b5ae3", "is_disabled": 0, "rental_uris": {"android": "https://dc.lft.to/lastmile_qr_scan", "ios": "https://dc.lft.to/lastmile_qr_scan"}, "fusion_lon": 0.0, "lat": 38.92142316666666, "bike_id": "6cce4fd10387eb0a59485577d18b5ae3", "type": "electric_scooter", "is_reserved": 0, "lon": -77.019323}, {"fusion_lat": 0.0, "name": "e8b07c3a9349d4df21e7efa79ca64c62", "is_disabled": 0, "rental_uris": {"android": "https://dc.lft.to/lastmile_qr_scan", "ios": "https://dc.lft.to/lastmile_qr_scan"}, "fusion_lon": 0.0, "lat": 38.9054335, "bike_id": "e8b07c3a9349d4df21e7efa79ca64c62", "type": "electric_scooter", "is_reserved": 0, "lon": -77.029235}, {"fusion_lat": 0.0, "name": "e1ea4cea60a692a32fab584f71ce35c0", "is_disabled": 0, "rental_uris": {"android": "https://dc.lft.to/lastmile_qr_scan", "ios": "https://dc.lft.to/lastmile_qr_scan"}, "fusion_lon": 0.0, "lat": 38.9048775, "bike_id": "e1ea4cea60a692a32fab584f71ce35c0", "type": "electric_scooter", "is_reserved": 0, "lon": -77.02962666666667}, {"fusion_lat": 0.0, "name": "e1d7e6f9106340a24f6b04a4c10e1a8d", "is_disabled": 0, "rental_uris": {"android": "https://dc.lft.to/lastmile_qr_scan", "ios": "https://dc.lft.to/lastmile_qr_scan"}, "fusion_lon": 0.0, "lat": 38.9071245, "bike_id": "e1d7e6f9106340a24f6b04a4c10e1a8d", "type": "electric_scooter", "is_reserved": 0, "lon": -77.023836}, {"fusion_lat": 0.0, "name": "92755b8e2309c4eef070ee9338b8735a", "is_disabled": 0, "rental_uris": {"android": "https://dc.lft.to/lastmile_qr_scan", "ios": "https://dc.lft.to/lastmile_qr_scan"}, "fusion_lon": 0.0, "lat": 38.908662666666665, "bike_id": "92755b8e2309c4eef070ee9338b8735a", "type": "electric_scooter", "is_reserved": 0, "lon": -77.02349183333334}, {"fusion_lat": 0.0, "name": "f057b50163a7a58421d3bed3ca49bf42", "is_disabled": 0, "rental_uris": {"android": "https://dc.lft.to/lastmile_qr_scan", "ios": "https://dc.lft.to/lastmile_qr_scan"}, "fusion_lon": 0.0, "lat": 38.927680333333335, "bike_id": "f057b50163a7a58421d3bed3ca49bf42", "type": "electric_scooter", "is_reserved": 0, "lon": -77.05248033333334}, {"fusion_lat": 0.0, "name": "af8f99cc3cf2a72f3d03239bd3742130", "is_disabled": 0, "rental_uris": {"android": "https://dc.lft.to/lastmile_qr_scan", "ios": "https://dc.lft.to/lastmile_qr_scan"}, "fusion_lon": 0.0, "lat": 38.901173, "bike_id": "af8f99cc3cf2a72f3d03239bd3742130", "type": "electric_scooter", "is_reserved": 0, "lon": -77.02600733333334}, {"fusion_lat": 0.0, "name": "87ca65e45b5c87b22417719710600f10", "is_disabled": 0, "rental_uris": {"android": "https://dc.lft.to/lastmile_qr_scan", "ios": "https://dc.lft.to/lastmile_qr_scan"}, "fusion_lon": 0.0, "lat": 38.9198385, "bike_id": "87ca65e45b5c87b22417719710600f10", "type": "electric_scooter", "is_reserved": 0, "lon": -77.02370366666666}, {"fusion_lat": 0.0, "name": "fe716dcc422f4b9c296f3f1c727680de", "is_disabled": 0, "rental_uris": {"android": "https://dc.lft.to/lastmile_qr_scan", "ios": "https://dc.lft.to/lastmile_qr_scan"}, "fusion_lon": 0.0, "lat": 38.9375635, "bike_id": "fe716dcc422f4b9c296f3f1c727680de", "type": "electric_scooter", "is_reserved": 0, "lon": -77.03254916666667}, {"fusion_lat": 0.0, "name": "b959eeafcd119e72fa1ca6fa91851f62", "is_disabled": 0, "rental_uris": {"android": "https://dc.lft.to/lastmile_qr_scan", "ios": "https://dc.lft.to/lastmile_qr_scan"}, "fusion_lon": 0.0, "lat": 38.927886, "bike_id": "b959eeafcd119e72fa1ca6fa91851f62", "type": "electric_scooter", "is_reserved": 0, "lon": -77.05316233333333}, {"fusion_lat": 0.0, "name": "5c80ee2d3e7f99ea2a61714dfd8e15ff", "is_disabled": 0, "rental_uris": {"android": "https://dc.lft.to/lastmile_qr_scan", "ios": "https://dc.lft.to/lastmile_qr_scan"}, "fusion_lon": 0.0, "lat": 38.924712166666666, "bike_id": "5c80ee2d3e7f99ea2a61714dfd8e15ff", "type": "electric_bike", "is_reserved": 0, "lon": -77.2334465}, {"fusion_lat": 0.0, "name": "6913714b40b23c907417bba46dd27030", "is_disabled": 0, "rental_uris": {"android": "https://dc.lft.to/lastmile_qr_scan", "ios": "https://dc.lft.to/lastmile_qr_scan"}, "fusion_lon": 0.0, "lat": 38.9067175, "bike_id": "6913714b40b23c907417bba46dd27030", "type": "electric_scooter", "is_reserved": 0, "lon": -77.027005}, {"fusion_lat": 0.0, "name": "91b874932c4075c4ce5adaa6135963c8", "is_disabled": 0, "rental_uris": {"android": "https://dc.lft.to/lastmile_qr_scan", "ios": "https://dc.lft.to/lastmile_qr_scan"}, "fusion_lon": 0.0, "lat": 38.91036316666667, "bike_id": "91b874932c4075c4ce5adaa6135963c8", "type": "electric_scooter", "is_reserved": 0, "lon": -77.042764}, {"fusion_lat": 0.0, "name": "fb9eb1ca702aae5c151d184451b66929", "is_disabled": 0, "rental_uris": {"android": "https://dc.lft.to/lastmile_qr_scan", "ios": "https://dc.lft.to/lastmile_qr_scan"}, "fusion_lon": 0.0, "lat": 38.932665, "bike_id": "fb9eb1ca702aae5c151d184451b66929", "type": "electric_scooter", "is_reserved": 0, "lon": -77.01916816666666}, {"fusion_lat": 0.0, "name": "b25e42597398ab867aeb69e9430b3f36", "is_disabled": 0, "rental_uris": {"android": "https://dc.lft.to/lastmile_qr_scan", "ios": "https://dc.lft.to/lastmile_qr_scan"}, "fusion_lon": 0.0, "lat": 38.9009575, "bike_id": "b25e42597398ab867aeb69e9430b3f36", "type": "electric_scooter", "is_reserved": 0, "lon": -77.05695283333333}, {"fusion_lat": 0.0, "name": "8e8022f2e19b4b3921e2f4ca5428fa71", "is_disabled": 0, "rental_uris": {"android": "https://dc.lft.to/lastmile_qr_scan", "ios": "https://dc.lft.to/lastmile_qr_scan"}, "fusion_lon": 0.0, "lat": 38.918837, "bike_id": "8e8022f2e19b4b3921e2f4ca5428fa71", "type": "electric_scooter", "is_reserved": 0, "lon": -77.03505666666666}, {"fusion_lat": 0.0, "name": "acf4c5107bed602bf8835bf98af68d0b", "is_disabled": 0, "rental_uris": {"android": "https://dc.lft.to/lastmile_qr_scan", "ios": "https://dc.lft.to/lastmile_qr_scan"}, "fusion_lon": 0.0, "lat": 38.907367, "bike_id": "acf4c5107bed602bf8835bf98af68d0b", "type": "electric_scooter", "is_reserved": 0, "lon": -77.029509}, {"fusion_lat": 0.0, "name": "e5230951f30e7bccd6145f6ae754e8fd", "is_disabled": 0, "rental_uris": {"android": "https://dc.lft.to/lastmile_qr_scan", "ios": "https://dc.lft.to/lastmile_qr_scan"}, "fusion_lon": 0.0, "lat": 38.90658916666667, "bike_id": "e5230951f30e7bccd6145f6ae754e8fd", "type": "electric_scooter", "is_reserved": 0, "lon": -77.07229066666666}, {"fusion_lat": 0.0, "name": "c29b7c0b7cb30144b0f2eed6ffa32d55", "is_disabled": 0, "rental_uris": {"android": "https://dc.lft.to/lastmile_qr_scan", "ios": "https://dc.lft.to/lastmile_qr_scan"}, "fusion_lon": 0.0, "lat": 38.90680233333333, "bike_id": "c29b7c0b7cb30144b0f2eed6ffa32d55", "type": "electric_scooter", "is_reserved": 0, "lon": -77.03629283333333}, {"fusion_lat": 0.0, "name": "91aa0b8c84270284a4920b4963643893", "is_disabled": 0, "rental_uris": {"android": "https://dc.lft.to/lastmile_qr_scan", "ios": "https://dc.lft.to/lastmile_qr_scan"}, "fusion_lon": 0.0, "lat": 38.884971666666665, "bike_id": "91aa0b8c84270284a4920b4963643893", "type": "electric_scooter", "is_reserved": 0, "lon": -77.00891}, {"fusion_lat": 0.0, "name": "966610f7b3b2375a1543c7d1e4a9328a", "is_disabled": 0, "rental_uris": {"android": "https://dc.lft.to/lastmile_qr_scan", "ios": "https://dc.lft.to/lastmile_qr_scan"}, "fusion_lon": 0.0, "lat": 38.9110645, "bike_id": "966610f7b3b2375a1543c7d1e4a9328a", "type": "electric_scooter", "is_reserved": 0, "lon": -77.04202066666667}, {"fusion_lat": 0.0, "name": "799d819b00f862848d03c630addb3a9b", "is_disabled": 0, "rental_uris": {"android": "https://dc.lft.to/lastmile_qr_scan", "ios": "https://dc.lft.to/lastmile_qr_scan"}, "fusion_lon": 0.0, "lat": 38.905714833333334, "bike_id": "799d819b00f862848d03c630addb3a9b", "type": "electric_scooter", "is_reserved": 0, "lon": -76.98151716666666}, {"fusion_lat": 0.0, "name": "13e027414d75f602856bd10d16868414", "is_disabled": 0, "rental_uris": {"android": "https://dc.lft.to/lastmile_qr_scan", "ios": "https://dc.lft.to/lastmile_qr_scan"}, "fusion_lon": 0.0, "lat": 38.910484833333335, "bike_id": "13e027414d75f602856bd10d16868414", "type": "electric_scooter", "is_reserved": 0, "lon": -77.04299583333334}, {"fusion_lat": 0.0, "name": "7060ca05b349a74d5fce94659983a802", "is_disabled": 0, "rental_uris": {"android": "https://dc.lft.to/lastmile_qr_scan", "ios": "https://dc.lft.to/lastmile_qr_scan"}, "fusion_lon": 0.0, "lat": 38.90119983333334, "bike_id": "7060ca05b349a74d5fce94659983a802", "type": "electric_scooter", "is_reserved": 0, "lon": -77.03369516666666}, {"fusion_lat": 0.0, "name": "ce2bef8ec22d055b7c5122654190bad5", "is_disabled": 0, "rental_uris": {"android": "https://dc.lft.to/lastmile_qr_scan", "ios": "https://dc.lft.to/lastmile_qr_scan"}, "fusion_lon": 0.0, "lat": 38.896674, "bike_id": "ce2bef8ec22d055b7c5122654190bad5", "type": "electric_scooter", "is_reserved": 0, "lon": -76.9320615}, {"fusion_lat": 0.0, "name": "294eb1c61bed01765f27af6c0096909b", "is_disabled": 0, "rental_uris": {"android": "https://dc.lft.to/lastmile_qr_scan", "ios": "https://dc.lft.to/lastmile_qr_scan"}, "fusion_lon": 0.0, "lat": 38.90975183333333, "bike_id": "294eb1c61bed01765f27af6c0096909b", "type": "electric_scooter", "is_reserved": 0, "lon": -77.03426133333333}, {"fusion_lat": 0.0, "name": "229bfea92e51882ee134f2946abcbf1b", "is_disabled": 0, "rental_uris": {"android": "https://dc.lft.to/lastmile_qr_scan", "ios": "https://dc.lft.to/lastmile_qr_scan"}, "fusion_lon": 0.0, "lat": 38.901989, "bike_id": "229bfea92e51882ee134f2946abcbf1b", "type": "electric_scooter", "is_reserved": 0, "lon": -77.02373566666667}, {"fusion_lat": 0.0, "name": "da47f1252ba9e06e317be3dd19eb9130", "is_disabled": 0, "rental_uris": {"android": "https://dc.lft.to/lastmile_qr_scan", "ios": "https://dc.lft.to/lastmile_qr_scan"}, "fusion_lon": 0.0, "lat": 38.923817166666666, "bike_id": "da47f1252ba9e06e317be3dd19eb9130", "type": "electric_scooter", "is_reserved": 0, "lon": -77.02735933333334}, {"fusion_lat": 0.0, "name": "6eb00db28ed170696c1325799ba4f565", "is_disabled": 0, "rental_uris": {"android": "https://dc.lft.to/lastmile_qr_scan", "ios": "https://dc.lft.to/lastmile_qr_scan"}, "fusion_lon": 0.0, "lat": 38.93172366666667, "bike_id": "6eb00db28ed170696c1325799ba4f565", "type": "electric_scooter", "is_reserved": 0, "lon": -77.05649233333334}, {"fusion_lat": 0.0, "name": "eb4313cf32f38d32cc6f3d4a1e65fce7", "is_disabled": 0, "rental_uris": {"android": "https://dc.lft.to/lastmile_qr_scan", "ios": "https://dc.lft.to/lastmile_qr_scan"}, "fusion_lon": 0.0, "lat": 38.8847185, "bike_id": "eb4313cf32f38d32cc6f3d4a1e65fce7", "type": "electric_scooter", "is_reserved": 0, "lon": -77.0243045}, {"fusion_lat": 0.0, "name": "f5615a8da4dae1c64dd1a6c196279382", "is_disabled": 0, "rental_uris": {"android": "https://dc.lft.to/lastmile_qr_scan", "ios": "https://dc.lft.to/lastmile_qr_scan"}, "fusion_lon": 0.0, "lat": 38.90191983333333, "bike_id": "f5615a8da4dae1c64dd1a6c196279382", "type": "electric_scooter", "is_reserved": 0, "lon": -77.0239535}, {"fusion_lat": 0.0, "name": "9b65d46fa7c5e9ccbf35f9e6ef89319d", "is_disabled": 0, "rental_uris": {"android": "https://dc.lft.to/lastmile_qr_scan", "ios": "https://dc.lft.to/lastmile_qr_scan"}, "fusion_lon": 0.0, "lat": 38.901281166666664, "bike_id": "9b65d46fa7c5e9ccbf35f9e6ef89319d", "type": "electric_scooter", "is_reserved": 0, "lon": -77.00203866666666}, {"fusion_lat": 0.0, "name": "0b24803e23d1b95505d01207357edb25", "is_disabled": 0, "rental_uris": {"android": "https://dc.lft.to/lastmile_qr_scan", "ios": "https://dc.lft.to/lastmile_qr_scan"}, "fusion_lon": 0.0, "lat": 38.91993333333333, "bike_id": "0b24803e23d1b95505d01207357edb25", "type": "electric_scooter", "is_reserved": 0, "lon": -77.02165366666667}, {"fusion_lat": 0.0, "name": "490377a6c09fbc7c168ff107afcb89e9", "is_disabled": 0, "rental_uris": {"android": "https://dc.lft.to/lastmile_qr_scan", "ios": "https://dc.lft.to/lastmile_qr_scan"}, "fusion_lon": 0.0, "lat": 38.917138, "bike_id": "490377a6c09fbc7c168ff107afcb89e9", "type": "electric_scooter", "is_reserved": 0, "lon": -76.976587}, {"fusion_lat": 0.0, "name": "6bfc5be3c4eb5b00b8e945c3fbe55ffd", "is_disabled": 0, "rental_uris": {"android": "https://dc.lft.to/lastmile_qr_scan", "ios": "https://dc.lft.to/lastmile_qr_scan"}, "fusion_lon": 0.0, "lat": 38.939172666666664, "bike_id": "6bfc5be3c4eb5b00b8e945c3fbe55ffd", "type": "electric_scooter", "is_reserved": 0, "lon": -77.02476966666667}, {"fusion_lat": 0.0, "name": "039cc1e13ab4ee5ef5116bb9af4cb339", "is_disabled": 0, "rental_uris": {"android": "https://dc.lft.to/lastmile_qr_scan", "ios": "https://dc.lft.to/lastmile_qr_scan"}, "fusion_lon": 0.0, "lat": 38.92035333333333, "bike_id": "039cc1e13ab4ee5ef5116bb9af4cb339", "type": "electric_scooter", "is_reserved": 0, "lon": -77.02585566666667}, {"fusion_lat": 0.0, "name": "f41bda5dca466de8ea2c81737fb1a4bf", "is_disabled": 0, "rental_uris": {"android": "https://dc.lft.to/lastmile_qr_scan", "ios": "https://dc.lft.to/lastmile_qr_scan"}, "fusion_lon": 0.0, "lat": 38.91997283333333, "bike_id": "f41bda5dca466de8ea2c81737fb1a4bf", "type": "electric_scooter", "is_reserved": 0, "lon": -77.03222733333334}, {"fusion_lat": 0.0, "name": "849bdaa069500528fd7179fb035692a2", "is_disabled": 0, "rental_uris": {"android": "https://dc.lft.to/lastmile_qr_scan", "ios": "https://dc.lft.to/lastmile_qr_scan"}, "fusion_lon": 0.0, "lat": 38.907374, "bike_id": "849bdaa069500528fd7179fb035692a2", "type": "electric_scooter", "is_reserved": 0, "lon": -77.02946066666667}, {"fusion_lat": 0.0, "name": "366df6a38f31a23bec7c9f1de61b4065", "is_disabled": 0, "rental_uris": {"android": "https://dc.lft.to/lastmile_qr_scan", "ios": "https://dc.lft.to/lastmile_qr_scan"}, "fusion_lon": 0.0, "lat": 38.94870566666667, "bike_id": "366df6a38f31a23bec7c9f1de61b4065", "type": "electric_scooter", "is_reserved": 0, "lon": -77.02570633333333}, {"fusion_lat": 0.0, "name": "4ab3b27da4bf315012fafd8af6575d27", "is_disabled": 0, "rental_uris": {"android": "https://dc.lft.to/lastmile_qr_scan", "ios": "https://dc.lft.to/lastmile_qr_scan"}, "fusion_lon": 0.0, "lat": 38.961842833333336, "bike_id": "4ab3b27da4bf315012fafd8af6575d27", "type": "electric_bike", "is_reserved": 0, "lon": -77.0738095}, {"fusion_lat": 0.0, "name": "30dfdceda58e166aa88b713368c6b6a9", "is_disabled": 0, "rental_uris": {"android": "https://dc.lft.to/lastmile_qr_scan", "ios": "https://dc.lft.to/lastmile_qr_scan"}, "fusion_lon": 0.0, "lat": 38.89888633333333, "bike_id": "30dfdceda58e166aa88b713368c6b6a9", "type": "electric_scooter", "is_reserved": 0, "lon": -77.05299416666666}, {"fusion_lat": 0.0, "name": "3f3644d6bf4b14d683a8ac0a35d43d73", "is_disabled": 0, "rental_uris": {"android": "https://dc.lft.to/lastmile_qr_scan", "ios": "https://dc.lft.to/lastmile_qr_scan"}, "fusion_lon": 0.0, "lat": 38.90392816666667, "bike_id": "3f3644d6bf4b14d683a8ac0a35d43d73", "type": "electric_scooter", "is_reserved": 0, "lon": -77.06007633333333}, {"fusion_lat": 0.0, "name": "45cb14edb64aea1e45992ba0a41532d6", "is_disabled": 0, "rental_uris": {"android": "https://dc.lft.to/lastmile_qr_scan", "ios": "https://dc.lft.to/lastmile_qr_scan"}, "fusion_lon": 0.0, "lat": 38.91271366666667, "bike_id": "45cb14edb64aea1e45992ba0a41532d6", "type": "electric_scooter", "is_reserved": 0, "lon": -77.04506066666667}, {"fusion_lat": 0.0, "name": "af75f0fecddae6d307d7f213f5fa89f9", "is_disabled": 0, "rental_uris": {"android": "https://dc.lft.to/lastmile_qr_scan", "ios": "https://dc.lft.to/lastmile_qr_scan"}, "fusion_lon": 0.0, "lat": 38.9307935, "bike_id": "af75f0fecddae6d307d7f213f5fa89f9", "type": "electric_scooter", "is_reserved": 0, "lon": -77.027926}, {"fusion_lat": 0.0, "name": "8dd075d41da331c71812d94964527e1e", "is_disabled": 0, "rental_uris": {"android": "https://dc.lft.to/lastmile_qr_scan", "ios": "https://dc.lft.to/lastmile_qr_scan"}, "fusion_lon": 0.0, "lat": 38.8875565, "bike_id": "8dd075d41da331c71812d94964527e1e", "type": "electric_scooter", "is_reserved": 0, "lon": -77.0212365}, {"fusion_lat": 0.0, "name": "c347800fe0e67d26c58cd8008f54a72d", "is_disabled": 0, "rental_uris": {"android": "https://dc.lft.to/lastmile_qr_scan", "ios": "https://dc.lft.to/lastmile_qr_scan"}, "fusion_lon": 0.0, "lat": 38.90044433333333, "bike_id": "c347800fe0e67d26c58cd8008f54a72d", "type": "electric_scooter", "is_reserved": 0, "lon": -77.0021375}, {"fusion_lat": 0.0, "name": "40cafcb2e20dc4490b279a0202d51860", "is_disabled": 0, "rental_uris": {"android": "https://dc.lft.to/lastmile_qr_scan", "ios": "https://dc.lft.to/lastmile_qr_scan"}, "fusion_lon": 0.0, "lat": 38.9026925, "bike_id": "40cafcb2e20dc4490b279a0202d51860", "type": "electric_scooter", "is_reserved": 0, "lon": -76.92900616666667}, {"fusion_lat": 0.0, "name": "9843052b7290dd62af2e8c9211c16aae", "is_disabled": 0, "rental_uris": {"android": "https://dc.lft.to/lastmile_qr_scan", "ios": "https://dc.lft.to/lastmile_qr_scan"}, "fusion_lon": 0.0, "lat": 38.9238535, "bike_id": "9843052b7290dd62af2e8c9211c16aae", "type": "electric_scooter", "is_reserved": 0, "lon": -77.02157366666667}, {"fusion_lat": 0.0, "name": "5140be83a0e2e8d88e1fbea4eaa80de0", "is_disabled": 0, "rental_uris": {"android": "https://dc.lft.to/lastmile_qr_scan", "ios": "https://dc.lft.to/lastmile_qr_scan"}, "fusion_lon": 0.0, "lat": 38.89219116666666, "bike_id": "5140be83a0e2e8d88e1fbea4eaa80de0", "type": "electric_scooter", "is_reserved": 0, "lon": -77.04639916666666}, {"fusion_lat": 0.0, "name": "e9d7d4e95f9189931522490364f97e27", "is_disabled": 0, "rental_uris": {"android": "https://dc.lft.to/lastmile_qr_scan", "ios": "https://dc.lft.to/lastmile_qr_scan"}, "fusion_lon": 0.0, "lat": 38.844292833333334, "bike_id": "e9d7d4e95f9189931522490364f97e27", "type": "electric_scooter", "is_reserved": 0, "lon": -76.99783966666666}, {"fusion_lat": 0.0, "name": "8b89abb0241eb8637670e2bcb8e282e7", "is_disabled": 0, "rental_uris": {"android": "https://dc.lft.to/lastmile_qr_scan", "ios": "https://dc.lft.to/lastmile_qr_scan"}, "fusion_lon": 0.0, "lat": 38.87703716666667, "bike_id": "8b89abb0241eb8637670e2bcb8e282e7", "type": "electric_scooter", "is_reserved": 0, "lon": -77.0072415}, {"fusion_lat": 0.0, "name": "bc5f9aaeb9ea955894675b8ec4fe23df", "is_disabled": 0, "rental_uris": {"android": "https://dc.lft.to/lastmile_qr_scan", "ios": "https://dc.lft.to/lastmile_qr_scan"}, "fusion_lon": 0.0, "lat": 38.90462866666667, "bike_id": "bc5f9aaeb9ea955894675b8ec4fe23df", "type": "electric_scooter", "is_reserved": 0, "lon": -77.05314516666667}, {"fusion_lat": 0.0, "name": "54bc15eb34af89cc16022be87a82d277", "is_disabled": 0, "rental_uris": {"android": "https://dc.lft.to/lastmile_qr_scan", "ios": "https://dc.lft.to/lastmile_qr_scan"}, "fusion_lon": 0.0, "lat": 38.91134866666667, "bike_id": "54bc15eb34af89cc16022be87a82d277", "type": "electric_scooter", "is_reserved": 0, "lon": -77.06538816666666}, {"fusion_lat": 0.0, "name": "8df0e7532e244572716f21610a40bb68", "is_disabled": 0, "rental_uris": {"android": "https://dc.lft.to/lastmile_qr_scan", "ios": "https://dc.lft.to/lastmile_qr_scan"}, "fusion_lon": 0.0, "lat": 38.91162216666667, "bike_id": "8df0e7532e244572716f21610a40bb68", "type": "electric_scooter", "is_reserved": 0, "lon": -77.03194866666666}, {"fusion_lat": 0.0, "name": "149a2a55b980fbf8d2c21abb5d9c3791", "is_disabled": 0, "rental_uris": {"android": "https://dc.lft.to/lastmile_qr_scan", "ios": "https://dc.lft.to/lastmile_qr_scan"}, "fusion_lon": 0.0, "lat": 38.9057875, "bike_id": "149a2a55b980fbf8d2c21abb5d9c3791", "type": "electric_scooter", "is_reserved": 0, "lon": -77.00600016666667}, {"fusion_lat": 0.0, "name": "ed15f9848073c18990146ef115e3feb1", "is_disabled": 0, "rental_uris": {"android": "https://dc.lft.to/lastmile_qr_scan", "ios": "https://dc.lft.to/lastmile_qr_scan"}, "fusion_lon": 0.0, "lat": 38.93101133333333, "bike_id": "ed15f9848073c18990146ef115e3feb1", "type": "electric_scooter", "is_reserved": 0, "lon": -77.024772}, {"fusion_lat": 0.0, "name": "2b34c3c63205f751439fde7eec0bbc19", "is_disabled": 0, "rental_uris": {"android": "https://dc.lft.to/lastmile_qr_scan", "ios": "https://dc.lft.to/lastmile_qr_scan"}, "fusion_lon": 0.0, "lat": 38.93478266666666, "bike_id": "2b34c3c63205f751439fde7eec0bbc19", "type": "electric_scooter", "is_reserved": 0, "lon": -77.07269216666667}, {"fusion_lat": 0.0, "name": "024fd7f6ea84ce1137cceafdbb03c441", "is_disabled": 0, "rental_uris": {"android": "https://dc.lft.to/lastmile_qr_scan", "ios": "https://dc.lft.to/lastmile_qr_scan"}, "fusion_lon": 0.0, "lat": 38.92491966666667, "bike_id": "024fd7f6ea84ce1137cceafdbb03c441", "type": "electric_scooter", "is_reserved": 0, "lon": -77.02590033333334}, {"fusion_lat": 0.0, "name": "eb2d9d569f5d2c9657d03779601718e9", "is_disabled": 0, "rental_uris": {"android": "https://dc.lft.to/lastmile_qr_scan", "ios": "https://dc.lft.to/lastmile_qr_scan"}, "fusion_lon": 0.0, "lat": 38.912502, "bike_id": "eb2d9d569f5d2c9657d03779601718e9", "type": "electric_scooter", "is_reserved": 0, "lon": -77.03159883333333}, {"fusion_lat": 0.0, "name": "d51c32aaeb133506a028530a552c1bcc", "is_disabled": 0, "rental_uris": {"android": "https://dc.lft.to/lastmile_qr_scan", "ios": "https://dc.lft.to/lastmile_qr_scan"}, "fusion_lon": 0.0, "lat": 38.902859, "bike_id": "d51c32aaeb133506a028530a552c1bcc", "type": "electric_scooter", "is_reserved": 0, "lon": -77.03652433333333}, {"fusion_lat": 0.0, "name": "92130269a508c02cdf372dc7563f8488", "is_disabled": 0, "rental_uris": {"android": "https://dc.lft.to/lastmile_qr_scan", "ios": "https://dc.lft.to/lastmile_qr_scan"}, "fusion_lon": 0.0, "lat": 38.917381, "bike_id": "92130269a508c02cdf372dc7563f8488", "type": "electric_bike", "is_reserved": 0, "lon": -76.97904966666667}, {"fusion_lat": 0.0, "name": "b3c39534184032bf724034a9d70bdd36", "is_disabled": 0, "rental_uris": {"android": "https://dc.lft.to/lastmile_qr_scan", "ios": "https://dc.lft.to/lastmile_qr_scan"}, "fusion_lon": 0.0, "lat": 38.92325366666667, "bike_id": "b3c39534184032bf724034a9d70bdd36", "type": "electric_scooter", "is_reserved": 0, "lon": -77.03570966666666}, {"fusion_lat": 0.0, "name": "033e92482814ae8b524b1e7ed3a2e2b8", "is_disabled": 0, "rental_uris": {"android": "https://dc.lft.to/lastmile_qr_scan", "ios": "https://dc.lft.to/lastmile_qr_scan"}, "fusion_lon": 0.0, "lat": 38.876581, "bike_id": "033e92482814ae8b524b1e7ed3a2e2b8", "type": "electric_scooter", "is_reserved": 0, "lon": -77.0043575}, {"fusion_lat": 0.0, "name": "c0090bf4af3eb747c175d4cb86b36fb6", "is_disabled": 0, "rental_uris": {"android": "https://dc.lft.to/lastmile_qr_scan", "ios": "https://dc.lft.to/lastmile_qr_scan"}, "fusion_lon": 0.0, "lat": 38.9113145, "bike_id": "c0090bf4af3eb747c175d4cb86b36fb6", "type": "electric_scooter", "is_reserved": 0, "lon": -77.0384765}, {"fusion_lat": 0.0, "name": "f9f273f5c3c0f360bb9dd4064460d5b4", "is_disabled": 0, "rental_uris": {"android": "https://dc.lft.to/lastmile_qr_scan", "ios": "https://dc.lft.to/lastmile_qr_scan"}, "fusion_lon": 0.0, "lat": 38.923615, "bike_id": "f9f273f5c3c0f360bb9dd4064460d5b4", "type": "electric_scooter", "is_reserved": 0, "lon": -77.0295975}, {"fusion_lat": 0.0, "name": "0d2b4c254a7ff92a2b7a9661812d30be", "is_disabled": 0, "rental_uris": {"android": "https://dc.lft.to/lastmile_qr_scan", "ios": "https://dc.lft.to/lastmile_qr_scan"}, "fusion_lon": 0.0, "lat": 38.9256135, "bike_id": "0d2b4c254a7ff92a2b7a9661812d30be", "type": "electric_scooter", "is_reserved": 0, "lon": -77.05278}, {"fusion_lat": 0.0, "name": "70e0b35d61a287989502ee0f3a034cf2", "is_disabled": 0, "rental_uris": {"android": "https://dc.lft.to/lastmile_qr_scan", "ios": "https://dc.lft.to/lastmile_qr_scan"}, "fusion_lon": 0.0, "lat": 38.91955166666666, "bike_id": "70e0b35d61a287989502ee0f3a034cf2", "type": "electric_scooter", "is_reserved": 0, "lon": -77.01782433333334}, {"fusion_lat": 0.0, "name": "cd0457b17d17fccb60a0d1dac1a3bbde", "is_disabled": 0, "rental_uris": {"android": "https://dc.lft.to/lastmile_qr_scan", "ios": "https://dc.lft.to/lastmile_qr_scan"}, "fusion_lon": 0.0, "lat": 38.90954466666667, "bike_id": "cd0457b17d17fccb60a0d1dac1a3bbde", "type": "electric_scooter", "is_reserved": 0, "lon": -76.98537333333333}, {"fusion_lat": 0.0, "name": "54995d949eee47ff8c0ba15297dc511d", "is_disabled": 0, "rental_uris": {"android": "https://dc.lft.to/lastmile_qr_scan", "ios": "https://dc.lft.to/lastmile_qr_scan"}, "fusion_lon": 0.0, "lat": 38.91912683333334, "bike_id": "54995d949eee47ff8c0ba15297dc511d", "type": "electric_scooter", "is_reserved": 0, "lon": -77.03058183333333}, {"fusion_lat": 0.0, "name": "45efc422dcb95928638b22152ba2224c", "is_disabled": 0, "rental_uris": {"android": "https://dc.lft.to/lastmile_qr_scan", "ios": "https://dc.lft.to/lastmile_qr_scan"}, "fusion_lon": 0.0, "lat": 38.920354333333336, "bike_id": "45efc422dcb95928638b22152ba2224c", "type": "electric_scooter", "is_reserved": 0, "lon": -77.07145233333334}, {"fusion_lat": 0.0, "name": "522f8061a0dfd35adfbfa202b958d6db", "is_disabled": 0, "rental_uris": {"android": "https://dc.lft.to/lastmile_qr_scan", "ios": "https://dc.lft.to/lastmile_qr_scan"}, "fusion_lon": 0.0, "lat": 38.9977245, "bike_id": "522f8061a0dfd35adfbfa202b958d6db", "type": "electric_bike", "is_reserved": 0, "lon": -77.04714433333334}, {"fusion_lat": 0.0, "name": "55d08d7d8110ed649d3ac21b6c23ad01", "is_disabled": 0, "rental_uris": {"android": "https://dc.lft.to/lastmile_qr_scan", "ios": "https://dc.lft.to/lastmile_qr_scan"}, "fusion_lon": 0.0, "lat": 38.90860083333333, "bike_id": "55d08d7d8110ed649d3ac21b6c23ad01", "type": "electric_scooter", "is_reserved": 0, "lon": -77.02708333333334}, {"fusion_lat": 0.0, "name": "362dafc2f918560aa3481500bf8ef32d", "is_disabled": 0, "rental_uris": {"android": "https://dc.lft.to/lastmile_qr_scan", "ios": "https://dc.lft.to/lastmile_qr_scan"}, "fusion_lon": 0.0, "lat": 38.8901655, "bike_id": "362dafc2f918560aa3481500bf8ef32d", "type": "electric_scooter", "is_reserved": 0, "lon": -76.937324}, {"fusion_lat": 0.0, "name": "e119b97343b38b8ea0bf40a0f9bb4ca8", "is_disabled": 0, "rental_uris": {"android": "https://dc.lft.to/lastmile_qr_scan", "ios": "https://dc.lft.to/lastmile_qr_scan"}, "fusion_lon": 0.0, "lat": 38.903847166666665, "bike_id": "e119b97343b38b8ea0bf40a0f9bb4ca8", "type": "electric_scooter", "is_reserved": 0, "lon": -77.0482235}, {"fusion_lat": 0.0, "name": "1e3062ad4b06605b22aae405b78d9d67", "is_disabled": 0, "rental_uris": {"android": "https://dc.lft.to/lastmile_qr_scan", "ios": "https://dc.lft.to/lastmile_qr_scan"}, "fusion_lon": 0.0, "lat": 38.932454166666666, "bike_id": "1e3062ad4b06605b22aae405b78d9d67", "type": "electric_scooter", "is_reserved": 0, "lon": -77.03262533333333}, {"fusion_lat": 0.0, "name": "a174db45a01419ff3ed2fa38dcbad7e1", "is_disabled": 0, "rental_uris": {"android": "https://dc.lft.to/lastmile_qr_scan", "ios": "https://dc.lft.to/lastmile_qr_scan"}, "fusion_lon": 0.0, "lat": 38.900315, "bike_id": "a174db45a01419ff3ed2fa38dcbad7e1", "type": "electric_scooter", "is_reserved": 0, "lon": -76.98814366666667}, {"fusion_lat": 0.0, "name": "854764fa3d889147fa88c17caac8cdb3", "is_disabled": 0, "rental_uris": {"android": "https://dc.lft.to/lastmile_qr_scan", "ios": "https://dc.lft.to/lastmile_qr_scan"}, "fusion_lon": 0.0, "lat": 38.900333833333335, "bike_id": "854764fa3d889147fa88c17caac8cdb3", "type": "electric_scooter", "is_reserved": 0, "lon": -76.9962945}, {"fusion_lat": 0.0, "name": "8701d085dcc028fe4db5955b16127025", "is_disabled": 0, "rental_uris": {"android": "https://dc.lft.to/lastmile_qr_scan", "ios": "https://dc.lft.to/lastmile_qr_scan"}, "fusion_lon": 0.0, "lat": 38.93688316666667, "bike_id": "8701d085dcc028fe4db5955b16127025", "type": "electric_scooter", "is_reserved": 0, "lon": -77.03634816666667}, {"fusion_lat": 0.0, "name": "db9bd732c0e28be34078c47101fbc90d", "is_disabled": 0, "rental_uris": {"android": "https://dc.lft.to/lastmile_qr_scan", "ios": "https://dc.lft.to/lastmile_qr_scan"}, "fusion_lon": 0.0, "lat": 38.902445666666665, "bike_id": "db9bd732c0e28be34078c47101fbc90d", "type": "electric_scooter", "is_reserved": 0, "lon": -77.01801883333333}, {"fusion_lat": 0.0, "name": "dff3c4f00d1f21e8477b612d26e52593", "is_disabled": 0, "rental_uris": {"android": "https://dc.lft.to/lastmile_qr_scan", "ios": "https://dc.lft.to/lastmile_qr_scan"}, "fusion_lon": 0.0, "lat": 38.90093916666667, "bike_id": "dff3c4f00d1f21e8477b612d26e52593", "type": "electric_scooter", "is_reserved": 0, "lon": -77.04758966666667}, {"fusion_lat": 0.0, "name": "2754e0349e2f412166270e3c300a983a", "is_disabled": 0, "rental_uris": {"android": "https://dc.lft.to/lastmile_qr_scan", "ios": "https://dc.lft.to/lastmile_qr_scan"}, "fusion_lon": 0.0, "lat": 38.911925, "bike_id": "2754e0349e2f412166270e3c300a983a", "type": "electric_scooter", "is_reserved": 0, "lon": -77.03044133333333}, {"fusion_lat": 0.0, "name": "90d90ac27763b09286a4bcb0744eba3d", "is_disabled": 0, "rental_uris": {"android": "https://dc.lft.to/lastmile_qr_scan", "ios": "https://dc.lft.to/lastmile_qr_scan"}, "fusion_lon": 0.0, "lat": 38.92685016666667, "bike_id": "90d90ac27763b09286a4bcb0744eba3d", "type": "electric_scooter", "is_reserved": 0, "lon": -77.02787566666667}, {"fusion_lat": 0.0, "name": "bb082474548bc99cea3ada304d876b84", "is_disabled": 0, "rental_uris": {"android": "https://dc.lft.to/lastmile_qr_scan", "ios": "https://dc.lft.to/lastmile_qr_scan"}, "fusion_lon": 0.0, "lat": 38.91726883333333, "bike_id": "bb082474548bc99cea3ada304d876b84", "type": "electric_scooter", "is_reserved": 0, "lon": -77.02709016666667}, {"fusion_lat": 0.0, "name": "f7b196bda22cb60e77f0c038c6ae521b", "is_disabled": 0, "rental_uris": {"android": "https://dc.lft.to/lastmile_qr_scan", "ios": "https://dc.lft.to/lastmile_qr_scan"}, "fusion_lon": 0.0, "lat": 38.89843233333333, "bike_id": "f7b196bda22cb60e77f0c038c6ae521b", "type": "electric_scooter", "is_reserved": 0, "lon": -77.0304915}, {"fusion_lat": 0.0, "name": "3a00f05be9d43306bc95182778145f42", "is_disabled": 0, "rental_uris": {"android": "https://dc.lft.to/lastmile_qr_scan", "ios": "https://dc.lft.to/lastmile_qr_scan"}, "fusion_lon": 0.0, "lat": 38.89999316666667, "bike_id": "3a00f05be9d43306bc95182778145f42", "type": "electric_scooter", "is_reserved": 0, "lon": -77.01199866666667}, {"fusion_lat": 0.0, "name": "400a0e49014ec3c18c7cd5cb3ee947c4", "is_disabled": 0, "rental_uris": {"android": "https://dc.lft.to/lastmile_qr_scan", "ios": "https://dc.lft.to/lastmile_qr_scan"}, "fusion_lon": 0.0, "lat": 38.88606083333333, "bike_id": "400a0e49014ec3c18c7cd5cb3ee947c4", "type": "electric_scooter", "is_reserved": 0, "lon": -76.99532433333333}, {"fusion_lat": 0.0, "name": "646eb682b71a0356e786a842746e6a23", "is_disabled": 0, "rental_uris": {"android": "https://dc.lft.to/lastmile_qr_scan", "ios": "https://dc.lft.to/lastmile_qr_scan"}, "fusion_lon": 0.0, "lat": 38.924238833333334, "bike_id": "646eb682b71a0356e786a842746e6a23", "type": "electric_scooter", "is_reserved": 0, "lon": -77.05746616666667}, {"fusion_lat": 0.0, "name": "b9c5692d5471be67403f8318d548bcd9", "is_disabled": 0, "rental_uris": {"android": "https://dc.lft.to/lastmile_qr_scan", "ios": "https://dc.lft.to/lastmile_qr_scan"}, "fusion_lon": 0.0, "lat": 38.919608333333336, "bike_id": "b9c5692d5471be67403f8318d548bcd9", "type": "electric_scooter", "is_reserved": 0, "lon": -77.01772583333333}, {"fusion_lat": 0.0, "name": "982fdbc66909e9a6215e66d66933e272", "is_disabled": 0, "rental_uris": {"android": "https://dc.lft.to/lastmile_qr_scan", "ios": "https://dc.lft.to/lastmile_qr_scan"}, "fusion_lon": 0.0, "lat": 38.883740333333336, "bike_id": "982fdbc66909e9a6215e66d66933e272", "type": "electric_scooter", "is_reserved": 0, "lon": -76.99517433333334}, {"fusion_lat": 0.0, "name": "7ff7d3d97c9047879b62d1a19fcc706e", "is_disabled": 0, "rental_uris": {"android": "https://dc.lft.to/lastmile_qr_scan", "ios": "https://dc.lft.to/lastmile_qr_scan"}, "fusion_lon": 0.0, "lat": 38.93718766666667, "bike_id": "7ff7d3d97c9047879b62d1a19fcc706e", "type": "electric_scooter", "is_reserved": 0, "lon": -77.0238365}, {"fusion_lat": 0.0, "name": "46004b7339bca4956ec4edb2596b16b0", "is_disabled": 0, "rental_uris": {"android": "https://dc.lft.to/lastmile_qr_scan", "ios": "https://dc.lft.to/lastmile_qr_scan"}, "fusion_lon": 0.0, "lat": 38.96578233333334, "bike_id": "46004b7339bca4956ec4edb2596b16b0", "type": "electric_scooter", "is_reserved": 0, "lon": -77.002655}, {"fusion_lat": 0.0, "name": "3aac32158cc3c54e6c7436761a572e02", "is_disabled": 0, "rental_uris": {"android": "https://dc.lft.to/lastmile_qr_scan", "ios": "https://dc.lft.to/lastmile_qr_scan"}, "fusion_lon": 0.0, "lat": 38.867334666666665, "bike_id": "3aac32158cc3c54e6c7436761a572e02", "type": "electric_scooter", "is_reserved": 0, "lon": -76.98787683333333}, {"fusion_lat": 0.0, "name": "c37488611ed33f2dfa14642d3d27fdfe", "is_disabled": 0, "rental_uris": {"android": "https://dc.lft.to/lastmile_qr_scan", "ios": "https://dc.lft.to/lastmile_qr_scan"}, "fusion_lon": 0.0, "lat": 38.897098666666665, "bike_id": "c37488611ed33f2dfa14642d3d27fdfe", "type": "electric_scooter", "is_reserved": 0, "lon": -77.01296966666666}, {"fusion_lat": 0.0, "name": "bce455a5bbda9557b6cb54fd8a81adc1", "is_disabled": 0, "rental_uris": {"android": "https://dc.lft.to/lastmile_qr_scan", "ios": "https://dc.lft.to/lastmile_qr_scan"}, "fusion_lon": 0.0, "lat": 38.892361666666666, "bike_id": "bce455a5bbda9557b6cb54fd8a81adc1", "type": "electric_scooter", "is_reserved": 0, "lon": -77.02383883333333}, {"fusion_lat": 0.0, "name": "60ac664e9ce9d7d8b07a29849e764c01", "is_disabled": 0, "rental_uris": {"android": "https://dc.lft.to/lastmile_qr_scan", "ios": "https://dc.lft.to/lastmile_qr_scan"}, "fusion_lon": 0.0, "lat": 38.87384316666667, "bike_id": "60ac664e9ce9d7d8b07a29849e764c01", "type": "electric_scooter", "is_reserved": 0, "lon": -77.0012265}, {"fusion_lat": 0.0, "name": "01bb5eafc10dcafe72cec2ceec74cd9f", "is_disabled": 0, "rental_uris": {"android": "https://dc.lft.to/lastmile_qr_scan", "ios": "https://dc.lft.to/lastmile_qr_scan"}, "fusion_lon": 0.0, "lat": 38.90211133333333, "bike_id": "01bb5eafc10dcafe72cec2ceec74cd9f", "type": "electric_scooter", "is_reserved": 0, "lon": -77.02737833333333}, {"fusion_lat": 0.0, "name": "1a39cb72e8f5aeef9bc2818352212056", "is_disabled": 0, "rental_uris": {"android": "https://dc.lft.to/lastmile_qr_scan", "ios": "https://dc.lft.to/lastmile_qr_scan"}, "fusion_lon": 0.0, "lat": 38.961819, "bike_id": "1a39cb72e8f5aeef9bc2818352212056", "type": "electric_bike", "is_reserved": 0, "lon": -77.05267983333333}, {"fusion_lat": 0.0, "name": "1f449b5513631688005545bf88fa5aa0", "is_disabled": 0, "rental_uris": {"android": "https://dc.lft.to/lastmile_qr_scan", "ios": "https://dc.lft.to/lastmile_qr_scan"}, "fusion_lon": 0.0, "lat": 38.920307333333334, "bike_id": "1f449b5513631688005545bf88fa5aa0", "type": "electric_scooter", "is_reserved": 0, "lon": -77.01025966666667}, {"fusion_lat": 0.0, "name": "8d06b16c81ee3d456e087c8129346902", "is_disabled": 0, "rental_uris": {"android": "https://dc.lft.to/lastmile_qr_scan", "ios": "https://dc.lft.to/lastmile_qr_scan"}, "fusion_lon": 0.0, "lat": 38.9149375, "bike_id": "8d06b16c81ee3d456e087c8129346902", "type": "electric_scooter", "is_reserved": 0, "lon": -77.04242716666667}, {"fusion_lat": 0.0, "name": "895b996ce5ec086cfff1ff349a3dd782", "is_disabled": 0, "rental_uris": {"android": "https://dc.lft.to/lastmile_qr_scan", "ios": "https://dc.lft.to/lastmile_qr_scan"}, "fusion_lon": 0.0, "lat": 38.923509833333334, "bike_id": "895b996ce5ec086cfff1ff349a3dd782", "type": "electric_scooter", "is_reserved": 0, "lon": -77.03905433333334}, {"fusion_lat": 0.0, "name": "7b772247b102c67497d281c4916be4cc", "is_disabled": 0, "rental_uris": {"android": "https://dc.lft.to/lastmile_qr_scan", "ios": "https://dc.lft.to/lastmile_qr_scan"}, "fusion_lon": 0.0, "lat": 38.942719, "bike_id": "7b772247b102c67497d281c4916be4cc", "type": "electric_scooter", "is_reserved": 0, "lon": -77.03258583333333}, {"fusion_lat": 0.0, "name": "14376450c93554ae05173dc144843d23", "is_disabled": 0, "rental_uris": {"android": "https://dc.lft.to/lastmile_qr_scan", "ios": "https://dc.lft.to/lastmile_qr_scan"}, "fusion_lon": 0.0, "lat": 38.919268333333335, "bike_id": "14376450c93554ae05173dc144843d23", "type": "electric_scooter", "is_reserved": 0, "lon": -77.03252316666666}, {"fusion_lat": 0.0, "name": "ded9f2aa32a8d13383f74d8c58dcb5e1", "is_disabled": 0, "rental_uris": {"android": "https://dc.lft.to/lastmile_qr_scan", "ios": "https://dc.lft.to/lastmile_qr_scan"}, "fusion_lon": 0.0, "lat": 38.917071, "bike_id": "ded9f2aa32a8d13383f74d8c58dcb5e1", "type": "electric_scooter", "is_reserved": 0, "lon": -77.03342533333333}, {"fusion_lat": 0.0, "name": "ba08d15e51f590e604e5b9a4638215ad", "is_disabled": 0, "rental_uris": {"android": "https://dc.lft.to/lastmile_qr_scan", "ios": "https://dc.lft.to/lastmile_qr_scan"}, "fusion_lon": 0.0, "lat": 38.89790766666667, "bike_id": "ba08d15e51f590e604e5b9a4638215ad", "type": "electric_scooter", "is_reserved": 0, "lon": -76.94731983333334}, {"fusion_lat": 0.0, "name": "e81faa9d083439d6ae78e964599e751e", "is_disabled": 0, "rental_uris": {"android": "https://dc.lft.to/lastmile_qr_scan", "ios": "https://dc.lft.to/lastmile_qr_scan"}, "fusion_lon": 0.0, "lat": 38.93488816666667, "bike_id": "e81faa9d083439d6ae78e964599e751e", "type": "electric_scooter", "is_reserved": 0, "lon": -77.07275483333333}, {"fusion_lat": 0.0, "name": "0470250ac025e0dda4761f202e0c59e3", "is_disabled": 0, "rental_uris": {"android": "https://dc.lft.to/lastmile_qr_scan", "ios": "https://dc.lft.to/lastmile_qr_scan"}, "fusion_lon": 0.0, "lat": 38.90266533333333, "bike_id": "0470250ac025e0dda4761f202e0c59e3", "type": "electric_scooter", "is_reserved": 0, "lon": -77.03641016666667}, {"fusion_lat": 0.0, "name": "e6b506a4036b68f728fb84c12aeeef22", "is_disabled": 0, "rental_uris": {"android": "https://dc.lft.to/lastmile_qr_scan", "ios": "https://dc.lft.to/lastmile_qr_scan"}, "fusion_lon": 0.0, "lat": 38.938320166666664, "bike_id": "e6b506a4036b68f728fb84c12aeeef22", "type": "electric_scooter", "is_reserved": 0, "lon": -76.99194266666666}, {"fusion_lat": 0.0, "name": "b398f36340e8eeacaf3bbf880a786b00", "is_disabled": 0, "rental_uris": {"android": "https://dc.lft.to/lastmile_qr_scan", "ios": "https://dc.lft.to/lastmile_qr_scan"}, "fusion_lon": 0.0, "lat": 38.90390683333333, "bike_id": "b398f36340e8eeacaf3bbf880a786b00", "type": "electric_scooter", "is_reserved": 0, "lon": -77.03837283333333}, {"fusion_lat": 0.0, "name": "a1708ab7bd335cf683fc3872ebe176d5", "is_disabled": 0, "rental_uris": {"android": "https://dc.lft.to/lastmile_qr_scan", "ios": "https://dc.lft.to/lastmile_qr_scan"}, "fusion_lon": 0.0, "lat": 38.90482383333333, "bike_id": "a1708ab7bd335cf683fc3872ebe176d5", "type": "electric_scooter", "is_reserved": 0, "lon": -77.04865933333333}, {"fusion_lat": 0.0, "name": "98354eba1e0fc6895ea7c088446056b1", "is_disabled": 0, "rental_uris": {"android": "https://dc.lft.to/lastmile_qr_scan", "ios": "https://dc.lft.to/lastmile_qr_scan"}, "fusion_lon": 0.0, "lat": 38.9110605, "bike_id": "98354eba1e0fc6895ea7c088446056b1", "type": "electric_scooter", "is_reserved": 0, "lon": -77.00215666666666}, {"fusion_lat": 0.0, "name": "a14ecfcab764de5abadeb61cd13182a6", "is_disabled": 0, "rental_uris": {"android": "https://dc.lft.to/lastmile_qr_scan", "ios": "https://dc.lft.to/lastmile_qr_scan"}, "fusion_lon": 0.0, "lat": 38.889905166666665, "bike_id": "a14ecfcab764de5abadeb61cd13182a6", "type": "electric_bike", "is_reserved": 0, "lon": -77.0713095}, {"fusion_lat": 0.0, "name": "fb826e2d70ac2af376425e60f7f41a91", "is_disabled": 0, "rental_uris": {"android": "https://dc.lft.to/lastmile_qr_scan", "ios": "https://dc.lft.to/lastmile_qr_scan"}, "fusion_lon": 0.0, "lat": 38.900482333333336, "bike_id": "fb826e2d70ac2af376425e60f7f41a91", "type": "electric_scooter", "is_reserved": 0, "lon": -77.00218133333334}, {"fusion_lat": 0.0, "name": "7fc565c0f66a54f726b3481aa470f7dd", "is_disabled": 0, "rental_uris": {"android": "https://dc.lft.to/lastmile_qr_scan", "ios": "https://dc.lft.to/lastmile_qr_scan"}, "fusion_lon": 0.0, "lat": 38.90774233333333, "bike_id": "7fc565c0f66a54f726b3481aa470f7dd", "type": "electric_scooter", "is_reserved": 0, "lon": -77.035367}, {"fusion_lat": 0.0, "name": "e01169fadf0b6ed844b6c31042ae1881", "is_disabled": 0, "rental_uris": {"android": "https://dc.lft.to/lastmile_qr_scan", "ios": "https://dc.lft.to/lastmile_qr_scan"}, "fusion_lon": 0.0, "lat": 38.9047705, "bike_id": "e01169fadf0b6ed844b6c31042ae1881", "type": "electric_scooter", "is_reserved": 0, "lon": -77.02618883333334}, {"fusion_lat": 0.0, "name": "7d0eed92702f7d3a607c765cde5d9ab0", "is_disabled": 0, "rental_uris": {"android": "https://dc.lft.to/lastmile_qr_scan", "ios": "https://dc.lft.to/lastmile_qr_scan"}, "fusion_lon": 0.0, "lat": 38.909313166666664, "bike_id": "7d0eed92702f7d3a607c765cde5d9ab0", "type": "electric_scooter", "is_reserved": 0, "lon": -76.99970083333334}, {"fusion_lat": 0.0, "name": "7e87c1be25b789c31c6fe5010b756696", "is_disabled": 0, "rental_uris": {"android": "https://dc.lft.to/lastmile_qr_scan", "ios": "https://dc.lft.to/lastmile_qr_scan"}, "fusion_lon": 0.0, "lat": 38.917277, "bike_id": "7e87c1be25b789c31c6fe5010b756696", "type": "electric_scooter", "is_reserved": 0, "lon": -77.02700016666667}, {"fusion_lat": 0.0, "name": "97a7fbb5f474c4b76f953decb5d2e038", "is_disabled": 0, "rental_uris": {"android": "https://dc.lft.to/lastmile_qr_scan", "ios": "https://dc.lft.to/lastmile_qr_scan"}, "fusion_lon": 0.0, "lat": 38.9090745, "bike_id": "97a7fbb5f474c4b76f953decb5d2e038", "type": "electric_scooter", "is_reserved": 0, "lon": -77.04213416666667}, {"fusion_lat": 0.0, "name": "2eb235f50d391782e1c89ca65a345625", "is_disabled": 0, "rental_uris": {"android": "https://dc.lft.to/lastmile_qr_scan", "ios": "https://dc.lft.to/lastmile_qr_scan"}, "fusion_lon": 0.0, "lat": 38.9116335, "bike_id": "2eb235f50d391782e1c89ca65a345625", "type": "electric_bike", "is_reserved": 0, "lon": -77.002893}, {"fusion_lat": 0.0, "name": "3cf1de031465732021fabaf38d545617", "is_disabled": 0, "rental_uris": {"android": "https://dc.lft.to/lastmile_qr_scan", "ios": "https://dc.lft.to/lastmile_qr_scan"}, "fusion_lon": 0.0, "lat": 38.93558733333333, "bike_id": "3cf1de031465732021fabaf38d545617", "type": "electric_bike", "is_reserved": 0, "lon": -77.03709266666667}, {"fusion_lat": 0.0, "name": "00f9d94fcfcfc1bd1e71daaf62c7a035", "is_disabled": 0, "rental_uris": {"android": "https://dc.lft.to/lastmile_qr_scan", "ios": "https://dc.lft.to/lastmile_qr_scan"}, "fusion_lon": 0.0, "lat": 38.906796, "bike_id": "00f9d94fcfcfc1bd1e71daaf62c7a035", "type": "electric_bike", "is_reserved": 0, "lon": -77.03639816666667}, {"fusion_lat": 0.0, "name": "8a118523ac5d6a1ae5e837b25e70c5d3", "is_disabled": 0, "rental_uris": {"android": "https://dc.lft.to/lastmile_qr_scan", "ios": "https://dc.lft.to/lastmile_qr_scan"}, "fusion_lon": 0.0, "lat": 38.911482166666666, "bike_id": "8a118523ac5d6a1ae5e837b25e70c5d3", "type": "electric_scooter", "is_reserved": 0, "lon": -76.99759066666667}, {"fusion_lat": 0.0, "name": "f6ba23484ff81fa45dfe574b9f9132a3", "is_disabled": 0, "rental_uris": {"android": "https://dc.lft.to/lastmile_qr_scan", "ios": "https://dc.lft.to/lastmile_qr_scan"}, "fusion_lon": 0.0, "lat": 38.931292, "bike_id": "f6ba23484ff81fa45dfe574b9f9132a3", "type": "electric_scooter", "is_reserved": 0, "lon": -77.03853083333334}, {"fusion_lat": 0.0, "name": "e738b98ebc521ad575ba78a6e232f90f", "is_disabled": 0, "rental_uris": {"android": "https://dc.lft.to/lastmile_qr_scan", "ios": "https://dc.lft.to/lastmile_qr_scan"}, "fusion_lon": 0.0, "lat": 38.871810833333335, "bike_id": "e738b98ebc521ad575ba78a6e232f90f", "type": "electric_scooter", "is_reserved": 0, "lon": -77.0057265}, {"fusion_lat": 0.0, "name": "975b023f7e194844b6a3b2fb3d608a43", "is_disabled": 0, "rental_uris": {"android": "https://dc.lft.to/lastmile_qr_scan", "ios": "https://dc.lft.to/lastmile_qr_scan"}, "fusion_lon": 0.0, "lat": 38.95621833333333, "bike_id": "975b023f7e194844b6a3b2fb3d608a43", "type": "electric_bike", "is_reserved": 0, "lon": -76.93895466666666}, {"fusion_lat": 0.0, "name": "79e3b5b5531a6c2d04f3930d46659250", "is_disabled": 0, "rental_uris": {"android": "https://dc.lft.to/lastmile_qr_scan", "ios": "https://dc.lft.to/lastmile_qr_scan"}, "fusion_lon": 0.0, "lat": 38.91483733333333, "bike_id": "79e3b5b5531a6c2d04f3930d46659250", "type": "electric_scooter", "is_reserved": 0, "lon": -77.046021}, {"fusion_lat": 0.0, "name": "ec76ed29406675b4b70265c7354722f9", "is_disabled": 0, "rental_uris": {"android": "https://dc.lft.to/lastmile_qr_scan", "ios": "https://dc.lft.to/lastmile_qr_scan"}, "fusion_lon": 0.0, "lat": 38.919783833333334, "bike_id": "ec76ed29406675b4b70265c7354722f9", "type": "electric_scooter", "is_reserved": 0, "lon": -77.02604483333333}, {"fusion_lat": 0.0, "name": "02c5ab905ade869df26f06a3356f860d", "is_disabled": 0, "rental_uris": {"android": "https://dc.lft.to/lastmile_qr_scan", "ios": "https://dc.lft.to/lastmile_qr_scan"}, "fusion_lon": 0.0, "lat": 38.89527916666667, "bike_id": "02c5ab905ade869df26f06a3356f860d", "type": "electric_scooter", "is_reserved": 0, "lon": -76.93411916666666}, {"fusion_lat": 0.0, "name": "ee538711e2d65e117518d3825fb88579", "is_disabled": 0, "rental_uris": {"android": "https://dc.lft.to/lastmile_qr_scan", "ios": "https://dc.lft.to/lastmile_qr_scan"}, "fusion_lon": 0.0, "lat": 38.89894616666667, "bike_id": "ee538711e2d65e117518d3825fb88579", "type": "electric_scooter", "is_reserved": 0, "lon": -76.99388333333333}, {"fusion_lat": 0.0, "name": "eff9eea8f0bf9ac23ed5dcf5ed0b5c14", "is_disabled": 0, "rental_uris": {"android": "https://dc.lft.to/lastmile_qr_scan", "ios": "https://dc.lft.to/lastmile_qr_scan"}, "fusion_lon": 0.0, "lat": 38.895061, "bike_id": "eff9eea8f0bf9ac23ed5dcf5ed0b5c14", "type": "electric_scooter", "is_reserved": 0, "lon": -77.0396665}, {"fusion_lat": 0.0, "name": "4abede912b15b6053bdeecf476f57e1a", "is_disabled": 0, "rental_uris": {"android": "https://dc.lft.to/lastmile_qr_scan", "ios": "https://dc.lft.to/lastmile_qr_scan"}, "fusion_lon": 0.0, "lat": 38.91680616666667, "bike_id": "4abede912b15b6053bdeecf476f57e1a", "type": "electric_scooter", "is_reserved": 0, "lon": -77.01577333333333}, {"fusion_lat": 0.0, "name": "2e97927dc65a02408cacdc6134ffd6ac", "is_disabled": 0, "rental_uris": {"android": "https://dc.lft.to/lastmile_qr_scan", "ios": "https://dc.lft.to/lastmile_qr_scan"}, "fusion_lon": 0.0, "lat": 38.877179, "bike_id": "2e97927dc65a02408cacdc6134ffd6ac", "type": "electric_scooter", "is_reserved": 0, "lon": -77.01761633333334}, {"fusion_lat": 0.0, "name": "cfa78bab1505d397fd02973d1ed0379d", "is_disabled": 0, "rental_uris": {"android": "https://dc.lft.to/lastmile_qr_scan", "ios": "https://dc.lft.to/lastmile_qr_scan"}, "fusion_lon": 0.0, "lat": 38.911274166666665, "bike_id": "cfa78bab1505d397fd02973d1ed0379d", "type": "electric_scooter", "is_reserved": 0, "lon": -76.99760766666667}, {"fusion_lat": 0.0, "name": "ae679f5edafc4093d40d039197cf0952", "is_disabled": 0, "rental_uris": {"android": "https://dc.lft.to/lastmile_qr_scan", "ios": "https://dc.lft.to/lastmile_qr_scan"}, "fusion_lon": 0.0, "lat": 38.93950016666667, "bike_id": "ae679f5edafc4093d40d039197cf0952", "type": "electric_scooter", "is_reserved": 0, "lon": -77.02182383333333}, {"fusion_lat": 0.0, "name": "f8a1a9e509d362bd171beabc4ee4e792", "is_disabled": 0, "rental_uris": {"android": "https://dc.lft.to/lastmile_qr_scan", "ios": "https://dc.lft.to/lastmile_qr_scan"}, "fusion_lon": 0.0, "lat": 38.90518733333333, "bike_id": "f8a1a9e509d362bd171beabc4ee4e792", "type": "electric_scooter", "is_reserved": 0, "lon": -77.0646595}, {"fusion_lat": 0.0, "name": "0b40ea685784926b4ce94a9b378123cd", "is_disabled": 0, "rental_uris": {"android": "https://dc.lft.to/lastmile_qr_scan", "ios": "https://dc.lft.to/lastmile_qr_scan"}, "fusion_lon": 0.0, "lat": 38.89828216666667, "bike_id": "0b40ea685784926b4ce94a9b378123cd", "type": "electric_scooter", "is_reserved": 0, "lon": -77.02582933333333}, {"fusion_lat": 0.0, "name": "c3be2c8697177772493f35a748bb6981", "is_disabled": 0, "rental_uris": {"android": "https://dc.lft.to/lastmile_qr_scan", "ios": "https://dc.lft.to/lastmile_qr_scan"}, "fusion_lon": 0.0, "lat": 38.900902, "bike_id": "c3be2c8697177772493f35a748bb6981", "type": "electric_scooter", "is_reserved": 0, "lon": -76.98341416666666}, {"fusion_lat": 0.0, "name": "890fcaefafd6782c77d0725a62ee8550", "is_disabled": 0, "rental_uris": {"android": "https://dc.lft.to/lastmile_qr_scan", "ios": "https://dc.lft.to/lastmile_qr_scan"}, "fusion_lon": 0.0, "lat": 38.91491333333333, "bike_id": "890fcaefafd6782c77d0725a62ee8550", "type": "electric_scooter", "is_reserved": 0, "lon": -77.04265383333333}, {"fusion_lat": 0.0, "name": "44f5ea58645ba0f5b3188685921b11d8", "is_disabled": 0, "rental_uris": {"android": "https://dc.lft.to/lastmile_qr_scan", "ios": "https://dc.lft.to/lastmile_qr_scan"}, "fusion_lon": 0.0, "lat": 38.92151883333333, "bike_id": "44f5ea58645ba0f5b3188685921b11d8", "type": "electric_scooter", "is_reserved": 0, "lon": -77.04360316666667}, {"fusion_lat": 0.0, "name": "0a9eba0c5f6d7f8437817d5c2898acdf", "is_disabled": 0, "rental_uris": {"android": "https://dc.lft.to/lastmile_qr_scan", "ios": "https://dc.lft.to/lastmile_qr_scan"}, "fusion_lon": 0.0, "lat": 38.907616833333336, "bike_id": "0a9eba0c5f6d7f8437817d5c2898acdf", "type": "electric_scooter", "is_reserved": 0, "lon": -77.03580133333334}, {"fusion_lat": 0.0, "name": "9d40aeee358a436864b3cd881ef55a93", "is_disabled": 0, "rental_uris": {"android": "https://dc.lft.to/lastmile_qr_scan", "ios": "https://dc.lft.to/lastmile_qr_scan"}, "fusion_lon": 0.0, "lat": 38.908121666666666, "bike_id": "9d40aeee358a436864b3cd881ef55a93", "type": "electric_scooter", "is_reserved": 0, "lon": -77.04166133333334}, {"fusion_lat": 0.0, "name": "edf3024d9fc2f216b018c009d1461e6e", "is_disabled": 0, "rental_uris": {"android": "https://dc.lft.to/lastmile_qr_scan", "ios": "https://dc.lft.to/lastmile_qr_scan"}, "fusion_lon": 0.0, "lat": 38.905541, "bike_id": "edf3024d9fc2f216b018c009d1461e6e", "type": "electric_scooter", "is_reserved": 0, "lon": -77.00797983333334}, {"fusion_lat": 0.0, "name": "0923bbe9d6ce6bee85af246c2e64af63", "is_disabled": 0, "rental_uris": {"android": "https://dc.lft.to/lastmile_qr_scan", "ios": "https://dc.lft.to/lastmile_qr_scan"}, "fusion_lon": 0.0, "lat": 38.922535833333335, "bike_id": "0923bbe9d6ce6bee85af246c2e64af63", "type": "electric_scooter", "is_reserved": 0, "lon": -77.0425035}, {"fusion_lat": 0.0, "name": "117d1a3965ecd92a58012dc7a47879b0", "is_disabled": 0, "rental_uris": {"android": "https://dc.lft.to/lastmile_qr_scan", "ios": "https://dc.lft.to/lastmile_qr_scan"}, "fusion_lon": 0.0, "lat": 38.90014866666667, "bike_id": "117d1a3965ecd92a58012dc7a47879b0", "type": "electric_scooter", "is_reserved": 0, "lon": -76.99970266666666}, {"fusion_lat": 0.0, "name": "0ad5d2dab9c79270684cd47d83e7e607", "is_disabled": 0, "rental_uris": {"android": "https://dc.lft.to/lastmile_qr_scan", "ios": "https://dc.lft.to/lastmile_qr_scan"}, "fusion_lon": 0.0, "lat": 38.912648, "bike_id": "0ad5d2dab9c79270684cd47d83e7e607", "type": "electric_scooter", "is_reserved": 0, "lon": -77.040378}, {"fusion_lat": 0.0, "name": "7502826325b280b8198da1a372305a1a", "is_disabled": 0, "rental_uris": {"android": "https://dc.lft.to/lastmile_qr_scan", "ios": "https://dc.lft.to/lastmile_qr_scan"}, "fusion_lon": 0.0, "lat": 38.8976645, "bike_id": "7502826325b280b8198da1a372305a1a", "type": "electric_scooter", "is_reserved": 0, "lon": -77.033276}, {"fusion_lat": 0.0, "name": "44b1eeb1c6ef0e9558519996e6ab0107", "is_disabled": 0, "rental_uris": {"android": "https://dc.lft.to/lastmile_qr_scan", "ios": "https://dc.lft.to/lastmile_qr_scan"}, "fusion_lon": 0.0, "lat": 38.87661633333333, "bike_id": "44b1eeb1c6ef0e9558519996e6ab0107", "type": "electric_scooter", "is_reserved": 0, "lon": -77.00342733333333}, {"fusion_lat": 0.0, "name": "ccb9c96ecb0a8ca9bc18dca0de5668e4", "is_disabled": 0, "rental_uris": {"android": "https://dc.lft.to/lastmile_qr_scan", "ios": "https://dc.lft.to/lastmile_qr_scan"}, "fusion_lon": 0.0, "lat": 38.897786833333335, "bike_id": "ccb9c96ecb0a8ca9bc18dca0de5668e4", "type": "electric_scooter", "is_reserved": 0, "lon": -77.0447355}, {"fusion_lat": 0.0, "name": "1a7eacf74ec820af6084dbb21ed29237", "is_disabled": 0, "rental_uris": {"android": "https://dc.lft.to/lastmile_qr_scan", "ios": "https://dc.lft.to/lastmile_qr_scan"}, "fusion_lon": 0.0, "lat": 38.930581, "bike_id": "1a7eacf74ec820af6084dbb21ed29237", "type": "electric_bike", "is_reserved": 0, "lon": -77.03891066666667}, {"fusion_lat": 0.0, "name": "4e33503a98f67ddbbedaad847dd23427", "is_disabled": 0, "rental_uris": {"android": "https://dc.lft.to/lastmile_qr_scan", "ios": "https://dc.lft.to/lastmile_qr_scan"}, "fusion_lon": 0.0, "lat": 38.9284985, "bike_id": "4e33503a98f67ddbbedaad847dd23427", "type": "electric_bike", "is_reserved": 0, "lon": -77.02059166666666}, {"fusion_lat": 0.0, "name": "024cdef34db9c307023e9652ca9802da", "is_disabled": 0, "rental_uris": {"android": "https://dc.lft.to/lastmile_qr_scan", "ios": "https://dc.lft.to/lastmile_qr_scan"}, "fusion_lon": 0.0, "lat": 38.927667666666665, "bike_id": "024cdef34db9c307023e9652ca9802da", "type": "electric_scooter", "is_reserved": 0, "lon": -77.03249383333333}, {"fusion_lat": 0.0, "name": "997fde18b47a9d347d0acc23245822ad", "is_disabled": 0, "rental_uris": {"android": "https://dc.lft.to/lastmile_qr_scan", "ios": "https://dc.lft.to/lastmile_qr_scan"}, "fusion_lon": 0.0, "lat": 38.906478666666665, "bike_id": "997fde18b47a9d347d0acc23245822ad", "type": "electric_scooter", "is_reserved": 0, "lon": -77.04322533333334}, {"fusion_lat": 0.0, "name": "8e5706a1849cd186437b1ac1f4fc428f", "is_disabled": 0, "rental_uris": {"android": "https://dc.lft.to/lastmile_qr_scan", "ios": "https://dc.lft.to/lastmile_qr_scan"}, "fusion_lon": 0.0, "lat": 38.92433616666667, "bike_id": "8e5706a1849cd186437b1ac1f4fc428f", "type": "electric_scooter", "is_reserved": 0, "lon": -77.02707866666667}, {"fusion_lat": 0.0, "name": "19bdd6144389d5c4d4ba03aeb011d1ff", "is_disabled": 0, "rental_uris": {"android": "https://dc.lft.to/lastmile_qr_scan", "ios": "https://dc.lft.to/lastmile_qr_scan"}, "fusion_lon": 0.0, "lat": 38.90056666666667, "bike_id": "19bdd6144389d5c4d4ba03aeb011d1ff", "type": "electric_scooter", "is_reserved": 0, "lon": -77.050824}, {"fusion_lat": 0.0, "name": "b34547f9681d1139a176b9d73b491c06", "is_disabled": 0, "rental_uris": {"android": "https://dc.lft.to/lastmile_qr_scan", "ios": "https://dc.lft.to/lastmile_qr_scan"}, "fusion_lon": 0.0, "lat": 38.9318475, "bike_id": "b34547f9681d1139a176b9d73b491c06", "type": "electric_scooter", "is_reserved": 0, "lon": -77.03301333333333}, {"fusion_lat": 0.0, "name": "308f9e1f30178cf206cf6eb4d6704130", "is_disabled": 0, "rental_uris": {"android": "https://dc.lft.to/lastmile_qr_scan", "ios": "https://dc.lft.to/lastmile_qr_scan"}, "fusion_lon": 0.0, "lat": 38.89999366666667, "bike_id": "308f9e1f30178cf206cf6eb4d6704130", "type": "electric_scooter", "is_reserved": 0, "lon": -76.99850616666667}, {"fusion_lat": 0.0, "name": "0e031b1cb7ad4aa328bc1340582528e6", "is_disabled": 0, "rental_uris": {"android": "https://dc.lft.to/lastmile_qr_scan", "ios": "https://dc.lft.to/lastmile_qr_scan"}, "fusion_lon": 0.0, "lat": 38.9185415, "bike_id": "0e031b1cb7ad4aa328bc1340582528e6", "type": "electric_scooter", "is_reserved": 0, "lon": -77.02312383333333}, {"fusion_lat": 0.0, "name": "881412c1adca48cc86ff5d2ef3a3adbe", "is_disabled": 0, "rental_uris": {"android": "https://dc.lft.to/lastmile_qr_scan", "ios": "https://dc.lft.to/lastmile_qr_scan"}, "fusion_lon": 0.0, "lat": 38.922906166666664, "bike_id": "881412c1adca48cc86ff5d2ef3a3adbe", "type": "electric_scooter", "is_reserved": 0, "lon": -77.029393}, {"fusion_lat": 0.0, "name": "4ff245517c6dff9fc1bb603cc0cbca55", "is_disabled": 0, "rental_uris": {"android": "https://dc.lft.to/lastmile_qr_scan", "ios": "https://dc.lft.to/lastmile_qr_scan"}, "fusion_lon": 0.0, "lat": 38.89717566666667, "bike_id": "4ff245517c6dff9fc1bb603cc0cbca55", "type": "electric_scooter", "is_reserved": 0, "lon": -77.00797883333334}, {"fusion_lat": 0.0, "name": "2185ca8dd25cc1d7c98678eb1a5528a8", "is_disabled": 0, "rental_uris": {"android": "https://dc.lft.to/lastmile_qr_scan", "ios": "https://dc.lft.to/lastmile_qr_scan"}, "fusion_lon": 0.0, "lat": 38.9017105, "bike_id": "2185ca8dd25cc1d7c98678eb1a5528a8", "type": "electric_scooter", "is_reserved": 0, "lon": -77.02611}, {"fusion_lat": 0.0, "name": "15ea0efef1feb02c87fae7f958131577", "is_disabled": 0, "rental_uris": {"android": "https://dc.lft.to/lastmile_qr_scan", "ios": "https://dc.lft.to/lastmile_qr_scan"}, "fusion_lon": 0.0, "lat": 38.89220183333333, "bike_id": "15ea0efef1feb02c87fae7f958131577", "type": "electric_scooter", "is_reserved": 0, "lon": -77.02311233333333}, {"fusion_lat": 0.0, "name": "416eaf73cbdb15cbbc61e56f8033ccfd", "is_disabled": 0, "rental_uris": {"android": "https://dc.lft.to/lastmile_qr_scan", "ios": "https://dc.lft.to/lastmile_qr_scan"}, "fusion_lon": 0.0, "lat": 38.92269966666667, "bike_id": "416eaf73cbdb15cbbc61e56f8033ccfd", "type": "electric_bike", "is_reserved": 0, "lon": -76.98644716666666}, {"fusion_lat": 0.0, "name": "cfcee7182c16dc843633f82c9c0e686f", "is_disabled": 0, "rental_uris": {"android": "https://dc.lft.to/lastmile_qr_scan", "ios": "https://dc.lft.to/lastmile_qr_scan"}, "fusion_lon": 0.0, "lat": 38.93425883333333, "bike_id": "cfcee7182c16dc843633f82c9c0e686f", "type": "electric_scooter", "is_reserved": 0, "lon": -77.02205766666667}, {"fusion_lat": 0.0, "name": "763ba77be5c51a5d50ed391d7bda9f95", "is_disabled": 0, "rental_uris": {"android": "https://dc.lft.to/lastmile_qr_scan", "ios": "https://dc.lft.to/lastmile_qr_scan"}, "fusion_lon": 0.0, "lat": 38.902259, "bike_id": "763ba77be5c51a5d50ed391d7bda9f95", "type": "electric_scooter", "is_reserved": 0, "lon": -77.03238883333333}, {"fusion_lat": 0.0, "name": "5975e157a66a71eec943f7dce493642f", "is_disabled": 0, "rental_uris": {"android": "https://dc.lft.to/lastmile_qr_scan", "ios": "https://dc.lft.to/lastmile_qr_scan"}, "fusion_lon": 0.0, "lat": 38.9056305, "bike_id": "5975e157a66a71eec943f7dce493642f", "type": "electric_scooter", "is_reserved": 0, "lon": -77.04676383333333}, {"fusion_lat": 0.0, "name": "721a80c322575bb163d45e84c7dafdba", "is_disabled": 0, "rental_uris": {"android": "https://dc.lft.to/lastmile_qr_scan", "ios": "https://dc.lft.to/lastmile_qr_scan"}, "fusion_lon": 0.0, "lat": 38.90118183333333, "bike_id": "721a80c322575bb163d45e84c7dafdba", "type": "electric_scooter", "is_reserved": 0, "lon": -77.03376616666667}, {"fusion_lat": 0.0, "name": "b0079df1f7548273b9973842a7a8f2d6", "is_disabled": 0, "rental_uris": {"android": "https://dc.lft.to/lastmile_qr_scan", "ios": "https://dc.lft.to/lastmile_qr_scan"}, "fusion_lon": 0.0, "lat": 38.90895416666667, "bike_id": "b0079df1f7548273b9973842a7a8f2d6", "type": "electric_scooter", "is_reserved": 0, "lon": -77.04398883333333}, {"fusion_lat": 0.0, "name": "07396532f0d48c7aa0736499c7993287", "is_disabled": 0, "rental_uris": {"android": "https://dc.lft.to/lastmile_qr_scan", "ios": "https://dc.lft.to/lastmile_qr_scan"}, "fusion_lon": 0.0, "lat": 38.900288, "bike_id": "07396532f0d48c7aa0736499c7993287", "type": "electric_scooter", "is_reserved": 0, "lon": -76.99309416666667}, {"fusion_lat": 0.0, "name": "438d3c6cfb62fbd396650680147dda47", "is_disabled": 0, "rental_uris": {"android": "https://dc.lft.to/lastmile_qr_scan", "ios": "https://dc.lft.to/lastmile_qr_scan"}, "fusion_lon": 0.0, "lat": 38.897837833333334, "bike_id": "438d3c6cfb62fbd396650680147dda47", "type": "electric_scooter", "is_reserved": 0, "lon": -77.02721166666667}, {"fusion_lat": 0.0, "name": "b0a52ce14d1fe85914fe345ec6dc511a", "is_disabled": 0, "rental_uris": {"android": "https://dc.lft.to/lastmile_qr_scan", "ios": "https://dc.lft.to/lastmile_qr_scan"}, "fusion_lon": 0.0, "lat": 38.954197666666666, "bike_id": "b0a52ce14d1fe85914fe345ec6dc511a", "type": "electric_scooter", "is_reserved": 0, "lon": -77.02772533333334}, {"fusion_lat": 0.0, "name": "709e8b5eaf30f16bcf713bd283f57bea", "is_disabled": 0, "rental_uris": {"android": "https://dc.lft.to/lastmile_qr_scan", "ios": "https://dc.lft.to/lastmile_qr_scan"}, "fusion_lon": 0.0, "lat": 38.916365, "bike_id": "709e8b5eaf30f16bcf713bd283f57bea", "type": "electric_scooter", "is_reserved": 0, "lon": -77.0507605}, {"fusion_lat": 0.0, "name": "75a9e132c2716f0fc3b4bb975d6f4c9c", "is_disabled": 0, "rental_uris": {"android": "https://dc.lft.to/lastmile_qr_scan", "ios": "https://dc.lft.to/lastmile_qr_scan"}, "fusion_lon": 0.0, "lat": 38.893566666666665, "bike_id": "75a9e132c2716f0fc3b4bb975d6f4c9c", "type": "electric_scooter", "is_reserved": 0, "lon": -76.98653216666666}, {"fusion_lat": 0.0, "name": "28c1ccae41b74d98ddf6ea6672aec8d0", "is_disabled": 0, "rental_uris": {"android": "https://dc.lft.to/lastmile_qr_scan", "ios": "https://dc.lft.to/lastmile_qr_scan"}, "fusion_lon": 0.0, "lat": 38.89847016666667, "bike_id": "28c1ccae41b74d98ddf6ea6672aec8d0", "type": "electric_scooter", "is_reserved": 0, "lon": -76.94252566666667}, {"fusion_lat": 0.0, "name": "c675041b9fd5d93f71e6627f30814f36", "is_disabled": 0, "rental_uris": {"android": "https://dc.lft.to/lastmile_qr_scan", "ios": "https://dc.lft.to/lastmile_qr_scan"}, "fusion_lon": 0.0, "lat": 38.901092, "bike_id": "c675041b9fd5d93f71e6627f30814f36", "type": "electric_scooter", "is_reserved": 0, "lon": -76.974251}, {"fusion_lat": 0.0, "name": "61c9ca4fed11d0cb7277be8396fb1a31", "is_disabled": 0, "rental_uris": {"android": "https://dc.lft.to/lastmile_qr_scan", "ios": "https://dc.lft.to/lastmile_qr_scan"}, "fusion_lon": 0.0, "lat": 38.8968345, "bike_id": "61c9ca4fed11d0cb7277be8396fb1a31", "type": "electric_scooter", "is_reserved": 0, "lon": -77.01180033333333}, {"fusion_lat": 0.0, "name": "c1d23de928be5a7d93d4690073b45223", "is_disabled": 0, "rental_uris": {"android": "https://dc.lft.to/lastmile_qr_scan", "ios": "https://dc.lft.to/lastmile_qr_scan"}, "fusion_lon": 0.0, "lat": 38.9105815, "bike_id": "c1d23de928be5a7d93d4690073b45223", "type": "electric_scooter", "is_reserved": 0, "lon": -77.04374183333333}, {"fusion_lat": 0.0, "name": "198dc4dab218bda8fae0577f73220174", "is_disabled": 0, "rental_uris": {"android": "https://dc.lft.to/lastmile_qr_scan", "ios": "https://dc.lft.to/lastmile_qr_scan"}, "fusion_lon": 0.0, "lat": 38.90569133333333, "bike_id": "198dc4dab218bda8fae0577f73220174", "type": "electric_scooter", "is_reserved": 0, "lon": -77.04177133333333}, {"fusion_lat": 0.0, "name": "1d95a5ddb2a409bbe8f53b44ecc08ac3", "is_disabled": 0, "rental_uris": {"android": "https://dc.lft.to/lastmile_qr_scan", "ios": "https://dc.lft.to/lastmile_qr_scan"}, "fusion_lon": 0.0, "lat": 38.9229855, "bike_id": "1d95a5ddb2a409bbe8f53b44ecc08ac3", "type": "electric_scooter", "is_reserved": 0, "lon": -77.02325966666666}, {"fusion_lat": 0.0, "name": "5881f45e6b6f05e70fb8846790d6a63a", "is_disabled": 0, "rental_uris": {"android": "https://dc.lft.to/lastmile_qr_scan", "ios": "https://dc.lft.to/lastmile_qr_scan"}, "fusion_lon": 0.0, "lat": 38.91407916666667, "bike_id": "5881f45e6b6f05e70fb8846790d6a63a", "type": "electric_scooter", "is_reserved": 0, "lon": -77.0156085}, {"fusion_lat": 0.0, "name": "04d1069654b19c4e5d26788662a09e9b", "is_disabled": 0, "rental_uris": {"android": "https://dc.lft.to/lastmile_qr_scan", "ios": "https://dc.lft.to/lastmile_qr_scan"}, "fusion_lon": 0.0, "lat": 38.918173, "bike_id": "04d1069654b19c4e5d26788662a09e9b", "type": "electric_scooter", "is_reserved": 0, "lon": -77.0325205}, {"fusion_lat": 0.0, "name": "eff27657dad2ae053b049f88cb5586dc", "is_disabled": 0, "rental_uris": {"android": "https://dc.lft.to/lastmile_qr_scan", "ios": "https://dc.lft.to/lastmile_qr_scan"}, "fusion_lon": 0.0, "lat": 38.91609733333333, "bike_id": "eff27657dad2ae053b049f88cb5586dc", "type": "electric_scooter", "is_reserved": 0, "lon": -77.04545516666667}, {"fusion_lat": 0.0, "name": "7928b2aa25d4876bba5ac0624e7dcf7d", "is_disabled": 0, "rental_uris": {"android": "https://dc.lft.to/lastmile_qr_scan", "ios": "https://dc.lft.to/lastmile_qr_scan"}, "fusion_lon": 0.0, "lat": 38.897407333333334, "bike_id": "7928b2aa25d4876bba5ac0624e7dcf7d", "type": "electric_scooter", "is_reserved": 0, "lon": -77.04527866666666}, {"fusion_lat": 0.0, "name": "97b3462317d4c018940e97c911e82c15", "is_disabled": 0, "rental_uris": {"android": "https://dc.lft.to/lastmile_qr_scan", "ios": "https://dc.lft.to/lastmile_qr_scan"}, "fusion_lon": 0.0, "lat": 38.9038365, "bike_id": "97b3462317d4c018940e97c911e82c15", "type": "electric_scooter", "is_reserved": 0, "lon": -77.04024366666667}, {"fusion_lat": 0.0, "name": "1d522b26ac019fc803f25f23fc8e0fda", "is_disabled": 0, "rental_uris": {"android": "https://dc.lft.to/lastmile_qr_scan", "ios": "https://dc.lft.to/lastmile_qr_scan"}, "fusion_lon": 0.0, "lat": 38.91264266666667, "bike_id": "1d522b26ac019fc803f25f23fc8e0fda", "type": "electric_scooter", "is_reserved": 0, "lon": -77.03307933333333}, {"fusion_lat": 0.0, "name": "49b9bbbfc9fee4c959aa457d3a652fb4", "is_disabled": 0, "rental_uris": {"android": "https://dc.lft.to/lastmile_qr_scan", "ios": "https://dc.lft.to/lastmile_qr_scan"}, "fusion_lon": 0.0, "lat": 38.897415333333335, "bike_id": "49b9bbbfc9fee4c959aa457d3a652fb4", "type": "electric_scooter", "is_reserved": 0, "lon": -77.0475335}, {"fusion_lat": 0.0, "name": "b6b84845c10a53a09521c27e19bdff85", "is_disabled": 0, "rental_uris": {"android": "https://dc.lft.to/lastmile_qr_scan", "ios": "https://dc.lft.to/lastmile_qr_scan"}, "fusion_lon": 0.0, "lat": 38.9473085, "bike_id": "b6b84845c10a53a09521c27e19bdff85", "type": "electric_scooter", "is_reserved": 0, "lon": -77.06539616666667}, {"fusion_lat": 0.0, "name": "c2ad12d3079947d59ef3603a5c1ecca8", "is_disabled": 0, "rental_uris": {"android": "https://dc.lft.to/lastmile_qr_scan", "ios": "https://dc.lft.to/lastmile_qr_scan"}, "fusion_lon": 0.0, "lat": 38.887371, "bike_id": "c2ad12d3079947d59ef3603a5c1ecca8", "type": "electric_scooter", "is_reserved": 0, "lon": -77.031748}, {"fusion_lat": 0.0, "name": "f252a37c6208cd77075eafaee92c2958", "is_disabled": 0, "rental_uris": {"android": "https://dc.lft.to/lastmile_qr_scan", "ios": "https://dc.lft.to/lastmile_qr_scan"}, "fusion_lon": 0.0, "lat": 38.8971935, "bike_id": "f252a37c6208cd77075eafaee92c2958", "type": "electric_scooter", "is_reserved": 0, "lon": -77.04809116666667}, {"fusion_lat": 0.0, "name": "3ef4ed43e11cc2fd217e47ff9560f87c", "is_disabled": 0, "rental_uris": {"android": "https://dc.lft.to/lastmile_qr_scan", "ios": "https://dc.lft.to/lastmile_qr_scan"}, "fusion_lon": 0.0, "lat": 38.923363, "bike_id": "3ef4ed43e11cc2fd217e47ff9560f87c", "type": "electric_scooter", "is_reserved": 0, "lon": -77.05676733333334}, {"fusion_lat": 0.0, "name": "1d16554ff78679c86e71e3804c8bf5b5", "is_disabled": 0, "rental_uris": {"android": "https://dc.lft.to/lastmile_qr_scan", "ios": "https://dc.lft.to/lastmile_qr_scan"}, "fusion_lon": 0.0, "lat": 38.90664066666667, "bike_id": "1d16554ff78679c86e71e3804c8bf5b5", "type": "electric_scooter", "is_reserved": 0, "lon": -77.00884033333334}, {"fusion_lat": 0.0, "name": "5be4057ddc85b23f3c7f3397eb15c96e", "is_disabled": 0, "rental_uris": {"android": "https://dc.lft.to/lastmile_qr_scan", "ios": "https://dc.lft.to/lastmile_qr_scan"}, "fusion_lon": 0.0, "lat": 38.92103183333333, "bike_id": "5be4057ddc85b23f3c7f3397eb15c96e", "type": "electric_scooter", "is_reserved": 0, "lon": -77.0250955}, {"fusion_lat": 0.0, "name": "b86d3d93764c8de9bf7174439bc40496", "is_disabled": 0, "rental_uris": {"android": "https://dc.lft.to/lastmile_qr_scan", "ios": "https://dc.lft.to/lastmile_qr_scan"}, "fusion_lon": 0.0, "lat": 38.86244466666667, "bike_id": "b86d3d93764c8de9bf7174439bc40496", "type": "electric_scooter", "is_reserved": 0, "lon": -76.99496533333334}, {"fusion_lat": 0.0, "name": "ceb5245eb7559479dfca8e00b814eaf1", "is_disabled": 0, "rental_uris": {"android": "https://dc.lft.to/lastmile_qr_scan", "ios": "https://dc.lft.to/lastmile_qr_scan"}, "fusion_lon": 0.0, "lat": 38.883397, "bike_id": "ceb5245eb7559479dfca8e00b814eaf1", "type": "electric_scooter", "is_reserved": 0, "lon": -76.93498216666667}, {"fusion_lat": 0.0, "name": "916619a602a631af8cdff3cc973ee6fa", "is_disabled": 0, "rental_uris": {"android": "https://dc.lft.to/lastmile_qr_scan", "ios": "https://dc.lft.to/lastmile_qr_scan"}, "fusion_lon": 0.0, "lat": 38.90554266666667, "bike_id": "916619a602a631af8cdff3cc973ee6fa", "type": "electric_scooter", "is_reserved": 0, "lon": -77.03773933333333}, {"fusion_lat": 0.0, "name": "9c018371fa61a328a95303499660b888", "is_disabled": 0, "rental_uris": {"android": "https://dc.lft.to/lastmile_qr_scan", "ios": "https://dc.lft.to/lastmile_qr_scan"}, "fusion_lon": 0.0, "lat": 38.987845666666665, "bike_id": "9c018371fa61a328a95303499660b888", "type": "electric_bike", "is_reserved": 0, "lon": -77.140975}, {"fusion_lat": 0.0, "name": "08d49fc17f31bcefc2710872e3d409e0", "is_disabled": 0, "rental_uris": {"android": "https://dc.lft.to/lastmile_qr_scan", "ios": "https://dc.lft.to/lastmile_qr_scan"}, "fusion_lon": 0.0, "lat": 38.916084, "bike_id": "08d49fc17f31bcefc2710872e3d409e0", "type": "electric_scooter", "is_reserved": 0, "lon": -77.02291716666667}, {"fusion_lat": 0.0, "name": "13e0461b0fdd451ed43439f5158ebcf7", "is_disabled": 0, "rental_uris": {"android": "https://dc.lft.to/lastmile_qr_scan", "ios": "https://dc.lft.to/lastmile_qr_scan"}, "fusion_lon": 0.0, "lat": 38.94070266666667, "bike_id": "13e0461b0fdd451ed43439f5158ebcf7", "type": "electric_bike", "is_reserved": 0, "lon": -77.00028566666667}, {"fusion_lat": 0.0, "name": "b3a9363e77f358b7f246dabd2fc6caf9", "is_disabled": 0, "rental_uris": {"android": "https://dc.lft.to/lastmile_qr_scan", "ios": "https://dc.lft.to/lastmile_qr_scan"}, "fusion_lon": 0.0, "lat": 38.895438666666664, "bike_id": "b3a9363e77f358b7f246dabd2fc6caf9", "type": "electric_scooter", "is_reserved": 0, "lon": -76.9833765}, {"fusion_lat": 0.0, "name": "3b018af3f4f12d91ef7dcf96becfb2ea", "is_disabled": 0, "rental_uris": {"android": "https://dc.lft.to/lastmile_qr_scan", "ios": "https://dc.lft.to/lastmile_qr_scan"}, "fusion_lon": 0.0, "lat": 38.90856, "bike_id": "3b018af3f4f12d91ef7dcf96becfb2ea", "type": "electric_scooter", "is_reserved": 0, "lon": -77.02399}, {"fusion_lat": 0.0, "name": "62c9881d33404878d027fb2fcd63eb2b", "is_disabled": 0, "rental_uris": {"android": "https://dc.lft.to/lastmile_qr_scan", "ios": "https://dc.lft.to/lastmile_qr_scan"}, "fusion_lon": 0.0, "lat": 38.873809, "bike_id": "62c9881d33404878d027fb2fcd63eb2b", "type": "electric_scooter", "is_reserved": 0, "lon": -77.0012195}, {"fusion_lat": 0.0, "name": "17c7dea1c970a994d107c1a9b6734b9e", "is_disabled": 0, "rental_uris": {"android": "https://dc.lft.to/lastmile_qr_scan", "ios": "https://dc.lft.to/lastmile_qr_scan"}, "fusion_lon": 0.0, "lat": 38.91465733333333, "bike_id": "17c7dea1c970a994d107c1a9b6734b9e", "type": "electric_scooter", "is_reserved": 0, "lon": -77.04562016666667}, {"fusion_lat": 0.0, "name": "21e38541718cc1a5222810c6c29d5ab1", "is_disabled": 0, "rental_uris": {"android": "https://dc.lft.to/lastmile_qr_scan", "ios": "https://dc.lft.to/lastmile_qr_scan"}, "fusion_lon": 0.0, "lat": 38.900399166666666, "bike_id": "21e38541718cc1a5222810c6c29d5ab1", "type": "electric_scooter", "is_reserved": 0, "lon": -76.9963525}, {"fusion_lat": 0.0, "name": "11bd9195a52a9439b48f2105aa4aedce", "is_disabled": 0, "rental_uris": {"android": "https://dc.lft.to/lastmile_qr_scan", "ios": "https://dc.lft.to/lastmile_qr_scan"}, "fusion_lon": 0.0, "lat": 38.951949666666664, "bike_id": "11bd9195a52a9439b48f2105aa4aedce", "type": "electric_scooter", "is_reserved": 0, "lon": -77.01249633333333}, {"fusion_lat": 0.0, "name": "485ca0ffd302f6efabfea0991cc6e63e", "is_disabled": 0, "rental_uris": {"android": "https://dc.lft.to/lastmile_qr_scan", "ios": "https://dc.lft.to/lastmile_qr_scan"}, "fusion_lon": 0.0, "lat": 38.919973166666665, "bike_id": "485ca0ffd302f6efabfea0991cc6e63e", "type": "electric_bike", "is_reserved": 0, "lon": -77.04759616666666}, {"fusion_lat": 0.0, "name": "b726fc9475e47f5d03355114b1a9dd2f", "is_disabled": 0, "rental_uris": {"android": "https://dc.lft.to/lastmile_qr_scan", "ios": "https://dc.lft.to/lastmile_qr_scan"}, "fusion_lon": 0.0, "lat": 38.92753716666667, "bike_id": "b726fc9475e47f5d03355114b1a9dd2f", "type": "electric_scooter", "is_reserved": 0, "lon": -77.02424883333333}, {"fusion_lat": 0.0, "name": "133900c744e3722fd0bd44e718cd58f1", "is_disabled": 0, "rental_uris": {"android": "https://dc.lft.to/lastmile_qr_scan", "ios": "https://dc.lft.to/lastmile_qr_scan"}, "fusion_lon": 0.0, "lat": 38.9012805, "bike_id": "133900c744e3722fd0bd44e718cd58f1", "type": "electric_scooter", "is_reserved": 0, "lon": -77.00202633333333}, {"fusion_lat": 0.0, "name": "0db22a861f649c497cfd58f25aae390b", "is_disabled": 0, "rental_uris": {"android": "https://dc.lft.to/lastmile_qr_scan", "ios": "https://dc.lft.to/lastmile_qr_scan"}, "fusion_lon": 0.0, "lat": 38.916881333333336, "bike_id": "0db22a861f649c497cfd58f25aae390b", "type": "electric_scooter", "is_reserved": 0, "lon": -77.03768866666667}, {"fusion_lat": 0.0, "name": "6f6e7f4715244d7d89a9a3e9a3a54cf3", "is_disabled": 0, "rental_uris": {"android": "https://dc.lft.to/lastmile_qr_scan", "ios": "https://dc.lft.to/lastmile_qr_scan"}, "fusion_lon": 0.0, "lat": 38.87534016666667, "bike_id": "6f6e7f4715244d7d89a9a3e9a3a54cf3", "type": "electric_scooter", "is_reserved": 0, "lon": -77.00505383333333}, {"fusion_lat": 0.0, "name": "9e1b16e5d9a329ef4505daec1334dd47", "is_disabled": 0, "rental_uris": {"android": "https://dc.lft.to/lastmile_qr_scan", "ios": "https://dc.lft.to/lastmile_qr_scan"}, "fusion_lon": 0.0, "lat": 38.895412666666665, "bike_id": "9e1b16e5d9a329ef4505daec1334dd47", "type": "electric_scooter", "is_reserved": 0, "lon": -76.949605}, {"fusion_lat": 0.0, "name": "ab9ae8ad754a050816115bf3eaee964b", "is_disabled": 0, "rental_uris": {"android": "https://dc.lft.to/lastmile_qr_scan", "ios": "https://dc.lft.to/lastmile_qr_scan"}, "fusion_lon": 0.0, "lat": 38.871801166666664, "bike_id": "ab9ae8ad754a050816115bf3eaee964b", "type": "electric_scooter", "is_reserved": 0, "lon": -77.0061325}, {"fusion_lat": 0.0, "name": "242ba3753a8fd8e17bef69e380ca6082", "is_disabled": 0, "rental_uris": {"android": "https://dc.lft.to/lastmile_qr_scan", "ios": "https://dc.lft.to/lastmile_qr_scan"}, "fusion_lon": 0.0, "lat": 38.9370245, "bike_id": "242ba3753a8fd8e17bef69e380ca6082", "type": "electric_scooter", "is_reserved": 0, "lon": -77.05593333333333}, {"fusion_lat": 0.0, "name": "10367cadcd7984e235ba638350d48ab4", "is_disabled": 0, "rental_uris": {"android": "https://dc.lft.to/lastmile_qr_scan", "ios": "https://dc.lft.to/lastmile_qr_scan"}, "fusion_lon": 0.0, "lat": 38.8966075, "bike_id": "10367cadcd7984e235ba638350d48ab4", "type": "electric_scooter", "is_reserved": 0, "lon": -77.0334725}, {"fusion_lat": 0.0, "name": "982cb365d6be57f8d0c81fc19255c2aa", "is_disabled": 0, "rental_uris": {"android": "https://dc.lft.to/lastmile_qr_scan", "ios": "https://dc.lft.to/lastmile_qr_scan"}, "fusion_lon": 0.0, "lat": 38.887694333333336, "bike_id": "982cb365d6be57f8d0c81fc19255c2aa", "type": "electric_scooter", "is_reserved": 0, "lon": -77.02370316666666}, {"fusion_lat": 0.0, "name": "8756fc2d85401f927b7a6389826fc676", "is_disabled": 0, "rental_uris": {"android": "https://dc.lft.to/lastmile_qr_scan", "ios": "https://dc.lft.to/lastmile_qr_scan"}, "fusion_lon": 0.0, "lat": 38.887375666666664, "bike_id": "8756fc2d85401f927b7a6389826fc676", "type": "electric_scooter", "is_reserved": 0, "lon": -77.0151605}, {"fusion_lat": 0.0, "name": "ee965b3e5aba110cdc202a92dfebdf98", "is_disabled": 0, "rental_uris": {"android": "https://dc.lft.to/lastmile_qr_scan", "ios": "https://dc.lft.to/lastmile_qr_scan"}, "fusion_lon": 0.0, "lat": 38.88537983333333, "bike_id": "ee965b3e5aba110cdc202a92dfebdf98", "type": "electric_scooter", "is_reserved": 0, "lon": -76.9827285}, {"fusion_lat": 0.0, "name": "7399982ae32777e306e248f89f0020b9", "is_disabled": 0, "rental_uris": {"android": "https://dc.lft.to/lastmile_qr_scan", "ios": "https://dc.lft.to/lastmile_qr_scan"}, "fusion_lon": 0.0, "lat": 38.92126283333333, "bike_id": "7399982ae32777e306e248f89f0020b9", "type": "electric_scooter", "is_reserved": 0, "lon": -77.0468315}, {"fusion_lat": 0.0, "name": "bffe9f1dd2417b2ffbe401e075c8e2ad", "is_disabled": 0, "rental_uris": {"android": "https://dc.lft.to/lastmile_qr_scan", "ios": "https://dc.lft.to/lastmile_qr_scan"}, "fusion_lon": 0.0, "lat": 38.89198066666667, "bike_id": "bffe9f1dd2417b2ffbe401e075c8e2ad", "type": "electric_scooter", "is_reserved": 0, "lon": -77.02222133333333}, {"fusion_lat": 0.0, "name": "8c63c7208e2038319e25b89cbf066c78", "is_disabled": 0, "rental_uris": {"android": "https://dc.lft.to/lastmile_qr_scan", "ios": "https://dc.lft.to/lastmile_qr_scan"}, "fusion_lon": 0.0, "lat": 38.88729416666666, "bike_id": "8c63c7208e2038319e25b89cbf066c78", "type": "electric_scooter", "is_reserved": 0, "lon": -77.01766266666667}, {"fusion_lat": 0.0, "name": "e6fbfcc3c4298440a0378b6a08d2dd57", "is_disabled": 0, "rental_uris": {"android": "https://dc.lft.to/lastmile_qr_scan", "ios": "https://dc.lft.to/lastmile_qr_scan"}, "fusion_lon": 0.0, "lat": 38.90065883333333, "bike_id": "e6fbfcc3c4298440a0378b6a08d2dd57", "type": "electric_scooter", "is_reserved": 0, "lon": -76.92746216666667}, {"fusion_lat": 0.0, "name": "4c812e0f0f6c0b3a1e652cfa5eb57f72", "is_disabled": 0, "rental_uris": {"android": "https://dc.lft.to/lastmile_qr_scan", "ios": "https://dc.lft.to/lastmile_qr_scan"}, "fusion_lon": 0.0, "lat": 38.807636, "bike_id": "4c812e0f0f6c0b3a1e652cfa5eb57f72", "type": "electric_bike", "is_reserved": 0, "lon": -77.12984783333333}, {"fusion_lat": 0.0, "name": "f2c72aec5ef4370e9948ee49d06669c2", "is_disabled": 0, "rental_uris": {"android": "https://dc.lft.to/lastmile_qr_scan", "ios": "https://dc.lft.to/lastmile_qr_scan"}, "fusion_lon": 0.0, "lat": 38.90569966666666, "bike_id": "f2c72aec5ef4370e9948ee49d06669c2", "type": "electric_scooter", "is_reserved": 0, "lon": -77.005873}, {"fusion_lat": 0.0, "name": "6de53ef3c87da081a06d7b50cdcc2cb9", "is_disabled": 0, "rental_uris": {"android": "https://dc.lft.to/lastmile_qr_scan", "ios": "https://dc.lft.to/lastmile_qr_scan"}, "fusion_lon": 0.0, "lat": 38.957568333333334, "bike_id": "6de53ef3c87da081a06d7b50cdcc2cb9", "type": "electric_scooter", "is_reserved": 0, "lon": -77.02060066666667}, {"fusion_lat": 0.0, "name": "7d6ff4abb49326b882a7f2dc4e2c516d", "is_disabled": 0, "rental_uris": {"android": "https://dc.lft.to/lastmile_qr_scan", "ios": "https://dc.lft.to/lastmile_qr_scan"}, "fusion_lon": 0.0, "lat": 38.96160416666667, "bike_id": "7d6ff4abb49326b882a7f2dc4e2c516d", "type": "electric_scooter", "is_reserved": 0, "lon": -77.03245966666667}, {"fusion_lat": 0.0, "name": "21736dc9986aceee23a74ee22767613e", "is_disabled": 0, "rental_uris": {"android": "https://dc.lft.to/lastmile_qr_scan", "ios": "https://dc.lft.to/lastmile_qr_scan"}, "fusion_lon": 0.0, "lat": 38.9236385, "bike_id": "21736dc9986aceee23a74ee22767613e", "type": "electric_scooter", "is_reserved": 0, "lon": -77.05052866666666}, {"fusion_lat": 0.0, "name": "02c43b9c83d0c0b91e2823082d5615f6", "is_disabled": 0, "rental_uris": {"android": "https://dc.lft.to/lastmile_qr_scan", "ios": "https://dc.lft.to/lastmile_qr_scan"}, "fusion_lon": 0.0, "lat": 38.90240416666666, "bike_id": "02c43b9c83d0c0b91e2823082d5615f6", "type": "electric_scooter", "is_reserved": 0, "lon": -77.00528816666667}, {"fusion_lat": 0.0, "name": "60a9648f16616c4d4ea7d40429fd5e51", "is_disabled": 0, "rental_uris": {"android": "https://dc.lft.to/lastmile_qr_scan", "ios": "https://dc.lft.to/lastmile_qr_scan"}, "fusion_lon": 0.0, "lat": 38.9272265, "bike_id": "60a9648f16616c4d4ea7d40429fd5e51", "type": "electric_scooter", "is_reserved": 0, "lon": -77.02313066666666}, {"fusion_lat": 0.0, "name": "082fc063cdf158ef7006584be893bb26", "is_disabled": 0, "rental_uris": {"android": "https://dc.lft.to/lastmile_qr_scan", "ios": "https://dc.lft.to/lastmile_qr_scan"}, "fusion_lon": 0.0, "lat": 38.91200116666667, "bike_id": "082fc063cdf158ef7006584be893bb26", "type": "electric_scooter", "is_reserved": 0, "lon": -77.00186783333334}, {"fusion_lat": 0.0, "name": "b4059c6f193eb401e52a750c5f1d446c", "is_disabled": 0, "rental_uris": {"android": "https://dc.lft.to/lastmile_qr_scan", "ios": "https://dc.lft.to/lastmile_qr_scan"}, "fusion_lon": 0.0, "lat": 38.878465166666665, "bike_id": "b4059c6f193eb401e52a750c5f1d446c", "type": "electric_scooter", "is_reserved": 0, "lon": -77.001101}, {"fusion_lat": 0.0, "name": "37131c7fe42568779ded0ab53a736ec5", "is_disabled": 0, "rental_uris": {"android": "https://dc.lft.to/lastmile_qr_scan", "ios": "https://dc.lft.to/lastmile_qr_scan"}, "fusion_lon": 0.0, "lat": 38.90748883333333, "bike_id": "37131c7fe42568779ded0ab53a736ec5", "type": "electric_scooter", "is_reserved": 0, "lon": -77.04159466666667}, {"fusion_lat": 0.0, "name": "e0ed0451fd11c65cde03dce80f17026d", "is_disabled": 0, "rental_uris": {"android": "https://dc.lft.to/lastmile_qr_scan", "ios": "https://dc.lft.to/lastmile_qr_scan"}, "fusion_lon": 0.0, "lat": 38.8746885, "bike_id": "e0ed0451fd11c65cde03dce80f17026d", "type": "electric_scooter", "is_reserved": 0, "lon": -77.00466266666666}, {"fusion_lat": 0.0, "name": "0b85cf2beb2aafa0347206860159f4e0", "is_disabled": 0, "rental_uris": {"android": "https://dc.lft.to/lastmile_qr_scan", "ios": "https://dc.lft.to/lastmile_qr_scan"}, "fusion_lon": 0.0, "lat": 38.90397466666667, "bike_id": "0b85cf2beb2aafa0347206860159f4e0", "type": "electric_scooter", "is_reserved": 0, "lon": -77.0342725}, {"fusion_lat": 0.0, "name": "6c54389759b9ecc5a455ec55c027ed65", "is_disabled": 0, "rental_uris": {"android": "https://dc.lft.to/lastmile_qr_scan", "ios": "https://dc.lft.to/lastmile_qr_scan"}, "fusion_lon": 0.0, "lat": 38.92097233333333, "bike_id": "6c54389759b9ecc5a455ec55c027ed65", "type": "electric_scooter", "is_reserved": 0, "lon": -77.0241365}, {"fusion_lat": 0.0, "name": "7ca49986d23a07898bcbc3faa294d9f5", "is_disabled": 0, "rental_uris": {"android": "https://dc.lft.to/lastmile_qr_scan", "ios": "https://dc.lft.to/lastmile_qr_scan"}, "fusion_lon": 0.0, "lat": 38.90837, "bike_id": "7ca49986d23a07898bcbc3faa294d9f5", "type": "electric_scooter", "is_reserved": 0, "lon": -77.03833216666666}, {"fusion_lat": 0.0, "name": "12b768b759e7647b91ff4c0c38a704d3", "is_disabled": 0, "rental_uris": {"android": "https://dc.lft.to/lastmile_qr_scan", "ios": "https://dc.lft.to/lastmile_qr_scan"}, "fusion_lon": 0.0, "lat": 38.907127333333335, "bike_id": "12b768b759e7647b91ff4c0c38a704d3", "type": "electric_scooter", "is_reserved": 0, "lon": -77.03251966666667}, {"fusion_lat": 0.0, "name": "cd71bb2980e3f37a8d019f497565d1bc", "is_disabled": 0, "rental_uris": {"android": "https://dc.lft.to/lastmile_qr_scan", "ios": "https://dc.lft.to/lastmile_qr_scan"}, "fusion_lon": 0.0, "lat": 38.92129083333333, "bike_id": "cd71bb2980e3f37a8d019f497565d1bc", "type": "electric_scooter", "is_reserved": 0, "lon": -77.02521333333334}, {"fusion_lat": 0.0, "name": "5d652a804ea505c3e7c4e2338ee83887", "is_disabled": 0, "rental_uris": {"android": "https://dc.lft.to/lastmile_qr_scan", "ios": "https://dc.lft.to/lastmile_qr_scan"}, "fusion_lon": 0.0, "lat": 38.912637, "bike_id": "5d652a804ea505c3e7c4e2338ee83887", "type": "electric_scooter", "is_reserved": 0, "lon": -77.0349875}, {"fusion_lat": 0.0, "name": "e695e7a66a86cb394ea604d585ea00ce", "is_disabled": 0, "rental_uris": {"android": "https://dc.lft.to/lastmile_qr_scan", "ios": "https://dc.lft.to/lastmile_qr_scan"}, "fusion_lon": 0.0, "lat": 38.923123833333335, "bike_id": "e695e7a66a86cb394ea604d585ea00ce", "type": "electric_bike", "is_reserved": 0, "lon": -76.99368633333333}, {"fusion_lat": 0.0, "name": "1d0f980b79cf9bbf95e05729c17460a2", "is_disabled": 0, "rental_uris": {"android": "https://dc.lft.to/lastmile_qr_scan", "ios": "https://dc.lft.to/lastmile_qr_scan"}, "fusion_lon": 0.0, "lat": 38.937015, "bike_id": "1d0f980b79cf9bbf95e05729c17460a2", "type": "electric_scooter", "is_reserved": 0, "lon": -77.0243505}, {"fusion_lat": 0.0, "name": "b7f69231226c6ce6bf1216f9cf31119a", "is_disabled": 0, "rental_uris": {"android": "https://dc.lft.to/lastmile_qr_scan", "ios": "https://dc.lft.to/lastmile_qr_scan"}, "fusion_lon": 0.0, "lat": 38.92872833333333, "bike_id": "b7f69231226c6ce6bf1216f9cf31119a", "type": "electric_scooter", "is_reserved": 0, "lon": -77.013386}, {"fusion_lat": 0.0, "name": "ed2c4ac50c6f74964148b28b93d11c34", "is_disabled": 0, "rental_uris": {"android": "https://dc.lft.to/lastmile_qr_scan", "ios": "https://dc.lft.to/lastmile_qr_scan"}, "fusion_lon": 0.0, "lat": 38.89915083333333, "bike_id": "ed2c4ac50c6f74964148b28b93d11c34", "type": "electric_scooter", "is_reserved": 0, "lon": -77.039374}, {"fusion_lat": 0.0, "name": "639f243a59eef88bedb7908f10280e20", "is_disabled": 0, "rental_uris": {"android": "https://dc.lft.to/lastmile_qr_scan", "ios": "https://dc.lft.to/lastmile_qr_scan"}, "fusion_lon": 0.0, "lat": 38.88996483333333, "bike_id": "639f243a59eef88bedb7908f10280e20", "type": "electric_scooter", "is_reserved": 0, "lon": -76.9837605}, {"fusion_lat": 0.0, "name": "9c6698d08b27bb95f085f41512a6069e", "is_disabled": 0, "rental_uris": {"android": "https://dc.lft.to/lastmile_qr_scan", "ios": "https://dc.lft.to/lastmile_qr_scan"}, "fusion_lon": 0.0, "lat": 38.91559566666667, "bike_id": "9c6698d08b27bb95f085f41512a6069e", "type": "electric_scooter", "is_reserved": 0, "lon": -77.03865566666667}, {"fusion_lat": 0.0, "name": "62d1507480ae6289addf64f888a84365", "is_disabled": 0, "rental_uris": {"android": "https://dc.lft.to/lastmile_qr_scan", "ios": "https://dc.lft.to/lastmile_qr_scan"}, "fusion_lon": 0.0, "lat": 38.90368316666667, "bike_id": "62d1507480ae6289addf64f888a84365", "type": "electric_scooter", "is_reserved": 0, "lon": -77.0400495}, {"fusion_lat": 0.0, "name": "59ac74a5db746d9ac3b7f0719d2ccd64", "is_disabled": 0, "rental_uris": {"android": "https://dc.lft.to/lastmile_qr_scan", "ios": "https://dc.lft.to/lastmile_qr_scan"}, "fusion_lon": 0.0, "lat": 38.9131465, "bike_id": "59ac74a5db746d9ac3b7f0719d2ccd64", "type": "electric_scooter", "is_reserved": 0, "lon": -77.04169166666667}, {"fusion_lat": 0.0, "name": "55e833a90a3ff3a89fc55037cc561d5e", "is_disabled": 0, "rental_uris": {"android": "https://dc.lft.to/lastmile_qr_scan", "ios": "https://dc.lft.to/lastmile_qr_scan"}, "fusion_lon": 0.0, "lat": 38.90397083333333, "bike_id": "55e833a90a3ff3a89fc55037cc561d5e", "type": "electric_scooter", "is_reserved": 0, "lon": -77.00192633333333}, {"fusion_lat": 0.0, "name": "26c3b6380d36a5ecea20d87e5c2ad6ab", "is_disabled": 0, "rental_uris": {"android": "https://dc.lft.to/lastmile_qr_scan", "ios": "https://dc.lft.to/lastmile_qr_scan"}, "fusion_lon": 0.0, "lat": 38.908653, "bike_id": "26c3b6380d36a5ecea20d87e5c2ad6ab", "type": "electric_scooter", "is_reserved": 0, "lon": -77.03431433333333}, {"fusion_lat": 0.0, "name": "976e9145569df722fac284cf0dfd5bcd", "is_disabled": 0, "rental_uris": {"android": "https://dc.lft.to/lastmile_qr_scan", "ios": "https://dc.lft.to/lastmile_qr_scan"}, "fusion_lon": 0.0, "lat": 38.919363, "bike_id": "976e9145569df722fac284cf0dfd5bcd", "type": "electric_scooter", "is_reserved": 0, "lon": -77.04883533333333}, {"fusion_lat": 0.0, "name": "55beff3a0dfe0043fb35b789ddabea83", "is_disabled": 0, "rental_uris": {"android": "https://dc.lft.to/lastmile_qr_scan", "ios": "https://dc.lft.to/lastmile_qr_scan"}, "fusion_lon": 0.0, "lat": 38.8919115, "bike_id": "55beff3a0dfe0043fb35b789ddabea83", "type": "electric_scooter", "is_reserved": 0, "lon": -76.99845133333334}, {"fusion_lat": 0.0, "name": "c7f8b5fc98eebdfa6f9e6cd75fb4bb10", "is_disabled": 0, "rental_uris": {"android": "https://dc.lft.to/lastmile_qr_scan", "ios": "https://dc.lft.to/lastmile_qr_scan"}, "fusion_lon": 0.0, "lat": 38.862453, "bike_id": "c7f8b5fc98eebdfa6f9e6cd75fb4bb10", "type": "electric_scooter", "is_reserved": 0, "lon": -76.99496516666666}, {"fusion_lat": 0.0, "name": "65b2cff4eb896bfa2ca2d3425c689538", "is_disabled": 0, "rental_uris": {"android": "https://dc.lft.to/lastmile_qr_scan", "ios": "https://dc.lft.to/lastmile_qr_scan"}, "fusion_lon": 0.0, "lat": 38.91218933333333, "bike_id": "65b2cff4eb896bfa2ca2d3425c689538", "type": "electric_scooter", "is_reserved": 0, "lon": -77.03859833333334}, {"fusion_lat": 0.0, "name": "82539970f1d296e8c08112d4720325cb", "is_disabled": 0, "rental_uris": {"android": "https://dc.lft.to/lastmile_qr_scan", "ios": "https://dc.lft.to/lastmile_qr_scan"}, "fusion_lon": 0.0, "lat": 38.937683166666666, "bike_id": "82539970f1d296e8c08112d4720325cb", "type": "electric_bike", "is_reserved": 0, "lon": -77.01910033333333}, {"fusion_lat": 0.0, "name": "f2f1799398dff74c559100f238a27cc3", "is_disabled": 0, "rental_uris": {"android": "https://dc.lft.to/lastmile_qr_scan", "ios": "https://dc.lft.to/lastmile_qr_scan"}, "fusion_lon": 0.0, "lat": 38.94121283333333, "bike_id": "f2f1799398dff74c559100f238a27cc3", "type": "electric_scooter", "is_reserved": 0, "lon": -77.000462}, {"fusion_lat": 0.0, "name": "565a7b6588bd1848dbb89f710c572c33", "is_disabled": 0, "rental_uris": {"android": "https://dc.lft.to/lastmile_qr_scan", "ios": "https://dc.lft.to/lastmile_qr_scan"}, "fusion_lon": 0.0, "lat": 38.93755183333333, "bike_id": "565a7b6588bd1848dbb89f710c572c33", "type": "electric_bike", "is_reserved": 0, "lon": -76.95828}, {"fusion_lat": 0.0, "name": "c9650c013357692e4bbc94e6dcd8173f", "is_disabled": 0, "rental_uris": {"android": "https://dc.lft.to/lastmile_qr_scan", "ios": "https://dc.lft.to/lastmile_qr_scan"}, "fusion_lon": 0.0, "lat": 38.91799733333333, "bike_id": "c9650c013357692e4bbc94e6dcd8173f", "type": "electric_scooter", "is_reserved": 0, "lon": -77.04161016666667}, {"fusion_lat": 0.0, "name": "6d23867aa1639eabbcf67c8ec749ff9c", "is_disabled": 0, "rental_uris": {"android": "https://dc.lft.to/lastmile_qr_scan", "ios": "https://dc.lft.to/lastmile_qr_scan"}, "fusion_lon": 0.0, "lat": 38.944959833333336, "bike_id": "6d23867aa1639eabbcf67c8ec749ff9c", "type": "electric_bike", "is_reserved": 0, "lon": -77.0068375}, {"fusion_lat": 0.0, "name": "8e2238b56ea23225c86ab3b739241fc4", "is_disabled": 0, "rental_uris": {"android": "https://dc.lft.to/lastmile_qr_scan", "ios": "https://dc.lft.to/lastmile_qr_scan"}, "fusion_lon": 0.0, "lat": 38.89387416666667, "bike_id": "8e2238b56ea23225c86ab3b739241fc4", "type": "electric_scooter", "is_reserved": 0, "lon": -76.92308583333333}, {"fusion_lat": 0.0, "name": "e25bbefcbc66f9881103f90f3f71906b", "is_disabled": 0, "rental_uris": {"android": "https://dc.lft.to/lastmile_qr_scan", "ios": "https://dc.lft.to/lastmile_qr_scan"}, "fusion_lon": 0.0, "lat": 38.8634525, "bike_id": "e25bbefcbc66f9881103f90f3f71906b", "type": "electric_bike", "is_reserved": 0, "lon": -77.07723616666667}, {"fusion_lat": 0.0, "name": "26808206622828b95fe89700f0256240", "is_disabled": 0, "rental_uris": {"android": "https://dc.lft.to/lastmile_qr_scan", "ios": "https://dc.lft.to/lastmile_qr_scan"}, "fusion_lon": 0.0, "lat": 38.91023233333333, "bike_id": "26808206622828b95fe89700f0256240", "type": "electric_scooter", "is_reserved": 0, "lon": -77.06905316666666}, {"fusion_lat": 0.0, "name": "11a7f6aeef8cfe72f8c308364023c8d6", "is_disabled": 0, "rental_uris": {"android": "https://dc.lft.to/lastmile_qr_scan", "ios": "https://dc.lft.to/lastmile_qr_scan"}, "fusion_lon": 0.0, "lat": 38.907723833333336, "bike_id": "11a7f6aeef8cfe72f8c308364023c8d6", "type": "electric_scooter", "is_reserved": 0, "lon": -76.99714716666666}, {"fusion_lat": 0.0, "name": "6b561d223f4614288f0b9c70d3a4c919", "is_disabled": 0, "rental_uris": {"android": "https://dc.lft.to/lastmile_qr_scan", "ios": "https://dc.lft.to/lastmile_qr_scan"}, "fusion_lon": 0.0, "lat": 38.9009675, "bike_id": "6b561d223f4614288f0b9c70d3a4c919", "type": "electric_scooter", "is_reserved": 0, "lon": -77.04745983333333}, {"fusion_lat": 0.0, "name": "e7b689d81d667c74d395a35d475a1996", "is_disabled": 0, "rental_uris": {"android": "https://dc.lft.to/lastmile_qr_scan", "ios": "https://dc.lft.to/lastmile_qr_scan"}, "fusion_lon": 0.0, "lat": 38.919207666666665, "bike_id": "e7b689d81d667c74d395a35d475a1996", "type": "electric_scooter", "is_reserved": 0, "lon": -77.03221833333333}, {"fusion_lat": 0.0, "name": "c3f5331a15302174541f3ba07d99d695", "is_disabled": 0, "rental_uris": {"android": "https://dc.lft.to/lastmile_qr_scan", "ios": "https://dc.lft.to/lastmile_qr_scan"}, "fusion_lon": 0.0, "lat": 38.92929133333333, "bike_id": "c3f5331a15302174541f3ba07d99d695", "type": "electric_scooter", "is_reserved": 0, "lon": -77.03270033333334}, {"fusion_lat": 0.0, "name": "a79f5947ccea3120c01c029fe7274bc6", "is_disabled": 0, "rental_uris": {"android": "https://dc.lft.to/lastmile_qr_scan", "ios": "https://dc.lft.to/lastmile_qr_scan"}, "fusion_lon": 0.0, "lat": 38.91604, "bike_id": "a79f5947ccea3120c01c029fe7274bc6", "type": "electric_scooter", "is_reserved": 0, "lon": -77.03199183333334}, {"fusion_lat": 0.0, "name": "c30949f01493eaa678d2e87f17196a63", "is_disabled": 0, "rental_uris": {"android": "https://dc.lft.to/lastmile_qr_scan", "ios": "https://dc.lft.to/lastmile_qr_scan"}, "fusion_lon": 0.0, "lat": 38.90057566666667, "bike_id": "c30949f01493eaa678d2e87f17196a63", "type": "electric_scooter", "is_reserved": 0, "lon": -77.00056233333333}, {"fusion_lat": 0.0, "name": "bf4f17140a0e4e3a31739a2c356d3bf3", "is_disabled": 0, "rental_uris": {"android": "https://dc.lft.to/lastmile_qr_scan", "ios": "https://dc.lft.to/lastmile_qr_scan"}, "fusion_lon": 0.0, "lat": 38.90888833333333, "bike_id": "bf4f17140a0e4e3a31739a2c356d3bf3", "type": "electric_scooter", "is_reserved": 0, "lon": -77.0323015}, {"fusion_lat": 0.0, "name": "fe391d11d3be246fd4b6f1316438d6d8", "is_disabled": 0, "rental_uris": {"android": "https://dc.lft.to/lastmile_qr_scan", "ios": "https://dc.lft.to/lastmile_qr_scan"}, "fusion_lon": 0.0, "lat": 38.91706116666667, "bike_id": "fe391d11d3be246fd4b6f1316438d6d8", "type": "electric_scooter", "is_reserved": 0, "lon": -77.03034583333333}, {"fusion_lat": 0.0, "name": "1be22e039b51648011bc717f40e62fe6", "is_disabled": 0, "rental_uris": {"android": "https://dc.lft.to/lastmile_qr_scan", "ios": "https://dc.lft.to/lastmile_qr_scan"}, "fusion_lon": 0.0, "lat": 38.879517, "bike_id": "1be22e039b51648011bc717f40e62fe6", "type": "electric_scooter", "is_reserved": 0, "lon": -77.00618733333333}, {"fusion_lat": 0.0, "name": "1f11401827d44421800d317b85c302ea", "is_disabled": 0, "rental_uris": {"android": "https://dc.lft.to/lastmile_qr_scan", "ios": "https://dc.lft.to/lastmile_qr_scan"}, "fusion_lon": 0.0, "lat": 38.925396, "bike_id": "1f11401827d44421800d317b85c302ea", "type": "electric_scooter", "is_reserved": 0, "lon": -77.0349005}, {"fusion_lat": 0.0, "name": "5bab12243ca8c54d54491244cf238a3d", "is_disabled": 0, "rental_uris": {"android": "https://dc.lft.to/lastmile_qr_scan", "ios": "https://dc.lft.to/lastmile_qr_scan"}, "fusion_lon": 0.0, "lat": 38.93008833333333, "bike_id": "5bab12243ca8c54d54491244cf238a3d", "type": "electric_scooter", "is_reserved": 0, "lon": -77.05546683333333}, {"fusion_lat": 0.0, "name": "76c1a3a798206ca8e2de2797a63e52d3", "is_disabled": 0, "rental_uris": {"android": "https://dc.lft.to/lastmile_qr_scan", "ios": "https://dc.lft.to/lastmile_qr_scan"}, "fusion_lon": 0.0, "lat": 38.915488333333336, "bike_id": "76c1a3a798206ca8e2de2797a63e52d3", "type": "electric_scooter", "is_reserved": 0, "lon": -77.03853033333333}, {"fusion_lat": 0.0, "name": "98799100197955a444c6e9207f590971", "is_disabled": 0, "rental_uris": {"android": "https://dc.lft.to/lastmile_qr_scan", "ios": "https://dc.lft.to/lastmile_qr_scan"}, "fusion_lon": 0.0, "lat": 38.907857166666666, "bike_id": "98799100197955a444c6e9207f590971", "type": "electric_scooter", "is_reserved": 0, "lon": -76.99376666666667}, {"fusion_lat": 0.0, "name": "93e9643e0b9aa4976cf1221a85c83881", "is_disabled": 0, "rental_uris": {"android": "https://dc.lft.to/lastmile_qr_scan", "ios": "https://dc.lft.to/lastmile_qr_scan"}, "fusion_lon": 0.0, "lat": 38.902401, "bike_id": "93e9643e0b9aa4976cf1221a85c83881", "type": "electric_scooter", "is_reserved": 0, "lon": -77.00200433333333}, {"fusion_lat": 0.0, "name": "e232ac4fa080d1a4a2f352cd871c954c", "is_disabled": 0, "rental_uris": {"android": "https://dc.lft.to/lastmile_qr_scan", "ios": "https://dc.lft.to/lastmile_qr_scan"}, "fusion_lon": 0.0, "lat": 38.92765083333333, "bike_id": "e232ac4fa080d1a4a2f352cd871c954c", "type": "electric_scooter", "is_reserved": 0, "lon": -77.02960283333333}, {"fusion_lat": 0.0, "name": "475f66a554337c0eabaa6e9c83b68a97", "is_disabled": 0, "rental_uris": {"android": "https://dc.lft.to/lastmile_qr_scan", "ios": "https://dc.lft.to/lastmile_qr_scan"}, "fusion_lon": 0.0, "lat": 38.912572, "bike_id": "475f66a554337c0eabaa6e9c83b68a97", "type": "electric_scooter", "is_reserved": 0, "lon": -77.038725}, {"fusion_lat": 0.0, "name": "a67d28c3c89eeb629dd5f2bd9889b9d5", "is_disabled": 0, "rental_uris": {"android": "https://dc.lft.to/lastmile_qr_scan", "ios": "https://dc.lft.to/lastmile_qr_scan"}, "fusion_lon": 0.0, "lat": 38.91497, "bike_id": "a67d28c3c89eeb629dd5f2bd9889b9d5", "type": "electric_scooter", "is_reserved": 0, "lon": -77.01221283333334}, {"fusion_lat": 0.0, "name": "4ad45060284ec67bf6c0bc09779ff676", "is_disabled": 0, "rental_uris": {"android": "https://dc.lft.to/lastmile_qr_scan", "ios": "https://dc.lft.to/lastmile_qr_scan"}, "fusion_lon": 0.0, "lat": 38.892679333333334, "bike_id": "4ad45060284ec67bf6c0bc09779ff676", "type": "electric_scooter", "is_reserved": 0, "lon": -77.03152766666666}, {"fusion_lat": 0.0, "name": "cb68b23fb0c5d9946e66b893bf0fcb4b", "is_disabled": 0, "rental_uris": {"android": "https://dc.lft.to/lastmile_qr_scan", "ios": "https://dc.lft.to/lastmile_qr_scan"}, "fusion_lon": 0.0, "lat": 38.91764933333333, "bike_id": "cb68b23fb0c5d9946e66b893bf0fcb4b", "type": "electric_scooter", "is_reserved": 0, "lon": -77.06947133333334},