{"data": {"bikes": [{"rental_uris": {"ios": "https://dc.lft.to/lastmile_qr_scan", "android": "https://dc.lft.to/lastmile_qr_scan"}, "lon": -77.02411766666667, "type": "electric_scooter", "fusion_lat": 0.0, "lat": 38.92178883333333, "name": "33bccf78937076da56c33110d29dce9d", "fusion_lon": 0.0, "bike_id": "33bccf78937076da56c33110d29dce9d", "is_disabled": 0, "is_reserved": 0}, {"rental_uris": {"ios": "https://dc.lft.to/lastmile_qr_scan", "android": "https://dc.lft.to/lastmile_qr_scan"}, "lon": -77.0398315, "type": "electric_scooter", "fusion_lat": 0.0, "lat": 38.89222083333333, "name": "52b11a6a6b5b1d279eb363e52a857a25", "fusion_lon": 0.0, "bike_id": "52b11a6a6b5b1d279eb363e52a857a25", "is_disabled": 0, "is_reserved": 0}, {"rental_uris": {"ios": "https://dc.lft.to/lastmile_qr_scan", "android": "https://dc.lft.to/lastmile_qr_scan"}, "lon": -76.91660733333333, "type": "electric_bike", "fusion_lat": 0.0, "lat": 38.868646, "name": "cdcc6e6f5e9d6db293f3e1233f565da4", "fusion_lon": 0.0, "bike_id": "cdcc6e6f5e9d6db293f3e1233f565da4", "is_disabled": 0, "is_reserved": 0}, {"rental_uris": {"ios": "https://dc.lft.to/lastmile_qr_scan", "android": "https://dc.lft.to/lastmile_qr_scan"}, "lon": -76.94862416666666, "type": "electric_scooter", "fusion_lat": 0.0, "lat": 38.89595083333333, "name": "27e7eae2aeb1dbf8155ae34733f53453", "fusion_lon": 0.0, "bike_id": "27e7eae2aeb1dbf8155ae34733f53453", "is_disabled": 0, "is_reserved": 0}, {"rental_uris": {"ios": "https://dc.lft.to/lastmile_qr_scan", "android": "https://dc.lft.to/lastmile_qr_scan"}, "lon": -77.05046816666666, "type": "electric_scooter", "fusion_lat": 0.0, "lat": 38.923557833333334, "name": "a5c2bf6c54f444db15a5860a188474e1", "fusion_lon": 0.0, "bike_id": "a5c2bf6c54f444db15a5860a188474e1", "is_disabled": 0, "is_reserved": 0}, {"rental_uris": {"ios": "https://dc.lft.to/lastmile_qr_scan", "android": "https://dc.lft.to/lastmile_qr_scan"}, "lon": -77.01069666666666, "type": "electric_scooter", "fusion_lat": 0.0, "lat": 38.87472433333333, "name": "c59fd2ff38a3f6422d8be6afc8fb9e03", "fusion_lon": 0.0, "bike_id": "c59fd2ff38a3f6422d8be6afc8fb9e03", "is_disabled": 0, "is_reserved": 0}, {"rental_uris": {"ios": "https://dc.lft.to/lastmile_qr_scan", "android": "https://dc.lft.to/lastmile_qr_scan"}, "lon": -77.02605433333333, "type": "electric_scooter", "fusion_lat": 0.0, "lat": 38.905098, "name": "e61c806a45aa0b4db6b74efeda1df6ee", "fusion_lon": 0.0, "bike_id": "e61c806a45aa0b4db6b74efeda1df6ee", "is_disabled": 0, "is_reserved": 0}, {"rental_uris": {"ios": "https://dc.lft.to/lastmile_qr_scan", "android": "https://dc.lft.to/lastmile_qr_scan"}, "lon": -77.009793, "type": "electric_scooter", "fusion_lat": 0.0, "lat": 38.914092, "name": "1eebdb3aaf9c1cd5c21801025757dfb5", "fusion_lon": 0.0, "bike_id": "1eebdb3aaf9c1cd5c21801025757dfb5", "is_disabled": 0, "is_reserved": 0}, {"rental_uris": {"ios": "https://dc.lft.to/lastmile_qr_scan", "android": "https://dc.lft.to/lastmile_qr_scan"}, "lon": -76.99001783333334, "type": "electric_scooter", "fusion_lat": 0.0, "lat": 38.90390433333334, "name": "7c30a4831245198fc74934e1f9a87571", "fusion_lon": 0.0, "bike_id": "7c30a4831245198fc74934e1f9a87571", "is_disabled": 0, "is_reserved": 0}, {"rental_uris": {"ios": "https://dc.lft.to/lastmile_qr_scan", "android": "https://dc.lft.to/lastmile_qr_scan"}, "lon": -77.01742283333333, "type": "electric_bike", "fusion_lat": 0.0, "lat": 39.000154333333334, "name": "8b536bb4b21a86fd89b42a72e216f3f9", "fusion_lon": 0.0, "bike_id": "8b536bb4b21a86fd89b42a72e216f3f9", "is_disabled": 0, "is_reserved": 0}, {"rental_uris": {"ios": "https://dc.lft.to/lastmile_qr_scan", "android": "https://dc.lft.to/lastmile_qr_scan"}, "lon": -77.057016, "type": "electric_scooter", "fusion_lat": 0.0, "lat": 38.90548166666667, "name": "7cc4e2aeba4a6f295d9df76522101401", "fusion_lon": 0.0, "bike_id": "7cc4e2aeba4a6f295d9df76522101401", "is_disabled": 0, "is_reserved": 0}, {"rental_uris": {"ios": "https://dc.lft.to/lastmile_qr_scan", "android": "https://dc.lft.to/lastmile_qr_scan"}, "lon": -77.01411516666667, "type": "electric_scooter", "fusion_lat": 0.0, "lat": 38.91318066666667, "name": "3a1150745dc9113c47b8b33c76a8beb5", "fusion_lon": 0.0, "bike_id": "3a1150745dc9113c47b8b33c76a8beb5", "is_disabled": 0, "is_reserved": 0}, {"rental_uris": {"ios": "https://dc.lft.to/lastmile_qr_scan", "android": "https://dc.lft.to/lastmile_qr_scan"}, "lon": -77.03242083333333, "type": "electric_scooter", "fusion_lat": 0.0, "lat": 38.915576, "name": "21d2909d31edb8f2f75fdbf21c3db05a", "fusion_lon": 0.0, "bike_id": "21d2909d31edb8f2f75fdbf21c3db05a", "is_disabled": 0, "is_reserved": 0}, {"rental_uris": {"ios": "https://dc.lft.to/lastmile_qr_scan", "android": "https://dc.lft.to/lastmile_qr_scan"}, "lon": -77.06129066666666, "type": "electric_bike", "fusion_lat": 0.0, "lat": 38.901946833333334, "name": "9909678181965dc1759b1ba252074ca1", "fusion_lon": 0.0, "bike_id": "9909678181965dc1759b1ba252074ca1", "is_disabled": 0, "is_reserved": 0}, {"rental_uris": {"ios": "https://dc.lft.to/lastmile_qr_scan", "android": "https://dc.lft.to/lastmile_qr_scan"}, "lon": -77.02747383333333, "type": "electric_scooter", "fusion_lat": 0.0, "lat": 38.939618, "name": "3de0ce4d2e29a2e448336888b9531bf3", "fusion_lon": 0.0, "bike_id": "3de0ce4d2e29a2e448336888b9531bf3", "is_disabled": 0, "is_reserved": 0}, {"rental_uris": {"ios": "https://dc.lft.to/lastmile_qr_scan", "android": "https://dc.lft.to/lastmile_qr_scan"}, "lon": -77.055343, "type": "electric_scooter", "fusion_lat": 0.0, "lat": 38.92784133333333, "name": "ba00cece23d5823eee432e6a009fa1fd", "fusion_lon": 0.0, "bike_id": "ba00cece23d5823eee432e6a009fa1fd", "is_disabled": 0, "is_reserved": 0}, {"rental_uris": {"ios": "https://dc.lft.to/lastmile_qr_scan", "android": "https://dc.lft.to/lastmile_qr_scan"}, "lon": -77.00099383333334, "type": "electric_scooter", "fusion_lat": 0.0, "lat": 38.916307, "name": "a0cdccf994ad56ada5aa5d12eb775afa", "fusion_lon": 0.0, "bike_id": "a0cdccf994ad56ada5aa5d12eb775afa", "is_disabled": 0, "is_reserved": 0}, {"rental_uris": {"ios": "https://dc.lft.to/lastmile_qr_scan", "android": "https://dc.lft.to/lastmile_qr_scan"}, "lon": -77.021446, "type": "electric_scooter", "fusion_lat": 0.0, "lat": 38.89495266666667, "name": "a2883c726a5e61bd813938f1469a18d7", "fusion_lon": 0.0, "bike_id": "a2883c726a5e61bd813938f1469a18d7", "is_disabled": 0, "is_reserved": 0}, {"rental_uris": {"ios": "https://dc.lft.to/lastmile_qr_scan", "android": "https://dc.lft.to/lastmile_qr_scan"}, "lon": -77.02078483333334, "type": "electric_scooter", "fusion_lat": 0.0, "lat": 38.89972616666667, "name": "78e605f988025992ff4458270dc9f709", "fusion_lon": 0.0, "bike_id": "78e605f988025992ff4458270dc9f709", "is_disabled": 0, "is_reserved": 0}, {"rental_uris": {"ios": "https://dc.lft.to/lastmile_qr_scan", "android": "https://dc.lft.to/lastmile_qr_scan"}, "lon": -76.98884766666667, "type": "electric_scooter", "fusion_lat": 0.0, "lat": 38.86657816666666, "name": "9196d9507fab4974edbe135849b42a70", "fusion_lon": 0.0, "bike_id": "9196d9507fab4974edbe135849b42a70", "is_disabled": 0, "is_reserved": 0}, {"rental_uris": {"ios": "https://dc.lft.to/lastmile_qr_scan", "android": "https://dc.lft.to/lastmile_qr_scan"}, "lon": -77.01149083333334, "type": "electric_scooter", "fusion_lat": 0.0, "lat": 38.900137666666666, "name": "a1e8f654f3933585e82478919fd39012", "fusion_lon": 0.0, "bike_id": "a1e8f654f3933585e82478919fd39012", "is_disabled": 0, "is_reserved": 0}, {"rental_uris": {"ios": "https://dc.lft.to/lastmile_qr_scan", "android": "https://dc.lft.to/lastmile_qr_scan"}, "lon": -77.02697583333334, "type": "electric_scooter", "fusion_lat": 0.0, "lat": 38.908385333333335, "name": "6fb985169b1ee988a7e8c2a3c6ae028a", "fusion_lon": 0.0, "bike_id": "6fb985169b1ee988a7e8c2a3c6ae028a", "is_disabled": 0, "is_reserved": 0}, {"rental_uris": {"ios": "https://dc.lft.to/lastmile_qr_scan", "android": "https://dc.lft.to/lastmile_qr_scan"}, "lon": -77.05805866666667, "type": "electric_scooter", "fusion_lat": 0.0, "lat": 38.90102683333333, "name": "eea8f616a2451416d79cfab78fa899cd", "fusion_lon": 0.0, "bike_id": "eea8f616a2451416d79cfab78fa899cd", "is_disabled": 0, "is_reserved": 0}, {"rental_uris": {"ios": "https://dc.lft.to/lastmile_qr_scan", "android": "https://dc.lft.to/lastmile_qr_scan"}, "lon": -77.08543083333333, "type": "electric_bike", "fusion_lat": 0.0, "lat": 38.8561785, "name": "68e8b48eb51e06a07594e1b0df284817", "fusion_lon": 0.0, "bike_id": "68e8b48eb51e06a07594e1b0df284817", "is_disabled": 0, "is_reserved": 0}, {"rental_uris": {"ios": "https://dc.lft.to/lastmile_qr_scan", "android": "https://dc.lft.to/lastmile_qr_scan"}, "lon": -77.02654366666667, "type": "electric_scooter", "fusion_lat": 0.0, "lat": 38.917009, "name": "fa1544af723346137fcbf7b7a27d8738", "fusion_lon": 0.0, "bike_id": "fa1544af723346137fcbf7b7a27d8738", "is_disabled": 0, "is_reserved": 0}, {"rental_uris": {"ios": "https://dc.lft.to/lastmile_qr_scan", "android": "https://dc.lft.to/lastmile_qr_scan"}, "lon": -77.09660616666666, "type": "electric_scooter", "fusion_lat": 0.0, "lat": 38.916279, "name": "0a1ebae7e1e683536d87711813eb0584", "fusion_lon": 0.0, "bike_id": "0a1ebae7e1e683536d87711813eb0584", "is_disabled": 0, "is_reserved": 0}, {"rental_uris": {"ios": "https://dc.lft.to/lastmile_qr_scan", "android": "https://dc.lft.to/lastmile_qr_scan"}, "lon": -77.02715133333334, "type": "electric_scooter", "fusion_lat": 0.0, "lat": 38.924874, "name": "c019d3d3d3e1cdc05cb4a2455f154b9f", "fusion_lon": 0.0, "bike_id": "c019d3d3d3e1cdc05cb4a2455f154b9f", "is_disabled": 0, "is_reserved": 0}, {"rental_uris": {"ios": "https://dc.lft.to/lastmile_qr_scan", "android": "https://dc.lft.to/lastmile_qr_scan"}, "lon": -77.0280195, "type": "electric_scooter", "fusion_lat": 0.0, "lat": 38.896355, "name": "bb80a90336cf93e75ccd9e3577914083", "fusion_lon": 0.0, "bike_id": "bb80a90336cf93e75ccd9e3577914083", "is_disabled": 0, "is_reserved": 0}, {"rental_uris": {"ios": "https://dc.lft.to/lastmile_qr_scan", "android": "https://dc.lft.to/lastmile_qr_scan"}, "lon": -77.032084, "type": "electric_scooter", "fusion_lat": 0.0, "lat": 38.911154, "name": "1d15e4ece5572744168f60a0cdc252ad", "fusion_lon": 0.0, "bike_id": "1d15e4ece5572744168f60a0cdc252ad", "is_disabled": 0, "is_reserved": 0}, {"rental_uris": {"ios": "https://dc.lft.to/lastmile_qr_scan", "android": "https://dc.lft.to/lastmile_qr_scan"}, "lon": -77.03669216666667, "type": "electric_scooter", "fusion_lat": 0.0, "lat": 38.92935216666667, "name": "5f1fd956a4576a1220d469b4ce9c1847", "fusion_lon": 0.0, "bike_id": "5f1fd956a4576a1220d469b4ce9c1847", "is_disabled": 0, "is_reserved": 0}, {"rental_uris": {"ios": "https://dc.lft.to/lastmile_qr_scan", "android": "https://dc.lft.to/lastmile_qr_scan"}, "lon": -77.07564366666666, "type": "electric_scooter", "fusion_lat": 0.0, "lat": 38.92090816666666, "name": "7d7d1da9e52b237269c1218d2615bed7", "fusion_lon": 0.0, "bike_id": "7d7d1da9e52b237269c1218d2615bed7", "is_disabled": 0, "is_reserved": 0}, {"rental_uris": {"ios": "https://dc.lft.to/lastmile_qr_scan", "android": "https://dc.lft.to/lastmile_qr_scan"}, "lon": -77.01763716666666, "type": "electric_scooter", "fusion_lat": 0.0, "lat": 38.88397366666667, "name": "1408db2efc99dc0116dd8e82bc3fab2a", "fusion_lon": 0.0, "bike_id": "1408db2efc99dc0116dd8e82bc3fab2a", "is_disabled": 0, "is_reserved": 0}, {"rental_uris": {"ios": "https://dc.lft.to/lastmile_qr_scan", "android": "https://dc.lft.to/lastmile_qr_scan"}, "lon": -77.02718916666667, "type": "electric_scooter", "fusion_lat": 0.0, "lat": 38.918113166666664, "name": "a13c0b4c5ca7a1079bf5534ca5d5443e", "fusion_lon": 0.0, "bike_id": "a13c0b4c5ca7a1079bf5534ca5d5443e", "is_disabled": 0, "is_reserved": 0}, {"rental_uris": {"ios": "https://dc.lft.to/lastmile_qr_scan", "android": "https://dc.lft.to/lastmile_qr_scan"}, "lon": -77.03177266666667, "type": "electric_scooter", "fusion_lat": 0.0, "lat": 38.916018, "name": "1c49cdcae5340b8f6bfab22f6d519930", "fusion_lon": 0.0, "bike_id": "1c49cdcae5340b8f6bfab22f6d519930", "is_disabled": 0, "is_reserved": 0}, {"rental_uris": {"ios": "https://dc.lft.to/lastmile_qr_scan", "android": "https://dc.lft.to/lastmile_qr_scan"}, "lon": -77.01540066666666, "type": "electric_scooter", "fusion_lat": 0.0, "lat": 38.8919525, "name": "e01b7b63c3f6b824efbb7d3efd745d34", "fusion_lon": 0.0, "bike_id": "e01b7b63c3f6b824efbb7d3efd745d34", "is_disabled": 0, "is_reserved": 0}, {"rental_uris": {"ios": "https://dc.lft.to/lastmile_qr_scan", "android": "https://dc.lft.to/lastmile_qr_scan"}, "lon": -77.03264966666667, "type": "electric_scooter", "fusion_lat": 0.0, "lat": 38.93530466666667, "name": "eaee5acd0793fcedc4f5f6b81c751aea", "fusion_lon": 0.0, "bike_id": "eaee5acd0793fcedc4f5f6b81c751aea", "is_disabled": 0, "is_reserved": 0}, {"rental_uris": {"ios": "https://dc.lft.to/lastmile_qr_scan", "android": "https://dc.lft.to/lastmile_qr_scan"}, "lon": -76.9760765, "type": "electric_bike", "fusion_lat": 0.0, "lat": 38.91311233333333, "name": "5eb5e083e33e6f648270dcb7253291a2", "fusion_lon": 0.0, "bike_id": "5eb5e083e33e6f648270dcb7253291a2", "is_disabled": 0, "is_reserved": 0}, {"rental_uris": {"ios": "https://dc.lft.to/lastmile_qr_scan", "android": "https://dc.lft.to/lastmile_qr_scan"}, "lon": -76.99034166666667, "type": "electric_scooter", "fusion_lat": 0.0, "lat": 38.85869816666667, "name": "a13e9a3bdef0d40f9f7b32d3f77a8eb0", "fusion_lon": 0.0, "bike_id": "a13e9a3bdef0d40f9f7b32d3f77a8eb0", "is_disabled": 0, "is_reserved": 0}, {"rental_uris": {"ios": "https://dc.lft.to/lastmile_qr_scan", "android": "https://dc.lft.to/lastmile_qr_scan"}, "lon": -77.027986, "type": "electric_scooter", "fusion_lat": 0.0, "lat": 38.930792333333336, "name": "8666365a7c51d2d856989398008e28d8", "fusion_lon": 0.0, "bike_id": "8666365a7c51d2d856989398008e28d8", "is_disabled": 0, "is_reserved": 0}, {"rental_uris": {"ios": "https://dc.lft.to/lastmile_qr_scan", "android": "https://dc.lft.to/lastmile_qr_scan"}, "lon": -77.0414215, "type": "electric_scooter", "fusion_lat": 0.0, "lat": 38.907414333333335, "name": "b667e43d0d7d6db8a5f41862749652e0", "fusion_lon": 0.0, "bike_id": "b667e43d0d7d6db8a5f41862749652e0", "is_disabled": 0, "is_reserved": 0}, {"rental_uris": {"ios": "https://dc.lft.to/lastmile_qr_scan", "android": "https://dc.lft.to/lastmile_qr_scan"}, "lon": -77.01990016666667, "type": "electric_scooter", "fusion_lat": 0.0, "lat": 38.8973255, "name": "1ba78ff84d7928108395560cbb45239b", "fusion_lon": 0.0, "bike_id": "1ba78ff84d7928108395560cbb45239b", "is_disabled": 0, "is_reserved": 0}, {"rental_uris": {"ios": "https://dc.lft.to/lastmile_qr_scan", "android": "https://dc.lft.to/lastmile_qr_scan"}, "lon": -77.03261783333333, "type": "electric_scooter", "fusion_lat": 0.0, "lat": 38.938702666666664, "name": "bb8908895861ad08c4b27656f05b44d1", "fusion_lon": 0.0, "bike_id": "bb8908895861ad08c4b27656f05b44d1", "is_disabled": 0, "is_reserved": 0}, {"rental_uris": {"ios": "https://dc.lft.to/lastmile_qr_scan", "android": "https://dc.lft.to/lastmile_qr_scan"}, "lon": -77.00312266666667, "type": "electric_scooter", "fusion_lat": 0.0, "lat": 38.90122233333334, "name": "334f0727642a36193d20a00a6e9bdd8a", "fusion_lon": 0.0, "bike_id": "334f0727642a36193d20a00a6e9bdd8a", "is_disabled": 0, "is_reserved": 0}, {"rental_uris": {"ios": "https://dc.lft.to/lastmile_qr_scan", "android": "https://dc.lft.to/lastmile_qr_scan"}, "lon": -77.029748, "type": "electric_scooter", "fusion_lat": 0.0, "lat": 38.923154833333335, "name": "6571084871cf16e5809579fe55802274", "fusion_lon": 0.0, "bike_id": "6571084871cf16e5809579fe55802274", "is_disabled": 0, "is_reserved": 0}, {"rental_uris": {"ios": "https://dc.lft.to/lastmile_qr_scan", "android": "https://dc.lft.to/lastmile_qr_scan"}, "lon": -77.135939, "type": "electric_bike", "fusion_lat": 0.0, "lat": 39.053450833333336, "name": "ea510c502d8a344cb6f961db40cf5f03", "fusion_lon": 0.0, "bike_id": "ea510c502d8a344cb6f961db40cf5f03", "is_disabled": 0, "is_reserved": 0}, {"rental_uris": {"ios": "https://dc.lft.to/lastmile_qr_scan", "android": "https://dc.lft.to/lastmile_qr_scan"}, "lon": -77.0345845, "type": "electric_scooter", "fusion_lat": 0.0, "lat": 38.90731666666667, "name": "c5b20a6149abca7e1a12784b6c479c63", "fusion_lon": 0.0, "bike_id": "c5b20a6149abca7e1a12784b6c479c63", "is_disabled": 0, "is_reserved": 0}, {"rental_uris": {"ios": "https://dc.lft.to/lastmile_qr_scan", "android": "https://dc.lft.to/lastmile_qr_scan"}, "lon": -77.07837183333334, "type": "electric_scooter", "fusion_lat": 0.0, "lat": 38.93170516666667, "name": "5fad03e63c8c770662f6e3374fa02613", "fusion_lon": 0.0, "bike_id": "5fad03e63c8c770662f6e3374fa02613", "is_disabled": 0, "is_reserved": 0}, {"rental_uris": {"ios": "https://dc.lft.to/lastmile_qr_scan", "android": "https://dc.lft.to/lastmile_qr_scan"}, "lon": -77.041756, "type": "electric_scooter", "fusion_lat": 0.0, "lat": 38.900522333333335, "name": "8840a1dfd28aa796f6cab0f3f338f4a0", "fusion_lon": 0.0, "bike_id": "8840a1dfd28aa796f6cab0f3f338f4a0", "is_disabled": 0, "is_reserved": 0}, {"rental_uris": {"ios": "https://dc.lft.to/lastmile_qr_scan", "android": "https://dc.lft.to/lastmile_qr_scan"}, "lon": -77.01253316666667, "type": "electric_scooter", "fusion_lat": 0.0, "lat": 38.899647333333334, "name": "753aa82628c311aeae4bb57fc237ea1d", "fusion_lon": 0.0, "bike_id": "753aa82628c311aeae4bb57fc237ea1d", "is_disabled": 0, "is_reserved": 0}, {"rental_uris": {"ios": "https://dc.lft.to/lastmile_qr_scan", "android": "https://dc.lft.to/lastmile_qr_scan"}, "lon": -77.01013466666667, "type": "electric_scooter", "fusion_lat": 0.0, "lat": 38.8948875, "name": "8a640ab5935c8b233ce797b57ecba423", "fusion_lon": 0.0, "bike_id": "8a640ab5935c8b233ce797b57ecba423", "is_disabled": 0, "is_reserved": 0}, {"rental_uris": {"ios": "https://dc.lft.to/lastmile_qr_scan", "android": "https://dc.lft.to/lastmile_qr_scan"}, "lon": -77.10753133333333, "type": "electric_bike", "fusion_lat": 0.0, "lat": 38.88613683333333, "name": "0a4072bd05ba3887b2ef85ea435a3ea4", "fusion_lon": 0.0, "bike_id": "0a4072bd05ba3887b2ef85ea435a3ea4", "is_disabled": 0, "is_reserved": 0}, {"rental_uris": {"ios": "https://dc.lft.to/lastmile_qr_scan", "android": "https://dc.lft.to/lastmile_qr_scan"}, "lon": -76.9871265, "type": "electric_scooter", "fusion_lat": 0.0, "lat": 38.86268416666667, "name": "bbc4f1caf194c1fb1675c53578c3c54c", "fusion_lon": 0.0, "bike_id": "bbc4f1caf194c1fb1675c53578c3c54c", "is_disabled": 0, "is_reserved": 0}, {"rental_uris": {"ios": "https://dc.lft.to/lastmile_qr_scan", "android": "https://dc.lft.to/lastmile_qr_scan"}, "lon": -77.04003116666667, "type": "electric_scooter", "fusion_lat": 0.0, "lat": 38.89890966666667, "name": "fb404ed667998399ea6033a287134a43", "fusion_lon": 0.0, "bike_id": "fb404ed667998399ea6033a287134a43", "is_disabled": 0, "is_reserved": 0}, {"rental_uris": {"ios": "https://dc.lft.to/lastmile_qr_scan", "android": "https://dc.lft.to/lastmile_qr_scan"}, "lon": -77.04266283333334, "type": "electric_scooter", "fusion_lat": 0.0, "lat": 38.90273, "name": "0f79a0e51777547a508fd3c0e4e879d9", "fusion_lon": 0.0, "bike_id": "0f79a0e51777547a508fd3c0e4e879d9", "is_disabled": 0, "is_reserved": 0}, {"rental_uris": {"ios": "https://dc.lft.to/lastmile_qr_scan", "android": "https://dc.lft.to/lastmile_qr_scan"}, "lon": -77.03264983333334, "type": "electric_scooter", "fusion_lat": 0.0, "lat": 38.925407, "name": "624b53739f2b69e6d319fcf95003f7e2", "fusion_lon": 0.0, "bike_id": "624b53739f2b69e6d319fcf95003f7e2", "is_disabled": 0, "is_reserved": 0}, {"rental_uris": {"ios": "https://dc.lft.to/lastmile_qr_scan", "android": "https://dc.lft.to/lastmile_qr_scan"}, "lon": -77.022987, "type": "electric_scooter", "fusion_lat": 0.0, "lat": 38.927451, "name": "6f832a526d6c1e405778431c336d623e", "fusion_lon": 0.0, "bike_id": "6f832a526d6c1e405778431c336d623e", "is_disabled": 0, "is_reserved": 0}, {"rental_uris": {"ios": "https://dc.lft.to/lastmile_qr_scan", "android": "https://dc.lft.to/lastmile_qr_scan"}, "lon": -77.02207666666666, "type": "electric_scooter", "fusion_lat": 0.0, "lat": 38.8984055, "name": "aaa7bcffa9f8c274ad996d3ba8c77f84", "fusion_lon": 0.0, "bike_id": "aaa7bcffa9f8c274ad996d3ba8c77f84", "is_disabled": 0, "is_reserved": 0}, {"rental_uris": {"ios": "https://dc.lft.to/lastmile_qr_scan", "android": "https://dc.lft.to/lastmile_qr_scan"}, "lon": -77.10679516666667, "type": "electric_bike", "fusion_lat": 0.0, "lat": 38.93583816666667, "name": "6d50d1a2ce4dcd01b109d1f2dc5e00d0", "fusion_lon": 0.0, "bike_id": "6d50d1a2ce4dcd01b109d1f2dc5e00d0", "is_disabled": 0, "is_reserved": 0}, {"rental_uris": {"ios": "https://dc.lft.to/lastmile_qr_scan", "android": "https://dc.lft.to/lastmile_qr_scan"}, "lon": -77.00727466666666, "type": "electric_scooter", "fusion_lat": 0.0, "lat": 38.9118595, "name": "51149b02fd8d5a7c2f4f103e070b28ef", "fusion_lon": 0.0, "bike_id": "51149b02fd8d5a7c2f4f103e070b28ef", "is_disabled": 0, "is_reserved": 0}, {"rental_uris": {"ios": "https://dc.lft.to/lastmile_qr_scan", "android": "https://dc.lft.to/lastmile_qr_scan"}, "lon": -77.0435445, "type": "electric_scooter", "fusion_lat": 0.0, "lat": 38.915946166666664, "name": "1dcf801bcb92efe397c9757b654a0f83", "fusion_lon": 0.0, "bike_id": "1dcf801bcb92efe397c9757b654a0f83", "is_disabled": 0, "is_reserved": 0}, {"rental_uris": {"ios": "https://dc.lft.to/lastmile_qr_scan", "android": "https://dc.lft.to/lastmile_qr_scan"}, "lon": -76.94877433333333, "type": "electric_scooter", "fusion_lat": 0.0, "lat": 38.8950315, "name": "b8b8d01a93b204c30310fd6a0f49dcff", "fusion_lon": 0.0, "bike_id": "b8b8d01a93b204c30310fd6a0f49dcff", "is_disabled": 0, "is_reserved": 0}, {"rental_uris": {"ios": "https://dc.lft.to/lastmile_qr_scan", "android": "https://dc.lft.to/lastmile_qr_scan"}, "lon": -77.06678366666667, "type": "electric_scooter", "fusion_lat": 0.0, "lat": 38.905196833333335, "name": "6929da50e19d3cfc6f197795e02caeae", "fusion_lon": 0.0, "bike_id": "6929da50e19d3cfc6f197795e02caeae", "is_disabled": 0, "is_reserved": 0}, {"rental_uris": {"ios": "https://dc.lft.to/lastmile_qr_scan", "android": "https://dc.lft.to/lastmile_qr_scan"}, "lon": -77.00654866666666, "type": "electric_scooter", "fusion_lat": 0.0, "lat": 38.94461733333333, "name": "be8aa6699bd29b1f246a3ab4afd40c49", "fusion_lon": 0.0, "bike_id": "be8aa6699bd29b1f246a3ab4afd40c49", "is_disabled": 0, "is_reserved": 0}, {"rental_uris": {"ios": "https://dc.lft.to/lastmile_qr_scan", "android": "https://dc.lft.to/lastmile_qr_scan"}, "lon": -77.02323366666667, "type": "electric_scooter", "fusion_lat": 0.0, "lat": 38.9305665, "name": "dfe4897deae066a8c667df8954745449", "fusion_lon": 0.0, "bike_id": "dfe4897deae066a8c667df8954745449", "is_disabled": 0, "is_reserved": 0}, {"rental_uris": {"ios": "https://dc.lft.to/lastmile_qr_scan", "android": "https://dc.lft.to/lastmile_qr_scan"}, "lon": -77.04332566666666, "type": "electric_scooter", "fusion_lat": 0.0, "lat": 38.895829166666665, "name": "6aa382bf9aa97951c4a9041150274f17", "fusion_lon": 0.0, "bike_id": "6aa382bf9aa97951c4a9041150274f17", "is_disabled": 0, "is_reserved": 0}, {"rental_uris": {"ios": "https://dc.lft.to/lastmile_qr_scan", "android": "https://dc.lft.to/lastmile_qr_scan"}, "lon": -77.03218983333333, "type": "electric_scooter", "fusion_lat": 0.0, "lat": 38.911920333333335, "name": "b5c1f54189a30ec33175c22f2514df96", "fusion_lon": 0.0, "bike_id": "b5c1f54189a30ec33175c22f2514df96", "is_disabled": 0, "is_reserved": 0}, {"rental_uris": {"ios": "https://dc.lft.to/lastmile_qr_scan", "android": "https://dc.lft.to/lastmile_qr_scan"}, "lon": -77.02109166666666, "type": "electric_scooter", "fusion_lat": 0.0, "lat": 38.916113833333334, "name": "542d7e31544ceb5e1c4c764b3698bb53", "fusion_lon": 0.0, "bike_id": "542d7e31544ceb5e1c4c764b3698bb53", "is_disabled": 0, "is_reserved": 0}, {"rental_uris": {"ios": "https://dc.lft.to/lastmile_qr_scan", "android": "https://dc.lft.to/lastmile_qr_scan"}, "lon": -77.01617983333334, "type": "electric_scooter", "fusion_lat": 0.0, "lat": 38.8997275, "name": "478b6d1015ff879a79043e51a4df41b1", "fusion_lon": 0.0, "bike_id": "478b6d1015ff879a79043e51a4df41b1", "is_disabled": 0, "is_reserved": 0}, {"rental_uris": {"ios": "https://dc.lft.to/lastmile_qr_scan", "android": "https://dc.lft.to/lastmile_qr_scan"}, "lon": -77.01620133333333, "type": "electric_scooter", "fusion_lat": 0.0, "lat": 38.89966066666667, "name": "4ab57db50037a7094e7a9cbd453c7955", "fusion_lon": 0.0, "bike_id": "4ab57db50037a7094e7a9cbd453c7955", "is_disabled": 0, "is_reserved": 0}, {"rental_uris": {"ios": "https://dc.lft.to/lastmile_qr_scan", "android": "https://dc.lft.to/lastmile_qr_scan"}, "lon": -76.95751933333334, "type": "electric_scooter", "fusion_lat": 0.0, "lat": 38.88424933333334, "name": "7b17ff39f069ec5108a4230b567d49b5", "fusion_lon": 0.0, "bike_id": "7b17ff39f069ec5108a4230b567d49b5", "is_disabled": 0, "is_reserved": 0}, {"rental_uris": {"ios": "https://dc.lft.to/lastmile_qr_scan", "android": "https://dc.lft.to/lastmile_qr_scan"}, "lon": -76.9812815, "type": "electric_scooter", "fusion_lat": 0.0, "lat": 38.857066, "name": "510021ffe0dc6d23dc61c27f86ff9b99", "fusion_lon": 0.0, "bike_id": "510021ffe0dc6d23dc61c27f86ff9b99", "is_disabled": 0, "is_reserved": 0}, {"rental_uris": {"ios": "https://dc.lft.to/lastmile_qr_scan", "android": "https://dc.lft.to/lastmile_qr_scan"}, "lon": -77.054734, "type": "electric_scooter", "fusion_lat": 0.0, "lat": 38.910627833333336, "name": "2f70ffed6c45d3c5086dfa3414e209c9", "fusion_lon": 0.0, "bike_id": "2f70ffed6c45d3c5086dfa3414e209c9", "is_disabled": 0, "is_reserved": 0}, {"rental_uris": {"ios": "https://dc.lft.to/lastmile_qr_scan", "android": "https://dc.lft.to/lastmile_qr_scan"}, "lon": -77.02287783333334, "type": "electric_scooter", "fusion_lat": 0.0, "lat": 38.89705133333333, "name": "378aec09efa74d03116756ac3efa1d05", "fusion_lon": 0.0, "bike_id": "378aec09efa74d03116756ac3efa1d05", "is_disabled": 0, "is_reserved": 0}, {"rental_uris": {"ios": "https://dc.lft.to/lastmile_qr_scan", "android": "https://dc.lft.to/lastmile_qr_scan"}, "lon": -77.0302705, "type": "electric_scooter", "fusion_lat": 0.0, "lat": 38.898172, "name": "60a46911735d036667f8a50f604c47c8", "fusion_lon": 0.0, "bike_id": "60a46911735d036667f8a50f604c47c8", "is_disabled": 0, "is_reserved": 0}, {"rental_uris": {"ios": "https://dc.lft.to/lastmile_qr_scan", "android": "https://dc.lft.to/lastmile_qr_scan"}, "lon": -77.05548683333333, "type": "electric_scooter", "fusion_lat": 0.0, "lat": 38.9253105, "name": "5835b7c2878bf88e50efd4aea41fc92a", "fusion_lon": 0.0, "bike_id": "5835b7c2878bf88e50efd4aea41fc92a", "is_disabled": 0, "is_reserved": 0}, {"rental_uris": {"ios": "https://dc.lft.to/lastmile_qr_scan", "android": "https://dc.lft.to/lastmile_qr_scan"}, "lon": -77.04724883333333, "type": "electric_scooter", "fusion_lat": 0.0, "lat": 38.899561166666665, "name": "d4bb379ecbd3548d20486b8cbd8a59b7", "fusion_lon": 0.0, "bike_id": "d4bb379ecbd3548d20486b8cbd8a59b7", "is_disabled": 0, "is_reserved": 0}, {"rental_uris": {"ios": "https://dc.lft.to/lastmile_qr_scan", "android": "https://dc.lft.to/lastmile_qr_scan"}, "lon": -76.99463333333334, "type": "electric_scooter", "fusion_lat": 0.0, "lat": 38.851605, "name": "be53a498cc656c379e19be12c5a91384", "fusion_lon": 0.0, "bike_id": "be53a498cc656c379e19be12c5a91384", "is_disabled": 0, "is_reserved": 0}, {"rental_uris": {"ios": "https://dc.lft.to/lastmile_qr_scan", "android": "https://dc.lft.to/lastmile_qr_scan"}, "lon": -77.04344216666667, "type": "electric_scooter", "fusion_lat": 0.0, "lat": 38.9104385, "name": "1ac49d06cbed6f6dece6a3167a80b433", "fusion_lon": 0.0, "bike_id": "1ac49d06cbed6f6dece6a3167a80b433", "is_disabled": 0, "is_reserved": 0}, {"rental_uris": {"ios": "https://dc.lft.to/lastmile_qr_scan", "android": "https://dc.lft.to/lastmile_qr_scan"}, "lon": -77.080494, "type": "electric_bike", "fusion_lat": 0.0, "lat": 38.84839616666667, "name": "537b973bffd737a80e4d56260b58d534", "fusion_lon": 0.0, "bike_id": "537b973bffd737a80e4d56260b58d534", "is_disabled": 0, "is_reserved": 0}, {"rental_uris": {"ios": "https://dc.lft.to/lastmile_qr_scan", "android": "https://dc.lft.to/lastmile_qr_scan"}, "lon": -76.9396165, "type": "electric_scooter", "fusion_lat": 0.0, "lat": 38.899650333333334, "name": "9708fa64c923db5e5586dc6d4acc4b5d", "fusion_lon": 0.0, "bike_id": "9708fa64c923db5e5586dc6d4acc4b5d", "is_disabled": 0, "is_reserved": 0}, {"rental_uris": {"ios": "https://dc.lft.to/lastmile_qr_scan", "android": "https://dc.lft.to/lastmile_qr_scan"}, "lon": -77.03942283333333, "type": "electric_scooter", "fusion_lat": 0.0, "lat": 38.89879833333333, "name": "0aeeb13ab0608bdba84302e0a2f9ef93", "fusion_lon": 0.0, "bike_id": "0aeeb13ab0608bdba84302e0a2f9ef93", "is_disabled": 0, "is_reserved": 0}, {"rental_uris": {"ios": "https://dc.lft.to/lastmile_qr_scan", "android": "https://dc.lft.to/lastmile_qr_scan"}, "lon": -77.03562666666667, "type": "electric_scooter", "fusion_lat": 0.0, "lat": 38.939791166666666, "name": "e32adabd3c7cf47fbdc27c62e376fcee", "fusion_lon": 0.0, "bike_id": "e32adabd3c7cf47fbdc27c62e376fcee", "is_disabled": 0, "is_reserved": 0}, {"rental_uris": {"ios": "https://dc.lft.to/lastmile_qr_scan", "android": "https://dc.lft.to/lastmile_qr_scan"}, "lon": -77.06578316666666, "type": "electric_scooter", "fusion_lat": 0.0, "lat": 38.9030375, "name": "36a29ee0895ee4d986ecf695ab81d87d", "fusion_lon": 0.0, "bike_id": "36a29ee0895ee4d986ecf695ab81d87d", "is_disabled": 0, "is_reserved": 0}, {"rental_uris": {"ios": "https://dc.lft.to/lastmile_qr_scan", "android": "https://dc.lft.to/lastmile_qr_scan"}, "lon": -77.0323965, "type": "electric_bike", "fusion_lat": 0.0, "lat": 38.96290116666667, "name": "5c8bdab4f9ae08256abcfa01e88a3f2c", "fusion_lon": 0.0, "bike_id": "5c8bdab4f9ae08256abcfa01e88a3f2c", "is_disabled": 0, "is_reserved": 0}, {"rental_uris": {"ios": "https://dc.lft.to/lastmile_qr_scan", "android": "https://dc.lft.to/lastmile_qr_scan"}, "lon": -77.0214925, "type": "electric_scooter", "fusion_lat": 0.0, "lat": 38.8949, "name": "9d2049718342f1f2db871f8c2eb9619a", "fusion_lon": 0.0, "bike_id": "9d2049718342f1f2db871f8c2eb9619a", "is_disabled": 0, "is_reserved": 0}, {"rental_uris": {"ios": "https://dc.lft.to/lastmile_qr_scan", "android": "https://dc.lft.to/lastmile_qr_scan"}, "lon": -76.93956733333333, "type": "electric_scooter", "fusion_lat": 0.0, "lat": 38.894152, "name": "4229e3a7bb44ce85d1b2c7be7dc32548", "fusion_lon": 0.0, "bike_id": "4229e3a7bb44ce85d1b2c7be7dc32548", "is_disabled": 0, "is_reserved": 0}, {"rental_uris": {"ios": "https://dc.lft.to/lastmile_qr_scan", "android": "https://dc.lft.to/lastmile_qr_scan"}, "lon": -77.01839816666667, "type": "electric_scooter", "fusion_lat": 0.0, "lat": 38.90066216666666, "name": "4254beb5ca7e7efafc90a503f5c5e65f", "fusion_lon": 0.0, "bike_id": "4254beb5ca7e7efafc90a503f5c5e65f", "is_disabled": 0, "is_reserved": 0}, {"rental_uris": {"ios": "https://dc.lft.to/lastmile_qr_scan", "android": "https://dc.lft.to/lastmile_qr_scan"}, "lon": -77.03461233333333, "type": "electric_scooter", "fusion_lat": 0.0, "lat": 38.90734, "name": "32694a5f4f17634412465b1084a84d09", "fusion_lon": 0.0, "bike_id": "32694a5f4f17634412465b1084a84d09", "is_disabled": 0, "is_reserved": 0}, {"rental_uris": {"ios": "https://dc.lft.to/lastmile_qr_scan", "android": "https://dc.lft.to/lastmile_qr_scan"}, "lon": -77.006198, "type": "electric_scooter", "fusion_lat": 0.0, "lat": 38.87474316666667, "name": "491b475fd87bddea4b0ee8f016e9b9cf", "fusion_lon": 0.0, "bike_id": "491b475fd87bddea4b0ee8f016e9b9cf", "is_disabled": 0, "is_reserved": 0}, {"rental_uris": {"ios": "https://dc.lft.to/lastmile_qr_scan", "android": "https://dc.lft.to/lastmile_qr_scan"}, "lon": -77.02884183333333, "type": "electric_scooter", "fusion_lat": 0.0, "lat": 38.903162, "name": "4e2664a329f10764e53e17ee34b8ed2f", "fusion_lon": 0.0, "bike_id": "4e2664a329f10764e53e17ee34b8ed2f", "is_disabled": 0, "is_reserved": 0}, {"rental_uris": {"ios": "https://dc.lft.to/lastmile_qr_scan", "android": "https://dc.lft.to/lastmile_qr_scan"}, "lon": -76.92978933333333, "type": "electric_bike", "fusion_lat": 0.0, "lat": 38.88790266666667, "name": "90a8160dcae9814b696e883275c181df", "fusion_lon": 0.0, "bike_id": "90a8160dcae9814b696e883275c181df", "is_disabled": 0, "is_reserved": 0}, {"rental_uris": {"ios": "https://dc.lft.to/lastmile_qr_scan", "android": "https://dc.lft.to/lastmile_qr_scan"}, "lon": -76.973266, "type": "electric_bike", "fusion_lat": 0.0, "lat": 38.8505875, "name": "f1ba753efa61e9f82a8c60029e2d2fa2", "fusion_lon": 0.0, "bike_id": "f1ba753efa61e9f82a8c60029e2d2fa2", "is_disabled": 0, "is_reserved": 0}, {"rental_uris": {"ios": "https://dc.lft.to/lastmile_qr_scan", "android": "https://dc.lft.to/lastmile_qr_scan"}, "lon": -77.050303, "type": "electric_scooter", "fusion_lat": 0.0, "lat": 38.896607333333336, "name": "5cda8f609cbd2caf0de58ed3e3a9d3da", "fusion_lon": 0.0, "bike_id": "5cda8f609cbd2caf0de58ed3e3a9d3da", "is_disabled": 0, "is_reserved": 0}, {"rental_uris": {"ios": "https://dc.lft.to/lastmile_qr_scan", "android": "https://dc.lft.to/lastmile_qr_scan"}, "lon": -77.03227083333333, "type": "electric_scooter", "fusion_lat": 0.0, "lat": 38.93874816666667, "name": "ccb6a36441172a412b75412bdab8933c", "fusion_lon": 0.0, "bike_id": "ccb6a36441172a412b75412bdab8933c", "is_disabled": 0, "is_reserved": 0}, {"rental_uris": {"ios": "https://dc.lft.to/lastmile_qr_scan", "android": "https://dc.lft.to/lastmile_qr_scan"}, "lon": -77.04688816666666, "type": "electric_scooter", "fusion_lat": 0.0, "lat": 38.8960515, "name": "16fcca3b4f1ef13c501242bf1c58c0d2", "fusion_lon": 0.0, "bike_id": "16fcca3b4f1ef13c501242bf1c58c0d2", "is_disabled": 0, "is_reserved": 0}, {"rental_uris": {"ios": "https://dc.lft.to/lastmile_qr_scan", "android": "https://dc.lft.to/lastmile_qr_scan"}, "lon": -76.9772075, "type": "electric_scooter", "fusion_lat": 0.0, "lat": 38.872438333333335, "name": "3fddeaff4970796675427822bdfe18f0", "fusion_lon": 0.0, "bike_id": "3fddeaff4970796675427822bdfe18f0", "is_disabled": 0, "is_reserved": 0}, {"rental_uris": {"ios": "https://dc.lft.to/lastmile_qr_scan", "android": "https://dc.lft.to/lastmile_qr_scan"}, "lon": -77.054241, "type": "electric_scooter", "fusion_lat": 0.0, "lat": 38.9282805, "name": "e0050f987a514b43a5c8e389f267d53d", "fusion_lon": 0.0, "bike_id": "e0050f987a514b43a5c8e389f267d53d", "is_disabled": 0, "is_reserved": 0}, {"rental_uris": {"ios": "https://dc.lft.to/lastmile_qr_scan", "android": "https://dc.lft.to/lastmile_qr_scan"}, "lon": -77.02643333333333, "type": "electric_scooter", "fusion_lat": 0.0, "lat": 38.984948, "name": "957854f2aed51b393eb1d0d558098ee8", "fusion_lon": 0.0, "bike_id": "957854f2aed51b393eb1d0d558098ee8", "is_disabled": 0, "is_reserved": 0}, {"rental_uris": {"ios": "https://dc.lft.to/lastmile_qr_scan", "android": "https://dc.lft.to/lastmile_qr_scan"}, "lon": -77.05070183333333, "type": "electric_scooter", "fusion_lat": 0.0, "lat": 38.92364716666667, "name": "4ff496578fc9512e16e6e10410b2aaf6", "fusion_lon": 0.0, "bike_id": "4ff496578fc9512e16e6e10410b2aaf6", "is_disabled": 0, "is_reserved": 0}, {"rental_uris": {"ios": "https://dc.lft.to/lastmile_qr_scan", "android": "https://dc.lft.to/lastmile_qr_scan"}, "lon": -77.036737, "type": "electric_scooter", "fusion_lat": 0.0, "lat": 38.92992916666667, "name": "13e35d5a0a5f7977e32edac85848bd8f", "fusion_lon": 0.0, "bike_id": "13e35d5a0a5f7977e32edac85848bd8f", "is_disabled": 0, "is_reserved": 0}, {"rental_uris": {"ios": "https://dc.lft.to/lastmile_qr_scan", "android": "https://dc.lft.to/lastmile_qr_scan"}, "lon": -77.03454283333333, "type": "electric_scooter", "fusion_lat": 0.0, "lat": 38.918163166666666, "name": "d8e88066d513d5f4290cc77cc41c7125", "fusion_lon": 0.0, "bike_id": "d8e88066d513d5f4290cc77cc41c7125", "is_disabled": 0, "is_reserved": 0}, {"rental_uris": {"ios": "https://dc.lft.to/lastmile_qr_scan", "android": "https://dc.lft.to/lastmile_qr_scan"}, "lon": -77.04627866666667, "type": "electric_scooter", "fusion_lat": 0.0, "lat": 38.902558, "name": "1c3d13ce3210c5f5fe4929a0e215c665", "fusion_lon": 0.0, "bike_id": "1c3d13ce3210c5f5fe4929a0e215c665", "is_disabled": 0, "is_reserved": 0}, {"rental_uris": {"ios": "https://dc.lft.to/lastmile_qr_scan", "android": "https://dc.lft.to/lastmile_qr_scan"}, "lon": -77.03199166666667, "type": "electric_scooter", "fusion_lat": 0.0, "lat": 38.9120185, "name": "2c9be010fffbfc61b8c411e9537a416c", "fusion_lon": 0.0, "bike_id": "2c9be010fffbfc61b8c411e9537a416c", "is_disabled": 0, "is_reserved": 0}, {"rental_uris": {"ios": "https://dc.lft.to/lastmile_qr_scan", "android": "https://dc.lft.to/lastmile_qr_scan"}, "lon": -77.05741916666666, "type": "electric_scooter", "fusion_lat": 0.0, "lat": 38.90498, "name": "513144205116ca80c7819b3f5d958887", "fusion_lon": 0.0, "bike_id": "513144205116ca80c7819b3f5d958887", "is_disabled": 0, "is_reserved": 0}, {"rental_uris": {"ios": "https://dc.lft.to/lastmile_qr_scan", "android": "https://dc.lft.to/lastmile_qr_scan"}, "lon": -77.0253105, "type": "electric_scooter", "fusion_lat": 0.0, "lat": 38.94143833333333, "name": "8d7ee4cbaee85d491d0d0cfd3be5118c", "fusion_lon": 0.0, "bike_id": "8d7ee4cbaee85d491d0d0cfd3be5118c", "is_disabled": 0, "is_reserved": 0}, {"rental_uris": {"ios": "https://dc.lft.to/lastmile_qr_scan", "android": "https://dc.lft.to/lastmile_qr_scan"}, "lon": -77.02510566666666, "type": "electric_scooter", "fusion_lat": 0.0, "lat": 38.9176555, "name": "2b8ace1c8db6c7a5043fcd46cac7400f", "fusion_lon": 0.0, "bike_id": "2b8ace1c8db6c7a5043fcd46cac7400f", "is_disabled": 0, "is_reserved": 0}, {"rental_uris": {"ios": "https://dc.lft.to/lastmile_qr_scan", "android": "https://dc.lft.to/lastmile_qr_scan"}, "lon": -77.01128683333333, "type": "electric_scooter", "fusion_lat": 0.0, "lat": 38.9126335, "name": "c11bef723c57babdea5d4c921dba91bf", "fusion_lon": 0.0, "bike_id": "c11bef723c57babdea5d4c921dba91bf", "is_disabled": 0, "is_reserved": 0}, {"rental_uris": {"ios": "https://dc.lft.to/lastmile_qr_scan", "android": "https://dc.lft.to/lastmile_qr_scan"}, "lon": -77.04190883333334, "type": "electric_scooter", "fusion_lat": 0.0, "lat": 38.91673483333334, "name": "273ac995ddc6b6f9a73b9e96b1ce4e01", "fusion_lon": 0.0, "bike_id": "273ac995ddc6b6f9a73b9e96b1ce4e01", "is_disabled": 0, "is_reserved": 0}, {"rental_uris": {"ios": "https://dc.lft.to/lastmile_qr_scan", "android": "https://dc.lft.to/lastmile_qr_scan"}, "lon": -77.04834233333334, "type": "electric_scooter", "fusion_lat": 0.0, "lat": 38.90389583333334, "name": "aa5d2286490545370747b65bbfca349e", "fusion_lon": 0.0, "bike_id": "aa5d2286490545370747b65bbfca349e", "is_disabled": 0, "is_reserved": 0}, {"rental_uris": {"ios": "https://dc.lft.to/lastmile_qr_scan", "android": "https://dc.lft.to/lastmile_qr_scan"}, "lon": -76.972159, "type": "electric_bike", "fusion_lat": 0.0, "lat": 38.84473583333333, "name": "46ded417a6137ac3c3e8eaedccc185b8", "fusion_lon": 0.0, "bike_id": "46ded417a6137ac3c3e8eaedccc185b8", "is_disabled": 0, "is_reserved": 0}, {"rental_uris": {"ios": "https://dc.lft.to/lastmile_qr_scan", "android": "https://dc.lft.to/lastmile_qr_scan"}, "lon": -77.0269185, "type": "electric_scooter", "fusion_lat": 0.0, "lat": 38.906780833333336, "name": "27f96ecf81bf7350a4704ec323cc4623", "fusion_lon": 0.0, "bike_id": "27f96ecf81bf7350a4704ec323cc4623", "is_disabled": 0, "is_reserved": 0}, {"rental_uris": {"ios": "https://dc.lft.to/lastmile_qr_scan", "android": "https://dc.lft.to/lastmile_qr_scan"}, "lon": -76.89532316666667, "type": "electric_bike", "fusion_lat": 0.0, "lat": 38.945494833333335, "name": "54b08c2ed9723afc034d55316b1a6831", "fusion_lon": 0.0, "bike_id": "54b08c2ed9723afc034d55316b1a6831", "is_disabled": 0, "is_reserved": 0}, {"rental_uris": {"ios": "https://dc.lft.to/lastmile_qr_scan", "android": "https://dc.lft.to/lastmile_qr_scan"}, "lon": -77.0438245, "type": "electric_scooter", "fusion_lat": 0.0, "lat": 38.91038233333333, "name": "1fc4e641f4e7cb92a3e7105c80e001b7", "fusion_lon": 0.0, "bike_id": "1fc4e641f4e7cb92a3e7105c80e001b7", "is_disabled": 0, "is_reserved": 0}, {"rental_uris": {"ios": "https://dc.lft.to/lastmile_qr_scan", "android": "https://dc.lft.to/lastmile_qr_scan"}, "lon": -77.04569766666667, "type": "electric_scooter", "fusion_lat": 0.0, "lat": 38.91399716666667, "name": "07cff89482561ac92155b0724fbf3d86", "fusion_lon": 0.0, "bike_id": "07cff89482561ac92155b0724fbf3d86", "is_disabled": 0, "is_reserved": 0}, {"rental_uris": {"ios": "https://dc.lft.to/lastmile_qr_scan", "android": "https://dc.lft.to/lastmile_qr_scan"}, "lon": -76.94872433333333, "type": "electric_scooter", "fusion_lat": 0.0, "lat": 38.89479816666667, "name": "70629293f92918ca34028355746de423", "fusion_lon": 0.0, "bike_id": "70629293f92918ca34028355746de423", "is_disabled": 0, "is_reserved": 0}, {"rental_uris": {"ios": "https://dc.lft.to/lastmile_qr_scan", "android": "https://dc.lft.to/lastmile_qr_scan"}, "lon": -77.02277416666666, "type": "electric_scooter", "fusion_lat": 0.0, "lat": 38.896043, "name": "0e0d8787d183ba9726124727f9ae72cf", "fusion_lon": 0.0, "bike_id": "0e0d8787d183ba9726124727f9ae72cf", "is_disabled": 0, "is_reserved": 0}, {"rental_uris": {"ios": "https://dc.lft.to/lastmile_qr_scan", "android": "https://dc.lft.to/lastmile_qr_scan"}, "lon": -77.02459816666666, "type": "electric_scooter", "fusion_lat": 0.0, "lat": 38.916947, "name": "938e2237d6b323d2e685acfbbdb55d27", "fusion_lon": 0.0, "bike_id": "938e2237d6b323d2e685acfbbdb55d27", "is_disabled": 0, "is_reserved": 0}, {"rental_uris": {"ios": "https://dc.lft.to/lastmile_qr_scan", "android": "https://dc.lft.to/lastmile_qr_scan"}, "lon": -77.01219516666667, "type": "electric_scooter", "fusion_lat": 0.0, "lat": 38.92035416666667, "name": "1c3898e846afeba8ffa5c4ade89aa775", "fusion_lon": 0.0, "bike_id": "1c3898e846afeba8ffa5c4ade89aa775", "is_disabled": 0, "is_reserved": 0}, {"rental_uris": {"ios": "https://dc.lft.to/lastmile_qr_scan", "android": "https://dc.lft.to/lastmile_qr_scan"}, "lon": -77.04304333333333, "type": "electric_scooter", "fusion_lat": 0.0, "lat": 38.9055295, "name": "022d024f4e7fa0b6abafa2a1e2db6db4", "fusion_lon": 0.0, "bike_id": "022d024f4e7fa0b6abafa2a1e2db6db4", "is_disabled": 0, "is_reserved": 0}, {"rental_uris": {"ios": "https://dc.lft.to/lastmile_qr_scan", "android": "https://dc.lft.to/lastmile_qr_scan"}, "lon": -77.04533783333333, "type": "electric_scooter", "fusion_lat": 0.0, "lat": 38.90395433333333, "name": "1c46ebeb338cff76b42ab485b7a6ea9b", "fusion_lon": 0.0, "bike_id": "1c46ebeb338cff76b42ab485b7a6ea9b", "is_disabled": 0, "is_reserved": 0}, {"rental_uris": {"ios": "https://dc.lft.to/lastmile_qr_scan", "android": "https://dc.lft.to/lastmile_qr_scan"}, "lon": -76.99145866666667, "type": "electric_scooter", "fusion_lat": 0.0, "lat": 38.89341966666667, "name": "08a62c8b8af1f6842497289946a32260", "fusion_lon": 0.0, "bike_id": "08a62c8b8af1f6842497289946a32260", "is_disabled": 0, "is_reserved": 0}, {"rental_uris": {"ios": "https://dc.lft.to/lastmile_qr_scan", "android": "https://dc.lft.to/lastmile_qr_scan"}, "lon": -77.021485, "type": "electric_bike", "fusion_lat": 0.0, "lat": 38.9732815, "name": "6480e36ef9d1d4446dc4f7a79d9f5e52", "fusion_lon": 0.0, "bike_id": "6480e36ef9d1d4446dc4f7a79d9f5e52", "is_disabled": 0, "is_reserved": 0}, {"rental_uris": {"ios": "https://dc.lft.to/lastmile_qr_scan", "android": "https://dc.lft.to/lastmile_qr_scan"}, "lon": -77.03769333333334, "type": "electric_scooter", "fusion_lat": 0.0, "lat": 38.916913666666666, "name": "dcbf6a5d069f43f0d7f9fb630b4acaca", "fusion_lon": 0.0, "bike_id": "dcbf6a5d069f43f0d7f9fb630b4acaca", "is_disabled": 0, "is_reserved": 0}, {"rental_uris": {"ios": "https://dc.lft.to/lastmile_qr_scan", "android": "https://dc.lft.to/lastmile_qr_scan"}, "lon": -77.0270725, "type": "electric_bike", "fusion_lat": 0.0, "lat": 38.906622166666665, "name": "67d1c2c3849b6c5a4718bd8d3d8cb187", "fusion_lon": 0.0, "bike_id": "67d1c2c3849b6c5a4718bd8d3d8cb187", "is_disabled": 0, "is_reserved": 0}, {"rental_uris": {"ios": "https://dc.lft.to/lastmile_qr_scan", "android": "https://dc.lft.to/lastmile_qr_scan"}, "lon": -76.98436616666666, "type": "electric_scooter", "fusion_lat": 0.0, "lat": 38.91452616666667, "name": "97fff2cc57c57cbb3aa95f1ee5ae7879", "fusion_lon": 0.0, "bike_id": "97fff2cc57c57cbb3aa95f1ee5ae7879", "is_disabled": 0, "is_reserved": 0}, {"rental_uris": {"ios": "https://dc.lft.to/lastmile_qr_scan", "android": "https://dc.lft.to/lastmile_qr_scan"}, "lon": -77.027123, "type": "electric_scooter", "fusion_lat": 0.0, "lat": 38.91674733333333, "name": "eab73117235bb26aa60f20ff14d837eb", "fusion_lon": 0.0, "bike_id": "eab73117235bb26aa60f20ff14d837eb", "is_disabled": 0, "is_reserved": 0}, {"rental_uris": {"ios": "https://dc.lft.to/lastmile_qr_scan", "android": "https://dc.lft.to/lastmile_qr_scan"}, "lon": -76.99449016666667, "type": "electric_scooter", "fusion_lat": 0.0, "lat": 38.900172833333336, "name": "ea478c7e50a70cd1f6a6c8652e049609", "fusion_lon": 0.0, "bike_id": "ea478c7e50a70cd1f6a6c8652e049609", "is_disabled": 0, "is_reserved": 0}, {"rental_uris": {"ios": "https://dc.lft.to/lastmile_qr_scan", "android": "https://dc.lft.to/lastmile_qr_scan"}, "lon": -77.05289066666667, "type": "electric_scooter", "fusion_lat": 0.0, "lat": 38.910530333333334, "name": "778c24023bca31c47500698ae55d97ab", "fusion_lon": 0.0, "bike_id": "778c24023bca31c47500698ae55d97ab", "is_disabled": 0, "is_reserved": 0}, {"rental_uris": {"ios": "https://dc.lft.to/lastmile_qr_scan", "android": "https://dc.lft.to/lastmile_qr_scan"}, "lon": -77.0438195, "type": "electric_scooter", "fusion_lat": 0.0, "lat": 38.9207065, "name": "70f1d36708facbe9690216f479bd8e07", "fusion_lon": 0.0, "bike_id": "70f1d36708facbe9690216f479bd8e07", "is_disabled": 0, "is_reserved": 0}, {"rental_uris": {"ios": "https://dc.lft.to/lastmile_qr_scan", "android": "https://dc.lft.to/lastmile_qr_scan"}, "lon": -77.048702, "type": "electric_scooter", "fusion_lat": 0.0, "lat": 38.9064215, "name": "e0c921d2486499dd9aafa70f71493383", "fusion_lon": 0.0, "bike_id": "e0c921d2486499dd9aafa70f71493383", "is_disabled": 0, "is_reserved": 0}, {"rental_uris": {"ios": "https://dc.lft.to/lastmile_qr_scan", "android": "https://dc.lft.to/lastmile_qr_scan"}, "lon": -77.0336815, "type": "electric_scooter", "fusion_lat": 0.0, "lat": 38.945084, "name": "c2ce9b8c7e0fbfc5cac0940354271e78", "fusion_lon": 0.0, "bike_id": "c2ce9b8c7e0fbfc5cac0940354271e78", "is_disabled": 0, "is_reserved": 0}, {"rental_uris": {"ios": "https://dc.lft.to/lastmile_qr_scan", "android": "https://dc.lft.to/lastmile_qr_scan"}, "lon": -77.00662983333334, "type": "electric_scooter", "fusion_lat": 0.0, "lat": 38.87642783333333, "name": "b36885c6ed3ab6724f973414a6575572", "fusion_lon": 0.0, "bike_id": "b36885c6ed3ab6724f973414a6575572", "is_disabled": 0, "is_reserved": 0}, {"rental_uris": {"ios": "https://dc.lft.to/lastmile_qr_scan", "android": "https://dc.lft.to/lastmile_qr_scan"}, "lon": -76.99967933333333, "type": "electric_scooter", "fusion_lat": 0.0, "lat": 38.90139116666667, "name": "03c2fa991a628334bdd67c0457db8519", "fusion_lon": 0.0, "bike_id": "03c2fa991a628334bdd67c0457db8519", "is_disabled": 0, "is_reserved": 0}, {"rental_uris": {"ios": "https://dc.lft.to/lastmile_qr_scan", "android": "https://dc.lft.to/lastmile_qr_scan"}, "lon": -77.04018916666666, "type": "electric_scooter", "fusion_lat": 0.0, "lat": 38.918141166666665, "name": "2231aa89da8867abbf1b6ee4284ee60a", "fusion_lon": 0.0, "bike_id": "2231aa89da8867abbf1b6ee4284ee60a", "is_disabled": 0, "is_reserved": 0}, {"rental_uris": {"ios": "https://dc.lft.to/lastmile_qr_scan", "android": "https://dc.lft.to/lastmile_qr_scan"}, "lon": -77.02149966666667, "type": "electric_bike", "fusion_lat": 0.0, "lat": 38.97322283333333, "name": "afe94431e8e5bd144f9aecac2e343c2b", "fusion_lon": 0.0, "bike_id": "afe94431e8e5bd144f9aecac2e343c2b", "is_disabled": 0, "is_reserved": 0}, {"rental_uris": {"ios": "https://dc.lft.to/lastmile_qr_scan", "android": "https://dc.lft.to/lastmile_qr_scan"}, "lon": -76.93614366666667, "type": "electric_bike", "fusion_lat": 0.0, "lat": 38.970555833333336, "name": "be608e3214d63cb13e3433018d6533e1", "fusion_lon": 0.0, "bike_id": "be608e3214d63cb13e3433018d6533e1", "is_disabled": 0, "is_reserved": 0}, {"rental_uris": {"ios": "https://dc.lft.to/lastmile_qr_scan", "android": "https://dc.lft.to/lastmile_qr_scan"}, "lon": -76.98088333333334, "type": "electric_bike", "fusion_lat": 0.0, "lat": 38.902854166666664, "name": "7dbdbd9889862cd46d0433f44935d023", "fusion_lon": 0.0, "bike_id": "7dbdbd9889862cd46d0433f44935d023", "is_disabled": 0, "is_reserved": 0}, {"rental_uris": {"ios": "https://dc.lft.to/lastmile_qr_scan", "android": "https://dc.lft.to/lastmile_qr_scan"}, "lon": -77.0790395, "type": "electric_bike", "fusion_lat": 0.0, "lat": 38.8393405, "name": "94e424d3bbde4f87dd71d6cfecbf11c9", "fusion_lon": 0.0, "bike_id": "94e424d3bbde4f87dd71d6cfecbf11c9", "is_disabled": 0, "is_reserved": 0}, {"rental_uris": {"ios": "https://dc.lft.to/lastmile_qr_scan", "android": "https://dc.lft.to/lastmile_qr_scan"}, "lon": -77.02406383333333, "type": "electric_scooter", "fusion_lat": 0.0, "lat": 38.930816, "name": "2302c356fe202f263a9d0bad21bf0978", "fusion_lon": 0.0, "bike_id": "2302c356fe202f263a9d0bad21bf0978", "is_disabled": 0, "is_reserved": 0}, {"rental_uris": {"ios": "https://dc.lft.to/lastmile_qr_scan", "android": "https://dc.lft.to/lastmile_qr_scan"}, "lon": -77.107271, "type": "electric_bike", "fusion_lat": 0.0, "lat": 38.8552805, "name": "d4aaf3d2e18b79e81b6e2b98c9218718", "fusion_lon": 0.0, "bike_id": "d4aaf3d2e18b79e81b6e2b98c9218718", "is_disabled": 0, "is_reserved": 0}, {"rental_uris": {"ios": "https://dc.lft.to/lastmile_qr_scan", "android": "https://dc.lft.to/lastmile_qr_scan"}, "lon": -77.02122416666667, "type": "electric_scooter", "fusion_lat": 0.0, "lat": 38.897161, "name": "338f371b326bfd1a9d0f127601a1954a", "fusion_lon": 0.0, "bike_id": "338f371b326bfd1a9d0f127601a1954a", "is_disabled": 0, "is_reserved": 0}, {"rental_uris": {"ios": "https://dc.lft.to/lastmile_qr_scan", "android": "https://dc.lft.to/lastmile_qr_scan"}, "lon": -77.03368016666667, "type": "electric_bike", "fusion_lat": 0.0, "lat": 38.928867333333336, "name": "f2429aee06cec6e8426441740d5ebb05", "fusion_lon": 0.0, "bike_id": "f2429aee06cec6e8426441740d5ebb05", "is_disabled": 0, "is_reserved": 0}, {"rental_uris": {"ios": "https://dc.lft.to/lastmile_qr_scan", "android": "https://dc.lft.to/lastmile_qr_scan"}, "lon": -77.07089883333333, "type": "electric_scooter", "fusion_lat": 0.0, "lat": 38.89906633333333, "name": "bb66a41c12be64b9ac2069b8aa0f52ec", "fusion_lon": 0.0, "bike_id": "bb66a41c12be64b9ac2069b8aa0f52ec", "is_disabled": 0, "is_reserved": 0}, {"rental_uris": {"ios": "https://dc.lft.to/lastmile_qr_scan", "android": "https://dc.lft.to/lastmile_qr_scan"}, "lon": -77.026072, "type": "electric_scooter", "fusion_lat": 0.0, "lat": 38.90199666666667, "name": "6a20784c6a90826373f53b3f222901d6", "fusion_lon": 0.0, "bike_id": "6a20784c6a90826373f53b3f222901d6", "is_disabled": 0, "is_reserved": 0}, {"rental_uris": {"ios": "https://dc.lft.to/lastmile_qr_scan", "android": "https://dc.lft.to/lastmile_qr_scan"}, "lon": -76.9486945, "type": "electric_scooter", "fusion_lat": 0.0, "lat": 38.8947895, "name": "284805117831b2eb8c4a357235d2f695", "fusion_lon": 0.0, "bike_id": "284805117831b2eb8c4a357235d2f695", "is_disabled": 0, "is_reserved": 0}, {"rental_uris": {"ios": "https://dc.lft.to/lastmile_qr_scan", "android": "https://dc.lft.to/lastmile_qr_scan"}, "lon": -77.07606016666666, "type": "electric_scooter", "fusion_lat": 0.0, "lat": 38.912126, "name": "c91f25e36cb1c7357e82311b1c121fdc", "fusion_lon": 0.0, "bike_id": "c91f25e36cb1c7357e82311b1c121fdc", "is_disabled": 0, "is_reserved": 0}, {"rental_uris": {"ios": "https://dc.lft.to/lastmile_qr_scan", "android": "https://dc.lft.to/lastmile_qr_scan"}, "lon": -76.95410433333333, "type": "electric_scooter", "fusion_lat": 0.0, "lat": 38.890013333333336, "name": "bc548fcc1a39c49db6032e1835875322", "fusion_lon": 0.0, "bike_id": "bc548fcc1a39c49db6032e1835875322", "is_disabled": 0, "is_reserved": 0}, {"rental_uris": {"ios": "https://dc.lft.to/lastmile_qr_scan", "android": "https://dc.lft.to/lastmile_qr_scan"}, "lon": -77.048799, "type": "electric_scooter", "fusion_lat": 0.0, "lat": 38.900724, "name": "b7e08ce4072ea991409710d60a8c2bec", "fusion_lon": 0.0, "bike_id": "b7e08ce4072ea991409710d60a8c2bec", "is_disabled": 0, "is_reserved": 0}, {"rental_uris": {"ios": "https://dc.lft.to/lastmile_qr_scan", "android": "https://dc.lft.to/lastmile_qr_scan"}, "lon": -76.9895995, "type": "electric_scooter", "fusion_lat": 0.0, "lat": 38.90024583333334, "name": "808c1f309c141a9150e67031df650487", "fusion_lon": 0.0, "bike_id": "808c1f309c141a9150e67031df650487", "is_disabled": 0, "is_reserved": 0}, {"rental_uris": {"ios": "https://dc.lft.to/lastmile_qr_scan", "android": "https://dc.lft.to/lastmile_qr_scan"}, "lon": -77.03224066666667, "type": "electric_scooter", "fusion_lat": 0.0, "lat": 38.926688666666664, "name": "47aca920272bf66c18d72a5fe29a5d48", "fusion_lon": 0.0, "bike_id": "47aca920272bf66c18d72a5fe29a5d48", "is_disabled": 0, "is_reserved": 0}, {"rental_uris": {"ios": "https://dc.lft.to/lastmile_qr_scan", "android": "https://dc.lft.to/lastmile_qr_scan"}, "lon": -77.12900316666666, "type": "electric_bike", "fusion_lat": 0.0, "lat": 38.8637405, "name": "5fe4b93375d419284ad146521e55d21f", "fusion_lon": 0.0, "bike_id": "5fe4b93375d419284ad146521e55d21f", "is_disabled": 0, "is_reserved": 0}, {"rental_uris": {"ios": "https://dc.lft.to/lastmile_qr_scan", "android": "https://dc.lft.to/lastmile_qr_scan"}, "lon": -77.06770216666666, "type": "electric_bike", "fusion_lat": 0.0, "lat": 38.91542033333333, "name": "cfc1b3b2ca3016c90f5ff6fa52fa7d40", "fusion_lon": 0.0, "bike_id": "cfc1b3b2ca3016c90f5ff6fa52fa7d40", "is_disabled": 0, "is_reserved": 0}, {"rental_uris": {"ios": "https://dc.lft.to/lastmile_qr_scan", "android": "https://dc.lft.to/lastmile_qr_scan"}, "lon": -77.05858633333334, "type": "electric_scooter", "fusion_lat": 0.0, "lat": 38.9360495, "name": "9c56ae867d55e2af4484b9d372d3ff58", "fusion_lon": 0.0, "bike_id": "9c56ae867d55e2af4484b9d372d3ff58", "is_disabled": 0, "is_reserved": 0}, {"rental_uris": {"ios": "https://dc.lft.to/lastmile_qr_scan", "android": "https://dc.lft.to/lastmile_qr_scan"}, "lon": -77.03917766666666, "type": "electric_scooter", "fusion_lat": 0.0, "lat": 38.92469966666667, "name": "90d0ca1251320f75caee482756e3675d", "fusion_lon": 0.0, "bike_id": "90d0ca1251320f75caee482756e3675d", "is_disabled": 0, "is_reserved": 0}, {"rental_uris": {"ios": "https://dc.lft.to/lastmile_qr_scan", "android": "https://dc.lft.to/lastmile_qr_scan"}, "lon": -77.02272516666666, "type": "electric_scooter", "fusion_lat": 0.0, "lat": 38.8960285, "name": "4ea443af123ee09b6456807182e108c6", "fusion_lon": 0.0, "bike_id": "4ea443af123ee09b6456807182e108c6", "is_disabled": 0, "is_reserved": 0}, {"rental_uris": {"ios": "https://dc.lft.to/lastmile_qr_scan", "android": "https://dc.lft.to/lastmile_qr_scan"}, "lon": -77.01226233333334, "type": "electric_scooter", "fusion_lat": 0.0, "lat": 38.90978116666667, "name": "e5624f79a01207e7aae06381f1e3a83b", "fusion_lon": 0.0, "bike_id": "e5624f79a01207e7aae06381f1e3a83b", "is_disabled": 0, "is_reserved": 0}, {"rental_uris": {"ios": "https://dc.lft.to/lastmile_qr_scan", "android": "https://dc.lft.to/lastmile_qr_scan"}, "lon": -76.98818583333333, "type": "electric_scooter", "fusion_lat": 0.0, "lat": 38.9033705, "name": "012a5ccdfedf8e6b08523409a85c1f5f", "fusion_lon": 0.0, "bike_id": "012a5ccdfedf8e6b08523409a85c1f5f", "is_disabled": 0, "is_reserved": 0}, {"rental_uris": {"ios": "https://dc.lft.to/lastmile_qr_scan", "android": "https://dc.lft.to/lastmile_qr_scan"}, "lon": -77.02766716666666, "type": "electric_scooter", "fusion_lat": 0.0, "lat": 38.92381316666667, "name": "11f30c43b4b7ef7b426e1f9e185e4b76", "fusion_lon": 0.0, "bike_id": "11f30c43b4b7ef7b426e1f9e185e4b76", "is_disabled": 0, "is_reserved": 0}, {"rental_uris": {"ios": "https://dc.lft.to/lastmile_qr_scan", "android": "https://dc.lft.to/lastmile_qr_scan"}, "lon": -76.93303583333334, "type": "electric_scooter", "fusion_lat": 0.0, "lat": 38.8987885, "name": "f3f10e879dfce798b5f575f5a9aced97", "fusion_lon": 0.0, "bike_id": "f3f10e879dfce798b5f575f5a9aced97", "is_disabled": 0, "is_reserved": 0}, {"rental_uris": {"ios": "https://dc.lft.to/lastmile_qr_scan", "android": "https://dc.lft.to/lastmile_qr_scan"}, "lon": -77.036023, "type": "electric_scooter", "fusion_lat": 0.0, "lat": 38.917453333333334, "name": "9cdef3f0f6b52a9342fe4de38739372b", "fusion_lon": 0.0, "bike_id": "9cdef3f0f6b52a9342fe4de38739372b", "is_disabled": 0, "is_reserved": 0}, {"rental_uris": {"ios": "https://dc.lft.to/lastmile_qr_scan", "android": "https://dc.lft.to/lastmile_qr_scan"}, "lon": -76.98558016666667, "type": "electric_scooter", "fusion_lat": 0.0, "lat": 38.89954133333333, "name": "9ec9ac3b66561d33e493ee150b5c452a", "fusion_lon": 0.0, "bike_id": "9ec9ac3b66561d33e493ee150b5c452a", "is_disabled": 0, "is_reserved": 0}, {"rental_uris": {"ios": "https://dc.lft.to/lastmile_qr_scan", "android": "https://dc.lft.to/lastmile_qr_scan"}, "lon": -77.09554716666666, "type": "electric_scooter", "fusion_lat": 0.0, "lat": 38.91656, "name": "768771b056ad38265ef0a12015a41a3c", "fusion_lon": 0.0, "bike_id": "768771b056ad38265ef0a12015a41a3c", "is_disabled": 0, "is_reserved": 0}, {"rental_uris": {"ios": "https://dc.lft.to/lastmile_qr_scan", "android": "https://dc.lft.to/lastmile_qr_scan"}, "lon": -77.0235825, "type": "electric_scooter", "fusion_lat": 0.0, "lat": 38.91546433333333, "name": "d9aa80abbe0cc54eabba17915f3c6000", "fusion_lon": 0.0, "bike_id": "d9aa80abbe0cc54eabba17915f3c6000", "is_disabled": 0, "is_reserved": 0}, {"rental_uris": {"ios": "https://dc.lft.to/lastmile_qr_scan", "android": "https://dc.lft.to/lastmile_qr_scan"}, "lon": -76.9859215, "type": "electric_scooter", "fusion_lat": 0.0, "lat": 38.9065645, "name": "7eda0a30f56eecc17f92a2187f3a7d21", "fusion_lon": 0.0, "bike_id": "7eda0a30f56eecc17f92a2187f3a7d21", "is_disabled": 0, "is_reserved": 0}, {"rental_uris": {"ios": "https://dc.lft.to/lastmile_qr_scan", "android": "https://dc.lft.to/lastmile_qr_scan"}, "lon": -77.04386066666666, "type": "electric_scooter", "fusion_lat": 0.0, "lat": 38.9165885, "name": "b856a51a2926f65f5896e74148f7fd55", "fusion_lon": 0.0, "bike_id": "b856a51a2926f65f5896e74148f7fd55", "is_disabled": 0, "is_reserved": 0}, {"rental_uris": {"ios": "https://dc.lft.to/lastmile_qr_scan", "android": "https://dc.lft.to/lastmile_qr_scan"}, "lon": -77.03228883333334, "type": "electric_scooter", "fusion_lat": 0.0, "lat": 38.925846666666665, "name": "541f78c808e8aa1c15c20aeb8e64103a", "fusion_lon": 0.0, "bike_id": "541f78c808e8aa1c15c20aeb8e64103a", "is_disabled": 0, "is_reserved": 0}, {"rental_uris": {"ios": "https://dc.lft.to/lastmile_qr_scan", "android": "https://dc.lft.to/lastmile_qr_scan"}, "lon": -77.03726683333333, "type": "electric_scooter", "fusion_lat": 0.0, "lat": 38.93355716666667, "name": "4a8a87408b254391185448a942106d3a", "fusion_lon": 0.0, "bike_id": "4a8a87408b254391185448a942106d3a", "is_disabled": 0, "is_reserved": 0}, {"rental_uris": {"ios": "https://dc.lft.to/lastmile_qr_scan", "android": "https://dc.lft.to/lastmile_qr_scan"}, "lon": -77.02413483333333, "type": "electric_scooter", "fusion_lat": 0.0, "lat": 38.892195, "name": "c46af15f212f7710758b05e53a6e5862", "fusion_lon": 0.0, "bike_id": "c46af15f212f7710758b05e53a6e5862", "is_disabled": 0, "is_reserved": 0}, {"rental_uris": {"ios": "https://dc.lft.to/lastmile_qr_scan", "android": "https://dc.lft.to/lastmile_qr_scan"}, "lon": -76.97814133333333, "type": "electric_scooter", "fusion_lat": 0.0, "lat": 38.906715166666665, "name": "24fe397c0a5cd88e6f3c69cb7430d9fd", "fusion_lon": 0.0, "bike_id": "24fe397c0a5cd88e6f3c69cb7430d9fd", "is_disabled": 0, "is_reserved": 0}, {"rental_uris": {"ios": "https://dc.lft.to/lastmile_qr_scan", "android": "https://dc.lft.to/lastmile_qr_scan"}, "lon": -77.0218935, "type": "electric_scooter", "fusion_lat": 0.0, "lat": 38.894312666666664, "name": "030576c25cad4f7d8bc37b8e20480705", "fusion_lon": 0.0, "bike_id": "030576c25cad4f7d8bc37b8e20480705", "is_disabled": 0, "is_reserved": 0}, {"rental_uris": {"ios": "https://dc.lft.to/lastmile_qr_scan", "android": "https://dc.lft.to/lastmile_qr_scan"}, "lon": -77.051176, "type": "electric_scooter", "fusion_lat": 0.0, "lat": 38.90221183333333, "name": "8270702d70fe66cd464da466f037c530", "fusion_lon": 0.0, "bike_id": "8270702d70fe66cd464da466f037c530", "is_disabled": 0, "is_reserved": 0}, {"rental_uris": {"ios": "https://dc.lft.to/lastmile_qr_scan", "android": "https://dc.lft.to/lastmile_qr_scan"}, "lon": -77.11213716666667, "type": "electric_bike", "fusion_lat": 0.0, "lat": 38.81305616666667, "name": "daf7c50c2c1e9fc0d08f5bb4ebe766a1", "fusion_lon": 0.0, "bike_id": "daf7c50c2c1e9fc0d08f5bb4ebe766a1", "is_disabled": 0, "is_reserved": 0}, {"rental_uris": {"ios": "https://dc.lft.to/lastmile_qr_scan", "android": "https://dc.lft.to/lastmile_qr_scan"}, "lon": -77.122585, "type": "electric_bike", "fusion_lat": 0.0, "lat": 38.89188583333333, "name": "001dd8f23cd7948b8235047c824efd68", "fusion_lon": 0.0, "bike_id": "001dd8f23cd7948b8235047c824efd68", "is_disabled": 0, "is_reserved": 0}, {"rental_uris": {"ios": "https://dc.lft.to/lastmile_qr_scan", "android": "https://dc.lft.to/lastmile_qr_scan"}, "lon": -76.93512833333334, "type": "electric_bike", "fusion_lat": 0.0, "lat": 38.95526666666667, "name": "f18e5653a9c45666977363cdc15a92b3", "fusion_lon": 0.0, "bike_id": "f18e5653a9c45666977363cdc15a92b3", "is_disabled": 0, "is_reserved": 0}, {"rental_uris": {"ios": "https://dc.lft.to/lastmile_qr_scan", "android": "https://dc.lft.to/lastmile_qr_scan"}, "lon": -77.04509133333333, "type": "electric_scooter", "fusion_lat": 0.0, "lat": 38.915809333333335, "name": "08dbf762c55e540830b950c5b16a2303", "fusion_lon": 0.0, "bike_id": "08dbf762c55e540830b950c5b16a2303", "is_disabled": 0, "is_reserved": 0}, {"rental_uris": {"ios": "https://dc.lft.to/lastmile_qr_scan", "android": "https://dc.lft.to/lastmile_qr_scan"}, "lon": -77.07683583333333, "type": "electric_bike", "fusion_lat": 0.0, "lat": 38.8319475, "name": "612f0b6a83004400d17d5cae8ad96770", "fusion_lon": 0.0, "bike_id": "612f0b6a83004400d17d5cae8ad96770", "is_disabled": 0, "is_reserved": 0}, {"rental_uris": {"ios": "https://dc.lft.to/lastmile_qr_scan", "android": "https://dc.lft.to/lastmile_qr_scan"}, "lon": -77.04383133333333, "type": "electric_scooter", "fusion_lat": 0.0, "lat": 38.92068116666667, "name": "db6e1d051905185b4659edb88b0d6070", "fusion_lon": 0.0, "bike_id": "db6e1d051905185b4659edb88b0d6070", "is_disabled": 0, "is_reserved": 0}, {"rental_uris": {"ios": "https://dc.lft.to/lastmile_qr_scan", "android": "https://dc.lft.to/lastmile_qr_scan"}, "lon": -77.02185366666667, "type": "electric_scooter", "fusion_lat": 0.0, "lat": 38.91508316666667, "name": "711aa1e7df1cfddc84a7f4550fc1985f", "fusion_lon": 0.0, "bike_id": "711aa1e7df1cfddc84a7f4550fc1985f", "is_disabled": 0, "is_reserved": 0}, {"rental_uris": {"ios": "https://dc.lft.to/lastmile_qr_scan", "android": "https://dc.lft.to/lastmile_qr_scan"}, "lon": -76.97558866666667, "type": "electric_scooter", "fusion_lat": 0.0, "lat": 38.90442383333333, "name": "99309ec87c69788ca1b726939e141073", "fusion_lon": 0.0, "bike_id": "99309ec87c69788ca1b726939e141073", "is_disabled": 0, "is_reserved": 0}, {"rental_uris": {"ios": "https://dc.lft.to/lastmile_qr_scan", "android": "https://dc.lft.to/lastmile_qr_scan"}, "lon": -77.02388433333333, "type": "electric_scooter", "fusion_lat": 0.0, "lat": 38.916818166666665, "name": "6a16366900d7d2ef9300dc09192c36d6", "fusion_lon": 0.0, "bike_id": "6a16366900d7d2ef9300dc09192c36d6", "is_disabled": 0, "is_reserved": 0}, {"rental_uris": {"ios": "https://dc.lft.to/lastmile_qr_scan", "android": "https://dc.lft.to/lastmile_qr_scan"}, "lon": -76.99769716666667, "type": "electric_bike", "fusion_lat": 0.0, "lat": 38.909297, "name": "9ed2e22c3f4a71cf3b9be718a5cdbc61", "fusion_lon": 0.0, "bike_id": "9ed2e22c3f4a71cf3b9be718a5cdbc61", "is_disabled": 0, "is_reserved": 0}, {"rental_uris": {"ios": "https://dc.lft.to/lastmile_qr_scan", "android": "https://dc.lft.to/lastmile_qr_scan"}, "lon": -77.04293516666667, "type": "electric_scooter", "fusion_lat": 0.0, "lat": 38.905413333333335, "name": "669be4f4908ad9836b241c49a64cf668", "fusion_lon": 0.0, "bike_id": "669be4f4908ad9836b241c49a64cf668", "is_disabled": 0, "is_reserved": 0}, {"rental_uris": {"ios": "https://dc.lft.to/lastmile_qr_scan", "android": "https://dc.lft.to/lastmile_qr_scan"}, "lon": -77.00557633333334, "type": "electric_scooter", "fusion_lat": 0.0, "lat": 38.875552, "name": "5dfed350431f3d6d64673af2dedd6f45", "fusion_lon": 0.0, "bike_id": "5dfed350431f3d6d64673af2dedd6f45", "is_disabled": 0, "is_reserved": 0}, {"rental_uris": {"ios": "https://dc.lft.to/lastmile_qr_scan", "android": "https://dc.lft.to/lastmile_qr_scan"}, "lon": -76.98890266666666, "type": "electric_scooter", "fusion_lat": 0.0, "lat": 38.86655566666667, "name": "a5be04207c240ada324611d2a6f94eee", "fusion_lon": 0.0, "bike_id": "a5be04207c240ada324611d2a6f94eee", "is_disabled": 0, "is_reserved": 0}, {"rental_uris": {"ios": "https://dc.lft.to/lastmile_qr_scan", "android": "https://dc.lft.to/lastmile_qr_scan"}, "lon": -76.97807566666667, "type": "electric_scooter", "fusion_lat": 0.0, "lat": 38.90310683333333, "name": "552411f1adf533bfbd14c62e20441c26", "fusion_lon": 0.0, "bike_id": "552411f1adf533bfbd14c62e20441c26", "is_disabled": 0, "is_reserved": 0}, {"rental_uris": {"ios": "https://dc.lft.to/lastmile_qr_scan", "android": "https://dc.lft.to/lastmile_qr_scan"}, "lon": -76.98584583333333, "type": "electric_scooter", "fusion_lat": 0.0, "lat": 38.861571166666664, "name": "d6ded2a612f95757dc46802e5bcb4602", "fusion_lon": 0.0, "bike_id": "d6ded2a612f95757dc46802e5bcb4602", "is_disabled": 0, "is_reserved": 0}, {"rental_uris": {"ios": "https://dc.lft.to/lastmile_qr_scan", "android": "https://dc.lft.to/lastmile_qr_scan"}, "lon": -77.02303566666667, "type": "electric_scooter", "fusion_lat": 0.0, "lat": 38.8790825, "name": "d34cfdb5373f57841eaf69ae5bdf6fa7", "fusion_lon": 0.0, "bike_id": "d34cfdb5373f57841eaf69ae5bdf6fa7", "is_disabled": 0, "is_reserved": 0}, {"rental_uris": {"ios": "https://dc.lft.to/lastmile_qr_scan", "android": "https://dc.lft.to/lastmile_qr_scan"}, "lon": -77.00350916666666, "type": "electric_scooter", "fusion_lat": 0.0, "lat": 38.908121, "name": "b4c08f3a25e284e74b4557218bcfe57f", "fusion_lon": 0.0, "bike_id": "b4c08f3a25e284e74b4557218bcfe57f", "is_disabled": 0, "is_reserved": 0}, {"rental_uris": {"ios": "https://dc.lft.to/lastmile_qr_scan", "android": "https://dc.lft.to/lastmile_qr_scan"}, "lon": -77.0112245, "type": "electric_scooter", "fusion_lat": 0.0, "lat": 38.8950265, "name": "a14205573f11fd41585153679acce9b1", "fusion_lon": 0.0, "bike_id": "a14205573f11fd41585153679acce9b1", "is_disabled": 0, "is_reserved": 0}, {"rental_uris": {"ios": "https://dc.lft.to/lastmile_qr_scan", "android": "https://dc.lft.to/lastmile_qr_scan"}, "lon": -77.025238, "type": "electric_scooter", "fusion_lat": 0.0, "lat": 38.94145983333333, "name": "94e1ad103352da8f69a07f80d72bdc97", "fusion_lon": 0.0, "bike_id": "94e1ad103352da8f69a07f80d72bdc97", "is_disabled": 0, "is_reserved": 0}, {"rental_uris": {"ios": "https://dc.lft.to/lastmile_qr_scan", "android": "https://dc.lft.to/lastmile_qr_scan"}, "lon": -77.04281916666666, "type": "electric_bike", "fusion_lat": 0.0, "lat": 38.90746683333333, "name": "9cee639f7829b4d7dcccea5b245d4275", "fusion_lon": 0.0, "bike_id": "9cee639f7829b4d7dcccea5b245d4275", "is_disabled": 0, "is_reserved": 0}, {"rental_uris": {"ios": "https://dc.lft.to/lastmile_qr_scan", "android": "https://dc.lft.to/lastmile_qr_scan"}, "lon": -77.01640833333333, "type": "electric_scooter", "fusion_lat": 0.0, "lat": 38.929351833333335, "name": "001df2bd4ac6bff0d6ff318e2005357a", "fusion_lon": 0.0, "bike_id": "001df2bd4ac6bff0d6ff318e2005357a", "is_disabled": 0, "is_reserved": 0}, {"rental_uris": {"ios": "https://dc.lft.to/lastmile_qr_scan", "android": "https://dc.lft.to/lastmile_qr_scan"}, "lon": -77.0383825, "type": "electric_scooter", "fusion_lat": 0.0, "lat": 38.93110466666667, "name": "c8169ea896d58a22f955ca9ee30a8ef2", "fusion_lon": 0.0, "bike_id": "c8169ea896d58a22f955ca9ee30a8ef2", "is_disabled": 0, "is_reserved": 0}, {"rental_uris": {"ios": "https://dc.lft.to/lastmile_qr_scan", "android": "https://dc.lft.to/lastmile_qr_scan"}, "lon": -77.082597, "type": "electric_bike", "fusion_lat": 0.0, "lat": 38.935574, "name": "c2d7e1f1e26156148fe96543775d68c5", "fusion_lon": 0.0, "bike_id": "c2d7e1f1e26156148fe96543775d68c5", "is_disabled": 0, "is_reserved": 0}, {"rental_uris": {"ios": "https://dc.lft.to/lastmile_qr_scan", "android": "https://dc.lft.to/lastmile_qr_scan"}, "lon": -77.06941966666666, "type": "electric_scooter", "fusion_lat": 0.0, "lat": 38.905123833333334, "name": "e915cd219cfbba0cae4524e7c6172ec5", "fusion_lon": 0.0, "bike_id": "e915cd219cfbba0cae4524e7c6172ec5", "is_disabled": 0, "is_reserved": 0}, {"rental_uris": {"ios": "https://dc.lft.to/lastmile_qr_scan", "android": "https://dc.lft.to/lastmile_qr_scan"}, "lon": -77.04851766666667, "type": "electric_scooter", "fusion_lat": 0.0, "lat": 38.90469316666667, "name": "9c09a5f31e93d6504be7886e735cec50", "fusion_lon": 0.0, "bike_id": "9c09a5f31e93d6504be7886e735cec50", "is_disabled": 0, "is_reserved": 0}, {"rental_uris": {"ios": "https://dc.lft.to/lastmile_qr_scan", "android": "https://dc.lft.to/lastmile_qr_scan"}, "lon": -77.04126783333334, "type": "electric_scooter", "fusion_lat": 0.0, "lat": 38.91044016666667, "name": "d4d41ee26b5bdc0af5330fc82fb04950", "fusion_lon": 0.0, "bike_id": "d4d41ee26b5bdc0af5330fc82fb04950", "is_disabled": 0, "is_reserved": 0}, {"rental_uris": {"ios": "https://dc.lft.to/lastmile_qr_scan", "android": "https://dc.lft.to/lastmile_qr_scan"}, "lon": -77.0380215, "type": "electric_scooter", "fusion_lat": 0.0, "lat": 38.93594516666667, "name": "430ed1e64add267ad5a3cb8244d9da0a", "fusion_lon": 0.0, "bike_id": "430ed1e64add267ad5a3cb8244d9da0a", "is_disabled": 0, "is_reserved": 0}, {"rental_uris": {"ios": "https://dc.lft.to/lastmile_qr_scan", "android": "https://dc.lft.to/lastmile_qr_scan"}, "lon": -76.9969965, "type": "electric_scooter", "fusion_lat": 0.0, "lat": 38.90796383333333, "name": "e17e7e6d45d127e2ee7ca249507cdb3e", "fusion_lon": 0.0, "bike_id": "e17e7e6d45d127e2ee7ca249507cdb3e", "is_disabled": 0, "is_reserved": 0}, {"rental_uris": {"ios": "https://dc.lft.to/lastmile_qr_scan", "android": "https://dc.lft.to/lastmile_qr_scan"}, "lon": -77.00077066666667, "type": "electric_scooter", "fusion_lat": 0.0, "lat": 38.901434333333334, "name": "26f7f8450d42258f0f472a96bbf9a72c", "fusion_lon": 0.0, "bike_id": "26f7f8450d42258f0f472a96bbf9a72c", "is_disabled": 0, "is_reserved": 0}, {"rental_uris": {"ios": "https://dc.lft.to/lastmile_qr_scan", "android": "https://dc.lft.to/lastmile_qr_scan"}, "lon": -77.04169866666666, "type": "electric_scooter", "fusion_lat": 0.0, "lat": 38.916355333333335, "name": "71ed7eabcf0a9e8e350288758703d0e1", "fusion_lon": 0.0, "bike_id": "71ed7eabcf0a9e8e350288758703d0e1", "is_disabled": 0, "is_reserved": 0}, {"rental_uris": {"ios": "https://dc.lft.to/lastmile_qr_scan", "android": "https://dc.lft.to/lastmile_qr_scan"}, "lon": -77.0475505, "type": "electric_scooter", "fusion_lat": 0.0, "lat": 38.89653, "name": "f2e06bf3e5765edf0e6b0f2bb50b967e", "fusion_lon": 0.0, "bike_id": "f2e06bf3e5765edf0e6b0f2bb50b967e", "is_disabled": 0, "is_reserved": 0}, {"rental_uris": {"ios": "https://dc.lft.to/lastmile_qr_scan", "android": "https://dc.lft.to/lastmile_qr_scan"}, "lon": -77.0401045, "type": "electric_scooter", "fusion_lat": 0.0, "lat": 38.89631516666667, "name": "07e954116f1c472c2b1ca7c93e6f925f", "fusion_lon": 0.0, "bike_id": "07e954116f1c472c2b1ca7c93e6f925f", "is_disabled": 0, "is_reserved": 0}, {"rental_uris": {"ios": "https://dc.lft.to/lastmile_qr_scan", "android": "https://dc.lft.to/lastmile_qr_scan"}, "lon": -77.005904, "type": "electric_scooter", "fusion_lat": 0.0, "lat": 38.91562533333333, "name": "8d82d0da8c2211ff13ad2cf1883791b6", "fusion_lon": 0.0, "bike_id": "8d82d0da8c2211ff13ad2cf1883791b6", "is_disabled": 0, "is_reserved": 0}, {"rental_uris": {"ios": "https://dc.lft.to/lastmile_qr_scan", "android": "https://dc.lft.to/lastmile_qr_scan"}, "lon": -77.12497383333333, "type": "electric_bike", "fusion_lat": 0.0, "lat": 39.024157833333334, "name": "ab50c24af108d66a3832e7b1bed44d63", "fusion_lon": 0.0, "bike_id": "ab50c24af108d66a3832e7b1bed44d63", "is_disabled": 0, "is_reserved": 0}, {"rental_uris": {"ios": "https://dc.lft.to/lastmile_qr_scan", "android": "https://dc.lft.to/lastmile_qr_scan"}, "lon": -77.029662, "type": "electric_scooter", "fusion_lat": 0.0, "lat": 38.9464465, "name": "4e19a863451d03e6c399d28b8bc8dd96", "fusion_lon": 0.0, "bike_id": "4e19a863451d03e6c399d28b8bc8dd96", "is_disabled": 0, "is_reserved": 0}, {"rental_uris": {"ios": "https://dc.lft.to/lastmile_qr_scan", "android": "https://dc.lft.to/lastmile_qr_scan"}, "lon": -77.038645, "type": "electric_scooter", "fusion_lat": 0.0, "lat": 38.902759, "name": "ad9fd28105fe25b96de35feea9e10e0e", "fusion_lon": 0.0, "bike_id": "ad9fd28105fe25b96de35feea9e10e0e", "is_disabled": 0, "is_reserved": 0}, {"rental_uris": {"ios": "https://dc.lft.to/lastmile_qr_scan", "android": "https://dc.lft.to/lastmile_qr_scan"}, "lon": -77.04155833333333, "type": "electric_scooter", "fusion_lat": 0.0, "lat": 38.90891383333334, "name": "3652f190a74765c1463f7d705cf74af3", "fusion_lon": 0.0, "bike_id": "3652f190a74765c1463f7d705cf74af3", "is_disabled": 0, "is_reserved": 0}, {"rental_uris": {"ios": "https://dc.lft.to/lastmile_qr_scan", "android": "https://dc.lft.to/lastmile_qr_scan"}, "lon": -77.01364616666666, "type": "electric_scooter", "fusion_lat": 0.0, "lat": 38.89567733333333, "name": "5a79a4fd70780a5f931c4a8b8e9233df", "fusion_lon": 0.0, "bike_id": "5a79a4fd70780a5f931c4a8b8e9233df", "is_disabled": 0, "is_reserved": 0}, {"rental_uris": {"ios": "https://dc.lft.to/lastmile_qr_scan", "android": "https://dc.lft.to/lastmile_qr_scan"}, "lon": -77.02405416666667, "type": "electric_scooter", "fusion_lat": 0.0, "lat": 38.9370265, "name": "cc42cf082aec15736103d2689c00ebe2", "fusion_lon": 0.0, "bike_id": "cc42cf082aec15736103d2689c00ebe2", "is_disabled": 0, "is_reserved": 0}, {"rental_uris": {"ios": "https://dc.lft.to/lastmile_qr_scan", "android": "https://dc.lft.to/lastmile_qr_scan"}, "lon": -76.97707266666667, "type": "electric_scooter", "fusion_lat": 0.0, "lat": 38.88521383333333, "name": "f1a00fdb0c06fe46327ed9c86e443ff1", "fusion_lon": 0.0, "bike_id": "f1a00fdb0c06fe46327ed9c86e443ff1", "is_disabled": 0, "is_reserved": 0}, {"rental_uris": {"ios": "https://dc.lft.to/lastmile_qr_scan", "android": "https://dc.lft.to/lastmile_qr_scan"}, "lon": -77.03469366666667, "type": "electric_scooter", "fusion_lat": 0.0, "lat": 38.908331833333335, "name": "bd73ce65ee48ccc4b1ae3d6baae0615f", "fusion_lon": 0.0, "bike_id": "bd73ce65ee48ccc4b1ae3d6baae0615f", "is_disabled": 0, "is_reserved": 0}, {"rental_uris": {"ios": "https://dc.lft.to/lastmile_qr_scan", "android": "https://dc.lft.to/lastmile_qr_scan"}, "lon": -76.97301266666666, "type": "electric_scooter", "fusion_lat": 0.0, "lat": 38.919874, "name": "1b40f2d91e2f5844bb4af2b65f000854", "fusion_lon": 0.0, "bike_id": "1b40f2d91e2f5844bb4af2b65f000854", "is_disabled": 0, "is_reserved": 0}, {"rental_uris": {"ios": "https://dc.lft.to/lastmile_qr_scan", "android": "https://dc.lft.to/lastmile_qr_scan"}, "lon": -76.98999416666666, "type": "electric_scooter", "fusion_lat": 0.0, "lat": 38.8650195, "name": "6fb64061eb34fbd63385cc2c9cd2cac3", "fusion_lon": 0.0, "bike_id": "6fb64061eb34fbd63385cc2c9cd2cac3", "is_disabled": 0, "is_reserved": 0}, {"rental_uris": {"ios": "https://dc.lft.to/lastmile_qr_scan", "android": "https://dc.lft.to/lastmile_qr_scan"}, "lon": -77.02587333333334, "type": "electric_scooter", "fusion_lat": 0.0, "lat": 38.90195033333333, "name": "633f8626b20ad1f79016aa16033b5d5b", "fusion_lon": 0.0, "bike_id": "633f8626b20ad1f79016aa16033b5d5b", "is_disabled": 0, "is_reserved": 0}, {"rental_uris": {"ios": "https://dc.lft.to/lastmile_qr_scan", "android": "https://dc.lft.to/lastmile_qr_scan"}, "lon": -77.03277616666666, "type": "electric_scooter", "fusion_lat": 0.0, "lat": 38.937234333333336, "name": "78cf9f1c1cc2a1cd4701bacdc8ec532e", "fusion_lon": 0.0, "bike_id": "78cf9f1c1cc2a1cd4701bacdc8ec532e", "is_disabled": 0, "is_reserved": 0}, {"rental_uris": {"ios": "https://dc.lft.to/lastmile_qr_scan", "android": "https://dc.lft.to/lastmile_qr_scan"}, "lon": -77.02688283333333, "type": "electric_scooter", "fusion_lat": 0.0, "lat": 38.908403166666666, "name": "09aa891db25065b6bca8c0913268532e", "fusion_lon": 0.0, "bike_id": "09aa891db25065b6bca8c0913268532e", "is_disabled": 0, "is_reserved": 0}, {"rental_uris": {"ios": "https://dc.lft.to/lastmile_qr_scan", "android": "https://dc.lft.to/lastmile_qr_scan"}, "lon": -77.0413245, "type": "electric_scooter", "fusion_lat": 0.0, "lat": 38.942551, "name": "e472bc19d23189f43236a68e94562d22", "fusion_lon": 0.0, "bike_id": "e472bc19d23189f43236a68e94562d22", "is_disabled": 0, "is_reserved": 0}, {"rental_uris": {"ios": "https://dc.lft.to/lastmile_qr_scan", "android": "https://dc.lft.to/lastmile_qr_scan"}, "lon": -77.002047, "type": "electric_scooter", "fusion_lat": 0.0, "lat": 38.900267666666664, "name": "d65d40aa10121be15bac61401ef20880", "fusion_lon": 0.0, "bike_id": "d65d40aa10121be15bac61401ef20880", "is_disabled": 0, "is_reserved": 0}, {"rental_uris": {"ios": "https://dc.lft.to/lastmile_qr_scan", "android": "https://dc.lft.to/lastmile_qr_scan"}, "lon": -77.0231835, "type": "electric_scooter", "fusion_lat": 0.0, "lat": 38.940886666666664, "name": "d47a095ce5df10b24ddb244f0aca95b5", "fusion_lon": 0.0, "bike_id": "d47a095ce5df10b24ddb244f0aca95b5", "is_disabled": 0, "is_reserved": 0}, {"rental_uris": {"ios": "https://dc.lft.to/lastmile_qr_scan", "android": "https://dc.lft.to/lastmile_qr_scan"}, "lon": -77.0421545, "type": "electric_scooter", "fusion_lat": 0.0, "lat": 38.92096266666667, "name": "b2429d2920f5a51f4300c8c8d98a72aa", "fusion_lon": 0.0, "bike_id": "b2429d2920f5a51f4300c8c8d98a72aa", "is_disabled": 0, "is_reserved": 0}, {"rental_uris": {"ios": "https://dc.lft.to/lastmile_qr_scan", "android": "https://dc.lft.to/lastmile_qr_scan"}, "lon": -77.112837, "type": "electric_bike", "fusion_lat": 0.0, "lat": 38.856352, "name": "8534771c9ef8623ad5c05bd150fb9634", "fusion_lon": 0.0, "bike_id": "8534771c9ef8623ad5c05bd150fb9634", "is_disabled": 0, "is_reserved": 0}, {"rental_uris": {"ios": "https://dc.lft.to/lastmile_qr_scan", "android": "https://dc.lft.to/lastmile_qr_scan"}, "lon": -77.03935316666667, "type": "electric_scooter", "fusion_lat": 0.0, "lat": 38.898747666666665, "name": "284ff7f630df9814470c40613361aaaa", "fusion_lon": 0.0, "bike_id": "284ff7f630df9814470c40613361aaaa", "is_disabled": 0, "is_reserved": 0}, {"rental_uris": {"ios": "https://dc.lft.to/lastmile_qr_scan", "android": "https://dc.lft.to/lastmile_qr_scan"}, "lon": -77.02398833333334, "type": "electric_scooter", "fusion_lat": 0.0, "lat": 38.916487833333335, "name": "1d65dba11f75a840041f9da326f862f1", "fusion_lon": 0.0, "bike_id": "1d65dba11f75a840041f9da326f862f1", "is_disabled": 0, "is_reserved": 0}, {"rental_uris": {"ios": "https://dc.lft.to/lastmile_qr_scan", "android": "https://dc.lft.to/lastmile_qr_scan"}, "lon": -76.9318, "type": "electric_scooter", "fusion_lat": 0.0, "lat": 38.89880866666667, "name": "e9e63abae762918c3c405fd9191bdd2b", "fusion_lon": 0.0, "bike_id": "e9e63abae762918c3c405fd9191bdd2b", "is_disabled": 0, "is_reserved": 0}, {"rental_uris": {"ios": "https://dc.lft.to/lastmile_qr_scan", "android": "https://dc.lft.to/lastmile_qr_scan"}, "lon": -76.98652116666666, "type": "electric_scooter", "fusion_lat": 0.0, "lat": 38.858077333333334, "name": "c39b977e68c811b63c45362cc6d4b725", "fusion_lon": 0.0, "bike_id": "c39b977e68c811b63c45362cc6d4b725", "is_disabled": 0, "is_reserved": 0}, {"rental_uris": {"ios": "https://dc.lft.to/lastmile_qr_scan", "android": "https://dc.lft.to/lastmile_qr_scan"}, "lon": -77.054564, "type": "electric_scooter", "fusion_lat": 0.0, "lat": 38.929014333333335, "name": "964e25ecafa08918819d93865e1617fc", "fusion_lon": 0.0, "bike_id": "964e25ecafa08918819d93865e1617fc", "is_disabled": 0, "is_reserved": 0}, {"rental_uris": {"ios": "https://dc.lft.to/lastmile_qr_scan", "android": "https://dc.lft.to/lastmile_qr_scan"}, "lon": -77.031811, "type": "electric_scooter", "fusion_lat": 0.0, "lat": 38.9296445, "name": "de6ff92f622520ea4f15e0c004b408f7", "fusion_lon": 0.0, "bike_id": "de6ff92f622520ea4f15e0c004b408f7", "is_disabled": 0, "is_reserved": 0}, {"rental_uris": {"ios": "https://dc.lft.to/lastmile_qr_scan", "android": "https://dc.lft.to/lastmile_qr_scan"}, "lon": -77.032845, "type": "electric_scooter", "fusion_lat": 0.0, "lat": 38.90847316666667, "name": "ebe6ed016a7d452a16d012b0942126f8", "fusion_lon": 0.0, "bike_id": "ebe6ed016a7d452a16d012b0942126f8", "is_disabled": 0, "is_reserved": 0}, {"rental_uris": {"ios": "https://dc.lft.to/lastmile_qr_scan", "android": "https://dc.lft.to/lastmile_qr_scan"}, "lon": -77.10507816666667, "type": "electric_bike", "fusion_lat": 0.0, "lat": 38.928468, "name": "6041ddb25f2351a68c399f43d6ecaf12", "fusion_lon": 0.0, "bike_id": "6041ddb25f2351a68c399f43d6ecaf12", "is_disabled": 0, "is_reserved": 0}, {"rental_uris": {"ios": "https://dc.lft.to/lastmile_qr_scan", "android": "https://dc.lft.to/lastmile_qr_scan"}, "lon": -77.07370333333333, "type": "electric_bike", "fusion_lat": 0.0, "lat": 38.961791, "name": "adc22e99aa323195de0e34452e095d0d", "fusion_lon": 0.0, "bike_id": "adc22e99aa323195de0e34452e095d0d", "is_disabled": 0, "is_reserved": 0}, {"rental_uris": {"ios": "https://dc.lft.to/lastmile_qr_scan", "android": "https://dc.lft.to/lastmile_qr_scan"}, "lon": -77.0412605, "type": "electric_scooter", "fusion_lat": 0.0, "lat": 38.924334, "name": "3e1aecedf3038d75ecaa6d3f9c4e1fcb", "fusion_lon": 0.0, "bike_id": "3e1aecedf3038d75ecaa6d3f9c4e1fcb", "is_disabled": 0, "is_reserved": 0}, {"rental_uris": {"ios": "https://dc.lft.to/lastmile_qr_scan", "android": "https://dc.lft.to/lastmile_qr_scan"}, "lon": -77.03316716666667, "type": "electric_scooter", "fusion_lat": 0.0, "lat": 38.91986883333333, "name": "fe1d3109b26907e7e04eb5b4e4b16524", "fusion_lon": 0.0, "bike_id": "fe1d3109b26907e7e04eb5b4e4b16524", "is_disabled": 0, "is_reserved": 0}, {"rental_uris": {"ios": "https://dc.lft.to/lastmile_qr_scan", "android": "https://dc.lft.to/lastmile_qr_scan"}, "lon": -76.97346683333333, "type": "electric_scooter", "fusion_lat": 0.0, "lat": 38.862044, "name": "704022169749ecb40672565a18c52f1f", "fusion_lon": 0.0, "bike_id": "704022169749ecb40672565a18c52f1f", "is_disabled": 0, "is_reserved": 0}, {"rental_uris": {"ios": "https://dc.lft.to/lastmile_qr_scan", "android": "https://dc.lft.to/lastmile_qr_scan"}, "lon": -77.032864, "type": "electric_scooter", "fusion_lat": 0.0, "lat": 38.92875266666667, "name": "6451042c32964239ef0c7ec79c6c6364", "fusion_lon": 0.0, "bike_id": "6451042c32964239ef0c7ec79c6c6364", "is_disabled": 0, "is_reserved": 0}, {"rental_uris": {"ios": "https://dc.lft.to/lastmile_qr_scan", "android": "https://dc.lft.to/lastmile_qr_scan"}, "lon": -77.02286816666667, "type": "electric_scooter", "fusion_lat": 0.0, "lat": 38.9176125, "name": "cc7d836dba7dab463534c60a764f66d4", "fusion_lon": 0.0, "bike_id": "cc7d836dba7dab463534c60a764f66d4", "is_disabled": 0, "is_reserved": 0}, {"rental_uris": {"ios": "https://dc.lft.to/lastmile_qr_scan", "android": "https://dc.lft.to/lastmile_qr_scan"}, "lon": -77.01533633333334, "type": "electric_scooter", "fusion_lat": 0.0, "lat": 38.8873925, "name": "44734c16f395b16f97296ce7e060f3d1", "fusion_lon": 0.0, "bike_id": "44734c16f395b16f97296ce7e060f3d1", "is_disabled": 0, "is_reserved": 0}, {"rental_uris": {"ios": "https://dc.lft.to/lastmile_qr_scan", "android": "https://dc.lft.to/lastmile_qr_scan"}, "lon": -77.04726383333333, "type": "electric_scooter", "fusion_lat": 0.0, "lat": 38.89733866666667, "name": "4571c8efffdeb7da5db5fa962a9ceb20", "fusion_lon": 0.0, "bike_id": "4571c8efffdeb7da5db5fa962a9ceb20", "is_disabled": 0, "is_reserved": 0}, {"rental_uris": {"ios": "https://dc.lft.to/lastmile_qr_scan", "android": "https://dc.lft.to/lastmile_qr_scan"}, "lon": -77.03106016666666, "type": "electric_scooter", "fusion_lat": 0.0, "lat": 38.89473616666667, "name": "b48c13b4ba89bc7c61c0187124f7bec3", "fusion_lon": 0.0, "bike_id": "b48c13b4ba89bc7c61c0187124f7bec3", "is_disabled": 0, "is_reserved": 0}, {"rental_uris": {"ios": "https://dc.lft.to/lastmile_qr_scan", "android": "https://dc.lft.to/lastmile_qr_scan"}, "lon": -77.06611033333333, "type": "electric_scooter", "fusion_lat": 0.0, "lat": 38.905371, "name": "c3a41127bddccf6006d4d2059404b921", "fusion_lon": 0.0, "bike_id": "c3a41127bddccf6006d4d2059404b921", "is_disabled": 0, "is_reserved": 0}, {"rental_uris": {"ios": "https://dc.lft.to/lastmile_qr_scan", "android": "https://dc.lft.to/lastmile_qr_scan"}, "lon": -77.03770833333333, "type": "electric_scooter", "fusion_lat": 0.0, "lat": 38.9168985, "name": "17237d2982379ca45a3c2b710a27efd8", "fusion_lon": 0.0, "bike_id": "17237d2982379ca45a3c2b710a27efd8", "is_disabled": 0, "is_reserved": 0}, {"rental_uris": {"ios": "https://dc.lft.to/lastmile_qr_scan", "android": "https://dc.lft.to/lastmile_qr_scan"}, "lon": -77.04781483333333, "type": "electric_scooter", "fusion_lat": 0.0, "lat": 38.89780233333333, "name": "7ab96b8b6ac7f694dc2702e1b84a7425", "fusion_lon": 0.0, "bike_id": "7ab96b8b6ac7f694dc2702e1b84a7425", "is_disabled": 0, "is_reserved": 0}, {"rental_uris": {"ios": "https://dc.lft.to/lastmile_qr_scan", "android": "https://dc.lft.to/lastmile_qr_scan"}, "lon": -77.03507166666667, "type": "electric_scooter", "fusion_lat": 0.0, "lat": 38.921414166666665, "name": "2a8c2a801910382b87fa17c3a238bf13", "fusion_lon": 0.0, "bike_id": "2a8c2a801910382b87fa17c3a238bf13", "is_disabled": 0, "is_reserved": 0}, {"rental_uris": {"ios": "https://dc.lft.to/lastmile_qr_scan", "android": "https://dc.lft.to/lastmile_qr_scan"}, "lon": -77.01206766666667, "type": "electric_scooter", "fusion_lat": 0.0, "lat": 38.89793266666667, "name": "85251c8b0467c5d402aaf9095bbaaf21", "fusion_lon": 0.0, "bike_id": "85251c8b0467c5d402aaf9095bbaaf21", "is_disabled": 0, "is_reserved": 0}, {"rental_uris": {"ios": "https://dc.lft.to/lastmile_qr_scan", "android": "https://dc.lft.to/lastmile_qr_scan"}, "lon": -77.08823433333333, "type": "electric_bike", "fusion_lat": 0.0, "lat": 38.909672, "name": "401bb49c8ed78aba908c2b972580989c", "fusion_lon": 0.0, "bike_id": "401bb49c8ed78aba908c2b972580989c", "is_disabled": 0, "is_reserved": 0}, {"rental_uris": {"ios": "https://dc.lft.to/lastmile_qr_scan", "android": "https://dc.lft.to/lastmile_qr_scan"}, "lon": -77.05963866666667, "type": "electric_scooter", "fusion_lat": 0.0, "lat": 38.911917, "name": "2affdb1719a6f573b3966d3d0f8fd96e", "fusion_lon": 0.0, "bike_id": "2affdb1719a6f573b3966d3d0f8fd96e", "is_disabled": 0, "is_reserved": 0}, {"rental_uris": {"ios": "https://dc.lft.to/lastmile_qr_scan", "android": "https://dc.lft.to/lastmile_qr_scan"}, "lon": -76.96527866666666, "type": "electric_scooter", "fusion_lat": 0.0, "lat": 38.876264166666665, "name": "26957cd9582485a9868fd5b65124bd86", "fusion_lon": 0.0, "bike_id": "26957cd9582485a9868fd5b65124bd86", "is_disabled": 0, "is_reserved": 0}, {"rental_uris": {"ios": "https://dc.lft.to/lastmile_qr_scan", "android": "https://dc.lft.to/lastmile_qr_scan"}, "lon": -77.02713183333333, "type": "electric_scooter", "fusion_lat": 0.0, "lat": 38.9182805, "name": "93934cb5ba316dae39c2024584f9d518", "fusion_lon": 0.0, "bike_id": "93934cb5ba316dae39c2024584f9d518", "is_disabled": 0, "is_reserved": 0}, {"rental_uris": {"ios": "https://dc.lft.to/lastmile_qr_scan", "android": "https://dc.lft.to/lastmile_qr_scan"}, "lon": -77.01991316666667, "type": "electric_scooter", "fusion_lat": 0.0, "lat": 38.897411, "name": "bbad59f2ede927dfc7f2dbdabecbb1bb", "fusion_lon": 0.0, "bike_id": "bbad59f2ede927dfc7f2dbdabecbb1bb", "is_disabled": 0, "is_reserved": 0}, {"rental_uris": {"ios": "https://dc.lft.to/lastmile_qr_scan", "android": "https://dc.lft.to/lastmile_qr_scan"}, "lon": -77.02716433333333, "type": "electric_scooter", "fusion_lat": 0.0, "lat": 38.918123333333334, "name": "023db8512f4cd557adb16717274d6d69", "fusion_lon": 0.0, "bike_id": "023db8512f4cd557adb16717274d6d69", "is_disabled": 0, "is_reserved": 0}, {"rental_uris": {"ios": "https://dc.lft.to/lastmile_qr_scan", "android": "https://dc.lft.to/lastmile_qr_scan"}, "lon": -76.97890483333333, "type": "electric_scooter", "fusion_lat": 0.0, "lat": 38.904186833333334, "name": "be235ec262887f2d1d14892dd1a344a2", "fusion_lon": 0.0, "bike_id": "be235ec262887f2d1d14892dd1a344a2", "is_disabled": 0, "is_reserved": 0}, {"rental_uris": {"ios": "https://dc.lft.to/lastmile_qr_scan", "android": "https://dc.lft.to/lastmile_qr_scan"}, "lon": -77.10089133333334, "type": "electric_bike", "fusion_lat": 0.0, "lat": 38.959541333333334, "name": "6621bbfa559a6a2f613c86f11cb6fd04", "fusion_lon": 0.0, "bike_id": "6621bbfa559a6a2f613c86f11cb6fd04", "is_disabled": 0, "is_reserved": 0}, {"rental_uris": {"ios": "https://dc.lft.to/lastmile_qr_scan", "android": "https://dc.lft.to/lastmile_qr_scan"}, "lon": -77.045457, "type": "electric_scooter", "fusion_lat": 0.0, "lat": 38.913212, "name": "877b4af7d28b872d945648c098b19136", "fusion_lon": 0.0, "bike_id": "877b4af7d28b872d945648c098b19136", "is_disabled": 0, "is_reserved": 0}, {"rental_uris": {"ios": "https://dc.lft.to/lastmile_qr_scan", "android": "https://dc.lft.to/lastmile_qr_scan"}, "lon": -77.0371855, "type": "electric_scooter", "fusion_lat": 0.0, "lat": 38.928264166666665, "name": "48ab321b25a077f40850cd4a469e07df", "fusion_lon": 0.0, "bike_id": "48ab321b25a077f40850cd4a469e07df", "is_disabled": 0, "is_reserved": 0}, {"rental_uris": {"ios": "https://dc.lft.to/lastmile_qr_scan", "android": "https://dc.lft.to/lastmile_qr_scan"}, "lon": -76.9959235, "type": "electric_scooter", "fusion_lat": 0.0, "lat": 38.845393, "name": "8495bd6faa406e241e78f740cd32d800", "fusion_lon": 0.0, "bike_id": "8495bd6faa406e241e78f740cd32d800", "is_disabled": 0, "is_reserved": 0}, {"rental_uris": {"ios": "https://dc.lft.to/lastmile_qr_scan", "android": "https://dc.lft.to/lastmile_qr_scan"}, "lon": -77.01550133333333, "type": "electric_scooter", "fusion_lat": 0.0, "lat": 38.901923833333335, "name": "128f72a95c43a9bfe2101ad77a6fbf86", "fusion_lon": 0.0, "bike_id": "128f72a95c43a9bfe2101ad77a6fbf86", "is_disabled": 0, "is_reserved": 0}, {"rental_uris": {"ios": "https://dc.lft.to/lastmile_qr_scan", "android": "https://dc.lft.to/lastmile_qr_scan"}, "lon": -77.00379866666667, "type": "electric_scooter", "fusion_lat": 0.0, "lat": 38.907709, "name": "1354b0f692199b632d2403a5884eff85", "fusion_lon": 0.0, "bike_id": "1354b0f692199b632d2403a5884eff85", "is_disabled": 0, "is_reserved": 0}, {"rental_uris": {"ios": "https://dc.lft.to/lastmile_qr_scan", "android": "https://dc.lft.to/lastmile_qr_scan"}, "lon": -77.038379, "type": "electric_scooter", "fusion_lat": 0.0, "lat": 38.93111116666667, "name": "7ffc40e61f34f3d98a36b3d8f516b299", "fusion_lon": 0.0, "bike_id": "7ffc40e61f34f3d98a36b3d8f516b299", "is_disabled": 0, "is_reserved": 0}, {"rental_uris": {"ios": "https://dc.lft.to/lastmile_qr_scan", "android": "https://dc.lft.to/lastmile_qr_scan"}, "lon": -77.00520233333333, "type": "electric_scooter", "fusion_lat": 0.0, "lat": 38.905597666666665, "name": "edfc02467c25e260a188d45e16edc74d", "fusion_lon": 0.0, "bike_id": "edfc02467c25e260a188d45e16edc74d", "is_disabled": 0, "is_reserved": 0}, {"rental_uris": {"ios": "https://dc.lft.to/lastmile_qr_scan", "android": "https://dc.lft.to/lastmile_qr_scan"}, "lon": -77.0204315, "type": "electric_scooter", "fusion_lat": 0.0, "lat": 38.915534666666666, "name": "e6a293b2c52fcb0ee2e87024cfde8118", "fusion_lon": 0.0, "bike_id": "e6a293b2c52fcb0ee2e87024cfde8118", "is_disabled": 0, "is_reserved": 0}, {"rental_uris": {"ios": "https://dc.lft.to/lastmile_qr_scan", "android": "https://dc.lft.to/lastmile_qr_scan"}, "lon": -77.038801, "type": "electric_scooter", "fusion_lat": 0.0, "lat": 38.9051995, "name": "ec5bec80c4ecd7c9a04c4c25d44e252e", "fusion_lon": 0.0, "bike_id": "ec5bec80c4ecd7c9a04c4c25d44e252e", "is_disabled": 0, "is_reserved": 0}, {"rental_uris": {"ios": "https://dc.lft.to/lastmile_qr_scan", "android": "https://dc.lft.to/lastmile_qr_scan"}, "lon": -76.98741333333334, "type": "electric_bike", "fusion_lat": 0.0, "lat": 38.857892166666666, "name": "2812db6409c43878a2b5e6d162de0136", "fusion_lon": 0.0, "bike_id": "2812db6409c43878a2b5e6d162de0136", "is_disabled": 0, "is_reserved": 0}, {"rental_uris": {"ios": "https://dc.lft.to/lastmile_qr_scan", "android": "https://dc.lft.to/lastmile_qr_scan"}, "lon": -77.038996, "type": "electric_scooter", "fusion_lat": 0.0, "lat": 38.93264533333333, "name": "73315686549979a27e6c89ded44fa938", "fusion_lon": 0.0, "bike_id": "73315686549979a27e6c89ded44fa938", "is_disabled": 0, "is_reserved": 0}, {"rental_uris": {"ios": "https://dc.lft.to/lastmile_qr_scan", "android": "https://dc.lft.to/lastmile_qr_scan"}, "lon": -77.0229835, "type": "electric_bike", "fusion_lat": 0.0, "lat": 38.878744, "name": "2606e7b67ce9e7b18115188f22a86e69", "fusion_lon": 0.0, "bike_id": "2606e7b67ce9e7b18115188f22a86e69", "is_disabled": 0, "is_reserved": 0}, {"rental_uris": {"ios": "https://dc.lft.to/lastmile_qr_scan", "android": "https://dc.lft.to/lastmile_qr_scan"}, "lon": -77.02712266666667, "type": "electric_scooter", "fusion_lat": 0.0, "lat": 38.918037, "name": "29bdaa206fc31ead7d215fd0327b755a", "fusion_lon": 0.0, "bike_id": "29bdaa206fc31ead7d215fd0327b755a", "is_disabled": 0, "is_reserved": 0}, {"rental_uris": {"ios": "https://dc.lft.to/lastmile_qr_scan", "android": "https://dc.lft.to/lastmile_qr_scan"}, "lon": -76.97320333333333, "type": "electric_bike", "fusion_lat": 0.0, "lat": 38.903250666666665, "name": "cdb753d31d56765de934cc617e152d12", "fusion_lon": 0.0, "bike_id": "cdb753d31d56765de934cc617e152d12", "is_disabled": 0, "is_reserved": 0}, {"rental_uris": {"ios": "https://dc.lft.to/lastmile_qr_scan", "android": "https://dc.lft.to/lastmile_qr_scan"}, "lon": -77.00535066666667, "type": "electric_bike", "fusion_lat": 0.0, "lat": 38.880104, "name": "bfbcb989bbb00794a7c516a6aa9d083b", "fusion_lon": 0.0, "bike_id": "bfbcb989bbb00794a7c516a6aa9d083b", "is_disabled": 0, "is_reserved": 0}, {"rental_uris": {"ios": "https://dc.lft.to/lastmile_qr_scan", "android": "https://dc.lft.to/lastmile_qr_scan"}, "lon": -76.984948, "type": "electric_scooter", "fusion_lat": 0.0, "lat": 38.86043866666667, "name": "c323a89dae8de93b59da6a025eb3478f", "fusion_lon": 0.0, "bike_id": "c323a89dae8de93b59da6a025eb3478f", "is_disabled": 0, "is_reserved": 0}, {"rental_uris": {"ios": "https://dc.lft.to/lastmile_qr_scan", "android": "https://dc.lft.to/lastmile_qr_scan"}, "lon": -77.04873466666666, "type": "electric_bike", "fusion_lat": 0.0, "lat": 38.901052166666666, "name": "e739d7fe52b00a6efb2e3d3a98ae96c4", "fusion_lon": 0.0, "bike_id": "e739d7fe52b00a6efb2e3d3a98ae96c4", "is_disabled": 0, "is_reserved": 0}, {"rental_uris": {"ios": "https://dc.lft.to/lastmile_qr_scan", "android": "https://dc.lft.to/lastmile_qr_scan"}, "lon": -76.98702516666667, "type": "electric_scooter", "fusion_lat": 0.0, "lat": 38.86533883333333, "name": "672313d12c42950fbcf303e4cc29fdd4", "fusion_lon": 0.0, "bike_id": "672313d12c42950fbcf303e4cc29fdd4", "is_disabled": 0, "is_reserved": 0}, {"rental_uris": {"ios": "https://dc.lft.to/lastmile_qr_scan", "android": "https://dc.lft.to/lastmile_qr_scan"}, "lon": -77.01542916666666, "type": "electric_scooter", "fusion_lat": 0.0, "lat": 38.891982, "name": "2734a301411d2f0aef8dcfcbdd6d2cf4", "fusion_lon": 0.0, "bike_id": "2734a301411d2f0aef8dcfcbdd6d2cf4", "is_disabled": 0, "is_reserved": 0}, {"rental_uris": {"ios": "https://dc.lft.to/lastmile_qr_scan", "android": "https://dc.lft.to/lastmile_qr_scan"}, "lon": -77.02132083333333, "type": "electric_scooter", "fusion_lat": 0.0, "lat": 38.916058166666666, "name": "daee5ab4c74caf76b5c4fdb5d193706a", "fusion_lon": 0.0, "bike_id": "daee5ab4c74caf76b5c4fdb5d193706a", "is_disabled": 0, "is_reserved": 0}, {"rental_uris": {"ios": "https://dc.lft.to/lastmile_qr_scan", "android": "https://dc.lft.to/lastmile_qr_scan"}, "lon": -76.987134, "type": "electric_scooter", "fusion_lat": 0.0, "lat": 38.902636333333334, "name": "dddf29009559689fe983c919637526fe", "fusion_lon": 0.0, "bike_id": "dddf29009559689fe983c919637526fe", "is_disabled": 0, "is_reserved": 0}, {"rental_uris": {"ios": "https://dc.lft.to/lastmile_qr_scan", "android": "https://dc.lft.to/lastmile_qr_scan"}, "lon": -77.17833983333334, "type": "electric_bike", "fusion_lat": 0.0, "lat": 39.08850116666667, "name": "e016e06ac707f3340d8cfed277686edb", "fusion_lon": 0.0, "bike_id": "e016e06ac707f3340d8cfed277686edb", "is_disabled": 0, "is_reserved": 0}, {"rental_uris": {"ios": "https://dc.lft.to/lastmile_qr_scan", "android": "https://dc.lft.to/lastmile_qr_scan"}, "lon": -76.95061166666666, "type": "electric_bike", "fusion_lat": 0.0, "lat": 38.935202833333335, "name": "570572715b2a1a4279712b9bec65208d", "fusion_lon": 0.0, "bike_id": "570572715b2a1a4279712b9bec65208d", "is_disabled": 0, "is_reserved": 0}, {"rental_uris": {"ios": "https://dc.lft.to/lastmile_qr_scan", "android": "https://dc.lft.to/lastmile_qr_scan"}, "lon": -76.989016, "type": "electric_scooter", "fusion_lat": 0.0, "lat": 38.866938833333336, "name": "be5f1a67448791a31541a7d89af24d11", "fusion_lon": 0.0, "bike_id": "be5f1a67448791a31541a7d89af24d11", "is_disabled": 0, "is_reserved": 0}, {"rental_uris": {"ios": "https://dc.lft.to/lastmile_qr_scan", "android": "https://dc.lft.to/lastmile_qr_scan"}, "lon": -77.05694316666667, "type": "electric_scooter", "fusion_lat": 0.0, "lat": 38.90541616666667, "name": "922ac3daca79da26d6b93ef229b5e79d", "fusion_lon": 0.0, "bike_id": "922ac3daca79da26d6b93ef229b5e79d", "is_disabled": 0, "is_reserved": 0}, {"rental_uris": {"ios": "https://dc.lft.to/lastmile_qr_scan", "android": "https://dc.lft.to/lastmile_qr_scan"}, "lon": -77.07044266666666, "type": "electric_bike", "fusion_lat": 0.0, "lat": 38.82447283333333, "name": "52ea28a37816d18ca85491532f2e6ab2", "fusion_lon": 0.0, "bike_id": "52ea28a37816d18ca85491532f2e6ab2", "is_disabled": 0, "is_reserved": 0}, {"rental_uris": {"ios": "https://dc.lft.to/lastmile_qr_scan", "android": "https://dc.lft.to/lastmile_qr_scan"}, "lon": -77.03048033333333, "type": "electric_scooter", "fusion_lat": 0.0, "lat": 38.884215, "name": "b3dee874263d34ed1dca966691c02194", "fusion_lon": 0.0, "bike_id": "b3dee874263d34ed1dca966691c02194", "is_disabled": 0, "is_reserved": 0}, {"rental_uris": {"ios": "https://dc.lft.to/lastmile_qr_scan", "android": "https://dc.lft.to/lastmile_qr_scan"}, "lon": -77.04375733333333, "type": "electric_scooter", "fusion_lat": 0.0, "lat": 38.9110945, "name": "0fa7af99b9d06e9f5d3a428d846b2c3c", "fusion_lon": 0.0, "bike_id": "0fa7af99b9d06e9f5d3a428d846b2c3c", "is_disabled": 0, "is_reserved": 0}, {"rental_uris": {"ios": "https://dc.lft.to/lastmile_qr_scan", "android": "https://dc.lft.to/lastmile_qr_scan"}, "lon": -77.041243, "type": "electric_scooter", "fusion_lat": 0.0, "lat": 38.922077, "name": "82f95fc5d6ab6c4c64d2be384a7dd928", "fusion_lon": 0.0, "bike_id": "82f95fc5d6ab6c4c64d2be384a7dd928", "is_disabled": 0, "is_reserved": 0}, {"rental_uris": {"ios": "https://dc.lft.to/lastmile_qr_scan", "android": "https://dc.lft.to/lastmile_qr_scan"}, "lon": -77.04356033333333, "type": "electric_scooter", "fusion_lat": 0.0, "lat": 38.9104065, "name": "e73554f86a1c84e6a5bc2c0c8ff9ad42", "fusion_lon": 0.0, "bike_id": "e73554f86a1c84e6a5bc2c0c8ff9ad42", "is_disabled": 0, "is_reserved": 0}, {"rental_uris": {"ios": "https://dc.lft.to/lastmile_qr_scan", "android": "https://dc.lft.to/lastmile_qr_scan"},