{"data": {"bikes": [{"bike_id": "5203116053aac7fdc9a8432e303cae9b", "fusion_lon": 0.0, "lon": -77.036603, "name": "5203116053aac7fdc9a8432e303cae9b", "is_disabled": 0, "rental_uris": {"android": "https://dc.lft.to/lastmile_qr_scan", "ios": "https://dc.lft.to/lastmile_qr_scan"}, "type": "electric_scooter", "lat": 38.91720766666667, "is_reserved": 0, "fusion_lat": 0.0}, {"bike_id": "12d1ed55e0cb01bb9be079cc774de71b", "fusion_lon": 0.0, "lon": -77.031874, "name": "12d1ed55e0cb01bb9be079cc774de71b", "is_disabled": 0, "rental_uris": {"android": "https://dc.lft.to/lastmile_qr_scan", "ios": "https://dc.lft.to/lastmile_qr_scan"}, "type": "electric_scooter", "lat": 38.9133415, "is_reserved": 0, "fusion_lat": 0.0}, {"bike_id": "0b8f3d4fcc7de641da015af0c80f1c3c", "fusion_lon": 0.0, "lon": -76.987115, "name": "0b8f3d4fcc7de641da015af0c80f1c3c", "is_disabled": 0, "rental_uris": {"android": "https://dc.lft.to/lastmile_qr_scan", "ios": "https://dc.lft.to/lastmile_qr_scan"}, "type": "electric_scooter", "lat": 38.86701866666667, "is_reserved": 0, "fusion_lat": 0.0}, {"bike_id": "fd547e3dbbf6920ecefb2f8a6f3f96f9", "fusion_lon": 0.0, "lon": -77.06241516666667, "name": "fd547e3dbbf6920ecefb2f8a6f3f96f9", "is_disabled": 0, "rental_uris": {"android": "https://dc.lft.to/lastmile_qr_scan", "ios": "https://dc.lft.to/lastmile_qr_scan"}, "type": "electric_scooter", "lat": 38.905247333333335, "is_reserved": 0, "fusion_lat": 0.0}, {"bike_id": "69e27d3e6916d4e21c3b69f4e8184f41", "fusion_lon": 0.0, "lon": -77.02051916666667, "name": "69e27d3e6916d4e21c3b69f4e8184f41", "is_disabled": 0, "rental_uris": {"android": "https://dc.lft.to/lastmile_qr_scan", "ios": "https://dc.lft.to/lastmile_qr_scan"}, "type": "electric_scooter", "lat": 38.914134833333335, "is_reserved": 0, "fusion_lat": 0.0}, {"bike_id": "f5cbcdee88e214cbdd6d6de2de648bba", "fusion_lon": 0.0, "lon": -77.04032483333333, "name": "f5cbcdee88e214cbdd6d6de2de648bba", "is_disabled": 0, "rental_uris": {"android": "https://dc.lft.to/lastmile_qr_scan", "ios": "https://dc.lft.to/lastmile_qr_scan"}, "type": "electric_scooter", "lat": 38.8988455, "is_reserved": 0, "fusion_lat": 0.0}, {"bike_id": "68215096f246208cece799ef29923633", "fusion_lon": 0.0, "lon": -77.04177016666667, "name": "68215096f246208cece799ef29923633", "is_disabled": 0, "rental_uris": {"android": "https://dc.lft.to/lastmile_qr_scan", "ios": "https://dc.lft.to/lastmile_qr_scan"}, "type": "electric_scooter", "lat": 38.91625333333333, "is_reserved": 0, "fusion_lat": 0.0}, {"bike_id": "441a14b5a1b9edcf0d9eadefc5e7a223", "fusion_lon": 0.0, "lon": -77.07942483333333, "name": "441a14b5a1b9edcf0d9eadefc5e7a223", "is_disabled": 0, "rental_uris": {"android": "https://dc.lft.to/lastmile_qr_scan", "ios": "https://dc.lft.to/lastmile_qr_scan"}, "type": "electric_scooter", "lat": 38.947629, "is_reserved": 0, "fusion_lat": 0.0}, {"bike_id": "cab8906e311272b19cf7285ecb6dc345", "fusion_lon": 0.0, "lon": -77.02709533333334, "name": "cab8906e311272b19cf7285ecb6dc345", "is_disabled": 0, "rental_uris": {"android": "https://dc.lft.to/lastmile_qr_scan", "ios": "https://dc.lft.to/lastmile_qr_scan"}, "type": "electric_scooter", "lat": 38.90667166666667, "is_reserved": 0, "fusion_lat": 0.0}, {"bike_id": "c481d9488810246bb1a2edf0df1d1ed7", "fusion_lon": 0.0, "lon": -77.0227765, "name": "c481d9488810246bb1a2edf0df1d1ed7", "is_disabled": 0, "rental_uris": {"android": "https://dc.lft.to/lastmile_qr_scan", "ios": "https://dc.lft.to/lastmile_qr_scan"}, "type": "electric_scooter", "lat": 38.9155915, "is_reserved": 0, "fusion_lat": 0.0}, {"bike_id": "ac0a4a9d71bbf677343f91c502dd85a2", "fusion_lon": 0.0, "lon": -77.02983066666667, "name": "ac0a4a9d71bbf677343f91c502dd85a2", "is_disabled": 0, "rental_uris": {"android": "https://dc.lft.to/lastmile_qr_scan", "ios": "https://dc.lft.to/lastmile_qr_scan"}, "type": "electric_scooter", "lat": 38.93442833333334, "is_reserved": 0, "fusion_lat": 0.0}, {"bike_id": "373477f03c7805481c948da35684342c", "fusion_lon": 0.0, "lon": -77.01505483333334, "name": "373477f03c7805481c948da35684342c", "is_disabled": 0, "rental_uris": {"android": "https://dc.lft.to/lastmile_qr_scan", "ios": "https://dc.lft.to/lastmile_qr_scan"}, "type": "electric_scooter", "lat": 38.888075666666666, "is_reserved": 0, "fusion_lat": 0.0}, {"bike_id": "8a7c4acd52439445131d45c6600d27b1", "fusion_lon": 0.0, "lon": -77.12695716666667, "name": "8a7c4acd52439445131d45c6600d27b1", "is_disabled": 0, "rental_uris": {"android": "https://dc.lft.to/lastmile_qr_scan", "ios": "https://dc.lft.to/lastmile_qr_scan"}, "type": "electric_bike", "lat": 38.89567483333333, "is_reserved": 0, "fusion_lat": 0.0}, {"bike_id": "b5fc2d0bfe93675e0c89af9a20554e54", "fusion_lon": 0.0, "lon": -77.03182066666666, "name": "b5fc2d0bfe93675e0c89af9a20554e54", "is_disabled": 0, "rental_uris": {"android": "https://dc.lft.to/lastmile_qr_scan", "ios": "https://dc.lft.to/lastmile_qr_scan"}, "type": "electric_scooter", "lat": 38.91599383333333, "is_reserved": 0, "fusion_lat": 0.0}, {"bike_id": "c5993da05bb1f8e81bcd1b182a0ae167", "fusion_lon": 0.0, "lon": -76.97277616666666, "name": "c5993da05bb1f8e81bcd1b182a0ae167", "is_disabled": 0, "rental_uris": {"android": "https://dc.lft.to/lastmile_qr_scan", "ios": "https://dc.lft.to/lastmile_qr_scan"}, "type": "electric_bike", "lat": 38.91954166666667, "is_reserved": 0, "fusion_lat": 0.0}, {"bike_id": "38dc700a81757c95b6bffb04ee41ab3e", "fusion_lon": 0.0, "lon": -77.04653216666667, "name": "38dc700a81757c95b6bffb04ee41ab3e", "is_disabled": 0, "rental_uris": {"android": "https://dc.lft.to/lastmile_qr_scan", "ios": "https://dc.lft.to/lastmile_qr_scan"}, "type": "electric_bike", "lat": 39.054968333333335, "is_reserved": 0, "fusion_lat": 0.0}, {"bike_id": "5346d4e9eda6687eb77d9e8812b75cdd", "fusion_lon": 0.0, "lon": -77.216524, "name": "5346d4e9eda6687eb77d9e8812b75cdd", "is_disabled": 0, "rental_uris": {"android": "https://dc.lft.to/lastmile_qr_scan", "ios": "https://dc.lft.to/lastmile_qr_scan"}, "type": "electric_bike", "lat": 38.930130166666665, "is_reserved": 0, "fusion_lat": 0.0}, {"bike_id": "2fa86024adef892b691e791cb7c4daa2", "fusion_lon": 0.0, "lon": -77.02155466666666, "name": "2fa86024adef892b691e791cb7c4daa2", "is_disabled": 0, "rental_uris": {"android": "https://dc.lft.to/lastmile_qr_scan", "ios": "https://dc.lft.to/lastmile_qr_scan"}, "type": "electric_scooter", "lat": 38.926038166666665, "is_reserved": 0, "fusion_lat": 0.0}, {"bike_id": "32d757fbd40bc317045b625f3fd44e63", "fusion_lon": 0.0, "lon": -76.9605715, "name": "32d757fbd40bc317045b625f3fd44e63", "is_disabled": 0, "rental_uris": {"android": "https://dc.lft.to/lastmile_qr_scan", "ios": "https://dc.lft.to/lastmile_qr_scan"}, "type": "electric_bike", "lat": 38.88400566666667, "is_reserved": 0, "fusion_lat": 0.0}, {"bike_id": "cc499a520e59b10a6e07781e19b34189", "fusion_lon": 0.0, "lon": -77.058803, "name": "cc499a520e59b10a6e07781e19b34189", "is_disabled": 0, "rental_uris": {"android": "https://dc.lft.to/lastmile_qr_scan", "ios": "https://dc.lft.to/lastmile_qr_scan"}, "type": "electric_bike", "lat": 38.958922333333334, "is_reserved": 0, "fusion_lat": 0.0}, {"bike_id": "537b124040b3e36e0b306e04dd54ed6e", "fusion_lon": 0.0, "lon": -77.02979516666667, "name": "537b124040b3e36e0b306e04dd54ed6e", "is_disabled": 0, "rental_uris": {"android": "https://dc.lft.to/lastmile_qr_scan", "ios": "https://dc.lft.to/lastmile_qr_scan"}, "type": "electric_scooter", "lat": 38.9624535, "is_reserved": 0, "fusion_lat": 0.0}, {"bike_id": "f5a266806c985d96a6c84f53e9cc731c", "fusion_lon": 0.0, "lon": -77.04770783333333, "name": "f5a266806c985d96a6c84f53e9cc731c", "is_disabled": 0, "rental_uris": {"android": "https://dc.lft.to/lastmile_qr_scan", "ios": "https://dc.lft.to/lastmile_qr_scan"}, "type": "electric_scooter", "lat": 38.90714466666667, "is_reserved": 0, "fusion_lat": 0.0}, {"bike_id": "9433ab93fbe236847e9c3f00d09769eb", "fusion_lon": 0.0, "lon": -77.02160633333334, "name": "9433ab93fbe236847e9c3f00d09769eb", "is_disabled": 0, "rental_uris": {"android": "https://dc.lft.to/lastmile_qr_scan", "ios": "https://dc.lft.to/lastmile_qr_scan"}, "type": "electric_scooter", "lat": 38.924962666666666, "is_reserved": 0, "fusion_lat": 0.0}, {"bike_id": "8bc49525513b0980b1ea8b67c94afeb3", "fusion_lon": 0.0, "lon": -77.04145416666667, "name": "8bc49525513b0980b1ea8b67c94afeb3", "is_disabled": 0, "rental_uris": {"android": "https://dc.lft.to/lastmile_qr_scan", "ios": "https://dc.lft.to/lastmile_qr_scan"}, "type": "electric_scooter", "lat": 38.907417833333334, "is_reserved": 0, "fusion_lat": 0.0}, {"bike_id": "8afc06a629344e961e9f70c44b69fc12", "fusion_lon": 0.0, "lon": -77.03656733333334, "name": "8afc06a629344e961e9f70c44b69fc12", "is_disabled": 0, "rental_uris": {"android": "https://dc.lft.to/lastmile_qr_scan", "ios": "https://dc.lft.to/lastmile_qr_scan"}, "type": "electric_scooter", "lat": 38.90315716666667, "is_reserved": 0, "fusion_lat": 0.0}, {"bike_id": "2bd94e23c60435b826209ad615f21942", "fusion_lon": 0.0, "lon": -77.0194205, "name": "2bd94e23c60435b826209ad615f21942", "is_disabled": 0, "rental_uris": {"android": "https://dc.lft.to/lastmile_qr_scan", "ios": "https://dc.lft.to/lastmile_qr_scan"}, "type": "electric_scooter", "lat": 38.94850266666667, "is_reserved": 0, "fusion_lat": 0.0}, {"bike_id": "e35cfa9dc0fcdabff272e33b200fddc0", "fusion_lon": 0.0, "lon": -77.012929, "name": "e35cfa9dc0fcdabff272e33b200fddc0", "is_disabled": 0, "rental_uris": {"android": "https://dc.lft.to/lastmile_qr_scan", "ios": "https://dc.lft.to/lastmile_qr_scan"}, "type": "electric_bike", "lat": 39.00379216666666, "is_reserved": 0, "fusion_lat": 0.0}, {"bike_id": "db281a6e9203b9328a1862852c911d51", "fusion_lon": 0.0, "lon": -77.035088, "name": "db281a6e9203b9328a1862852c911d51", "is_disabled": 0, "rental_uris": {"android": "https://dc.lft.to/lastmile_qr_scan", "ios": "https://dc.lft.to/lastmile_qr_scan"}, "type": "electric_scooter", "lat": 38.921517, "is_reserved": 0, "fusion_lat": 0.0}, {"bike_id": "f9c3c401265261f11a065f57b9c481da", "fusion_lon": 0.0, "lon": -77.03161233333333, "name": "f9c3c401265261f11a065f57b9c481da", "is_disabled": 0, "rental_uris": {"android": "https://dc.lft.to/lastmile_qr_scan", "ios": "https://dc.lft.to/lastmile_qr_scan"}, "type": "electric_scooter", "lat": 38.892217333333335, "is_reserved": 0, "fusion_lat": 0.0}, {"bike_id": "6822fe0a93792e2781c1dca5051691d2", "fusion_lon": 0.0, "lon": -77.0445425, "name": "6822fe0a93792e2781c1dca5051691d2", "is_disabled": 0, "rental_uris": {"android": "https://dc.lft.to/lastmile_qr_scan", "ios": "https://dc.lft.to/lastmile_qr_scan"}, "type": "electric_scooter", "lat": 38.930190833333334, "is_reserved": 0, "fusion_lat": 0.0}, {"bike_id": "8a670054f80feafa42512404cff257dd", "fusion_lon": 0.0, "lon": -76.97733266666667, "name": "8a670054f80feafa42512404cff257dd", "is_disabled": 0, "rental_uris": {"android": "https://dc.lft.to/lastmile_qr_scan", "ios": "https://dc.lft.to/lastmile_qr_scan"}, "type": "electric_scooter", "lat": 38.89517216666667, "is_reserved": 0, "fusion_lat": 0.0}, {"bike_id": "8915f941ef499775190d192bb15b8821", "fusion_lon": 0.0, "lon": -77.01617083333333, "name": "8915f941ef499775190d192bb15b8821", "is_disabled": 0, "rental_uris": {"android": "https://dc.lft.to/lastmile_qr_scan", "ios": "https://dc.lft.to/lastmile_qr_scan"}, "type": "electric_scooter", "lat": 38.895429, "is_reserved": 0, "fusion_lat": 0.0}, {"bike_id": "384b43310949b70dde9e2345fe316a6a", "fusion_lon": 0.0, "lon": -77.02763816666666, "name": "384b43310949b70dde9e2345fe316a6a", "is_disabled": 0, "rental_uris": {"android": "https://dc.lft.to/lastmile_qr_scan", "ios": "https://dc.lft.to/lastmile_qr_scan"}, "type": "electric_scooter", "lat": 38.95426116666667, "is_reserved": 0, "fusion_lat": 0.0}, {"bike_id": "922440ff55f053639a858aecc419b91e", "fusion_lon": 0.0, "lon": -77.04259966666666, "name": "922440ff55f053639a858aecc419b91e", "is_disabled": 0, "rental_uris": {"android": "https://dc.lft.to/lastmile_qr_scan", "ios": "https://dc.lft.to/lastmile_qr_scan"}, "type": "electric_scooter", "lat": 38.91042783333333, "is_reserved": 0, "fusion_lat": 0.0}, {"bike_id": "deadc39ee9d73c5bc345f9e5c9915349", "fusion_lon": 0.0, "lon": -77.0635645, "name": "deadc39ee9d73c5bc345f9e5c9915349", "is_disabled": 0, "rental_uris": {"android": "https://dc.lft.to/lastmile_qr_scan", "ios": "https://dc.lft.to/lastmile_qr_scan"}, "type": "electric_scooter", "lat": 38.9445625, "is_reserved": 0, "fusion_lat": 0.0}, {"bike_id": "42fc20fc776e1c18b5c4dd707d6b8945", "fusion_lon": 0.0, "lon": -76.98987116666666, "name": "42fc20fc776e1c18b5c4dd707d6b8945", "is_disabled": 0, "rental_uris": {"android": "https://dc.lft.to/lastmile_qr_scan", "ios": "https://dc.lft.to/lastmile_qr_scan"}, "type": "electric_scooter", "lat": 38.864976666666664, "is_reserved": 0, "fusion_lat": 0.0}, {"bike_id": "2ae29400771dfd4e38c216b8d2e208d7", "fusion_lon": 0.0, "lon": -76.93991883333334, "name": "2ae29400771dfd4e38c216b8d2e208d7", "is_disabled": 0, "rental_uris": {"android": "https://dc.lft.to/lastmile_qr_scan", "ios": "https://dc.lft.to/lastmile_qr_scan"}, "type": "electric_scooter", "lat": 38.89982583333333, "is_reserved": 0, "fusion_lat": 0.0}, {"bike_id": "6573cdb185c52f7bb89dfa75c2f7962d", "fusion_lon": 0.0, "lon": -77.07257966666667, "name": "6573cdb185c52f7bb89dfa75c2f7962d", "is_disabled": 0, "rental_uris": {"android": "https://dc.lft.to/lastmile_qr_scan", "ios": "https://dc.lft.to/lastmile_qr_scan"}, "type": "electric_scooter", "lat": 38.933488, "is_reserved": 0, "fusion_lat": 0.0}, {"bike_id": "1c6ab66afbb14a69c983a1e5a65ac34d", "fusion_lon": 0.0, "lon": -77.0253925, "name": "1c6ab66afbb14a69c983a1e5a65ac34d", "is_disabled": 0, "rental_uris": {"android": "https://dc.lft.to/lastmile_qr_scan", "ios": "https://dc.lft.to/lastmile_qr_scan"}, "type": "electric_scooter", "lat": 38.91989433333333, "is_reserved": 0, "fusion_lat": 0.0}, {"bike_id": "d9cc626b3d9553decd254d969179bb6a", "fusion_lon": 0.0, "lon": -77.02311283333333, "name": "d9cc626b3d9553decd254d969179bb6a", "is_disabled": 0, "rental_uris": {"android": "https://dc.lft.to/lastmile_qr_scan", "ios": "https://dc.lft.to/lastmile_qr_scan"}, "type": "electric_scooter", "lat": 38.915971166666665, "is_reserved": 0, "fusion_lat": 0.0}, {"bike_id": "91c79a31170149d7c71f4004b01bc7bc", "fusion_lon": 0.0, "lon": -77.02692433333333, "name": "91c79a31170149d7c71f4004b01bc7bc", "is_disabled": 0, "rental_uris": {"android": "https://dc.lft.to/lastmile_qr_scan", "ios": "https://dc.lft.to/lastmile_qr_scan"}, "type": "electric_scooter", "lat": 38.90680066666667, "is_reserved": 0, "fusion_lat": 0.0}, {"bike_id": "28f883865dc187fb194138459c223c11", "fusion_lon": 0.0, "lon": -77.01534733333334, "name": "28f883865dc187fb194138459c223c11", "is_disabled": 0, "rental_uris": {"android": "https://dc.lft.to/lastmile_qr_scan", "ios": "https://dc.lft.to/lastmile_qr_scan"}, "type": "electric_scooter", "lat": 38.887405666666666, "is_reserved": 0, "fusion_lat": 0.0}, {"bike_id": "dce84cc8ae691a94c1839e456f16f59f", "fusion_lon": 0.0, "lon": -77.04337316666667, "name": "dce84cc8ae691a94c1839e456f16f59f", "is_disabled": 0, "rental_uris": {"android": "https://dc.lft.to/lastmile_qr_scan", "ios": "https://dc.lft.to/lastmile_qr_scan"}, "type": "electric_scooter", "lat": 38.89726916666667, "is_reserved": 0, "fusion_lat": 0.0}, {"bike_id": "b6c749a706d14adaa0bc536197bdf6e2", "fusion_lon": 0.0, "lon": -77.04490666666666, "name": "b6c749a706d14adaa0bc536197bdf6e2", "is_disabled": 0, "rental_uris": {"android": "https://dc.lft.to/lastmile_qr_scan", "ios": "https://dc.lft.to/lastmile_qr_scan"}, "type": "electric_scooter", "lat": 38.9124265, "is_reserved": 0, "fusion_lat": 0.0}, {"bike_id": "d839d26bb355f2b55af12d60916de490", "fusion_lon": 0.0, "lon": -77.01785916666667, "name": "d839d26bb355f2b55af12d60916de490", "is_disabled": 0, "rental_uris": {"android": "https://dc.lft.to/lastmile_qr_scan", "ios": "https://dc.lft.to/lastmile_qr_scan"}, "type": "electric_scooter", "lat": 38.91109316666667, "is_reserved": 0, "fusion_lat": 0.0}, {"bike_id": "6faba389878937b337d8d28e24078a18", "fusion_lon": 0.0, "lon": -77.04376616666667, "name": "6faba389878937b337d8d28e24078a18", "is_disabled": 0, "rental_uris": {"android": "https://dc.lft.to/lastmile_qr_scan", "ios": "https://dc.lft.to/lastmile_qr_scan"}, "type": "electric_scooter", "lat": 38.91035883333333, "is_reserved": 0, "fusion_lat": 0.0}, {"bike_id": "8a22f02bfdd8709817e8cb86036641b1", "fusion_lon": 0.0, "lon": -76.980604, "name": "8a22f02bfdd8709817e8cb86036641b1", "is_disabled": 0, "rental_uris": {"android": "https://dc.lft.to/lastmile_qr_scan", "ios": "https://dc.lft.to/lastmile_qr_scan"}, "type": "electric_scooter", "lat": 38.88493183333333, "is_reserved": 0, "fusion_lat": 0.0}, {"bike_id": "70de8f7016182c4457a5bd70ad24fe2a", "fusion_lon": 0.0, "lon": -77.0202545, "name": "70de8f7016182c4457a5bd70ad24fe2a", "is_disabled": 0, "rental_uris": {"android": "https://dc.lft.to/lastmile_qr_scan", "ios": "https://dc.lft.to/lastmile_qr_scan"}, "type": "electric_scooter", "lat": 38.887428, "is_reserved": 0, "fusion_lat": 0.0}, {"bike_id": "4ecc941112c35acc85446b116f8e4c35", "fusion_lon": 0.0, "lon": -77.03454766666667, "name": "4ecc941112c35acc85446b116f8e4c35", "is_disabled": 0, "rental_uris": {"android": "https://dc.lft.to/lastmile_qr_scan", "ios": "https://dc.lft.to/lastmile_qr_scan"}, "type": "electric_scooter", "lat": 38.937546, "is_reserved": 0, "fusion_lat": 0.0}, {"bike_id": "4c2f525f5536962fed58de92b92589e1", "fusion_lon": 0.0, "lon": -77.0367365, "name": "4c2f525f5536962fed58de92b92589e1", "is_disabled": 0, "rental_uris": {"android": "https://dc.lft.to/lastmile_qr_scan", "ios": "https://dc.lft.to/lastmile_qr_scan"}, "type": "electric_scooter", "lat": 38.91708766666667, "is_reserved": 0, "fusion_lat": 0.0}, {"bike_id": "65e2a57c34ec1169dc9895b81c76931c", "fusion_lon": 0.0, "lon": -77.007508, "name": "65e2a57c34ec1169dc9895b81c76931c", "is_disabled": 0, "rental_uris": {"android": "https://dc.lft.to/lastmile_qr_scan", "ios": "https://dc.lft.to/lastmile_qr_scan"}, "type": "electric_scooter", "lat": 38.898492, "is_reserved": 0, "fusion_lat": 0.0}, {"bike_id": "00b4527619d393b6a218515cb5193fb4", "fusion_lon": 0.0, "lon": -77.02620616666667, "name": "00b4527619d393b6a218515cb5193fb4", "is_disabled": 0, "rental_uris": {"android": "https://dc.lft.to/lastmile_qr_scan", "ios": "https://dc.lft.to/lastmile_qr_scan"}, "type": "electric_scooter", "lat": 38.9281, "is_reserved": 0, "fusion_lat": 0.0}, {"bike_id": "0c7dee1e1b377e9e9ad1b5e2e8f9b285", "fusion_lon": 0.0, "lon": -77.0311065, "name": "0c7dee1e1b377e9e9ad1b5e2e8f9b285", "is_disabled": 0, "rental_uris": {"android": "https://dc.lft.to/lastmile_qr_scan", "ios": "https://dc.lft.to/lastmile_qr_scan"}, "type": "electric_scooter", "lat": 38.94645516666667, "is_reserved": 0, "fusion_lat": 0.0}, {"bike_id": "049af2cd1c8e0d2caed15c8b59a95327", "fusion_lon": 0.0, "lon": -77.11709183333333, "name": "049af2cd1c8e0d2caed15c8b59a95327", "is_disabled": 0, "rental_uris": {"android": "https://dc.lft.to/lastmile_qr_scan", "ios": "https://dc.lft.to/lastmile_qr_scan"}, "type": "electric_bike", "lat": 38.86746483333334, "is_reserved": 0, "fusion_lat": 0.0}, {"bike_id": "81fcc661ea3dd405c44afedbff15bfad", "fusion_lon": 0.0, "lon": -77.00364866666666, "name": "81fcc661ea3dd405c44afedbff15bfad", "is_disabled": 0, "rental_uris": {"android": "https://dc.lft.to/lastmile_qr_scan", "ios": "https://dc.lft.to/lastmile_qr_scan"}, "type": "electric_scooter", "lat": 38.882644166666665, "is_reserved": 0, "fusion_lat": 0.0}, {"bike_id": "49b8c48f1538ad32ada19aee6ad61915", "fusion_lon": 0.0, "lon": -77.03165433333334, "name": "49b8c48f1538ad32ada19aee6ad61915", "is_disabled": 0, "rental_uris": {"android": "https://dc.lft.to/lastmile_qr_scan", "ios": "https://dc.lft.to/lastmile_qr_scan"}, "type": "electric_scooter", "lat": 38.892200833333334, "is_reserved": 0, "fusion_lat": 0.0}, {"bike_id": "6836c1083cc67b72a124f7ffec924494", "fusion_lon": 0.0, "lon": -77.05158083333333, "name": "6836c1083cc67b72a124f7ffec924494", "is_disabled": 0, "rental_uris": {"android": "https://dc.lft.to/lastmile_qr_scan", "ios": "https://dc.lft.to/lastmile_qr_scan"}, "type": "electric_scooter", "lat": 38.90535833333333, "is_reserved": 0, "fusion_lat": 0.0}, {"bike_id": "d676a24ecee81f71f89d76c6b9dd467b", "fusion_lon": 0.0, "lon": -76.99518016666667, "name": "d676a24ecee81f71f89d76c6b9dd467b", "is_disabled": 0, "rental_uris": {"android": "https://dc.lft.to/lastmile_qr_scan", "ios": "https://dc.lft.to/lastmile_qr_scan"}, "type": "electric_scooter", "lat": 38.9097855, "is_reserved": 0, "fusion_lat": 0.0}, {"bike_id": "02ad12bb6c7756b127a2a04ee3519967", "fusion_lon": 0.0, "lon": -77.00001566666667, "name": "02ad12bb6c7756b127a2a04ee3519967", "is_disabled": 0, "rental_uris": {"android": "https://dc.lft.to/lastmile_qr_scan", "ios": "https://dc.lft.to/lastmile_qr_scan"}, "type": "electric_scooter", "lat": 38.90747133333333, "is_reserved": 0, "fusion_lat": 0.0}, {"bike_id": "278acd2de9ee0d65752f0865955aed6c", "fusion_lon": 0.0, "lon": -77.04653366666666, "name": "278acd2de9ee0d65752f0865955aed6c", "is_disabled": 0, "rental_uris": {"android": "https://dc.lft.to/lastmile_qr_scan", "ios": "https://dc.lft.to/lastmile_qr_scan"}, "type": "electric_scooter", "lat": 38.909559333333334, "is_reserved": 0, "fusion_lat": 0.0}, {"bike_id": "a9b37d05fdb20e11dd610c5d3a977af0", "fusion_lon": 0.0, "lon": -77.03207783333333, "name": "a9b37d05fdb20e11dd610c5d3a977af0", "is_disabled": 0, "rental_uris": {"android": "https://dc.lft.to/lastmile_qr_scan", "ios": "https://dc.lft.to/lastmile_qr_scan"}, "type": "electric_scooter", "lat": 38.91631483333333, "is_reserved": 0, "fusion_lat": 0.0}, {"bike_id": "c8da88e5894c58aefca634c2192d9f49", "fusion_lon": 0.0, "lon": -77.021708, "name": "c8da88e5894c58aefca634c2192d9f49", "is_disabled": 0, "rental_uris": {"android": "https://dc.lft.to/lastmile_qr_scan", "ios": "https://dc.lft.to/lastmile_qr_scan"}, "type": "electric_scooter", "lat": 38.899452333333336, "is_reserved": 0, "fusion_lat": 0.0}, {"bike_id": "dfa4917718c6c2ec6bc585cbca8d4eb0", "fusion_lon": 0.0, "lon": -77.023142, "name": "dfa4917718c6c2ec6bc585cbca8d4eb0", "is_disabled": 0, "rental_uris": {"android": "https://dc.lft.to/lastmile_qr_scan", "ios": "https://dc.lft.to/lastmile_qr_scan"}, "type": "electric_scooter", "lat": 38.909548, "is_reserved": 0, "fusion_lat": 0.0}, {"bike_id": "36974f180da9bdd31f230eb809aacc85", "fusion_lon": 0.0, "lon": -77.10041516666666, "name": "36974f180da9bdd31f230eb809aacc85", "is_disabled": 0, "rental_uris": {"android": "https://dc.lft.to/lastmile_qr_scan", "ios": "https://dc.lft.to/lastmile_qr_scan"}, "type": "electric_bike", "lat": 38.991688833333335, "is_reserved": 0, "fusion_lat": 0.0}, {"bike_id": "86d156cd2e61c47cd42c1021a3039c88", "fusion_lon": 0.0, "lon": -77.02720083333334, "name": "86d156cd2e61c47cd42c1021a3039c88", "is_disabled": 0, "rental_uris": {"android": "https://dc.lft.to/lastmile_qr_scan", "ios": "https://dc.lft.to/lastmile_qr_scan"}, "type": "electric_scooter", "lat": 38.949590666666666, "is_reserved": 0, "fusion_lat": 0.0}, {"bike_id": "8496b651a13f1077f1b756baefc167b5", "fusion_lon": 0.0, "lon": -77.023518, "name": "8496b651a13f1077f1b756baefc167b5", "is_disabled": 0, "rental_uris": {"android": "https://dc.lft.to/lastmile_qr_scan", "ios": "https://dc.lft.to/lastmile_qr_scan"}, "type": "electric_scooter", "lat": 38.931842833333334, "is_reserved": 0, "fusion_lat": 0.0}, {"bike_id": "f5e9a0ba8a43744e0a664c873de56bd5", "fusion_lon": 0.0, "lon": -77.03512866666667, "name": "f5e9a0ba8a43744e0a664c873de56bd5", "is_disabled": 0, "rental_uris": {"android": "https://dc.lft.to/lastmile_qr_scan", "ios": "https://dc.lft.to/lastmile_qr_scan"}, "type": "electric_scooter", "lat": 38.93587616666667, "is_reserved": 0, "fusion_lat": 0.0}, {"bike_id": "7a847bf409bf204360ed51499964f736", "fusion_lon": 0.0, "lon": -77.03865666666667, "name": "7a847bf409bf204360ed51499964f736", "is_disabled": 0, "rental_uris": {"android": "https://dc.lft.to/lastmile_qr_scan", "ios": "https://dc.lft.to/lastmile_qr_scan"}, "type": "electric_scooter", "lat": 38.91553916666667, "is_reserved": 0, "fusion_lat": 0.0}, {"bike_id": "ef7a4cce7831e4484f19e02a46aaa492", "fusion_lon": 0.0, "lon": -76.98547533333333, "name": "ef7a4cce7831e4484f19e02a46aaa492", "is_disabled": 0, "rental_uris": {"android": "https://dc.lft.to/lastmile_qr_scan", "ios": "https://dc.lft.to/lastmile_qr_scan"}, "type": "electric_scooter", "lat": 38.866915666666664, "is_reserved": 0, "fusion_lat": 0.0}, {"bike_id": "daf91a75d23e45bc095b2a7585b439d2", "fusion_lon": 0.0, "lon": -77.02468416666666, "name": "daf91a75d23e45bc095b2a7585b439d2", "is_disabled": 0, "rental_uris": {"android": "https://dc.lft.to/lastmile_qr_scan", "ios": "https://dc.lft.to/lastmile_qr_scan"}, "type": "electric_scooter", "lat": 38.91899183333334, "is_reserved": 0, "fusion_lat": 0.0}, {"bike_id": "3daf61ade704fbac8848140e715ca3da", "fusion_lon": 0.0, "lon": -77.02583133333333, "name": "3daf61ade704fbac8848140e715ca3da", "is_disabled": 0, "rental_uris": {"android": "https://dc.lft.to/lastmile_qr_scan", "ios": "https://dc.lft.to/lastmile_qr_scan"}, "type": "electric_scooter", "lat": 38.8921755, "is_reserved": 0, "fusion_lat": 0.0}, {"bike_id": "9e65eb1db30a206d7f24c39b05538b08", "fusion_lon": 0.0, "lon": -76.9892645, "name": "9e65eb1db30a206d7f24c39b05538b08", "is_disabled": 0, "rental_uris": {"android": "https://dc.lft.to/lastmile_qr_scan", "ios": "https://dc.lft.to/lastmile_qr_scan"}, "type": "electric_scooter", "lat": 38.8407395, "is_reserved": 0, "fusion_lat": 0.0}, {"bike_id": "a1b9ef6969f25a54ba1b09fc97b72ebf", "fusion_lon": 0.0, "lon": -77.01373383333333, "name": "a1b9ef6969f25a54ba1b09fc97b72ebf", "is_disabled": 0, "rental_uris": {"android": "https://dc.lft.to/lastmile_qr_scan", "ios": "https://dc.lft.to/lastmile_qr_scan"}, "type": "electric_scooter", "lat": 38.89221116666667, "is_reserved": 0, "fusion_lat": 0.0}, {"bike_id": "853626abf2c40cacc85694a0c289cc21", "fusion_lon": 0.0, "lon": -77.02211533333333, "name": "853626abf2c40cacc85694a0c289cc21", "is_disabled": 0, "rental_uris": {"android": "https://dc.lft.to/lastmile_qr_scan", "ios": "https://dc.lft.to/lastmile_qr_scan"}, "type": "electric_scooter", "lat": 38.91266616666667, "is_reserved": 0, "fusion_lat": 0.0}, {"bike_id": "46f8b0200168501ec96f58a36d5467b1", "fusion_lon": 0.0, "lon": -77.0339605, "name": "46f8b0200168501ec96f58a36d5467b1", "is_disabled": 0, "rental_uris": {"android": "https://dc.lft.to/lastmile_qr_scan", "ios": "https://dc.lft.to/lastmile_qr_scan"}, "type": "electric_scooter", "lat": 38.90108983333333, "is_reserved": 0, "fusion_lat": 0.0}, {"bike_id": "d66141cf7fcd9e22edf97f73f1d834c0", "fusion_lon": 0.0, "lon": -77.0257915, "name": "d66141cf7fcd9e22edf97f73f1d834c0", "is_disabled": 0, "rental_uris": {"android": "https://dc.lft.to/lastmile_qr_scan", "ios": "https://dc.lft.to/lastmile_qr_scan"}, "type": "electric_scooter", "lat": 38.92698266666667, "is_reserved": 0, "fusion_lat": 0.0}, {"bike_id": "d6a1e69d54e1a58e3568bf7b43ee60ee", "fusion_lon": 0.0, "lon": -77.02710216666667, "name": "d6a1e69d54e1a58e3568bf7b43ee60ee", "is_disabled": 0, "rental_uris": {"android": "https://dc.lft.to/lastmile_qr_scan", "ios": "https://dc.lft.to/lastmile_qr_scan"}, "type": "electric_scooter", "lat": 38.907369833333334, "is_reserved": 0, "fusion_lat": 0.0}, {"bike_id": "d4980044a0b819556f046c9650bc8971", "fusion_lon": 0.0, "lon": -77.02981616666666, "name": "d4980044a0b819556f046c9650bc8971", "is_disabled": 0, "rental_uris": {"android": "https://dc.lft.to/lastmile_qr_scan", "ios": "https://dc.lft.to/lastmile_qr_scan"}, "type": "electric_scooter", "lat": 38.89576666666667, "is_reserved": 0, "fusion_lat": 0.0}, {"bike_id": "6d2ed3dcd324ea434c1d0df846a05075", "fusion_lon": 0.0, "lon": -77.04329266666667, "name": "6d2ed3dcd324ea434c1d0df846a05075", "is_disabled": 0, "rental_uris": {"android": "https://dc.lft.to/lastmile_qr_scan", "ios": "https://dc.lft.to/lastmile_qr_scan"}, "type": "electric_scooter", "lat": 38.89222766666666, "is_reserved": 0, "fusion_lat": 0.0}, {"bike_id": "1221959980ed76a762ce7fdc8133832c", "fusion_lon": 0.0, "lon": -77.0280005, "name": "1221959980ed76a762ce7fdc8133832c", "is_disabled": 0, "rental_uris": {"android": "https://dc.lft.to/lastmile_qr_scan", "ios": "https://dc.lft.to/lastmile_qr_scan"}, "type": "electric_scooter", "lat": 38.8923175, "is_reserved": 0, "fusion_lat": 0.0}, {"bike_id": "e56579c04cf1b009b53902f52829585d", "fusion_lon": 0.0, "lon": -77.02414983333334, "name": "e56579c04cf1b009b53902f52829585d", "is_disabled": 0, "rental_uris": {"android": "https://dc.lft.to/lastmile_qr_scan", "ios": "https://dc.lft.to/lastmile_qr_scan"}, "type": "electric_bike", "lat": 38.93300383333333, "is_reserved": 0, "fusion_lat": 0.0}, {"bike_id": "a5d2444a009272e49f20f606100bda77", "fusion_lon": 0.0, "lon": -77.03731316666666, "name": "a5d2444a009272e49f20f606100bda77", "is_disabled": 0, "rental_uris": {"android": "https://dc.lft.to/lastmile_qr_scan", "ios": "https://dc.lft.to/lastmile_qr_scan"}, "type": "electric_scooter", "lat": 38.925870833333335, "is_reserved": 0, "fusion_lat": 0.0}, {"bike_id": "8bf3bfc57474feaae866cead7785e8c5", "fusion_lon": 0.0, "lon": -77.00635666666666, "name": "8bf3bfc57474feaae866cead7785e8c5", "is_disabled": 0, "rental_uris": {"android": "https://dc.lft.to/lastmile_qr_scan", "ios": "https://dc.lft.to/lastmile_qr_scan"}, "type": "electric_bike", "lat": 38.948351833333334, "is_reserved": 0, "fusion_lat": 0.0}, {"bike_id": "4e27829f771a5cfec01d756677a01037", "fusion_lon": 0.0, "lon": -77.04659166666667, "name": "4e27829f771a5cfec01d756677a01037", "is_disabled": 0, "rental_uris": {"android": "https://dc.lft.to/lastmile_qr_scan", "ios": "https://dc.lft.to/lastmile_qr_scan"}, "type": "electric_scooter", "lat": 38.89243833333333, "is_reserved": 0, "fusion_lat": 0.0}, {"bike_id": "063e58792cc6f524bc8ee1a6b5b1e3fb", "fusion_lon": 0.0, "lon": -76.96868033333334, "name": "063e58792cc6f524bc8ee1a6b5b1e3fb", "is_disabled": 0, "rental_uris": {"android": "https://dc.lft.to/lastmile_qr_scan", "ios": "https://dc.lft.to/lastmile_qr_scan"}, "type": "electric_scooter", "lat": 38.87094283333333, "is_reserved": 0, "fusion_lat": 0.0}, {"bike_id": "45fa5a688a14a648f97c34d736b67929", "fusion_lon": 0.0, "lon": -77.03438666666666, "name": "45fa5a688a14a648f97c34d736b67929", "is_disabled": 0, "rental_uris": {"android": "https://dc.lft.to/lastmile_qr_scan", "ios": "https://dc.lft.to/lastmile_qr_scan"}, "type": "electric_scooter", "lat": 38.90433383333333, "is_reserved": 0, "fusion_lat": 0.0}, {"bike_id": "c542265bc8703ec89b310c2edff5b28f", "fusion_lon": 0.0, "lon": -77.03845333333334, "name": "c542265bc8703ec89b310c2edff5b28f", "is_disabled": 0, "rental_uris": {"android": "https://dc.lft.to/lastmile_qr_scan", "ios": "https://dc.lft.to/lastmile_qr_scan"}, "type": "electric_scooter", "lat": 38.932475833333335, "is_reserved": 0, "fusion_lat": 0.0}, {"bike_id": "b5632c95ba1ae1f84848bf2b43415c68", "fusion_lon": 0.0, "lon": -77.000993, "name": "b5632c95ba1ae1f84848bf2b43415c68", "is_disabled": 0, "rental_uris": {"android": "https://dc.lft.to/lastmile_qr_scan", "ios": "https://dc.lft.to/lastmile_qr_scan"}, "type": "electric_scooter", "lat": 38.886458, "is_reserved": 0, "fusion_lat": 0.0}, {"bike_id": "91eaf6f3e8c2cd19bf9b602b8a6449a4", "fusion_lon": 0.0, "lon": -77.04374683333333, "name": "91eaf6f3e8c2cd19bf9b602b8a6449a4", "is_disabled": 0, "rental_uris": {"android": "https://dc.lft.to/lastmile_qr_scan", "ios": "https://dc.lft.to/lastmile_qr_scan"}, "type": "electric_scooter", "lat": 38.921151333333334, "is_reserved": 0, "fusion_lat": 0.0}, {"bike_id": "01a8489f0b49552bc9d55c4ba3c09fca", "fusion_lon": 0.0, "lon": -77.02330883333333, "name": "01a8489f0b49552bc9d55c4ba3c09fca", "is_disabled": 0, "rental_uris": {"android": "https://dc.lft.to/lastmile_qr_scan", "ios": "https://dc.lft.to/lastmile_qr_scan"}, "type": "electric_scooter", "lat": 38.91669233333333, "is_reserved": 0, "fusion_lat": 0.0}, {"bike_id": "3381dc545e30b807287cf82458d2228a", "fusion_lon": 0.0, "lon": -76.93647416666667, "name": "3381dc545e30b807287cf82458d2228a", "is_disabled": 0, "rental_uris": {"android": "https://dc.lft.to/lastmile_qr_scan", "ios": "https://dc.lft.to/lastmile_qr_scan"}, "type": "electric_bike", "lat": 38.87149383333333, "is_reserved": 0, "fusion_lat": 0.0}, {"bike_id": "f2f8541c7f1461e167d47617a87642e6", "fusion_lon": 0.0, "lon": -77.02776533333333, "name": "f2f8541c7f1461e167d47617a87642e6", "is_disabled": 0, "rental_uris": {"android": "https://dc.lft.to/lastmile_qr_scan", "ios": "https://dc.lft.to/lastmile_qr_scan"}, "type": "electric_scooter", "lat": 38.892189333333334, "is_reserved": 0, "fusion_lat": 0.0}, {"bike_id": "7367be1e6651217110c65232ef3d0c40", "fusion_lon": 0.0, "lon": -77.04219833333333, "name": "7367be1e6651217110c65232ef3d0c40", "is_disabled": 0, "rental_uris": {"android": "https://dc.lft.to/lastmile_qr_scan", "ios": "https://dc.lft.to/lastmile_qr_scan"}, "type": "electric_scooter", "lat": 38.920783, "is_reserved": 0, "fusion_lat": 0.0}, {"bike_id": "9d4d22abcfe8a322efddd6f0dc5270f0", "fusion_lon": 0.0, "lon": -77.02653066666667, "name": "9d4d22abcfe8a322efddd6f0dc5270f0", "is_disabled": 0, "rental_uris": {"android": "https://dc.lft.to/lastmile_qr_scan", "ios": "https://dc.lft.to/lastmile_qr_scan"}, "type": "electric_scooter", "lat": 38.892203333333335, "is_reserved": 0, "fusion_lat": 0.0}, {"bike_id": "7a34f6bb99e5050ecba8fb3d158a6355", "fusion_lon": 0.0, "lon": -76.96603833333333, "name": "7a34f6bb99e5050ecba8fb3d158a6355", "is_disabled": 0, "rental_uris": {"android": "https://dc.lft.to/lastmile_qr_scan", "ios": "https://dc.lft.to/lastmile_qr_scan"}, "type": "electric_scooter", "lat": 38.8739005, "is_reserved": 0, "fusion_lat": 0.0}, {"bike_id": "087084a9ba6cfb28c51c979be04bc555", "fusion_lon": 0.0, "lon": -77.026871, "name": "087084a9ba6cfb28c51c979be04bc555", "is_disabled": 0, "rental_uris": {"android": "https://dc.lft.to/lastmile_qr_scan", "ios": "https://dc.lft.to/lastmile_qr_scan"}, "type": "electric_scooter", "lat": 38.89606966666667, "is_reserved": 0, "fusion_lat": 0.0}, {"bike_id": "8e9ad80a2da9db54a67976ea8a6324f8", "fusion_lon": 0.0, "lon": -77.00222416666666, "name": "8e9ad80a2da9db54a67976ea8a6324f8", "is_disabled": 0, "rental_uris": {"android": "https://dc.lft.to/lastmile_qr_scan", "ios": "https://dc.lft.to/lastmile_qr_scan"}, "type": "electric_scooter", "lat": 38.925108333333334, "is_reserved": 0, "fusion_lat": 0.0}, {"bike_id": "a09fda62f725184edd6e8e0a2951d9cf", "fusion_lon": 0.0, "lon": -77.02702833333333, "name": "a09fda62f725184edd6e8e0a2951d9cf", "is_disabled": 0, "rental_uris": {"android": "https://dc.lft.to/lastmile_qr_scan", "ios": "https://dc.lft.to/lastmile_qr_scan"}, "type": "electric_scooter", "lat": 38.90667966666667, "is_reserved": 0, "fusion_lat": 0.0}, {"bike_id": "e8cb7140d488c485162af303fd71a163", "fusion_lon": 0.0, "lon": -77.03256633333334, "name": "e8cb7140d488c485162af303fd71a163", "is_disabled": 0, "rental_uris": {"android": "https://dc.lft.to/lastmile_qr_scan", "ios": "https://dc.lft.to/lastmile_qr_scan"}, "type": "electric_scooter", "lat": 38.9313205, "is_reserved": 0, "fusion_lat": 0.0}, {"bike_id": "1372094fcd6d73cabf35c5634bd79a93", "fusion_lon": 0.0, "lon": -77.03206533333334, "name": "1372094fcd6d73cabf35c5634bd79a93", "is_disabled": 0, "rental_uris": {"android": "https://dc.lft.to/lastmile_qr_scan", "ios": "https://dc.lft.to/lastmile_qr_scan"}, "type": "electric_scooter", "lat": 38.91417716666667, "is_reserved": 0, "fusion_lat": 0.0}, {"bike_id": "e3848fd8e427b358ae95b200ec912829", "fusion_lon": 0.0, "lon": -77.02798433333334, "name": "e3848fd8e427b358ae95b200ec912829", "is_disabled": 0, "rental_uris": {"android": "https://dc.lft.to/lastmile_qr_scan", "ios": "https://dc.lft.to/lastmile_qr_scan"}, "type": "electric_scooter", "lat": 38.9540195, "is_reserved": 0, "fusion_lat": 0.0}, {"bike_id": "2d2c26f1e42827efc7bff2c7518cad5f", "fusion_lon": 0.0, "lon": -77.02749233333333, "name": "2d2c26f1e42827efc7bff2c7518cad5f", "is_disabled": 0, "rental_uris": {"android": "https://dc.lft.to/lastmile_qr_scan", "ios": "https://dc.lft.to/lastmile_qr_scan"}, "type": "electric_scooter", "lat": 38.9577905, "is_reserved": 0, "fusion_lat": 0.0}, {"bike_id": "d875dc99abb0d1e3d8a9aedcdf584bb3", "fusion_lon": 0.0, "lon": -77.05121966666667, "name": "d875dc99abb0d1e3d8a9aedcdf584bb3", "is_disabled": 0, "rental_uris": {"android": "https://dc.lft.to/lastmile_qr_scan", "ios": "https://dc.lft.to/lastmile_qr_scan"}, "type": "electric_scooter", "lat": 38.92344883333333, "is_reserved": 0, "fusion_lat": 0.0}, {"bike_id": "7a7e081429cc6ad87aa3f0cd1b1301a3", "fusion_lon": 0.0, "lon": -77.04534666666666, "name": "7a7e081429cc6ad87aa3f0cd1b1301a3", "is_disabled": 0, "rental_uris": {"android": "https://dc.lft.to/lastmile_qr_scan", "ios": "https://dc.lft.to/lastmile_qr_scan"}, "type": "electric_scooter", "lat": 38.932959333333336, "is_reserved": 0, "fusion_lat": 0.0}, {"bike_id": "d55ec8aa972d90bc99a4f84b655645e5", "fusion_lon": 0.0, "lon": -77.02216283333334, "name": "d55ec8aa972d90bc99a4f84b655645e5", "is_disabled": 0, "rental_uris": {"android": "https://dc.lft.to/lastmile_qr_scan", "ios": "https://dc.lft.to/lastmile_qr_scan"}, "type": "electric_scooter", "lat": 38.915553, "is_reserved": 0, "fusion_lat": 0.0}, {"bike_id": "0e45a2a3e497a05902868a26b18b534f", "fusion_lon": 0.0, "lon": -77.04136416666667, "name": "0e45a2a3e497a05902868a26b18b534f", "is_disabled": 0, "rental_uris": {"android": "https://dc.lft.to/lastmile_qr_scan", "ios": "https://dc.lft.to/lastmile_qr_scan"}, "type": "electric_scooter", "lat": 38.921290166666665, "is_reserved": 0, "fusion_lat": 0.0}, {"bike_id": "bea8dab8c9ad15e4a1234543446c2a4a", "fusion_lon": 0.0, "lon": -77.0483545, "name": "bea8dab8c9ad15e4a1234543446c2a4a", "is_disabled": 0, "rental_uris": {"android": "https://dc.lft.to/lastmile_qr_scan", "ios": "https://dc.lft.to/lastmile_qr_scan"}, "type": "electric_scooter", "lat": 38.911813333333335, "is_reserved": 0, "fusion_lat": 0.0}, {"bike_id": "c1c0a6d789180949b644c7fd1b4c8fc5", "fusion_lon": 0.0, "lon": -77.032371, "name": "c1c0a6d789180949b644c7fd1b4c8fc5", "is_disabled": 0, "rental_uris": {"android": "https://dc.lft.to/lastmile_qr_scan", "ios": "https://dc.lft.to/lastmile_qr_scan"}, "type": "electric_scooter", "lat": 38.92869066666667, "is_reserved": 0, "fusion_lat": 0.0}, {"bike_id": "d609c927212ce9f495f47922a9c3e2c7", "fusion_lon": 0.0, "lon": -77.02303666666667, "name": "d609c927212ce9f495f47922a9c3e2c7", "is_disabled": 0, "rental_uris": {"android": "https://dc.lft.to/lastmile_qr_scan", "ios": "https://dc.lft.to/lastmile_qr_scan"}, "type": "electric_scooter", "lat": 38.91549233333333, "is_reserved": 0, "fusion_lat": 0.0}, {"bike_id": "f8aea4ce42e38bef775b271eef33bc73", "fusion_lon": 0.0, "lon": -77.04368633333333, "name": "f8aea4ce42e38bef775b271eef33bc73", "is_disabled": 0, "rental_uris": {"android": "https://dc.lft.to/lastmile_qr_scan", "ios": "https://dc.lft.to/lastmile_qr_scan"}, "type": "electric_scooter", "lat": 38.89218983333333, "is_reserved": 0, "fusion_lat": 0.0}, {"bike_id": "3ba7aaaf0b81fd91aa9150ab21627634", "fusion_lon": 0.0, "lon": -77.01381966666666, "name": "3ba7aaaf0b81fd91aa9150ab21627634", "is_disabled": 0, "rental_uris": {"android": "https://dc.lft.to/lastmile_qr_scan", "ios": "https://dc.lft.to/lastmile_qr_scan"}, "type": "electric_scooter", "lat": 38.886726833333334, "is_reserved": 0, "fusion_lat": 0.0}, {"bike_id": "ce5a347b9a9a835f93bebd699196398c", "fusion_lon": 0.0, "lon": -76.94876883333333, "name": "ce5a347b9a9a835f93bebd699196398c", "is_disabled": 0, "rental_uris": {"android": "https://dc.lft.to/lastmile_qr_scan", "ios": "https://dc.lft.to/lastmile_qr_scan"}, "type": "electric_scooter", "lat": 38.89500616666667, "is_reserved": 0, "fusion_lat": 0.0}, {"bike_id": "8889820152c45ae95973a1bcb6816404", "fusion_lon": 0.0, "lon": -77.0259375, "name": "8889820152c45ae95973a1bcb6816404", "is_disabled": 0, "rental_uris": {"android": "https://dc.lft.to/lastmile_qr_scan", "ios": "https://dc.lft.to/lastmile_qr_scan"}, "type": "electric_scooter", "lat": 38.906093166666665, "is_reserved": 0, "fusion_lat": 0.0}, {"bike_id": "ea5fdf6c2a693e215bea6107d8d47f69", "fusion_lon": 0.0, "lon": -77.00347866666667, "name": "ea5fdf6c2a693e215bea6107d8d47f69", "is_disabled": 0, "rental_uris": {"android": "https://dc.lft.to/lastmile_qr_scan", "ios": "https://dc.lft.to/lastmile_qr_scan"}, "type": "electric_scooter", "lat": 38.90721816666667, "is_reserved": 0, "fusion_lat": 0.0}, {"bike_id": "e998ce473ec22b422dee177a0dfaa5cb", "fusion_lon": 0.0, "lon": -77.04022133333333, "name": "e998ce473ec22b422dee177a0dfaa5cb", "is_disabled": 0, "rental_uris": {"android": "https://dc.lft.to/lastmile_qr_scan", "ios": "https://dc.lft.to/lastmile_qr_scan"}, "type": "electric_scooter", "lat": 38.922628333333336, "is_reserved": 0, "fusion_lat": 0.0}, {"bike_id": "e06956fe5d5f1ea0a7783b60a3e9cea3", "fusion_lon": 0.0, "lon": -77.04347416666667, "name": "e06956fe5d5f1ea0a7783b60a3e9cea3", "is_disabled": 0, "rental_uris": {"android": "https://dc.lft.to/lastmile_qr_scan", "ios": "https://dc.lft.to/lastmile_qr_scan"}, "type": "electric_scooter", "lat": 38.91100133333333, "is_reserved": 0, "fusion_lat": 0.0}, {"bike_id": "83d67bb776afaf34cd5e828690ebb02c", "fusion_lon": 0.0, "lon": -77.00207033333334, "name": "83d67bb776afaf34cd5e828690ebb02c", "is_disabled": 0, "rental_uris": {"android": "https://dc.lft.to/lastmile_qr_scan", "ios": "https://dc.lft.to/lastmile_qr_scan"}, "type": "electric_bike", "lat": 38.81936183333333, "is_reserved": 0, "fusion_lat": 0.0}, {"bike_id": "0f0a0258f15365c52077ed55b3c53b3a", "fusion_lon": 0.0, "lon": -77.0280725, "name": "0f0a0258f15365c52077ed55b3c53b3a", "is_disabled": 0, "rental_uris": {"android": "https://dc.lft.to/lastmile_qr_scan", "ios": "https://dc.lft.to/lastmile_qr_scan"}, "type": "electric_scooter", "lat": 38.91136816666667, "is_reserved": 0, "fusion_lat": 0.0}, {"bike_id": "3d7f8e7ce2426eef945e8a034d62fa2f", "fusion_lon": 0.0, "lon": -77.03188583333333, "name": "3d7f8e7ce2426eef945e8a034d62fa2f", "is_disabled": 0, "rental_uris": {"android": "https://dc.lft.to/lastmile_qr_scan", "ios": "https://dc.lft.to/lastmile_qr_scan"}, "type": "electric_scooter", "lat": 38.91762683333333, "is_reserved": 0, "fusion_lat": 0.0}, {"bike_id": "41d6e6fce3d0a02d2389b2a500c519a6", "fusion_lon": 0.0, "lon": -77.02511166666666, "name": "41d6e6fce3d0a02d2389b2a500c519a6", "is_disabled": 0, "rental_uris": {"android": "https://dc.lft.to/lastmile_qr_scan", "ios": "https://dc.lft.to/lastmile_qr_scan"}, "type": "electric_scooter", "lat": 38.92648916666667, "is_reserved": 0, "fusion_lat": 0.0}, {"bike_id": "378e1bd77945dd04664f2cb1c7c3af80", "fusion_lon": 0.0, "lon": -77.04129033333334, "name": "378e1bd77945dd04664f2cb1c7c3af80", "is_disabled": 0, "rental_uris": {"android": "https://dc.lft.to/lastmile_qr_scan", "ios": "https://dc.lft.to/lastmile_qr_scan"}, "type": "electric_bike", "lat": 38.8049355, "is_reserved": 0, "fusion_lat": 0.0}, {"bike_id": "4350089ad26f861ac5295c47598c52bc", "fusion_lon": 0.0, "lon": -77.00678633333334, "name": "4350089ad26f861ac5295c47598c52bc", "is_disabled": 0, "rental_uris": {"android": "https://dc.lft.to/lastmile_qr_scan", "ios": "https://dc.lft.to/lastmile_qr_scan"}, "type": "electric_scooter", "lat": 38.89998033333333, "is_reserved": 0, "fusion_lat": 0.0}, {"bike_id": "eb69c5e882fe96aa7955aa8ceb6e5bed", "fusion_lon": 0.0, "lon": -77.0239125, "name": "eb69c5e882fe96aa7955aa8ceb6e5bed", "is_disabled": 0, "rental_uris": {"android": "https://dc.lft.to/lastmile_qr_scan", "ios": "https://dc.lft.to/lastmile_qr_scan"}, "type": "electric_scooter", "lat": 38.917388, "is_reserved": 0, "fusion_lat": 0.0}, {"bike_id": "2803b8b9a20db97b56444744c4a7c5e8", "fusion_lon": 0.0, "lon": -77.187441, "name": "2803b8b9a20db97b56444744c4a7c5e8", "is_disabled": 0, "rental_uris": {"android": "https://dc.lft.to/lastmile_qr_scan", "ios": "https://dc.lft.to/lastmile_qr_scan"}, "type": "electric_bike", "lat": 38.893514833333334, "is_reserved": 0, "fusion_lat": 0.0}, {"bike_id": "58214c3111cc2a257f669ff9a6811f0f", "fusion_lon": 0.0, "lon": -77.05857683333333, "name": "58214c3111cc2a257f669ff9a6811f0f", "is_disabled": 0, "rental_uris": {"android": "https://dc.lft.to/lastmile_qr_scan", "ios": "https://dc.lft.to/lastmile_qr_scan"}, "type": "electric_scooter", "lat": 38.93608833333333, "is_reserved": 0, "fusion_lat": 0.0}, {"bike_id": "366951bdf68d6ba622c56ef1fec7f6bd", "fusion_lon": 0.0, "lon": -77.013067, "name": "366951bdf68d6ba622c56ef1fec7f6bd", "is_disabled": 0, "rental_uris": {"android": "https://dc.lft.to/lastmile_qr_scan", "ios": "https://dc.lft.to/lastmile_qr_scan"}, "type": "electric_scooter", "lat": 38.8815455, "is_reserved": 0, "fusion_lat": 0.0}, {"bike_id": "bdfd00ba3d73123650b0ce4ced2ffc8f", "fusion_lon": 0.0, "lon": -77.0366265, "name": "bdfd00ba3d73123650b0ce4ced2ffc8f", "is_disabled": 0, "rental_uris": {"android": "https://dc.lft.to/lastmile_qr_scan", "ios": "https://dc.lft.to/lastmile_qr_scan"}, "type": "electric_scooter", "lat": 38.9172335, "is_reserved": 0, "fusion_lat": 0.0}, {"bike_id": "d69bb6232566788bbadb521da3718e6d", "fusion_lon": 0.0, "lon": -77.03003983333333, "name": "d69bb6232566788bbadb521da3718e6d", "is_disabled": 0, "rental_uris": {"android": "https://dc.lft.to/lastmile_qr_scan", "ios": "https://dc.lft.to/lastmile_qr_scan"}, "type": "electric_scooter", "lat": 38.9008005, "is_reserved": 0, "fusion_lat": 0.0}, {"bike_id": "5c889331b4b7013739ea670cbdf83864", "fusion_lon": 0.0, "lon": -77.0447995, "name": "5c889331b4b7013739ea670cbdf83864", "is_disabled": 0, "rental_uris": {"android": "https://dc.lft.to/lastmile_qr_scan", "ios": "https://dc.lft.to/lastmile_qr_scan"}, "type": "electric_scooter", "lat": 38.909571, "is_reserved": 0, "fusion_lat": 0.0}, {"bike_id": "afeb651abe082dca16821e0054d0649c", "fusion_lon": 0.0, "lon": -77.02047516666667, "name": "afeb651abe082dca16821e0054d0649c", "is_disabled": 0, "rental_uris": {"android": "https://dc.lft.to/lastmile_qr_scan", "ios": "https://dc.lft.to/lastmile_qr_scan"}, "type": "electric_scooter", "lat": 38.9155705, "is_reserved": 0, "fusion_lat": 0.0}, {"bike_id": "725785e085b39666d06d1833f5ad50e1", "fusion_lon": 0.0, "lon": -77.03866016666667, "name": "725785e085b39666d06d1833f5ad50e1", "is_disabled": 0, "rental_uris": {"android": "https://dc.lft.to/lastmile_qr_scan", "ios": "https://dc.lft.to/lastmile_qr_scan"}, "type": "electric_scooter", "lat": 38.91555983333333, "is_reserved": 0, "fusion_lat": 0.0}, {"bike_id": "0b90b72f9c231f64c1d2ef509579577d", "fusion_lon": 0.0, "lon": -77.04415616666667, "name": "0b90b72f9c231f64c1d2ef509579577d", "is_disabled": 0, "rental_uris": {"android": "https://dc.lft.to/lastmile_qr_scan", "ios": "https://dc.lft.to/lastmile_qr_scan"}, "type": "electric_bike", "lat": 39.01568983333333, "is_reserved": 0, "fusion_lat": 0.0}, {"bike_id": "6c3a529c3cf28f0cdedc12105c2e1fc8", "fusion_lon": 0.0, "lon": -77.04367733333333, "name": "6c3a529c3cf28f0cdedc12105c2e1fc8", "is_disabled": 0, "rental_uris": {"android": "https://dc.lft.to/lastmile_qr_scan", "ios": "https://dc.lft.to/lastmile_qr_scan"}, "type": "electric_scooter", "lat": 38.8922405, "is_reserved": 0, "fusion_lat": 0.0}, {"bike_id": "04129dce8b9c749a345a1e51dc1d8676", "fusion_lon": 0.0, "lon": -77.02336566666666, "name": "04129dce8b9c749a345a1e51dc1d8676", "is_disabled": 0, "rental_uris": {"android": "https://dc.lft.to/lastmile_qr_scan", "ios": "https://dc.lft.to/lastmile_qr_scan"}, "type": "electric_scooter", "lat": 38.91766916666667, "is_reserved": 0, "fusion_lat": 0.0}, {"bike_id": "acb5a74f6901dcfb5c0538eb7afb835f", "fusion_lon": 0.0, "lon": -77.02963133333333, "name": "acb5a74f6901dcfb5c0538eb7afb835f", "is_disabled": 0, "rental_uris": {"android": "https://dc.lft.to/lastmile_qr_scan", "ios": "https://dc.lft.to/lastmile_qr_scan"}, "type": "electric_scooter", "lat": 38.92370016666667, "is_reserved": 0, "fusion_lat": 0.0}, {"bike_id": "dcaedca83c9debc3e585a0499ec733ea", "fusion_lon": 0.0, "lon": -77.0384615, "name": "dcaedca83c9debc3e585a0499ec733ea", "is_disabled": 0, "rental_uris": {"android": "https://dc.lft.to/lastmile_qr_scan", "ios": "https://dc.lft.to/lastmile_qr_scan"}, "type": "electric_scooter", "lat": 38.932472833333335, "is_reserved": 0, "fusion_lat": 0.0}, {"bike_id": "fb42a1e7af64131674d423c072f6f675", "fusion_lon": 0.0, "lon": -77.03166766666666, "name": "fb42a1e7af64131674d423c072f6f675", "is_disabled": 0, "rental_uris": {"android": "https://dc.lft.to/lastmile_qr_scan", "ios": "https://dc.lft.to/lastmile_qr_scan"}, "type": "electric_scooter", "lat": 38.919246666666666, "is_reserved": 0, "fusion_lat": 0.0}, {"bike_id": "f70e23ce692f1782dcfc52983913c2c9", "fusion_lon": 0.0, "lon": -77.042358, "name": "f70e23ce692f1782dcfc52983913c2c9", "is_disabled": 0, "rental_uris": {"android": "https://dc.lft.to/lastmile_qr_scan", "ios": "https://dc.lft.to/lastmile_qr_scan"}, "type": "electric_scooter", "lat": 38.90780783333334, "is_reserved": 0, "fusion_lat": 0.0}, {"bike_id": "90327c720c97c29bc875d68bff991bc9", "fusion_lon": 0.0, "lon": -77.032092, "name": "90327c720c97c29bc875d68bff991bc9", "is_disabled": 0, "rental_uris": {"android": "https://dc.lft.to/lastmile_qr_scan", "ios": "https://dc.lft.to/lastmile_qr_scan"}, "type": "electric_scooter", "lat": 38.914917, "is_reserved": 0, "fusion_lat": 0.0}, {"bike_id": "7d0bf89e5dd6106c9d6647f7f12b2b40", "fusion_lon": 0.0, "lon": -77.04473766666666, "name": "7d0bf89e5dd6106c9d6647f7f12b2b40", "is_disabled": 0, "rental_uris": {"android": "https://dc.lft.to/lastmile_qr_scan", "ios": "https://dc.lft.to/lastmile_qr_scan"}, "type": "electric_scooter", "lat": 38.9046405, "is_reserved": 0, "fusion_lat": 0.0}, {"bike_id": "162f4817d2a0f7daf62f7e1325ac151f", "fusion_lon": 0.0, "lon": -77.03185866666666, "name": "162f4817d2a0f7daf62f7e1325ac151f", "is_disabled": 0, "rental_uris": {"android": "https://dc.lft.to/lastmile_qr_scan", "ios": "https://dc.lft.to/lastmile_qr_scan"}, "type": "electric_scooter", "lat": 38.91209766666667, "is_reserved": 0, "fusion_lat": 0.0}, {"bike_id": "f366a82abb71be8421d3d655bf0fa86f", "fusion_lon": 0.0, "lon": -77.03147116666666, "name": "f366a82abb71be8421d3d655bf0fa86f", "is_disabled": 0, "rental_uris": {"android": "https://dc.lft.to/lastmile_qr_scan", "ios": "https://dc.lft.to/lastmile_qr_scan"}, "type": "electric_scooter", "lat": 38.915653166666665, "is_reserved": 0, "fusion_lat": 0.0}, {"bike_id": "f39e91d7d2407375ee810dca0505aced", "fusion_lon": 0.0, "lon": -77.048763, "name": "f39e91d7d2407375ee810dca0505aced", "is_disabled": 0, "rental_uris": {"android": "https://dc.lft.to/lastmile_qr_scan", "ios": "https://dc.lft.to/lastmile_qr_scan"}, "type": "electric_scooter", "lat": 38.90163366666667, "is_reserved": 0, "fusion_lat": 0.0}, {"bike_id": "44f104e191116ca6aa50e0592579d009", "fusion_lon": 0.0, "lon": -77.0882275, "name": "44f104e191116ca6aa50e0592579d009", "is_disabled": 0, "rental_uris": {"android": "https://dc.lft.to/lastmile_qr_scan", "ios": "https://dc.lft.to/lastmile_qr_scan"}, "type": "electric_bike", "lat": 38.9097065, "is_reserved": 0, "fusion_lat": 0.0}, {"bike_id": "77c6fcb5016e67e34e9c2000031f8bab", "fusion_lon": 0.0, "lon": -77.03209833333334, "name": "77c6fcb5016e67e34e9c2000031f8bab", "is_disabled": 0, "rental_uris": {"android": "https://dc.lft.to/lastmile_qr_scan", "ios": "https://dc.lft.to/lastmile_qr_scan"}, "type": "electric_scooter", "lat": 38.91474683333333, "is_reserved": 0, "fusion_lat": 0.0}, {"bike_id": "0635b72e41239b8e1675b7e41b1f35e4", "fusion_lon": 0.0, "lon": -77.04141416666667, "name": "0635b72e41239b8e1675b7e41b1f35e4", "is_disabled": 0, "rental_uris": {"android": "https://dc.lft.to/lastmile_qr_scan", "ios": "https://dc.lft.to/lastmile_qr_scan"}, "type": "electric_scooter", "lat": 38.9120565, "is_reserved": 0, "fusion_lat": 0.0}, {"bike_id": "4d0f5c00010dc20841813eb4903fc4a9", "fusion_lon": 0.0, "lon": -77.042823, "name": "4d0f5c00010dc20841813eb4903fc4a9", "is_disabled": 0, "rental_uris": {"android": "https://dc.lft.to/lastmile_qr_scan", "ios": "https://dc.lft.to/lastmile_qr_scan"}, "type": "electric_scooter", "lat": 38.914217666666666, "is_reserved": 0, "fusion_lat": 0.0}, {"bike_id": "f4c784cdb80bd2162b708e9dcaac6340", "fusion_lon": 0.0, "lon": -77.04344166666667, "name": "f4c784cdb80bd2162b708e9dcaac6340", "is_disabled": 0, "rental_uris": {"android": "https://dc.lft.to/lastmile_qr_scan", "ios": "https://dc.lft.to/lastmile_qr_scan"}, "type": "electric_scooter", "lat": 38.905111, "is_reserved": 0, "fusion_lat": 0.0}, {"bike_id": "b54019d71cc4aee792929ac51b636016", "fusion_lon": 0.0, "lon": -77.02555383333333, "name": "b54019d71cc4aee792929ac51b636016", "is_disabled": 0, "rental_uris": {"android": "https://dc.lft.to/lastmile_qr_scan", "ios": "https://dc.lft.to/lastmile_qr_scan"}, "type": "electric_scooter", "lat": 38.924975833333335, "is_reserved": 0, "fusion_lat": 0.0}, {"bike_id": "ebd3da5aa3a1294ad63b5838b69529f8", "fusion_lon": 0.0, "lon": -77.02978966666667, "name": "ebd3da5aa3a1294ad63b5838b69529f8", "is_disabled": 0, "rental_uris": {"android": "https://dc.lft.to/lastmile_qr_scan", "ios": "https://dc.lft.to/lastmile_qr_scan"}, "type": "electric_scooter", "lat": 38.92229483333333, "is_reserved": 0, "fusion_lat": 0.0}, {"bike_id": "fdc379390343ab5a9238c709bca998a2", "fusion_lon": 0.0, "lon": -77.04013533333334, "name": "fdc379390343ab5a9238c709bca998a2", "is_disabled": 0, "rental_uris": {"android": "https://dc.lft.to/lastmile_qr_scan", "ios": "https://dc.lft.to/lastmile_qr_scan"}, "type": "electric_scooter", "lat": 38.92177516666667, "is_reserved": 0, "fusion_lat": 0.0}, {"bike_id": "5c2308a1616c61b4a32bb337f99cb731", "fusion_lon": 0.0, "lon": -77.04892366666667, "name": "5c2308a1616c61b4a32bb337f99cb731", "is_disabled": 0, "rental_uris": {"android": "https://dc.lft.to/lastmile_qr_scan", "ios": "https://dc.lft.to/lastmile_qr_scan"}, "type": "electric_scooter", "lat": 38.906413, "is_reserved": 0, "fusion_lat": 0.0}, {"bike_id": "12fe9ed7c3aa23b851aef19ddc4c18ec", "fusion_lon": 0.0, "lon": -77.03298433333333, "name": "12fe9ed7c3aa23b851aef19ddc4c18ec", "is_disabled": 0, "rental_uris": {"android": "https://dc.lft.to/lastmile_qr_scan", "ios": "https://dc.lft.to/lastmile_qr_scan"}, "type": "electric_scooter", "lat": 38.95647233333333, "is_reserved": 0, "fusion_lat": 0.0}, {"bike_id": "c17aecadad6b2004d31da186ed331b08", "fusion_lon": 0.0, "lon": -77.02721616666666, "name": "c17aecadad6b2004d31da186ed331b08", "is_disabled": 0, "rental_uris": {"android": "https://dc.lft.to/lastmile_qr_scan", "ios": "https://dc.lft.to/lastmile_qr_scan"}, "type": "electric_scooter", "lat": 38.91812733333333, "is_reserved": 0, "fusion_lat": 0.0}, {"bike_id": "cae7b15f3b3a77ce4c7d6668b3133f35", "fusion_lon": 0.0, "lon": -76.98942016666666, "name": "cae7b15f3b3a77ce4c7d6668b3133f35", "is_disabled": 0, "rental_uris": {"android": "https://dc.lft.to/lastmile_qr_scan", "ios": "https://dc.lft.to/lastmile_qr_scan"}, "type": "electric_scooter", "lat": 38.90394933333334, "is_reserved": 0, "fusion_lat": 0.0}, {"bike_id": "49d9737ebd2cd1c9975946ac66027982", "fusion_lon": 0.0, "lon": -77.04999416666666, "name": "49d9737ebd2cd1c9975946ac66027982", "is_disabled": 0, "rental_uris": {"android": "https://dc.lft.to/lastmile_qr_scan", "ios": "https://dc.lft.to/lastmile_qr_scan"}, "type": "electric_scooter", "lat": 38.894014, "is_reserved": 0, "fusion_lat": 0.0}, {"bike_id": "3f0e3b256fe521d6414ece44d20c8190", "fusion_lon": 0.0, "lon": -76.99516033333333, "name": "3f0e3b256fe521d6414ece44d20c8190", "is_disabled": 0, "rental_uris": {"android": "https://dc.lft.to/lastmile_qr_scan", "ios": "https://dc.lft.to/lastmile_qr_scan"}, "type": "electric_scooter", "lat": 38.92065066666667, "is_reserved": 0, "fusion_lat": 0.0}, {"bike_id": "4d53a1adc0046da7ed5a6ba139291eb4", "fusion_lon": 0.0, "lon": -77.00122433333334, "name": "4d53a1adc0046da7ed5a6ba139291eb4", "is_disabled": 0, "rental_uris": {"android": "https://dc.lft.to/lastmile_qr_scan", "ios": "https://dc.lft.to/lastmile_qr_scan"}, "type": "electric_scooter", "lat": 38.87796566666667, "is_reserved": 0, "fusion_lat": 0.0}, {"bike_id": "3cec087b33623b13b33e08c8ab54007f", "fusion_lon": 0.0, "lon": -77.09485083333334, "name": "3cec087b33623b13b33e08c8ab54007f", "is_disabled": 0, "rental_uris": {"android": "https://dc.lft.to/lastmile_qr_scan", "ios": "https://dc.lft.to/lastmile_qr_scan"}, "type": "electric_bike", "lat": 39.030483333333336, "is_reserved": 0, "fusion_lat": 0.0}, {"bike_id": "f14018403ef6d0f9f6e9ab43e4f0c35a", "fusion_lon": 0.0, "lon": -77.02398633333334, "name": "f14018403ef6d0f9f6e9ab43e4f0c35a", "is_disabled": 0, "rental_uris": {"android": "https://dc.lft.to/lastmile_qr_scan", "ios": "https://dc.lft.to/lastmile_qr_scan"}, "type": "electric_scooter", "lat": 38.917378166666666, "is_reserved": 0, "fusion_lat": 0.0}, {"bike_id": "2b3de351c60d47cb5a6427d3c4fc1548", "fusion_lon": 0.0, "lon": -77.03047616666667, "name": "2b3de351c60d47cb5a6427d3c4fc1548", "is_disabled": 0, "rental_uris": {"android": "https://dc.lft.to/lastmile_qr_scan", "ios": "https://dc.lft.to/lastmile_qr_scan"}, "type": "electric_scooter", "lat": 38.884338, "is_reserved": 0, "fusion_lat": 0.0}, {"bike_id": "40687220a14a29992c9ec433ed865845", "fusion_lon": 0.0, "lon": -76.97334216666667, "name": "40687220a14a29992c9ec433ed865845", "is_disabled": 0, "rental_uris": {"android": "https://dc.lft.to/lastmile_qr_scan", "ios": "https://dc.lft.to/lastmile_qr_scan"}, "type": "electric_scooter", "lat": 38.904093, "is_reserved": 0, "fusion_lat": 0.0}, {"bike_id": "8acbf12d56346394fd94f6ec7ce15771", "fusion_lon": 0.0, "lon": -77.03558233333334, "name": "8acbf12d56346394fd94f6ec7ce15771", "is_disabled": 0, "rental_uris": {"android": "https://dc.lft.to/lastmile_qr_scan", "ios": "https://dc.lft.to/lastmile_qr_scan"}, "type": "electric_scooter", "lat": 38.924817833333336, "is_reserved": 0, "fusion_lat": 0.0}, {"bike_id": "b0712f4d866f04030652ef44f40c4006", "fusion_lon": 0.0, "lon": -77.04885616666667, "name": "b0712f4d866f04030652ef44f40c4006", "is_disabled": 0, "rental_uris": {"android": "https://dc.lft.to/lastmile_qr_scan", "ios": "https://dc.lft.to/lastmile_qr_scan"}, "type": "electric_scooter", "lat": 38.913398666666666, "is_reserved": 0, "fusion_lat": 0.0}, {"bike_id": "6b8e620ffa72910516c98203222c0a83", "fusion_lon": 0.0, "lon": -77.02094366666667, "name": "6b8e620ffa72910516c98203222c0a83", "is_disabled": 0, "rental_uris": {"android": "https://dc.lft.to/lastmile_qr_scan", "ios": "https://dc.lft.to/lastmile_qr_scan"}, "type": "electric_scooter", "lat": 38.8755935, "is_reserved": 0, "fusion_lat": 0.0}, {"bike_id": "c0f7d38fdd1313f38a2d3305ff8f7347", "fusion_lon": 0.0, "lon": -77.06337466666666, "name": "c0f7d38fdd1313f38a2d3305ff8f7347", "is_disabled": 0, "rental_uris": {"android": "https://dc.lft.to/lastmile_qr_scan", "ios": "https://dc.lft.to/lastmile_qr_scan"}, "type": "electric_scooter", "lat": 38.90685766666667, "is_reserved": 0, "fusion_lat": 0.0}, {"bike_id": "e39350a1057aa10d709308acaf45ac20", "fusion_lon": 0.0, "lon": -77.0336265, "name": "e39350a1057aa10d709308acaf45ac20", "is_disabled": 0, "rental_uris": {"android": "https://dc.lft.to/lastmile_qr_scan", "ios": "https://dc.lft.to/lastmile_qr_scan"}, "type": "electric_scooter", "lat": 38.91360266666667, "is_reserved": 0, "fusion_lat": 0.0}, {"bike_id": "897ea70e80c08edca4ccb4e5cbffd491", "fusion_lon": 0.0, "lon": -77.06528866666666, "name": "897ea70e80c08edca4ccb4e5cbffd491", "is_disabled": 0, "rental_uris": {"android": "https://dc.lft.to/lastmile_qr_scan", "ios": "https://dc.lft.to/lastmile_qr_scan"}, "type": "electric_scooter", "lat": 38.90296033333333, "is_reserved": 0, "fusion_lat": 0.0}, {"bike_id": "70102be7605c782cbd88c633a40c8077", "fusion_lon": 0.0, "lon": -77.0249135, "name": "70102be7605c782cbd88c633a40c8077", "is_disabled": 0, "rental_uris": {"android": "https://dc.lft.to/lastmile_qr_scan", "ios": "https://dc.lft.to/lastmile_qr_scan"}, "type": "electric_scooter", "lat": 38.941856333333334, "is_reserved": 0, "fusion_lat": 0.0}, {"bike_id": "e185e70ff77d2a7bbca8a8883033896f", "fusion_lon": 0.0, "lon": -77.0057385, "name": "e185e70ff77d2a7bbca8a8883033896f", "is_disabled": 0, "rental_uris": {"android": "https://dc.lft.to/lastmile_qr_scan", "ios": "https://dc.lft.to/lastmile_qr_scan"}, "type": "electric_scooter", "lat": 38.87250683333333, "is_reserved": 0, "fusion_lat": 0.0}, {"bike_id": "5bcba88086a3f73d5c3356175b7bdb0d", "fusion_lon": 0.0, "lon": -77.032942, "name": "5bcba88086a3f73d5c3356175b7bdb0d", "is_disabled": 0, "rental_uris": {"android": "https://dc.lft.to/lastmile_qr_scan", "ios": "https://dc.lft.to/lastmile_qr_scan"}, "type": "electric_scooter", "lat": 38.94712533333333, "is_reserved": 0, "fusion_lat": 0.0}, {"bike_id": "b576344c9e64d7df8e32f1e8f68c4b1f", "fusion_lon": 0.0, "lon": -77.03328383333333, "name": "b576344c9e64d7df8e32f1e8f68c4b1f", "is_disabled": 0, "rental_uris": {"android": "https://dc.lft.to/lastmile_qr_scan", "ios": "https://dc.lft.to/lastmile_qr_scan"}, "type": "electric_scooter", "lat": 38.913577, "is_reserved": 0, "fusion_lat": 0.0}, {"bike_id": "d7b9b8198041dce408f575e545897144", "fusion_lon": 0.0, "lon": -77.01371666666667, "name": "d7b9b8198041dce408f575e545897144", "is_disabled": 0, "rental_uris": {"android": "https://dc.lft.to/lastmile_qr_scan", "ios": "https://dc.lft.to/lastmile_qr_scan"}, "type": "electric_scooter", "lat": 38.89218366666667, "is_reserved": 0, "fusion_lat": 0.0}, {"bike_id": "9bf8885f559357d1ad389dee4a8c727e", "fusion_lon": 0.0, "lon": -77.04188666666667, "name": "9bf8885f559357d1ad389dee4a8c727e", "is_disabled": 0, "rental_uris": {"android": "https://dc.lft.to/lastmile_qr_scan", "ios": "https://dc.lft.to/lastmile_qr_scan"}, "type": "electric_scooter", "lat": 38.89285916666667, "is_reserved": 0, "fusion_lat": 0.0}, {"bike_id": "2001eed4bf877ec58a971635c5c73bfb", "fusion_lon": 0.0, "lon": -77.068779, "name": "2001eed4bf877ec58a971635c5c73bfb", "is_disabled": 0, "rental_uris": {"android": "https://dc.lft.to/lastmile_qr_scan", "ios": "https://dc.lft.to/lastmile_qr_scan"}, "type": "electric_bike", "lat": 38.9275935, "is_reserved": 0, "fusion_lat": 0.0}, {"bike_id": "b8d939f854ede85fd15b15e484496ca4", "fusion_lon": 0.0, "lon": -77.00568333333334, "name": "b8d939f854ede85fd15b15e484496ca4", "is_disabled": 0, "rental_uris": {"android": "https://dc.lft.to/lastmile_qr_scan", "ios": "https://dc.lft.to/lastmile_qr_scan"}, "type": "electric_scooter", "lat": 38.8790605, "is_reserved": 0, "fusion_lat": 0.0}, {"bike_id": "175aa646ab6d1eff989b0cca748a5d9c", "fusion_lon": 0.0, "lon": -77.04285883333333, "name": "175aa646ab6d1eff989b0cca748a5d9c", "is_disabled": 0, "rental_uris": {"android": "https://dc.lft.to/lastmile_qr_scan", "ios": "https://dc.lft.to/lastmile_qr_scan"}, "type": "electric_scooter", "lat": 38.920624333333336, "is_reserved": 0, "fusion_lat": 0.0}, {"bike_id": "6cc7bafbb08293dd21fa6005a3db9a22", "fusion_lon": 0.0, "lon": -77.02449333333334, "name": "6cc7bafbb08293dd21fa6005a3db9a22", "is_disabled": 0, "rental_uris": {"android": "https://dc.lft.to/lastmile_qr_scan", "ios": "https://dc.lft.to/lastmile_qr_scan"}, "type": "electric_scooter", "lat": 38.92049516666667, "is_reserved": 0, "fusion_lat": 0.0}, {"bike_id": "dceea8631f0a6a828c8b03c4a823f6d3", "fusion_lon": 0.0, "lon": -77.03526466666666, "name": "dceea8631f0a6a828c8b03c4a823f6d3", "is_disabled": 0, "rental_uris": {"android": "https://dc.lft.to/lastmile_qr_scan", "ios": "https://dc.lft.to/lastmile_qr_scan"}, "type": "electric_scooter", "lat": 38.9231455, "is_reserved": 0, "fusion_lat": 0.0}, {"bike_id": "6331131bffae70e1854a90546fcb477b", "fusion_lon": 0.0, "lon": -77.03271683333334, "name": "6331131bffae70e1854a90546fcb477b", "is_disabled": 0, "rental_uris": {"android": "https://dc.lft.to/lastmile_qr_scan", "ios": "https://dc.lft.to/lastmile_qr_scan"}, "type": "electric_scooter", "lat": 38.92995, "is_reserved": 0, "fusion_lat": 0.0}, {"bike_id": "564e114e1a942b0355fdd61b0467b794", "fusion_lon": 0.0, "lon": -77.09483566666667, "name": "564e114e1a942b0355fdd61b0467b794", "is_disabled": 0, "rental_uris": {"android": "https://dc.lft.to/lastmile_qr_scan", "ios": "https://dc.lft.to/lastmile_qr_scan"}, "type": "electric_bike", "lat": 39.030443166666664, "is_reserved": 0, "fusion_lat": 0.0}, {"bike_id": "192beed1b2b5371b6c1dc42038cc5227", "fusion_lon": 0.0, "lon": -77.02964383333334, "name": "192beed1b2b5371b6c1dc42038cc5227", "is_disabled": 0, "rental_uris": {"android": "https://dc.lft.to/lastmile_qr_scan", "ios": "https://dc.lft.to/lastmile_qr_scan"}, "type": "electric_scooter", "lat": 38.92371133333333, "is_reserved": 0, "fusion_lat": 0.0}, {"bike_id": "0bdeca1b9a40b407d9ee33e25e486c4a", "fusion_lon": 0.0, "lon": -77.13101416666666, "name": "0bdeca1b9a40b407d9ee33e25e486c4a", "is_disabled": 0, "rental_uris": {"android": "https://dc.lft.to/lastmile_qr_scan", "ios": "https://dc.lft.to/lastmile_qr_scan"}, "type": "electric_bike", "lat": 39.024264333333335, "is_reserved": 0, "fusion_lat": 0.0}, {"bike_id": "3cbc41e8b1383a6cbb94fec9f870cc8e", "fusion_lon": 0.0, "lon": -77.02653, "name": "3cbc41e8b1383a6cbb94fec9f870cc8e", "is_disabled": 0, "rental_uris": {"android": "https://dc.lft.to/lastmile_qr_scan", "ios": "https://dc.lft.to/lastmile_qr_scan"}, "type": "electric_scooter", "lat": 38.89219166666667, "is_reserved": 0, "fusion_lat": 0.0}, {"bike_id": "280e345520f77094d7eb622385edbc06", "fusion_lon": 0.0, "lon": -77.00020683333334, "name": "280e345520f77094d7eb622385edbc06", "is_disabled": 0, "rental_uris": {"android": "https://dc.lft.to/lastmile_qr_scan", "ios": "https://dc.lft.to/lastmile_qr_scan"}, "type": "electric_scooter", "lat": 38.90028816666667, "is_reserved": 0, "fusion_lat": 0.0}, {"bike_id": "257f4d9bab157198fbd8b689da19111b", "fusion_lon": 0.0, "lon": -76.990022, "name": "257f4d9bab157198fbd8b689da19111b", "is_disabled": 0, "rental_uris": {"android": "https://dc.lft.to/lastmile_qr_scan", "ios": "https://dc.lft.to/lastmile_qr_scan"}, "type": "electric_scooter", "lat": 38.92453666666667, "is_reserved": 0, "fusion_lat": 0.0}, {"bike_id": "03936a2b4571aad216aa50a2bf99d863", "fusion_lon": 0.0, "lon": -77.04660766666667, "name": "03936a2b4571aad216aa50a2bf99d863", "is_disabled": 0, "rental_uris": {"android": "https://dc.lft.to/lastmile_qr_scan", "ios": "https://dc.lft.to/lastmile_qr_scan"}, "type": "electric_scooter", "lat": 38.90544233333333, "is_reserved": 0, "fusion_lat": 0.0}, {"bike_id": "c0e5732d411d094413470b6340c9a7a2", "fusion_lon": 0.0, "lon": -77.02705633333333, "name": "c0e5732d411d094413470b6340c9a7a2", "is_disabled": 0, "rental_uris": {"android": "https://dc.lft.to/lastmile_qr_scan", "ios": "https://dc.lft.to/lastmile_qr_scan"}, "type": "electric_scooter", "lat": 38.906703, "is_reserved": 0, "fusion_lat": 0.0}, {"bike_id": "7b8912059e8cce1593a5a565074fd38d", "fusion_lon": 0.0, "lon": -77.02846416666667, "name": "7b8912059e8cce1593a5a565074fd38d", "is_disabled": 0, "rental_uris": {"android": "https://dc.lft.to/lastmile_qr_scan", "ios": "https://dc.lft.to/lastmile_qr_scan"}, "type": "electric_scooter", "lat": 38.96110566666667, "is_reserved": 0, "fusion_lat": 0.0}, {"bike_id": "f2f0408af63c626729c1b43c1f852cb9", "fusion_lon": 0.0, "lon": -77.03098083333333, "name": "f2f0408af63c626729c1b43c1f852cb9", "is_disabled": 0, "rental_uris": {"android": "https://dc.lft.to/lastmile_qr_scan", "ios": "https://dc.lft.to/lastmile_qr_scan"}, "type": "electric_scooter", "lat": 38.9386045, "is_reserved": 0, "fusion_lat": 0.0}, {"bike_id": "d13dbf0ce32e502e158ea23ce9b698ea", "fusion_lon": 0.0, "lon": -77.06080333333334, "name": "d13dbf0ce32e502e158ea23ce9b698ea", "is_disabled": 0, "rental_uris": {"android": "https://dc.lft.to/lastmile_qr_scan", "ios": "https://dc.lft.to/lastmile_qr_scan"}, "type": "electric_bike", "lat": 38.88577566666667, "is_reserved": 0, "fusion_lat": 0.0}, {"bike_id": "fba868a52aeff55e5fe665553a7c8445", "fusion_lon": 0.0, "lon": -77.03368466666667, "name": "fba868a52aeff55e5fe665553a7c8445", "is_disabled": 0, "rental_uris": {"android": "https://dc.lft.to/lastmile_qr_scan", "ios": "https://dc.lft.to/lastmile_qr_scan"}, "type": "electric_scooter", "lat": 38.9321755, "is_reserved": 0, "fusion_lat": 0.0}, {"bike_id": "54bf7759de7bac1dc92e02f5f08cc4d0", "fusion_lon": 0.0, "lon": -77.01477916666667, "name": "54bf7759de7bac1dc92e02f5f08cc4d0", "is_disabled": 0, "rental_uris": {"android": "https://dc.lft.to/lastmile_qr_scan", "ios": "https://dc.lft.to/lastmile_qr_scan"}, "type": "electric_scooter", "lat": 38.8763275, "is_reserved": 0, "fusion_lat": 0.0}, {"bike_id": "c7d461e93374c1beacad23734991c432", "fusion_lon": 0.0, "lon": -76.98520266666667, "name": "c7d461e93374c1beacad23734991c432", "is_disabled": 0, "rental_uris": {"android": "https://dc.lft.to/lastmile_qr_scan", "ios": "https://dc.lft.to/lastmile_qr_scan"}, "type": "electric_scooter", "lat": 38.86654333333333, "is_reserved": 0, "fusion_lat": 0.0}, {"bike_id": "d29fa632ae9576e7b489fd8bec821559", "fusion_lon": 0.0, "lon": -77.02186983333333, "name": "d29fa632ae9576e7b489fd8bec821559", "is_disabled": 0, "rental_uris": {"android": "https://dc.lft.to/lastmile_qr_scan", "ios": "https://dc.lft.to/lastmile_qr_scan"}, "type": "electric_scooter", "lat": 38.915015, "is_reserved": 0, "fusion_lat": 0.0}, {"bike_id": "6fee8cec309b50aa10142c542514ecf1", "fusion_lon": 0.0, "lon": -77.0431665, "name": "6fee8cec309b50aa10142c542514ecf1", "is_disabled": 0, "rental_uris": {"android": "https://dc.lft.to/lastmile_qr_scan", "ios": "https://dc.lft.to/lastmile_qr_scan"}, "type": "electric_scooter", "lat": 38.923767, "is_reserved": 0, "fusion_lat": 0.0}, {"bike_id": "b8d145cc1c7e8dc924dc011d3d3bf42c", "fusion_lon": 0.0, "lon": -77.017713, "name": "b8d145cc1c7e8dc924dc011d3d3bf42c", "is_disabled": 0, "rental_uris": {"android": "https://dc.lft.to/lastmile_qr_scan", "ios": "https://dc.lft.to/lastmile_qr_scan"}, "type": "electric_bike", "lat": 38.882944333333334, "is_reserved": 0, "fusion_lat": 0.0}, {"bike_id": "f44f7203819edeb5d004c8ebb4e0d465", "fusion_lon": 0.0, "lon": -76.93174366666666, "name": "f44f7203819edeb5d004c8ebb4e0d465", "is_disabled": 0, "rental_uris": {"android": "https://dc.lft.to/lastmile_qr_scan", "ios": "https://dc.lft.to/lastmile_qr_scan"}, "type": "electric_scooter", "lat": 38.89884333333333, "is_reserved": 0, "fusion_lat": 0.0}, {"bike_id": "d4ea2d4686e6b8722c64e1fb361b1d1b", "fusion_lon": 0.0, "lon": -77.050064, "name": "d4ea2d4686e6b8722c64e1fb361b1d1b", "is_disabled": 0, "rental_uris": {"android": "https://dc.lft.to/lastmile_qr_scan", "ios": "https://dc.lft.to/lastmile_qr_scan"}, "type": "electric_scooter", "lat": 38.89227833333333, "is_reserved": 0, "fusion_lat": 0.0}, {"bike_id": "f4a002b1699b53d957d3b561209c9767", "fusion_lon": 0.0, "lon": -77.035859, "name": "f4a002b1699b53d957d3b561209c9767", "is_disabled": 0, "rental_uris": {"android": "https://dc.lft.to/lastmile_qr_scan", "ios": "https://dc.lft.to/lastmile_qr_scan"}, "type": "electric_scooter", "lat": 38.91875316666667, "is_reserved": 0, "fusion_lat": 0.0}, {"bike_id": "b6a7316ec5e84d244a0dc4a3a3fd52b0", "fusion_lon": 0.0, "lon": -76.99781333333334, "name": "b6a7316ec5e84d244a0dc4a3a3fd52b0", "is_disabled": 0, "rental_uris": {"android": "https://dc.lft.to/lastmile_qr_scan", "ios": "https://dc.lft.to/lastmile_qr_scan"}, "type": "electric_bike", "lat": 38.862094666666664, "is_reserved": 0, "fusion_lat": 0.0}, {"bike_id": "dd3f57e205c89dc0a40db6785d1a7e8d", "fusion_lon": 0.0, "lon": -77.039903, "name": "dd3f57e205c89dc0a40db6785d1a7e8d", "is_disabled": 0, "rental_uris": {"android": "https://dc.lft.to/lastmile_qr_scan", "ios": "https://dc.lft.to/lastmile_qr_scan"}, "type": "electric_scooter", "lat": 38.905502166666665, "is_reserved": 0, "fusion_lat": 0.0}, {"bike_id": "2def137bca6610e0520e58e8ce795774", "fusion_lon": 0.0, "lon": -77.0364495, "name": "2def137bca6610e0520e58e8ce795774", "is_disabled": 0, "rental_uris": {"android": "https://dc.lft.to/lastmile_qr_scan", "ios": "https://dc.lft.to/lastmile_qr_scan"}, "type": "electric_scooter", "lat": 38.91121183333333, "is_reserved": 0, "fusion_lat": 0.0}, {"bike_id": "bb30ab6a415aeabc21737a060ba9ff3c", "fusion_lon": 0.0, "lon": -77.00351833333333, "name": "bb30ab6a415aeabc21737a060ba9ff3c", "is_disabled": 0, "rental_uris": {"android": "https://dc.lft.to/lastmile_qr_scan", "ios": "https://dc.lft.to/lastmile_qr_scan"}, "type": "electric_scooter", "lat": 38.901386, "is_reserved": 0, "fusion_lat": 0.0}, {"bike_id": "f72ce0a24227bb60cd6ff36b43222ef4", "fusion_lon": 0.0, "lon": -77.02177166666667, "name": "f72ce0a24227bb60cd6ff36b43222ef4", "is_disabled": 0, "rental_uris": {"android": "https://dc.lft.to/lastmile_qr_scan", "ios": "https://dc.lft.to/lastmile_qr_scan"}, "type": "electric_scooter", "lat": 38.8831995, "is_reserved": 0, "fusion_lat": 0.0}, {"bike_id": "ed0d07785ebb0649023856eb14fea500", "fusion_lon": 0.0, "lon": -77.04318516666666, "name": "ed0d07785ebb0649023856eb14fea500", "is_disabled": 0, "rental_uris": {"android": "https://dc.lft.to/lastmile_qr_scan", "ios": "https://dc.lft.to/lastmile_qr_scan"}, "type": "electric_scooter", "lat": 38.900080833333334, "is_reserved": 0, "fusion_lat": 0.0}, {"bike_id": "5c5aaf31ad1884c943b2256cb582633d", "fusion_lon": 0.0, "lon": -76.98558416666667, "name": "5c5aaf31ad1884c943b2256cb582633d", "is_disabled": 0, "rental_uris": {"android": "https://dc.lft.to/lastmile_qr_scan", "ios": "https://dc.lft.to/lastmile_qr_scan"}, "type": "electric_bike", "lat": 38.914866, "is_reserved": 0, "fusion_lat": 0.0}, {"bike_id": "feb5fded4aefff65f6daad5fed2122f5", "fusion_lon": 0.0, "lon": -77.04327433333333, "name": "feb5fded4aefff65f6daad5fed2122f5", "is_disabled": 0, "rental_uris": {"android": "https://dc.lft.to/lastmile_qr_scan", "ios": "https://dc.lft.to/lastmile_qr_scan"}, "type": "electric_scooter", "lat": 38.89224383333333, "is_reserved": 0, "fusion_lat": 0.0}, {"bike_id": "d4815033af28258880ac82ad1482d403", "fusion_lon": 0.0, "lon": -77.23321533333333, "name": "d4815033af28258880ac82ad1482d403", "is_disabled": 0, "rental_uris": {"android": "https://dc.lft.to/lastmile_qr_scan", "ios": "https://dc.lft.to/lastmile_qr_scan"}, "type": "electric_bike", "lat": 38.87284733333333, "is_reserved": 0, "fusion_lat": 0.0}, {"bike_id": "b1b1106401cf80262867d30796172757", "fusion_lon": 0.0, "lon": -76.9949655, "name": "b1b1106401cf80262867d30796172757", "is_disabled": 0, "rental_uris": {"android": "https://dc.lft.to/lastmile_qr_scan", "ios": "https://dc.lft.to/lastmile_qr_scan"}, "type": "electric_scooter", "lat": 38.8624255, "is_reserved": 0, "fusion_lat": 0.0}, {"bike_id": "5f0b47c5a45ea30e37440600833eea52", "fusion_lon": 0.0, "lon": -76.98009933333333, "name": "5f0b47c5a45ea30e37440600833eea52", "is_disabled": 0, "rental_uris": {"android": "https://dc.lft.to/lastmile_qr_scan", "ios": "https://dc.lft.to/lastmile_qr_scan"}, "type": "electric_scooter", "lat": 38.907765833333336, "is_reserved": 0, "fusion_lat": 0.0}, {"bike_id": "517a0883c6d1da74c9c1d0f25f858ebe", "fusion_lon": 0.0, "lon": -77.04424933333334, "name": "517a0883c6d1da74c9c1d0f25f858ebe", "is_disabled": 0, "rental_uris": {"android": "https://dc.lft.to/lastmile_qr_scan", "ios": "https://dc.lft.to/lastmile_qr_scan"}, "type": "electric_scooter", "lat": 38.9100485, "is_reserved": 0, "fusion_lat": 0.0}, {"bike_id": "871b3bfe994056db600590f640add282", "fusion_lon": 0.0, "lon": -77.04005366666667, "name": "871b3bfe994056db600590f640add282", "is_disabled": 0, "rental_uris": {"android": "https://dc.lft.to/lastmile_qr_scan", "ios": "https://dc.lft.to/lastmile_qr_scan"}, "type": "electric_scooter", "lat": 38.91001033333333, "is_reserved": 0, "fusion_lat": 0.0}, {"bike_id": "81607697dd9f828373761bbe040f44b8", "fusion_lon": 0.0, "lon": -77.04327983333333, "name": "81607697dd9f828373761bbe040f44b8", "is_disabled": 0, "rental_uris": {"android": "https://dc.lft.to/lastmile_qr_scan", "ios": "https://dc.lft.to/lastmile_qr_scan"}, "type": "electric_scooter", "lat": 38.8922425, "is_reserved": 0, "fusion_lat": 0.0}, {"bike_id": "e1dd1cfc3e95afa2443e9da214670298", "fusion_lon": 0.0, "lon": -77.04375116666667, "name": "e1dd1cfc3e95afa2443e9da214670298", "is_disabled": 0, "rental_uris": {"android": "https://dc.lft.to/lastmile_qr_scan", "ios": "https://dc.lft.to/lastmile_qr_scan"}, "type": "electric_scooter", "lat": 38.911172, "is_reserved": 0, "fusion_lat": 0.0}, {"bike_id": "c21ec69da250b912c305c25fa91258a5", "fusion_lon": 0.0, "lon": -77.00217633333334, "name": "c21ec69da250b912c305c25fa91258a5", "is_disabled": 0, "rental_uris": {"android": "https://dc.lft.to/lastmile_qr_scan", "ios": "https://dc.lft.to/lastmile_qr_scan"}, "type": "electric_scooter", "lat": 38.9146165, "is_reserved": 0, "fusion_lat": 0.0}, {"bike_id": "2cf9a7f626fddc59371f479d743f4d83", "fusion_lon": 0.0, "lon": -77.023834, "name": "2cf9a7f626fddc59371f479d743f4d83", "is_disabled": 0, "rental_uris": {"android": "https://dc.lft.to/lastmile_qr_scan", "ios": "https://dc.lft.to/lastmile_qr_scan"}, "type": "electric_scooter", "lat": 38.919744, "is_reserved": 0, "fusion_lat": 0.0}, {"bike_id": "346ad197856d677f5650dab7b5ee2025", "fusion_lon": 0.0, "lon": -77.05272266666667, "name": "346ad197856d677f5650dab7b5ee2025", "is_disabled": 0, "rental_uris": {"android": "https://dc.lft.to/lastmile_qr_scan", "ios": "https://dc.lft.to/lastmile_qr_scan"}, "type": "electric_scooter", "lat": 38.925436833333336, "is_reserved": 0, "fusion_lat": 0.0}, {"bike_id": "e19dc091aaf991a9106878ee3c8e55b7", "fusion_lon": 0.0, "lon": -77.04184016666666, "name": "e19dc091aaf991a9106878ee3c8e55b7", "is_disabled": 0, "rental_uris": {"android": "https://dc.lft.to/lastmile_qr_scan", "ios": "https://dc.lft.to/lastmile_qr_scan"}, "type": "electric_scooter", "lat": 38.893013333333336, "is_reserved": 0, "fusion_lat": 0.0}, {"bike_id": "e089bb6e715d3e9374ea14924e2be12a", "fusion_lon": 0.0, "lon": -76.9888575, "name": "e089bb6e715d3e9374ea14924e2be12a", "is_disabled": 0, "rental_uris": {"android": "https://dc.lft.to/lastmile_qr_scan", "ios": "https://dc.lft.to/lastmile_qr_scan"}, "type": "electric_scooter", "lat": 38.86647883333333, "is_reserved": 0, "fusion_lat": 0.0}, {"bike_id": "80d004b35d8154a1fa6d756e6ee2cbe6", "fusion_lon": 0.0, "lon": -77.031747, "name": "80d004b35d8154a1fa6d756e6ee2cbe6", "is_disabled": 0, "rental_uris": {"android": "https://dc.lft.to/lastmile_qr_scan", "ios": "https://dc.lft.to/lastmile_qr_scan"}, "type": "electric_scooter", "lat": 38.914148, "is_reserved": 0, "fusion_lat": 0.0}, {"bike_id": "663f2abe58760de8d98d18d45be877a5", "fusion_lon": 0.0, "lon": -77.039622, "name": "663f2abe58760de8d98d18d45be877a5", "is_disabled": 0, "rental_uris": {"android": "https://dc.lft.to/lastmile_qr_scan", "ios": "https://dc.lft.to/lastmile_qr_scan"}, "type": "electric_scooter", "lat": 38.903228666666664, "is_reserved": 0, "fusion_lat": 0.0}, {"bike_id": "fac120214ff9312fe02d472afaacb4ae", "fusion_lon": 0.0, "lon": -77.02368833333334, "name": "fac120214ff9312fe02d472afaacb4ae", "is_disabled": 0, "rental_uris": {"android": "https://dc.lft.to/lastmile_qr_scan", "ios": "https://dc.lft.to/lastmile_qr_scan"}, "type": "electric_bike", "lat": 38.950952, "is_reserved": 0, "fusion_lat": 0.0}, {"bike_id": "fa2d34b639a8b6b263721390573d8f6f", "fusion_lon": 0.0, "lon": -77.02694266666667, "name": "fa2d34b639a8b6b263721390573d8f6f", "is_disabled": 0, "rental_uris": {"android": "https://dc.lft.to/lastmile_qr_scan", "ios": "https://dc.lft.to/lastmile_qr_scan"}, "type": "electric_scooter", "lat": 38.911241, "is_reserved": 0, "fusion_lat": 0.0}, {"bike_id": "ac9b57589fd363beb38a0c8c0df007ab", "fusion_lon": 0.0, "lon": -77.0329805, "name": "ac9b57589fd363beb38a0c8c0df007ab", "is_disabled": 0, "rental_uris": {"android": "https://dc.lft.to/lastmile_qr_scan", "ios": "https://dc.lft.to/lastmile_qr_scan"}, "type": "electric_scooter", "lat": 38.956451333333334, "is_reserved": 0, "fusion_lat": 0.0}, {"bike_id": "5100f35db4f18e6b5a4d03b3e4ed3f87", "fusion_lon": 0.0, "lon": -77.16230766666666, "name": "5100f35db4f18e6b5a4d03b3e4ed3f87", "is_disabled": 0, "rental_uris": {"android": "https://dc.lft.to/lastmile_qr_scan", "ios": "https://dc.lft.to/lastmile_qr_scan"}, "type": "electric_bike", "lat": 38.88655816666667, "is_reserved": 0, "fusion_lat": 0.0}, {"bike_id": "1e38b7bef163ae863711ece6f8ad60b6", "fusion_lon": 0.0, "lon": -77.02315533333334, "name": "1e38b7bef163ae863711ece6f8ad60b6", "is_disabled": 0, "rental_uris": {"android": "https://dc.lft.to/lastmile_qr_scan", "ios": "https://dc.lft.to/lastmile_qr_scan"}, "type": "electric_scooter", "lat": 38.916153666666666, "is_reserved": 0, "fusion_lat": 0.0}, {"bike_id": "bacbf9af1e66f0b5745507f9d5871e33", "fusion_lon": 0.0, "lon": -77.040281, "name": "bacbf9af1e66f0b5745507f9d5871e33", "is_disabled": 0, "rental_uris": {"android": "https://dc.lft.to/lastmile_qr_scan", "ios": "https://dc.lft.to/lastmile_qr_scan"}, "type": "electric_scooter", "lat": 38.93072033333333, "is_reserved": 0, "fusion_lat": 0.0}, {"bike_id": "99804e1984c2fa096f7cff875ee47e40", "fusion_lon": 0.0, "lon": -77.04639483333334, "name": "99804e1984c2fa096f7cff875ee47e40", "is_disabled": 0, "rental_uris": {"android": "https://dc.lft.to/lastmile_qr_scan", "ios": "https://dc.lft.to/lastmile_qr_scan"}, "type": "electric_scooter", "lat": 38.89529683333333, "is_reserved": 0, "fusion_lat": 0.0}, {"bike_id": "89bf04a456b949765313114a062ac975", "fusion_lon": 0.0, "lon": -77.00598916666667, "name": "89bf04a456b949765313114a062ac975", "is_disabled": 0, "rental_uris": {"android": "https://dc.lft.to/lastmile_qr_scan", "ios": "https://dc.lft.to/lastmile_qr_scan"}, "type": "electric_scooter", "lat": 38.906059166666665, "is_reserved": 0, "fusion_lat": 0.0}, {"bike_id": "4eabfc295dda963d32c6b76c0167b43e", "fusion_lon": 0.0, "lon": -77.02303666666667, "name": "4eabfc295dda963d32c6b76c0167b43e", "is_disabled": 0, "rental_uris": {"android": "https://dc.lft.to/lastmile_qr_scan", "ios": "https://dc.lft.to/lastmile_qr_scan"}, "type": "electric_scooter", "lat": 38.9160405, "is_reserved": 0, "fusion_lat": 0.0}, {"bike_id": "3b817dab5c7767bbfa753aa04a9ea766", "fusion_lon": 0.0, "lon": -76.98696683333333, "name": "3b817dab5c7767bbfa753aa04a9ea766", "is_disabled": 0, "rental_uris": {"android": "https://dc.lft.to/lastmile_qr_scan", "ios": "https://dc.lft.to/lastmile_qr_scan"}, "type": "electric_scooter", "lat": 38.86719266666667, "is_reserved": 0, "fusion_lat": 0.0}, {"bike_id": "61563b80548b35044ebbda12105462e7", "fusion_lon": 0.0, "lon": -77.0318145, "name": "61563b80548b35044ebbda12105462e7", "is_disabled": 0, "rental_uris": {"android": "https://dc.lft.to/lastmile_qr_scan", "ios": "https://dc.lft.to/lastmile_qr_scan"}, "type": "electric_scooter", "lat": 38.909777, "is_reserved": 0, "fusion_lat": 0.0}, {"bike_id": "8005c3a6982414c12d1746cf603a1583", "fusion_lon": 0.0, "lon": -77.00154266666667, "name": "8005c3a6982414c12d1746cf603a1583", "is_disabled": 0, "rental_uris": {"android": "https://dc.lft.to/lastmile_qr_scan", "ios": "https://dc.lft.to/lastmile_qr_scan"}, "type": "electric_scooter", "lat": 38.91108466666667, "is_reserved": 0, "fusion_lat": 0.0}, {"bike_id": "e74bdc7e3e1b1108a9083582b757dea6", "fusion_lon": 0.0, "lon": -77.02570883333334, "name": "e74bdc7e3e1b1108a9083582b757dea6", "is_disabled": 0, "rental_uris": {"android": "https://dc.lft.to/lastmile_qr_scan", "ios": "https://dc.lft.to/lastmile_qr_scan"}, "type": "electric_scooter", "lat": 38.91413383333333, "is_reserved": 0, "fusion_lat": 0.0}, {"bike_id": "265ba6771d1d7b387ea2164c130f150b", "fusion_lon": 0.0, "lon": -77.02577083333334, "name": "265ba6771d1d7b387ea2164c130f150b", "is_disabled": 0, "rental_uris": {"android": "https://dc.lft.to/lastmile_qr_scan", "ios": "https://dc.lft.to/lastmile_qr_scan"}, "type": "electric_scooter", "lat": 38.92535766666666, "is_reserved": 0, "fusion_lat": 0.0}, {"bike_id": "180e366cf08d22cedf4308fb25289d0d", "fusion_lon": 0.0, "lon": -77.03379533333333, "name": "180e366cf08d22cedf4308fb25289d0d", "is_disabled": 0, "rental_uris": {"android": "https://dc.lft.to/lastmile_qr_scan", "ios": "https://dc.lft.to/lastmile_qr_scan"}, "type": "electric_scooter", "lat": 38.899635, "is_reserved": 0, "fusion_lat": 0.0}, {"bike_id": "a11448586815217d443034d82970f4e4", "fusion_lon": 0.0, "lon": -77.039149, "name": "a11448586815217d443034d82970f4e4", "is_disabled": 0, "rental_uris": {"android": "https://dc.lft.to/lastmile_qr_scan", "ios": "https://dc.lft.to/lastmile_qr_scan"}, "type": "electric_scooter", "lat": 38.91816633333333, "is_reserved": 0, "fusion_lat": 0.0}, {"bike_id": "3c6e1264f149ed6b6817b5eaa21b76e4", "fusion_lon": 0.0, "lon": -76.99089083333334, "name": "3c6e1264f149ed6b6817b5eaa21b76e4", "is_disabled": 0, "rental_uris": {"android": "https://dc.lft.to/lastmile_qr_scan", "ios": "https://dc.lft.to/lastmile_qr_scan"}, "type": "electric_scooter", "lat": 38.88231916666667, "is_reserved": 0, "fusion_lat": 0.0}, {"bike_id": "9f5a9cabf366a6d4c897c939c2db16f6", "fusion_lon": 0.0, "lon": -77.04490433333333, "name": "9f5a9cabf366a6d4c897c939c2db16f6", "is_disabled": 0, "rental_uris": {"android": "https://dc.lft.to/lastmile_qr_scan", "ios": "https://dc.lft.to/lastmile_qr_scan"}, "type": "electric_scooter", "lat": 38.91367133333333, "is_reserved": 0, "fusion_lat": 0.0}, {"bike_id": "f3303713807756d6702d53200e303ff0", "fusion_lon": 0.0, "lon": -77.04884716666666, "name": "f3303713807756d6702d53200e303ff0", "is_disabled": 0, "rental_uris": {"android": "https://dc.lft.to/lastmile_qr_scan", "ios": "https://dc.lft.to/lastmile_qr_scan"}, "type": "electric_scooter", "lat": 38.90638583333333, "is_reserved": 0, "fusion_lat": 0.0}, {"bike_id": "770b607f0f0cb16ad1e8dd23e8b09f22", "fusion_lon": 0.0, "lon": -77.04314166666667, "name": "770b607f0f0cb16ad1e8dd23e8b09f22", "is_disabled": 0, "rental_uris": {"android": "https://dc.lft.to/lastmile_qr_scan", "ios": "https://dc.lft.to/lastmile_qr_scan"}, "type": "electric_scooter", "lat": 38.918775, "is_reserved": 0, "fusion_lat": 0.0}, {"bike_id": "155de43989a6852b0af1da81dea50621", "fusion_lon": 0.0, "lon": -77.02223316666667, "name": "155de43989a6852b0af1da81dea50621", "is_disabled": 0, "rental_uris": {"android": "https://dc.lft.to/lastmile_qr_scan", "ios": "https://dc.lft.to/lastmile_qr_scan"}, "type": "electric_scooter", "lat": 38.89223633333334, "is_reserved": 0, "fusion_lat": 0.0}, {"bike_id": "7c4d453886e175cf30826524af073d94", "fusion_lon": 0.0, "lon": -77.03181366666666, "name": "7c4d453886e175cf30826524af073d94", "is_disabled": 0, "rental_uris": {"android": "https://dc.lft.to/lastmile_qr_scan", "ios": "https://dc.lft.to/lastmile_qr_scan"}, "type": "electric_scooter", "lat": 38.892325666666665, "is_reserved": 0, "fusion_lat": 0.0}, {"bike_id": "8b60cc3f1d2e307709d9284f2176a645", "fusion_lon": 0.0, "lon": -77.02807433333334, "name": "8b60cc3f1d2e307709d9284f2176a645", "is_disabled": 0, "rental_uris": {"android": "https://dc.lft.to/lastmile_qr_scan", "ios": "https://dc.lft.to/lastmile_qr_scan"}, "type": "electric_scooter", "lat": 38.930849333333335, "is_reserved": 0, "fusion_lat": 0.0}, {"bike_id": "e22e7499d7f7173421ab1f57741c09a7", "fusion_lon": 0.0, "lon": -77.00972216666666, "name": "e22e7499d7f7173421ab1f57741c09a7", "is_disabled": 0, "rental_uris": {"android": "https://dc.lft.to/lastmile_qr_scan", "ios": "https://dc.lft.to/lastmile_qr_scan"}, "type": "electric_bike", "lat": 38.961354666666665, "is_reserved": 0, "fusion_lat": 0.0}, {"bike_id": "50b3296c2a7b705d7f73b65d0ed08ee4", "fusion_lon": 0.0, "lon": -77.09964333333333, "name": "50b3296c2a7b705d7f73b65d0ed08ee4", "is_disabled": 0, "rental_uris": {"android": "https://dc.lft.to/lastmile_qr_scan", "ios": "https://dc.lft.to/lastmile_qr_scan"}, "type": "electric_bike", "lat": 38.85792283333333, "is_reserved": 0, "fusion_lat": 0.0}, {"bike_id": "0b5697bf9bfc9c31c0b33f26e40468f4", "fusion_lon": 0.0, "lon": -77.07051966666667, "name": "0b5697bf9bfc9c31c0b33f26e40468f4", "is_disabled": 0, "rental_uris": {"android": "https://dc.lft.to/lastmile_qr_scan", "ios": "https://dc.lft.to/lastmile_qr_scan"}, "type": "electric_scooter", "lat": 38.91920183333333, "is_reserved": 0, "fusion_lat": 0.0}, {"bike_id": "7dc1c89034901b6acc7760d7c1738702", "fusion_lon": 0.0, "lon": -77.03288583333334, "name": "7dc1c89034901b6acc7760d7c1738702", "is_disabled": 0, "rental_uris": {"android": "https://dc.lft.to/lastmile_qr_scan", "ios": "https://dc.lft.to/lastmile_qr_scan"}, "type": "electric_scooter", "lat": 38.9565055, "is_reserved": 0, "fusion_lat": 0.0}, {"bike_id": "fa135f83c05faa46099e2a23951378a0", "fusion_lon": 0.0, "lon": -77.04468216666666, "name": "fa135f83c05faa46099e2a23951378a0", "is_disabled": 0, "rental_uris": {"android": "https://dc.lft.to/lastmile_qr_scan", "ios": "https://dc.lft.to/lastmile_qr_scan"}, "type": "electric_scooter", "lat": 38.91264316666667, "is_reserved": 0, "fusion_lat": 0.0}, {"bike_id": "e6e0953c6dbdbc8e7fbb956e72cc0e62", "fusion_lon": 0.0, "lon": -77.03467433333333, "name": "e6e0953c6dbdbc8e7fbb956e72cc0e62", "is_disabled": 0, "rental_uris": {"android": "https://dc.lft.to/lastmile_qr_scan", "ios": "https://dc.lft.to/lastmile_qr_scan"}, "type": "electric_scooter", "lat": 38.922549, "is_reserved": 0, "fusion_lat": 0.0}, {"bike_id": "8f015f3c879f00956e89b54f994fedaf", "fusion_lon": 0.0, "lon": -77.050287, "name": "8f015f3c879f00956e89b54f994fedaf", "is_disabled": 0, "rental_uris": {"android": "https://dc.lft.to/lastmile_qr_scan", "ios": "https://dc.lft.to/lastmile_qr_scan"}, "type": "electric_scooter", "lat": 38.9236875, "is_reserved": 0, "fusion_lat": 0.0}, {"bike_id": "165113d50bceb5902a78331a3fb5249e", "fusion_lon": 0.0, "lon": -77.023267, "name": "165113d50bceb5902a78331a3fb5249e", "is_disabled": 0, "rental_uris": {"android": "https://dc.lft.to/lastmile_qr_scan", "ios": "https://dc.lft.to/lastmile_qr_scan"}, "type": "electric_bike", "lat": 38.9222905, "is_reserved": 0, "fusion_lat": 0.0}, {"bike_id": "e097a677aeb2e20b1f7c8088b6b1dc58", "fusion_lon": 0.0, "lon": -77.0296775, "name": "e097a677aeb2e20b1f7c8088b6b1dc58", "is_disabled": 0, "rental_uris": {"android": "https://dc.lft.to/lastmile_qr_scan", "ios": "https://dc.lft.to/lastmile_qr_scan"}, "type": "electric_scooter", "lat": 38.9159405, "is_reserved": 0, "fusion_lat": 0.0}, {"bike_id": "37cb05fd705fb7e54867a5cf4fc23f9d", "fusion_lon": 0.0, "lon": -77.0551645, "name": "37cb05fd705fb7e54867a5cf4fc23f9d", "is_disabled": 0, "rental_uris": {"android": "https://dc.lft.to/lastmile_qr_scan", "ios": "https://dc.lft.to/lastmile_qr_scan"}, "type": "electric_scooter", "lat": 38.90940033333333, "is_reserved": 0, "fusion_lat": 0.0}, {"bike_id": "7c99218160cd6a32d71d38034e697c7d", "fusion_lon": 0.0, "lon": -77.04173283333333, "name": "7c99218160cd6a32d71d38034e697c7d", "is_disabled": 0, "rental_uris": {"android": "https://dc.lft.to/lastmile_qr_scan", "ios": "https://dc.lft.to/lastmile_qr_scan"}, "type": "electric_scooter", "lat": 38.9183395, "is_reserved": 0, "fusion_lat": 0.0}, {"bike_id": "cbde2e300cb956b1c477d1b1753a18bc", "fusion_lon": 0.0, "lon": -77.02762633333333, "name": "cbde2e300cb956b1c477d1b1753a18bc", "is_disabled": 0, "rental_uris": {"android": "https://dc.lft.to/lastmile_qr_scan", "ios": "https://dc.lft.to/lastmile_qr_scan"}, "type": "electric_scooter", "lat": 38.90729483333333, "is_reserved": 0, "fusion_lat": 0.0}, {"bike_id": "e8e47747388dfa864e217568f87df4d3", "fusion_lon": 0.0, "lon": -76.987143, "name": "e8e47747388dfa864e217568f87df4d3", "is_disabled": 0, "rental_uris": {"android": "https://dc.lft.to/lastmile_qr_scan", "ios": "https://dc.lft.to/lastmile_qr_scan"}, "type": "electric_scooter", "lat": 38.86697433333333, "is_reserved": 0, "fusion_lat": 0.0}, {"bike_id": "64ff1917ad41cbb2c2387539035903f7", "fusion_lon": 0.0, "lon": -77.0019925, "name": "64ff1917ad41cbb2c2387539035903f7", "is_disabled": 0, "rental_uris": {"android": "https://dc.lft.to/lastmile_qr_scan", "ios": "https://dc.lft.to/lastmile_qr_scan"}, "type": "electric_scooter", "lat": 38.90246416666667, "is_reserved": 0, "fusion_lat": 0.0}, {"bike_id": "cdbd5b983c5a6fe1472cafa3b6dbf1c2", "fusion_lon": 0.0, "lon": -77.018446, "name": "cdbd5b983c5a6fe1472cafa3b6dbf1c2", "is_disabled": 0, "rental_uris": {"android": "https://dc.lft.to/lastmile_qr_scan", "ios": "https://dc.lft.to/lastmile_qr_scan"}, "type": "electric_scooter", "lat": 38.9462955, "is_reserved": 0, "fusion_lat": 0.0}, {"bike_id": "ce6b2432a6960c94ea358ccdb197b5d7", "fusion_lon": 0.0, "lon": -76.93546166666667, "name": "ce6b2432a6960c94ea358ccdb197b5d7", "is_disabled": 0, "rental_uris": {"android": "https://dc.lft.to/lastmile_qr_scan", "ios": "https://dc.lft.to/lastmile_qr_scan"}, "type": "electric_bike", "lat": 38.9518575, "is_reserved": 0, "fusion_lat": 0.0}, {"bike_id": "94eb530e2de217a6511959fd469439f7", "fusion_lon": 0.0, "lon": -77.02765516666666, "name": "94eb530e2de217a6511959fd469439f7", "is_disabled": 0, "rental_uris": {"android": "https://dc.lft.to/lastmile_qr_scan", "ios": "https://dc.lft.to/lastmile_qr_scan"}, "type": "electric_scooter", "lat": 38.907354, "is_reserved": 0, "fusion_lat": 0.0}, {"bike_id": "09e82df565288f6e7f81a957731ac4b9", "fusion_lon": 0.0, "lon": -77.01180883333333, "name": "09e82df565288f6e7f81a957731ac4b9", "is_disabled": 0, "rental_uris": {"android": "https://dc.lft.to/lastmile_qr_scan", "ios": "https://dc.lft.to/lastmile_qr_scan"}, "type": "electric_scooter", "lat": 38.909606333333336, "is_reserved": 0, "fusion_lat": 0.0}, {"bike_id": "11fb39483c12efaf9a61884a28bba743", "fusion_lon": 0.0, "lon": -77.0404085, "name": "11fb39483c12efaf9a61884a28bba743", "is_disabled": 0, "rental_uris": {"android": "https://dc.lft.to/lastmile_qr_scan", "ios": "https://dc.lft.to/lastmile_qr_scan"}, "type": "electric_scooter", "lat": 38.8908155, "is_reserved": 0, "fusion_lat": 0.0}, {"bike_id": "cdeaf89497ec6a45da53247a56efcbad", "fusion_lon": 0.0, "lon": -77.0255385, "name": "cdeaf89497ec6a45da53247a56efcbad", "is_disabled": 0, "rental_uris": {"android": "https://dc.lft.to/lastmile_qr_scan", "ios": "https://dc.lft.to/lastmile_qr_scan"}, "type": "electric_scooter", "lat": 38.915561833333335, "is_reserved": 0, "fusion_lat": 0.0}, {"bike_id": "d974b871a226111707c8c4ad90b6631b", "fusion_lon": 0.0, "lon": -77.02198783333333, "name": "d974b871a226111707c8c4ad90b6631b", "is_disabled": 0, "rental_uris": {"android": "https://dc.lft.to/lastmile_qr_scan", "ios": "https://dc.lft.to/lastmile_qr_scan"}, "type": "electric_scooter", "lat": 38.8998665, "is_reserved": 0, "fusion_lat": 0.0}, {"bike_id": "f7c1ce1d1b15dd302a3d4c832089973f", "fusion_lon": 0.0, "lon": -77.02580433333334, "name": "f7c1ce1d1b15dd302a3d4c832089973f", "is_disabled": 0, "rental_uris": {"android": "https://dc.lft.to/lastmile_qr_scan", "ios": "https://dc.lft.to/lastmile_qr_scan"}, "type": "electric_scooter", "lat": 38.91599633333333, "is_reserved": 0, "fusion_lat": 0.0}, {"bike_id": "5471e5dc1bfad69a51d0222e87f11950", "fusion_lon": 0.0, "lon": -77.03192766666666, "name": "5471e5dc1bfad69a51d0222e87f11950", "is_disabled": 0, "rental_uris": {"android": "https://dc.lft.to/lastmile_qr_scan", "ios": "https://dc.lft.to/lastmile_qr_scan"}, "type": "electric_scooter", "lat": 38.903421, "is_reserved": 0, "fusion_lat": 0.0}, {"bike_id": "8388ee0df0153b679874a9b343c8ae72", "fusion_lon": 0.0, "lon": -77.03868066666666, "name": "8388ee0df0153b679874a9b343c8ae72", "is_disabled": 0, "rental_uris": {"android": "https://dc.lft.to/lastmile_qr_scan", "ios": "https://dc.lft.to/lastmile_qr_scan"}, "type": "electric_scooter", "lat": 38.90279816666666, "is_reserved": 0, "fusion_lat": 0.0}, {"bike_id": "58a7af3f84d5122137352d39937bd698", "fusion_lon": 0.0, "lon": -77.052569, "name": "58a7af3f84d5122137352d39937bd698", "is_disabled": 0, "rental_uris": {"android": "https://dc.lft.to/lastmile_qr_scan", "ios": "https://dc.lft.to/lastmile_qr_scan"}, "type": "electric_scooter", "lat": 38.925362, "is_reserved": 0, "fusion_lat": 0.0}, {"bike_id": "0d8330ed85e807c1dc93ab48d5486460", "fusion_lon": 0.0, "lon": -77.04219783333333, "name": "0d8330ed85e807c1dc93ab48d5486460", "is_disabled": 0, "rental_uris": {"android": "https://dc.lft.to/lastmile_qr_scan", "ios": "https://dc.lft.to/lastmile_qr_scan"}, "type": "electric_scooter", "lat": 38.92074133333333, "is_reserved": 0, "fusion_lat": 0.0}, {"bike_id": "bdad2e768b3271a0f36cd46021f4dceb", "fusion_lon": 0.0, "lon": -76.9953055, "name": "bdad2e768b3271a0f36cd46021f4dceb", "is_disabled": 0, "rental_uris": {"android": "https://dc.lft.to/lastmile_qr_scan", "ios": "https://dc.lft.to/lastmile_qr_scan"}, "type": "electric_scooter", "lat": 38.93238633333333, "is_reserved": 0, "fusion_lat": 0.0}, {"bike_id": "3699a5bee5e53db5311e39b5f9e5a525", "fusion_lon": 0.0, "lon": -77.032965, "name": "3699a5bee5e53db5311e39b5f9e5a525", "is_disabled": 0, "rental_uris": {"android": "https://dc.lft.to/lastmile_qr_scan", "ios": "https://dc.lft.to/lastmile_qr_scan"}, "type": "electric_scooter", "lat": 38.9205575, "is_reserved": 0, "fusion_lat": 0.0}, {"bike_id": "1f456856cd47b726d0abb527c7245b29", "fusion_lon": 0.0, "lon": -77.02180433333334, "name": "1f456856cd47b726d0abb527c7245b29", "is_disabled": 0, "rental_uris": {"android": "https://dc.lft.to/lastmile_qr_scan", "ios": "https://dc.lft.to/lastmile_qr_scan"}, "type": "electric_scooter", "lat": 38.90632433333333, "is_reserved": 0, "fusion_lat": 0.0}, {"bike_id": "c39658ac9d5a6a5a83e0b934005b5d3f", "fusion_lon": 0.0, "lon": -77.02558083333334, "name": "c39658ac9d5a6a5a83e0b934005b5d3f", "is_disabled": 0, "rental_uris": {"android": "https://dc.lft.to/lastmile_qr_scan", "ios": "https://dc.lft.to/lastmile_qr_scan"}, "type": "electric_scooter", "lat": 38.914827, "is_reserved": 0, "fusion_lat": 0.0}, {"bike_id": "4b1c6d44f2295619dc32ae9597b42276", "fusion_lon": 0.0, "lon": -77.01206983333333, "name": "4b1c6d44f2295619dc32ae9597b42276", "is_disabled": 0, "rental_uris": {"android": "https://dc.lft.to/lastmile_qr_scan", "ios": "https://dc.lft.to/lastmile_qr_scan"}, "type": "electric_bike", "lat": 38.87090216666667, "is_reserved": 0, "fusion_lat": 0.0}, {"bike_id": "da652a341eabd9f6bd835f918706894c", "fusion_lon": 0.0, "lon": -77.04365583333333, "name": "da652a341eabd9f6bd835f918706894c", "is_disabled": 0, "rental_uris": {"android": "https://dc.lft.to/lastmile_qr_scan", "ios": "https://dc.lft.to/lastmile_qr_scan"}, "type": "electric_scooter", "lat": 38.921405, "is_reserved": 0, "fusion_lat": 0.0}, {"bike_id": "76e0a4b95fc75e4a4a6e830c4c72d4ef", "fusion_lon": 0.0, "lon": -77.00607033333333, "name": "76e0a4b95fc75e4a4a6e830c4c72d4ef", "is_disabled": 0, "rental_uris": {"android": "https://dc.lft.to/lastmile_qr_scan", "ios": "https://dc.lft.to/lastmile_qr_scan"}, "type": "electric_scooter", "lat": 38.906022166666666, "is_reserved": 0, "fusion_lat": 0.0}, {"bike_id": "6dc7430c547348aec0f0be05f1a30689", "fusion_lon": 0.0, "lon": -77.03181183333334, "name": "6dc7430c547348aec0f0be05f1a30689", "is_disabled": 0, "rental_uris": {"android": "https://dc.lft.to/lastmile_qr_scan", "ios": "https://dc.lft.to/lastmile_qr_scan"}, "type": "electric_scooter", "lat": 38.892317, "is_reserved": 0, "fusion_lat": 0.0}, {"bike_id": "a0dca5969232020c9798abb78f9f88d2", "fusion_lon": 0.0, "lon": -77.0277495, "name": "a0dca5969232020c9798abb78f9f88d2", "is_disabled": 0, "rental_uris": {"android": "https://dc.lft.to/lastmile_qr_scan", "ios": "https://dc.lft.to/lastmile_qr_scan"}, "type": "electric_scooter", "lat": 38.939599333333334, "is_reserved": 0, "fusion_lat": 0.0}, {"bike_id": "24539bfc6b7d14a5f4262e0a6a2897d2", "fusion_lon": 0.0, "lon": -77.04853283333334, "name": "24539bfc6b7d14a5f4262e0a6a2897d2", "is_disabled": 0, "rental_uris": {"android": "https://dc.lft.to/lastmile_qr_scan", "ios": "https://dc.lft.to/lastmile_qr_scan"}, "type": "electric_scooter", "lat": 38.9047825, "is_reserved": 0, "fusion_lat": 0.0}, {"bike_id": "326a42aa3c8138a5a4841a9c17817de3", "fusion_lon": 0.0, "lon": -77.0363855, "name": "326a42aa3c8138a5a4841a9c17817de3", "is_disabled": 0, "rental_uris": {"android": "https://dc.lft.to/lastmile_qr_scan", "ios": "https://dc.lft.to/lastmile_qr_scan"}, "type": "electric_scooter", "lat": 38.915929166666665, "is_reserved": 0, "fusion_lat": 0.0},