{"data": {"bikes": [{"type": "electric_scooter", "fusion_lon": 0.0, "bike_id": "892501ba509c4671c19187fd0ef75239", "is_disabled": 0, "lat": 38.90417933333333, "rental_uris": {"ios": "https://dc.lft.to/lastmile_qr_scan", "android": "https://dc.lft.to/lastmile_qr_scan"}, "is_reserved": 0, "lon": -77.025096, "fusion_lat": 0.0, "name": "892501ba509c4671c19187fd0ef75239"}, {"type": "electric_bike", "fusion_lon": 0.0, "bike_id": "ff59adfafcc0866930df189135b92dae", "is_disabled": 0, "lat": 38.99198416666667, "rental_uris": {"ios": "https://dc.lft.to/lastmile_qr_scan", "android": "https://dc.lft.to/lastmile_qr_scan"}, "is_reserved": 0, "lon": -77.0319455, "fusion_lat": 0.0, "name": "ff59adfafcc0866930df189135b92dae"}, {"type": "electric_scooter", "fusion_lon": 0.0, "bike_id": "8c45a18d1bfcf0e68b861b40268ba30a", "is_disabled": 0, "lat": 38.93282683333334, "rental_uris": {"ios": "https://dc.lft.to/lastmile_qr_scan", "android": "https://dc.lft.to/lastmile_qr_scan"}, "is_reserved": 0, "lon": -77.04081716666667, "fusion_lat": 0.0, "name": "8c45a18d1bfcf0e68b861b40268ba30a"}, {"type": "electric_scooter", "fusion_lon": 0.0, "bike_id": "24fdf8b424de8e2b0e82dabc4a7de0ba", "is_disabled": 0, "lat": 38.9233765, "rental_uris": {"ios": "https://dc.lft.to/lastmile_qr_scan", "android": "https://dc.lft.to/lastmile_qr_scan"}, "is_reserved": 0, "lon": -77.035513, "fusion_lat": 0.0, "name": "24fdf8b424de8e2b0e82dabc4a7de0ba"}, {"type": "electric_scooter", "fusion_lon": 0.0, "bike_id": "36f15b8b1772949840c54cafd3147360", "is_disabled": 0, "lat": 38.906484666666664, "rental_uris": {"ios": "https://dc.lft.to/lastmile_qr_scan", "android": "https://dc.lft.to/lastmile_qr_scan"}, "is_reserved": 0, "lon": -77.04243366666667, "fusion_lat": 0.0, "name": "36f15b8b1772949840c54cafd3147360"}, {"type": "electric_scooter", "fusion_lon": 0.0, "bike_id": "4e6b76f2c47ffe8e96ddad66329c5900", "is_disabled": 0, "lat": 38.89914666666667, "rental_uris": {"ios": "https://dc.lft.to/lastmile_qr_scan", "android": "https://dc.lft.to/lastmile_qr_scan"}, "is_reserved": 0, "lon": -76.93384133333333, "fusion_lat": 0.0, "name": "4e6b76f2c47ffe8e96ddad66329c5900"}, {"type": "electric_scooter", "fusion_lon": 0.0, "bike_id": "a550dee3265df83c1d35045e81e211f2", "is_disabled": 0, "lat": 38.87647, "rental_uris": {"ios": "https://dc.lft.to/lastmile_qr_scan", "android": "https://dc.lft.to/lastmile_qr_scan"}, "is_reserved": 0, "lon": -76.96506766666667, "fusion_lat": 0.0, "name": "a550dee3265df83c1d35045e81e211f2"}, {"type": "electric_scooter", "fusion_lon": 0.0, "bike_id": "eafa04f7a5a14bf7420fe66a65f18fc5", "is_disabled": 0, "lat": 38.93825483333333, "rental_uris": {"ios": "https://dc.lft.to/lastmile_qr_scan", "android": "https://dc.lft.to/lastmile_qr_scan"}, "is_reserved": 0, "lon": -76.98928183333334, "fusion_lat": 0.0, "name": "eafa04f7a5a14bf7420fe66a65f18fc5"}, {"type": "electric_scooter", "fusion_lon": 0.0, "bike_id": "952a0f63a658207163bafbe36deca284", "is_disabled": 0, "lat": 38.896790833333334, "rental_uris": {"ios": "https://dc.lft.to/lastmile_qr_scan", "android": "https://dc.lft.to/lastmile_qr_scan"}, "is_reserved": 0, "lon": -77.01953016666667, "fusion_lat": 0.0, "name": "952a0f63a658207163bafbe36deca284"}, {"type": "electric_scooter", "fusion_lon": 0.0, "bike_id": "e3e773306c6f84a792ed4803d3193a16", "is_disabled": 0, "lat": 38.897277, "rental_uris": {"ios": "https://dc.lft.to/lastmile_qr_scan", "android": "https://dc.lft.to/lastmile_qr_scan"}, "is_reserved": 0, "lon": -76.98494383333333, "fusion_lat": 0.0, "name": "e3e773306c6f84a792ed4803d3193a16"}, {"type": "electric_scooter", "fusion_lon": 0.0, "bike_id": "e6bdcd26ac49fe4d16d0466fa266ec0c", "is_disabled": 0, "lat": 38.90704016666667, "rental_uris": {"ios": "https://dc.lft.to/lastmile_qr_scan", "android": "https://dc.lft.to/lastmile_qr_scan"}, "is_reserved": 0, "lon": -76.98568016666667, "fusion_lat": 0.0, "name": "e6bdcd26ac49fe4d16d0466fa266ec0c"}, {"type": "electric_scooter", "fusion_lon": 0.0, "bike_id": "ccd33577f0787f753d53327f96141ee8", "is_disabled": 0, "lat": 38.91927, "rental_uris": {"ios": "https://dc.lft.to/lastmile_qr_scan", "android": "https://dc.lft.to/lastmile_qr_scan"}, "is_reserved": 0, "lon": -77.02478716666667, "fusion_lat": 0.0, "name": "ccd33577f0787f753d53327f96141ee8"}, {"type": "electric_scooter", "fusion_lon": 0.0, "bike_id": "32554dcaf7532e042cf912851ee3e4b8", "is_disabled": 0, "lat": 38.8934715, "rental_uris": {"ios": "https://dc.lft.to/lastmile_qr_scan", "android": "https://dc.lft.to/lastmile_qr_scan"}, "is_reserved": 0, "lon": -76.95228616666667, "fusion_lat": 0.0, "name": "32554dcaf7532e042cf912851ee3e4b8"}, {"type": "electric_scooter", "fusion_lon": 0.0, "bike_id": "c15f007989d5056666ab12da1c0e8f15", "is_disabled": 0, "lat": 38.90030633333333, "rental_uris": {"ios": "https://dc.lft.to/lastmile_qr_scan", "android": "https://dc.lft.to/lastmile_qr_scan"}, "is_reserved": 0, "lon": -77.00210183333333, "fusion_lat": 0.0, "name": "c15f007989d5056666ab12da1c0e8f15"}, {"type": "electric_scooter", "fusion_lon": 0.0, "bike_id": "e1318eadd6a7cad3fcc49a4797f6a706", "is_disabled": 0, "lat": 38.91349116666667, "rental_uris": {"ios": "https://dc.lft.to/lastmile_qr_scan", "android": "https://dc.lft.to/lastmile_qr_scan"}, "is_reserved": 0, "lon": -77.03206783333333, "fusion_lat": 0.0, "name": "e1318eadd6a7cad3fcc49a4797f6a706"}, {"type": "electric_scooter", "fusion_lon": 0.0, "bike_id": "2630ec166b4d90a45d47a143e5877b25", "is_disabled": 0, "lat": 38.908230833333334, "rental_uris": {"ios": "https://dc.lft.to/lastmile_qr_scan", "android": "https://dc.lft.to/lastmile_qr_scan"}, "is_reserved": 0, "lon": -77.03372533333334, "fusion_lat": 0.0, "name": "2630ec166b4d90a45d47a143e5877b25"}, {"type": "electric_bike", "fusion_lon": 0.0, "bike_id": "ec3f0f04b682ec08a141531b6861f4c6", "is_disabled": 0, "lat": 38.935678833333334, "rental_uris": {"ios": "https://dc.lft.to/lastmile_qr_scan", "android": "https://dc.lft.to/lastmile_qr_scan"}, "is_reserved": 0, "lon": -77.106144, "fusion_lat": 0.0, "name": "ec3f0f04b682ec08a141531b6861f4c6"}, {"type": "electric_scooter", "fusion_lon": 0.0, "bike_id": "3c8a889d8d04fecad2502875fb25d070", "is_disabled": 0, "lat": 38.972128, "rental_uris": {"ios": "https://dc.lft.to/lastmile_qr_scan", "android": "https://dc.lft.to/lastmile_qr_scan"}, "is_reserved": 0, "lon": -77.033373, "fusion_lat": 0.0, "name": "3c8a889d8d04fecad2502875fb25d070"}, {"type": "electric_bike", "fusion_lon": 0.0, "bike_id": "e6057503dab1280c93d7f6cf4d9d421d", "is_disabled": 0, "lat": 38.8468885, "rental_uris": {"ios": "https://dc.lft.to/lastmile_qr_scan", "android": "https://dc.lft.to/lastmile_qr_scan"}, "is_reserved": 0, "lon": -76.98285783333333, "fusion_lat": 0.0, "name": "e6057503dab1280c93d7f6cf4d9d421d"}, {"type": "electric_scooter", "fusion_lon": 0.0, "bike_id": "0496d7577a477e55344775200f0e3ed7", "is_disabled": 0, "lat": 38.904497666666664, "rental_uris": {"ios": "https://dc.lft.to/lastmile_qr_scan", "android": "https://dc.lft.to/lastmile_qr_scan"}, "is_reserved": 0, "lon": -77.058081, "fusion_lat": 0.0, "name": "0496d7577a477e55344775200f0e3ed7"}, {"type": "electric_scooter", "fusion_lon": 0.0, "bike_id": "a827178742960cb71d6833bdc4d9fb5a", "is_disabled": 0, "lat": 38.87664566666667, "rental_uris": {"ios": "https://dc.lft.to/lastmile_qr_scan", "android": "https://dc.lft.to/lastmile_qr_scan"}, "is_reserved": 0, "lon": -76.9962565, "fusion_lat": 0.0, "name": "a827178742960cb71d6833bdc4d9fb5a"}, {"type": "electric_scooter", "fusion_lon": 0.0, "bike_id": "f1faba61af6cd5e67a6552e7616a2fc5", "is_disabled": 0, "lat": 38.87993083333333, "rental_uris": {"ios": "https://dc.lft.to/lastmile_qr_scan", "android": "https://dc.lft.to/lastmile_qr_scan"}, "is_reserved": 0, "lon": -76.98683683333333, "fusion_lat": 0.0, "name": "f1faba61af6cd5e67a6552e7616a2fc5"}, {"type": "electric_scooter", "fusion_lon": 0.0, "bike_id": "3f09028b73b04ddb468a4bee49668fb4", "is_disabled": 0, "lat": 38.899763166666666, "rental_uris": {"ios": "https://dc.lft.to/lastmile_qr_scan", "android": "https://dc.lft.to/lastmile_qr_scan"}, "is_reserved": 0, "lon": -77.01921716666666, "fusion_lat": 0.0, "name": "3f09028b73b04ddb468a4bee49668fb4"}, {"type": "electric_scooter", "fusion_lon": 0.0, "bike_id": "879d740dc9e15147d4d14bfa7f2c002b", "is_disabled": 0, "lat": 38.892234, "rental_uris": {"ios": "https://dc.lft.to/lastmile_qr_scan", "android": "https://dc.lft.to/lastmile_qr_scan"}, "is_reserved": 0, "lon": -77.04503016666666, "fusion_lat": 0.0, "name": "879d740dc9e15147d4d14bfa7f2c002b"}, {"type": "electric_scooter", "fusion_lon": 0.0, "bike_id": "039554a207920f84e364c8bced78f743", "is_disabled": 0, "lat": 38.89915583333333, "rental_uris": {"ios": "https://dc.lft.to/lastmile_qr_scan", "android": "https://dc.lft.to/lastmile_qr_scan"}, "is_reserved": 0, "lon": -77.0280595, "fusion_lat": 0.0, "name": "039554a207920f84e364c8bced78f743"}, {"type": "electric_scooter", "fusion_lon": 0.0, "bike_id": "3cfdf87f5087499b35f2d64cb7deaab1", "is_disabled": 0, "lat": 38.91822166666667, "rental_uris": {"ios": "https://dc.lft.to/lastmile_qr_scan", "android": "https://dc.lft.to/lastmile_qr_scan"}, "is_reserved": 0, "lon": -77.034514, "fusion_lat": 0.0, "name": "3cfdf87f5087499b35f2d64cb7deaab1"}, {"type": "electric_scooter", "fusion_lon": 0.0, "bike_id": "8e1cc50701e44569596bd3a74d8fbb9f", "is_disabled": 0, "lat": 38.8994435, "rental_uris": {"ios": "https://dc.lft.to/lastmile_qr_scan", "android": "https://dc.lft.to/lastmile_qr_scan"}, "is_reserved": 0, "lon": -77.04492716666667, "fusion_lat": 0.0, "name": "8e1cc50701e44569596bd3a74d8fbb9f"}, {"type": "electric_bike", "fusion_lon": 0.0, "bike_id": "829aaa0109a83b23f4fb5fe65cdd61bd", "is_disabled": 0, "lat": 38.890182333333335, "rental_uris": {"ios": "https://dc.lft.to/lastmile_qr_scan", "android": "https://dc.lft.to/lastmile_qr_scan"}, "is_reserved": 0, "lon": -76.94170633333333, "fusion_lat": 0.0, "name": "829aaa0109a83b23f4fb5fe65cdd61bd"}, {"type": "electric_scooter", "fusion_lon": 0.0, "bike_id": "8cc2a7091dd968a8421191fc937cd70d", "is_disabled": 0, "lat": 38.91806016666666, "rental_uris": {"ios": "https://dc.lft.to/lastmile_qr_scan", "android": "https://dc.lft.to/lastmile_qr_scan"}, "is_reserved": 0, "lon": -77.01098833333333, "fusion_lat": 0.0, "name": "8cc2a7091dd968a8421191fc937cd70d"}, {"type": "electric_scooter", "fusion_lon": 0.0, "bike_id": "af8744b1f507a6afe2b5ca897766acfc", "is_disabled": 0, "lat": 38.9037035, "rental_uris": {"ios": "https://dc.lft.to/lastmile_qr_scan", "android": "https://dc.lft.to/lastmile_qr_scan"}, "is_reserved": 0, "lon": -77.0434445, "fusion_lat": 0.0, "name": "af8744b1f507a6afe2b5ca897766acfc"}, {"type": "electric_scooter", "fusion_lon": 0.0, "bike_id": "c9140e677cebadd30a0c90ca3d883d33", "is_disabled": 0, "lat": 38.87862766666667, "rental_uris": {"ios": "https://dc.lft.to/lastmile_qr_scan", "android": "https://dc.lft.to/lastmile_qr_scan"}, "is_reserved": 0, "lon": -76.9892385, "fusion_lat": 0.0, "name": "c9140e677cebadd30a0c90ca3d883d33"}, {"type": "electric_scooter", "fusion_lon": 0.0, "bike_id": "e61c30bbe89a27560025f0df13973548", "is_disabled": 0, "lat": 38.92660466666667, "rental_uris": {"ios": "https://dc.lft.to/lastmile_qr_scan", "android": "https://dc.lft.to/lastmile_qr_scan"}, "is_reserved": 0, "lon": -77.03714283333333, "fusion_lat": 0.0, "name": "e61c30bbe89a27560025f0df13973548"}, {"type": "electric_scooter", "fusion_lon": 0.0, "bike_id": "147fb04986c44476d6bd99d70c3cc7c2", "is_disabled": 0, "lat": 38.943139333333335, "rental_uris": {"ios": "https://dc.lft.to/lastmile_qr_scan", "android": "https://dc.lft.to/lastmile_qr_scan"}, "is_reserved": 0, "lon": -77.06173316666667, "fusion_lat": 0.0, "name": "147fb04986c44476d6bd99d70c3cc7c2"}, {"type": "electric_scooter", "fusion_lon": 0.0, "bike_id": "5843137b37314468f3d8c0c6393a66c5", "is_disabled": 0, "lat": 38.92391816666667, "rental_uris": {"ios": "https://dc.lft.to/lastmile_qr_scan", "android": "https://dc.lft.to/lastmile_qr_scan"}, "is_reserved": 0, "lon": -77.02976883333334, "fusion_lat": 0.0, "name": "5843137b37314468f3d8c0c6393a66c5"}, {"type": "electric_scooter", "fusion_lon": 0.0, "bike_id": "01a1a75680685c3616d2877612825b54", "is_disabled": 0, "lat": 38.906757999999996, "rental_uris": {"ios": "https://dc.lft.to/lastmile_qr_scan", "android": "https://dc.lft.to/lastmile_qr_scan"}, "is_reserved": 0, "lon": -77.02208933333333, "fusion_lat": 0.0, "name": "01a1a75680685c3616d2877612825b54"}, {"type": "electric_scooter", "fusion_lon": 0.0, "bike_id": "bc74694ccf4d65cbb6c00bc9020e0568", "is_disabled": 0, "lat": 38.90808616666666, "rental_uris": {"ios": "https://dc.lft.to/lastmile_qr_scan", "android": "https://dc.lft.to/lastmile_qr_scan"}, "is_reserved": 0, "lon": -77.0002965, "fusion_lat": 0.0, "name": "bc74694ccf4d65cbb6c00bc9020e0568"}, {"type": "electric_scooter", "fusion_lon": 0.0, "bike_id": "55f51c4122ad1b09fc0053cc820e2030", "is_disabled": 0, "lat": 38.883244, "rental_uris": {"ios": "https://dc.lft.to/lastmile_qr_scan", "android": "https://dc.lft.to/lastmile_qr_scan"}, "is_reserved": 0, "lon": -77.009335, "fusion_lat": 0.0, "name": "55f51c4122ad1b09fc0053cc820e2030"}, {"type": "electric_scooter", "fusion_lon": 0.0, "bike_id": "1ca595de86922575767ed2b480ecc0c9", "is_disabled": 0, "lat": 38.923331833333336, "rental_uris": {"ios": "https://dc.lft.to/lastmile_qr_scan", "android": "https://dc.lft.to/lastmile_qr_scan"}, "is_reserved": 0, "lon": -77.03549333333333, "fusion_lat": 0.0, "name": "1ca595de86922575767ed2b480ecc0c9"}, {"type": "electric_scooter", "fusion_lon": 0.0, "bike_id": "4352d6c623448afbcc7d6f6f22dfcc3b", "is_disabled": 0, "lat": 38.94215633333334, "rental_uris": {"ios": "https://dc.lft.to/lastmile_qr_scan", "android": "https://dc.lft.to/lastmile_qr_scan"}, "is_reserved": 0, "lon": -77.0135875, "fusion_lat": 0.0, "name": "4352d6c623448afbcc7d6f6f22dfcc3b"}, {"type": "electric_scooter", "fusion_lon": 0.0, "bike_id": "34236a93b7d00c249f1f8a8432becbc2", "is_disabled": 0, "lat": 38.896946, "rental_uris": {"ios": "https://dc.lft.to/lastmile_qr_scan", "android": "https://dc.lft.to/lastmile_qr_scan"}, "is_reserved": 0, "lon": -77.01962733333333, "fusion_lat": 0.0, "name": "34236a93b7d00c249f1f8a8432becbc2"}, {"type": "electric_scooter", "fusion_lon": 0.0, "bike_id": "55057f79ef0f3f42b94cf4f7cfa10b33", "is_disabled": 0, "lat": 38.938651666666665, "rental_uris": {"ios": "https://dc.lft.to/lastmile_qr_scan", "android": "https://dc.lft.to/lastmile_qr_scan"}, "is_reserved": 0, "lon": -77.02665666666667, "fusion_lat": 0.0, "name": "55057f79ef0f3f42b94cf4f7cfa10b33"}, {"type": "electric_scooter", "fusion_lon": 0.0, "bike_id": "9a2e2fc68b180b53352fbc32410763e7", "is_disabled": 0, "lat": 38.894444166666666, "rental_uris": {"ios": "https://dc.lft.to/lastmile_qr_scan", "android": "https://dc.lft.to/lastmile_qr_scan"}, "is_reserved": 0, "lon": -77.0107375, "fusion_lat": 0.0, "name": "9a2e2fc68b180b53352fbc32410763e7"}, {"type": "electric_scooter", "fusion_lon": 0.0, "bike_id": "d57d28ec75534a422eda45f4eec6eaeb", "is_disabled": 0, "lat": 38.923540333333335, "rental_uris": {"ios": "https://dc.lft.to/lastmile_qr_scan", "android": "https://dc.lft.to/lastmile_qr_scan"}, "is_reserved": 0, "lon": -76.99947133333333, "fusion_lat": 0.0, "name": "d57d28ec75534a422eda45f4eec6eaeb"}, {"type": "electric_bike", "fusion_lon": 0.0, "bike_id": "1b366ddf805f1854765f8fc847decd54", "is_disabled": 0, "lat": 38.97254433333333, "rental_uris": {"ios": "https://dc.lft.to/lastmile_qr_scan", "android": "https://dc.lft.to/lastmile_qr_scan"}, "is_reserved": 0, "lon": -76.9806235, "fusion_lat": 0.0, "name": "1b366ddf805f1854765f8fc847decd54"}, {"type": "electric_scooter", "fusion_lon": 0.0, "bike_id": "85f512b089a4dd94f4fd597f53c81fd7", "is_disabled": 0, "lat": 38.9233875, "rental_uris": {"ios": "https://dc.lft.to/lastmile_qr_scan", "android": "https://dc.lft.to/lastmile_qr_scan"}, "is_reserved": 0, "lon": -77.05173883333333, "fusion_lat": 0.0, "name": "85f512b089a4dd94f4fd597f53c81fd7"}, {"type": "electric_scooter", "fusion_lon": 0.0, "bike_id": "44e169fcfbbe07624beee92d653928b6", "is_disabled": 0, "lat": 38.878356333333336, "rental_uris": {"ios": "https://dc.lft.to/lastmile_qr_scan", "android": "https://dc.lft.to/lastmile_qr_scan"}, "is_reserved": 0, "lon": -77.00460983333333, "fusion_lat": 0.0, "name": "44e169fcfbbe07624beee92d653928b6"}, {"type": "electric_scooter", "fusion_lon": 0.0, "bike_id": "9d5d67ccde1be4c602c4df65a173c6e0", "is_disabled": 0, "lat": 38.922846166666666, "rental_uris": {"ios": "https://dc.lft.to/lastmile_qr_scan", "android": "https://dc.lft.to/lastmile_qr_scan"}, "is_reserved": 0, "lon": -77.03660716666667, "fusion_lat": 0.0, "name": "9d5d67ccde1be4c602c4df65a173c6e0"}, {"type": "electric_scooter", "fusion_lon": 0.0, "bike_id": "3324cb720cffa9da3b751dbde66cac58", "is_disabled": 0, "lat": 38.910735333333335, "rental_uris": {"ios": "https://dc.lft.to/lastmile_qr_scan", "android": "https://dc.lft.to/lastmile_qr_scan"}, "is_reserved": 0, "lon": -77.027213, "fusion_lat": 0.0, "name": "3324cb720cffa9da3b751dbde66cac58"}, {"type": "electric_scooter", "fusion_lon": 0.0, "bike_id": "0447b74382a700471958ecfaa72c0f5e", "is_disabled": 0, "lat": 38.89965183333333, "rental_uris": {"ios": "https://dc.lft.to/lastmile_qr_scan", "android": "https://dc.lft.to/lastmile_qr_scan"}, "is_reserved": 0, "lon": -77.04788966666666, "fusion_lat": 0.0, "name": "0447b74382a700471958ecfaa72c0f5e"}, {"type": "electric_scooter", "fusion_lon": 0.0, "bike_id": "82933f9c80b85c286f6ab633c74e0390", "is_disabled": 0, "lat": 38.879222, "rental_uris": {"ios": "https://dc.lft.to/lastmile_qr_scan", "android": "https://dc.lft.to/lastmile_qr_scan"}, "is_reserved": 0, "lon": -76.99543366666667, "fusion_lat": 0.0, "name": "82933f9c80b85c286f6ab633c74e0390"}, {"type": "electric_scooter", "fusion_lon": 0.0, "bike_id": "1537fc137c37cb5ec9170710227cd3e7", "is_disabled": 0, "lat": 38.88613433333333, "rental_uris": {"ios": "https://dc.lft.to/lastmile_qr_scan", "android": "https://dc.lft.to/lastmile_qr_scan"}, "is_reserved": 0, "lon": -76.98554116666666, "fusion_lat": 0.0, "name": "1537fc137c37cb5ec9170710227cd3e7"}, {"type": "electric_scooter", "fusion_lon": 0.0, "bike_id": "e1fcbd987c8af48bd25a06da251065ef", "is_disabled": 0, "lat": 38.892233, "rental_uris": {"ios": "https://dc.lft.to/lastmile_qr_scan", "android": "https://dc.lft.to/lastmile_qr_scan"}, "is_reserved": 0, "lon": -77.026274, "fusion_lat": 0.0, "name": "e1fcbd987c8af48bd25a06da251065ef"}, {"type": "electric_scooter", "fusion_lon": 0.0, "bike_id": "bbd3703d643563a2f6fc0a3eead1385c", "is_disabled": 0, "lat": 38.93122416666667, "rental_uris": {"ios": "https://dc.lft.to/lastmile_qr_scan", "android": "https://dc.lft.to/lastmile_qr_scan"}, "is_reserved": 0, "lon": -77.0207075, "fusion_lat": 0.0, "name": "bbd3703d643563a2f6fc0a3eead1385c"}, {"type": "electric_scooter", "fusion_lon": 0.0, "bike_id": "cefd74e7516bc024a24fa128e11ff0c5", "is_disabled": 0, "lat": 38.908462, "rental_uris": {"ios": "https://dc.lft.to/lastmile_qr_scan", "android": "https://dc.lft.to/lastmile_qr_scan"}, "is_reserved": 0, "lon": -76.99679733333333, "fusion_lat": 0.0, "name": "cefd74e7516bc024a24fa128e11ff0c5"}, {"type": "electric_scooter", "fusion_lon": 0.0, "bike_id": "720dcd48708dd1e467f2a4bd662ab789", "is_disabled": 0, "lat": 38.92584933333333, "rental_uris": {"ios": "https://dc.lft.to/lastmile_qr_scan", "android": "https://dc.lft.to/lastmile_qr_scan"}, "is_reserved": 0, "lon": -77.0353915, "fusion_lat": 0.0, "name": "720dcd48708dd1e467f2a4bd662ab789"}, {"type": "electric_scooter", "fusion_lon": 0.0, "bike_id": "358685adb639f9ae72d63666c0867384", "is_disabled": 0, "lat": 38.91565766666667, "rental_uris": {"ios": "https://dc.lft.to/lastmile_qr_scan", "android": "https://dc.lft.to/lastmile_qr_scan"}, "is_reserved": 0, "lon": -77.02687316666666, "fusion_lat": 0.0, "name": "358685adb639f9ae72d63666c0867384"}, {"type": "electric_scooter", "fusion_lon": 0.0, "bike_id": "b51f13cb5e43ae52aa37c2cd5d42fe91", "is_disabled": 0, "lat": 38.892201666666665, "rental_uris": {"ios": "https://dc.lft.to/lastmile_qr_scan", "android": "https://dc.lft.to/lastmile_qr_scan"}, "is_reserved": 0, "lon": -77.02218266666667, "fusion_lat": 0.0, "name": "b51f13cb5e43ae52aa37c2cd5d42fe91"}, {"type": "electric_scooter", "fusion_lon": 0.0, "bike_id": "d945ce76f3b0870f31c4c45638ca7d42", "is_disabled": 0, "lat": 38.891981333333334, "rental_uris": {"ios": "https://dc.lft.to/lastmile_qr_scan", "android": "https://dc.lft.to/lastmile_qr_scan"}, "is_reserved": 0, "lon": -77.02378083333333, "fusion_lat": 0.0, "name": "d945ce76f3b0870f31c4c45638ca7d42"}, {"type": "electric_scooter", "fusion_lon": 0.0, "bike_id": "6a130a46112fbcfcbf80e45f36456ef1", "is_disabled": 0, "lat": 38.91878, "rental_uris": {"ios": "https://dc.lft.to/lastmile_qr_scan", "android": "https://dc.lft.to/lastmile_qr_scan"}, "is_reserved": 0, "lon": -77.02588416666667, "fusion_lat": 0.0, "name": "6a130a46112fbcfcbf80e45f36456ef1"}, {"type": "electric_scooter", "fusion_lon": 0.0, "bike_id": "0932e597a1be6aad97f3944a7f685472", "is_disabled": 0, "lat": 38.956552333333335, "rental_uris": {"ios": "https://dc.lft.to/lastmile_qr_scan", "android": "https://dc.lft.to/lastmile_qr_scan"}, "is_reserved": 0, "lon": -77.0196635, "fusion_lat": 0.0, "name": "0932e597a1be6aad97f3944a7f685472"}, {"type": "electric_scooter", "fusion_lon": 0.0, "bike_id": "16c76e633eddd90afdaf9c320da95de5", "is_disabled": 0, "lat": 38.937623, "rental_uris": {"ios": "https://dc.lft.to/lastmile_qr_scan", "android": "https://dc.lft.to/lastmile_qr_scan"}, "is_reserved": 0, "lon": -77.02133566666667, "fusion_lat": 0.0, "name": "16c76e633eddd90afdaf9c320da95de5"}, {"type": "electric_scooter", "fusion_lon": 0.0, "bike_id": "2c4aa635f7876c2132fef4d30b5ac5cf", "is_disabled": 0, "lat": 38.92630366666667, "rental_uris": {"ios": "https://dc.lft.to/lastmile_qr_scan", "android": "https://dc.lft.to/lastmile_qr_scan"}, "is_reserved": 0, "lon": -76.99624166666666, "fusion_lat": 0.0, "name": "2c4aa635f7876c2132fef4d30b5ac5cf"}, {"type": "electric_scooter", "fusion_lon": 0.0, "bike_id": "63f71f5ae15e737c8d129383cd553498", "is_disabled": 0, "lat": 38.88736166666666, "rental_uris": {"ios": "https://dc.lft.to/lastmile_qr_scan", "android": "https://dc.lft.to/lastmile_qr_scan"}, "is_reserved": 0, "lon": -77.03176383333333, "fusion_lat": 0.0, "name": "63f71f5ae15e737c8d129383cd553498"}, {"type": "electric_scooter", "fusion_lon": 0.0, "bike_id": "2b7e8304685e4add45074af36cbd6ba5", "is_disabled": 0, "lat": 38.87884233333333, "rental_uris": {"ios": "https://dc.lft.to/lastmile_qr_scan", "android": "https://dc.lft.to/lastmile_qr_scan"}, "is_reserved": 0, "lon": -77.00536716666667, "fusion_lat": 0.0, "name": "2b7e8304685e4add45074af36cbd6ba5"}, {"type": "electric_scooter", "fusion_lon": 0.0, "bike_id": "1d6b83500fb21d70d1f5ffa5935fc582", "is_disabled": 0, "lat": 38.924697, "rental_uris": {"ios": "https://dc.lft.to/lastmile_qr_scan", "android": "https://dc.lft.to/lastmile_qr_scan"}, "is_reserved": 0, "lon": -77.02712316666667, "fusion_lat": 0.0, "name": "1d6b83500fb21d70d1f5ffa5935fc582"}, {"type": "electric_scooter", "fusion_lon": 0.0, "bike_id": "d05e0ff374021f475a35aeacfd76044a", "is_disabled": 0, "lat": 38.91405066666667, "rental_uris": {"ios": "https://dc.lft.to/lastmile_qr_scan", "android": "https://dc.lft.to/lastmile_qr_scan"}, "is_reserved": 0, "lon": -77.0326365, "fusion_lat": 0.0, "name": "d05e0ff374021f475a35aeacfd76044a"}, {"type": "electric_scooter", "fusion_lon": 0.0, "bike_id": "6177f80f8a31da0ba67267f26eefe93d", "is_disabled": 0, "lat": 38.91197616666667, "rental_uris": {"ios": "https://dc.lft.to/lastmile_qr_scan", "android": "https://dc.lft.to/lastmile_qr_scan"}, "is_reserved": 0, "lon": -77.04541433333333, "fusion_lat": 0.0, "name": "6177f80f8a31da0ba67267f26eefe93d"}, {"type": "electric_scooter", "fusion_lon": 0.0, "bike_id": "b6c61b8f3171c87b03bd1729f53829be", "is_disabled": 0, "lat": 38.89757733333333, "rental_uris": {"ios": "https://dc.lft.to/lastmile_qr_scan", "android": "https://dc.lft.to/lastmile_qr_scan"}, "is_reserved": 0, "lon": -76.98649583333334, "fusion_lat": 0.0, "name": "b6c61b8f3171c87b03bd1729f53829be"}, {"type": "electric_scooter", "fusion_lon": 0.0, "bike_id": "bf31b24b992b0b606957e92db83d2368", "is_disabled": 0, "lat": 38.921356333333335, "rental_uris": {"ios": "https://dc.lft.to/lastmile_qr_scan", "android": "https://dc.lft.to/lastmile_qr_scan"}, "is_reserved": 0, "lon": -77.03667516666667, "fusion_lat": 0.0, "name": "bf31b24b992b0b606957e92db83d2368"}, {"type": "electric_scooter", "fusion_lon": 0.0, "bike_id": "4583b17559b17e6a7b166e293515fcd3", "is_disabled": 0, "lat": 38.90122683333333, "rental_uris": {"ios": "https://dc.lft.to/lastmile_qr_scan", "android": "https://dc.lft.to/lastmile_qr_scan"}, "is_reserved": 0, "lon": -77.05148933333334, "fusion_lat": 0.0, "name": "4583b17559b17e6a7b166e293515fcd3"}, {"type": "electric_scooter", "fusion_lon": 0.0, "bike_id": "7052397e0bb13ffb3bd74984c0d77549", "is_disabled": 0, "lat": 38.934391166666664, "rental_uris": {"ios": "https://dc.lft.to/lastmile_qr_scan", "android": "https://dc.lft.to/lastmile_qr_scan"}, "is_reserved": 0, "lon": -77.032855, "fusion_lat": 0.0, "name": "7052397e0bb13ffb3bd74984c0d77549"}, {"type": "electric_scooter", "fusion_lon": 0.0, "bike_id": "639deea141ea071023204c857bdf8127", "is_disabled": 0, "lat": 38.914139166666665, "rental_uris": {"ios": "https://dc.lft.to/lastmile_qr_scan", "android": "https://dc.lft.to/lastmile_qr_scan"}, "is_reserved": 0, "lon": -77.035504, "fusion_lat": 0.0, "name": "639deea141ea071023204c857bdf8127"}, {"type": "electric_scooter", "fusion_lon": 0.0, "bike_id": "b2d6a9e7b3e32406a42e15e05f914c56", "is_disabled": 0, "lat": 38.90626366666667, "rental_uris": {"ios": "https://dc.lft.to/lastmile_qr_scan", "android": "https://dc.lft.to/lastmile_qr_scan"}, "is_reserved": 0, "lon": -77.05130883333334, "fusion_lat": 0.0, "name": "b2d6a9e7b3e32406a42e15e05f914c56"}, {"type": "electric_scooter", "fusion_lon": 0.0, "bike_id": "2b01a724262f1972cf08c14f7384be3f", "is_disabled": 0, "lat": 38.957089833333335, "rental_uris": {"ios": "https://dc.lft.to/lastmile_qr_scan", "android": "https://dc.lft.to/lastmile_qr_scan"}, "is_reserved": 0, "lon": -77.024044, "fusion_lat": 0.0, "name": "2b01a724262f1972cf08c14f7384be3f"}, {"type": "electric_scooter", "fusion_lon": 0.0, "bike_id": "44999d463419ddd210ba430717d9570c", "is_disabled": 0, "lat": 38.9460915, "rental_uris": {"ios": "https://dc.lft.to/lastmile_qr_scan", "android": "https://dc.lft.to/lastmile_qr_scan"}, "is_reserved": 0, "lon": -77.0788095, "fusion_lat": 0.0, "name": "44999d463419ddd210ba430717d9570c"}, {"type": "electric_scooter", "fusion_lon": 0.0, "bike_id": "669fda276fb8fe4dc4da0271f1033c88", "is_disabled": 0, "lat": 38.93616516666667, "rental_uris": {"ios": "https://dc.lft.to/lastmile_qr_scan", "android": "https://dc.lft.to/lastmile_qr_scan"}, "is_reserved": 0, "lon": -77.03781366666666, "fusion_lat": 0.0, "name": "669fda276fb8fe4dc4da0271f1033c88"}, {"type": "electric_scooter", "fusion_lon": 0.0, "bike_id": "2e0c436fe72f756de900ba43b73dc7dc", "is_disabled": 0, "lat": 38.90883216666667, "rental_uris": {"ios": "https://dc.lft.to/lastmile_qr_scan", "android": "https://dc.lft.to/lastmile_qr_scan"}, "is_reserved": 0, "lon": -77.00278583333333, "fusion_lat": 0.0, "name": "2e0c436fe72f756de900ba43b73dc7dc"}, {"type": "electric_bike", "fusion_lon": 0.0, "bike_id": "68b5fd65858ebffc5f89522d588448e2", "is_disabled": 0, "lat": 38.8075645, "rental_uris": {"ios": "https://dc.lft.to/lastmile_qr_scan", "android": "https://dc.lft.to/lastmile_qr_scan"}, "is_reserved": 0, "lon": -77.09456016666667, "fusion_lat": 0.0, "name": "68b5fd65858ebffc5f89522d588448e2"}, {"type": "electric_scooter", "fusion_lon": 0.0, "bike_id": "70d338e7a866f89242b0ab4196454ca7", "is_disabled": 0, "lat": 38.89222733333333, "rental_uris": {"ios": "https://dc.lft.to/lastmile_qr_scan", "android": "https://dc.lft.to/lastmile_qr_scan"}, "is_reserved": 0, "lon": -77.03165066666666, "fusion_lat": 0.0, "name": "70d338e7a866f89242b0ab4196454ca7"}, {"type": "electric_scooter", "fusion_lon": 0.0, "bike_id": "9da2fe2e958c85f7c95fe445b1669bcb", "is_disabled": 0, "lat": 38.935965, "rental_uris": {"ios": "https://dc.lft.to/lastmile_qr_scan", "android": "https://dc.lft.to/lastmile_qr_scan"}, "is_reserved": 0, "lon": -77.0379545, "fusion_lat": 0.0, "name": "9da2fe2e958c85f7c95fe445b1669bcb"}, {"type": "electric_scooter", "fusion_lon": 0.0, "bike_id": "98803a6a86b2f45d4725f4957a54e470", "is_disabled": 0, "lat": 38.92793016666667, "rental_uris": {"ios": "https://dc.lft.to/lastmile_qr_scan", "android": "https://dc.lft.to/lastmile_qr_scan"}, "is_reserved": 0, "lon": -77.03693466666667, "fusion_lat": 0.0, "name": "98803a6a86b2f45d4725f4957a54e470"}, {"type": "electric_scooter", "fusion_lon": 0.0, "bike_id": "aadaaef894f169ad69ad754743c8bbad", "is_disabled": 0, "lat": 38.8765955, "rental_uris": {"ios": "https://dc.lft.to/lastmile_qr_scan", "android": "https://dc.lft.to/lastmile_qr_scan"}, "is_reserved": 0, "lon": -77.00582683333333, "fusion_lat": 0.0, "name": "aadaaef894f169ad69ad754743c8bbad"}, {"type": "electric_scooter", "fusion_lon": 0.0, "bike_id": "5c6033746fcf910fa8549b3d6909785a", "is_disabled": 0, "lat": 38.954124, "rental_uris": {"ios": "https://dc.lft.to/lastmile_qr_scan", "android": "https://dc.lft.to/lastmile_qr_scan"}, "is_reserved": 0, "lon": -77.03521183333334, "fusion_lat": 0.0, "name": "5c6033746fcf910fa8549b3d6909785a"}, {"type": "electric_scooter", "fusion_lon": 0.0, "bike_id": "390c9ed8eb9cf7cf6e3362c9e3727193", "is_disabled": 0, "lat": 38.902780166666666, "rental_uris": {"ios": "https://dc.lft.to/lastmile_qr_scan", "android": "https://dc.lft.to/lastmile_qr_scan"}, "is_reserved": 0, "lon": -77.03835316666667, "fusion_lat": 0.0, "name": "390c9ed8eb9cf7cf6e3362c9e3727193"}, {"type": "electric_scooter", "fusion_lon": 0.0, "bike_id": "48236e3e86a475eefba35248deb23564", "is_disabled": 0, "lat": 38.91531166666667, "rental_uris": {"ios": "https://dc.lft.to/lastmile_qr_scan", "android": "https://dc.lft.to/lastmile_qr_scan"}, "is_reserved": 0, "lon": -77.04445483333333, "fusion_lat": 0.0, "name": "48236e3e86a475eefba35248deb23564"}, {"type": "electric_scooter", "fusion_lon": 0.0, "bike_id": "1e83bca8ce0b532e19be614964d8bfc3", "is_disabled": 0, "lat": 38.8628955, "rental_uris": {"ios": "https://dc.lft.to/lastmile_qr_scan", "android": "https://dc.lft.to/lastmile_qr_scan"}, "is_reserved": 0, "lon": -76.992248, "fusion_lat": 0.0, "name": "1e83bca8ce0b532e19be614964d8bfc3"}, {"type": "electric_scooter", "fusion_lon": 0.0, "bike_id": "89265edf35b7d9406aa48f021a031804", "is_disabled": 0, "lat": 38.8669395, "rental_uris": {"ios": "https://dc.lft.to/lastmile_qr_scan", "android": "https://dc.lft.to/lastmile_qr_scan"}, "is_reserved": 0, "lon": -76.98092566666666, "fusion_lat": 0.0, "name": "89265edf35b7d9406aa48f021a031804"}, {"type": "electric_bike", "fusion_lon": 0.0, "bike_id": "57c50e9c3c7b314081ed43eff60f4926", "is_disabled": 0, "lat": 38.8489845, "rental_uris": {"ios": "https://dc.lft.to/lastmile_qr_scan", "android": "https://dc.lft.to/lastmile_qr_scan"}, "is_reserved": 0, "lon": -77.079557, "fusion_lat": 0.0, "name": "57c50e9c3c7b314081ed43eff60f4926"}, {"type": "electric_scooter", "fusion_lon": 0.0, "bike_id": "7c88f109e1e14544e0e397a1002ed235", "is_disabled": 0, "lat": 38.94889416666667, "rental_uris": {"ios": "https://dc.lft.to/lastmile_qr_scan", "android": "https://dc.lft.to/lastmile_qr_scan"}, "is_reserved": 0, "lon": -77.01853683333333, "fusion_lat": 0.0, "name": "7c88f109e1e14544e0e397a1002ed235"}, {"type": "electric_scooter", "fusion_lon": 0.0, "bike_id": "c8a86658e63165b401f8815cc0b9a6fb", "is_disabled": 0, "lat": 38.92296316666667, "rental_uris": {"ios": "https://dc.lft.to/lastmile_qr_scan", "android": "https://dc.lft.to/lastmile_qr_scan"}, "is_reserved": 0, "lon": -77.04207416666667, "fusion_lat": 0.0, "name": "c8a86658e63165b401f8815cc0b9a6fb"}, {"type": "electric_scooter", "fusion_lon": 0.0, "bike_id": "c2dcd2ae86fbd843a7a6bf6326cc87ee", "is_disabled": 0, "lat": 38.92743266666667, "rental_uris": {"ios": "https://dc.lft.to/lastmile_qr_scan", "android": "https://dc.lft.to/lastmile_qr_scan"}, "is_reserved": 0, "lon": -76.95552666666667, "fusion_lat": 0.0, "name": "c2dcd2ae86fbd843a7a6bf6326cc87ee"}, {"type": "electric_scooter", "fusion_lon": 0.0, "bike_id": "bb80bd2a402bbd1a5cb71141e55636df", "is_disabled": 0, "lat": 38.91946333333333, "rental_uris": {"ios": "https://dc.lft.to/lastmile_qr_scan", "android": "https://dc.lft.to/lastmile_qr_scan"}, "is_reserved": 0, "lon": -77.03174516666667, "fusion_lat": 0.0, "name": "bb80bd2a402bbd1a5cb71141e55636df"}, {"type": "electric_scooter", "fusion_lon": 0.0, "bike_id": "4b55463cb26179c9d1215284b18c7ace", "is_disabled": 0, "lat": 38.90896583333333, "rental_uris": {"ios": "https://dc.lft.to/lastmile_qr_scan", "android": "https://dc.lft.to/lastmile_qr_scan"}, "is_reserved": 0, "lon": -77.04501533333334, "fusion_lat": 0.0, "name": "4b55463cb26179c9d1215284b18c7ace"}, {"type": "electric_scooter", "fusion_lon": 0.0, "bike_id": "9f860647f02825df68872fe5e4d2370e", "is_disabled": 0, "lat": 38.882938333333335, "rental_uris": {"ios": "https://dc.lft.to/lastmile_qr_scan", "android": "https://dc.lft.to/lastmile_qr_scan"}, "is_reserved": 0, "lon": -77.02205183333334, "fusion_lat": 0.0, "name": "9f860647f02825df68872fe5e4d2370e"}, {"type": "electric_scooter", "fusion_lon": 0.0, "bike_id": "4d13caceee19b3e3cb9cd07ae3ac875a", "is_disabled": 0, "lat": 38.892364, "rental_uris": {"ios": "https://dc.lft.to/lastmile_qr_scan", "android": "https://dc.lft.to/lastmile_qr_scan"}, "is_reserved": 0, "lon": -77.03210316666667, "fusion_lat": 0.0, "name": "4d13caceee19b3e3cb9cd07ae3ac875a"}, {"type": "electric_scooter", "fusion_lon": 0.0, "bike_id": "b736ad045a5cc3a792c0d756b9fb39d3", "is_disabled": 0, "lat": 38.903784, "rental_uris": {"ios": "https://dc.lft.to/lastmile_qr_scan", "android": "https://dc.lft.to/lastmile_qr_scan"}, "is_reserved": 0, "lon": -77.01776683333334, "fusion_lat": 0.0, "name": "b736ad045a5cc3a792c0d756b9fb39d3"}, {"type": "electric_scooter", "fusion_lon": 0.0, "bike_id": "30aeb8217e6cb1ea752fdaddd3677861", "is_disabled": 0, "lat": 38.886614, "rental_uris": {"ios": "https://dc.lft.to/lastmile_qr_scan", "android": "https://dc.lft.to/lastmile_qr_scan"}, "is_reserved": 0, "lon": -77.02833416666667, "fusion_lat": 0.0, "name": "30aeb8217e6cb1ea752fdaddd3677861"}, {"type": "electric_scooter", "fusion_lon": 0.0, "bike_id": "ecc0c9d8ee3acfff132dc3317cf39889", "is_disabled": 0, "lat": 38.9265255, "rental_uris": {"ios": "https://dc.lft.to/lastmile_qr_scan", "android": "https://dc.lft.to/lastmile_qr_scan"}, "is_reserved": 0, "lon": -77.02432016666667, "fusion_lat": 0.0, "name": "ecc0c9d8ee3acfff132dc3317cf39889"}, {"type": "electric_bike", "fusion_lon": 0.0, "bike_id": "f69458d36266291206c64920f5d90673", "is_disabled": 0, "lat": 38.835866333333335, "rental_uris": {"ios": "https://dc.lft.to/lastmile_qr_scan", "android": "https://dc.lft.to/lastmile_qr_scan"}, "is_reserved": 0, "lon": -77.00142883333334, "fusion_lat": 0.0, "name": "f69458d36266291206c64920f5d90673"}, {"type": "electric_scooter", "fusion_lon": 0.0, "bike_id": "89c0548bd75e6809d210439e74d11b55", "is_disabled": 0, "lat": 38.892321, "rental_uris": {"ios": "https://dc.lft.to/lastmile_qr_scan", "android": "https://dc.lft.to/lastmile_qr_scan"}, "is_reserved": 0, "lon": -77.04661483333334, "fusion_lat": 0.0, "name": "89c0548bd75e6809d210439e74d11b55"}, {"type": "electric_scooter", "fusion_lon": 0.0, "bike_id": "23104833af249eae7d9647823885f03b", "is_disabled": 0, "lat": 38.914125166666665, "rental_uris": {"ios": "https://dc.lft.to/lastmile_qr_scan", "android": "https://dc.lft.to/lastmile_qr_scan"}, "is_reserved": 0, "lon": -77.01072816666667, "fusion_lat": 0.0, "name": "23104833af249eae7d9647823885f03b"}, {"type": "electric_scooter", "fusion_lon": 0.0, "bike_id": "dffbc755fc5829ab222011fcbc965924", "is_disabled": 0, "lat": 38.9047125, "rental_uris": {"ios": "https://dc.lft.to/lastmile_qr_scan", "android": "https://dc.lft.to/lastmile_qr_scan"}, "is_reserved": 0, "lon": -77.0270885, "fusion_lat": 0.0, "name": "dffbc755fc5829ab222011fcbc965924"}, {"type": "electric_scooter", "fusion_lon": 0.0, "bike_id": "80464641c96e3e4a0d12993e51f1cd0b", "is_disabled": 0, "lat": 38.9195625, "rental_uris": {"ios": "https://dc.lft.to/lastmile_qr_scan", "android": "https://dc.lft.to/lastmile_qr_scan"}, "is_reserved": 0, "lon": -77.02595533333333, "fusion_lat": 0.0, "name": "80464641c96e3e4a0d12993e51f1cd0b"}, {"type": "electric_scooter", "fusion_lon": 0.0, "bike_id": "db399178c31cb0e550d764cbed1ed786", "is_disabled": 0, "lat": 38.922655, "rental_uris": {"ios": "https://dc.lft.to/lastmile_qr_scan", "android": "https://dc.lft.to/lastmile_qr_scan"}, "is_reserved": 0, "lon": -77.02963733333333, "fusion_lat": 0.0, "name": "db399178c31cb0e550d764cbed1ed786"}, {"type": "electric_scooter", "fusion_lon": 0.0, "bike_id": "226eebaee2e4a27fd5596403ffbcd239", "is_disabled": 0, "lat": 38.948430333333334, "rental_uris": {"ios": "https://dc.lft.to/lastmile_qr_scan", "android": "https://dc.lft.to/lastmile_qr_scan"}, "is_reserved": 0, "lon": -77.02468233333333, "fusion_lat": 0.0, "name": "226eebaee2e4a27fd5596403ffbcd239"}, {"type": "electric_scooter", "fusion_lon": 0.0, "bike_id": "19acb7ae19f8289a0c94832f7b6bd69a", "is_disabled": 0, "lat": 38.915318166666665, "rental_uris": {"ios": "https://dc.lft.to/lastmile_qr_scan", "android": "https://dc.lft.to/lastmile_qr_scan"}, "is_reserved": 0, "lon": -77.044516, "fusion_lat": 0.0, "name": "19acb7ae19f8289a0c94832f7b6bd69a"}, {"type": "electric_scooter", "fusion_lon": 0.0, "bike_id": "637e49ce912238920aec98b73d56b032", "is_disabled": 0, "lat": 38.916622, "rental_uris": {"ios": "https://dc.lft.to/lastmile_qr_scan", "android": "https://dc.lft.to/lastmile_qr_scan"}, "is_reserved": 0, "lon": -77.04400516666666, "fusion_lat": 0.0, "name": "637e49ce912238920aec98b73d56b032"}, {"type": "electric_scooter", "fusion_lon": 0.0, "bike_id": "a0126de1f57f1fd118dfc06ad9c6b838", "is_disabled": 0, "lat": 38.90152783333333, "rental_uris": {"ios": "https://dc.lft.to/lastmile_qr_scan", "android": "https://dc.lft.to/lastmile_qr_scan"}, "is_reserved": 0, "lon": -77.04068883333333, "fusion_lat": 0.0, "name": "a0126de1f57f1fd118dfc06ad9c6b838"}, {"type": "electric_scooter", "fusion_lon": 0.0, "bike_id": "580bd090a8c2ce9a42de730045c47c23", "is_disabled": 0, "lat": 38.90518316666667, "rental_uris": {"ios": "https://dc.lft.to/lastmile_qr_scan", "android": "https://dc.lft.to/lastmile_qr_scan"}, "is_reserved": 0, "lon": -77.06482283333334, "fusion_lat": 0.0, "name": "580bd090a8c2ce9a42de730045c47c23"}, {"type": "electric_scooter", "fusion_lon": 0.0, "bike_id": "1866eb1e1c71639ee2d90334fb2e5121", "is_disabled": 0, "lat": 38.92360083333333, "rental_uris": {"ios": "https://dc.lft.to/lastmile_qr_scan", "android": "https://dc.lft.to/lastmile_qr_scan"}, "is_reserved": 0, "lon": -77.03647483333333, "fusion_lat": 0.0, "name": "1866eb1e1c71639ee2d90334fb2e5121"}, {"type": "electric_scooter", "fusion_lon": 0.0, "bike_id": "e559de66a8ae3d1efac2bdf707ea8418", "is_disabled": 0, "lat": 38.914017, "rental_uris": {"ios": "https://dc.lft.to/lastmile_qr_scan", "android": "https://dc.lft.to/lastmile_qr_scan"}, "is_reserved": 0, "lon": -77.0642405, "fusion_lat": 0.0, "name": "e559de66a8ae3d1efac2bdf707ea8418"}, {"type": "electric_scooter", "fusion_lon": 0.0, "bike_id": "3940ff3ffb68987bdf0071b76e2ca814", "is_disabled": 0, "lat": 38.93089416666667, "rental_uris": {"ios": "https://dc.lft.to/lastmile_qr_scan", "android": "https://dc.lft.to/lastmile_qr_scan"}, "is_reserved": 0, "lon": -77.02465983333333, "fusion_lat": 0.0, "name": "3940ff3ffb68987bdf0071b76e2ca814"}, {"type": "electric_scooter", "fusion_lon": 0.0, "bike_id": "4768f29a1b7ce383908c0a82c42af4e5", "is_disabled": 0, "lat": 38.90761966666667, "rental_uris": {"ios": "https://dc.lft.to/lastmile_qr_scan", "android": "https://dc.lft.to/lastmile_qr_scan"}, "is_reserved": 0, "lon": -77.03580183333334, "fusion_lat": 0.0, "name": "4768f29a1b7ce383908c0a82c42af4e5"}, {"type": "electric_scooter", "fusion_lon": 0.0, "bike_id": "3c589b8f52adf35024a71234426c0a82", "is_disabled": 0, "lat": 38.96607933333333, "rental_uris": {"ios": "https://dc.lft.to/lastmile_qr_scan", "android": "https://dc.lft.to/lastmile_qr_scan"}, "is_reserved": 0, "lon": -77.027473, "fusion_lat": 0.0, "name": "3c589b8f52adf35024a71234426c0a82"}, {"type": "electric_scooter", "fusion_lon": 0.0, "bike_id": "72fb0ee6c304cea18651083bb1eec8d9", "is_disabled": 0, "lat": 38.93847066666667, "rental_uris": {"ios": "https://dc.lft.to/lastmile_qr_scan", "android": "https://dc.lft.to/lastmile_qr_scan"}, "is_reserved": 0, "lon": -77.07230066666666, "fusion_lat": 0.0, "name": "72fb0ee6c304cea18651083bb1eec8d9"}, {"type": "electric_scooter", "fusion_lon": 0.0, "bike_id": "d6caf479e20c2c91683d463e465aa9ab", "is_disabled": 0, "lat": 38.9233765, "rental_uris": {"ios": "https://dc.lft.to/lastmile_qr_scan", "android": "https://dc.lft.to/lastmile_qr_scan"}, "is_reserved": 0, "lon": -77.0567695, "fusion_lat": 0.0, "name": "d6caf479e20c2c91683d463e465aa9ab"}, {"type": "electric_scooter", "fusion_lon": 0.0, "bike_id": "34230389d567a059cfa0fc7a2c892fca", "is_disabled": 0, "lat": 38.861124833333335, "rental_uris": {"ios": "https://dc.lft.to/lastmile_qr_scan", "android": "https://dc.lft.to/lastmile_qr_scan"}, "is_reserved": 0, "lon": -76.98887533333334, "fusion_lat": 0.0, "name": "34230389d567a059cfa0fc7a2c892fca"}, {"type": "electric_scooter", "fusion_lon": 0.0, "bike_id": "88a66225022827867577a44375f58465", "is_disabled": 0, "lat": 38.8962685, "rental_uris": {"ios": "https://dc.lft.to/lastmile_qr_scan", "android": "https://dc.lft.to/lastmile_qr_scan"}, "is_reserved": 0, "lon": -77.05029283333333, "fusion_lat": 0.0, "name": "88a66225022827867577a44375f58465"}, {"type": "electric_scooter", "fusion_lon": 0.0, "bike_id": "ec91541836e29c26ead00606fffd363d", "is_disabled": 0, "lat": 38.83793, "rental_uris": {"ios": "https://dc.lft.to/lastmile_qr_scan", "android": "https://dc.lft.to/lastmile_qr_scan"}, "is_reserved": 0, "lon": -77.00452816666666, "fusion_lat": 0.0, "name": "ec91541836e29c26ead00606fffd363d"}, {"type": "electric_scooter", "fusion_lon": 0.0, "bike_id": "00b24f2859823ac2734429e4bf45b05b", "is_disabled": 0, "lat": 38.8877545, "rental_uris": {"ios": "https://dc.lft.to/lastmile_qr_scan", "android": "https://dc.lft.to/lastmile_qr_scan"}, "is_reserved": 0, "lon": -77.03332833333333, "fusion_lat": 0.0, "name": "00b24f2859823ac2734429e4bf45b05b"}, {"type": "electric_bike", "fusion_lon": 0.0, "bike_id": "3d23ee0b9369dfa797a33aae676fcd17", "is_disabled": 0, "lat": 38.908616333333335, "rental_uris": {"ios": "https://dc.lft.to/lastmile_qr_scan", "android": "https://dc.lft.to/lastmile_qr_scan"}, "is_reserved": 0, "lon": -77.08077116666666, "fusion_lat": 0.0, "name": "3d23ee0b9369dfa797a33aae676fcd17"}, {"type": "electric_bike", "fusion_lon": 0.0, "bike_id": "cdb025dc91df4e84eaef512397f814be", "is_disabled": 0, "lat": 39.00028533333333, "rental_uris": {"ios": "https://dc.lft.to/lastmile_qr_scan", "android": "https://dc.lft.to/lastmile_qr_scan"}, "is_reserved": 0, "lon": -77.0474115, "fusion_lat": 0.0, "name": "cdb025dc91df4e84eaef512397f814be"}, {"type": "electric_scooter", "fusion_lon": 0.0, "bike_id": "67b1777dcaf61bba1353ecd77b466a2b", "is_disabled": 0, "lat": 38.91530066666667, "rental_uris": {"ios": "https://dc.lft.to/lastmile_qr_scan", "android": "https://dc.lft.to/lastmile_qr_scan"}, "is_reserved": 0, "lon": -77.04446066666667, "fusion_lat": 0.0, "name": "67b1777dcaf61bba1353ecd77b466a2b"}, {"type": "electric_scooter", "fusion_lon": 0.0, "bike_id": "308ee05e3df39cd30f8e631f8bc5b8d5", "is_disabled": 0, "lat": 38.884474, "rental_uris": {"ios": "https://dc.lft.to/lastmile_qr_scan", "android": "https://dc.lft.to/lastmile_qr_scan"}, "is_reserved": 0, "lon": -76.942201, "fusion_lat": 0.0, "name": "308ee05e3df39cd30f8e631f8bc5b8d5"}, {"type": "electric_scooter", "fusion_lon": 0.0, "bike_id": "7d8c38aba534fc1eba6e0bc12a79ade7", "is_disabled": 0, "lat": 38.91756916666667, "rental_uris": {"ios": "https://dc.lft.to/lastmile_qr_scan", "android": "https://dc.lft.to/lastmile_qr_scan"}, "is_reserved": 0, "lon": -77.02290966666666, "fusion_lat": 0.0, "name": "7d8c38aba534fc1eba6e0bc12a79ade7"}, {"type": "electric_scooter", "fusion_lon": 0.0, "bike_id": "8bde75f678a87dc666ded76276f7abf6", "is_disabled": 0, "lat": 38.921966, "rental_uris": {"ios": "https://dc.lft.to/lastmile_qr_scan", "android": "https://dc.lft.to/lastmile_qr_scan"}, "is_reserved": 0, "lon": -77.04704033333333, "fusion_lat": 0.0, "name": "8bde75f678a87dc666ded76276f7abf6"}, {"type": "electric_scooter", "fusion_lon": 0.0, "bike_id": "be67fb128be4f48730b837c696d80423", "is_disabled": 0, "lat": 38.921515166666666, "rental_uris": {"ios": "https://dc.lft.to/lastmile_qr_scan", "android": "https://dc.lft.to/lastmile_qr_scan"}, "is_reserved": 0, "lon": -77.0386985, "fusion_lat": 0.0, "name": "be67fb128be4f48730b837c696d80423"}, {"type": "electric_scooter", "fusion_lon": 0.0, "bike_id": "d1378a57521213c0ccfe56eaed1a0190", "is_disabled": 0, "lat": 38.921439166666666, "rental_uris": {"ios": "https://dc.lft.to/lastmile_qr_scan", "android": "https://dc.lft.to/lastmile_qr_scan"}, "is_reserved": 0, "lon": -77.0739825, "fusion_lat": 0.0, "name": "d1378a57521213c0ccfe56eaed1a0190"}, {"type": "electric_scooter", "fusion_lon": 0.0, "bike_id": "dd44ab80113a7ebc81b76308830d7ec3", "is_disabled": 0, "lat": 38.9037745, "rental_uris": {"ios": "https://dc.lft.to/lastmile_qr_scan", "android": "https://dc.lft.to/lastmile_qr_scan"}, "is_reserved": 0, "lon": -76.9951665, "fusion_lat": 0.0, "name": "dd44ab80113a7ebc81b76308830d7ec3"}, {"type": "electric_scooter", "fusion_lon": 0.0, "bike_id": "c334fac24ae56597d9d4b8ade54cdf0b", "is_disabled": 0, "lat": 38.87815833333333, "rental_uris": {"ios": "https://dc.lft.to/lastmile_qr_scan", "android": "https://dc.lft.to/lastmile_qr_scan"}, "is_reserved": 0, "lon": -77.00726383333334, "fusion_lat": 0.0, "name": "c334fac24ae56597d9d4b8ade54cdf0b"}, {"type": "electric_scooter", "fusion_lon": 0.0, "bike_id": "1bde32e1aac0b763e1e870475812674f", "is_disabled": 0, "lat": 38.919946, "rental_uris": {"ios": "https://dc.lft.to/lastmile_qr_scan", "android": "https://dc.lft.to/lastmile_qr_scan"}, "is_reserved": 0, "lon": -77.01779066666667, "fusion_lat": 0.0, "name": "1bde32e1aac0b763e1e870475812674f"}, {"type": "electric_scooter", "fusion_lon": 0.0, "bike_id": "45278a592f484419b110f7c07f980552", "is_disabled": 0, "lat": 38.90729133333333, "rental_uris": {"ios": "https://dc.lft.to/lastmile_qr_scan", "android": "https://dc.lft.to/lastmile_qr_scan"}, "is_reserved": 0, "lon": -77.04497066666667, "fusion_lat": 0.0, "name": "45278a592f484419b110f7c07f980552"}, {"type": "electric_scooter", "fusion_lon": 0.0, "bike_id": "34f20770c50f54bd2c0234c910e2414a", "is_disabled": 0, "lat": 38.87547, "rental_uris": {"ios": "https://dc.lft.to/lastmile_qr_scan", "android": "https://dc.lft.to/lastmile_qr_scan"}, "is_reserved": 0, "lon": -77.0053945, "fusion_lat": 0.0, "name": "34f20770c50f54bd2c0234c910e2414a"}, {"type": "electric_scooter", "fusion_lon": 0.0, "bike_id": "cfc30d44ecd9a428527c0d69b90493ac", "is_disabled": 0, "lat": 38.91489116666666, "rental_uris": {"ios": "https://dc.lft.to/lastmile_qr_scan", "android": "https://dc.lft.to/lastmile_qr_scan"}, "is_reserved": 0, "lon": -77.02588366666667, "fusion_lat": 0.0, "name": "cfc30d44ecd9a428527c0d69b90493ac"}, {"type": "electric_scooter", "fusion_lon": 0.0, "bike_id": "13cd1a0f4d3f1c3a61751b24a387ec81", "is_disabled": 0, "lat": 38.9270335, "rental_uris": {"ios": "https://dc.lft.to/lastmile_qr_scan", "android": "https://dc.lft.to/lastmile_qr_scan"}, "is_reserved": 0, "lon": -77.02388516666667, "fusion_lat": 0.0, "name": "13cd1a0f4d3f1c3a61751b24a387ec81"}, {"type": "electric_scooter", "fusion_lon": 0.0, "bike_id": "967de7d7afa9b59d03e35f71daabc18c", "is_disabled": 0, "lat": 38.883668, "rental_uris": {"ios": "https://dc.lft.to/lastmile_qr_scan", "android": "https://dc.lft.to/lastmile_qr_scan"}, "is_reserved": 0, "lon": -76.95706266666667, "fusion_lat": 0.0, "name": "967de7d7afa9b59d03e35f71daabc18c"}, {"type": "electric_scooter", "fusion_lon": 0.0, "bike_id": "42c155c2e6bc36bdedfcf1bedd43f65f", "is_disabled": 0, "lat": 38.8998575, "rental_uris": {"ios": "https://dc.lft.to/lastmile_qr_scan", "android": "https://dc.lft.to/lastmile_qr_scan"}, "is_reserved": 0, "lon": -77.021047, "fusion_lat": 0.0, "name": "42c155c2e6bc36bdedfcf1bedd43f65f"}, {"type": "electric_scooter", "fusion_lon": 0.0, "bike_id": "6fb3c186124c8a024479176a7d798658", "is_disabled": 0, "lat": 38.909992333333335, "rental_uris": {"ios": "https://dc.lft.to/lastmile_qr_scan", "android": "https://dc.lft.to/lastmile_qr_scan"}, "is_reserved": 0, "lon": -77.04010833333334, "fusion_lat": 0.0, "name": "6fb3c186124c8a024479176a7d798658"}, {"type": "electric_scooter", "fusion_lon": 0.0, "bike_id": "189fb22edafa48867e49434731c8a9d8", "is_disabled": 0, "lat": 38.923358, "rental_uris": {"ios": "https://dc.lft.to/lastmile_qr_scan", "android": "https://dc.lft.to/lastmile_qr_scan"}, "is_reserved": 0, "lon": -77.04147883333333, "fusion_lat": 0.0, "name": "189fb22edafa48867e49434731c8a9d8"}, {"type": "electric_scooter", "fusion_lon": 0.0, "bike_id": "484457a541a5a369ec8d421061814395", "is_disabled": 0, "lat": 38.904521, "rental_uris": {"ios": "https://dc.lft.to/lastmile_qr_scan", "android": "https://dc.lft.to/lastmile_qr_scan"}, "is_reserved": 0, "lon": -76.98255083333333, "fusion_lat": 0.0, "name": "484457a541a5a369ec8d421061814395"}, {"type": "electric_scooter", "fusion_lon": 0.0, "bike_id": "0bdc808ca541f26e1875cdeed1a3b72a", "is_disabled": 0, "lat": 38.90971733333333, "rental_uris": {"ios": "https://dc.lft.to/lastmile_qr_scan", "android": "https://dc.lft.to/lastmile_qr_scan"}, "is_reserved": 0, "lon": -77.03363033333333, "fusion_lat": 0.0, "name": "0bdc808ca541f26e1875cdeed1a3b72a"}, {"type": "electric_scooter", "fusion_lon": 0.0, "bike_id": "5c33dfba652525263f62e99c2310e89c", "is_disabled": 0, "lat": 38.90945333333333, "rental_uris": {"ios": "https://dc.lft.to/lastmile_qr_scan", "android": "https://dc.lft.to/lastmile_qr_scan"}, "is_reserved": 0, "lon": -77.05560033333333, "fusion_lat": 0.0, "name": "5c33dfba652525263f62e99c2310e89c"}, {"type": "electric_scooter", "fusion_lon": 0.0, "bike_id": "39cee74629a2e3603690e57219ac456d", "is_disabled": 0, "lat": 38.89699316666667, "rental_uris": {"ios": "https://dc.lft.to/lastmile_qr_scan", "android": "https://dc.lft.to/lastmile_qr_scan"}, "is_reserved": 0, "lon": -77.04344466666667, "fusion_lat": 0.0, "name": "39cee74629a2e3603690e57219ac456d"}, {"type": "electric_scooter", "fusion_lon": 0.0, "bike_id": "cc5c8c0fdeae5b6f1029eea8404431f8", "is_disabled": 0, "lat": 38.89805916666667, "rental_uris": {"ios": "https://dc.lft.to/lastmile_qr_scan", "android": "https://dc.lft.to/lastmile_qr_scan"}, "is_reserved": 0, "lon": -76.979486, "fusion_lat": 0.0, "name": "cc5c8c0fdeae5b6f1029eea8404431f8"}, {"type": "electric_scooter", "fusion_lon": 0.0, "bike_id": "89a62553f175966f1042a318539d77f6", "is_disabled": 0, "lat": 38.90415133333333, "rental_uris": {"ios": "https://dc.lft.to/lastmile_qr_scan", "android": "https://dc.lft.to/lastmile_qr_scan"}, "is_reserved": 0, "lon": -77.029578, "fusion_lat": 0.0, "name": "89a62553f175966f1042a318539d77f6"}, {"type": "electric_scooter", "fusion_lon": 0.0, "bike_id": "4937d5aeefd3e894b7904c985227f1e0", "is_disabled": 0, "lat": 38.89249366666667, "rental_uris": {"ios": "https://dc.lft.to/lastmile_qr_scan", "android": "https://dc.lft.to/lastmile_qr_scan"}, "is_reserved": 0, "lon": -77.0334555, "fusion_lat": 0.0, "name": "4937d5aeefd3e894b7904c985227f1e0"}, {"type": "electric_scooter", "fusion_lon": 0.0, "bike_id": "2e67ba57d1ebd06dd5cf72150d445b61", "is_disabled": 0, "lat": 38.90880166666667, "rental_uris": {"ios": "https://dc.lft.to/lastmile_qr_scan", "android": "https://dc.lft.to/lastmile_qr_scan"}, "is_reserved": 0, "lon": -77.04291966666666, "fusion_lat": 0.0, "name": "2e67ba57d1ebd06dd5cf72150d445b61"}, {"type": "electric_scooter", "fusion_lon": 0.0, "bike_id": "53113f11f57119c372266387ae18f0f8", "is_disabled": 0, "lat": 38.876637333333335, "rental_uris": {"ios": "https://dc.lft.to/lastmile_qr_scan", "android": "https://dc.lft.to/lastmile_qr_scan"}, "is_reserved": 0, "lon": -77.0094015, "fusion_lat": 0.0, "name": "53113f11f57119c372266387ae18f0f8"}, {"type": "electric_scooter", "fusion_lon": 0.0, "bike_id": "46efd164dae8fa57c5c5ea5c3b869664", "is_disabled": 0, "lat": 38.9202955, "rental_uris": {"ios": "https://dc.lft.to/lastmile_qr_scan", "android": "https://dc.lft.to/lastmile_qr_scan"}, "is_reserved": 0, "lon": -77.00286083333333, "fusion_lat": 0.0, "name": "46efd164dae8fa57c5c5ea5c3b869664"}, {"type": "electric_scooter", "fusion_lon": 0.0, "bike_id": "286466bbc410769205d7a936dcb29862", "is_disabled": 0, "lat": 38.921139333333336, "rental_uris": {"ios": "https://dc.lft.to/lastmile_qr_scan", "android": "https://dc.lft.to/lastmile_qr_scan"}, "is_reserved": 0, "lon": -77.01774166666667, "fusion_lat": 0.0, "name": "286466bbc410769205d7a936dcb29862"}, {"type": "electric_scooter", "fusion_lon": 0.0, "bike_id": "79e3efcc8ae4f1e1ee754b22198b14e8", "is_disabled": 0, "lat": 38.91266383333333, "rental_uris": {"ios": "https://dc.lft.to/lastmile_qr_scan", "android": "https://dc.lft.to/lastmile_qr_scan"}, "is_reserved": 0, "lon": -77.00833566666667, "fusion_lat": 0.0, "name": "79e3efcc8ae4f1e1ee754b22198b14e8"}, {"type": "electric_scooter", "fusion_lon": 0.0, "bike_id": "3acf47142a7ae8d705713801e86749a8", "is_disabled": 0, "lat": 38.934676833333334, "rental_uris": {"ios": "https://dc.lft.to/lastmile_qr_scan", "android": "https://dc.lft.to/lastmile_qr_scan"}, "is_reserved": 0, "lon": -77.04111966666666, "fusion_lat": 0.0, "name": "3acf47142a7ae8d705713801e86749a8"}, {"type": "electric_scooter", "fusion_lon": 0.0, "bike_id": "258f30eec9a7609498c4fee293ed02d5", "is_disabled": 0, "lat": 38.917666833333335, "rental_uris": {"ios": "https://dc.lft.to/lastmile_qr_scan", "android": "https://dc.lft.to/lastmile_qr_scan"}, "is_reserved": 0, "lon": -77.04758383333333, "fusion_lat": 0.0, "name": "258f30eec9a7609498c4fee293ed02d5"}, {"type": "electric_scooter", "fusion_lon": 0.0, "bike_id": "d5c6f8eaab6f54589fa382ce67bf0d59", "is_disabled": 0, "lat": 38.9509705, "rental_uris": {"ios": "https://dc.lft.to/lastmile_qr_scan", "android": "https://dc.lft.to/lastmile_qr_scan"}, "is_reserved": 0, "lon": -77.02801416666667, "fusion_lat": 0.0, "name": "d5c6f8eaab6f54589fa382ce67bf0d59"}, {"type": "electric_scooter", "fusion_lon": 0.0, "bike_id": "84c0e2694f2e34ce17f8e0367099ff24", "is_disabled": 0, "lat": 38.92424416666667, "rental_uris": {"ios": "https://dc.lft.to/lastmile_qr_scan", "android": "https://dc.lft.to/lastmile_qr_scan"}, "is_reserved": 0, "lon": -77.05760783333334, "fusion_lat": 0.0, "name": "84c0e2694f2e34ce17f8e0367099ff24"}, {"type": "electric_scooter", "fusion_lon": 0.0, "bike_id": "8d0674332bac9ba801c8e19479931ce6", "is_disabled": 0, "lat": 38.91704516666667, "rental_uris": {"ios": "https://dc.lft.to/lastmile_qr_scan", "android": "https://dc.lft.to/lastmile_qr_scan"}, "is_reserved": 0, "lon": -77.01145283333334, "fusion_lat": 0.0, "name": "8d0674332bac9ba801c8e19479931ce6"}, {"type": "electric_scooter", "fusion_lon": 0.0, "bike_id": "ef37f6eaa59ab49fc2229986e338944d", "is_disabled": 0, "lat": 38.90267216666667, "rental_uris": {"ios": "https://dc.lft.to/lastmile_qr_scan", "android": "https://dc.lft.to/lastmile_qr_scan"}, "is_reserved": 0, "lon": -77.054062, "fusion_lat": 0.0, "name": "ef37f6eaa59ab49fc2229986e338944d"}, {"type": "electric_bike", "fusion_lon": 0.0, "bike_id": "7dcb1d1b3ccdda0bc65f0608d8702b45", "is_disabled": 0, "lat": 38.841075333333336, "rental_uris": {"ios": "https://dc.lft.to/lastmile_qr_scan", "android": "https://dc.lft.to/lastmile_qr_scan"}, "is_reserved": 0, "lon": -77.08947183333333, "fusion_lat": 0.0, "name": "7dcb1d1b3ccdda0bc65f0608d8702b45"}, {"type": "electric_scooter", "fusion_lon": 0.0, "bike_id": "a0622415966d02795ba15cba10c189bb", "is_disabled": 0, "lat": 38.92183883333333, "rental_uris": {"ios": "https://dc.lft.to/lastmile_qr_scan", "android": "https://dc.lft.to/lastmile_qr_scan"}, "is_reserved": 0, "lon": -77.04181083333333, "fusion_lat": 0.0, "name": "a0622415966d02795ba15cba10c189bb"}, {"type": "electric_scooter", "fusion_lon": 0.0, "bike_id": "388a65411ebb872d1fa7acb38034e58c", "is_disabled": 0, "lat": 38.9167675, "rental_uris": {"ios": "https://dc.lft.to/lastmile_qr_scan", "android": "https://dc.lft.to/lastmile_qr_scan"}, "is_reserved": 0, "lon": -76.98032233333333, "fusion_lat": 0.0, "name": "388a65411ebb872d1fa7acb38034e58c"}, {"type": "electric_scooter", "fusion_lon": 0.0, "bike_id": "76949ce2cfa2b4d6b445591d58e5d4fa", "is_disabled": 0, "lat": 38.92258133333333, "rental_uris": {"ios": "https://dc.lft.to/lastmile_qr_scan", "android": "https://dc.lft.to/lastmile_qr_scan"}, "is_reserved": 0, "lon": -77.034093, "fusion_lat": 0.0, "name": "76949ce2cfa2b4d6b445591d58e5d4fa"}, {"type": "electric_scooter", "fusion_lon": 0.0, "bike_id": "6274c55ee2ec8844d05ea7dc10060dc7", "is_disabled": 0, "lat": 38.85267116666667, "rental_uris": {"ios": "https://dc.lft.to/lastmile_qr_scan", "android": "https://dc.lft.to/lastmile_qr_scan"}, "is_reserved": 0, "lon": -76.96990266666667, "fusion_lat": 0.0, "name": "6274c55ee2ec8844d05ea7dc10060dc7"}, {"type": "electric_scooter", "fusion_lon": 0.0, "bike_id": "5a2f55e471d786ef42554ac2648cf490", "is_disabled": 0, "lat": 38.92336933333333, "rental_uris": {"ios": "https://dc.lft.to/lastmile_qr_scan", "android": "https://dc.lft.to/lastmile_qr_scan"}, "is_reserved": 0, "lon": -77.04154333333334, "fusion_lat": 0.0, "name": "5a2f55e471d786ef42554ac2648cf490"}, {"type": "electric_scooter", "fusion_lon": 0.0, "bike_id": "f3d99f1ef4999a98235c11138792de36", "is_disabled": 0, "lat": 38.90835583333333, "rental_uris": {"ios": "https://dc.lft.to/lastmile_qr_scan", "android": "https://dc.lft.to/lastmile_qr_scan"}, "is_reserved": 0, "lon": -77.04000866666667, "fusion_lat": 0.0, "name": "f3d99f1ef4999a98235c11138792de36"}, {"type": "electric_scooter", "fusion_lon": 0.0, "bike_id": "c25952dd8161872f3df4ea0e9bd0909e", "is_disabled": 0, "lat": 38.91946633333333, "rental_uris": {"ios": "https://dc.lft.to/lastmile_qr_scan", "android": "https://dc.lft.to/lastmile_qr_scan"}, "is_reserved": 0, "lon": -77.0317855, "fusion_lat": 0.0, "name": "c25952dd8161872f3df4ea0e9bd0909e"}, {"type": "electric_scooter", "fusion_lon": 0.0, "bike_id": "ce89a1a0bef5da7b8f4c7d5f15994bd8", "is_disabled": 0, "lat": 38.900316, "rental_uris": {"ios": "https://dc.lft.to/lastmile_qr_scan", "android": "https://dc.lft.to/lastmile_qr_scan"}, "is_reserved": 0, "lon": -77.017723, "fusion_lat": 0.0, "name": "ce89a1a0bef5da7b8f4c7d5f15994bd8"}, {"type": "electric_scooter", "fusion_lon": 0.0, "bike_id": "7f2787753a20e7295d094b6f09b4c525", "is_disabled": 0, "lat": 38.89838783333333, "rental_uris": {"ios": "https://dc.lft.to/lastmile_qr_scan", "android": "https://dc.lft.to/lastmile_qr_scan"}, "is_reserved": 0, "lon": -77.0489615, "fusion_lat": 0.0, "name": "7f2787753a20e7295d094b6f09b4c525"}, {"type": "electric_scooter", "fusion_lon": 0.0, "bike_id": "566b2a242482ba257cf4eb07b754fd46", "is_disabled": 0, "lat": 38.9084745, "rental_uris": {"ios": "https://dc.lft.to/lastmile_qr_scan", "android": "https://dc.lft.to/lastmile_qr_scan"}, "is_reserved": 0, "lon": -76.99676933333333, "fusion_lat": 0.0, "name": "566b2a242482ba257cf4eb07b754fd46"}, {"type": "electric_bike", "fusion_lon": 0.0, "bike_id": "7e7c823c5c904953f5dba978486e7b00", "is_disabled": 0, "lat": 38.841951, "rental_uris": {"ios": "https://dc.lft.to/lastmile_qr_scan", "android": "https://dc.lft.to/lastmile_qr_scan"}, "is_reserved": 0, "lon": -77.11357116666667, "fusion_lat": 0.0, "name": "7e7c823c5c904953f5dba978486e7b00"}, {"type": "electric_bike", "fusion_lon": 0.0, "bike_id": "f79bc82771e7fe7060e18626358e971e", "is_disabled": 0, "lat": 39.03430183333333, "rental_uris": {"ios": "https://dc.lft.to/lastmile_qr_scan", "android": "https://dc.lft.to/lastmile_qr_scan"}, "is_reserved": 0, "lon": -77.04309516666666, "fusion_lat": 0.0, "name": "f79bc82771e7fe7060e18626358e971e"}, {"type": "electric_scooter", "fusion_lon": 0.0, "bike_id": "359fd8f12ab3e344881bcab656bd0178", "is_disabled": 0, "lat": 38.910409, "rental_uris": {"ios": "https://dc.lft.to/lastmile_qr_scan", "android": "https://dc.lft.to/lastmile_qr_scan"}, "is_reserved": 0, "lon": -77.03405483333333, "fusion_lat": 0.0, "name": "359fd8f12ab3e344881bcab656bd0178"}, {"type": "electric_scooter", "fusion_lon": 0.0, "bike_id": "6cc33cbfd8169f96edfcb684d49dd995", "is_disabled": 0, "lat": 38.894863, "rental_uris": {"ios": "https://dc.lft.to/lastmile_qr_scan", "android": "https://dc.lft.to/lastmile_qr_scan"}, "is_reserved": 0, "lon": -77.0007365, "fusion_lat": 0.0, "name": "6cc33cbfd8169f96edfcb684d49dd995"}, {"type": "electric_scooter", "fusion_lon": 0.0, "bike_id": "578e9c474f57347f42befeafbb5cf95d", "is_disabled": 0, "lat": 38.91616066666667, "rental_uris": {"ios": "https://dc.lft.to/lastmile_qr_scan", "android": "https://dc.lft.to/lastmile_qr_scan"}, "is_reserved": 0, "lon": -77.04889666666666, "fusion_lat": 0.0, "name": "578e9c474f57347f42befeafbb5cf95d"}, {"type": "electric_scooter", "fusion_lon": 0.0, "bike_id": "241610ab73c218badce6e2d6ac2f6a48", "is_disabled": 0, "lat": 38.87673516666667, "rental_uris": {"ios": "https://dc.lft.to/lastmile_qr_scan", "android": "https://dc.lft.to/lastmile_qr_scan"}, "is_reserved": 0, "lon": -76.9312615, "fusion_lat": 0.0, "name": "241610ab73c218badce6e2d6ac2f6a48"}, {"type": "electric_scooter", "fusion_lon": 0.0, "bike_id": "95ed8abc0c5a203442d8c98589749472", "is_disabled": 0, "lat": 38.95774133333333, "rental_uris": {"ios": "https://dc.lft.to/lastmile_qr_scan", "android": "https://dc.lft.to/lastmile_qr_scan"}, "is_reserved": 0, "lon": -77.01504183333333, "fusion_lat": 0.0, "name": "95ed8abc0c5a203442d8c98589749472"}, {"type": "electric_scooter", "fusion_lon": 0.0, "bike_id": "6b4a354e4c86b7dd57dc3fa45e9d72ce", "is_disabled": 0, "lat": 38.9030935, "rental_uris": {"ios": "https://dc.lft.to/lastmile_qr_scan", "android": "https://dc.lft.to/lastmile_qr_scan"}, "is_reserved": 0, "lon": -77.01623183333334, "fusion_lat": 0.0, "name": "6b4a354e4c86b7dd57dc3fa45e9d72ce"}, {"type": "electric_scooter", "fusion_lon": 0.0, "bike_id": "1210e7928dca8a7145bc9031f79813df", "is_disabled": 0, "lat": 38.879264666666664, "rental_uris": {"ios": "https://dc.lft.to/lastmile_qr_scan", "android": "https://dc.lft.to/lastmile_qr_scan"}, "is_reserved": 0, "lon": -76.99888716666666, "fusion_lat": 0.0, "name": "1210e7928dca8a7145bc9031f79813df"}, {"type": "electric_scooter", "fusion_lon": 0.0, "bike_id": "100c1295fb7f2ea317630b7d89f0eebf", "is_disabled": 0, "lat": 38.926552666666666, "rental_uris": {"ios": "https://dc.lft.to/lastmile_qr_scan", "android": "https://dc.lft.to/lastmile_qr_scan"}, "is_reserved": 0, "lon": -77.024327, "fusion_lat": 0.0, "name": "100c1295fb7f2ea317630b7d89f0eebf"}, {"type": "electric_scooter", "fusion_lon": 0.0, "bike_id": "ba66bef29f9d7b871337bafdbac8fd03", "is_disabled": 0, "lat": 38.91948133333333, "rental_uris": {"ios": "https://dc.lft.to/lastmile_qr_scan", "android": "https://dc.lft.to/lastmile_qr_scan"}, "is_reserved": 0, "lon": -77.041601, "fusion_lat": 0.0, "name": "ba66bef29f9d7b871337bafdbac8fd03"}, {"type": "electric_scooter", "fusion_lon": 0.0, "bike_id": "e0754a99d84fe64552f1a8e0104044ca", "is_disabled": 0, "lat": 38.935285, "rental_uris": {"ios": "https://dc.lft.to/lastmile_qr_scan", "android": "https://dc.lft.to/lastmile_qr_scan"}, "is_reserved": 0, "lon": -77.05443633333333, "fusion_lat": 0.0, "name": "e0754a99d84fe64552f1a8e0104044ca"}, {"type": "electric_scooter", "fusion_lon": 0.0, "bike_id": "4664deb8194d33a60e23d24897de78a1", "is_disabled": 0, "lat": 38.94980833333334, "rental_uris": {"ios": "https://dc.lft.to/lastmile_qr_scan", "android": "https://dc.lft.to/lastmile_qr_scan"}, "is_reserved": 0, "lon": -77.02451466666666, "fusion_lat": 0.0, "name": "4664deb8194d33a60e23d24897de78a1"}, {"type": "electric_bike", "fusion_lon": 0.0, "bike_id": "7f09dd833a197a5384993a5a741c7bb8", "is_disabled": 0, "lat": 38.94328333333333, "rental_uris": {"ios": "https://dc.lft.to/lastmile_qr_scan", "android": "https://dc.lft.to/lastmile_qr_scan"}, "is_reserved": 0, "lon": -77.06052, "fusion_lat": 0.0, "name": "7f09dd833a197a5384993a5a741c7bb8"}, {"type": "electric_scooter", "fusion_lon": 0.0, "bike_id": "83d5be9e63ba913482d3312f644e3dd6", "is_disabled": 0, "lat": 38.92448266666667, "rental_uris": {"ios": "https://dc.lft.to/lastmile_qr_scan", "android": "https://dc.lft.to/lastmile_qr_scan"}, "is_reserved": 0, "lon": -77.03902766666667, "fusion_lat": 0.0, "name": "83d5be9e63ba913482d3312f644e3dd6"}, {"type": "electric_scooter", "fusion_lon": 0.0, "bike_id": "9c4df3baebb3c56d51af69fced0fbcb8", "is_disabled": 0, "lat": 38.91777283333333, "rental_uris": {"ios": "https://dc.lft.to/lastmile_qr_scan", "android": "https://dc.lft.to/lastmile_qr_scan"}, "is_reserved": 0, "lon": -77.03214666666666, "fusion_lat": 0.0, "name": "9c4df3baebb3c56d51af69fced0fbcb8"}, {"type": "electric_scooter", "fusion_lon": 0.0, "bike_id": "7fabc08b8f2faeb8f1551ac89dc770d4", "is_disabled": 0, "lat": 38.90415083333333, "rental_uris": {"ios": "https://dc.lft.to/lastmile_qr_scan", "android": "https://dc.lft.to/lastmile_qr_scan"}, "is_reserved": 0, "lon": -77.067739, "fusion_lat": 0.0, "name": "7fabc08b8f2faeb8f1551ac89dc770d4"}, {"type": "electric_scooter", "fusion_lon": 0.0, "bike_id": "e638958c89126232e926c988686ea3fe", "is_disabled": 0, "lat": 38.93734533333333, "rental_uris": {"ios": "https://dc.lft.to/lastmile_qr_scan", "android": "https://dc.lft.to/lastmile_qr_scan"}, "is_reserved": 0, "lon": -77.0596265, "fusion_lat": 0.0, "name": "e638958c89126232e926c988686ea3fe"}, {"type": "electric_scooter", "fusion_lon": 0.0, "bike_id": "43b9fb22a4d1ffefcec483bb6240a01c", "is_disabled": 0, "lat": 38.9225225, "rental_uris": {"ios": "https://dc.lft.to/lastmile_qr_scan", "android": "https://dc.lft.to/lastmile_qr_scan"}, "is_reserved": 0, "lon": -77.03025266666667, "fusion_lat": 0.0, "name": "43b9fb22a4d1ffefcec483bb6240a01c"}, {"type": "electric_bike", "fusion_lon": 0.0, "bike_id": "7ea5568b28066e929dcfa3eb1a31b265", "is_disabled": 0, "lat": 38.831051, "rental_uris": {"ios": "https://dc.lft.to/lastmile_qr_scan", "android": "https://dc.lft.to/lastmile_qr_scan"}, "is_reserved": 0, "lon": -77.112855, "fusion_lat": 0.0, "name": "7ea5568b28066e929dcfa3eb1a31b265"}, {"type": "electric_scooter", "fusion_lon": 0.0, "bike_id": "d449d5b0774f1476135892e3c7005983", "is_disabled": 0, "lat": 38.92457533333334, "rental_uris": {"ios": "https://dc.lft.to/lastmile_qr_scan", "android": "https://dc.lft.to/lastmile_qr_scan"}, "is_reserved": 0, "lon": -77.03280933333333, "fusion_lat": 0.0, "name": "d449d5b0774f1476135892e3c7005983"}, {"type": "electric_scooter", "fusion_lon": 0.0, "bike_id": "c0ff85397d1ced179c5db3f42a4d11a1", "is_disabled": 0, "lat": 38.908606666666664, "rental_uris": {"ios": "https://dc.lft.to/lastmile_qr_scan", "android": "https://dc.lft.to/lastmile_qr_scan"}, "is_reserved": 0, "lon": -77.03490983333333, "fusion_lat": 0.0, "name": "c0ff85397d1ced179c5db3f42a4d11a1"}, {"type": "electric_bike", "fusion_lon": 0.0, "bike_id": "f7a03bc8b3540540bc43f084e482d5f5", "is_disabled": 0, "lat": 38.935956, "rental_uris": {"ios": "https://dc.lft.to/lastmile_qr_scan", "android": "https://dc.lft.to/lastmile_qr_scan"}, "is_reserved": 0, "lon": -77.0375875, "fusion_lat": 0.0, "name": "f7a03bc8b3540540bc43f084e482d5f5"}, {"type": "electric_scooter", "fusion_lon": 0.0, "bike_id": "4379b8e4ab9a0feb6c702273449963fd", "is_disabled": 0, "lat": 38.91340683333333, "rental_uris": {"ios": "https://dc.lft.to/lastmile_qr_scan", "android": "https://dc.lft.to/lastmile_qr_scan"}, "is_reserved": 0, "lon": -77.0632115, "fusion_lat": 0.0, "name": "4379b8e4ab9a0feb6c702273449963fd"}, {"type": "electric_bike", "fusion_lon": 0.0, "bike_id": "2980b2c2b2d54d2120c89847205241a8", "is_disabled": 0, "lat": 38.900086, "rental_uris": {"ios": "https://dc.lft.to/lastmile_qr_scan", "android": "https://dc.lft.to/lastmile_qr_scan"}, "is_reserved": 0, "lon": -77.0055035, "fusion_lat": 0.0, "name": "2980b2c2b2d54d2120c89847205241a8"}, {"type": "electric_scooter", "fusion_lon": 0.0, "bike_id": "aaa9e624bda0d6982b2ffce177b88e68", "is_disabled": 0, "lat": 38.909733833333334, "rental_uris": {"ios": "https://dc.lft.to/lastmile_qr_scan", "android": "https://dc.lft.to/lastmile_qr_scan"}, "is_reserved": 0, "lon": -77.03845633333333, "fusion_lat": 0.0, "name": "aaa9e624bda0d6982b2ffce177b88e68"}, {"type": "electric_scooter", "fusion_lon": 0.0, "bike_id": "a546f7792836917b23a32193fb150f2d", "is_disabled": 0, "lat": 38.903344833333335, "rental_uris": {"ios": "https://dc.lft.to/lastmile_qr_scan", "android": "https://dc.lft.to/lastmile_qr_scan"}, "is_reserved": 0, "lon": -77.0492845, "fusion_lat": 0.0, "name": "a546f7792836917b23a32193fb150f2d"}, {"type": "electric_scooter", "fusion_lon": 0.0, "bike_id": "6b9272435958a0c3f8188bc328ab3d7d", "is_disabled": 0, "lat": 38.907677166666666, "rental_uris": {"ios": "https://dc.lft.to/lastmile_qr_scan", "android": "https://dc.lft.to/lastmile_qr_scan"}, "is_reserved": 0, "lon": -77.02968366666667, "fusion_lat": 0.0, "name": "6b9272435958a0c3f8188bc328ab3d7d"}, {"type": "electric_scooter", "fusion_lon": 0.0, "bike_id": "fe8f67cee3b2392c80682fd1d8fa709f", "is_disabled": 0, "lat": 38.9289605, "rental_uris": {"ios": "https://dc.lft.to/lastmile_qr_scan", "android": "https://dc.lft.to/lastmile_qr_scan"}, "is_reserved": 0, "lon": -77.0581125, "fusion_lat": 0.0, "name": "fe8f67cee3b2392c80682fd1d8fa709f"}, {"type": "electric_scooter", "fusion_lon": 0.0, "bike_id": "56443b467ff1ff72c779332e2622d19a", "is_disabled": 0, "lat": 38.913464166666664, "rental_uris": {"ios": "https://dc.lft.to/lastmile_qr_scan", "android": "https://dc.lft.to/lastmile_qr_scan"}, "is_reserved": 0, "lon": -77.02949766666667, "fusion_lat": 0.0, "name": "56443b467ff1ff72c779332e2622d19a"}, {"type": "electric_scooter", "fusion_lon": 0.0, "bike_id": "e48860ac71a2d636dae8f5a237fe4d17", "is_disabled": 0, "lat": 38.892222333333336, "rental_uris": {"ios": "https://dc.lft.to/lastmile_qr_scan", "android": "https://dc.lft.to/lastmile_qr_scan"}, "is_reserved": 0, "lon": -77.026301, "fusion_lat": 0.0, "name": "e48860ac71a2d636dae8f5a237fe4d17"}, {"type": "electric_scooter", "fusion_lon": 0.0, "bike_id": "3a7f48e27e6c7c69c50e0e193a32d9b5", "is_disabled": 0, "lat": 38.908403666666665, "rental_uris": {"ios": "https://dc.lft.to/lastmile_qr_scan", "android": "https://dc.lft.to/lastmile_qr_scan"}, "is_reserved": 0, "lon": -77.026971, "fusion_lat": 0.0, "name": "3a7f48e27e6c7c69c50e0e193a32d9b5"}, {"type": "electric_scooter", "fusion_lon": 0.0, "bike_id": "0368ba99e36849aba4ed75ed296913c3", "is_disabled": 0, "lat": 38.930847166666666, "rental_uris": {"ios": "https://dc.lft.to/lastmile_qr_scan", "android": "https://dc.lft.to/lastmile_qr_scan"}, "is_reserved": 0, "lon": -77.0348415, "fusion_lat": 0.0, "name": "0368ba99e36849aba4ed75ed296913c3"}, {"type": "electric_scooter", "fusion_lon": 0.0, "bike_id": "7de244407c5931f5aa3f5a7de3e97522", "is_disabled": 0, "lat": 38.9170925, "rental_uris": {"ios": "https://dc.lft.to/lastmile_qr_scan", "android": "https://dc.lft.to/lastmile_qr_scan"}, "is_reserved": 0, "lon": -77.038671, "fusion_lat": 0.0, "name": "7de244407c5931f5aa3f5a7de3e97522"}, {"type": "electric_scooter", "fusion_lon": 0.0, "bike_id": "44b35f6353afc89738364e62b9e1a261", "is_disabled": 0, "lat": 38.92879666666666, "rental_uris": {"ios": "https://dc.lft.to/lastmile_qr_scan", "android": "https://dc.lft.to/lastmile_qr_scan"}, "is_reserved": 0, "lon": -77.02668333333334, "fusion_lat": 0.0, "name": "44b35f6353afc89738364e62b9e1a261"}, {"type": "electric_scooter", "fusion_lon": 0.0, "bike_id": "d0fd77f0cf77c4f8f5eb0fa4d9fa8d43", "is_disabled": 0, "lat": 38.9179795, "rental_uris": {"ios": "https://dc.lft.to/lastmile_qr_scan", "android": "https://dc.lft.to/lastmile_qr_scan"}, "is_reserved": 0, "lon": -77.02709216666666, "fusion_lat": 0.0, "name": "d0fd77f0cf77c4f8f5eb0fa4d9fa8d43"}, {"type": "electric_scooter", "fusion_lon": 0.0, "bike_id": "94bc5e7b046263253e70acdd54b2089c", "is_disabled": 0, "lat": 38.9127, "rental_uris": {"ios": "https://dc.lft.to/lastmile_qr_scan", "android": "https://dc.lft.to/lastmile_qr_scan"}, "is_reserved": 0, "lon": -77.0470935, "fusion_lat": 0.0, "name": "94bc5e7b046263253e70acdd54b2089c"}, {"type": "electric_scooter", "fusion_lon": 0.0, "bike_id": "37cbc7eeb9787bef82a85cfa09839e93", "is_disabled": 0, "lat": 38.948352, "rental_uris": {"ios": "https://dc.lft.to/lastmile_qr_scan", "android": "https://dc.lft.to/lastmile_qr_scan"}, "is_reserved": 0, "lon": -77.02559433333333, "fusion_lat": 0.0, "name": "37cbc7eeb9787bef82a85cfa09839e93"}, {"type": "electric_scooter", "fusion_lon": 0.0, "bike_id": "9e6ce83ab5122bc8df18bde4d4de1d52", "is_disabled": 0, "lat": 38.883291666666665, "rental_uris": {"ios": "https://dc.lft.to/lastmile_qr_scan", "android": "https://dc.lft.to/lastmile_qr_scan"}, "is_reserved": 0, "lon": -77.01763916666667, "fusion_lat": 0.0, "name": "9e6ce83ab5122bc8df18bde4d4de1d52"}, {"type": "electric_scooter", "fusion_lon": 0.0, "bike_id": "7861094f5a48b25cf0de49b72ee81820", "is_disabled": 0, "lat": 38.89545716666667, "rental_uris": {"ios": "https://dc.lft.to/lastmile_qr_scan", "android": "https://dc.lft.to/lastmile_qr_scan"}, "is_reserved": 0, "lon": -76.98184983333333, "fusion_lat": 0.0, "name": "7861094f5a48b25cf0de49b72ee81820"}, {"type": "electric_scooter", "fusion_lon": 0.0, "bike_id": "83dbad6c6f5c07eabb6b268b8f050ece", "is_disabled": 0, "lat": 38.914173166666664, "rental_uris": {"ios": "https://dc.lft.to/lastmile_qr_scan", "android": "https://dc.lft.to/lastmile_qr_scan"}, "is_reserved": 0, "lon": -77.03555916666667, "fusion_lat": 0.0, "name": "83dbad6c6f5c07eabb6b268b8f050ece"}, {"type": "electric_scooter", "fusion_lon": 0.0, "bike_id": "95c944eefb8aa6411f8da2f5ecfe632f", "is_disabled": 0, "lat": 38.904749333333335, "rental_uris": {"ios": "https://dc.lft.to/lastmile_qr_scan", "android": "https://dc.lft.to/lastmile_qr_scan"}, "is_reserved": 0, "lon": -77.05319283333333, "fusion_lat": 0.0, "name": "95c944eefb8aa6411f8da2f5ecfe632f"}, {"type": "electric_scooter", "fusion_lon": 0.0, "bike_id": "f19a150dacada2d44c1fea8aba874597", "is_disabled": 0, "lat": 38.905578, "rental_uris": {"ios": "https://dc.lft.to/lastmile_qr_scan", "android": "https://dc.lft.to/lastmile_qr_scan"}, "is_reserved": 0, "lon": -77.01763233333334, "fusion_lat": 0.0, "name": "f19a150dacada2d44c1fea8aba874597"}, {"type": "electric_scooter", "fusion_lon": 0.0, "bike_id": "73077ed2de374c0ad462dececa152cc4", "is_disabled": 0, "lat": 38.896116666666664, "rental_uris": {"ios": "https://dc.lft.to/lastmile_qr_scan", "android": "https://dc.lft.to/lastmile_qr_scan"}, "is_reserved": 0, "lon": -77.00929833333333, "fusion_lat": 0.0, "name": "73077ed2de374c0ad462dececa152cc4"}, {"type": "electric_scooter", "fusion_lon": 0.0, "bike_id": "da21f2d0c13968b47ab62b8eabd845be", "is_disabled": 0, "lat": 38.910074, "rental_uris": {"ios": "https://dc.lft.to/lastmile_qr_scan", "android": "https://dc.lft.to/lastmile_qr_scan"}, "is_reserved": 0, "lon": -77.020998, "fusion_lat": 0.0, "name": "da21f2d0c13968b47ab62b8eabd845be"}, {"type": "electric_scooter", "fusion_lon": 0.0, "bike_id": "421c807005d529a3cd3124a9a183bbbc", "is_disabled": 0, "lat": 38.913380833333335, "rental_uris": {"ios": "https://dc.lft.to/lastmile_qr_scan", "android": "https://dc.lft.to/lastmile_qr_scan"}, "is_reserved": 0, "lon": -77.025448, "fusion_lat": 0.0, "name": "421c807005d529a3cd3124a9a183bbbc"}, {"type": "electric_scooter", "fusion_lon": 0.0, "bike_id": "f3a368b56c6cdf4e5056b864cd05ca2a", "is_disabled": 0, "lat": 38.89953533333333, "rental_uris": {"ios": "https://dc.lft.to/lastmile_qr_scan", "android": "https://dc.lft.to/lastmile_qr_scan"}, "is_reserved": 0, "lon": -77.05100666666667, "fusion_lat": 0.0, "name": "f3a368b56c6cdf4e5056b864cd05ca2a"}, {"type": "electric_scooter", "fusion_lon": 0.0, "bike_id": "bcfa840e5e94fe08107847062b4e1319", "is_disabled": 0, "lat": 38.89987516666667, "rental_uris": {"ios": "https://dc.lft.to/lastmile_qr_scan", "android": "https://dc.lft.to/lastmile_qr_scan"}, "is_reserved": 0, "lon": -76.9948545, "fusion_lat": 0.0, "name": "bcfa840e5e94fe08107847062b4e1319"}, {"type": "electric_scooter", "fusion_lon": 0.0, "bike_id": "06f0edb6df265d954821404fcf4a602e", "is_disabled": 0, "lat": 38.92621166666667, "rental_uris": {"ios": "https://dc.lft.to/lastmile_qr_scan", "android": "https://dc.lft.to/lastmile_qr_scan"}, "is_reserved": 0, "lon": -77.04186033333333, "fusion_lat": 0.0, "name": "06f0edb6df265d954821404fcf4a602e"}, {"type": "electric_scooter", "fusion_lon": 0.0, "bike_id": "5bb59b17163e3b5a3574766b62d8c21d", "is_disabled": 0, "lat": 38.838388, "rental_uris": {"ios": "https://dc.lft.to/lastmile_qr_scan", "android": "https://dc.lft.to/lastmile_qr_scan"}, "is_reserved": 0, "lon": -76.99837683333334, "fusion_lat": 0.0, "name": "5bb59b17163e3b5a3574766b62d8c21d"}, {"type": "electric_scooter", "fusion_lon": 0.0, "bike_id": "84fc0f584a6e39195ee500bdcd56a7dd", "is_disabled": 0, "lat": 38.9110825, "rental_uris": {"ios": "https://dc.lft.to/lastmile_qr_scan", "android": "https://dc.lft.to/lastmile_qr_scan"}, "is_reserved": 0, "lon": -77.04543366666667, "fusion_lat": 0.0, "name": "84fc0f584a6e39195ee500bdcd56a7dd"}, {"type": "electric_scooter", "fusion_lon": 0.0, "bike_id": "b9e7c461d917a889fb1d7507d7281349", "is_disabled": 0, "lat": 38.8941045, "rental_uris": {"ios": "https://dc.lft.to/lastmile_qr_scan", "android": "https://dc.lft.to/lastmile_qr_scan"}, "is_reserved": 0, "lon": -77.02200966666666, "fusion_lat": 0.0, "name": "b9e7c461d917a889fb1d7507d7281349"}, {"type": "electric_scooter", "fusion_lon": 0.0, "bike_id": "258908a8e67f28467a795841b0120bbe", "is_disabled": 0, "lat": 38.90410083333333, "rental_uris": {"ios": "https://dc.lft.to/lastmile_qr_scan", "android": "https://dc.lft.to/lastmile_qr_scan"}, "is_reserved": 0, "lon": -76.97334983333333, "fusion_lat": 0.0, "name": "258908a8e67f28467a795841b0120bbe"}, {"type": "electric_scooter", "fusion_lon": 0.0, "bike_id": "edbad25cac48964bb49e93bbaa140678", "is_disabled": 0, "lat": 38.91107566666667, "rental_uris": {"ios": "https://dc.lft.to/lastmile_qr_scan", "android": "https://dc.lft.to/lastmile_qr_scan"}, "is_reserved": 0, "lon": -77.0383245, "fusion_lat": 0.0, "name": "edbad25cac48964bb49e93bbaa140678"}, {"type": "electric_scooter", "fusion_lon": 0.0, "bike_id": "75aa82b31c2a31a85363647b9702b38f", "is_disabled": 0, "lat": 38.92417316666667, "rental_uris": {"ios": "https://dc.lft.to/lastmile_qr_scan", "android": "https://dc.lft.to/lastmile_qr_scan"}, "is_reserved": 0, "lon": -77.0198605, "fusion_lat": 0.0, "name": "75aa82b31c2a31a85363647b9702b38f"}, {"type": "electric_scooter", "fusion_lon": 0.0, "bike_id": "891fa971a571f2ee08a2ebf7c048d99a", "is_disabled": 0, "lat": 38.9194895, "rental_uris": {"ios": "https://dc.lft.to/lastmile_qr_scan", "android": "https://dc.lft.to/lastmile_qr_scan"}, "is_reserved": 0, "lon": -77.01777716666666, "fusion_lat": 0.0, "name": "891fa971a571f2ee08a2ebf7c048d99a"}, {"type": "electric_scooter", "fusion_lon": 0.0, "bike_id": "8abbc0c024c85ffa0d5ea6cfd7b34d5c", "is_disabled": 0, "lat": 38.891981, "rental_uris": {"ios": "https://dc.lft.to/lastmile_qr_scan", "android": "https://dc.lft.to/lastmile_qr_scan"}, "is_reserved": 0, "lon": -77.02375533333333, "fusion_lat": 0.0, "name": "8abbc0c024c85ffa0d5ea6cfd7b34d5c"}, {"type": "electric_scooter", "fusion_lon": 0.0, "bike_id": "b9103159a2792dee76ecb8c58616cd0f", "is_disabled": 0, "lat": 38.898902, "rental_uris": {"ios": "https://dc.lft.to/lastmile_qr_scan", "android": "https://dc.lft.to/lastmile_qr_scan"}, "is_reserved": 0, "lon": -76.93176333333334, "fusion_lat": 0.0, "name": "b9103159a2792dee76ecb8c58616cd0f"}, {"type": "electric_scooter", "fusion_lon": 0.0, "bike_id": "09ec7a1a45eb225b9691979ac7fda934", "is_disabled": 0, "lat": 38.92787666666667, "rental_uris": {"ios": "https://dc.lft.to/lastmile_qr_scan", "android": "https://dc.lft.to/lastmile_qr_scan"}, "is_reserved": 0, "lon": -77.054108, "fusion_lat": 0.0, "name": "09ec7a1a45eb225b9691979ac7fda934"}, {"type": "electric_scooter", "fusion_lon": 0.0, "bike_id": "2153f9f07642dbac6414dff85e6da4c1", "is_disabled": 0, "lat": 38.9198825, "rental_uris": {"ios": "https://dc.lft.to/lastmile_qr_scan", "android": "https://dc.lft.to/lastmile_qr_scan"}, "is_reserved": 0, "lon": -77.03969983333333, "fusion_lat": 0.0, "name": "2153f9f07642dbac6414dff85e6da4c1"}, {"type": "electric_scooter", "fusion_lon": 0.0, "bike_id": "5b9f6e10b9e825855e408b5163c87402", "is_disabled": 0, "lat": 38.908197, "rental_uris": {"ios": "https://dc.lft.to/lastmile_qr_scan", "android": "https://dc.lft.to/lastmile_qr_scan"}, "is_reserved": 0, "lon": -77.03476683333334, "fusion_lat": 0.0, "name": "5b9f6e10b9e825855e408b5163c87402"}, {"type": "electric_scooter", "fusion_lon": 0.0, "bike_id": "712a50967c9f3b7ad3f28d6ec11c0504", "is_disabled": 0, "lat": 38.906752166666664, "rental_uris": {"ios": "https://dc.lft.to/lastmile_qr_scan", "android": "https://dc.lft.to/lastmile_qr_scan"}, "is_reserved": 0, "lon": -77.02955766666666, "fusion_lat": 0.0, "name": "712a50967c9f3b7ad3f28d6ec11c0504"}, {"type": "electric_scooter", "fusion_lon": 0.0, "bike_id": "e1566362967e3a1014f8596f58790910", "is_disabled": 0, "lat": 38.93398783333333, "rental_uris": {"ios": "https://dc.lft.to/lastmile_qr_scan", "android": "https://dc.lft.to/lastmile_qr_scan"}, "is_reserved": 0, "lon": -77.0455285, "fusion_lat": 0.0, "name": "e1566362967e3a1014f8596f58790910"}, {"type": "electric_scooter", "fusion_lon": 0.0, "bike_id": "6bd744fc903286288dec804eaf89fb66", "is_disabled": 0, "lat": 38.927619, "rental_uris": {"ios": "https://dc.lft.to/lastmile_qr_scan", "android": "https://dc.lft.to/lastmile_qr_scan"}, "is_reserved": 0, "lon": -77.03242716666666, "fusion_lat": 0.0, "name": "6bd744fc903286288dec804eaf89fb66"}, {"type": "electric_scooter", "fusion_lon": 0.0, "bike_id": "90e7d75275ac65be5131ccc39ec9440e", "is_disabled": 0, "lat": 38.9445365, "rental_uris": {"ios": "https://dc.lft.to/lastmile_qr_scan", "android": "https://dc.lft.to/lastmile_qr_scan"}, "is_reserved": 0, "lon": -77.0280595, "fusion_lat": 0.0, "name": "90e7d75275ac65be5131ccc39ec9440e"}, {"type": "electric_scooter", "fusion_lon": 0.0, "bike_id": "79853fbe3167f149081c069dfcf01260", "is_disabled": 0, "lat": 38.926382333333336, "rental_uris": {"ios": "https://dc.lft.to/lastmile_qr_scan", "android": "https://dc.lft.to/lastmile_qr_scan"}, "is_reserved": 0, "lon": -77.03470083333333, "fusion_lat": 0.0, "name": "79853fbe3167f149081c069dfcf01260"}, {"type": "electric_scooter", "fusion_lon": 0.0, "bike_id": "96739bd56871dcfe42f337d448c80986", "is_disabled": 0, "lat": 38.90737, "rental_uris": {"ios": "https://dc.lft.to/lastmile_qr_scan", "android": "https://dc.lft.to/lastmile_qr_scan"}, "is_reserved": 0, "lon": -77.03576166666667, "fusion_lat": 0.0, "name": "96739bd56871dcfe42f337d448c80986"}, {"type": "electric_scooter", "fusion_lon": 0.0, "bike_id": "03314a80946005858e2b74e2748557fa", "is_disabled": 0, "lat": 38.910359666666665, "rental_uris": {"ios": "https://dc.lft.to/lastmile_qr_scan", "android": "https://dc.lft.to/lastmile_qr_scan"}, "is_reserved": 0, "lon": -76.985724, "fusion_lat": 0.0, "name": "03314a80946005858e2b74e2748557fa"}, {"type": "electric_scooter", "fusion_lon": 0.0, "bike_id": "daa947bf8eedbc78ca785016f7a861e4", "is_disabled": 0, "lat": 38.91808533333333, "rental_uris": {"ios": "https://dc.lft.to/lastmile_qr_scan", "android": "https://dc.lft.to/lastmile_qr_scan"}, "is_reserved": 0, "lon": -77.033366, "fusion_lat": 0.0, "name": "daa947bf8eedbc78ca785016f7a861e4"}, {"type": "electric_scooter", "fusion_lon": 0.0, "bike_id": "a8b0cca323359cd7a2fed3c9aa2b4949", "is_disabled": 0, "lat": 38.94918933333334, "rental_uris": {"ios": "https://dc.lft.to/lastmile_qr_scan", "android": "https://dc.lft.to/lastmile_qr_scan"}, "is_reserved": 0, "lon": -77.02314983333333, "fusion_lat": 0.0, "name": "a8b0cca323359cd7a2fed3c9aa2b4949"}, {"type": "electric_scooter", "fusion_lon": 0.0, "bike_id": "bb751e6d54dc72ad1948235f40d8f61b", "is_disabled": 0, "lat": 38.8980175, "rental_uris": {"ios": "https://dc.lft.to/lastmile_qr_scan", "android": "https://dc.lft.to/lastmile_qr_scan"}, "is_reserved": 0, "lon": -77.041603, "fusion_lat": 0.0, "name": "bb751e6d54dc72ad1948235f40d8f61b"}, {"type": "electric_scooter", "fusion_lon": 0.0, "bike_id": "dcb20ff222bba96cfc1cdd247e5dcf53", "is_disabled": 0, "lat": 38.8804395, "rental_uris": {"ios": "https://dc.lft.to/lastmile_qr_scan", "android": "https://dc.lft.to/lastmile_qr_scan"}, "is_reserved": 0, "lon": -76.986333, "fusion_lat": 0.0, "name": "dcb20ff222bba96cfc1cdd247e5dcf53"}, {"type": "electric_scooter", "fusion_lon": 0.0, "bike_id": "b89df6c7a33f1ef84e27d34a324661e2", "is_disabled": 0, "lat": 38.929565833333335, "rental_uris": {"ios": "https://dc.lft.to/lastmile_qr_scan", "android": "https://dc.lft.to/lastmile_qr_scan"}, "is_reserved": 0, "lon": -77.02759316666666, "fusion_lat": 0.0, "name": "b89df6c7a33f1ef84e27d34a324661e2"}, {"type": "electric_scooter", "fusion_lon": 0.0, "bike_id": "c6386148a59cab3b22eb2c7560dc6beb", "is_disabled": 0, "lat": 38.92107416666666, "rental_uris": {"ios": "https://dc.lft.to/lastmile_qr_scan", "android": "https://dc.lft.to/lastmile_qr_scan"}, "is_reserved": 0, "lon": -77.04380516666667, "fusion_lat": 0.0, "name": "c6386148a59cab3b22eb2c7560dc6beb"}, {"type": "electric_scooter", "fusion_lon": 0.0, "bike_id": "804959cda00d2939372aa8c92470824b", "is_disabled": 0, "lat": 38.89909516666667, "rental_uris": {"ios": "https://dc.lft.to/lastmile_qr_scan", "android": "https://dc.lft.to/lastmile_qr_scan"}, "is_reserved": 0, "lon": -76.93383783333333, "fusion_lat": 0.0, "name": "804959cda00d2939372aa8c92470824b"}, {"type": "electric_bike", "fusion_lon": 0.0, "bike_id": "3cddbf3ae2ad0fd3147265f0f3fb8d73", "is_disabled": 0, "lat": 39.002933, "rental_uris": {"ios": "https://dc.lft.to/lastmile_qr_scan", "android": "https://dc.lft.to/lastmile_qr_scan"}, "is_reserved": 0, "lon": -76.90307483333333, "fusion_lat": 0.0, "name": "3cddbf3ae2ad0fd3147265f0f3fb8d73"}, {"type": "electric_scooter", "fusion_lon": 0.0, "bike_id": "618f9ebcc67342e46e1371d5f99ee3e2", "is_disabled": 0, "lat": 38.886036833333335, "rental_uris": {"ios": "https://dc.lft.to/lastmile_qr_scan", "android": "https://dc.lft.to/lastmile_qr_scan"}, "is_reserved": 0, "lon": -77.0180045, "fusion_lat": 0.0, "name": "618f9ebcc67342e46e1371d5f99ee3e2"}, {"type": "electric_scooter", "fusion_lon": 0.0, "bike_id": "b2a7d4729d2b700794bff40cae92868d", "is_disabled": 0, "lat": 38.89421933333333, "rental_uris": {"ios": "https://dc.lft.to/lastmile_qr_scan", "android": "https://dc.lft.to/lastmile_qr_scan"}, "is_reserved": 0, "lon": -76.99962416666666, "fusion_lat": 0.0, "name": "b2a7d4729d2b700794bff40cae92868d"}, {"type": "electric_scooter", "fusion_lon": 0.0, "bike_id": "ec7e148d96916bf0fcbafb7151ed7595", "is_disabled": 0, "lat": 38.938245333333334, "rental_uris": {"ios": "https://dc.lft.to/lastmile_qr_scan", "android": "https://dc.lft.to/lastmile_qr_scan"}, "is_reserved": 0, "lon": -77.06178966666667, "fusion_lat": 0.0, "name": "ec7e148d96916bf0fcbafb7151ed7595"}, {"type": "electric_bike", "fusion_lon": 0.0, "bike_id": "d6afb994d21167a120f2dbb1173cfabf", "is_disabled": 0, "lat": 38.81329, "rental_uris": {"ios": "https://dc.lft.to/lastmile_qr_scan", "android": "https://dc.lft.to/lastmile_qr_scan"}, "is_reserved": 0, "lon": -77.05086316666667, "fusion_lat": 0.0, "name": "d6afb994d21167a120f2dbb1173cfabf"}, {"type": "electric_scooter", "fusion_lon": 0.0, "bike_id": "25981e9feab9bce075c1d25520de2e4d", "is_disabled": 0, "lat": 38.945121666666665, "rental_uris": {"ios": "https://dc.lft.to/lastmile_qr_scan", "android": "https://dc.lft.to/lastmile_qr_scan"}, "is_reserved": 0, "lon": -77.033619, "fusion_lat": 0.0, "name": "25981e9feab9bce075c1d25520de2e4d"}, {"type": "electric_scooter", "fusion_lon": 0.0, "bike_id": "328ddc7a5c92b7849054ae8a7455c1c3", "is_disabled": 0, "lat": 38.8764995, "rental_uris": {"ios": "https://dc.lft.to/lastmile_qr_scan", "android": "https://dc.lft.to/lastmile_qr_scan"}, "is_reserved": 0, "lon": -77.01592733333334, "fusion_lat": 0.0, "name": "328ddc7a5c92b7849054ae8a7455c1c3"}, {"type": "electric_scooter", "fusion_lon": 0.0, "bike_id": "5e7db5f4aeae8478018f4ba1fa01cefe", "is_disabled": 0, "lat": 38.89469733333333, "rental_uris": {"ios": "https://dc.lft.to/lastmile_qr_scan", "android": "https://dc.lft.to/lastmile_qr_scan"}, "is_reserved": 0, "lon": -77.01863966666667, "fusion_lat": 0.0, "name": "5e7db5f4aeae8478018f4ba1fa01cefe"}, {"type": "electric_bike", "fusion_lon": 0.0, "bike_id": "cc5e9475407210a97a9bf6c402206e6c", "is_disabled": 0, "lat": 38.865907166666666, "rental_uris": {"ios": "https://dc.lft.to/lastmile_qr_scan", "android": "https://dc.lft.to/lastmile_qr_scan"}, "is_reserved": 0, "lon": -76.9805325, "fusion_lat": 0.0, "name": "cc5e9475407210a97a9bf6c402206e6c"}, {"type": "electric_scooter", "fusion_lon": 0.0, "bike_id": "b273107dce33a9d56f0e2ffb81ee00d9", "is_disabled": 0, "lat": 38.87404083333333, "rental_uris": {"ios": "https://dc.lft.to/lastmile_qr_scan", "android": "https://dc.lft.to/lastmile_qr_scan"}, "is_reserved": 0, "lon": -76.96985066666667, "fusion_lat": 0.0, "name": "b273107dce33a9d56f0e2ffb81ee00d9"}, {"type": "electric_scooter", "fusion_lon": 0.0, "bike_id": "74ff0e0e306c3ba63fb38b7be4f36eff", "is_disabled": 0, "lat": 38.95604466666666, "rental_uris": {"ios": "https://dc.lft.to/lastmile_qr_scan", "android": "https://dc.lft.to/lastmile_qr_scan"}, "is_reserved": 0, "lon": -77.08065033333334, "fusion_lat": 0.0, "name": "74ff0e0e306c3ba63fb38b7be4f36eff"}, {"type": "electric_scooter", "fusion_lon": 0.0, "bike_id": "aeef891f8f16408d9b32161257dd90dd", "is_disabled": 0, "lat": 38.884277833333336, "rental_uris": {"ios": "https://dc.lft.to/lastmile_qr_scan", "android": "https://dc.lft.to/lastmile_qr_scan"}, "is_reserved": 0, "lon": -76.957551, "fusion_lat": 0.0, "name": "aeef891f8f16408d9b32161257dd90dd"}, {"type": "electric_scooter", "fusion_lon": 0.0, "bike_id": "15fc99c9bf7ec2c740c1d18ab6c01b7f", "is_disabled": 0, "lat": 38.892188, "rental_uris": {"ios": "https://dc.lft.to/lastmile_qr_scan", "android": "https://dc.lft.to/lastmile_qr_scan"}, "is_reserved": 0, "lon": -77.03221333333333, "fusion_lat": 0.0, "name": "15fc99c9bf7ec2c740c1d18ab6c01b7f"}, {"type": "electric_scooter", "fusion_lon": 0.0, "bike_id": "c8dd6ca085c74d7a14ce5f47f97917b7", "is_disabled": 0, "lat": 38.927794, "rental_uris": {"ios": "https://dc.lft.to/lastmile_qr_scan", "android": "https://dc.lft.to/lastmile_qr_scan"}, "is_reserved": 0, "lon": -77.026967, "fusion_lat": 0.0, "name": "c8dd6ca085c74d7a14ce5f47f97917b7"}, {"type": "electric_scooter", "fusion_lon": 0.0, "bike_id": "3f7011c96f54401d7236b39abfdf8d66", "is_disabled": 0, "lat": 38.9408405, "rental_uris": {"ios": "https://dc.lft.to/lastmile_qr_scan", "android": "https://dc.lft.to/lastmile_qr_scan"}, "is_reserved": 0, "lon": -77.02724966666666, "fusion_lat": 0.0, "name": "3f7011c96f54401d7236b39abfdf8d66"}, {"type": "electric_scooter", "fusion_lon": 0.0, "bike_id": "c32dc5499127f765a9f80b7402106e8e", "is_disabled": 0, "lat": 38.916355833333334, "rental_uris": {"ios": "https://dc.lft.to/lastmile_qr_scan", "android": "https://dc.lft.to/lastmile_qr_scan"}, "is_reserved": 0, "lon": -77.050724, "fusion_lat": 0.0, "name": "c32dc5499127f765a9f80b7402106e8e"}, {"type": "electric_scooter", "fusion_lon": 0.0, "bike_id": "3ea6dd87cb95f5c6b4b5663138f44e17", "is_disabled": 0, "lat": 38.91636166666667, "rental_uris": {"ios": "https://dc.lft.to/lastmile_qr_scan", "android": "https://dc.lft.to/lastmile_qr_scan"}, "is_reserved": 0, "lon": -77.0456915, "fusion_lat": 0.0, "name": "3ea6dd87cb95f5c6b4b5663138f44e17"}, {"type": "electric_scooter", "fusion_lon": 0.0, "bike_id": "1643d10669f8d825b0c313e459c1d12d", "is_disabled": 0, "lat": 38.90168933333333, "rental_uris": {"ios": "https://dc.lft.to/lastmile_qr_scan", "android": "https://dc.lft.to/lastmile_qr_scan"}, "is_reserved": 0, "lon": -76.98071216666666, "fusion_lat": 0.0, "name": "1643d10669f8d825b0c313e459c1d12d"}, {"type": "electric_scooter", "fusion_lon": 0.0, "bike_id": "8860d6119a35f4e7c279eb9c80958125", "is_disabled": 0, "lat": 38.9108075, "rental_uris": {"ios": "https://dc.lft.to/lastmile_qr_scan", "android": "https://dc.lft.to/lastmile_qr_scan"}, "is_reserved": 0, "lon": -77.0015385, "fusion_lat": 0.0, "name": "8860d6119a35f4e7c279eb9c80958125"}, {"type": "electric_scooter", "fusion_lon": 0.0, "bike_id": "cbe6e417391e16ec433f76efdf146236", "is_disabled": 0, "lat": 38.93350233333334, "rental_uris": {"ios": "https://dc.lft.to/lastmile_qr_scan", "android": "https://dc.lft.to/lastmile_qr_scan"}, "is_reserved": 0, "lon": -77.02980066666667, "fusion_lat": 0.0, "name": "cbe6e417391e16ec433f76efdf146236"}, {"type": "electric_bike", "fusion_lon": 0.0, "bike_id": "db0646d7db87738abe13fe7ec1b0589e", "is_disabled": 0, "lat": 38.9746705, "rental_uris": {"ios": "https://dc.lft.to/lastmile_qr_scan", "android": "https://dc.lft.to/lastmile_qr_scan"}, "is_reserved": 0, "lon": -77.01206133333334, "fusion_lat": 0.0, "name": "db0646d7db87738abe13fe7ec1b0589e"}, {"type": "electric_scooter", "fusion_lon": 0.0, "bike_id": "1997659654f281efb96e688a2c43c0e2", "is_disabled": 0, "lat": 38.901385833333336, "rental_uris": {"ios": "https://dc.lft.to/lastmile_qr_scan", "android": "https://dc.lft.to/lastmile_qr_scan"}, "is_reserved": 0, "lon": -77.044306, "fusion_lat": 0.0, "name": "1997659654f281efb96e688a2c43c0e2"}, {"type": "electric_scooter", "fusion_lon": 0.0, "bike_id": "d4bfaa2abac411586882811d6347fd2d", "is_disabled": 0, "lat": 38.92675116666667, "rental_uris": {"ios": "https://dc.lft.to/lastmile_qr_scan", "android": "https://dc.lft.to/lastmile_qr_scan"}, "is_reserved": 0, "lon": -77.03599633333333, "fusion_lat": 0.0, "name": "d4bfaa2abac411586882811d6347fd2d"}, {"type": "electric_bike", "fusion_lon": 0.0, "bike_id": "1e46109318a60461851106ce71cf553a", "is_disabled": 0, "lat": 38.884892, "rental_uris": {"ios": "https://dc.lft.to/lastmile_qr_scan", "android": "https://dc.lft.to/lastmile_qr_scan"}, "is_reserved": 0, "lon": -76.95763033333333, "fusion_lat": 0.0, "name": "1e46109318a60461851106ce71cf553a"}, {"type": "electric_scooter", "fusion_lon": 0.0, "bike_id": "4bde9e3a131f056e84c629e9c8aa0458", "is_disabled": 0, "lat": 38.921601833333334, "rental_uris": {"ios": "https://dc.lft.to/lastmile_qr_scan", "android": "https://dc.lft.to/lastmile_qr_scan"}, "is_reserved": 0, "lon": -77.04692766666666, "fusion_lat": 0.0, "name": "4bde9e3a131f056e84c629e9c8aa0458"}, {"type": "electric_scooter", "fusion_lon": 0.0, "bike_id": "081355514d5336e12e680f8ae09352b8", "is_disabled": 0, "lat": 38.94229983333334, "rental_uris": {"ios": "https://dc.lft.to/lastmile_qr_scan", "android": "https://dc.lft.to/lastmile_qr_scan"}, "is_reserved": 0, "lon": -77.0386995, "fusion_lat": 0.0, "name": "081355514d5336e12e680f8ae09352b8"}, {"type": "electric_scooter", "fusion_lon": 0.0, "bike_id": "ec44a1631f9cacf0f55aaa42d44a54ac", "is_disabled": 0, "lat": 38.913517, "rental_uris": {"ios": "https://dc.lft.to/lastmile_qr_scan", "android": "https://dc.lft.to/lastmile_qr_scan"}, "is_reserved": 0, "lon": -77.03212816666667, "fusion_lat": 0.0, "name": "ec44a1631f9cacf0f55aaa42d44a54ac"}, {"type": "electric_scooter", "fusion_lon": 0.0, "bike_id": "f8f0776d0f20eb9bd65f7ecddce3402a", "is_disabled": 0, "lat": 38.923946666666666, "rental_uris": {"ios": "https://dc.lft.to/lastmile_qr_scan", "android": "https://dc.lft.to/lastmile_qr_scan"}, "is_reserved": 0, "lon": -77.03402466666667, "fusion_lat": 0.0, "name": "f8f0776d0f20eb9bd65f7ecddce3402a"}, {"type": "electric_bike", "fusion_lon": 0.0, "bike_id": "cae92c853e82d90bb2e2c53c1ec36dcf", "is_disabled": 0, "lat": 38.93485916666667, "rental_uris": {"ios": "https://dc.lft.to/lastmile_qr_scan", "android": "https://dc.lft.to/lastmile_qr_scan"}, "is_reserved": 0, "lon": -77.0302365, "fusion_lat": 0.0, "name": "cae92c853e82d90bb2e2c53c1ec36dcf"}, {"type": "electric_bike", "fusion_lon": 0.0, "bike_id": "a61097c1e1a7393db2823fbd8027eeb9", "is_disabled": 0, "lat": 39.0000445, "rental_uris": {"ios": "https://dc.lft.to/lastmile_qr_scan", "android": "https://dc.lft.to/lastmile_qr_scan"}, "is_reserved": 0, "lon": -76.91806283333334, "fusion_lat": 0.0, "name": "a61097c1e1a7393db2823fbd8027eeb9"}, {"type": "electric_scooter", "fusion_lon": 0.0, "bike_id": "9dbde00202bf9c3c791128bd73984d14", "is_disabled": 0, "lat": 38.88713533333333, "rental_uris": {"ios": "https://dc.lft.to/lastmile_qr_scan", "android": "https://dc.lft.to/lastmile_qr_scan"}, "is_reserved": 0, "lon": -77.02207, "fusion_lat": 0.0, "name": "9dbde00202bf9c3c791128bd73984d14"}, {"type": "electric_scooter", "fusion_lon": 0.0, "bike_id": "6119c975fff221307d682da6a2346d8b", "is_disabled": 0, "lat": 38.905593833333334, "rental_uris": {"ios": "https://dc.lft.to/lastmile_qr_scan", "android": "https://dc.lft.to/lastmile_qr_scan"}, "is_reserved": 0, "lon": -77.03466433333334, "fusion_lat": 0.0, "name": "6119c975fff221307d682da6a2346d8b"}, {"type": "electric_scooter", "fusion_lon": 0.0, "bike_id": "845c2471a9b95edee226643cedc08ee1", "is_disabled": 0, "lat": 38.918212833333335, "rental_uris": {"ios": "https://dc.lft.to/lastmile_qr_scan", "android": "https://dc.lft.to/lastmile_qr_scan"}, "is_reserved": 0, "lon": -77.00258366666667, "fusion_lat": 0.0, "name": "845c2471a9b95edee226643cedc08ee1"}, {"type": "electric_bike", "fusion_lon": 0.0, "bike_id": "1ad6ba9bb4df618a6b01a473b9c87582", "is_disabled": 0, "lat": 38.845102833333335, "rental_uris": {"ios": "https://dc.lft.to/lastmile_qr_scan", "android": "https://dc.lft.to/lastmile_qr_scan"}, "is_reserved": 0, "lon": -76.988118, "fusion_lat": 0.0, "name": "1ad6ba9bb4df618a6b01a473b9c87582"}, {"type": "electric_scooter", "fusion_lon": 0.0, "bike_id": "85ca184772ddbba1f2de18db35e48ede", "is_disabled": 0, "lat": 38.92243366666667, "rental_uris": {"ios": "https://dc.lft.to/lastmile_qr_scan", "android": "https://dc.lft.to/lastmile_qr_scan"}, "is_reserved": 0, "lon": -77.04269566666666, "fusion_lat": 0.0, "name": "85ca184772ddbba1f2de18db35e48ede"}, {"type": "electric_scooter", "fusion_lon": 0.0, "bike_id": "970e5e3fcb89fb27bff91708a29dea04", "is_disabled": 0, "lat": 38.92058216666667, "rental_uris": {"ios": "https://dc.lft.to/lastmile_qr_scan", "android": "https://dc.lft.to/lastmile_qr_scan"}, "is_reserved": 0, "lon": -77.0339465, "fusion_lat": 0.0, "name": "970e5e3fcb89fb27bff91708a29dea04"}, {"type": "electric_scooter", "fusion_lon": 0.0, "bike_id": "4ccf3790ecd86cde22ab3bcc9a945ece", "is_disabled": 0, "lat": 38.92484, "rental_uris": {"ios": "https://dc.lft.to/lastmile_qr_scan", "android": "https://dc.lft.to/lastmile_qr_scan"}, "is_reserved": 0, "lon": -77.0255305, "fusion_lat": 0.0, "name": "4ccf3790ecd86cde22ab3bcc9a945ece"}, {"type": "electric_scooter", "fusion_lon": 0.0, "bike_id": "99ea7dc55f835a318cbbc8c396337beb", "is_disabled": 0, "lat": 38.90866166666667, "rental_uris": {"ios": "https://dc.lft.to/lastmile_qr_scan", "android": "https://dc.lft.to/lastmile_qr_scan"}, "is_reserved": 0, "lon": -76.9849815, "fusion_lat": 0.0, "name": "99ea7dc55f835a318cbbc8c396337beb"}, {"type": "electric_scooter", "fusion_lon": 0.0, "bike_id": "132bda7539e4bcde0d8d0860dd21799f", "is_disabled": 0, "lat": 38.926054, "rental_uris": {"ios": "https://dc.lft.to/lastmile_qr_scan", "android": "https://dc.lft.to/lastmile_qr_scan"}, "is_reserved": 0, "lon": -77.03213133333334, "fusion_lat": 0.0, "name": "132bda7539e4bcde0d8d0860dd21799f"},