{"data": {"bikes": [{"is_disabled": 0, "fusion_lat": 0.0, "lat": 38.84292466666667, "type": "electric_scooter", "lon": -76.99946466666667, "is_reserved": 0, "fusion_lon": 0.0, "bike_id": "b7586ef2b9539f4bc2dc540f7321f712", "name": "b7586ef2b9539f4bc2dc540f7321f712", "rental_uris": {"ios": "https://dc.lft.to/lastmile_qr_scan", "android": "https://dc.lft.to/lastmile_qr_scan"}}, {"is_disabled": 0, "fusion_lat": 0.0, "lat": 38.91885083333333, "type": "electric_scooter", "lon": -77.02967383333333, "is_reserved": 0, "fusion_lon": 0.0, "bike_id": "75118a20ea2b29e317aff06b39aac007", "name": "75118a20ea2b29e317aff06b39aac007", "rental_uris": {"ios": "https://dc.lft.to/lastmile_qr_scan", "android": "https://dc.lft.to/lastmile_qr_scan"}}, {"is_disabled": 0, "fusion_lat": 0.0, "lat": 38.907176166666666, "type": "electric_scooter", "lon": -77.04347666666666, "is_reserved": 0, "fusion_lon": 0.0, "bike_id": "2bc4abf7a097b2847e1440327b9455bb", "name": "2bc4abf7a097b2847e1440327b9455bb", "rental_uris": {"ios": "https://dc.lft.to/lastmile_qr_scan", "android": "https://dc.lft.to/lastmile_qr_scan"}}, {"is_disabled": 0, "fusion_lat": 0.0, "lat": 38.930840833333335, "type": "electric_scooter", "lon": -77.03746483333333, "is_reserved": 0, "fusion_lon": 0.0, "bike_id": "af2000dac5f2fe24e4d81f06210721d7", "name": "af2000dac5f2fe24e4d81f06210721d7", "rental_uris": {"ios": "https://dc.lft.to/lastmile_qr_scan", "android": "https://dc.lft.to/lastmile_qr_scan"}}, {"is_disabled": 0, "fusion_lat": 0.0, "lat": 38.9055785, "type": "electric_scooter", "lon": -77.03831216666667, "is_reserved": 0, "fusion_lon": 0.0, "bike_id": "ced4aa6ea4cd419287c068da374b82cf", "name": "ced4aa6ea4cd419287c068da374b82cf", "rental_uris": {"ios": "https://dc.lft.to/lastmile_qr_scan", "android": "https://dc.lft.to/lastmile_qr_scan"}}, {"is_disabled": 0, "fusion_lat": 0.0, "lat": 38.905328833333336, "type": "electric_scooter", "lon": -77.05133083333334, "is_reserved": 0, "fusion_lon": 0.0, "bike_id": "e90ea588e7182ff6a53a710122a74f94", "name": "e90ea588e7182ff6a53a710122a74f94", "rental_uris": {"ios": "https://dc.lft.to/lastmile_qr_scan", "android": "https://dc.lft.to/lastmile_qr_scan"}}, {"is_disabled": 0, "fusion_lat": 0.0, "lat": 38.884890166666665, "type": "electric_scooter", "lon": -77.0153055, "is_reserved": 0, "fusion_lon": 0.0, "bike_id": "b23a9bb715f0ce340ad5dc3b77483475", "name": "b23a9bb715f0ce340ad5dc3b77483475", "rental_uris": {"ios": "https://dc.lft.to/lastmile_qr_scan", "android": "https://dc.lft.to/lastmile_qr_scan"}}, {"is_disabled": 0, "fusion_lat": 0.0, "lat": 38.92148866666667, "type": "electric_scooter", "lon": -77.0181025, "is_reserved": 0, "fusion_lon": 0.0, "bike_id": "cadbcbc5f793d8b4092e21b2afd79bd1", "name": "cadbcbc5f793d8b4092e21b2afd79bd1", "rental_uris": {"ios": "https://dc.lft.to/lastmile_qr_scan", "android": "https://dc.lft.to/lastmile_qr_scan"}}, {"is_disabled": 0, "fusion_lat": 0.0, "lat": 38.919889833333336, "type": "electric_scooter", "lon": -77.0319405, "is_reserved": 0, "fusion_lon": 0.0, "bike_id": "fcbbe1221669d5f36ca172d8ff31fa14", "name": "fcbbe1221669d5f36ca172d8ff31fa14", "rental_uris": {"ios": "https://dc.lft.to/lastmile_qr_scan", "android": "https://dc.lft.to/lastmile_qr_scan"}}, {"is_disabled": 0, "fusion_lat": 0.0, "lat": 38.90533666666666, "type": "electric_scooter", "lon": -77.02206783333334, "is_reserved": 0, "fusion_lon": 0.0, "bike_id": "eb735ff54914a74c3a3fab55357506bc", "name": "eb735ff54914a74c3a3fab55357506bc", "rental_uris": {"ios": "https://dc.lft.to/lastmile_qr_scan", "android": "https://dc.lft.to/lastmile_qr_scan"}}, {"is_disabled": 0, "fusion_lat": 0.0, "lat": 38.952483666666666, "type": "electric_bike", "lon": -77.00185216666667, "is_reserved": 0, "fusion_lon": 0.0, "bike_id": "519ec80cdb1f46e59912507f7524bf43", "name": "519ec80cdb1f46e59912507f7524bf43", "rental_uris": {"ios": "https://dc.lft.to/lastmile_qr_scan", "android": "https://dc.lft.to/lastmile_qr_scan"}}, {"is_disabled": 0, "fusion_lat": 0.0, "lat": 38.931026, "type": "electric_scooter", "lon": -77.03836366666667, "is_reserved": 0, "fusion_lon": 0.0, "bike_id": "2c38a0ae900630ffdffab24108028b42", "name": "2c38a0ae900630ffdffab24108028b42", "rental_uris": {"ios": "https://dc.lft.to/lastmile_qr_scan", "android": "https://dc.lft.to/lastmile_qr_scan"}}, {"is_disabled": 0, "fusion_lat": 0.0, "lat": 38.84274166666667, "type": "electric_bike", "lon": -76.98842783333333, "is_reserved": 0, "fusion_lon": 0.0, "bike_id": "92829fbb30b8b6a7ab3cc350e660b2fb", "name": "92829fbb30b8b6a7ab3cc350e660b2fb", "rental_uris": {"ios": "https://dc.lft.to/lastmile_qr_scan", "android": "https://dc.lft.to/lastmile_qr_scan"}}, {"is_disabled": 0, "fusion_lat": 0.0, "lat": 38.9012915, "type": "electric_scooter", "lon": -77.002757, "is_reserved": 0, "fusion_lon": 0.0, "bike_id": "488d318305e9df82bac7de97e3efcc74", "name": "488d318305e9df82bac7de97e3efcc74", "rental_uris": {"ios": "https://dc.lft.to/lastmile_qr_scan", "android": "https://dc.lft.to/lastmile_qr_scan"}}, {"is_disabled": 0, "fusion_lat": 0.0, "lat": 38.866216333333334, "type": "electric_scooter", "lon": -76.987012, "is_reserved": 0, "fusion_lon": 0.0, "bike_id": "8c3599ddd589cb7df8260f20ee5a636d", "name": "8c3599ddd589cb7df8260f20ee5a636d", "rental_uris": {"ios": "https://dc.lft.to/lastmile_qr_scan", "android": "https://dc.lft.to/lastmile_qr_scan"}}, {"is_disabled": 0, "fusion_lat": 0.0, "lat": 38.8493765, "type": "electric_bike", "lon": -77.10015416666667, "is_reserved": 0, "fusion_lon": 0.0, "bike_id": "2539b6493f52b03b03a0fda97e6afaf6", "name": "2539b6493f52b03b03a0fda97e6afaf6", "rental_uris": {"ios": "https://dc.lft.to/lastmile_qr_scan", "android": "https://dc.lft.to/lastmile_qr_scan"}}, {"is_disabled": 0, "fusion_lat": 0.0, "lat": 38.893722833333335, "type": "electric_scooter", "lon": -76.94997983333333, "is_reserved": 0, "fusion_lon": 0.0, "bike_id": "3b9340f974a2c6bcb142915abba61518", "name": "3b9340f974a2c6bcb142915abba61518", "rental_uris": {"ios": "https://dc.lft.to/lastmile_qr_scan", "android": "https://dc.lft.to/lastmile_qr_scan"}}, {"is_disabled": 0, "fusion_lat": 0.0, "lat": 38.90007833333333, "type": "electric_scooter", "lon": -76.997961, "is_reserved": 0, "fusion_lon": 0.0, "bike_id": "516f74bd077759e20a17cad9d2d1beee", "name": "516f74bd077759e20a17cad9d2d1beee", "rental_uris": {"ios": "https://dc.lft.to/lastmile_qr_scan", "android": "https://dc.lft.to/lastmile_qr_scan"}}, {"is_disabled": 0, "fusion_lat": 0.0, "lat": 38.90041266666667, "type": "electric_scooter", "lon": -77.04829483333333, "is_reserved": 0, "fusion_lon": 0.0, "bike_id": "874fe175c4a6cb54a3a78d6a0ddb3742", "name": "874fe175c4a6cb54a3a78d6a0ddb3742", "rental_uris": {"ios": "https://dc.lft.to/lastmile_qr_scan", "android": "https://dc.lft.to/lastmile_qr_scan"}}, {"is_disabled": 0, "fusion_lat": 0.0, "lat": 38.893559, "type": "electric_scooter", "lon": -77.003337, "is_reserved": 0, "fusion_lon": 0.0, "bike_id": "825746bcb5df6e2c47eb22385eb8e6b8", "name": "825746bcb5df6e2c47eb22385eb8e6b8", "rental_uris": {"ios": "https://dc.lft.to/lastmile_qr_scan", "android": "https://dc.lft.to/lastmile_qr_scan"}}, {"is_disabled": 0, "fusion_lat": 0.0, "lat": 38.911008833333334, "type": "electric_scooter", "lon": -77.03183933333334, "is_reserved": 0, "fusion_lon": 0.0, "bike_id": "32d3ca7c1800229700fb8e1692c79714", "name": "32d3ca7c1800229700fb8e1692c79714", "rental_uris": {"ios": "https://dc.lft.to/lastmile_qr_scan", "android": "https://dc.lft.to/lastmile_qr_scan"}}, {"is_disabled": 0, "fusion_lat": 0.0, "lat": 38.89224333333333, "type": "electric_scooter", "lon": -77.021463, "is_reserved": 0, "fusion_lon": 0.0, "bike_id": "0fa9014a3f380873bc5a00e7d41af6d5", "name": "0fa9014a3f380873bc5a00e7d41af6d5", "rental_uris": {"ios": "https://dc.lft.to/lastmile_qr_scan", "android": "https://dc.lft.to/lastmile_qr_scan"}}, {"is_disabled": 0, "fusion_lat": 0.0, "lat": 38.852206333333335, "type": "electric_bike", "lon": -77.12953683333333, "is_reserved": 0, "fusion_lon": 0.0, "bike_id": "e088a5a0be6ad0db43fda6df8e791752", "name": "e088a5a0be6ad0db43fda6df8e791752", "rental_uris": {"ios": "https://dc.lft.to/lastmile_qr_scan", "android": "https://dc.lft.to/lastmile_qr_scan"}}, {"is_disabled": 0, "fusion_lat": 0.0, "lat": 38.93081933333333, "type": "electric_scooter", "lon": -77.0279495, "is_reserved": 0, "fusion_lon": 0.0, "bike_id": "b3c80e702337d737e42ac6fa344efb9c", "name": "b3c80e702337d737e42ac6fa344efb9c", "rental_uris": {"ios": "https://dc.lft.to/lastmile_qr_scan", "android": "https://dc.lft.to/lastmile_qr_scan"}}, {"is_disabled": 0, "fusion_lat": 0.0, "lat": 38.865958, "type": "electric_bike", "lon": -76.93227616666667, "is_reserved": 0, "fusion_lon": 0.0, "bike_id": "b6962e2382bf11feff75ff4f48fac762", "name": "b6962e2382bf11feff75ff4f48fac762", "rental_uris": {"ios": "https://dc.lft.to/lastmile_qr_scan", "android": "https://dc.lft.to/lastmile_qr_scan"}}, {"is_disabled": 0, "fusion_lat": 0.0, "lat": 38.9027775, "type": "electric_scooter", "lon": -77.04070333333334, "is_reserved": 0, "fusion_lon": 0.0, "bike_id": "0bdc7f388e8952c7da7b233e1a93be1a", "name": "0bdc7f388e8952c7da7b233e1a93be1a", "rental_uris": {"ios": "https://dc.lft.to/lastmile_qr_scan", "android": "https://dc.lft.to/lastmile_qr_scan"}}, {"is_disabled": 0, "fusion_lat": 0.0, "lat": 38.93880133333333, "type": "electric_scooter", "lon": -77.032835, "is_reserved": 0, "fusion_lon": 0.0, "bike_id": "e69eeaa8298ad61944889762fcc56f13", "name": "e69eeaa8298ad61944889762fcc56f13", "rental_uris": {"ios": "https://dc.lft.to/lastmile_qr_scan", "android": "https://dc.lft.to/lastmile_qr_scan"}}, {"is_disabled": 0, "fusion_lat": 0.0, "lat": 38.90850366666667, "type": "electric_scooter", "lon": -77.03203866666666, "is_reserved": 0, "fusion_lon": 0.0, "bike_id": "ca7e71bca1566b3863aafbc6db6484fa", "name": "ca7e71bca1566b3863aafbc6db6484fa", "rental_uris": {"ios": "https://dc.lft.to/lastmile_qr_scan", "android": "https://dc.lft.to/lastmile_qr_scan"}}, {"is_disabled": 0, "fusion_lat": 0.0, "lat": 38.923377, "type": "electric_scooter", "lon": -77.01904083333334, "is_reserved": 0, "fusion_lon": 0.0, "bike_id": "018a830e563cccc99d926b94b4199fc3", "name": "018a830e563cccc99d926b94b4199fc3", "rental_uris": {"ios": "https://dc.lft.to/lastmile_qr_scan", "android": "https://dc.lft.to/lastmile_qr_scan"}}, {"is_disabled": 0, "fusion_lat": 0.0, "lat": 38.91108466666667, "type": "electric_scooter", "lon": -77.04499683333333, "is_reserved": 0, "fusion_lon": 0.0, "bike_id": "9833bbee4075d59e325feede6a5ba273", "name": "9833bbee4075d59e325feede6a5ba273", "rental_uris": {"ios": "https://dc.lft.to/lastmile_qr_scan", "android": "https://dc.lft.to/lastmile_qr_scan"}}, {"is_disabled": 0, "fusion_lat": 0.0, "lat": 38.98461783333333, "type": "electric_bike", "lon": -76.95526516666666, "is_reserved": 0, "fusion_lon": 0.0, "bike_id": "1cb4d10f4e59728b4d47a8539f6cb8f1", "name": "1cb4d10f4e59728b4d47a8539f6cb8f1", "rental_uris": {"ios": "https://dc.lft.to/lastmile_qr_scan", "android": "https://dc.lft.to/lastmile_qr_scan"}}, {"is_disabled": 0, "fusion_lat": 0.0, "lat": 38.921308833333335, "type": "electric_scooter", "lon": -77.017875, "is_reserved": 0, "fusion_lon": 0.0, "bike_id": "caced9c8d6f1a21f7a803c5f6374e843", "name": "caced9c8d6f1a21f7a803c5f6374e843", "rental_uris": {"ios": "https://dc.lft.to/lastmile_qr_scan", "android": "https://dc.lft.to/lastmile_qr_scan"}}, {"is_disabled": 0, "fusion_lat": 0.0, "lat": 38.92166983333333, "type": "electric_scooter", "lon": -77.05134466666667, "is_reserved": 0, "fusion_lon": 0.0, "bike_id": "98f2cdd0ad463f31beeeaf69bae6239d", "name": "98f2cdd0ad463f31beeeaf69bae6239d", "rental_uris": {"ios": "https://dc.lft.to/lastmile_qr_scan", "android": "https://dc.lft.to/lastmile_qr_scan"}}, {"is_disabled": 0, "fusion_lat": 0.0, "lat": 38.90042533333333, "type": "electric_scooter", "lon": -77.00743, "is_reserved": 0, "fusion_lon": 0.0, "bike_id": "ec2e7b1a1bcbab04dcd8edadb8cb5f7f", "name": "ec2e7b1a1bcbab04dcd8edadb8cb5f7f", "rental_uris": {"ios": "https://dc.lft.to/lastmile_qr_scan", "android": "https://dc.lft.to/lastmile_qr_scan"}}, {"is_disabled": 0, "fusion_lat": 0.0, "lat": 38.915481, "type": "electric_scooter", "lon": -77.03846183333333, "is_reserved": 0, "fusion_lon": 0.0, "bike_id": "0261ef06867d46946f0ee38c587bff41", "name": "0261ef06867d46946f0ee38c587bff41", "rental_uris": {"ios": "https://dc.lft.to/lastmile_qr_scan", "android": "https://dc.lft.to/lastmile_qr_scan"}}, {"is_disabled": 0, "fusion_lat": 0.0, "lat": 38.98593983333333, "type": "electric_bike", "lon": -77.03758516666667, "is_reserved": 0, "fusion_lon": 0.0, "bike_id": "0951934e5293efd683566ba30f83afb1", "name": "0951934e5293efd683566ba30f83afb1", "rental_uris": {"ios": "https://dc.lft.to/lastmile_qr_scan", "android": "https://dc.lft.to/lastmile_qr_scan"}}, {"is_disabled": 0, "fusion_lat": 0.0, "lat": 38.89410183333333, "type": "electric_scooter", "lon": -76.95665533333333, "is_reserved": 0, "fusion_lon": 0.0, "bike_id": "913893487a60fca95d0b642a3dbf534b", "name": "913893487a60fca95d0b642a3dbf534b", "rental_uris": {"ios": "https://dc.lft.to/lastmile_qr_scan", "android": "https://dc.lft.to/lastmile_qr_scan"}}, {"is_disabled": 0, "fusion_lat": 0.0, "lat": 38.9089675, "type": "electric_scooter", "lon": -77.0421205, "is_reserved": 0, "fusion_lon": 0.0, "bike_id": "44b6908bb9d75e2c1ebb59aca20924a6", "name": "44b6908bb9d75e2c1ebb59aca20924a6", "rental_uris": {"ios": "https://dc.lft.to/lastmile_qr_scan", "android": "https://dc.lft.to/lastmile_qr_scan"}}, {"is_disabled": 0, "fusion_lat": 0.0, "lat": 38.896830333333334, "type": "electric_scooter", "lon": -76.93532266666666, "is_reserved": 0, "fusion_lon": 0.0, "bike_id": "3d1485b1ff6a0187a3af4027470f82ac", "name": "3d1485b1ff6a0187a3af4027470f82ac", "rental_uris": {"ios": "https://dc.lft.to/lastmile_qr_scan", "android": "https://dc.lft.to/lastmile_qr_scan"}}, {"is_disabled": 0, "fusion_lat": 0.0, "lat": 38.89557283333333, "type": "electric_scooter", "lon": -77.02935183333334, "is_reserved": 0, "fusion_lon": 0.0, "bike_id": "835d747e2156bcdc363a4979c5adb624", "name": "835d747e2156bcdc363a4979c5adb624", "rental_uris": {"ios": "https://dc.lft.to/lastmile_qr_scan", "android": "https://dc.lft.to/lastmile_qr_scan"}}, {"is_disabled": 0, "fusion_lat": 0.0, "lat": 38.8858655, "type": "electric_scooter", "lon": -77.00066366666667, "is_reserved": 0, "fusion_lon": 0.0, "bike_id": "ecc5bfe20dd843732ecba1edb4e950be", "name": "ecc5bfe20dd843732ecba1edb4e950be", "rental_uris": {"ios": "https://dc.lft.to/lastmile_qr_scan", "android": "https://dc.lft.to/lastmile_qr_scan"}}, {"is_disabled": 0, "fusion_lat": 0.0, "lat": 38.91520283333333, "type": "electric_scooter", "lon": -77.04492533333334, "is_reserved": 0, "fusion_lon": 0.0, "bike_id": "da5f19da26ba8f2f7654f814281c2468", "name": "da5f19da26ba8f2f7654f814281c2468", "rental_uris": {"ios": "https://dc.lft.to/lastmile_qr_scan", "android": "https://dc.lft.to/lastmile_qr_scan"}}, {"is_disabled": 0, "fusion_lat": 0.0, "lat": 38.866144, "type": "electric_scooter", "lon": -76.98659633333334, "is_reserved": 0, "fusion_lon": 0.0, "bike_id": "ff13a99a309e6852205557d4e2b46c8a", "name": "ff13a99a309e6852205557d4e2b46c8a", "rental_uris": {"ios": "https://dc.lft.to/lastmile_qr_scan", "android": "https://dc.lft.to/lastmile_qr_scan"}}, {"is_disabled": 0, "fusion_lat": 0.0, "lat": 38.919547, "type": "electric_scooter", "lon": -77.02337116666666, "is_reserved": 0, "fusion_lon": 0.0, "bike_id": "c0b4ed79c647934dc77b3410abe39448", "name": "c0b4ed79c647934dc77b3410abe39448", "rental_uris": {"ios": "https://dc.lft.to/lastmile_qr_scan", "android": "https://dc.lft.to/lastmile_qr_scan"}}, {"is_disabled": 0, "fusion_lat": 0.0, "lat": 38.901881333333336, "type": "electric_scooter", "lon": -77.0217815, "is_reserved": 0, "fusion_lon": 0.0, "bike_id": "644258e820d089f66261a0868e3f86dc", "name": "644258e820d089f66261a0868e3f86dc", "rental_uris": {"ios": "https://dc.lft.to/lastmile_qr_scan", "android": "https://dc.lft.to/lastmile_qr_scan"}}, {"is_disabled": 0, "fusion_lat": 0.0, "lat": 38.8811185, "type": "electric_bike", "lon": -77.01665566666667, "is_reserved": 0, "fusion_lon": 0.0, "bike_id": "06e46214c044bc91893d71a78628d427", "name": "06e46214c044bc91893d71a78628d427", "rental_uris": {"ios": "https://dc.lft.to/lastmile_qr_scan", "android": "https://dc.lft.to/lastmile_qr_scan"}}, {"is_disabled": 0, "fusion_lat": 0.0, "lat": 38.91004366666667, "type": "electric_scooter", "lon": -76.99384983333333, "is_reserved": 0, "fusion_lon": 0.0, "bike_id": "2bafb08d84210c8faf19f18c5d5b7b11", "name": "2bafb08d84210c8faf19f18c5d5b7b11", "rental_uris": {"ios": "https://dc.lft.to/lastmile_qr_scan", "android": "https://dc.lft.to/lastmile_qr_scan"}}, {"is_disabled": 0, "fusion_lat": 0.0, "lat": 38.89220983333333, "type": "electric_scooter", "lon": -77.04375883333333, "is_reserved": 0, "fusion_lon": 0.0, "bike_id": "e950b35788ad64f619fcfc7f93adb2e0", "name": "e950b35788ad64f619fcfc7f93adb2e0", "rental_uris": {"ios": "https://dc.lft.to/lastmile_qr_scan", "android": "https://dc.lft.to/lastmile_qr_scan"}}, {"is_disabled": 0, "fusion_lat": 0.0, "lat": 38.96141016666667, "type": "electric_bike", "lon": -77.03228033333333, "is_reserved": 0, "fusion_lon": 0.0, "bike_id": "c7bc0f5a34325d4aec57365c1129f08c", "name": "c7bc0f5a34325d4aec57365c1129f08c", "rental_uris": {"ios": "https://dc.lft.to/lastmile_qr_scan", "android": "https://dc.lft.to/lastmile_qr_scan"}}, {"is_disabled": 0, "fusion_lat": 0.0, "lat": 38.9236155, "type": "electric_scooter", "lon": -77.0508575, "is_reserved": 0, "fusion_lon": 0.0, "bike_id": "7e35cca56b1b825fb5671c50b05b23b1", "name": "7e35cca56b1b825fb5671c50b05b23b1", "rental_uris": {"ios": "https://dc.lft.to/lastmile_qr_scan", "android": "https://dc.lft.to/lastmile_qr_scan"}}, {"is_disabled": 0, "fusion_lat": 0.0, "lat": 38.900508333333335, "type": "electric_scooter", "lon": -77.04821316666667, "is_reserved": 0, "fusion_lon": 0.0, "bike_id": "a5326141fa2bb7be04de836ff4bbefa0", "name": "a5326141fa2bb7be04de836ff4bbefa0", "rental_uris": {"ios": "https://dc.lft.to/lastmile_qr_scan", "android": "https://dc.lft.to/lastmile_qr_scan"}}, {"is_disabled": 0, "fusion_lat": 0.0, "lat": 38.89215016666667, "type": "electric_scooter", "lon": -77.028401, "is_reserved": 0, "fusion_lon": 0.0, "bike_id": "2433c8709e7b5ec420d2718ef6e1e7f9", "name": "2433c8709e7b5ec420d2718ef6e1e7f9", "rental_uris": {"ios": "https://dc.lft.to/lastmile_qr_scan", "android": "https://dc.lft.to/lastmile_qr_scan"}}, {"is_disabled": 0, "fusion_lat": 0.0, "lat": 38.890328333333336, "type": "electric_scooter", "lon": -76.93751583333334, "is_reserved": 0, "fusion_lon": 0.0, "bike_id": "87a351b3aafb654c2570fabec3743b47", "name": "87a351b3aafb654c2570fabec3743b47", "rental_uris": {"ios": "https://dc.lft.to/lastmile_qr_scan", "android": "https://dc.lft.to/lastmile_qr_scan"}}, {"is_disabled": 0, "fusion_lat": 0.0, "lat": 38.90340716666667, "type": "electric_scooter", "lon": -76.9724425, "is_reserved": 0, "fusion_lon": 0.0, "bike_id": "e303fdfedbba2660c34b2625cee72e5c", "name": "e303fdfedbba2660c34b2625cee72e5c", "rental_uris": {"ios": "https://dc.lft.to/lastmile_qr_scan", "android": "https://dc.lft.to/lastmile_qr_scan"}}, {"is_disabled": 0, "fusion_lat": 0.0, "lat": 38.9045015, "type": "electric_scooter", "lon": -77.05917833333334, "is_reserved": 0, "fusion_lon": 0.0, "bike_id": "fb98e298d2ea86d9db2f4e765a5d781a", "name": "fb98e298d2ea86d9db2f4e765a5d781a", "rental_uris": {"ios": "https://dc.lft.to/lastmile_qr_scan", "android": "https://dc.lft.to/lastmile_qr_scan"}}, {"is_disabled": 0, "fusion_lat": 0.0, "lat": 38.91255, "type": "electric_scooter", "lon": -77.03506733333333, "is_reserved": 0, "fusion_lon": 0.0, "bike_id": "caae7490be14398fd8b7c86a63a7df92", "name": "caae7490be14398fd8b7c86a63a7df92", "rental_uris": {"ios": "https://dc.lft.to/lastmile_qr_scan", "android": "https://dc.lft.to/lastmile_qr_scan"}}, {"is_disabled": 0, "fusion_lat": 0.0, "lat": 38.9189325, "type": "electric_scooter", "lon": -77.04154383333334, "is_reserved": 0, "fusion_lon": 0.0, "bike_id": "4c962339ea9cffd90b7946cf1a575376", "name": "4c962339ea9cffd90b7946cf1a575376", "rental_uris": {"ios": "https://dc.lft.to/lastmile_qr_scan", "android": "https://dc.lft.to/lastmile_qr_scan"}}, {"is_disabled": 0, "fusion_lat": 0.0, "lat": 38.9236315, "type": "electric_scooter", "lon": -77.0513155, "is_reserved": 0, "fusion_lon": 0.0, "bike_id": "311c37ee3f32db16ad536edf858ad6c1", "name": "311c37ee3f32db16ad536edf858ad6c1", "rental_uris": {"ios": "https://dc.lft.to/lastmile_qr_scan", "android": "https://dc.lft.to/lastmile_qr_scan"}}, {"is_disabled": 0, "fusion_lat": 0.0, "lat": 38.89618933333333, "type": "electric_scooter", "lon": -77.04050083333334, "is_reserved": 0, "fusion_lon": 0.0, "bike_id": "aae2d0a707ca141b50bf3e8d0057adef", "name": "aae2d0a707ca141b50bf3e8d0057adef", "rental_uris": {"ios": "https://dc.lft.to/lastmile_qr_scan", "android": "https://dc.lft.to/lastmile_qr_scan"}}, {"is_disabled": 0, "fusion_lat": 0.0, "lat": 38.9157455, "type": "electric_scooter", "lon": -77.04500933333334, "is_reserved": 0, "fusion_lon": 0.0, "bike_id": "70e301685a372efd2a5f3dc7578f1a08", "name": "70e301685a372efd2a5f3dc7578f1a08", "rental_uris": {"ios": "https://dc.lft.to/lastmile_qr_scan", "android": "https://dc.lft.to/lastmile_qr_scan"}}, {"is_disabled": 0, "fusion_lat": 0.0, "lat": 38.89555583333333, "type": "electric_scooter", "lon": -76.93040333333333, "is_reserved": 0, "fusion_lon": 0.0, "bike_id": "432baa11166ade81b103b50de172b5c2", "name": "432baa11166ade81b103b50de172b5c2", "rental_uris": {"ios": "https://dc.lft.to/lastmile_qr_scan", "android": "https://dc.lft.to/lastmile_qr_scan"}}, {"is_disabled": 0, "fusion_lat": 0.0, "lat": 39.058125833333335, "type": "electric_bike", "lon": -77.1262715, "is_reserved": 0, "fusion_lon": 0.0, "bike_id": "a26323bad749d3ea2d810db4985fc8bd", "name": "a26323bad749d3ea2d810db4985fc8bd", "rental_uris": {"ios": "https://dc.lft.to/lastmile_qr_scan", "android": "https://dc.lft.to/lastmile_qr_scan"}}, {"is_disabled": 0, "fusion_lat": 0.0, "lat": 38.95353866666667, "type": "electric_bike", "lon": -76.9809055, "is_reserved": 0, "fusion_lon": 0.0, "bike_id": "078ff7767297c1738841501aee0a55db", "name": "078ff7767297c1738841501aee0a55db", "rental_uris": {"ios": "https://dc.lft.to/lastmile_qr_scan", "android": "https://dc.lft.to/lastmile_qr_scan"}}, {"is_disabled": 0, "fusion_lat": 0.0, "lat": 38.903111, "type": "electric_scooter", "lon": -77.03463266666667, "is_reserved": 0, "fusion_lon": 0.0, "bike_id": "7809f24c4d0ce11bfdbcea71232da2a5", "name": "7809f24c4d0ce11bfdbcea71232da2a5", "rental_uris": {"ios": "https://dc.lft.to/lastmile_qr_scan", "android": "https://dc.lft.to/lastmile_qr_scan"}}, {"is_disabled": 0, "fusion_lat": 0.0, "lat": 38.920447333333335, "type": "electric_scooter", "lon": -77.02424883333333, "is_reserved": 0, "fusion_lon": 0.0, "bike_id": "9ff6117d46d674e9cc81eb498a973557", "name": "9ff6117d46d674e9cc81eb498a973557", "rental_uris": {"ios": "https://dc.lft.to/lastmile_qr_scan", "android": "https://dc.lft.to/lastmile_qr_scan"}}, {"is_disabled": 0, "fusion_lat": 0.0, "lat": 38.84607, "type": "electric_bike", "lon": -76.96906966666667, "is_reserved": 0, "fusion_lon": 0.0, "bike_id": "db66542a6adcc8f5388436b2f40b2d8e", "name": "db66542a6adcc8f5388436b2f40b2d8e", "rental_uris": {"ios": "https://dc.lft.to/lastmile_qr_scan", "android": "https://dc.lft.to/lastmile_qr_scan"}}, {"is_disabled": 0, "fusion_lat": 0.0, "lat": 38.846203333333335, "type": "electric_bike", "lon": -76.97817283333333, "is_reserved": 0, "fusion_lon": 0.0, "bike_id": "ce9eb6d0797ff0c376770363397fb5d6", "name": "ce9eb6d0797ff0c376770363397fb5d6", "rental_uris": {"ios": "https://dc.lft.to/lastmile_qr_scan", "android": "https://dc.lft.to/lastmile_qr_scan"}}, {"is_disabled": 0, "fusion_lat": 0.0, "lat": 38.90357933333333, "type": "electric_scooter", "lon": -77.03859916666667, "is_reserved": 0, "fusion_lon": 0.0, "bike_id": "6a3c6cafdceea914d06bc193eb2ec136", "name": "6a3c6cafdceea914d06bc193eb2ec136", "rental_uris": {"ios": "https://dc.lft.to/lastmile_qr_scan", "android": "https://dc.lft.to/lastmile_qr_scan"}}, {"is_disabled": 0, "fusion_lat": 0.0, "lat": 38.90123883333333, "type": "electric_scooter", "lon": -76.99657116666667, "is_reserved": 0, "fusion_lon": 0.0, "bike_id": "d3b57d5eab5eaea625831d9f3370506d", "name": "d3b57d5eab5eaea625831d9f3370506d", "rental_uris": {"ios": "https://dc.lft.to/lastmile_qr_scan", "android": "https://dc.lft.to/lastmile_qr_scan"}}, {"is_disabled": 0, "fusion_lat": 0.0, "lat": 38.874711, "type": "electric_scooter", "lon": -77.00933583333334, "is_reserved": 0, "fusion_lon": 0.0, "bike_id": "ce09c51311bd8da7fe12c1fe9ce4060d", "name": "ce09c51311bd8da7fe12c1fe9ce4060d", "rental_uris": {"ios": "https://dc.lft.to/lastmile_qr_scan", "android": "https://dc.lft.to/lastmile_qr_scan"}}, {"is_disabled": 0, "fusion_lat": 0.0, "lat": 38.8517995, "type": "electric_scooter", "lon": -76.995819, "is_reserved": 0, "fusion_lon": 0.0, "bike_id": "cc43a73bae7327fe8517f66c6e9ef0ba", "name": "cc43a73bae7327fe8517f66c6e9ef0ba", "rental_uris": {"ios": "https://dc.lft.to/lastmile_qr_scan", "android": "https://dc.lft.to/lastmile_qr_scan"}}, {"is_disabled": 0, "fusion_lat": 0.0, "lat": 38.89827716666667, "type": "electric_scooter", "lon": -77.008953, "is_reserved": 0, "fusion_lon": 0.0, "bike_id": "c13cb6d7a3dcb7e350ae4354139436fe", "name": "c13cb6d7a3dcb7e350ae4354139436fe", "rental_uris": {"ios": "https://dc.lft.to/lastmile_qr_scan", "android": "https://dc.lft.to/lastmile_qr_scan"}}, {"is_disabled": 0, "fusion_lat": 0.0, "lat": 38.928763333333336, "type": "electric_scooter", "lon": -77.03421833333333, "is_reserved": 0, "fusion_lon": 0.0, "bike_id": "40b44871d8e669c7b3b46a745e11e59c", "name": "40b44871d8e669c7b3b46a745e11e59c", "rental_uris": {"ios": "https://dc.lft.to/lastmile_qr_scan", "android": "https://dc.lft.to/lastmile_qr_scan"}}, {"is_disabled": 0, "fusion_lat": 0.0, "lat": 38.905557, "type": "electric_scooter", "lon": -77.03927716666666, "is_reserved": 0, "fusion_lon": 0.0, "bike_id": "0f3a38dc6ac40c215b75af137fb917bc", "name": "0f3a38dc6ac40c215b75af137fb917bc", "rental_uris": {"ios": "https://dc.lft.to/lastmile_qr_scan", "android": "https://dc.lft.to/lastmile_qr_scan"}}, {"is_disabled": 0, "fusion_lat": 0.0, "lat": 38.900931166666666, "type": "electric_scooter", "lon": -77.01956066666666, "is_reserved": 0, "fusion_lon": 0.0, "bike_id": "41a2de6a396aba5913b1f4f6eab718b8", "name": "41a2de6a396aba5913b1f4f6eab718b8", "rental_uris": {"ios": "https://dc.lft.to/lastmile_qr_scan", "android": "https://dc.lft.to/lastmile_qr_scan"}}, {"is_disabled": 0, "fusion_lat": 0.0, "lat": 38.8921735, "type": "electric_scooter", "lon": -77.04516766666667, "is_reserved": 0, "fusion_lon": 0.0, "bike_id": "6733c6009d322df74d5b83650aa26fd6", "name": "6733c6009d322df74d5b83650aa26fd6", "rental_uris": {"ios": "https://dc.lft.to/lastmile_qr_scan", "android": "https://dc.lft.to/lastmile_qr_scan"}}, {"is_disabled": 0, "fusion_lat": 0.0, "lat": 38.905162833333335, "type": "electric_scooter", "lon": -77.04060616666666, "is_reserved": 0, "fusion_lon": 0.0, "bike_id": "2d7cf4a0e90eb2db1f00a9375c615fb4", "name": "2d7cf4a0e90eb2db1f00a9375c615fb4", "rental_uris": {"ios": "https://dc.lft.to/lastmile_qr_scan", "android": "https://dc.lft.to/lastmile_qr_scan"}}, {"is_disabled": 0, "fusion_lat": 0.0, "lat": 38.90343266666667, "type": "electric_scooter", "lon": -77.06230166666667, "is_reserved": 0, "fusion_lon": 0.0, "bike_id": "7eeb6d3df957cd8c351282a5feebfe2e", "name": "7eeb6d3df957cd8c351282a5feebfe2e", "rental_uris": {"ios": "https://dc.lft.to/lastmile_qr_scan", "android": "https://dc.lft.to/lastmile_qr_scan"}}, {"is_disabled": 0, "fusion_lat": 0.0, "lat": 38.90368616666667, "type": "electric_scooter", "lon": -77.0479885, "is_reserved": 0, "fusion_lon": 0.0, "bike_id": "11ab450a2839e41c92e3498b3bf2edb5", "name": "11ab450a2839e41c92e3498b3bf2edb5", "rental_uris": {"ios": "https://dc.lft.to/lastmile_qr_scan", "android": "https://dc.lft.to/lastmile_qr_scan"}}, {"is_disabled": 0, "fusion_lat": 0.0, "lat": 38.901325, "type": "electric_scooter", "lon": -77.0439305, "is_reserved": 0, "fusion_lon": 0.0, "bike_id": "5d9f5a8c49b799258c48b258efe5dde8", "name": "5d9f5a8c49b799258c48b258efe5dde8", "rental_uris": {"ios": "https://dc.lft.to/lastmile_qr_scan", "android": "https://dc.lft.to/lastmile_qr_scan"}}, {"is_disabled": 0, "fusion_lat": 0.0, "lat": 38.87467266666667, "type": "electric_scooter", "lon": -77.0093155, "is_reserved": 0, "fusion_lon": 0.0, "bike_id": "ed8ed8a633ebda95f671a7e86b1a0e6d", "name": "ed8ed8a633ebda95f671a7e86b1a0e6d", "rental_uris": {"ios": "https://dc.lft.to/lastmile_qr_scan", "android": "https://dc.lft.to/lastmile_qr_scan"}}, {"is_disabled": 0, "fusion_lat": 0.0, "lat": 38.92050833333333, "type": "electric_scooter", "lon": -77.03373566666667, "is_reserved": 0, "fusion_lon": 0.0, "bike_id": "2385b0eab50846dfd532373ccc976329", "name": "2385b0eab50846dfd532373ccc976329", "rental_uris": {"ios": "https://dc.lft.to/lastmile_qr_scan", "android": "https://dc.lft.to/lastmile_qr_scan"}}, {"is_disabled": 0, "fusion_lat": 0.0, "lat": 38.9305695, "type": "electric_scooter", "lon": -77.04181733333333, "is_reserved": 0, "fusion_lon": 0.0, "bike_id": "cc37408724599723f437bba54798c329", "name": "cc37408724599723f437bba54798c329", "rental_uris": {"ios": "https://dc.lft.to/lastmile_qr_scan", "android": "https://dc.lft.to/lastmile_qr_scan"}}, {"is_disabled": 0, "fusion_lat": 0.0, "lat": 38.92044166666667, "type": "electric_scooter", "lon": -77.04179166666667, "is_reserved": 0, "fusion_lon": 0.0, "bike_id": "a17721d8533530776243c54c8f1896d1", "name": "a17721d8533530776243c54c8f1896d1", "rental_uris": {"ios": "https://dc.lft.to/lastmile_qr_scan", "android": "https://dc.lft.to/lastmile_qr_scan"}}, {"is_disabled": 0, "fusion_lat": 0.0, "lat": 38.91721916666667, "type": "electric_scooter", "lon": -77.038395, "is_reserved": 0, "fusion_lon": 0.0, "bike_id": "2c3eefd254602dd1bf75928d17b9012c", "name": "2c3eefd254602dd1bf75928d17b9012c", "rental_uris": {"ios": "https://dc.lft.to/lastmile_qr_scan", "android": "https://dc.lft.to/lastmile_qr_scan"}}, {"is_disabled": 0, "fusion_lat": 0.0, "lat": 38.899123333333335, "type": "electric_scooter", "lon": -76.93348333333333, "is_reserved": 0, "fusion_lon": 0.0, "bike_id": "d3b6cfcf4fc8e2952a259040e911f075", "name": "d3b6cfcf4fc8e2952a259040e911f075", "rental_uris": {"ios": "https://dc.lft.to/lastmile_qr_scan", "android": "https://dc.lft.to/lastmile_qr_scan"}}, {"is_disabled": 0, "fusion_lat": 0.0, "lat": 38.90698316666667, "type": "electric_scooter", "lon": -77.02181166666666, "is_reserved": 0, "fusion_lon": 0.0, "bike_id": "e18ca1e2404e06343239581ef2d9a324", "name": "e18ca1e2404e06343239581ef2d9a324", "rental_uris": {"ios": "https://dc.lft.to/lastmile_qr_scan", "android": "https://dc.lft.to/lastmile_qr_scan"}}, {"is_disabled": 0, "fusion_lat": 0.0, "lat": 38.90487016666667, "type": "electric_scooter", "lon": -77.043448, "is_reserved": 0, "fusion_lon": 0.0, "bike_id": "138e825410e5abf071e5c0752e3cc87c", "name": "138e825410e5abf071e5c0752e3cc87c", "rental_uris": {"ios": "https://dc.lft.to/lastmile_qr_scan", "android": "https://dc.lft.to/lastmile_qr_scan"}}, {"is_disabled": 0, "fusion_lat": 0.0, "lat": 38.890474166666664, "type": "electric_scooter", "lon": -76.937546, "is_reserved": 0, "fusion_lon": 0.0, "bike_id": "4d26e306fa2b35a7470cc9d65daefc3a", "name": "4d26e306fa2b35a7470cc9d65daefc3a", "rental_uris": {"ios": "https://dc.lft.to/lastmile_qr_scan", "android": "https://dc.lft.to/lastmile_qr_scan"}}, {"is_disabled": 0, "fusion_lat": 0.0, "lat": 38.898336666666665, "type": "electric_scooter", "lon": -76.94637766666666, "is_reserved": 0, "fusion_lon": 0.0, "bike_id": "2fc66ede88e6fa2415ef51451b015474", "name": "2fc66ede88e6fa2415ef51451b015474", "rental_uris": {"ios": "https://dc.lft.to/lastmile_qr_scan", "android": "https://dc.lft.to/lastmile_qr_scan"}}, {"is_disabled": 0, "fusion_lat": 0.0, "lat": 38.930412, "type": "electric_scooter", "lon": -77.032203, "is_reserved": 0, "fusion_lon": 0.0, "bike_id": "a133bf8f373c837fdf79cb021e9c6759", "name": "a133bf8f373c837fdf79cb021e9c6759", "rental_uris": {"ios": "https://dc.lft.to/lastmile_qr_scan", "android": "https://dc.lft.to/lastmile_qr_scan"}}, {"is_disabled": 0, "fusion_lat": 0.0, "lat": 38.923187666666664, "type": "electric_scooter", "lon": -77.03898733333334, "is_reserved": 0, "fusion_lon": 0.0, "bike_id": "6cdbbee21ddebe066f12959a8ff4ef3b", "name": "6cdbbee21ddebe066f12959a8ff4ef3b", "rental_uris": {"ios": "https://dc.lft.to/lastmile_qr_scan", "android": "https://dc.lft.to/lastmile_qr_scan"}}, {"is_disabled": 0, "fusion_lat": 0.0, "lat": 38.936286333333335, "type": "electric_scooter", "lon": -77.0587855, "is_reserved": 0, "fusion_lon": 0.0, "bike_id": "a362625cce9bacfdb942c3d2f6fc61b0", "name": "a362625cce9bacfdb942c3d2f6fc61b0", "rental_uris": {"ios": "https://dc.lft.to/lastmile_qr_scan", "android": "https://dc.lft.to/lastmile_qr_scan"}}, {"is_disabled": 0, "fusion_lat": 0.0, "lat": 38.85811183333333, "type": "electric_scooter", "lon": -76.98655083333334, "is_reserved": 0, "fusion_lon": 0.0, "bike_id": "ca2411e5865410fafae50307a7302c04", "name": "ca2411e5865410fafae50307a7302c04", "rental_uris": {"ios": "https://dc.lft.to/lastmile_qr_scan", "android": "https://dc.lft.to/lastmile_qr_scan"}}, {"is_disabled": 0, "fusion_lat": 0.0, "lat": 38.901349333333336, "type": "electric_scooter", "lon": -77.0403625, "is_reserved": 0, "fusion_lon": 0.0, "bike_id": "4ecc79dc291fe95ad7064e497a7f685a", "name": "4ecc79dc291fe95ad7064e497a7f685a", "rental_uris": {"ios": "https://dc.lft.to/lastmile_qr_scan", "android": "https://dc.lft.to/lastmile_qr_scan"}}, {"is_disabled": 0, "fusion_lat": 0.0, "lat": 38.90868866666667, "type": "electric_scooter", "lon": -77.08595883333334, "is_reserved": 0, "fusion_lon": 0.0, "bike_id": "bdeb9f5d8a2d238bcc59c6bf986bf851", "name": "bdeb9f5d8a2d238bcc59c6bf986bf851", "rental_uris": {"ios": "https://dc.lft.to/lastmile_qr_scan", "android": "https://dc.lft.to/lastmile_qr_scan"}}, {"is_disabled": 0, "fusion_lat": 0.0, "lat": 38.84863683333333, "type": "electric_bike", "lon": -77.20043933333334, "is_reserved": 0, "fusion_lon": 0.0, "bike_id": "4923417273e614e8da7e31e7bfe78225", "name": "4923417273e614e8da7e31e7bfe78225", "rental_uris": {"ios": "https://dc.lft.to/lastmile_qr_scan", "android": "https://dc.lft.to/lastmile_qr_scan"}}, {"is_disabled": 0, "fusion_lat": 0.0, "lat": 38.96494766666667, "type": "electric_bike", "lon": -77.08757283333334, "is_reserved": 0, "fusion_lon": 0.0, "bike_id": "3e1a66bd306fe57bdab77c50457c6d21", "name": "3e1a66bd306fe57bdab77c50457c6d21", "rental_uris": {"ios": "https://dc.lft.to/lastmile_qr_scan", "android": "https://dc.lft.to/lastmile_qr_scan"}}, {"is_disabled": 0, "fusion_lat": 0.0, "lat": 38.900960833333336, "type": "electric_scooter", "lon": -77.04758933333333, "is_reserved": 0, "fusion_lon": 0.0, "bike_id": "98f1474ffd162884e35a38a2fc223813", "name": "98f1474ffd162884e35a38a2fc223813", "rental_uris": {"ios": "https://dc.lft.to/lastmile_qr_scan", "android": "https://dc.lft.to/lastmile_qr_scan"}}, {"is_disabled": 0, "fusion_lat": 0.0, "lat": 38.82782183333333, "type": "electric_bike", "lon": -77.00916133333334, "is_reserved": 0, "fusion_lon": 0.0, "bike_id": "dca81d8d214e939cff29d0491ad7176c", "name": "dca81d8d214e939cff29d0491ad7176c", "rental_uris": {"ios": "https://dc.lft.to/lastmile_qr_scan", "android": "https://dc.lft.to/lastmile_qr_scan"}}, {"is_disabled": 0, "fusion_lat": 0.0, "lat": 38.900412833333334, "type": "electric_scooter", "lon": -77.0073445, "is_reserved": 0, "fusion_lon": 0.0, "bike_id": "56a2eeefdc708ae62925fdead9da5e05", "name": "56a2eeefdc708ae62925fdead9da5e05", "rental_uris": {"ios": "https://dc.lft.to/lastmile_qr_scan", "android": "https://dc.lft.to/lastmile_qr_scan"}}, {"is_disabled": 0, "fusion_lat": 0.0, "lat": 38.892286666666664, "type": "electric_scooter", "lon": -77.046462, "is_reserved": 0, "fusion_lon": 0.0, "bike_id": "97259ed89c35f48e43fe2d749c8ca032", "name": "97259ed89c35f48e43fe2d749c8ca032", "rental_uris": {"ios": "https://dc.lft.to/lastmile_qr_scan", "android": "https://dc.lft.to/lastmile_qr_scan"}}, {"is_disabled": 0, "fusion_lat": 0.0, "lat": 38.9389105, "type": "electric_scooter", "lon": -77.03324166666667, "is_reserved": 0, "fusion_lon": 0.0, "bike_id": "9f39522b482476875bf059c60b9bfdf0", "name": "9f39522b482476875bf059c60b9bfdf0", "rental_uris": {"ios": "https://dc.lft.to/lastmile_qr_scan", "android": "https://dc.lft.to/lastmile_qr_scan"}}, {"is_disabled": 0, "fusion_lat": 0.0, "lat": 38.921117833333334, "type": "electric_scooter", "lon": -77.0422265, "is_reserved": 0, "fusion_lon": 0.0, "bike_id": "dc67c28f3fa1501bb15b9ab00936925a", "name": "dc67c28f3fa1501bb15b9ab00936925a", "rental_uris": {"ios": "https://dc.lft.to/lastmile_qr_scan", "android": "https://dc.lft.to/lastmile_qr_scan"}}, {"is_disabled": 0, "fusion_lat": 0.0, "lat": 38.88270166666667, "type": "electric_scooter", "lon": -76.9958, "is_reserved": 0, "fusion_lon": 0.0, "bike_id": "168c0e1635bcb52b4161f846853ed608", "name": "168c0e1635bcb52b4161f846853ed608", "rental_uris": {"ios": "https://dc.lft.to/lastmile_qr_scan", "android": "https://dc.lft.to/lastmile_qr_scan"}}, {"is_disabled": 0, "fusion_lat": 0.0, "lat": 38.911045666666666, "type": "electric_scooter", "lon": -77.04837766666667, "is_reserved": 0, "fusion_lon": 0.0, "bike_id": "c78c9952088652cf40fabbb65b24b68b", "name": "c78c9952088652cf40fabbb65b24b68b", "rental_uris": {"ios": "https://dc.lft.to/lastmile_qr_scan", "android": "https://dc.lft.to/lastmile_qr_scan"}}, {"is_disabled": 0, "fusion_lat": 0.0, "lat": 38.98427683333333, "type": "electric_scooter", "lon": -77.02672816666667, "is_reserved": 0, "fusion_lon": 0.0, "bike_id": "19c988041a955894597c9f96c64ddd4e", "name": "19c988041a955894597c9f96c64ddd4e", "rental_uris": {"ios": "https://dc.lft.to/lastmile_qr_scan", "android": "https://dc.lft.to/lastmile_qr_scan"}}, {"is_disabled": 0, "fusion_lat": 0.0, "lat": 38.887944, "type": "electric_scooter", "lon": -76.93359816666667, "is_reserved": 0, "fusion_lon": 0.0, "bike_id": "7c9a6564641f27649307981bca3dfd9c", "name": "7c9a6564641f27649307981bca3dfd9c", "rental_uris": {"ios": "https://dc.lft.to/lastmile_qr_scan", "android": "https://dc.lft.to/lastmile_qr_scan"}}, {"is_disabled": 0, "fusion_lat": 0.0, "lat": 38.804433, "type": "electric_bike", "lon": -77.04234916666667, "is_reserved": 0, "fusion_lon": 0.0, "bike_id": "84563be1cf5c315f1529704c21d55835", "name": "84563be1cf5c315f1529704c21d55835", "rental_uris": {"ios": "https://dc.lft.to/lastmile_qr_scan", "android": "https://dc.lft.to/lastmile_qr_scan"}}, {"is_disabled": 0, "fusion_lat": 0.0, "lat": 38.966038166666664, "type": "electric_scooter", "lon": -77.023227, "is_reserved": 0, "fusion_lon": 0.0, "bike_id": "d4775c4532acb8284983e53bd5fc4454", "name": "d4775c4532acb8284983e53bd5fc4454", "rental_uris": {"ios": "https://dc.lft.to/lastmile_qr_scan", "android": "https://dc.lft.to/lastmile_qr_scan"}}, {"is_disabled": 0, "fusion_lat": 0.0, "lat": 38.861033666666664, "type": "electric_scooter", "lon": -76.983645, "is_reserved": 0, "fusion_lon": 0.0, "bike_id": "e913773e97e2902f2cbee114a5e8c8b4", "name": "e913773e97e2902f2cbee114a5e8c8b4", "rental_uris": {"ios": "https://dc.lft.to/lastmile_qr_scan", "android": "https://dc.lft.to/lastmile_qr_scan"}}, {"is_disabled": 0, "fusion_lat": 0.0, "lat": 38.923395666666664, "type": "electric_scooter", "lon": -77.01902266666667, "is_reserved": 0, "fusion_lon": 0.0, "bike_id": "6da7052dcfa642a15a21dc618d3a4a83", "name": "6da7052dcfa642a15a21dc618d3a4a83", "rental_uris": {"ios": "https://dc.lft.to/lastmile_qr_scan", "android": "https://dc.lft.to/lastmile_qr_scan"}}, {"is_disabled": 0, "fusion_lat": 0.0, "lat": 38.9134075, "type": "electric_scooter", "lon": -77.0021955, "is_reserved": 0, "fusion_lon": 0.0, "bike_id": "39a69f1b1ffd5019a5a7dd66e5834877", "name": "39a69f1b1ffd5019a5a7dd66e5834877", "rental_uris": {"ios": "https://dc.lft.to/lastmile_qr_scan", "android": "https://dc.lft.to/lastmile_qr_scan"}}, {"is_disabled": 0, "fusion_lat": 0.0, "lat": 38.91908166666666, "type": "electric_scooter", "lon": -77.02171116666666, "is_reserved": 0, "fusion_lon": 0.0, "bike_id": "e290132e14c92fca4e1c4e9ec460cd4d", "name": "e290132e14c92fca4e1c4e9ec460cd4d", "rental_uris": {"ios": "https://dc.lft.to/lastmile_qr_scan", "android": "https://dc.lft.to/lastmile_qr_scan"}}, {"is_disabled": 0, "fusion_lat": 0.0, "lat": 38.8768535, "type": "electric_scooter", "lon": -77.01759133333333, "is_reserved": 0, "fusion_lon": 0.0, "bike_id": "76ffe2c66a57a3d5c5472cb667aca250", "name": "76ffe2c66a57a3d5c5472cb667aca250", "rental_uris": {"ios": "https://dc.lft.to/lastmile_qr_scan", "android": "https://dc.lft.to/lastmile_qr_scan"}}, {"is_disabled": 0, "fusion_lat": 0.0, "lat": 38.90762733333333, "type": "electric_scooter", "lon": -77.04349416666666, "is_reserved": 0, "fusion_lon": 0.0, "bike_id": "4f09fde1cd69c0a6ad2c1f5dd467a3f4", "name": "4f09fde1cd69c0a6ad2c1f5dd467a3f4", "rental_uris": {"ios": "https://dc.lft.to/lastmile_qr_scan", "android": "https://dc.lft.to/lastmile_qr_scan"}}, {"is_disabled": 0, "fusion_lat": 0.0, "lat": 38.900057333333336, "type": "electric_scooter", "lon": -76.99839166666666, "is_reserved": 0, "fusion_lon": 0.0, "bike_id": "7f8ab2aabda7e08a3fe9b0c76b8c3053", "name": "7f8ab2aabda7e08a3fe9b0c76b8c3053", "rental_uris": {"ios": "https://dc.lft.to/lastmile_qr_scan", "android": "https://dc.lft.to/lastmile_qr_scan"}}, {"is_disabled": 0, "fusion_lat": 0.0, "lat": 38.883357833333335, "type": "electric_scooter", "lon": -77.03145533333333, "is_reserved": 0, "fusion_lon": 0.0, "bike_id": "484ef2a24e975e89c66e2d9adf7de676", "name": "484ef2a24e975e89c66e2d9adf7de676", "rental_uris": {"ios": "https://dc.lft.to/lastmile_qr_scan", "android": "https://dc.lft.to/lastmile_qr_scan"}}, {"is_disabled": 0, "fusion_lat": 0.0, "lat": 38.908123, "type": "electric_scooter", "lon": -77.04331566666667, "is_reserved": 0, "fusion_lon": 0.0, "bike_id": "63ab6d080fb2d2d13d6f07fe7e99ad27", "name": "63ab6d080fb2d2d13d6f07fe7e99ad27", "rental_uris": {"ios": "https://dc.lft.to/lastmile_qr_scan", "android": "https://dc.lft.to/lastmile_qr_scan"}}, {"is_disabled": 0, "fusion_lat": 0.0, "lat": 38.9666745, "type": "electric_scooter", "lon": -77.02411166666667, "is_reserved": 0, "fusion_lon": 0.0, "bike_id": "329939198fd1d022ad2328e5f4af6db4", "name": "329939198fd1d022ad2328e5f4af6db4", "rental_uris": {"ios": "https://dc.lft.to/lastmile_qr_scan", "android": "https://dc.lft.to/lastmile_qr_scan"}}, {"is_disabled": 0, "fusion_lat": 0.0, "lat": 38.89894483333333, "type": "electric_scooter", "lon": -77.04087383333334, "is_reserved": 0, "fusion_lon": 0.0, "bike_id": "daa35114c423b299dc9831630ca30695", "name": "daa35114c423b299dc9831630ca30695", "rental_uris": {"ios": "https://dc.lft.to/lastmile_qr_scan", "android": "https://dc.lft.to/lastmile_qr_scan"}}, {"is_disabled": 0, "fusion_lat": 0.0, "lat": 38.9101405, "type": "electric_scooter", "lon": -76.993914, "is_reserved": 0, "fusion_lon": 0.0, "bike_id": "bbd935eda8c445bb20313eefd522f6e8", "name": "bbd935eda8c445bb20313eefd522f6e8", "rental_uris": {"ios": "https://dc.lft.to/lastmile_qr_scan", "android": "https://dc.lft.to/lastmile_qr_scan"}}, {"is_disabled": 0, "fusion_lat": 0.0, "lat": 38.909386, "type": "electric_scooter", "lon": -77.0465615, "is_reserved": 0, "fusion_lon": 0.0, "bike_id": "c61b4791dba650da65249287466e9797", "name": "c61b4791dba650da65249287466e9797", "rental_uris": {"ios": "https://dc.lft.to/lastmile_qr_scan", "android": "https://dc.lft.to/lastmile_qr_scan"}}, {"is_disabled": 0, "fusion_lat": 0.0, "lat": 38.86661633333333, "type": "electric_scooter", "lon": -76.989003, "is_reserved": 0, "fusion_lon": 0.0, "bike_id": "5f0c749950b531d9a704f13a913697bc", "name": "5f0c749950b531d9a704f13a913697bc", "rental_uris": {"ios": "https://dc.lft.to/lastmile_qr_scan", "android": "https://dc.lft.to/lastmile_qr_scan"}}, {"is_disabled": 0, "fusion_lat": 0.0, "lat": 38.9141355, "type": "electric_scooter", "lon": -77.02567666666667, "is_reserved": 0, "fusion_lon": 0.0, "bike_id": "cc3e7b507dc4f481c034dca7c0fd3f97", "name": "cc3e7b507dc4f481c034dca7c0fd3f97", "rental_uris": {"ios": "https://dc.lft.to/lastmile_qr_scan", "android": "https://dc.lft.to/lastmile_qr_scan"}}, {"is_disabled": 0, "fusion_lat": 0.0, "lat": 38.916316333333334, "type": "electric_scooter", "lon": -77.01371483333334, "is_reserved": 0, "fusion_lon": 0.0, "bike_id": "54994f759c68243b67b813d938c9d6d6", "name": "54994f759c68243b67b813d938c9d6d6", "rental_uris": {"ios": "https://dc.lft.to/lastmile_qr_scan", "android": "https://dc.lft.to/lastmile_qr_scan"}}, {"is_disabled": 0, "fusion_lat": 0.0, "lat": 38.945945333333334, "type": "electric_scooter", "lon": -77.02981033333333, "is_reserved": 0, "fusion_lon": 0.0, "bike_id": "d7bb58d9ffbf1e5b63a9fe53e552a535", "name": "d7bb58d9ffbf1e5b63a9fe53e552a535", "rental_uris": {"ios": "https://dc.lft.to/lastmile_qr_scan", "android": "https://dc.lft.to/lastmile_qr_scan"}}, {"is_disabled": 0, "fusion_lat": 0.0, "lat": 38.889707, "type": "electric_scooter", "lon": -76.93738033333334, "is_reserved": 0, "fusion_lon": 0.0, "bike_id": "7f8ab953373561ac79f054338b514254", "name": "7f8ab953373561ac79f054338b514254", "rental_uris": {"ios": "https://dc.lft.to/lastmile_qr_scan", "android": "https://dc.lft.to/lastmile_qr_scan"}}, {"is_disabled": 0, "fusion_lat": 0.0, "lat": 38.91609966666667, "type": "electric_scooter", "lon": -77.02127666666667, "is_reserved": 0, "fusion_lon": 0.0, "bike_id": "c54d615331f6cb70ef7a9ac437d425f4", "name": "c54d615331f6cb70ef7a9ac437d425f4", "rental_uris": {"ios": "https://dc.lft.to/lastmile_qr_scan", "android": "https://dc.lft.to/lastmile_qr_scan"}}, {"is_disabled": 0, "fusion_lat": 0.0, "lat": 38.924694833333334, "type": "electric_scooter", "lon": -77.035421, "is_reserved": 0, "fusion_lon": 0.0, "bike_id": "d3e56c2894cd97bc592497f5ad58c54b", "name": "d3e56c2894cd97bc592497f5ad58c54b", "rental_uris": {"ios": "https://dc.lft.to/lastmile_qr_scan", "android": "https://dc.lft.to/lastmile_qr_scan"}}, {"is_disabled": 0, "fusion_lat": 0.0, "lat": 38.87459666666667, "type": "electric_scooter", "lon": -77.004931, "is_reserved": 0, "fusion_lon": 0.0, "bike_id": "5f820d96f7fe45d8665d088f80ff368a", "name": "5f820d96f7fe45d8665d088f80ff368a", "rental_uris": {"ios": "https://dc.lft.to/lastmile_qr_scan", "android": "https://dc.lft.to/lastmile_qr_scan"}}, {"is_disabled": 0, "fusion_lat": 0.0, "lat": 38.88435716666667, "type": "electric_scooter", "lon": -76.957566, "is_reserved": 0, "fusion_lon": 0.0, "bike_id": "3351de2c2e711b0383dd5d224c0a0701", "name": "3351de2c2e711b0383dd5d224c0a0701", "rental_uris": {"ios": "https://dc.lft.to/lastmile_qr_scan", "android": "https://dc.lft.to/lastmile_qr_scan"}}, {"is_disabled": 0, "fusion_lat": 0.0, "lat": 38.89629166666667, "type": "electric_scooter", "lon": -77.039576, "is_reserved": 0, "fusion_lon": 0.0, "bike_id": "910735269c72cb6baca5e549e243786d", "name": "910735269c72cb6baca5e549e243786d", "rental_uris": {"ios": "https://dc.lft.to/lastmile_qr_scan", "android": "https://dc.lft.to/lastmile_qr_scan"}}, {"is_disabled": 0, "fusion_lat": 0.0, "lat": 38.904599, "type": "electric_scooter", "lon": -77.04016766666666, "is_reserved": 0, "fusion_lon": 0.0, "bike_id": "2bdfd4995699f7d2bc81091be011007d", "name": "2bdfd4995699f7d2bc81091be011007d", "rental_uris": {"ios": "https://dc.lft.to/lastmile_qr_scan", "android": "https://dc.lft.to/lastmile_qr_scan"}}, {"is_disabled": 0, "fusion_lat": 0.0, "lat": 38.964911, "type": "electric_bike", "lon": -77.06488833333333, "is_reserved": 0, "fusion_lon": 0.0, "bike_id": "e9ed9914379a5b409d7eb3784baa4363", "name": "e9ed9914379a5b409d7eb3784baa4363", "rental_uris": {"ios": "https://dc.lft.to/lastmile_qr_scan", "android": "https://dc.lft.to/lastmile_qr_scan"}}, {"is_disabled": 0, "fusion_lat": 0.0, "lat": 38.93321383333333, "type": "electric_scooter", "lon": -77.0239495, "is_reserved": 0, "fusion_lon": 0.0, "bike_id": "588c465b42d09d119d64fbe4ae01a2a1", "name": "588c465b42d09d119d64fbe4ae01a2a1", "rental_uris": {"ios": "https://dc.lft.to/lastmile_qr_scan", "android": "https://dc.lft.to/lastmile_qr_scan"}}, {"is_disabled": 0, "fusion_lat": 0.0, "lat": 38.92414516666667, "type": "electric_scooter", "lon": -77.05063, "is_reserved": 0, "fusion_lon": 0.0, "bike_id": "dd1ad23cf637bd183c1d6507da19528d", "name": "dd1ad23cf637bd183c1d6507da19528d", "rental_uris": {"ios": "https://dc.lft.to/lastmile_qr_scan", "android": "https://dc.lft.to/lastmile_qr_scan"}}, {"is_disabled": 0, "fusion_lat": 0.0, "lat": 38.89832966666667, "type": "electric_scooter", "lon": -76.94634433333333, "is_reserved": 0, "fusion_lon": 0.0, "bike_id": "20e8b19a9679bca1774b634f94567a4e", "name": "20e8b19a9679bca1774b634f94567a4e", "rental_uris": {"ios": "https://dc.lft.to/lastmile_qr_scan", "android": "https://dc.lft.to/lastmile_qr_scan"}}, {"is_disabled": 0, "fusion_lat": 0.0, "lat": 38.91470133333333, "type": "electric_scooter", "lon": -77.023981, "is_reserved": 0, "fusion_lon": 0.0, "bike_id": "a6b41a094dc1eda3070e05243470af75", "name": "a6b41a094dc1eda3070e05243470af75", "rental_uris": {"ios": "https://dc.lft.to/lastmile_qr_scan", "android": "https://dc.lft.to/lastmile_qr_scan"}}, {"is_disabled": 0, "fusion_lat": 0.0, "lat": 38.9104215, "type": "electric_scooter", "lon": -77.01001916666667, "is_reserved": 0, "fusion_lon": 0.0, "bike_id": "ac143b2292927c5b213fc463510c515f", "name": "ac143b2292927c5b213fc463510c515f", "rental_uris": {"ios": "https://dc.lft.to/lastmile_qr_scan", "android": "https://dc.lft.to/lastmile_qr_scan"}}, {"is_disabled": 0, "fusion_lat": 0.0, "lat": 38.85794283333333, "type": "electric_scooter", "lon": -76.98650966666666, "is_reserved": 0, "fusion_lon": 0.0, "bike_id": "1927d2a3da9884a658c4a9f938c21eb4", "name": "1927d2a3da9884a658c4a9f938c21eb4", "rental_uris": {"ios": "https://dc.lft.to/lastmile_qr_scan", "android": "https://dc.lft.to/lastmile_qr_scan"}}, {"is_disabled": 0, "fusion_lat": 0.0, "lat": 38.878886333333334, "type": "electric_scooter", "lon": -77.00588433333333, "is_reserved": 0, "fusion_lon": 0.0, "bike_id": "e100be493a72b866212f3f490e4d0e88", "name": "e100be493a72b866212f3f490e4d0e88", "rental_uris": {"ios": "https://dc.lft.to/lastmile_qr_scan", "android": "https://dc.lft.to/lastmile_qr_scan"}}, {"is_disabled": 0, "fusion_lat": 0.0, "lat": 38.93239666666667, "type": "electric_scooter", "lon": -77.0327585, "is_reserved": 0, "fusion_lon": 0.0, "bike_id": "a0157ab441b6f2101e9c1409b85d112c", "name": "a0157ab441b6f2101e9c1409b85d112c", "rental_uris": {"ios": "https://dc.lft.to/lastmile_qr_scan", "android": "https://dc.lft.to/lastmile_qr_scan"}}, {"is_disabled": 0, "fusion_lat": 0.0, "lat": 38.884923, "type": "electric_scooter", "lon": -77.007104, "is_reserved": 0, "fusion_lon": 0.0, "bike_id": "6a689dcd81dd3414df4a3106c209c1ec", "name": "6a689dcd81dd3414df4a3106c209c1ec", "rental_uris": {"ios": "https://dc.lft.to/lastmile_qr_scan", "android": "https://dc.lft.to/lastmile_qr_scan"}}, {"is_disabled": 0, "fusion_lat": 0.0, "lat": 38.80619266666667, "type": "electric_bike", "lon": -77.0634735, "is_reserved": 0, "fusion_lon": 0.0, "bike_id": "dc77115193bfe17455e7d6334b85f022", "name": "dc77115193bfe17455e7d6334b85f022", "rental_uris": {"ios": "https://dc.lft.to/lastmile_qr_scan", "android": "https://dc.lft.to/lastmile_qr_scan"}}, {"is_disabled": 0, "fusion_lat": 0.0, "lat": 38.89736416666667, "type": "electric_scooter", "lon": -77.04677316666667, "is_reserved": 0, "fusion_lon": 0.0, "bike_id": "3206fb717767e45c0cbd5131fc5bbf88", "name": "3206fb717767e45c0cbd5131fc5bbf88", "rental_uris": {"ios": "https://dc.lft.to/lastmile_qr_scan", "android": "https://dc.lft.to/lastmile_qr_scan"}}, {"is_disabled": 0, "fusion_lat": 0.0, "lat": 38.921038333333335, "type": "electric_scooter", "lon": -77.02543533333333, "is_reserved": 0, "fusion_lon": 0.0, "bike_id": "e8d68da2ebdcdfe5125979e8ad2e1384", "name": "e8d68da2ebdcdfe5125979e8ad2e1384", "rental_uris": {"ios": "https://dc.lft.to/lastmile_qr_scan", "android": "https://dc.lft.to/lastmile_qr_scan"}}, {"is_disabled": 0, "fusion_lat": 0.0, "lat": 38.908046666666664, "type": "electric_scooter", "lon": -77.03668516666667, "is_reserved": 0, "fusion_lon": 0.0, "bike_id": "88bfb94cb3859dedbf1c32cc6cfbad10", "name": "88bfb94cb3859dedbf1c32cc6cfbad10", "rental_uris": {"ios": "https://dc.lft.to/lastmile_qr_scan", "android": "https://dc.lft.to/lastmile_qr_scan"}}, {"is_disabled": 0, "fusion_lat": 0.0, "lat": 38.91690783333333, "type": "electric_scooter", "lon": -77.03625816666667, "is_reserved": 0, "fusion_lon": 0.0, "bike_id": "a4f42ea11544300bf8fa759ff93cddc5", "name": "a4f42ea11544300bf8fa759ff93cddc5", "rental_uris": {"ios": "https://dc.lft.to/lastmile_qr_scan", "android": "https://dc.lft.to/lastmile_qr_scan"}}, {"is_disabled": 0, "fusion_lat": 0.0, "lat": 38.985034, "type": "electric_bike", "lon": -76.98207016666667, "is_reserved": 0, "fusion_lon": 0.0, "bike_id": "fd53bf9b8969cb23cb311156a17e9f78", "name": "fd53bf9b8969cb23cb311156a17e9f78", "rental_uris": {"ios": "https://dc.lft.to/lastmile_qr_scan", "android": "https://dc.lft.to/lastmile_qr_scan"}}, {"is_disabled": 0, "fusion_lat": 0.0, "lat": 38.941668166666666, "type": "electric_scooter", "lon": -77.02534133333333, "is_reserved": 0, "fusion_lon": 0.0, "bike_id": "6eb9d083ac37033047da370e513d2b8c", "name": "6eb9d083ac37033047da370e513d2b8c", "rental_uris": {"ios": "https://dc.lft.to/lastmile_qr_scan", "android": "https://dc.lft.to/lastmile_qr_scan"}}, {"is_disabled": 0, "fusion_lat": 0.0, "lat": 38.91699033333333, "type": "electric_scooter", "lon": -77.0332885, "is_reserved": 0, "fusion_lon": 0.0, "bike_id": "f6054a81f2db3fda78ecd35c72264c25", "name": "f6054a81f2db3fda78ecd35c72264c25", "rental_uris": {"ios": "https://dc.lft.to/lastmile_qr_scan", "android": "https://dc.lft.to/lastmile_qr_scan"}}, {"is_disabled": 0, "fusion_lat": 0.0, "lat": 38.881846, "type": "electric_scooter", "lon": -77.0208745, "is_reserved": 0, "fusion_lon": 0.0, "bike_id": "123ea01d30439cd9c16ca0cc9625598d", "name": "123ea01d30439cd9c16ca0cc9625598d", "rental_uris": {"ios": "https://dc.lft.to/lastmile_qr_scan", "android": "https://dc.lft.to/lastmile_qr_scan"}}, {"is_disabled": 0, "fusion_lat": 0.0, "lat": 38.895664833333335, "type": "electric_scooter", "lon": -77.02170833333334, "is_reserved": 0, "fusion_lon": 0.0, "bike_id": "e6223427609baa6a1766fc476e8d1a58", "name": "e6223427609baa6a1766fc476e8d1a58", "rental_uris": {"ios": "https://dc.lft.to/lastmile_qr_scan", "android": "https://dc.lft.to/lastmile_qr_scan"}}, {"is_disabled": 0, "fusion_lat": 0.0, "lat": 38.869844666666665, "type": "electric_bike", "lon": -76.95985466666667, "is_reserved": 0, "fusion_lon": 0.0, "bike_id": "8f7f29819d81fe2a15673fa590cbf8d4", "name": "8f7f29819d81fe2a15673fa590cbf8d4", "rental_uris": {"ios": "https://dc.lft.to/lastmile_qr_scan", "android": "https://dc.lft.to/lastmile_qr_scan"}}, {"is_disabled": 0, "fusion_lat": 0.0, "lat": 38.89218983333333, "type": "electric_scooter", "lon": -77.0262735, "is_reserved": 0, "fusion_lon": 0.0, "bike_id": "04b4555bd61c87cc3116c2d737e88f24", "name": "04b4555bd61c87cc3116c2d737e88f24", "rental_uris": {"ios": "https://dc.lft.to/lastmile_qr_scan", "android": "https://dc.lft.to/lastmile_qr_scan"}}, {"is_disabled": 0, "fusion_lat": 0.0, "lat": 38.8980415, "type": "electric_scooter", "lon": -77.03154766666667, "is_reserved": 0, "fusion_lon": 0.0, "bike_id": "88c3de35a113f2bf4266c4c513b01265", "name": "88c3de35a113f2bf4266c4c513b01265", "rental_uris": {"ios": "https://dc.lft.to/lastmile_qr_scan", "android": "https://dc.lft.to/lastmile_qr_scan"}}, {"is_disabled": 0, "fusion_lat": 0.0, "lat": 38.9300865, "type": "electric_scooter", "lon": -77.02090866666667, "is_reserved": 0, "fusion_lon": 0.0, "bike_id": "51a513b9858db088941bd35fbfe7df0f", "name": "51a513b9858db088941bd35fbfe7df0f", "rental_uris": {"ios": "https://dc.lft.to/lastmile_qr_scan", "android": "https://dc.lft.to/lastmile_qr_scan"}}, {"is_disabled": 0, "fusion_lat": 0.0, "lat": 38.973256, "type": "electric_bike", "lon": -77.02146916666666, "is_reserved": 0, "fusion_lon": 0.0, "bike_id": "ebf9ba649e5339ba4e3510fcc93b16be", "name": "ebf9ba649e5339ba4e3510fcc93b16be", "rental_uris": {"ios": "https://dc.lft.to/lastmile_qr_scan", "android": "https://dc.lft.to/lastmile_qr_scan"}}, {"is_disabled": 0, "fusion_lat": 0.0, "lat": 38.90973316666667, "type": "electric_scooter", "lon": -77.034389, "is_reserved": 0, "fusion_lon": 0.0, "bike_id": "59325cde60f3eb4133de6f656e126284", "name": "59325cde60f3eb4133de6f656e126284", "rental_uris": {"ios": "https://dc.lft.to/lastmile_qr_scan", "android": "https://dc.lft.to/lastmile_qr_scan"}}, {"is_disabled": 0, "fusion_lat": 0.0, "lat": 38.91839783333333, "type": "electric_scooter", "lon": -77.04492883333333, "is_reserved": 0, "fusion_lon": 0.0, "bike_id": "505cab80f56850e3aa91bdc10548df0e", "name": "505cab80f56850e3aa91bdc10548df0e", "rental_uris": {"ios": "https://dc.lft.to/lastmile_qr_scan", "android": "https://dc.lft.to/lastmile_qr_scan"}}, {"is_disabled": 0, "fusion_lat": 0.0, "lat": 38.9167995, "type": "electric_scooter", "lon": -77.0229035, "is_reserved": 0, "fusion_lon": 0.0, "bike_id": "8509f8767ab54102776ef64853b59f40", "name": "8509f8767ab54102776ef64853b59f40", "rental_uris": {"ios": "https://dc.lft.to/lastmile_qr_scan", "android": "https://dc.lft.to/lastmile_qr_scan"}}, {"is_disabled": 0, "fusion_lat": 0.0, "lat": 38.9116455, "type": "electric_scooter", "lon": -77.0685775, "is_reserved": 0, "fusion_lon": 0.0, "bike_id": "5cba555338bf1395475d1aaf0d89fad2", "name": "5cba555338bf1395475d1aaf0d89fad2", "rental_uris": {"ios": "https://dc.lft.to/lastmile_qr_scan", "android": "https://dc.lft.to/lastmile_qr_scan"}}, {"is_disabled": 0, "fusion_lat": 0.0, "lat": 38.9469735, "type": "electric_scooter", "lon": -77.09265, "is_reserved": 0, "fusion_lon": 0.0, "bike_id": "0c448e4755a275789691d2c2a13f181e", "name": "0c448e4755a275789691d2c2a13f181e", "rental_uris": {"ios": "https://dc.lft.to/lastmile_qr_scan", "android": "https://dc.lft.to/lastmile_qr_scan"}}, {"is_disabled": 0, "fusion_lat": 0.0, "lat": 38.866945333333334, "type": "electric_scooter", "lon": -76.98708616666667, "is_reserved": 0, "fusion_lon": 0.0, "bike_id": "4ea82428da4b02694213826f745370da", "name": "4ea82428da4b02694213826f745370da", "rental_uris": {"ios": "https://dc.lft.to/lastmile_qr_scan", "android": "https://dc.lft.to/lastmile_qr_scan"}}, {"is_disabled": 0, "fusion_lat": 0.0, "lat": 38.925056833333336, "type": "electric_scooter", "lon": -77.03881683333333, "is_reserved": 0, "fusion_lon": 0.0, "bike_id": "4caabf3ab580ebde2635f445a9871820", "name": "4caabf3ab580ebde2635f445a9871820", "rental_uris": {"ios": "https://dc.lft.to/lastmile_qr_scan", "android": "https://dc.lft.to/lastmile_qr_scan"}}, {"is_disabled": 0, "fusion_lat": 0.0, "lat": 38.89833466666666, "type": "electric_scooter", "lon": -76.94635516666666, "is_reserved": 0, "fusion_lon": 0.0, "bike_id": "8e659096a1bec68f544c07df916dece8", "name": "8e659096a1bec68f544c07df916dece8", "rental_uris": {"ios": "https://dc.lft.to/lastmile_qr_scan", "android": "https://dc.lft.to/lastmile_qr_scan"}}, {"is_disabled": 0, "fusion_lat": 0.0, "lat": 38.9455065, "type": "electric_bike", "lon": -76.89538083333333, "is_reserved": 0, "fusion_lon": 0.0, "bike_id": "2246e18b4782f3767b9475f25a29a0df", "name": "2246e18b4782f3767b9475f25a29a0df", "rental_uris": {"ios": "https://dc.lft.to/lastmile_qr_scan", "android": "https://dc.lft.to/lastmile_qr_scan"}}, {"is_disabled": 0, "fusion_lat": 0.0, "lat": 38.916148666666665, "type": "electric_scooter", "lon": -77.03146166666667, "is_reserved": 0, "fusion_lon": 0.0, "bike_id": "c0980174cd5dfdb7aba59ca4be951f85", "name": "c0980174cd5dfdb7aba59ca4be951f85", "rental_uris": {"ios": "https://dc.lft.to/lastmile_qr_scan", "android": "https://dc.lft.to/lastmile_qr_scan"}}, {"is_disabled": 0, "fusion_lat": 0.0, "lat": 38.89767533333333, "type": "electric_scooter", "lon": -77.032, "is_reserved": 0, "fusion_lon": 0.0, "bike_id": "b1f69ee4880db21a9004ab7b2314bb15", "name": "b1f69ee4880db21a9004ab7b2314bb15", "rental_uris": {"ios": "https://dc.lft.to/lastmile_qr_scan", "android": "https://dc.lft.to/lastmile_qr_scan"}}, {"is_disabled": 0, "fusion_lat": 0.0, "lat": 38.90729783333333, "type": "electric_scooter", "lon": -77.043552, "is_reserved": 0, "fusion_lon": 0.0, "bike_id": "dff39129b56b4f2b83fb0f196388339e", "name": "dff39129b56b4f2b83fb0f196388339e", "rental_uris": {"ios": "https://dc.lft.to/lastmile_qr_scan", "android": "https://dc.lft.to/lastmile_qr_scan"}}, {"is_disabled": 0, "fusion_lat": 0.0, "lat": 38.9029935, "type": "electric_scooter", "lon": -76.99250216666667, "is_reserved": 0, "fusion_lon": 0.0, "bike_id": "7642aa2dd669a53bb128e8ae2d0a49b8", "name": "7642aa2dd669a53bb128e8ae2d0a49b8", "rental_uris": {"ios": "https://dc.lft.to/lastmile_qr_scan", "android": "https://dc.lft.to/lastmile_qr_scan"}}, {"is_disabled": 0, "fusion_lat": 0.0, "lat": 38.84420333333333, "type": "electric_scooter", "lon": -76.99778683333334, "is_reserved": 0, "fusion_lon": 0.0, "bike_id": "2b51fb0142907fd4b0502bf351042b8b", "name": "2b51fb0142907fd4b0502bf351042b8b", "rental_uris": {"ios": "https://dc.lft.to/lastmile_qr_scan", "android": "https://dc.lft.to/lastmile_qr_scan"}}, {"is_disabled": 0, "fusion_lat": 0.0, "lat": 38.90274, "type": "electric_scooter", "lon": -77.03841366666667, "is_reserved": 0, "fusion_lon": 0.0, "bike_id": "a649a92422c68e3bcb3c5e11edfa7721", "name": "a649a92422c68e3bcb3c5e11edfa7721", "rental_uris": {"ios": "https://dc.lft.to/lastmile_qr_scan", "android": "https://dc.lft.to/lastmile_qr_scan"}}, {"is_disabled": 0, "fusion_lat": 0.0, "lat": 38.925046, "type": "electric_scooter", "lon": -77.03884666666667, "is_reserved": 0, "fusion_lon": 0.0, "bike_id": "78c7a80215ad0cd2de54b3c22276c598", "name": "78c7a80215ad0cd2de54b3c22276c598", "rental_uris": {"ios": "https://dc.lft.to/lastmile_qr_scan", "android": "https://dc.lft.to/lastmile_qr_scan"}}, {"is_disabled": 0, "fusion_lat": 0.0, "lat": 38.9110085, "type": "electric_scooter", "lon": -77.048411, "is_reserved": 0, "fusion_lon": 0.0, "bike_id": "bece29275bd9a3eaba3a74ee453195f7", "name": "bece29275bd9a3eaba3a74ee453195f7", "rental_uris": {"ios": "https://dc.lft.to/lastmile_qr_scan", "android": "https://dc.lft.to/lastmile_qr_scan"}}, {"is_disabled": 0, "fusion_lat": 0.0, "lat": 38.9251235, "type": "electric_scooter", "lon": -77.02155066666667, "is_reserved": 0, "fusion_lon": 0.0, "bike_id": "a7d32e456efc5ef89d1841cc8ad2603d", "name": "a7d32e456efc5ef89d1841cc8ad2603d", "rental_uris": {"ios": "https://dc.lft.to/lastmile_qr_scan", "android": "https://dc.lft.to/lastmile_qr_scan"}}, {"is_disabled": 0, "fusion_lat": 0.0, "lat": 38.9414785, "type": "electric_scooter", "lon": -77.02980266666667, "is_reserved": 0, "fusion_lon": 0.0, "bike_id": "3da167defbee5d36fdc7c11cd3334fec", "name": "3da167defbee5d36fdc7c11cd3334fec", "rental_uris": {"ios": "https://dc.lft.to/lastmile_qr_scan", "android": "https://dc.lft.to/lastmile_qr_scan"}}, {"is_disabled": 0, "fusion_lat": 0.0, "lat": 38.893666333333336, "type": "electric_scooter", "lon": -76.94963933333334, "is_reserved": 0, "fusion_lon": 0.0, "bike_id": "a935d84a9fdf8e67914d32d57375bf6b", "name": "a935d84a9fdf8e67914d32d57375bf6b", "rental_uris": {"ios": "https://dc.lft.to/lastmile_qr_scan", "android": "https://dc.lft.to/lastmile_qr_scan"}}, {"is_disabled": 0, "fusion_lat": 0.0, "lat": 38.89819416666667, "type": "electric_scooter", "lon": -77.03311116666667, "is_reserved": 0, "fusion_lon": 0.0, "bike_id": "d399421a9bad174433222c0742063a41", "name": "d399421a9bad174433222c0742063a41", "rental_uris": {"ios": "https://dc.lft.to/lastmile_qr_scan", "android": "https://dc.lft.to/lastmile_qr_scan"}}, {"is_disabled": 0, "fusion_lat": 0.0, "lat": 38.896213, "type": "electric_scooter", "lon": -76.9985035, "is_reserved": 0, "fusion_lon": 0.0, "bike_id": "4e7b7d3becc0c21fc16360fd6f516f14", "name": "4e7b7d3becc0c21fc16360fd6f516f14", "rental_uris": {"ios": "https://dc.lft.to/lastmile_qr_scan", "android": "https://dc.lft.to/lastmile_qr_scan"}}, {"is_disabled": 0, "fusion_lat": 0.0, "lat": 38.932855833333335, "type": "electric_scooter", "lon": -77.0397235, "is_reserved": 0, "fusion_lon": 0.0, "bike_id": "bfd67769cf7c998ba007e779e1152610", "name": "bfd67769cf7c998ba007e779e1152610", "rental_uris": {"ios": "https://dc.lft.to/lastmile_qr_scan", "android": "https://dc.lft.to/lastmile_qr_scan"}}, {"is_disabled": 0, "fusion_lat": 0.0, "lat": 38.84655433333333, "type": "electric_bike", "lon": -76.979305, "is_reserved": 0, "fusion_lon": 0.0, "bike_id": "3c19650398f498a06162701e7f4dd3f1", "name": "3c19650398f498a06162701e7f4dd3f1", "rental_uris": {"ios": "https://dc.lft.to/lastmile_qr_scan", "android": "https://dc.lft.to/lastmile_qr_scan"}}, {"is_disabled": 0, "fusion_lat": 0.0, "lat": 38.92019333333333, "type": "electric_scooter", "lon": -77.031374, "is_reserved": 0, "fusion_lon": 0.0, "bike_id": "c69f4274d4f8140396fd5d12422b09e9", "name": "c69f4274d4f8140396fd5d12422b09e9", "rental_uris": {"ios": "https://dc.lft.to/lastmile_qr_scan", "android": "https://dc.lft.to/lastmile_qr_scan"}}, {"is_disabled": 0, "fusion_lat": 0.0, "lat": 38.9057705, "type": "electric_scooter", "lon": -77.0307305, "is_reserved": 0, "fusion_lon": 0.0, "bike_id": "cebd2361d9d674664ea1b80d0d7a0c5a", "name": "cebd2361d9d674664ea1b80d0d7a0c5a", "rental_uris": {"ios": "https://dc.lft.to/lastmile_qr_scan", "android": "https://dc.lft.to/lastmile_qr_scan"}}, {"is_disabled": 0, "fusion_lat": 0.0, "lat": 38.89506, "type": "electric_scooter", "lon": -77.0230105, "is_reserved": 0, "fusion_lon": 0.0, "bike_id": "f5cc032f0fb7cc40451cf734256fb459", "name": "f5cc032f0fb7cc40451cf734256fb459", "rental_uris": {"ios": "https://dc.lft.to/lastmile_qr_scan", "android": "https://dc.lft.to/lastmile_qr_scan"}}, {"is_disabled": 0, "fusion_lat": 0.0, "lat": 38.896246833333336, "type": "electric_scooter", "lon": -77.02689883333333, "is_reserved": 0, "fusion_lon": 0.0, "bike_id": "0d946937bba2a07d30980167eea2c2b6", "name": "0d946937bba2a07d30980167eea2c2b6", "rental_uris": {"ios": "https://dc.lft.to/lastmile_qr_scan", "android": "https://dc.lft.to/lastmile_qr_scan"}}, {"is_disabled": 0, "fusion_lat": 0.0, "lat": 38.92848383333333, "type": "electric_scooter", "lon": -77.05444816666666, "is_reserved": 0, "fusion_lon": 0.0, "bike_id": "301022a6e5e7c1b26913f5dbbd28d34f", "name": "301022a6e5e7c1b26913f5dbbd28d34f", "rental_uris": {"ios": "https://dc.lft.to/lastmile_qr_scan", "android": "https://dc.lft.to/lastmile_qr_scan"}}, {"is_disabled": 0, "fusion_lat": 0.0, "lat": 38.932396, "type": "electric_scooter", "lon": -77.0327805, "is_reserved": 0, "fusion_lon": 0.0, "bike_id": "f708f97b490a5b49a6b2df2dbb37068d", "name": "f708f97b490a5b49a6b2df2dbb37068d", "rental_uris": {"ios": "https://dc.lft.to/lastmile_qr_scan", "android": "https://dc.lft.to/lastmile_qr_scan"}}, {"is_disabled": 0, "fusion_lat": 0.0, "lat": 38.90235166666667, "type": "electric_scooter", "lon": -77.02632216666667, "is_reserved": 0, "fusion_lon": 0.0, "bike_id": "b1e3c4f3a4b850b32b90f19976437411", "name": "b1e3c4f3a4b850b32b90f19976437411", "rental_uris": {"ios": "https://dc.lft.to/lastmile_qr_scan", "android": "https://dc.lft.to/lastmile_qr_scan"}}, {"is_disabled": 0, "fusion_lat": 0.0, "lat": 38.8718885, "type": "electric_bike", "lon": -77.0840415, "is_reserved": 0, "fusion_lon": 0.0, "bike_id": "9d8412acb909e1f0ba2580823863810a", "name": "9d8412acb909e1f0ba2580823863810a", "rental_uris": {"ios": "https://dc.lft.to/lastmile_qr_scan", "android": "https://dc.lft.to/lastmile_qr_scan"}}, {"is_disabled": 0, "fusion_lat": 0.0, "lat": 38.86907566666667, "type": "electric_bike", "lon": -77.13178683333334, "is_reserved": 0, "fusion_lon": 0.0, "bike_id": "91aefa56204753739d0dc970a6111f5e", "name": "91aefa56204753739d0dc970a6111f5e", "rental_uris": {"ios": "https://dc.lft.to/lastmile_qr_scan", "android": "https://dc.lft.to/lastmile_qr_scan"}}, {"is_disabled": 0, "fusion_lat": 0.0, "lat": 38.91700566666667, "type": "electric_scooter", "lon": -77.0310545, "is_reserved": 0, "fusion_lon": 0.0, "bike_id": "0cb5a0b61bfef2b05ebeb47c7d8bd059", "name": "0cb5a0b61bfef2b05ebeb47c7d8bd059", "rental_uris": {"ios": "https://dc.lft.to/lastmile_qr_scan", "android": "https://dc.lft.to/lastmile_qr_scan"}}, {"is_disabled": 0, "fusion_lat": 0.0, "lat": 38.919683166666665, "type": "electric_scooter", "lon": -77.0431655, "is_reserved": 0, "fusion_lon": 0.0, "bike_id": "e9eb45451b551ebafcef54db9b111576", "name": "e9eb45451b551ebafcef54db9b111576", "rental_uris": {"ios": "https://dc.lft.to/lastmile_qr_scan", "android": "https://dc.lft.to/lastmile_qr_scan"}}, {"is_disabled": 0, "fusion_lat": 0.0, "lat": 38.891202666666665, "type": "electric_scooter", "lon": -76.9409265, "is_reserved": 0, "fusion_lon": 0.0, "bike_id": "2e0a1389001c140ab20f1a16a1025a3e", "name": "2e0a1389001c140ab20f1a16a1025a3e", "rental_uris": {"ios": "https://dc.lft.to/lastmile_qr_scan", "android": "https://dc.lft.to/lastmile_qr_scan"}}, {"is_disabled": 0, "fusion_lat": 0.0, "lat": 38.90316216666667, "type": "electric_scooter", "lon": -77.05176666666667, "is_reserved": 0, "fusion_lon": 0.0, "bike_id": "3a0cb9b5cca86525698fd5efe407cd25", "name": "3a0cb9b5cca86525698fd5efe407cd25", "rental_uris": {"ios": "https://dc.lft.to/lastmile_qr_scan", "android": "https://dc.lft.to/lastmile_qr_scan"}}, {"is_disabled": 0, "fusion_lat": 0.0, "lat": 38.90391866666667, "type": "electric_scooter", "lon": -77.03442916666667, "is_reserved": 0, "fusion_lon": 0.0, "bike_id": "6a8a8cc9e9c6da01db657858efd2a683", "name": "6a8a8cc9e9c6da01db657858efd2a683", "rental_uris": {"ios": "https://dc.lft.to/lastmile_qr_scan", "android": "https://dc.lft.to/lastmile_qr_scan"}}, {"is_disabled": 0, "fusion_lat": 0.0, "lat": 38.881367166666664, "type": "electric_scooter", "lon": -77.027077, "is_reserved": 0, "fusion_lon": 0.0, "bike_id": "9cc349c6767013a364b9518d88155f72", "name": "9cc349c6767013a364b9518d88155f72", "rental_uris": {"ios": "https://dc.lft.to/lastmile_qr_scan", "android": "https://dc.lft.to/lastmile_qr_scan"}}, {"is_disabled": 0, "fusion_lat": 0.0, "lat": 38.90509183333333, "type": "electric_scooter", "lon": -77.06372, "is_reserved": 0, "fusion_lon": 0.0, "bike_id": "f925ab6429927b06a71fb5e2ac5b7ae9", "name": "f925ab6429927b06a71fb5e2ac5b7ae9", "rental_uris": {"ios": "https://dc.lft.to/lastmile_qr_scan", "android": "https://dc.lft.to/lastmile_qr_scan"}}, {"is_disabled": 0, "fusion_lat": 0.0, "lat": 38.907316, "type": "electric_scooter", "lon": -77.01071566666667, "is_reserved": 0, "fusion_lon": 0.0, "bike_id": "83827ca9a2b09418dca83e9039844661", "name": "83827ca9a2b09418dca83e9039844661", "rental_uris": {"ios": "https://dc.lft.to/lastmile_qr_scan", "android": "https://dc.lft.to/lastmile_qr_scan"}}, {"is_disabled": 0, "fusion_lat": 0.0, "lat": 39.01590083333333, "type": "electric_bike", "lon": -77.04426533333333, "is_reserved": 0, "fusion_lon": 0.0, "bike_id": "d81fd8e240baa080bc723e826f3f9562", "name": "d81fd8e240baa080bc723e826f3f9562", "rental_uris": {"ios": "https://dc.lft.to/lastmile_qr_scan", "android": "https://dc.lft.to/lastmile_qr_scan"}}, {"is_disabled": 0, "fusion_lat": 0.0, "lat": 38.904911, "type": "electric_scooter", "lon": -77.06783966666667, "is_reserved": 0, "fusion_lon": 0.0, "bike_id": "675b7ad1bb2dae6ce315aa668fe6bdcf", "name": "675b7ad1bb2dae6ce315aa668fe6bdcf", "rental_uris": {"ios": "https://dc.lft.to/lastmile_qr_scan", "android": "https://dc.lft.to/lastmile_qr_scan"}}, {"is_disabled": 0, "fusion_lat": 0.0, "lat": 38.90255483333333, "type": "electric_scooter", "lon": -77.04926983333333, "is_reserved": 0, "fusion_lon": 0.0, "bike_id": "35383f84e8148961bcd74fb862cac619", "name": "35383f84e8148961bcd74fb862cac619", "rental_uris": {"ios": "https://dc.lft.to/lastmile_qr_scan", "android": "https://dc.lft.to/lastmile_qr_scan"}}, {"is_disabled": 0, "fusion_lat": 0.0, "lat": 38.909585166666666, "type": "electric_scooter", "lon": -77.046499, "is_reserved": 0, "fusion_lon": 0.0, "bike_id": "4d0fdb77df1bb06e25ac618885e1775e", "name": "4d0fdb77df1bb06e25ac618885e1775e", "rental_uris": {"ios": "https://dc.lft.to/lastmile_qr_scan", "android": "https://dc.lft.to/lastmile_qr_scan"}}, {"is_disabled": 0, "fusion_lat": 0.0, "lat": 38.90052566666667, "type": "electric_scooter", "lon": -77.05008466666666, "is_reserved": 0, "fusion_lon": 0.0, "bike_id": "27105b073cb4dd6bdd17de9dd7b37b84", "name": "27105b073cb4dd6bdd17de9dd7b37b84", "rental_uris": {"ios": "https://dc.lft.to/lastmile_qr_scan", "android": "https://dc.lft.to/lastmile_qr_scan"}}, {"is_disabled": 0, "fusion_lat": 0.0, "lat": 38.87198, "type": "electric_scooter", "lon": -77.00608983333333, "is_reserved": 0, "fusion_lon": 0.0, "bike_id": "c50417451afbc2a6d15e12f989c476a1", "name": "c50417451afbc2a6d15e12f989c476a1", "rental_uris": {"ios": "https://dc.lft.to/lastmile_qr_scan", "android": "https://dc.lft.to/lastmile_qr_scan"}}, {"is_disabled": 0, "fusion_lat": 0.0, "lat": 38.9336, "type": "electric_scooter", "lon": -77.05719766666667, "is_reserved": 0, "fusion_lon": 0.0, "bike_id": "39426d8bfe04d187d4f4cc83e989bfed", "name": "39426d8bfe04d187d4f4cc83e989bfed", "rental_uris": {"ios": "https://dc.lft.to/lastmile_qr_scan", "android": "https://dc.lft.to/lastmile_qr_scan"}}, {"is_disabled": 0, "fusion_lat": 0.0, "lat": 38.918222, "type": "electric_scooter", "lon": -77.038445, "is_reserved": 0, "fusion_lon": 0.0, "bike_id": "e41d5ab7cab9b150a238ad0c77514dc8", "name": "e41d5ab7cab9b150a238ad0c77514dc8", "rental_uris": {"ios": "https://dc.lft.to/lastmile_qr_scan", "android": "https://dc.lft.to/lastmile_qr_scan"}}, {"is_disabled": 0, "fusion_lat": 0.0, "lat": 38.91050466666667, "type": "electric_scooter", "lon": -77.01518416666667, "is_reserved": 0, "fusion_lon": 0.0, "bike_id": "f65109378c8f17d30c7d7eeeb4aa380a", "name": "f65109378c8f17d30c7d7eeeb4aa380a", "rental_uris": {"ios": "https://dc.lft.to/lastmile_qr_scan", "android": "https://dc.lft.to/lastmile_qr_scan"}}, {"is_disabled": 0, "fusion_lat": 0.0, "lat": 38.874758666666665, "type": "electric_scooter", "lon": -77.001172, "is_reserved": 0, "fusion_lon": 0.0, "bike_id": "06bc6433eaac7ccc53ee9f41ede0d508", "name": "06bc6433eaac7ccc53ee9f41ede0d508", "rental_uris": {"ios": "https://dc.lft.to/lastmile_qr_scan", "android": "https://dc.lft.to/lastmile_qr_scan"}}, {"is_disabled": 0, "fusion_lat": 0.0, "lat": 38.8849175, "type": "electric_scooter", "lon": -77.01587716666667, "is_reserved": 0, "fusion_lon": 0.0, "bike_id": "6b704843d10210b1d4a323efdfceeda0", "name": "6b704843d10210b1d4a323efdfceeda0", "rental_uris": {"ios": "https://dc.lft.to/lastmile_qr_scan", "android": "https://dc.lft.to/lastmile_qr_scan"}}, {"is_disabled": 0, "fusion_lat": 0.0, "lat": 38.90553216666667, "type": "electric_scooter", "lon": -77.04567733333333, "is_reserved": 0, "fusion_lon": 0.0, "bike_id": "b6c72964058c72ee10de6227b404c697", "name": "b6c72964058c72ee10de6227b404c697", "rental_uris": {"ios": "https://dc.lft.to/lastmile_qr_scan", "android": "https://dc.lft.to/lastmile_qr_scan"}}, {"is_disabled": 0, "fusion_lat": 0.0, "lat": 38.923394333333334, "type": "electric_scooter", "lon": -77.05069016666667, "is_reserved": 0, "fusion_lon": 0.0, "bike_id": "68eed3b626ff6f3f18fa5a4f70c37eb8", "name": "68eed3b626ff6f3f18fa5a4f70c37eb8", "rental_uris": {"ios": "https://dc.lft.to/lastmile_qr_scan", "android": "https://dc.lft.to/lastmile_qr_scan"}}, {"is_disabled": 0, "fusion_lat": 0.0, "lat": 38.90503366666667, "type": "electric_scooter", "lon": -77.06659866666666, "is_reserved": 0, "fusion_lon": 0.0, "bike_id": "69e59bed68c64ff76047855e446e58f6", "name": "69e59bed68c64ff76047855e446e58f6", "rental_uris": {"ios": "https://dc.lft.to/lastmile_qr_scan", "android": "https://dc.lft.to/lastmile_qr_scan"}}, {"is_disabled": 0, "fusion_lat": 0.0, "lat": 38.956349, "type": "electric_scooter", "lon": -77.03299083333333, "is_reserved": 0, "fusion_lon": 0.0, "bike_id": "2a3f575986c1566e3bcda6031e9209e4", "name": "2a3f575986c1566e3bcda6031e9209e4", "rental_uris": {"ios": "https://dc.lft.to/lastmile_qr_scan", "android": "https://dc.lft.to/lastmile_qr_scan"}}, {"is_disabled": 0, "fusion_lat": 0.0, "lat": 38.858374833333336, "type": "electric_bike", "lon": -77.04913916666666, "is_reserved": 0, "fusion_lon": 0.0, "bike_id": "ba9e8d484c569bfcfd282f2a07cea030", "name": "ba9e8d484c569bfcfd282f2a07cea030", "rental_uris": {"ios": "https://dc.lft.to/lastmile_qr_scan", "android": "https://dc.lft.to/lastmile_qr_scan"}}, {"is_disabled": 0, "fusion_lat": 0.0, "lat": 38.9025525, "type": "electric_scooter", "lon": -77.0461445, "is_reserved": 0, "fusion_lon": 0.0, "bike_id": "9c407baeeeca71efdd9e59c5457884d2", "name": "9c407baeeeca71efdd9e59c5457884d2", "rental_uris": {"ios": "https://dc.lft.to/lastmile_qr_scan", "android": "https://dc.lft.to/lastmile_qr_scan"}}, {"is_disabled": 0, "fusion_lat": 0.0, "lat": 38.93064183333333, "type": "electric_scooter", "lon": -77.0312965, "is_reserved": 0, "fusion_lon": 0.0, "bike_id": "a7374cddfbc6b113c0de979bbf0228c5", "name": "a7374cddfbc6b113c0de979bbf0228c5", "rental_uris": {"ios": "https://dc.lft.to/lastmile_qr_scan", "android": "https://dc.lft.to/lastmile_qr_scan"}}, {"is_disabled": 0, "fusion_lat": 0.0, "lat": 38.89371916666666, "type": "electric_scooter", "lon": -77.04785383333333, "is_reserved": 0, "fusion_lon": 0.0, "bike_id": "4c221c27187bd57119239fbe1b6be68a", "name": "4c221c27187bd57119239fbe1b6be68a", "rental_uris": {"ios": "https://dc.lft.to/lastmile_qr_scan", "android": "https://dc.lft.to/lastmile_qr_scan"}}, {"is_disabled": 0, "fusion_lat": 0.0, "lat": 38.949010333333334, "type": "electric_bike", "lon": -76.9723875, "is_reserved": 0, "fusion_lon": 0.0, "bike_id": "7465dbc95dcda5276ffd8a2fd904ff15", "name": "7465dbc95dcda5276ffd8a2fd904ff15", "rental_uris": {"ios": "https://dc.lft.to/lastmile_qr_scan", "android": "https://dc.lft.to/lastmile_qr_scan"}}, {"is_disabled": 0, "fusion_lat": 0.0, "lat": 38.89838266666667, "type": "electric_scooter", "lon": -77.033427, "is_reserved": 0, "fusion_lon": 0.0, "bike_id": "b7daff48d77807664877e8627728d7ba", "name": "b7daff48d77807664877e8627728d7ba", "rental_uris": {"ios": "https://dc.lft.to/lastmile_qr_scan", "android": "https://dc.lft.to/lastmile_qr_scan"}}, {"is_disabled": 0, "fusion_lat": 0.0, "lat": 38.91100616666667, "type": "electric_scooter", "lon": -77.03215316666666, "is_reserved": 0, "fusion_lon": 0.0, "bike_id": "e1931c5b550130ad43ac8b4cc2e4cca2", "name": "e1931c5b550130ad43ac8b4cc2e4cca2", "rental_uris": {"ios": "https://dc.lft.to/lastmile_qr_scan", "android": "https://dc.lft.to/lastmile_qr_scan"}}, {"is_disabled": 0, "fusion_lat": 0.0, "lat": 38.90731066666667, "type": "electric_bike", "lon": -77.003357, "is_reserved": 0, "fusion_lon": 0.0, "bike_id": "f8d927a4eaf5cd33ed3cea5bac59d2a4", "name": "f8d927a4eaf5cd33ed3cea5bac59d2a4", "rental_uris": {"ios": "https://dc.lft.to/lastmile_qr_scan", "android": "https://dc.lft.to/lastmile_qr_scan"}}, {"is_disabled": 0, "fusion_lat": 0.0, "lat": 38.93137633333333, "type": "electric_scooter", "lon": -77.03258083333333, "is_reserved": 0, "fusion_lon": 0.0, "bike_id": "1baf19358d40c6a81680602c5b2b2a00", "name": "1baf19358d40c6a81680602c5b2b2a00", "rental_uris": {"ios": "https://dc.lft.to/lastmile_qr_scan", "android": "https://dc.lft.to/lastmile_qr_scan"}}, {"is_disabled": 0, "fusion_lat": 0.0, "lat": 38.9221715, "type": "electric_scooter", "lon": -77.04258816666666, "is_reserved": 0, "fusion_lon": 0.0, "bike_id": "4beb9366de4033f45ad185f83b02c764", "name": "4beb9366de4033f45ad185f83b02c764", "rental_uris": {"ios": "https://dc.lft.to/lastmile_qr_scan", "android": "https://dc.lft.to/lastmile_qr_scan"}}, {"is_disabled": 0, "fusion_lat": 0.0, "lat": 38.92329633333333, "type": "electric_scooter", "lon": -77.03783233333333, "is_reserved": 0, "fusion_lon": 0.0, "bike_id": "c110613a92d3b94891c26ff676530146", "name": "c110613a92d3b94891c26ff676530146", "rental_uris": {"ios": "https://dc.lft.to/lastmile_qr_scan", "android": "https://dc.lft.to/lastmile_qr_scan"}}, {"is_disabled": 0, "fusion_lat": 0.0, "lat": 38.923266166666664, "type": "electric_scooter", "lon": -77.0547015, "is_reserved": 0, "fusion_lon": 0.0, "bike_id": "94481425f21467b69d301d6177ab1012", "name": "94481425f21467b69d301d6177ab1012", "rental_uris": {"ios": "https://dc.lft.to/lastmile_qr_scan", "android": "https://dc.lft.to/lastmile_qr_scan"}}, {"is_disabled": 0, "fusion_lat": 0.0, "lat": 38.92749533333333, "type": "electric_scooter", "lon": -77.024856, "is_reserved": 0, "fusion_lon": 0.0, "bike_id": "1561e6d4456f404dea84ec35e42dc0f7", "name": "1561e6d4456f404dea84ec35e42dc0f7", "rental_uris": {"ios": "https://dc.lft.to/lastmile_qr_scan", "android": "https://dc.lft.to/lastmile_qr_scan"}}, {"is_disabled": 0, "fusion_lat": 0.0, "lat": 38.939598333333336, "type": "electric_bike", "lon": -77.360903, "is_reserved": 0, "fusion_lon": 0.0, "bike_id": "1d0ba272f71094c7fcf495b009079a04", "name": "1d0ba272f71094c7fcf495b009079a04", "rental_uris": {"ios": "https://dc.lft.to/lastmile_qr_scan", "android": "https://dc.lft.to/lastmile_qr_scan"}}, {"is_disabled": 0, "fusion_lat": 0.0, "lat": 38.95302933333333, "type": "electric_bike", "lon": -77.06874566666667, "is_reserved": 0, "fusion_lon": 0.0, "bike_id": "3ccd0b50e46fc453b245f600962ba8ff", "name": "3ccd0b50e46fc453b245f600962ba8ff", "rental_uris": {"ios": "https://dc.lft.to/lastmile_qr_scan", "android": "https://dc.lft.to/lastmile_qr_scan"}}, {"is_disabled": 0, "fusion_lat": 0.0, "lat": 38.9002435, "type": "electric_scooter", "lon": -77.00222216666667, "is_reserved": 0, "fusion_lon": 0.0, "bike_id": "3df96bba9cec8ab2476966ef02c03688", "name": "3df96bba9cec8ab2476966ef02c03688", "rental_uris": {"ios": "https://dc.lft.to/lastmile_qr_scan", "android": "https://dc.lft.to/lastmile_qr_scan"}}, {"is_disabled": 0, "fusion_lat": 0.0, "lat": 38.912625, "type": "electric_scooter", "lon": -77.04546183333333, "is_reserved": 0, "fusion_lon": 0.0, "bike_id": "1f3360100450edd2e7b52ff245e75fb0", "name": "1f3360100450edd2e7b52ff245e75fb0", "rental_uris": {"ios": "https://dc.lft.to/lastmile_qr_scan", "android": "https://dc.lft.to/lastmile_qr_scan"}}, {"is_disabled": 0, "fusion_lat": 0.0, "lat": 38.92563, "type": "electric_scooter", "lon": -77.03767666666667, "is_reserved": 0, "fusion_lon": 0.0, "bike_id": "9faed6444481b2e2c5c64b0853c47fa3", "name": "9faed6444481b2e2c5c64b0853c47fa3", "rental_uris": {"ios": "https://dc.lft.to/lastmile_qr_scan", "android": "https://dc.lft.to/lastmile_qr_scan"}}, {"is_disabled": 0, "fusion_lat": 0.0, "lat": 38.90137683333333, "type": "electric_scooter", "lon": -77.0488085, "is_reserved": 0, "fusion_lon": 0.0, "bike_id": "ddb764e456081fae4f1e8fe405650e3a", "name": "ddb764e456081fae4f1e8fe405650e3a", "rental_uris": {"ios": "https://dc.lft.to/lastmile_qr_scan", "android": "https://dc.lft.to/lastmile_qr_scan"}}, {"is_disabled": 0, "fusion_lat": 0.0, "lat": 38.8955735, "type": "electric_scooter", "lon": -76.93080366666666, "is_reserved": 0, "fusion_lon": 0.0, "bike_id": "e3a248ef5c975c9fb4535f9d858bbe56", "name": "e3a248ef5c975c9fb4535f9d858bbe56", "rental_uris": {"ios": "https://dc.lft.to/lastmile_qr_scan", "android": "https://dc.lft.to/lastmile_qr_scan"}}, {"is_disabled": 0, "fusion_lat": 0.0, "lat": 38.89555583333333, "type": "electric_scooter", "lon": -77.04674333333334, "is_reserved": 0, "fusion_lon": 0.0, "bike_id": "75807d818c4e5fe7f0c49e371435d0df", "name": "75807d818c4e5fe7f0c49e371435d0df", "rental_uris": {"ios": "https://dc.lft.to/lastmile_qr_scan", "android": "https://dc.lft.to/lastmile_qr_scan"}}, {"is_disabled": 0, "fusion_lat": 0.0, "lat": 38.91963066666667, "type": "electric_scooter", "lon": -77.03961633333333, "is_reserved": 0, "fusion_lon": 0.0, "bike_id": "22b1f717d46582a229bea4af0a839b64", "name": "22b1f717d46582a229bea4af0a839b64", "rental_uris": {"ios": "https://dc.lft.to/lastmile_qr_scan", "android": "https://dc.lft.to/lastmile_qr_scan"}}, {"is_disabled": 0, "fusion_lat": 0.0, "lat": 38.87504166666667, "type": "electric_scooter", "lon": -77.01747833333333, "is_reserved": 0, "fusion_lon": 0.0, "bike_id": "ad7e1a02220e5fe8f9b00f70ce163527", "name": "ad7e1a02220e5fe8f9b00f70ce163527", "rental_uris": {"ios": "https://dc.lft.to/lastmile_qr_scan", "android": "https://dc.lft.to/lastmile_qr_scan"}}, {"is_disabled": 0, "fusion_lat": 0.0, "lat": 38.95555433333333, "type": "electric_bike", "lon": -76.935439, "is_reserved": 0, "fusion_lon": 0.0, "bike_id": "7f800e8ca5e4bfbc4e184f1ad16fa2e8", "name": "7f800e8ca5e4bfbc4e184f1ad16fa2e8", "rental_uris": {"ios": "https://dc.lft.to/lastmile_qr_scan", "android": "https://dc.lft.to/lastmile_qr_scan"}}, {"is_disabled": 0, "fusion_lat": 0.0, "lat": 38.898228333333336, "type": "electric_scooter", "lon": -77.0328965, "is_reserved": 0, "fusion_lon": 0.0, "bike_id": "dd8370d1fa3ed946d52d0e03077fecd3", "name": "dd8370d1fa3ed946d52d0e03077fecd3", "rental_uris": {"ios": "https://dc.lft.to/lastmile_qr_scan", "android": "https://dc.lft.to/lastmile_qr_scan"}}, {"is_disabled": 0, "fusion_lat": 0.0, "lat": 38.921216333333334, "type": "electric_scooter", "lon": -77.04422533333333, "is_reserved": 0, "fusion_lon": 0.0, "bike_id": "9d57a6f08400fe80a18426d031c1fa93", "name": "9d57a6f08400fe80a18426d031c1fa93", "rental_uris": {"ios": "https://dc.lft.to/lastmile_qr_scan", "android": "https://dc.lft.to/lastmile_qr_scan"}}, {"is_disabled": 0, "fusion_lat": 0.0, "lat": 38.86344483333333, "type": "electric_scooter", "lon": -76.99007333333333, "is_reserved": 0, "fusion_lon": 0.0, "bike_id": "c6fb0e49bfb3c285cc0fcfe19da23900", "name": "c6fb0e49bfb3c285cc0fcfe19da23900", "rental_uris": {"ios": "https://dc.lft.to/lastmile_qr_scan", "android": "https://dc.lft.to/lastmile_qr_scan"}}, {"is_disabled": 0, "fusion_lat": 0.0, "lat": 38.907200833333334, "type": "electric_scooter", "lon": -77.02501683333334, "is_reserved": 0, "fusion_lon": 0.0, "bike_id": "b605a35c96b6cf5f0ff20bcb3a9fa4b2", "name": "b605a35c96b6cf5f0ff20bcb3a9fa4b2", "rental_uris": {"ios": "https://dc.lft.to/lastmile_qr_scan", "android": "https://dc.lft.to/lastmile_qr_scan"}}, {"is_disabled": 0, "fusion_lat": 0.0, "lat": 38.903356333333335, "type": "electric_scooter", "lon": -77.06597616666667, "is_reserved": 0, "fusion_lon": 0.0, "bike_id": "417fe0f66172c356207b1eef2596d03b", "name": "417fe0f66172c356207b1eef2596d03b", "rental_uris": {"ios": "https://dc.lft.to/lastmile_qr_scan", "android": "https://dc.lft.to/lastmile_qr_scan"}}, {"is_disabled": 0, "fusion_lat": 0.0, "lat": 38.9577395, "type": "electric_scooter", "lon": -77.02464516666667, "is_reserved": 0, "fusion_lon": 0.0, "bike_id": "87aa4192072fd91a74e0ac043229eba2", "name": "87aa4192072fd91a74e0ac043229eba2", "rental_uris": {"ios": "https://dc.lft.to/lastmile_qr_scan", "android": "https://dc.lft.to/lastmile_qr_scan"}}, {"is_disabled": 0, "fusion_lat": 0.0, "lat": 38.905371, "type": "electric_scooter", "lon": -77.04751833333333, "is_reserved": 0, "fusion_lon": 0.0, "bike_id": "5c41581ee5f8689069e87ca9b34bcdc1", "name": "5c41581ee5f8689069e87ca9b34bcdc1", "rental_uris": {"ios": "https://dc.lft.to/lastmile_qr_scan", "android": "https://dc.lft.to/lastmile_qr_scan"}}, {"is_disabled": 0, "fusion_lat": 0.0, "lat": 38.8429305, "type": "electric_scooter", "lon": -76.99948283333333, "is_reserved": 0, "fusion_lon": 0.0, "bike_id": "305b8782a56ff92df65b7420d4bb9957", "name": "305b8782a56ff92df65b7420d4bb9957", "rental_uris": {"ios": "https://dc.lft.to/lastmile_qr_scan", "android": "https://dc.lft.to/lastmile_qr_scan"}}, {"is_disabled": 0, "fusion_lat": 0.0, "lat": 38.899180333333334, "type": "electric_scooter", "lon": -76.93382883333334, "is_reserved": 0, "fusion_lon": 0.0, "bike_id": "da03408191931c05c8a15516b6d3d147", "name": "da03408191931c05c8a15516b6d3d147", "rental_uris": {"ios": "https://dc.lft.to/lastmile_qr_scan", "android": "https://dc.lft.to/lastmile_qr_scan"}}, {"is_disabled": 0, "fusion_lat": 0.0, "lat": 38.89827416666667, "type": "electric_scooter", "lon": -77.043622, "is_reserved": 0, "fusion_lon": 0.0, "bike_id": "7f0190fd24a3b6d70452624c259d6e18", "name": "7f0190fd24a3b6d70452624c259d6e18", "rental_uris": {"ios": "https://dc.lft.to/lastmile_qr_scan", "android": "https://dc.lft.to/lastmile_qr_scan"}}, {"is_disabled": 0, "fusion_lat": 0.0, "lat": 38.897066833333334, "type": "electric_scooter", "lon": -77.02129816666667, "is_reserved": 0, "fusion_lon": 0.0, "bike_id": "7e81958d0a3ff65d280111733c8c537a", "name": "7e81958d0a3ff65d280111733c8c537a", "rental_uris": {"ios": "https://dc.lft.to/lastmile_qr_scan", "android": "https://dc.lft.to/lastmile_qr_scan"}}, {"is_disabled": 0, "fusion_lat": 0.0, "lat": 38.92415366666667, "type": "electric_scooter", "lon": -77.02242633333333, "is_reserved": 0, "fusion_lon": 0.0, "bike_id": "b4d8659b9f36075c1bf250a0eda22a70", "name": "b4d8659b9f36075c1bf250a0eda22a70", "rental_uris": {"ios": "https://dc.lft.to/lastmile_qr_scan", "android": "https://dc.lft.to/lastmile_qr_scan"}}, {"is_disabled": 0, "fusion_lat": 0.0, "lat": 38.89200266666667, "type": "electric_scooter", "lon": -77.02381333333334, "is_reserved": 0, "fusion_lon": 0.0, "bike_id": "21335780f19712acfa357c8154a4386e", "name": "21335780f19712acfa357c8154a4386e", "rental_uris": {"ios": "https://dc.lft.to/lastmile_qr_scan", "android": "https://dc.lft.to/lastmile_qr_scan"}}, {"is_disabled": 0, "fusion_lat": 0.0, "lat": 38.904041, "type": "electric_scooter", "lon": -77.02075166666667, "is_reserved": 0, "fusion_lon": 0.0, "bike_id": "c08567dbc7fdce61104daff1e7d6e150", "name": "c08567dbc7fdce61104daff1e7d6e150", "rental_uris": {"ios": "https://dc.lft.to/lastmile_qr_scan", "android": "https://dc.lft.to/lastmile_qr_scan"}}, {"is_disabled": 0, "fusion_lat": 0.0, "lat": 38.8991025, "type": "electric_scooter", "lon": -76.9334735, "is_reserved": 0, "fusion_lon": 0.0, "bike_id": "66b29066f20342aae5b2af08aaf9bef2", "name": "66b29066f20342aae5b2af08aaf9bef2", "rental_uris": {"ios": "https://dc.lft.to/lastmile_qr_scan", "android": "https://dc.lft.to/lastmile_qr_scan"}}, {"is_disabled": 0, "fusion_lat": 0.0, "lat": 38.9401225, "type": "electric_scooter", "lon": -77.07176066666666, "is_reserved": 0, "fusion_lon": 0.0, "bike_id": "0000d3448915e1036922d224fdaa9027", "name": "0000d3448915e1036922d224fdaa9027", "rental_uris": {"ios": "https://dc.lft.to/lastmile_qr_scan", "android": "https://dc.lft.to/lastmile_qr_scan"}}, {"is_disabled": 0, "fusion_lat": 0.0, "lat": 38.85814666666667, "type": "electric_scooter", "lon": -76.98991616666666, "is_reserved": 0, "fusion_lon": 0.0, "bike_id": "87458e2dd8e47eab86677fbb5e25c5c1", "name": "87458e2dd8e47eab86677fbb5e25c5c1", "rental_uris": {"ios": "https://dc.lft.to/lastmile_qr_scan", "android": "https://dc.lft.to/lastmile_qr_scan"}}, {"is_disabled": 0, "fusion_lat": 0.0, "lat": 38.90492533333333, "type": "electric_scooter", "lon": -77.0600605, "is_reserved": 0, "fusion_lon": 0.0, "bike_id": "d4a5da881cd8cd12a4b98e13d7d07a40", "name": "d4a5da881cd8cd12a4b98e13d7d07a40", "rental_uris": {"ios": "https://dc.lft.to/lastmile_qr_scan", "android": "https://dc.lft.to/lastmile_qr_scan"}}, {"is_disabled": 0, "fusion_lat": 0.0, "lat": 38.88324433333333, "type": "electric_scooter", "lon": -76.934507, "is_reserved": 0, "fusion_lon": 0.0, "bike_id": "11f667ca927482995aea016a17f94c0a", "name": "11f667ca927482995aea016a17f94c0a", "rental_uris": {"ios": "https://dc.lft.to/lastmile_qr_scan", "android": "https://dc.lft.to/lastmile_qr_scan"}}, {"is_disabled": 0, "fusion_lat": 0.0, "lat": 38.901286999999996, "type": "electric_scooter", "lon": -77.04489583333333, "is_reserved": 0, "fusion_lon": 0.0, "bike_id": "d87914bb0e2da3f6cfde7e084137f86a", "name": "d87914bb0e2da3f6cfde7e084137f86a", "rental_uris": {"ios": "https://dc.lft.to/lastmile_qr_scan", "android": "https://dc.lft.to/lastmile_qr_scan"}}, {"is_disabled": 0, "fusion_lat": 0.0, "lat": 38.87496016666667, "type": "electric_scooter", "lon": -76.99800683333333, "is_reserved": 0, "fusion_lon": 0.0, "bike_id": "95c05615a2993192bf8c059b86bf1004", "name": "95c05615a2993192bf8c059b86bf1004", "rental_uris": {"ios": "https://dc.lft.to/lastmile_qr_scan", "android": "https://dc.lft.to/lastmile_qr_scan"}}, {"is_disabled": 0, "fusion_lat": 0.0, "lat": 38.88515, "type": "electric_scooter", "lon": -77.03330833333334, "is_reserved": 0, "fusion_lon": 0.0, "bike_id": "47b6ec098b1656278984aab307ebbe74", "name": "47b6ec098b1656278984aab307ebbe74", "rental_uris": {"ios": "https://dc.lft.to/lastmile_qr_scan", "android": "https://dc.lft.to/lastmile_qr_scan"}}, {"is_disabled": 0, "fusion_lat": 0.0, "lat": 38.9072665, "type": "electric_scooter", "lon": -77.0399625, "is_reserved": 0, "fusion_lon": 0.0, "bike_id": "727d35bc3b4c8bdd2ecd9f9d2469cb86", "name": "727d35bc3b4c8bdd2ecd9f9d2469cb86", "rental_uris": {"ios": "https://dc.lft.to/lastmile_qr_scan", "android": "https://dc.lft.to/lastmile_qr_scan"}}, {"is_disabled": 0, "fusion_lat": 0.0, "lat": 38.85526566666667, "type": "electric_scooter", "lon": -76.96918183333334, "is_reserved": 0, "fusion_lon": 0.0, "bike_id": "94e7d0a8885655529b6ee7f2a22dde27", "name": "94e7d0a8885655529b6ee7f2a22dde27", "rental_uris": {"ios": "https://dc.lft.to/lastmile_qr_scan", "android": "https://dc.lft.to/lastmile_qr_scan"}}, {"is_disabled": 0, "fusion_lat": 0.0, "lat": 38.904215, "type": "electric_scooter", "lon": -77.02173933333333, "is_reserved": 0, "fusion_lon": 0.0, "bike_id": "2250d3b72336b4766bf1538977076743", "name": "2250d3b72336b4766bf1538977076743", "rental_uris": {"ios": "https://dc.lft.to/lastmile_qr_scan", "android": "https://dc.lft.to/lastmile_qr_scan"}}, {"is_disabled": 0, "fusion_lat": 0.0, "lat": 38.8922485, "type": "electric_scooter", "lon": -77.04442466666667, "is_reserved": 0, "fusion_lon": 0.0, "bike_id": "063b9fba24eb1268df0bcbb39761ec8a", "name": "063b9fba24eb1268df0bcbb39761ec8a", "rental_uris": {"ios": "https://dc.lft.to/lastmile_qr_scan", "android": "https://dc.lft.to/lastmile_qr_scan"}}, {"is_disabled": 0, "fusion_lat": 0.0, "lat": 38.92365816666667, "type": "electric_scooter", "lon": -77.05127933333333, "is_reserved": 0, "fusion_lon": 0.0, "bike_id": "0a6e4b3492d067889f388956a1255f87", "name": "0a6e4b3492d067889f388956a1255f87", "rental_uris": {"ios": "https://dc.lft.to/lastmile_qr_scan", "android": "https://dc.lft.to/lastmile_qr_scan"}}, {"is_disabled": 0, "fusion_lat": 0.0, "lat": 38.89747333333333, "type": "electric_scooter", "lon": -77.00743483333333, "is_reserved": 0, "fusion_lon": 0.0, "bike_id": "3e65080bfb9ee760528cf8cbee2ea1f3", "name": "3e65080bfb9ee760528cf8cbee2ea1f3", "rental_uris": {"ios": "https://dc.lft.to/lastmile_qr_scan", "android": "https://dc.lft.to/lastmile_qr_scan"}}, {"is_disabled": 0, "fusion_lat": 0.0, "lat": 38.87245766666667, "type": "electric_scooter", "lon": -76.97727716666667, "is_reserved": 0, "fusion_lon": 0.0, "bike_id": "62ee33419a9521d648cc438be381e09e", "name": "62ee33419a9521d648cc438be381e09e", "rental_uris": {"ios": "https://dc.lft.to/lastmile_qr_scan", "android": "https://dc.lft.to/lastmile_qr_scan"}}, {"is_disabled": 0, "fusion_lat": 0.0, "lat": 38.914092333333336, "type": "electric_scooter", "lon": -77.04488666666667, "is_reserved": 0, "fusion_lon": 0.0, "bike_id": "3168b435270eb1b345dbf2a8e9bd5825", "name": "3168b435270eb1b345dbf2a8e9bd5825", "rental_uris": {"ios": "https://dc.lft.to/lastmile_qr_scan", "android": "https://dc.lft.to/lastmile_qr_scan"}}, {"is_disabled": 0, "fusion_lat": 0.0, "lat": 38.895311166666666, "type": "electric_scooter", "lon": -76.9488715, "is_reserved": 0, "fusion_lon": 0.0, "bike_id": "f922c425ea87527e23e25269723e0d63", "name": "f922c425ea87527e23e25269723e0d63", "rental_uris": {"ios": "https://dc.lft.to/lastmile_qr_scan", "android": "https://dc.lft.to/lastmile_qr_scan"}}, {"is_disabled": 0, "fusion_lat": 0.0, "lat": 38.930694333333335, "type": "electric_scooter", "lon": -77.0225895, "is_reserved": 0, "fusion_lon": 0.0, "bike_id": "5115f6a6780d82c95a6a81f2c15f1b3e", "name": "5115f6a6780d82c95a6a81f2c15f1b3e", "rental_uris": {"ios": "https://dc.lft.to/lastmile_qr_scan", "android": "https://dc.lft.to/lastmile_qr_scan"}}, {"is_disabled": 0, "fusion_lat": 0.0, "lat": 38.90801533333333, "type": "electric_scooter", "lon": -77.034126, "is_reserved": 0, "fusion_lon": 0.0, "bike_id": "819b8ae7b84011ebdf966873eb72f919", "name": "819b8ae7b84011ebdf966873eb72f919", "rental_uris": {"ios": "https://dc.lft.to/lastmile_qr_scan", "android": "https://dc.lft.to/lastmile_qr_scan"}}, {"is_disabled": 0, "fusion_lat": 0.0, "lat": 38.90792016666666, "type": "electric_scooter", "lon": -77.0447635, "is_reserved": 0, "fusion_lon": 0.0, "bike_id": "9af3005d431071b64a44d5826cf638a3", "name": "9af3005d431071b64a44d5826cf638a3", "rental_uris": {"ios": "https://dc.lft.to/lastmile_qr_scan", "android": "https://dc.lft.to/lastmile_qr_scan"}}, {"is_disabled": 0, "fusion_lat": 0.0, "lat": 38.90266966666667, "type": "electric_scooter", "lon": -77.03836016666666, "is_reserved": 0, "fusion_lon": 0.0, "bike_id": "ab3b8702bb8749fad392c1dd70f0be63", "name": "ab3b8702bb8749fad392c1dd70f0be63", "rental_uris": {"ios": "https://dc.lft.to/lastmile_qr_scan", "android": "https://dc.lft.to/lastmile_qr_scan"}}, {"is_disabled": 0, "fusion_lat": 0.0, "lat": 38.89899966666667, "type": "electric_scooter", "lon": -77.00737683333334, "is_reserved": 0, "fusion_lon": 0.0, "bike_id": "442457aec56117b40c299ad2ac64054f", "name": "442457aec56117b40c299ad2ac64054f", "rental_uris": {"ios": "https://dc.lft.to/lastmile_qr_scan", "android": "https://dc.lft.to/lastmile_qr_scan"}}, {"is_disabled": 0, "fusion_lat": 0.0, "lat": 38.9263685, "type": "electric_scooter", "lon": -77.01340983333333, "is_reserved": 0, "fusion_lon": 0.0, "bike_id": "5ceff76e54ddca8906fc9ff764b48185", "name": "5ceff76e54ddca8906fc9ff764b48185", "rental_uris": {"ios": "https://dc.lft.to/lastmile_qr_scan", "android": "https://dc.lft.to/lastmile_qr_scan"}}, {"is_disabled": 0, "fusion_lat": 0.0, "lat": 38.91955333333333, "type": "electric_scooter", "lon": -77.0319215, "is_reserved": 0, "fusion_lon": 0.0, "bike_id": "860bb5f52aab5d51197144d5491708e8", "name": "860bb5f52aab5d51197144d5491708e8", "rental_uris": {"ios": "https://dc.lft.to/lastmile_qr_scan", "android": "https://dc.lft.to/lastmile_qr_scan"}}, {"is_disabled": 0, "fusion_lat": 0.0, "lat": 38.925995, "type": "electric_scooter", "lon": -77.05691766666666, "is_reserved": 0, "fusion_lon": 0.0, "bike_id": "82513ad8a9d4444fd94f81e194d2739c", "name": "82513ad8a9d4444fd94f81e194d2739c", "rental_uris": {"ios": "https://dc.lft.to/lastmile_qr_scan", "android": "https://dc.lft.to/lastmile_qr_scan"}}, {"is_disabled": 0, "fusion_lat": 0.0, "lat": 38.919605833333335, "type": "electric_scooter", "lon": -77.03206133333333, "is_reserved": 0, "fusion_lon": 0.0, "bike_id": "4d090243b241e92b882067166dddcedb", "name": "4d090243b241e92b882067166dddcedb", "rental_uris": {"ios": "https://dc.lft.to/lastmile_qr_scan", "android": "https://dc.lft.to/lastmile_qr_scan"}}, {"is_disabled": 0, "fusion_lat": 0.0, "lat": 38.927026, "type": "electric_scooter", "lon": -77.04038166666666, "is_reserved": 0, "fusion_lon": 0.0, "bike_id": "c1efdfec262f63e0add651221119da0c", "name": "c1efdfec262f63e0add651221119da0c", "rental_uris": {"ios": "https://dc.lft.to/lastmile_qr_scan", "android": "https://dc.lft.to/lastmile_qr_scan"}}, {"is_disabled": 0, "fusion_lat": 0.0, "lat": 38.9408305, "type": "electric_scooter", "lon": -77.0272355, "is_reserved": 0, "fusion_lon": 0.0, "bike_id": "7fc61969139dffeef9149c0efece7c52", "name": "7fc61969139dffeef9149c0efece7c52", "rental_uris": {"ios": "https://dc.lft.to/lastmile_qr_scan", "android": "https://dc.lft.to/lastmile_qr_scan"}}, {"is_disabled": 0, "fusion_lat": 0.0, "lat": 38.923237666666665, "type": "electric_scooter", "lon": -77.03894166666667, "is_reserved": 0, "fusion_lon": 0.0, "bike_id": "c73e36ab3347cf1e9bd6ace6b7704fdd", "name": "c73e36ab3347cf1e9bd6ace6b7704fdd", "rental_uris": {"ios": "https://dc.lft.to/lastmile_qr_scan", "android": "https://dc.lft.to/lastmile_qr_scan"}},