{"data": {"bikes": [{"lat": 38.91926733333333, "lon": -77.032688, "is_disabled": 0, "fusion_lon": 0.0, "is_reserved": 0, "name": "5add7e98561ce9b2e4a12c3af0747c89", "type": "electric_scooter", "bike_id": "5add7e98561ce9b2e4a12c3af0747c89", "rental_uris": {"ios": "https://dc.lft.to/lastmile_qr_scan", "android": "https://dc.lft.to/lastmile_qr_scan"}, "fusion_lat": 0.0}, {"lat": 38.870337166666665, "lon": -77.22900683333333, "is_disabled": 0, "fusion_lon": 0.0, "is_reserved": 0, "name": "c521a104bfe88c1585b428697d3158e3", "type": "electric_bike", "bike_id": "c521a104bfe88c1585b428697d3158e3", "rental_uris": {"ios": "https://dc.lft.to/lastmile_qr_scan", "android": "https://dc.lft.to/lastmile_qr_scan"}, "fusion_lat": 0.0}, {"lat": 38.92079316666667, "lon": -77.02426033333333, "is_disabled": 0, "fusion_lon": 0.0, "is_reserved": 0, "name": "cf1e2525c775439e70d6d01bc1865da7", "type": "electric_bike", "bike_id": "cf1e2525c775439e70d6d01bc1865da7", "rental_uris": {"ios": "https://dc.lft.to/lastmile_qr_scan", "android": "https://dc.lft.to/lastmile_qr_scan"}, "fusion_lat": 0.0}, {"lat": 38.9427455, "lon": -77.03258183333334, "is_disabled": 0, "fusion_lon": 0.0, "is_reserved": 0, "name": "6e3586dfeb4ee327d2b461bb4e89d999", "type": "electric_scooter", "bike_id": "6e3586dfeb4ee327d2b461bb4e89d999", "rental_uris": {"ios": "https://dc.lft.to/lastmile_qr_scan", "android": "https://dc.lft.to/lastmile_qr_scan"}, "fusion_lat": 0.0}, {"lat": 38.90716916666667, "lon": -77.02522033333334, "is_disabled": 0, "fusion_lon": 0.0, "is_reserved": 0, "name": "57712689d3c4a5035b8787a789a31eff", "type": "electric_scooter", "bike_id": "57712689d3c4a5035b8787a789a31eff", "rental_uris": {"ios": "https://dc.lft.to/lastmile_qr_scan", "android": "https://dc.lft.to/lastmile_qr_scan"}, "fusion_lat": 0.0}, {"lat": 38.91703483333333, "lon": -77.03343016666666, "is_disabled": 0, "fusion_lon": 0.0, "is_reserved": 0, "name": "00028da4cd93e4cb7c44b242b248a2b4", "type": "electric_scooter", "bike_id": "00028da4cd93e4cb7c44b242b248a2b4", "rental_uris": {"ios": "https://dc.lft.to/lastmile_qr_scan", "android": "https://dc.lft.to/lastmile_qr_scan"}, "fusion_lat": 0.0}, {"lat": 38.928012, "lon": -77.02719866666666, "is_disabled": 0, "fusion_lon": 0.0, "is_reserved": 0, "name": "1ed4244c07bfc1a16ea413e82deeccd3", "type": "electric_scooter", "bike_id": "1ed4244c07bfc1a16ea413e82deeccd3", "rental_uris": {"ios": "https://dc.lft.to/lastmile_qr_scan", "android": "https://dc.lft.to/lastmile_qr_scan"}, "fusion_lat": 0.0}, {"lat": 38.88501766666667, "lon": -77.02974016666667, "is_disabled": 0, "fusion_lon": 0.0, "is_reserved": 0, "name": "f4174b345db605b5c4080fef07f94673", "type": "electric_scooter", "bike_id": "f4174b345db605b5c4080fef07f94673", "rental_uris": {"ios": "https://dc.lft.to/lastmile_qr_scan", "android": "https://dc.lft.to/lastmile_qr_scan"}, "fusion_lat": 0.0}, {"lat": 38.911235166666664, "lon": -76.99755683333333, "is_disabled": 0, "fusion_lon": 0.0, "is_reserved": 0, "name": "825c158e225510a8b9dbd699309a03e5", "type": "electric_scooter", "bike_id": "825c158e225510a8b9dbd699309a03e5", "rental_uris": {"ios": "https://dc.lft.to/lastmile_qr_scan", "android": "https://dc.lft.to/lastmile_qr_scan"}, "fusion_lat": 0.0}, {"lat": 38.927923, "lon": -77.01555466666667, "is_disabled": 0, "fusion_lon": 0.0, "is_reserved": 0, "name": "e7bc38fdcbde2bc6f3b4b6596c3d73bf", "type": "electric_scooter", "bike_id": "e7bc38fdcbde2bc6f3b4b6596c3d73bf", "rental_uris": {"ios": "https://dc.lft.to/lastmile_qr_scan", "android": "https://dc.lft.to/lastmile_qr_scan"}, "fusion_lat": 0.0}, {"lat": 38.95628166666667, "lon": -76.93896316666667, "is_disabled": 0, "fusion_lon": 0.0, "is_reserved": 0, "name": "b7cafd5da5739e3adb82e060192af2a8", "type": "electric_bike", "bike_id": "b7cafd5da5739e3adb82e060192af2a8", "rental_uris": {"ios": "https://dc.lft.to/lastmile_qr_scan", "android": "https://dc.lft.to/lastmile_qr_scan"}, "fusion_lat": 0.0}, {"lat": 38.905161, "lon": -77.06470183333333, "is_disabled": 0, "fusion_lon": 0.0, "is_reserved": 0, "name": "2fb45fbbc853b29474ce1f2045212838", "type": "electric_scooter", "bike_id": "2fb45fbbc853b29474ce1f2045212838", "rental_uris": {"ios": "https://dc.lft.to/lastmile_qr_scan", "android": "https://dc.lft.to/lastmile_qr_scan"}, "fusion_lat": 0.0}, {"lat": 38.90830316666667, "lon": -77.026018, "is_disabled": 0, "fusion_lon": 0.0, "is_reserved": 0, "name": "d75fe632a350536df16cd54c232d29e7", "type": "electric_scooter", "bike_id": "d75fe632a350536df16cd54c232d29e7", "rental_uris": {"ios": "https://dc.lft.to/lastmile_qr_scan", "android": "https://dc.lft.to/lastmile_qr_scan"}, "fusion_lat": 0.0}, {"lat": 38.902590833333335, "lon": -77.03562783333334, "is_disabled": 0, "fusion_lon": 0.0, "is_reserved": 0, "name": "08770034656da3c49aae34aa8428f35c", "type": "electric_scooter", "bike_id": "08770034656da3c49aae34aa8428f35c", "rental_uris": {"ios": "https://dc.lft.to/lastmile_qr_scan", "android": "https://dc.lft.to/lastmile_qr_scan"}, "fusion_lat": 0.0}, {"lat": 38.89823466666667, "lon": -77.02591566666666, "is_disabled": 0, "fusion_lon": 0.0, "is_reserved": 0, "name": "62a9d96e86f13505a65c70ceae069303", "type": "electric_scooter", "bike_id": "62a9d96e86f13505a65c70ceae069303", "rental_uris": {"ios": "https://dc.lft.to/lastmile_qr_scan", "android": "https://dc.lft.to/lastmile_qr_scan"}, "fusion_lat": 0.0}, {"lat": 38.90728933333333, "lon": -77.03439366666667, "is_disabled": 0, "fusion_lon": 0.0, "is_reserved": 0, "name": "5d8f55db2e4beb3fcda92967d8d62043", "type": "electric_scooter", "bike_id": "5d8f55db2e4beb3fcda92967d8d62043", "rental_uris": {"ios": "https://dc.lft.to/lastmile_qr_scan", "android": "https://dc.lft.to/lastmile_qr_scan"}, "fusion_lat": 0.0}, {"lat": 38.9433235, "lon": -77.01475333333333, "is_disabled": 0, "fusion_lon": 0.0, "is_reserved": 0, "name": "d3e7ddf32dbc1a27040cdec854b5d422", "type": "electric_scooter", "bike_id": "d3e7ddf32dbc1a27040cdec854b5d422", "rental_uris": {"ios": "https://dc.lft.to/lastmile_qr_scan", "android": "https://dc.lft.to/lastmile_qr_scan"}, "fusion_lat": 0.0}, {"lat": 38.9018235, "lon": -76.9347545, "is_disabled": 0, "fusion_lon": 0.0, "is_reserved": 0, "name": "6c6718924cb933a99c64cc7276a10368", "type": "electric_scooter", "bike_id": "6c6718924cb933a99c64cc7276a10368", "rental_uris": {"ios": "https://dc.lft.to/lastmile_qr_scan", "android": "https://dc.lft.to/lastmile_qr_scan"}, "fusion_lat": 0.0}, {"lat": 38.937174, "lon": -77.03256216666666, "is_disabled": 0, "fusion_lon": 0.0, "is_reserved": 0, "name": "35b7e2ba0559fe3a69bfa4672f1906b9", "type": "electric_scooter", "bike_id": "35b7e2ba0559fe3a69bfa4672f1906b9", "rental_uris": {"ios": "https://dc.lft.to/lastmile_qr_scan", "android": "https://dc.lft.to/lastmile_qr_scan"}, "fusion_lat": 0.0}, {"lat": 38.93489666666667, "lon": -77.07277816666667, "is_disabled": 0, "fusion_lon": 0.0, "is_reserved": 0, "name": "2a6a3288ba136543781073ded3fb590e", "type": "electric_scooter", "bike_id": "2a6a3288ba136543781073ded3fb590e", "rental_uris": {"ios": "https://dc.lft.to/lastmile_qr_scan", "android": "https://dc.lft.to/lastmile_qr_scan"}, "fusion_lat": 0.0}, {"lat": 38.961543666666664, "lon": -77.02783933333333, "is_disabled": 0, "fusion_lon": 0.0, "is_reserved": 0, "name": "636aae0bcb4b9cd6725732d2afc32567", "type": "electric_scooter", "bike_id": "636aae0bcb4b9cd6725732d2afc32567", "rental_uris": {"ios": "https://dc.lft.to/lastmile_qr_scan", "android": "https://dc.lft.to/lastmile_qr_scan"}, "fusion_lat": 0.0}, {"lat": 38.88746616666667, "lon": -77.02568133333334, "is_disabled": 0, "fusion_lon": 0.0, "is_reserved": 0, "name": "8e5821683843036fb9d544a378cb1213", "type": "electric_scooter", "bike_id": "8e5821683843036fb9d544a378cb1213", "rental_uris": {"ios": "https://dc.lft.to/lastmile_qr_scan", "android": "https://dc.lft.to/lastmile_qr_scan"}, "fusion_lat": 0.0}, {"lat": 38.94975616666667, "lon": -77.0244585, "is_disabled": 0, "fusion_lon": 0.0, "is_reserved": 0, "name": "cb979eb22d4c93a0c8a619663de7315f", "type": "electric_scooter", "bike_id": "cb979eb22d4c93a0c8a619663de7315f", "rental_uris": {"ios": "https://dc.lft.to/lastmile_qr_scan", "android": "https://dc.lft.to/lastmile_qr_scan"}, "fusion_lat": 0.0}, {"lat": 38.9082425, "lon": -76.93437283333333, "is_disabled": 0, "fusion_lon": 0.0, "is_reserved": 0, "name": "22fd2c1b5c9c067bc3fb893da9cab4b2", "type": "electric_scooter", "bike_id": "22fd2c1b5c9c067bc3fb893da9cab4b2", "rental_uris": {"ios": "https://dc.lft.to/lastmile_qr_scan", "android": "https://dc.lft.to/lastmile_qr_scan"}, "fusion_lat": 0.0}, {"lat": 38.912798333333335, "lon": -77.04508166666666, "is_disabled": 0, "fusion_lon": 0.0, "is_reserved": 0, "name": "c4f77650acc709036cf824b9a0ce104e", "type": "electric_scooter", "bike_id": "c4f77650acc709036cf824b9a0ce104e", "rental_uris": {"ios": "https://dc.lft.to/lastmile_qr_scan", "android": "https://dc.lft.to/lastmile_qr_scan"}, "fusion_lat": 0.0}, {"lat": 38.91863433333333, "lon": -76.9608885, "is_disabled": 0, "fusion_lon": 0.0, "is_reserved": 0, "name": "4dd5f87008c2d79edb2447a5244712c1", "type": "electric_bike", "bike_id": "4dd5f87008c2d79edb2447a5244712c1", "rental_uris": {"ios": "https://dc.lft.to/lastmile_qr_scan", "android": "https://dc.lft.to/lastmile_qr_scan"}, "fusion_lat": 0.0}, {"lat": 38.928794333333336, "lon": -77.04127966666667, "is_disabled": 0, "fusion_lon": 0.0, "is_reserved": 0, "name": "7a133ef0ebe9d986a6029a450241e4bb", "type": "electric_scooter", "bike_id": "7a133ef0ebe9d986a6029a450241e4bb", "rental_uris": {"ios": "https://dc.lft.to/lastmile_qr_scan", "android": "https://dc.lft.to/lastmile_qr_scan"}, "fusion_lat": 0.0}, {"lat": 38.89935166666667, "lon": -77.01282766666667, "is_disabled": 0, "fusion_lon": 0.0, "is_reserved": 0, "name": "426c4b111fd9a84db846f261cd0921b8", "type": "electric_scooter", "bike_id": "426c4b111fd9a84db846f261cd0921b8", "rental_uris": {"ios": "https://dc.lft.to/lastmile_qr_scan", "android": "https://dc.lft.to/lastmile_qr_scan"}, "fusion_lat": 0.0}, {"lat": 38.89070483333333, "lon": -76.98838116666667, "is_disabled": 0, "fusion_lon": 0.0, "is_reserved": 0, "name": "88197c0d8a7159cb813922b5e3d2042f", "type": "electric_scooter", "bike_id": "88197c0d8a7159cb813922b5e3d2042f", "rental_uris": {"ios": "https://dc.lft.to/lastmile_qr_scan", "android": "https://dc.lft.to/lastmile_qr_scan"}, "fusion_lat": 0.0}, {"lat": 38.91572166666667, "lon": -77.03199216666667, "is_disabled": 0, "fusion_lon": 0.0, "is_reserved": 0, "name": "614df6c890cac47e4d8060f9b7a26105", "type": "electric_scooter", "bike_id": "614df6c890cac47e4d8060f9b7a26105", "rental_uris": {"ios": "https://dc.lft.to/lastmile_qr_scan", "android": "https://dc.lft.to/lastmile_qr_scan"}, "fusion_lat": 0.0}, {"lat": 38.876354666666664, "lon": -77.01476, "is_disabled": 0, "fusion_lon": 0.0, "is_reserved": 0, "name": "aa4c0433af19b9249fb29161d9e1a964", "type": "electric_scooter", "bike_id": "aa4c0433af19b9249fb29161d9e1a964", "rental_uris": {"ios": "https://dc.lft.to/lastmile_qr_scan", "android": "https://dc.lft.to/lastmile_qr_scan"}, "fusion_lat": 0.0}, {"lat": 38.83629216666667, "lon": -77.06948466666667, "is_disabled": 0, "fusion_lon": 0.0, "is_reserved": 0, "name": "7c5496da5be25e489ea1b58b3910a889", "type": "electric_bike", "bike_id": "7c5496da5be25e489ea1b58b3910a889", "rental_uris": {"ios": "https://dc.lft.to/lastmile_qr_scan", "android": "https://dc.lft.to/lastmile_qr_scan"}, "fusion_lat": 0.0}, {"lat": 38.90721633333333, "lon": -77.01664033333333, "is_disabled": 0, "fusion_lon": 0.0, "is_reserved": 0, "name": "790150c863beb0bbba4cde967891b616", "type": "electric_scooter", "bike_id": "790150c863beb0bbba4cde967891b616", "rental_uris": {"ios": "https://dc.lft.to/lastmile_qr_scan", "android": "https://dc.lft.to/lastmile_qr_scan"}, "fusion_lat": 0.0}, {"lat": 38.903325333333335, "lon": -77.02449066666667, "is_disabled": 0, "fusion_lon": 0.0, "is_reserved": 0, "name": "c23d4bf2613c7cab666b45cbf606efb7", "type": "electric_scooter", "bike_id": "c23d4bf2613c7cab666b45cbf606efb7", "rental_uris": {"ios": "https://dc.lft.to/lastmile_qr_scan", "android": "https://dc.lft.to/lastmile_qr_scan"}, "fusion_lat": 0.0}, {"lat": 38.90670183333334, "lon": -77.00966216666667, "is_disabled": 0, "fusion_lon": 0.0, "is_reserved": 0, "name": "cdec07e37e89e13bdb2a6292d454b770", "type": "electric_scooter", "bike_id": "cdec07e37e89e13bdb2a6292d454b770", "rental_uris": {"ios": "https://dc.lft.to/lastmile_qr_scan", "android": "https://dc.lft.to/lastmile_qr_scan"}, "fusion_lat": 0.0}, {"lat": 38.92143266666667, "lon": -77.04360683333333, "is_disabled": 0, "fusion_lon": 0.0, "is_reserved": 0, "name": "7ab3cc2cbbffa44a82107bf069afe576", "type": "electric_scooter", "bike_id": "7ab3cc2cbbffa44a82107bf069afe576", "rental_uris": {"ios": "https://dc.lft.to/lastmile_qr_scan", "android": "https://dc.lft.to/lastmile_qr_scan"}, "fusion_lat": 0.0}, {"lat": 38.91568616666667, "lon": -77.02289483333334, "is_disabled": 0, "fusion_lon": 0.0, "is_reserved": 0, "name": "adc060ce9e9e8190a7ef32e9ed91a777", "type": "electric_scooter", "bike_id": "adc060ce9e9e8190a7ef32e9ed91a777", "rental_uris": {"ios": "https://dc.lft.to/lastmile_qr_scan", "android": "https://dc.lft.to/lastmile_qr_scan"}, "fusion_lat": 0.0}, {"lat": 38.90026116666667, "lon": -77.03737183333334, "is_disabled": 0, "fusion_lon": 0.0, "is_reserved": 0, "name": "6256be41f6816768dc14f17eb2f90772", "type": "electric_scooter", "bike_id": "6256be41f6816768dc14f17eb2f90772", "rental_uris": {"ios": "https://dc.lft.to/lastmile_qr_scan", "android": "https://dc.lft.to/lastmile_qr_scan"}, "fusion_lat": 0.0}, {"lat": 38.90418783333333, "lon": -77.025004, "is_disabled": 0, "fusion_lon": 0.0, "is_reserved": 0, "name": "daac524b72f994f9612cd8e54919a4bb", "type": "electric_scooter", "bike_id": "daac524b72f994f9612cd8e54919a4bb", "rental_uris": {"ios": "https://dc.lft.to/lastmile_qr_scan", "android": "https://dc.lft.to/lastmile_qr_scan"}, "fusion_lat": 0.0}, {"lat": 38.90969666666667, "lon": -77.01716216666667, "is_disabled": 0, "fusion_lon": 0.0, "is_reserved": 0, "name": "bd0d4bef68701fbe8dfe113b83749195", "type": "electric_scooter", "bike_id": "bd0d4bef68701fbe8dfe113b83749195", "rental_uris": {"ios": "https://dc.lft.to/lastmile_qr_scan", "android": "https://dc.lft.to/lastmile_qr_scan"}, "fusion_lat": 0.0}, {"lat": 38.88738166666667, "lon": -77.0032055, "is_disabled": 0, "fusion_lon": 0.0, "is_reserved": 0, "name": "adca90908f6729945df1127054fa51d4", "type": "electric_scooter", "bike_id": "adca90908f6729945df1127054fa51d4", "rental_uris": {"ios": "https://dc.lft.to/lastmile_qr_scan", "android": "https://dc.lft.to/lastmile_qr_scan"}, "fusion_lat": 0.0}, {"lat": 38.899918166666666, "lon": -77.02200216666667, "is_disabled": 0, "fusion_lon": 0.0, "is_reserved": 0, "name": "b29830979b9d346809ee5a75e6991062", "type": "electric_scooter", "bike_id": "b29830979b9d346809ee5a75e6991062", "rental_uris": {"ios": "https://dc.lft.to/lastmile_qr_scan", "android": "https://dc.lft.to/lastmile_qr_scan"}, "fusion_lat": 0.0}, {"lat": 38.8604265, "lon": -77.00346716666667, "is_disabled": 0, "fusion_lon": 0.0, "is_reserved": 0, "name": "cc2345a42a03015533ad0a50910de38d", "type": "electric_scooter", "bike_id": "cc2345a42a03015533ad0a50910de38d", "rental_uris": {"ios": "https://dc.lft.to/lastmile_qr_scan", "android": "https://dc.lft.to/lastmile_qr_scan"}, "fusion_lat": 0.0}, {"lat": 38.90946183333333, "lon": -77.0320595, "is_disabled": 0, "fusion_lon": 0.0, "is_reserved": 0, "name": "54b4f76cffa9757c7743b8d7fe748e21", "type": "electric_scooter", "bike_id": "54b4f76cffa9757c7743b8d7fe748e21", "rental_uris": {"ios": "https://dc.lft.to/lastmile_qr_scan", "android": "https://dc.lft.to/lastmile_qr_scan"}, "fusion_lat": 0.0}, {"lat": 38.9179835, "lon": -77.03443583333333, "is_disabled": 0, "fusion_lon": 0.0, "is_reserved": 0, "name": "f57f62a98f961e05234a0b2af326bb3a", "type": "electric_scooter", "bike_id": "f57f62a98f961e05234a0b2af326bb3a", "rental_uris": {"ios": "https://dc.lft.to/lastmile_qr_scan", "android": "https://dc.lft.to/lastmile_qr_scan"}, "fusion_lat": 0.0}, {"lat": 38.89635333333333, "lon": -77.040158, "is_disabled": 0, "fusion_lon": 0.0, "is_reserved": 0, "name": "4087601cd2103a395d6ac2b36380b097", "type": "electric_scooter", "bike_id": "4087601cd2103a395d6ac2b36380b097", "rental_uris": {"ios": "https://dc.lft.to/lastmile_qr_scan", "android": "https://dc.lft.to/lastmile_qr_scan"}, "fusion_lat": 0.0}, {"lat": 38.97502466666667, "lon": -77.0166455, "is_disabled": 0, "fusion_lon": 0.0, "is_reserved": 0, "name": "39200562553430ca9acd034929d7f72f", "type": "electric_scooter", "bike_id": "39200562553430ca9acd034929d7f72f", "rental_uris": {"ios": "https://dc.lft.to/lastmile_qr_scan", "android": "https://dc.lft.to/lastmile_qr_scan"}, "fusion_lat": 0.0}, {"lat": 38.90511166666667, "lon": -77.0483045, "is_disabled": 0, "fusion_lon": 0.0, "is_reserved": 0, "name": "e5e9e6c4eca2f81f5a24eb1513e7ad6b", "type": "electric_scooter", "bike_id": "e5e9e6c4eca2f81f5a24eb1513e7ad6b", "rental_uris": {"ios": "https://dc.lft.to/lastmile_qr_scan", "android": "https://dc.lft.to/lastmile_qr_scan"}, "fusion_lat": 0.0}, {"lat": 38.9217045, "lon": -77.018014, "is_disabled": 0, "fusion_lon": 0.0, "is_reserved": 0, "name": "9926c5663b1bf1f89b4472d304a94dea", "type": "electric_scooter", "bike_id": "9926c5663b1bf1f89b4472d304a94dea", "rental_uris": {"ios": "https://dc.lft.to/lastmile_qr_scan", "android": "https://dc.lft.to/lastmile_qr_scan"}, "fusion_lat": 0.0}, {"lat": 38.90928783333333, "lon": -77.03962416666667, "is_disabled": 0, "fusion_lon": 0.0, "is_reserved": 0, "name": "9dd3fdcfa442755a89979508783c43cf", "type": "electric_scooter", "bike_id": "9dd3fdcfa442755a89979508783c43cf", "rental_uris": {"ios": "https://dc.lft.to/lastmile_qr_scan", "android": "https://dc.lft.to/lastmile_qr_scan"}, "fusion_lat": 0.0}, {"lat": 38.927923666666665, "lon": -77.03242033333333, "is_disabled": 0, "fusion_lon": 0.0, "is_reserved": 0, "name": "d338a44209c2aecad0f429524b8855f5", "type": "electric_scooter", "bike_id": "d338a44209c2aecad0f429524b8855f5", "rental_uris": {"ios": "https://dc.lft.to/lastmile_qr_scan", "android": "https://dc.lft.to/lastmile_qr_scan"}, "fusion_lat": 0.0}, {"lat": 38.99518483333333, "lon": -76.99966266666667, "is_disabled": 0, "fusion_lon": 0.0, "is_reserved": 0, "name": "80b2ec11a9b97358f58c1fbfaff4ada7", "type": "electric_bike", "bike_id": "80b2ec11a9b97358f58c1fbfaff4ada7", "rental_uris": {"ios": "https://dc.lft.to/lastmile_qr_scan", "android": "https://dc.lft.to/lastmile_qr_scan"}, "fusion_lat": 0.0}, {"lat": 38.9252605, "lon": -77.05747366666667, "is_disabled": 0, "fusion_lon": 0.0, "is_reserved": 0, "name": "5c2ab9e9856a883f2e57b2e09b724d9d", "type": "electric_bike", "bike_id": "5c2ab9e9856a883f2e57b2e09b724d9d", "rental_uris": {"ios": "https://dc.lft.to/lastmile_qr_scan", "android": "https://dc.lft.to/lastmile_qr_scan"}, "fusion_lat": 0.0}, {"lat": 38.902553, "lon": -76.98480333333333, "is_disabled": 0, "fusion_lon": 0.0, "is_reserved": 0, "name": "5a6b447e1212170f0d3ceeed3b807439", "type": "electric_scooter", "bike_id": "5a6b447e1212170f0d3ceeed3b807439", "rental_uris": {"ios": "https://dc.lft.to/lastmile_qr_scan", "android": "https://dc.lft.to/lastmile_qr_scan"}, "fusion_lat": 0.0}, {"lat": 38.885359333333334, "lon": -76.97886733333333, "is_disabled": 0, "fusion_lon": 0.0, "is_reserved": 0, "name": "680de21025137a57fd98c10e3b8652ab", "type": "electric_scooter", "bike_id": "680de21025137a57fd98c10e3b8652ab", "rental_uris": {"ios": "https://dc.lft.to/lastmile_qr_scan", "android": "https://dc.lft.to/lastmile_qr_scan"}, "fusion_lat": 0.0}, {"lat": 38.908411666666666, "lon": -76.99757666666666, "is_disabled": 0, "fusion_lon": 0.0, "is_reserved": 0, "name": "b333314f77898895283245ec5fa2d773", "type": "electric_scooter", "bike_id": "b333314f77898895283245ec5fa2d773", "rental_uris": {"ios": "https://dc.lft.to/lastmile_qr_scan", "android": "https://dc.lft.to/lastmile_qr_scan"}, "fusion_lat": 0.0}, {"lat": 38.901855833333336, "lon": -77.03952966666667, "is_disabled": 0, "fusion_lon": 0.0, "is_reserved": 0, "name": "e8620e4ca3935be1310c79662fab8372", "type": "electric_scooter", "bike_id": "e8620e4ca3935be1310c79662fab8372", "rental_uris": {"ios": "https://dc.lft.to/lastmile_qr_scan", "android": "https://dc.lft.to/lastmile_qr_scan"}, "fusion_lat": 0.0}, {"lat": 38.92503116666666, "lon": -77.02125616666666, "is_disabled": 0, "fusion_lon": 0.0, "is_reserved": 0, "name": "30526432e332fe5a97a8b9d1bc926dd1", "type": "electric_bike", "bike_id": "30526432e332fe5a97a8b9d1bc926dd1", "rental_uris": {"ios": "https://dc.lft.to/lastmile_qr_scan", "android": "https://dc.lft.to/lastmile_qr_scan"}, "fusion_lat": 0.0}, {"lat": 38.89995783333333, "lon": -77.0220585, "is_disabled": 0, "fusion_lon": 0.0, "is_reserved": 0, "name": "803b89329d2ff69ec39b324c126f267f", "type": "electric_scooter", "bike_id": "803b89329d2ff69ec39b324c126f267f", "rental_uris": {"ios": "https://dc.lft.to/lastmile_qr_scan", "android": "https://dc.lft.to/lastmile_qr_scan"}, "fusion_lat": 0.0}, {"lat": 38.9108845, "lon": -77.04482883333333, "is_disabled": 0, "fusion_lon": 0.0, "is_reserved": 0, "name": "6133431c02a776fd34fbaa177abdf09b", "type": "electric_scooter", "bike_id": "6133431c02a776fd34fbaa177abdf09b", "rental_uris": {"ios": "https://dc.lft.to/lastmile_qr_scan", "android": "https://dc.lft.to/lastmile_qr_scan"}, "fusion_lat": 0.0}, {"lat": 38.901515, "lon": -76.930716, "is_disabled": 0, "fusion_lon": 0.0, "is_reserved": 0, "name": "7399e7a069248b73257b80a6d6948171", "type": "electric_scooter", "bike_id": "7399e7a069248b73257b80a6d6948171", "rental_uris": {"ios": "https://dc.lft.to/lastmile_qr_scan", "android": "https://dc.lft.to/lastmile_qr_scan"}, "fusion_lat": 0.0}, {"lat": 38.902028333333334, "lon": -77.02375483333333, "is_disabled": 0, "fusion_lon": 0.0, "is_reserved": 0, "name": "9a009e0da575a7ec9ac5acbd7078cfd0", "type": "electric_scooter", "bike_id": "9a009e0da575a7ec9ac5acbd7078cfd0", "rental_uris": {"ios": "https://dc.lft.to/lastmile_qr_scan", "android": "https://dc.lft.to/lastmile_qr_scan"}, "fusion_lat": 0.0}, {"lat": 38.92004166666667, "lon": -77.0177795, "is_disabled": 0, "fusion_lon": 0.0, "is_reserved": 0, "name": "80d52c79484d31e2dfd8dfe0e5e36548", "type": "electric_scooter", "bike_id": "80d52c79484d31e2dfd8dfe0e5e36548", "rental_uris": {"ios": "https://dc.lft.to/lastmile_qr_scan", "android": "https://dc.lft.to/lastmile_qr_scan"}, "fusion_lat": 0.0}, {"lat": 38.95057933333333, "lon": -77.0802665, "is_disabled": 0, "fusion_lon": 0.0, "is_reserved": 0, "name": "dc3895e965af47c0db63b51c45532734", "type": "electric_scooter", "bike_id": "dc3895e965af47c0db63b51c45532734", "rental_uris": {"ios": "https://dc.lft.to/lastmile_qr_scan", "android": "https://dc.lft.to/lastmile_qr_scan"}, "fusion_lat": 0.0}, {"lat": 38.92428233333333, "lon": -77.051764, "is_disabled": 0, "fusion_lon": 0.0, "is_reserved": 0, "name": "df749828f50e9f702e27d46e551445ab", "type": "electric_scooter", "bike_id": "df749828f50e9f702e27d46e551445ab", "rental_uris": {"ios": "https://dc.lft.to/lastmile_qr_scan", "android": "https://dc.lft.to/lastmile_qr_scan"}, "fusion_lat": 0.0}, {"lat": 38.875670666666664, "lon": -77.00588866666666, "is_disabled": 0, "fusion_lon": 0.0, "is_reserved": 0, "name": "4af3d8030dfc9b95309e78de2fdd6106", "type": "electric_scooter", "bike_id": "4af3d8030dfc9b95309e78de2fdd6106", "rental_uris": {"ios": "https://dc.lft.to/lastmile_qr_scan", "android": "https://dc.lft.to/lastmile_qr_scan"}, "fusion_lat": 0.0}, {"lat": 38.93483583333333, "lon": -77.0361065, "is_disabled": 0, "fusion_lon": 0.0, "is_reserved": 0, "name": "902ecae8c77ef21ce6472b36ebf65209", "type": "electric_scooter", "bike_id": "902ecae8c77ef21ce6472b36ebf65209", "rental_uris": {"ios": "https://dc.lft.to/lastmile_qr_scan", "android": "https://dc.lft.to/lastmile_qr_scan"}, "fusion_lat": 0.0}, {"lat": 38.920345833333336, "lon": -77.02584666666667, "is_disabled": 0, "fusion_lon": 0.0, "is_reserved": 0, "name": "1144e0184b3e487a8a6f5e865452000d", "type": "electric_scooter", "bike_id": "1144e0184b3e487a8a6f5e865452000d", "rental_uris": {"ios": "https://dc.lft.to/lastmile_qr_scan", "android": "https://dc.lft.to/lastmile_qr_scan"}, "fusion_lat": 0.0}, {"lat": 38.8808235, "lon": -76.98534483333333, "is_disabled": 0, "fusion_lon": 0.0, "is_reserved": 0, "name": "240eb842150b2480a41dce313b375f55", "type": "electric_bike", "bike_id": "240eb842150b2480a41dce313b375f55", "rental_uris": {"ios": "https://dc.lft.to/lastmile_qr_scan", "android": "https://dc.lft.to/lastmile_qr_scan"}, "fusion_lat": 0.0}, {"lat": 38.930390833333334, "lon": -77.023284, "is_disabled": 0, "fusion_lon": 0.0, "is_reserved": 0, "name": "3eb207d5bd017a13515b02d9d40e2d66", "type": "electric_scooter", "bike_id": "3eb207d5bd017a13515b02d9d40e2d66", "rental_uris": {"ios": "https://dc.lft.to/lastmile_qr_scan", "android": "https://dc.lft.to/lastmile_qr_scan"}, "fusion_lat": 0.0}, {"lat": 38.92717533333333, "lon": -77.02080416666666, "is_disabled": 0, "fusion_lon": 0.0, "is_reserved": 0, "name": "9dfd8eb4bb6b3d0c3a5a98b2ce162ce9", "type": "electric_scooter", "bike_id": "9dfd8eb4bb6b3d0c3a5a98b2ce162ce9", "rental_uris": {"ios": "https://dc.lft.to/lastmile_qr_scan", "android": "https://dc.lft.to/lastmile_qr_scan"}, "fusion_lat": 0.0}, {"lat": 38.90730966666667, "lon": -77.04151833333333, "is_disabled": 0, "fusion_lon": 0.0, "is_reserved": 0, "name": "9d86d7470e514b2275c0d2d05466bfbd", "type": "electric_scooter", "bike_id": "9d86d7470e514b2275c0d2d05466bfbd", "rental_uris": {"ios": "https://dc.lft.to/lastmile_qr_scan", "android": "https://dc.lft.to/lastmile_qr_scan"}, "fusion_lat": 0.0}, {"lat": 38.90909416666667, "lon": -77.0271575, "is_disabled": 0, "fusion_lon": 0.0, "is_reserved": 0, "name": "d695215dcfc357a2b6046497bb01ebb0", "type": "electric_scooter", "bike_id": "d695215dcfc357a2b6046497bb01ebb0", "rental_uris": {"ios": "https://dc.lft.to/lastmile_qr_scan", "android": "https://dc.lft.to/lastmile_qr_scan"}, "fusion_lat": 0.0}, {"lat": 38.9234115, "lon": -77.0517355, "is_disabled": 0, "fusion_lon": 0.0, "is_reserved": 0, "name": "4fb61e6c6100000d54ab6d63aa1d4386", "type": "electric_scooter", "bike_id": "4fb61e6c6100000d54ab6d63aa1d4386", "rental_uris": {"ios": "https://dc.lft.to/lastmile_qr_scan", "android": "https://dc.lft.to/lastmile_qr_scan"}, "fusion_lat": 0.0}, {"lat": 38.8772615, "lon": -77.01713533333333, "is_disabled": 0, "fusion_lon": 0.0, "is_reserved": 0, "name": "3866d5a12e3b3e0ac149dacad85e3a0d", "type": "electric_scooter", "bike_id": "3866d5a12e3b3e0ac149dacad85e3a0d", "rental_uris": {"ios": "https://dc.lft.to/lastmile_qr_scan", "android": "https://dc.lft.to/lastmile_qr_scan"}, "fusion_lat": 0.0}, {"lat": 38.910057333333334, "lon": -77.04911233333333, "is_disabled": 0, "fusion_lon": 0.0, "is_reserved": 0, "name": "f5d9245587959a5d0315caa398f28ddc", "type": "electric_scooter", "bike_id": "f5d9245587959a5d0315caa398f28ddc", "rental_uris": {"ios": "https://dc.lft.to/lastmile_qr_scan", "android": "https://dc.lft.to/lastmile_qr_scan"}, "fusion_lat": 0.0}, {"lat": 38.915203166666664, "lon": -77.03859233333333, "is_disabled": 0, "fusion_lon": 0.0, "is_reserved": 0, "name": "33f4e4a8bb99ff19c181f7a93d8670aa", "type": "electric_scooter", "bike_id": "33f4e4a8bb99ff19c181f7a93d8670aa", "rental_uris": {"ios": "https://dc.lft.to/lastmile_qr_scan", "android": "https://dc.lft.to/lastmile_qr_scan"}, "fusion_lat": 0.0}, {"lat": 38.90522516666667, "lon": -77.0483675, "is_disabled": 0, "fusion_lon": 0.0, "is_reserved": 0, "name": "5fa505246b4caa34f4d7d7357eb04ead", "type": "electric_scooter", "bike_id": "5fa505246b4caa34f4d7d7357eb04ead", "rental_uris": {"ios": "https://dc.lft.to/lastmile_qr_scan", "android": "https://dc.lft.to/lastmile_qr_scan"}, "fusion_lat": 0.0}, {"lat": 38.868862166666666, "lon": -76.98521366666667, "is_disabled": 0, "fusion_lon": 0.0, "is_reserved": 0, "name": "4b7ca42dce1292821ff7d83e4ed19f11", "type": "electric_bike", "bike_id": "4b7ca42dce1292821ff7d83e4ed19f11", "rental_uris": {"ios": "https://dc.lft.to/lastmile_qr_scan", "android": "https://dc.lft.to/lastmile_qr_scan"}, "fusion_lat": 0.0}, {"lat": 38.921531, "lon": -77.0335785, "is_disabled": 0, "fusion_lon": 0.0, "is_reserved": 0, "name": "e1375b980238febac54865b8366ff1a2", "type": "electric_scooter", "bike_id": "e1375b980238febac54865b8366ff1a2", "rental_uris": {"ios": "https://dc.lft.to/lastmile_qr_scan", "android": "https://dc.lft.to/lastmile_qr_scan"}, "fusion_lat": 0.0}, {"lat": 38.95008583333333, "lon": -77.08074916666666, "is_disabled": 0, "fusion_lon": 0.0, "is_reserved": 0, "name": "e031e290b8e8f0427df837cde308632f", "type": "electric_scooter", "bike_id": "e031e290b8e8f0427df837cde308632f", "rental_uris": {"ios": "https://dc.lft.to/lastmile_qr_scan", "android": "https://dc.lft.to/lastmile_qr_scan"}, "fusion_lat": 0.0}, {"lat": 39.052551333333334, "lon": -77.080654, "is_disabled": 0, "fusion_lon": 0.0, "is_reserved": 0, "name": "f0a79c743ab4057185eccbd18d67487a", "type": "electric_bike", "bike_id": "f0a79c743ab4057185eccbd18d67487a", "rental_uris": {"ios": "https://dc.lft.to/lastmile_qr_scan", "android": "https://dc.lft.to/lastmile_qr_scan"}, "fusion_lat": 0.0}, {"lat": 38.8997755, "lon": -76.9854435, "is_disabled": 0, "fusion_lon": 0.0, "is_reserved": 0, "name": "e76906243232c4d9bad67b25eb76a216", "type": "electric_scooter", "bike_id": "e76906243232c4d9bad67b25eb76a216", "rental_uris": {"ios": "https://dc.lft.to/lastmile_qr_scan", "android": "https://dc.lft.to/lastmile_qr_scan"}, "fusion_lat": 0.0}, {"lat": 38.847554, "lon": -76.9949815, "is_disabled": 0, "fusion_lon": 0.0, "is_reserved": 0, "name": "13f70eceed420dde95319f3b0e8ff109", "type": "electric_scooter", "bike_id": "13f70eceed420dde95319f3b0e8ff109", "rental_uris": {"ios": "https://dc.lft.to/lastmile_qr_scan", "android": "https://dc.lft.to/lastmile_qr_scan"}, "fusion_lat": 0.0}, {"lat": 38.88960983333333, "lon": -76.93686566666666, "is_disabled": 0, "fusion_lon": 0.0, "is_reserved": 0, "name": "823e478c4cf3c4ebb63eed8b11988613", "type": "electric_scooter", "bike_id": "823e478c4cf3c4ebb63eed8b11988613", "rental_uris": {"ios": "https://dc.lft.to/lastmile_qr_scan", "android": "https://dc.lft.to/lastmile_qr_scan"}, "fusion_lat": 0.0}, {"lat": 38.92212383333333, "lon": -77.02111166666667, "is_disabled": 0, "fusion_lon": 0.0, "is_reserved": 0, "name": "0bf2441fe2851d5bfd4497e2a4ad661a", "type": "electric_scooter", "bike_id": "0bf2441fe2851d5bfd4497e2a4ad661a", "rental_uris": {"ios": "https://dc.lft.to/lastmile_qr_scan", "android": "https://dc.lft.to/lastmile_qr_scan"}, "fusion_lat": 0.0}, {"lat": 38.903370833333334, "lon": -77.062911, "is_disabled": 0, "fusion_lon": 0.0, "is_reserved": 0, "name": "feb8261eb55ecabcfe22128326f164ad", "type": "electric_scooter", "bike_id": "feb8261eb55ecabcfe22128326f164ad", "rental_uris": {"ios": "https://dc.lft.to/lastmile_qr_scan", "android": "https://dc.lft.to/lastmile_qr_scan"}, "fusion_lat": 0.0}, {"lat": 38.964402166666666, "lon": -77.03159733333334, "is_disabled": 0, "fusion_lon": 0.0, "is_reserved": 0, "name": "bd43ced188e6090ab5a1001fc059c0b0", "type": "electric_bike", "bike_id": "bd43ced188e6090ab5a1001fc059c0b0", "rental_uris": {"ios": "https://dc.lft.to/lastmile_qr_scan", "android": "https://dc.lft.to/lastmile_qr_scan"}, "fusion_lat": 0.0}, {"lat": 38.90434833333333, "lon": -76.99828216666667, "is_disabled": 0, "fusion_lon": 0.0, "is_reserved": 0, "name": "92f5c29ad661c9354951a0de112efb80", "type": "electric_scooter", "bike_id": "92f5c29ad661c9354951a0de112efb80", "rental_uris": {"ios": "https://dc.lft.to/lastmile_qr_scan", "android": "https://dc.lft.to/lastmile_qr_scan"}, "fusion_lat": 0.0}, {"lat": 38.91569833333333, "lon": -77.01910183333334, "is_disabled": 0, "fusion_lon": 0.0, "is_reserved": 0, "name": "6ec8a3e160058445676e8a60529610d3", "type": "electric_scooter", "bike_id": "6ec8a3e160058445676e8a60529610d3", "rental_uris": {"ios": "https://dc.lft.to/lastmile_qr_scan", "android": "https://dc.lft.to/lastmile_qr_scan"}, "fusion_lat": 0.0}, {"lat": 38.91998383333333, "lon": -77.04757083333334, "is_disabled": 0, "fusion_lon": 0.0, "is_reserved": 0, "name": "09129b83331aa2584669ef7828baa8fe", "type": "electric_scooter", "bike_id": "09129b83331aa2584669ef7828baa8fe", "rental_uris": {"ios": "https://dc.lft.to/lastmile_qr_scan", "android": "https://dc.lft.to/lastmile_qr_scan"}, "fusion_lat": 0.0}, {"lat": 38.8832925, "lon": -76.9254305, "is_disabled": 0, "fusion_lon": 0.0, "is_reserved": 0, "name": "494c320b03a6070271ad1f093556af7f", "type": "electric_scooter", "bike_id": "494c320b03a6070271ad1f093556af7f", "rental_uris": {"ios": "https://dc.lft.to/lastmile_qr_scan", "android": "https://dc.lft.to/lastmile_qr_scan"}, "fusion_lat": 0.0}, {"lat": 38.90739583333333, "lon": -77.028033, "is_disabled": 0, "fusion_lon": 0.0, "is_reserved": 0, "name": "a4450d5e9b1096bf69a7dfcbbfe152b7", "type": "electric_scooter", "bike_id": "a4450d5e9b1096bf69a7dfcbbfe152b7", "rental_uris": {"ios": "https://dc.lft.to/lastmile_qr_scan", "android": "https://dc.lft.to/lastmile_qr_scan"}, "fusion_lat": 0.0}, {"lat": 38.91694916666667, "lon": -77.02441533333334, "is_disabled": 0, "fusion_lon": 0.0, "is_reserved": 0, "name": "69edbe56edf2096e178440604bad23a5", "type": "electric_scooter", "bike_id": "69edbe56edf2096e178440604bad23a5", "rental_uris": {"ios": "https://dc.lft.to/lastmile_qr_scan", "android": "https://dc.lft.to/lastmile_qr_scan"}, "fusion_lat": 0.0}, {"lat": 38.94494666666667, "lon": -77.00685616666667, "is_disabled": 0, "fusion_lon": 0.0, "is_reserved": 0, "name": "b71d98f5df2cc622bac5c2e680654229", "type": "electric_bike", "bike_id": "b71d98f5df2cc622bac5c2e680654229", "rental_uris": {"ios": "https://dc.lft.to/lastmile_qr_scan", "android": "https://dc.lft.to/lastmile_qr_scan"}, "fusion_lat": 0.0}, {"lat": 38.86380116666667, "lon": -76.9912275, "is_disabled": 0, "fusion_lon": 0.0, "is_reserved": 0, "name": "b641e4b943a1ccf5516fbc099761d008", "type": "electric_scooter", "bike_id": "b641e4b943a1ccf5516fbc099761d008", "rental_uris": {"ios": "https://dc.lft.to/lastmile_qr_scan", "android": "https://dc.lft.to/lastmile_qr_scan"}, "fusion_lat": 0.0}, {"lat": 38.90509983333333, "lon": -77.0654195, "is_disabled": 0, "fusion_lon": 0.0, "is_reserved": 0, "name": "a700cc567a1e5b02d9dbe156a586bc91", "type": "electric_scooter", "bike_id": "a700cc567a1e5b02d9dbe156a586bc91", "rental_uris": {"ios": "https://dc.lft.to/lastmile_qr_scan", "android": "https://dc.lft.to/lastmile_qr_scan"}, "fusion_lat": 0.0}, {"lat": 38.90979166666666, "lon": -77.02185066666667, "is_disabled": 0, "fusion_lon": 0.0, "is_reserved": 0, "name": "53acd0f213d617ea3f235177e11881e9", "type": "electric_scooter", "bike_id": "53acd0f213d617ea3f235177e11881e9", "rental_uris": {"ios": "https://dc.lft.to/lastmile_qr_scan", "android": "https://dc.lft.to/lastmile_qr_scan"}, "fusion_lat": 0.0}, {"lat": 38.926516666666664, "lon": -77.04139433333333, "is_disabled": 0, "fusion_lon": 0.0, "is_reserved": 0, "name": "b965c81f8c298e9764ec5a13254558b3", "type": "electric_scooter", "bike_id": "b965c81f8c298e9764ec5a13254558b3", "rental_uris": {"ios": "https://dc.lft.to/lastmile_qr_scan", "android": "https://dc.lft.to/lastmile_qr_scan"}, "fusion_lat": 0.0}, {"lat": 38.9411655, "lon": -77.00048483333333, "is_disabled": 0, "fusion_lon": 0.0, "is_reserved": 0, "name": "df2f6d74bd449c679751d8a2a9fc9cfd", "type": "electric_scooter", "bike_id": "df2f6d74bd449c679751d8a2a9fc9cfd", "rental_uris": {"ios": "https://dc.lft.to/lastmile_qr_scan", "android": "https://dc.lft.to/lastmile_qr_scan"}, "fusion_lat": 0.0}, {"lat": 38.918144, "lon": -77.03290933333334, "is_disabled": 0, "fusion_lon": 0.0, "is_reserved": 0, "name": "f15da1ec5ad717641b00caef050800b6", "type": "electric_scooter", "bike_id": "f15da1ec5ad717641b00caef050800b6", "rental_uris": {"ios": "https://dc.lft.to/lastmile_qr_scan", "android": "https://dc.lft.to/lastmile_qr_scan"}, "fusion_lat": 0.0}, {"lat": 38.93699733333333, "lon": -77.021268, "is_disabled": 0, "fusion_lon": 0.0, "is_reserved": 0, "name": "2cfaf74dc502959d80fe53982fa9f37d", "type": "electric_bike", "bike_id": "2cfaf74dc502959d80fe53982fa9f37d", "rental_uris": {"ios": "https://dc.lft.to/lastmile_qr_scan", "android": "https://dc.lft.to/lastmile_qr_scan"}, "fusion_lat": 0.0}, {"lat": 38.9077165, "lon": -76.9970645, "is_disabled": 0, "fusion_lon": 0.0, "is_reserved": 0, "name": "1d03ffcd5c83394dbf9325dd2771ea96", "type": "electric_scooter", "bike_id": "1d03ffcd5c83394dbf9325dd2771ea96", "rental_uris": {"ios": "https://dc.lft.to/lastmile_qr_scan", "android": "https://dc.lft.to/lastmile_qr_scan"}, "fusion_lat": 0.0}, {"lat": 38.918781333333335, "lon": -77.02472966666667, "is_disabled": 0, "fusion_lon": 0.0, "is_reserved": 0, "name": "43db015dfe736beec91d318a1d1c9e97", "type": "electric_scooter", "bike_id": "43db015dfe736beec91d318a1d1c9e97", "rental_uris": {"ios": "https://dc.lft.to/lastmile_qr_scan", "android": "https://dc.lft.to/lastmile_qr_scan"}, "fusion_lat": 0.0}, {"lat": 38.90626833333334, "lon": -77.02936533333333, "is_disabled": 0, "fusion_lon": 0.0, "is_reserved": 0, "name": "1679eca8409118fcceb7f7ed0416f89e", "type": "electric_scooter", "bike_id": "1679eca8409118fcceb7f7ed0416f89e", "rental_uris": {"ios": "https://dc.lft.to/lastmile_qr_scan", "android": "https://dc.lft.to/lastmile_qr_scan"}, "fusion_lat": 0.0}, {"lat": 38.88009666666667, "lon": -76.99737766666667, "is_disabled": 0, "fusion_lon": 0.0, "is_reserved": 0, "name": "b56f947277e89cc7994859e15ccb257d", "type": "electric_scooter", "bike_id": "b56f947277e89cc7994859e15ccb257d", "rental_uris": {"ios": "https://dc.lft.to/lastmile_qr_scan", "android": "https://dc.lft.to/lastmile_qr_scan"}, "fusion_lat": 0.0}, {"lat": 38.912911333333334, "lon": -77.0238355, "is_disabled": 0, "fusion_lon": 0.0, "is_reserved": 0, "name": "be75b76ab5ca02eff6986d53f0f2603e", "type": "electric_scooter", "bike_id": "be75b76ab5ca02eff6986d53f0f2603e", "rental_uris": {"ios": "https://dc.lft.to/lastmile_qr_scan", "android": "https://dc.lft.to/lastmile_qr_scan"}, "fusion_lat": 0.0}, {"lat": 38.916361, "lon": -77.0507395, "is_disabled": 0, "fusion_lon": 0.0, "is_reserved": 0, "name": "921850a7b84213b724a8e02d1935720a", "type": "electric_scooter", "bike_id": "921850a7b84213b724a8e02d1935720a", "rental_uris": {"ios": "https://dc.lft.to/lastmile_qr_scan", "android": "https://dc.lft.to/lastmile_qr_scan"}, "fusion_lat": 0.0}, {"lat": 38.9190835, "lon": -77.0237, "is_disabled": 0, "fusion_lon": 0.0, "is_reserved": 0, "name": "5453b8d49510de80e7a9d1056111d003", "type": "electric_scooter", "bike_id": "5453b8d49510de80e7a9d1056111d003", "rental_uris": {"ios": "https://dc.lft.to/lastmile_qr_scan", "android": "https://dc.lft.to/lastmile_qr_scan"}, "fusion_lat": 0.0}, {"lat": 38.900254333333336, "lon": -76.99317933333333, "is_disabled": 0, "fusion_lon": 0.0, "is_reserved": 0, "name": "bc958752657fd973b083bd8ef8b54a7d", "type": "electric_scooter", "bike_id": "bc958752657fd973b083bd8ef8b54a7d", "rental_uris": {"ios": "https://dc.lft.to/lastmile_qr_scan", "android": "https://dc.lft.to/lastmile_qr_scan"}, "fusion_lat": 0.0}, {"lat": 38.9188595, "lon": -77.03492966666667, "is_disabled": 0, "fusion_lon": 0.0, "is_reserved": 0, "name": "3178a7fa20d54ff8f8912945425ce460", "type": "electric_scooter", "bike_id": "3178a7fa20d54ff8f8912945425ce460", "rental_uris": {"ios": "https://dc.lft.to/lastmile_qr_scan", "android": "https://dc.lft.to/lastmile_qr_scan"}, "fusion_lat": 0.0}, {"lat": 38.93248483333333, "lon": -77.03848366666666, "is_disabled": 0, "fusion_lon": 0.0, "is_reserved": 0, "name": "c41fa2ce87ded2cddbef690140b20925", "type": "electric_scooter", "bike_id": "c41fa2ce87ded2cddbef690140b20925", "rental_uris": {"ios": "https://dc.lft.to/lastmile_qr_scan", "android": "https://dc.lft.to/lastmile_qr_scan"}, "fusion_lat": 0.0}, {"lat": 38.9232715, "lon": -77.026971, "is_disabled": 0, "fusion_lon": 0.0, "is_reserved": 0, "name": "69ca175bb5bfdb73c4377bbda5f2c9fb", "type": "electric_scooter", "bike_id": "69ca175bb5bfdb73c4377bbda5f2c9fb", "rental_uris": {"ios": "https://dc.lft.to/lastmile_qr_scan", "android": "https://dc.lft.to/lastmile_qr_scan"}, "fusion_lat": 0.0}, {"lat": 38.905289, "lon": -77.04840383333334, "is_disabled": 0, "fusion_lon": 0.0, "is_reserved": 0, "name": "55347365e5dcc0a2d3cc9320868c08b2", "type": "electric_scooter", "bike_id": "55347365e5dcc0a2d3cc9320868c08b2", "rental_uris": {"ios": "https://dc.lft.to/lastmile_qr_scan", "android": "https://dc.lft.to/lastmile_qr_scan"}, "fusion_lat": 0.0}, {"lat": 38.92173716666667, "lon": -77.03831683333334, "is_disabled": 0, "fusion_lon": 0.0, "is_reserved": 0, "name": "2028e1613c9a666366a6fde83709a60f", "type": "electric_scooter", "bike_id": "2028e1613c9a666366a6fde83709a60f", "rental_uris": {"ios": "https://dc.lft.to/lastmile_qr_scan", "android": "https://dc.lft.to/lastmile_qr_scan"}, "fusion_lat": 0.0}, {"lat": 38.901725666666664, "lon": -77.026066, "is_disabled": 0, "fusion_lon": 0.0, "is_reserved": 0, "name": "e5b74b16e64153d8db7cffd2ccfafec6", "type": "electric_scooter", "bike_id": "e5b74b16e64153d8db7cffd2ccfafec6", "rental_uris": {"ios": "https://dc.lft.to/lastmile_qr_scan", "android": "https://dc.lft.to/lastmile_qr_scan"}, "fusion_lat": 0.0}, {"lat": 38.906649, "lon": -77.0269585, "is_disabled": 0, "fusion_lon": 0.0, "is_reserved": 0, "name": "d9115e6906f4342a1ae6891e43947b6d", "type": "electric_scooter", "bike_id": "d9115e6906f4342a1ae6891e43947b6d", "rental_uris": {"ios": "https://dc.lft.to/lastmile_qr_scan", "android": "https://dc.lft.to/lastmile_qr_scan"}, "fusion_lat": 0.0}, {"lat": 38.889357, "lon": -77.01512716666667, "is_disabled": 0, "fusion_lon": 0.0, "is_reserved": 0, "name": "2dacaef319a1fd59c3f4121df2aced40", "type": "electric_scooter", "bike_id": "2dacaef319a1fd59c3f4121df2aced40", "rental_uris": {"ios": "https://dc.lft.to/lastmile_qr_scan", "android": "https://dc.lft.to/lastmile_qr_scan"}, "fusion_lat": 0.0}, {"lat": 38.9580385, "lon": -77.01515016666667, "is_disabled": 0, "fusion_lon": 0.0, "is_reserved": 0, "name": "7e3839c68f08f9a9c8b833e996a02281", "type": "electric_scooter", "bike_id": "7e3839c68f08f9a9c8b833e996a02281", "rental_uris": {"ios": "https://dc.lft.to/lastmile_qr_scan", "android": "https://dc.lft.to/lastmile_qr_scan"}, "fusion_lat": 0.0}, {"lat": 38.927066333333336, "lon": -77.020742, "is_disabled": 0, "fusion_lon": 0.0, "is_reserved": 0, "name": "2708a51cd4bc1a4e9843cdb4d3eb097e", "type": "electric_scooter", "bike_id": "2708a51cd4bc1a4e9843cdb4d3eb097e", "rental_uris": {"ios": "https://dc.lft.to/lastmile_qr_scan", "android": "https://dc.lft.to/lastmile_qr_scan"}, "fusion_lat": 0.0}, {"lat": 38.89353833333333, "lon": -76.9865405, "is_disabled": 0, "fusion_lon": 0.0, "is_reserved": 0, "name": "22bc92b963bc7d4a59304f46910cabee", "type": "electric_scooter", "bike_id": "22bc92b963bc7d4a59304f46910cabee", "rental_uris": {"ios": "https://dc.lft.to/lastmile_qr_scan", "android": "https://dc.lft.to/lastmile_qr_scan"}, "fusion_lat": 0.0}, {"lat": 38.90510316666666, "lon": -77.0477325, "is_disabled": 0, "fusion_lon": 0.0, "is_reserved": 0, "name": "fe3c5b00b1bf26baf024578ed41f8b99", "type": "electric_scooter", "bike_id": "fe3c5b00b1bf26baf024578ed41f8b99", "rental_uris": {"ios": "https://dc.lft.to/lastmile_qr_scan", "android": "https://dc.lft.to/lastmile_qr_scan"}, "fusion_lat": 0.0}, {"lat": 38.919647, "lon": -76.9919735, "is_disabled": 0, "fusion_lon": 0.0, "is_reserved": 0, "name": "0b1b2565d331bf051f07c24ca1fae661", "type": "electric_bike", "bike_id": "0b1b2565d331bf051f07c24ca1fae661", "rental_uris": {"ios": "https://dc.lft.to/lastmile_qr_scan", "android": "https://dc.lft.to/lastmile_qr_scan"}, "fusion_lat": 0.0}, {"lat": 38.909021833333334, "lon": -77.04408016666666, "is_disabled": 0, "fusion_lon": 0.0, "is_reserved": 0, "name": "1c301a9419bf86303b865eab982863b9", "type": "electric_scooter", "bike_id": "1c301a9419bf86303b865eab982863b9", "rental_uris": {"ios": "https://dc.lft.to/lastmile_qr_scan", "android": "https://dc.lft.to/lastmile_qr_scan"}, "fusion_lat": 0.0}, {"lat": 38.899999666666666, "lon": -76.998292, "is_disabled": 0, "fusion_lon": 0.0, "is_reserved": 0, "name": "4fda0a10c13473d47eb183bdbdc92ac2", "type": "electric_scooter", "bike_id": "4fda0a10c13473d47eb183bdbdc92ac2", "rental_uris": {"ios": "https://dc.lft.to/lastmile_qr_scan", "android": "https://dc.lft.to/lastmile_qr_scan"}, "fusion_lat": 0.0}, {"lat": 38.92471283333333, "lon": -77.02832283333333, "is_disabled": 0, "fusion_lon": 0.0, "is_reserved": 0, "name": "8334ba9200e50e8dcf8f250a6e1bf487", "type": "electric_scooter", "bike_id": "8334ba9200e50e8dcf8f250a6e1bf487", "rental_uris": {"ios": "https://dc.lft.to/lastmile_qr_scan", "android": "https://dc.lft.to/lastmile_qr_scan"}, "fusion_lat": 0.0}, {"lat": 38.88113516666667, "lon": -77.01651083333333, "is_disabled": 0, "fusion_lon": 0.0, "is_reserved": 0, "name": "e48d7b0ead936d33690375ec496cad52", "type": "electric_scooter", "bike_id": "e48d7b0ead936d33690375ec496cad52", "rental_uris": {"ios": "https://dc.lft.to/lastmile_qr_scan", "android": "https://dc.lft.to/lastmile_qr_scan"}, "fusion_lat": 0.0}, {"lat": 38.911252166666664, "lon": -77.0376245, "is_disabled": 0, "fusion_lon": 0.0, "is_reserved": 0, "name": "6f675305dab8a72ba9d28770ba2db7bd", "type": "electric_scooter", "bike_id": "6f675305dab8a72ba9d28770ba2db7bd", "rental_uris": {"ios": "https://dc.lft.to/lastmile_qr_scan", "android": "https://dc.lft.to/lastmile_qr_scan"}, "fusion_lat": 0.0}, {"lat": 38.9230125, "lon": -77.023273, "is_disabled": 0, "fusion_lon": 0.0, "is_reserved": 0, "name": "733cdfa7ba63296eeccea026ba039e41", "type": "electric_scooter", "bike_id": "733cdfa7ba63296eeccea026ba039e41", "rental_uris": {"ios": "https://dc.lft.to/lastmile_qr_scan", "android": "https://dc.lft.to/lastmile_qr_scan"}, "fusion_lat": 0.0}, {"lat": 38.90258516666667, "lon": -77.03450483333333, "is_disabled": 0, "fusion_lon": 0.0, "is_reserved": 0, "name": "e576c638e3d3124fd24fa4be802deafe", "type": "electric_scooter", "bike_id": "e576c638e3d3124fd24fa4be802deafe", "rental_uris": {"ios": "https://dc.lft.to/lastmile_qr_scan", "android": "https://dc.lft.to/lastmile_qr_scan"}, "fusion_lat": 0.0}, {"lat": 38.92681066666667, "lon": -77.022676, "is_disabled": 0, "fusion_lon": 0.0, "is_reserved": 0, "name": "81d2569d2f9af6dba0158ff4443088ea", "type": "electric_scooter", "bike_id": "81d2569d2f9af6dba0158ff4443088ea", "rental_uris": {"ios": "https://dc.lft.to/lastmile_qr_scan", "android": "https://dc.lft.to/lastmile_qr_scan"}, "fusion_lat": 0.0}, {"lat": 38.90820083333333, "lon": -77.03448483333334, "is_disabled": 0, "fusion_lon": 0.0, "is_reserved": 0, "name": "05c75f8e68c4b305b857bd2b5b2ef6e6", "type": "electric_scooter", "bike_id": "05c75f8e68c4b305b857bd2b5b2ef6e6", "rental_uris": {"ios": "https://dc.lft.to/lastmile_qr_scan", "android": "https://dc.lft.to/lastmile_qr_scan"}, "fusion_lat": 0.0}, {"lat": 38.91940133333333, "lon": -77.03208833333333, "is_disabled": 0, "fusion_lon": 0.0, "is_reserved": 0, "name": "9e24a21da7f2cbb03b5256a543676824", "type": "electric_scooter", "bike_id": "9e24a21da7f2cbb03b5256a543676824", "rental_uris": {"ios": "https://dc.lft.to/lastmile_qr_scan", "android": "https://dc.lft.to/lastmile_qr_scan"}, "fusion_lat": 0.0}, {"lat": 38.900261, "lon": -76.9740215, "is_disabled": 0, "fusion_lon": 0.0, "is_reserved": 0, "name": "b45629263e0fab21056120f7be535b16", "type": "electric_scooter", "bike_id": "b45629263e0fab21056120f7be535b16", "rental_uris": {"ios": "https://dc.lft.to/lastmile_qr_scan", "android": "https://dc.lft.to/lastmile_qr_scan"}, "fusion_lat": 0.0}, {"lat": 38.91787383333333, "lon": -77.02299533333333, "is_disabled": 0, "fusion_lon": 0.0, "is_reserved": 0, "name": "0a926c0086b8db7abaf5744680aadbfc", "type": "electric_scooter", "bike_id": "0a926c0086b8db7abaf5744680aadbfc", "rental_uris": {"ios": "https://dc.lft.to/lastmile_qr_scan", "android": "https://dc.lft.to/lastmile_qr_scan"}, "fusion_lat": 0.0}, {"lat": 38.897446333333335, "lon": -77.02570233333333, "is_disabled": 0, "fusion_lon": 0.0, "is_reserved": 0, "name": "67d2916d78db5740169f06037565384a", "type": "electric_scooter", "bike_id": "67d2916d78db5740169f06037565384a", "rental_uris": {"ios": "https://dc.lft.to/lastmile_qr_scan", "android": "https://dc.lft.to/lastmile_qr_scan"}, "fusion_lat": 0.0}, {"lat": 38.903866, "lon": -77.0291195, "is_disabled": 0, "fusion_lon": 0.0, "is_reserved": 0, "name": "66ae69f57114d93bfd14188a32296d94", "type": "electric_scooter", "bike_id": "66ae69f57114d93bfd14188a32296d94", "rental_uris": {"ios": "https://dc.lft.to/lastmile_qr_scan", "android": "https://dc.lft.to/lastmile_qr_scan"}, "fusion_lat": 0.0}, {"lat": 38.9230545, "lon": -77.04275416666667, "is_disabled": 0, "fusion_lon": 0.0, "is_reserved": 0, "name": "e8f0e0c46ea5d0169502527c5f150aff", "type": "electric_scooter", "bike_id": "e8f0e0c46ea5d0169502527c5f150aff", "rental_uris": {"ios": "https://dc.lft.to/lastmile_qr_scan", "android": "https://dc.lft.to/lastmile_qr_scan"}, "fusion_lat": 0.0}, {"lat": 38.90581016666667, "lon": -77.00321083333333, "is_disabled": 0, "fusion_lon": 0.0, "is_reserved": 0, "name": "d0370baaadef3164643123bd971d6567", "type": "electric_scooter", "bike_id": "d0370baaadef3164643123bd971d6567", "rental_uris": {"ios": "https://dc.lft.to/lastmile_qr_scan", "android": "https://dc.lft.to/lastmile_qr_scan"}, "fusion_lat": 0.0}, {"lat": 38.925908166666666, "lon": -77.0296085, "is_disabled": 0, "fusion_lon": 0.0, "is_reserved": 0, "name": "038f7469023c0dbc9bee92abd000198b", "type": "electric_scooter", "bike_id": "038f7469023c0dbc9bee92abd000198b", "rental_uris": {"ios": "https://dc.lft.to/lastmile_qr_scan", "android": "https://dc.lft.to/lastmile_qr_scan"}, "fusion_lat": 0.0}, {"lat": 38.88746366666667, "lon": -77.02567583333334, "is_disabled": 0, "fusion_lon": 0.0, "is_reserved": 0, "name": "574a39019ae673b58c19f68ca5f06b22", "type": "electric_scooter", "bike_id": "574a39019ae673b58c19f68ca5f06b22", "rental_uris": {"ios": "https://dc.lft.to/lastmile_qr_scan", "android": "https://dc.lft.to/lastmile_qr_scan"}, "fusion_lat": 0.0}, {"lat": 38.9232265, "lon": -77.04029666666666, "is_disabled": 0, "fusion_lon": 0.0, "is_reserved": 0, "name": "555d4629034c94ccea6d404f0c8170d5", "type": "electric_scooter", "bike_id": "555d4629034c94ccea6d404f0c8170d5", "rental_uris": {"ios": "https://dc.lft.to/lastmile_qr_scan", "android": "https://dc.lft.to/lastmile_qr_scan"}, "fusion_lat": 0.0}, {"lat": 38.94833966666667, "lon": -77.09999066666667, "is_disabled": 0, "fusion_lon": 0.0, "is_reserved": 0, "name": "49d523cb5fbeb09a6055bf3d1ba0c8ec", "type": "electric_scooter", "bike_id": "49d523cb5fbeb09a6055bf3d1ba0c8ec", "rental_uris": {"ios": "https://dc.lft.to/lastmile_qr_scan", "android": "https://dc.lft.to/lastmile_qr_scan"}, "fusion_lat": 0.0}, {"lat": 38.933587333333335, "lon": -77.07342766666666, "is_disabled": 0, "fusion_lon": 0.0, "is_reserved": 0, "name": "ab70149ff4a39bc87fcac6c358be410f", "type": "electric_scooter", "bike_id": "ab70149ff4a39bc87fcac6c358be410f", "rental_uris": {"ios": "https://dc.lft.to/lastmile_qr_scan", "android": "https://dc.lft.to/lastmile_qr_scan"}, "fusion_lat": 0.0}, {"lat": 38.91403733333333, "lon": -77.0298385, "is_disabled": 0, "fusion_lon": 0.0, "is_reserved": 0, "name": "ce5b060efca2634c7d4f2257f8aa0dbe", "type": "electric_scooter", "bike_id": "ce5b060efca2634c7d4f2257f8aa0dbe", "rental_uris": {"ios": "https://dc.lft.to/lastmile_qr_scan", "android": "https://dc.lft.to/lastmile_qr_scan"}, "fusion_lat": 0.0}, {"lat": 38.898760833333334, "lon": -76.93181183333333, "is_disabled": 0, "fusion_lon": 0.0, "is_reserved": 0, "name": "abbbbec62f10a6d0abfa2544f8a77d18", "type": "electric_scooter", "bike_id": "abbbbec62f10a6d0abfa2544f8a77d18", "rental_uris": {"ios": "https://dc.lft.to/lastmile_qr_scan", "android": "https://dc.lft.to/lastmile_qr_scan"}, "fusion_lat": 0.0}, {"lat": 38.90571333333333, "lon": -76.97625966666666, "is_disabled": 0, "fusion_lon": 0.0, "is_reserved": 0, "name": "c6b5cf9d6290ad6aaf3dc8bd35ec4c41", "type": "electric_scooter", "bike_id": "c6b5cf9d6290ad6aaf3dc8bd35ec4c41", "rental_uris": {"ios": "https://dc.lft.to/lastmile_qr_scan", "android": "https://dc.lft.to/lastmile_qr_scan"}, "fusion_lat": 0.0}, {"lat": 38.92698766666667, "lon": -77.03778, "is_disabled": 0, "fusion_lon": 0.0, "is_reserved": 0, "name": "b379a3e3c0af4925b49cd234f1e65e92", "type": "electric_scooter", "bike_id": "b379a3e3c0af4925b49cd234f1e65e92", "rental_uris": {"ios": "https://dc.lft.to/lastmile_qr_scan", "android": "https://dc.lft.to/lastmile_qr_scan"}, "fusion_lat": 0.0}, {"lat": 38.9191685, "lon": -77.001526, "is_disabled": 0, "fusion_lon": 0.0, "is_reserved": 0, "name": "8bd93430bdb832deee0df96c68e19e33", "type": "electric_scooter", "bike_id": "8bd93430bdb832deee0df96c68e19e33", "rental_uris": {"ios": "https://dc.lft.to/lastmile_qr_scan", "android": "https://dc.lft.to/lastmile_qr_scan"}, "fusion_lat": 0.0}, {"lat": 38.9030405, "lon": -77.05813566666667, "is_disabled": 0, "fusion_lon": 0.0, "is_reserved": 0, "name": "3d970f5784742a8b16f7ffd0de4d7939", "type": "electric_scooter", "bike_id": "3d970f5784742a8b16f7ffd0de4d7939", "rental_uris": {"ios": "https://dc.lft.to/lastmile_qr_scan", "android": "https://dc.lft.to/lastmile_qr_scan"}, "fusion_lat": 0.0}, {"lat": 38.98481266666667, "lon": -77.02634816666666, "is_disabled": 0, "fusion_lon": 0.0, "is_reserved": 0, "name": "1d6a9a9b9c0667cff7db2c3de9723f80", "type": "electric_scooter", "bike_id": "1d6a9a9b9c0667cff7db2c3de9723f80", "rental_uris": {"ios": "https://dc.lft.to/lastmile_qr_scan", "android": "https://dc.lft.to/lastmile_qr_scan"}, "fusion_lat": 0.0}, {"lat": 38.91580233333333, "lon": -77.012369, "is_disabled": 0, "fusion_lon": 0.0, "is_reserved": 0, "name": "8d0efd8b7c34a081d1721bfa80be0d5e", "type": "electric_scooter", "bike_id": "8d0efd8b7c34a081d1721bfa80be0d5e", "rental_uris": {"ios": "https://dc.lft.to/lastmile_qr_scan", "android": "https://dc.lft.to/lastmile_qr_scan"}, "fusion_lat": 0.0}, {"lat": 38.8980205, "lon": -77.0190135, "is_disabled": 0, "fusion_lon": 0.0, "is_reserved": 0, "name": "da95429c09a37e1ebe7aaada4df9414d", "type": "electric_scooter", "bike_id": "da95429c09a37e1ebe7aaada4df9414d", "rental_uris": {"ios": "https://dc.lft.to/lastmile_qr_scan", "android": "https://dc.lft.to/lastmile_qr_scan"}, "fusion_lat": 0.0}, {"lat": 38.8358115, "lon": -76.99012766666667, "is_disabled": 0, "fusion_lon": 0.0, "is_reserved": 0, "name": "3182f02098ff2dd91e15189e5aa73262", "type": "electric_bike", "bike_id": "3182f02098ff2dd91e15189e5aa73262", "rental_uris": {"ios": "https://dc.lft.to/lastmile_qr_scan", "android": "https://dc.lft.to/lastmile_qr_scan"}, "fusion_lat": 0.0}, {"lat": 38.91364566666667, "lon": -77.02053416666666, "is_disabled": 0, "fusion_lon": 0.0, "is_reserved": 0, "name": "1e4d1e8d4b16612030389f6ed25bbbf0", "type": "electric_scooter", "bike_id": "1e4d1e8d4b16612030389f6ed25bbbf0", "rental_uris": {"ios": "https://dc.lft.to/lastmile_qr_scan", "android": "https://dc.lft.to/lastmile_qr_scan"}, "fusion_lat": 0.0}, {"lat": 38.9273985, "lon": -76.99562983333334, "is_disabled": 0, "fusion_lon": 0.0, "is_reserved": 0, "name": "468d9bc5bbb4c74263f9894e84321466", "type": "electric_scooter", "bike_id": "468d9bc5bbb4c74263f9894e84321466", "rental_uris": {"ios": "https://dc.lft.to/lastmile_qr_scan", "android": "https://dc.lft.to/lastmile_qr_scan"}, "fusion_lat": 0.0}, {"lat": 38.9035995, "lon": -77.03979133333333, "is_disabled": 0, "fusion_lon": 0.0, "is_reserved": 0, "name": "8d46e84fc3f968f4b1377f5eb300d964", "type": "electric_scooter", "bike_id": "8d46e84fc3f968f4b1377f5eb300d964", "rental_uris": {"ios": "https://dc.lft.to/lastmile_qr_scan", "android": "https://dc.lft.to/lastmile_qr_scan"}, "fusion_lat": 0.0}, {"lat": 38.91795233333333, "lon": -77.044244, "is_disabled": 0, "fusion_lon": 0.0, "is_reserved": 0, "name": "b3b0692a20d8959c146b236c9eb86976", "type": "electric_scooter", "bike_id": "b3b0692a20d8959c146b236c9eb86976", "rental_uris": {"ios": "https://dc.lft.to/lastmile_qr_scan", "android": "https://dc.lft.to/lastmile_qr_scan"}, "fusion_lat": 0.0}, {"lat": 38.89904383333333, "lon": -76.9849355, "is_disabled": 0, "fusion_lon": 0.0, "is_reserved": 0, "name": "ca2fcb3786366bd1d3c37f2471948c05", "type": "electric_scooter", "bike_id": "ca2fcb3786366bd1d3c37f2471948c05", "rental_uris": {"ios": "https://dc.lft.to/lastmile_qr_scan", "android": "https://dc.lft.to/lastmile_qr_scan"}, "fusion_lat": 0.0}, {"lat": 38.90569166666667, "lon": -77.00882016666667, "is_disabled": 0, "fusion_lon": 0.0, "is_reserved": 0, "name": "3311ffeb3ac3afff56ad12dc906e8dce", "type": "electric_scooter", "bike_id": "3311ffeb3ac3afff56ad12dc906e8dce", "rental_uris": {"ios": "https://dc.lft.to/lastmile_qr_scan", "android": "https://dc.lft.to/lastmile_qr_scan"}, "fusion_lat": 0.0}, {"lat": 38.892494666666664, "lon": -76.98840416666667, "is_disabled": 0, "fusion_lon": 0.0, "is_reserved": 0, "name": "5c75e2cddfb870bf4b493fdcc5f5d8b4", "type": "electric_scooter", "bike_id": "5c75e2cddfb870bf4b493fdcc5f5d8b4", "rental_uris": {"ios": "https://dc.lft.to/lastmile_qr_scan", "android": "https://dc.lft.to/lastmile_qr_scan"}, "fusion_lat": 0.0}, {"lat": 39.0048185, "lon": -77.02187533333333, "is_disabled": 0, "fusion_lon": 0.0, "is_reserved": 0, "name": "0780672a0c2c13be49c5219afcb6bd8c", "type": "electric_bike", "bike_id": "0780672a0c2c13be49c5219afcb6bd8c", "rental_uris": {"ios": "https://dc.lft.to/lastmile_qr_scan", "android": "https://dc.lft.to/lastmile_qr_scan"}, "fusion_lat": 0.0}, {"lat": 38.901581, "lon": -77.01591616666667, "is_disabled": 0, "fusion_lon": 0.0, "is_reserved": 0, "name": "90fa201e30c674f59753c9bbc8cb62b5", "type": "electric_scooter", "bike_id": "90fa201e30c674f59753c9bbc8cb62b5", "rental_uris": {"ios": "https://dc.lft.to/lastmile_qr_scan", "android": "https://dc.lft.to/lastmile_qr_scan"}, "fusion_lat": 0.0}, {"lat": 38.870989333333334, "lon": -76.94205766666667, "is_disabled": 0, "fusion_lon": 0.0, "is_reserved": 0, "name": "aa6baba39dc9b7557ab3ac3969e43fa0", "type": "electric_scooter", "bike_id": "aa6baba39dc9b7557ab3ac3969e43fa0", "rental_uris": {"ios": "https://dc.lft.to/lastmile_qr_scan", "android": "https://dc.lft.to/lastmile_qr_scan"}, "fusion_lat": 0.0}, {"lat": 38.88401133333333, "lon": -76.9605555, "is_disabled": 0, "fusion_lon": 0.0, "is_reserved": 0, "name": "343fd586904a742c365acfac7fcfebd5", "type": "electric_bike", "bike_id": "343fd586904a742c365acfac7fcfebd5", "rental_uris": {"ios": "https://dc.lft.to/lastmile_qr_scan", "android": "https://dc.lft.to/lastmile_qr_scan"}, "fusion_lat": 0.0}, {"lat": 38.8863145, "lon": -76.925886, "is_disabled": 0, "fusion_lon": 0.0, "is_reserved": 0, "name": "c287c0a9e5168ff90ac287976044c4ee", "type": "electric_scooter", "bike_id": "c287c0a9e5168ff90ac287976044c4ee", "rental_uris": {"ios": "https://dc.lft.to/lastmile_qr_scan", "android": "https://dc.lft.to/lastmile_qr_scan"}, "fusion_lat": 0.0}, {"lat": 38.87868533333334, "lon": -76.96259966666666, "is_disabled": 0, "fusion_lon": 0.0, "is_reserved": 0, "name": "2691b802985fcf52f55ae67b1b80d605", "type": "electric_scooter", "bike_id": "2691b802985fcf52f55ae67b1b80d605", "rental_uris": {"ios": "https://dc.lft.to/lastmile_qr_scan", "android": "https://dc.lft.to/lastmile_qr_scan"}, "fusion_lat": 0.0}, {"lat": 38.899271166666665, "lon": -77.05001016666667, "is_disabled": 0, "fusion_lon": 0.0, "is_reserved": 0, "name": "9fed9adc68059eaeac90cfcbffa9de66", "type": "electric_scooter", "bike_id": "9fed9adc68059eaeac90cfcbffa9de66", "rental_uris": {"ios": "https://dc.lft.to/lastmile_qr_scan", "android": "https://dc.lft.to/lastmile_qr_scan"}, "fusion_lat": 0.0}, {"lat": 38.916224, "lon": -77.0239145, "is_disabled": 0, "fusion_lon": 0.0, "is_reserved": 0, "name": "006ddf2eacf196d2c1a279625aa6fc6a", "type": "electric_scooter", "bike_id": "006ddf2eacf196d2c1a279625aa6fc6a", "rental_uris": {"ios": "https://dc.lft.to/lastmile_qr_scan", "android": "https://dc.lft.to/lastmile_qr_scan"}, "fusion_lat": 0.0}, {"lat": 38.902667, "lon": -77.0033245, "is_disabled": 0, "fusion_lon": 0.0, "is_reserved": 0, "name": "06484002f4ed47ff7460af6bd0e1c838", "type": "electric_scooter", "bike_id": "06484002f4ed47ff7460af6bd0e1c838", "rental_uris": {"ios": "https://dc.lft.to/lastmile_qr_scan", "android": "https://dc.lft.to/lastmile_qr_scan"}, "fusion_lat": 0.0}, {"lat": 38.91281983333333, "lon": -77.04509083333333, "is_disabled": 0, "fusion_lon": 0.0, "is_reserved": 0, "name": "c64fdd5b201d701b1d075605900243b9", "type": "electric_scooter", "bike_id": "c64fdd5b201d701b1d075605900243b9", "rental_uris": {"ios": "https://dc.lft.to/lastmile_qr_scan", "android": "https://dc.lft.to/lastmile_qr_scan"}, "fusion_lat": 0.0}, {"lat": 38.88717333333334, "lon": -77.02828566666666, "is_disabled": 0, "fusion_lon": 0.0, "is_reserved": 0, "name": "7019b7983120f2b99fff64550a731192", "type": "electric_scooter", "bike_id": "7019b7983120f2b99fff64550a731192", "rental_uris": {"ios": "https://dc.lft.to/lastmile_qr_scan", "android": "https://dc.lft.to/lastmile_qr_scan"}, "fusion_lat": 0.0}, {"lat": 38.905309833333334, "lon": -77.0411995, "is_disabled": 0, "fusion_lon": 0.0, "is_reserved": 0, "name": "9a8f456a7ae661f033ff242accdff01e", "type": "electric_scooter", "bike_id": "9a8f456a7ae661f033ff242accdff01e", "rental_uris": {"ios": "https://dc.lft.to/lastmile_qr_scan", "android": "https://dc.lft.to/lastmile_qr_scan"}, "fusion_lat": 0.0}, {"lat": 38.91118433333333, "lon": -77.04220283333333, "is_disabled": 0, "fusion_lon": 0.0, "is_reserved": 0, "name": "30c3109e95d61af666f4d63048029a8e", "type": "electric_scooter", "bike_id": "30c3109e95d61af666f4d63048029a8e", "rental_uris": {"ios": "https://dc.lft.to/lastmile_qr_scan", "android": "https://dc.lft.to/lastmile_qr_scan"}, "fusion_lat": 0.0}, {"lat": 38.8785885, "lon": -77.01775283333333, "is_disabled": 0, "fusion_lon": 0.0, "is_reserved": 0, "name": "f837f4ddf2325ae6c4ced12f39f027ad", "type": "electric_scooter", "bike_id": "f837f4ddf2325ae6c4ced12f39f027ad", "rental_uris": {"ios": "https://dc.lft.to/lastmile_qr_scan", "android": "https://dc.lft.to/lastmile_qr_scan"}, "fusion_lat": 0.0}, {"lat": 38.9035735, "lon": -77.017173, "is_disabled": 0, "fusion_lon": 0.0, "is_reserved": 0, "name": "b488a0bdf3185e466323ec4507654e94", "type": "electric_scooter", "bike_id": "b488a0bdf3185e466323ec4507654e94", "rental_uris": {"ios": "https://dc.lft.to/lastmile_qr_scan", "android": "https://dc.lft.to/lastmile_qr_scan"}, "fusion_lat": 0.0}, {"lat": 38.95774133333333, "lon": -77.01500733333333, "is_disabled": 0, "fusion_lon": 0.0, "is_reserved": 0, "name": "a84b976fd2a1fa5571d51b11533f8c46", "type": "electric_scooter", "bike_id": "a84b976fd2a1fa5571d51b11533f8c46", "rental_uris": {"ios": "https://dc.lft.to/lastmile_qr_scan", "android": "https://dc.lft.to/lastmile_qr_scan"}, "fusion_lat": 0.0}, {"lat": 38.898226333333334, "lon": -77.00607283333333, "is_disabled": 0, "fusion_lon": 0.0, "is_reserved": 0, "name": "3a27d62c1ebba7da98dea6a360ba7f61", "type": "electric_bike", "bike_id": "3a27d62c1ebba7da98dea6a360ba7f61", "rental_uris": {"ios": "https://dc.lft.to/lastmile_qr_scan", "android": "https://dc.lft.to/lastmile_qr_scan"}, "fusion_lat": 0.0}, {"lat": 38.90028566666667, "lon": -77.002192, "is_disabled": 0, "fusion_lon": 0.0, "is_reserved": 0, "name": "4f8a40c421aa86d0771dc25f41b811d7", "type": "electric_scooter", "bike_id": "4f8a40c421aa86d0771dc25f41b811d7", "rental_uris": {"ios": "https://dc.lft.to/lastmile_qr_scan", "android": "https://dc.lft.to/lastmile_qr_scan"}, "fusion_lat": 0.0}, {"lat": 38.931991833333335, "lon": -77.02818516666666, "is_disabled": 0, "fusion_lon": 0.0, "is_reserved": 0, "name": "e08fe500f1117dfda552da97b3ebde24", "type": "electric_scooter", "bike_id": "e08fe500f1117dfda552da97b3ebde24", "rental_uris": {"ios": "https://dc.lft.to/lastmile_qr_scan", "android": "https://dc.lft.to/lastmile_qr_scan"}, "fusion_lat": 0.0}, {"lat": 38.92338933333333, "lon": -77.00916566666666, "is_disabled": 0, "fusion_lon": 0.0, "is_reserved": 0, "name": "ad839f83a71d52fae881653a0da10097", "type": "electric_scooter", "bike_id": "ad839f83a71d52fae881653a0da10097", "rental_uris": {"ios": "https://dc.lft.to/lastmile_qr_scan", "android": "https://dc.lft.to/lastmile_qr_scan"}, "fusion_lat": 0.0}, {"lat": 38.873957, "lon": -77.00031183333333, "is_disabled": 0, "fusion_lon": 0.0, "is_reserved": 0, "name": "d37a87b29859536a98a6b8045b914f8e", "type": "electric_scooter", "bike_id": "d37a87b29859536a98a6b8045b914f8e", "rental_uris": {"ios": "https://dc.lft.to/lastmile_qr_scan", "android": "https://dc.lft.to/lastmile_qr_scan"}, "fusion_lat": 0.0}, {"lat": 38.91763, "lon": -77.03194116666667, "is_disabled": 0, "fusion_lon": 0.0, "is_reserved": 0, "name": "bd5710ade03d639336f59deb17fea2e5", "type": "electric_scooter", "bike_id": "bd5710ade03d639336f59deb17fea2e5", "rental_uris": {"ios": "https://dc.lft.to/lastmile_qr_scan", "android": "https://dc.lft.to/lastmile_qr_scan"}, "fusion_lat": 0.0}, {"lat": 38.92500883333334, "lon": -77.02450933333333, "is_disabled": 0, "fusion_lon": 0.0, "is_reserved": 0, "name": "45ea7725e1c0b9b4304f1bcc7d9d57d7", "type": "electric_scooter", "bike_id": "45ea7725e1c0b9b4304f1bcc7d9d57d7", "rental_uris": {"ios": "https://dc.lft.to/lastmile_qr_scan", "android": "https://dc.lft.to/lastmile_qr_scan"}, "fusion_lat": 0.0}, {"lat": 38.92258783333333, "lon": -77.03522183333334, "is_disabled": 0, "fusion_lon": 0.0, "is_reserved": 0, "name": "ccb03e5e7a76df5d2950fa9e98de3e58", "type": "electric_scooter", "bike_id": "ccb03e5e7a76df5d2950fa9e98de3e58", "rental_uris": {"ios": "https://dc.lft.to/lastmile_qr_scan", "android": "https://dc.lft.to/lastmile_qr_scan"}, "fusion_lat": 0.0}, {"lat": 38.903111, "lon": -77.06131016666667, "is_disabled": 0, "fusion_lon": 0.0, "is_reserved": 0, "name": "9c775c8420f37246e9e5c05dfe0de342", "type": "electric_scooter", "bike_id": "9c775c8420f37246e9e5c05dfe0de342", "rental_uris": {"ios": "https://dc.lft.to/lastmile_qr_scan", "android": "https://dc.lft.to/lastmile_qr_scan"}, "fusion_lat": 0.0}, {"lat": 38.899828166666666, "lon": -77.02703566666666, "is_disabled": 0, "fusion_lon": 0.0, "is_reserved": 0, "name": "ed24fcac7ddec225df773fff984ad2ee", "type": "electric_scooter", "bike_id": "ed24fcac7ddec225df773fff984ad2ee", "rental_uris": {"ios": "https://dc.lft.to/lastmile_qr_scan", "android": "https://dc.lft.to/lastmile_qr_scan"}, "fusion_lat": 0.0}, {"lat": 38.91978366666667, "lon": -77.04172416666667, "is_disabled": 0, "fusion_lon": 0.0, "is_reserved": 0, "name": "79cddb193311f7c02b470290c6a678b5", "type": "electric_scooter", "bike_id": "79cddb193311f7c02b470290c6a678b5", "rental_uris": {"ios": "https://dc.lft.to/lastmile_qr_scan", "android": "https://dc.lft.to/lastmile_qr_scan"}, "fusion_lat": 0.0}, {"lat": 38.9174445, "lon": -77.06938616666666, "is_disabled": 0, "fusion_lon": 0.0, "is_reserved": 0, "name": "3b125465a218b3b2f050d33d88187239", "type": "electric_scooter", "bike_id": "3b125465a218b3b2f050d33d88187239", "rental_uris": {"ios": "https://dc.lft.to/lastmile_qr_scan", "android": "https://dc.lft.to/lastmile_qr_scan"}, "fusion_lat": 0.0}, {"lat": 38.878459, "lon": -77.00549816666667, "is_disabled": 0, "fusion_lon": 0.0, "is_reserved": 0, "name": "dd41aaad73aca167f452d92fe712578e", "type": "electric_scooter", "bike_id": "dd41aaad73aca167f452d92fe712578e", "rental_uris": {"ios": "https://dc.lft.to/lastmile_qr_scan", "android": "https://dc.lft.to/lastmile_qr_scan"}, "fusion_lat": 0.0}, {"lat": 38.9395095, "lon": -77.02180216666666, "is_disabled": 0, "fusion_lon": 0.0, "is_reserved": 0, "name": "2422b56dd0d296cf5b2022bf05ee64e5", "type": "electric_scooter", "bike_id": "2422b56dd0d296cf5b2022bf05ee64e5", "rental_uris": {"ios": "https://dc.lft.to/lastmile_qr_scan", "android": "https://dc.lft.to/lastmile_qr_scan"}, "fusion_lat": 0.0}, {"lat": 38.80676916666667, "lon": -77.0691645, "is_disabled": 0, "fusion_lon": 0.0, "is_reserved": 0, "name": "90e60e2ce98f5bb94ab842a537496ca0", "type": "electric_bike", "bike_id": "90e60e2ce98f5bb94ab842a537496ca0", "rental_uris": {"ios": "https://dc.lft.to/lastmile_qr_scan", "android": "https://dc.lft.to/lastmile_qr_scan"}, "fusion_lat": 0.0}, {"lat": 38.928391833333336, "lon": -77.00606316666666, "is_disabled": 0, "fusion_lon": 0.0, "is_reserved": 0, "name": "70df106cbd43000103454087651fe15d", "type": "electric_scooter", "bike_id": "70df106cbd43000103454087651fe15d", "rental_uris": {"ios": "https://dc.lft.to/lastmile_qr_scan", "android": "https://dc.lft.to/lastmile_qr_scan"}, "fusion_lat": 0.0}, {"lat": 38.902635333333336, "lon": -77.0628095, "is_disabled": 0, "fusion_lon": 0.0, "is_reserved": 0, "name": "940cc5101048b05b907f33fd183ca1fb", "type": "electric_scooter", "bike_id": "940cc5101048b05b907f33fd183ca1fb", "rental_uris": {"ios": "https://dc.lft.to/lastmile_qr_scan", "android": "https://dc.lft.to/lastmile_qr_scan"}, "fusion_lat": 0.0}, {"lat": 38.927974166666665, "lon": -77.02735333333334, "is_disabled": 0, "fusion_lon": 0.0, "is_reserved": 0, "name": "160a9ac3f1e48b41ce50b88fffeaa7da", "type": "electric_scooter", "bike_id": "160a9ac3f1e48b41ce50b88fffeaa7da", "rental_uris": {"ios": "https://dc.lft.to/lastmile_qr_scan", "android": "https://dc.lft.to/lastmile_qr_scan"}, "fusion_lat": 0.0}, {"lat": 38.91723133333333, "lon": -77.03662216666666, "is_disabled": 0, "fusion_lon": 0.0, "is_reserved": 0, "name": "82910477fd729bc75f4d83a170fbd45e", "type": "electric_scooter", "bike_id": "82910477fd729bc75f4d83a170fbd45e", "rental_uris": {"ios": "https://dc.lft.to/lastmile_qr_scan", "android": "https://dc.lft.to/lastmile_qr_scan"}, "fusion_lat": 0.0}, {"lat": 38.92024716666667, "lon": -77.010327, "is_disabled": 0, "fusion_lon": 0.0, "is_reserved": 0, "name": "1176fd0f085d4a01c672e8eac2ccaaa2", "type": "electric_scooter", "bike_id": "1176fd0f085d4a01c672e8eac2ccaaa2", "rental_uris": {"ios": "https://dc.lft.to/lastmile_qr_scan", "android": "https://dc.lft.to/lastmile_qr_scan"}, "fusion_lat": 0.0}, {"lat": 38.9172585, "lon": -77.036658, "is_disabled": 0, "fusion_lon": 0.0, "is_reserved": 0, "name": "e0b592049685b2bb6570b47a86dc8fc9", "type": "electric_scooter", "bike_id": "e0b592049685b2bb6570b47a86dc8fc9", "rental_uris": {"ios": "https://dc.lft.to/lastmile_qr_scan", "android": "https://dc.lft.to/lastmile_qr_scan"}, "fusion_lat": 0.0}, {"lat": 38.93087283333333, "lon": -77.02489866666667, "is_disabled": 0, "fusion_lon": 0.0, "is_reserved": 0, "name": "56bd87b4f60fb39805024fd3105e6972", "type": "electric_scooter", "bike_id": "56bd87b4f60fb39805024fd3105e6972", "rental_uris": {"ios": "https://dc.lft.to/lastmile_qr_scan", "android": "https://dc.lft.to/lastmile_qr_scan"}, "fusion_lat": 0.0}, {"lat": 38.956911, "lon": -77.0222165, "is_disabled": 0, "fusion_lon": 0.0, "is_reserved": 0, "name": "81aca33059f3f563e9acab4ca3d34a24", "type": "electric_bike", "bike_id": "81aca33059f3f563e9acab4ca3d34a24", "rental_uris": {"ios": "https://dc.lft.to/lastmile_qr_scan", "android": "https://dc.lft.to/lastmile_qr_scan"}, "fusion_lat": 0.0}, {"lat": 38.9069125, "lon": -77.034501, "is_disabled": 0, "fusion_lon": 0.0, "is_reserved": 0, "name": "e702e6e88262975ddda5fdfe27d65259", "type": "electric_scooter", "bike_id": "e702e6e88262975ddda5fdfe27d65259", "rental_uris": {"ios": "https://dc.lft.to/lastmile_qr_scan", "android": "https://dc.lft.to/lastmile_qr_scan"}, "fusion_lat": 0.0}, {"lat": 38.95637, "lon": -77.0330175, "is_disabled": 0, "fusion_lon": 0.0, "is_reserved": 0, "name": "ecb660885b92d4b776daf5c7837dd800", "type": "electric_scooter", "bike_id": "ecb660885b92d4b776daf5c7837dd800", "rental_uris": {"ios": "https://dc.lft.to/lastmile_qr_scan", "android": "https://dc.lft.to/lastmile_qr_scan"}, "fusion_lat": 0.0}, {"lat": 38.9201415, "lon": -77.03130033333333, "is_disabled": 0, "fusion_lon": 0.0, "is_reserved": 0, "name": "c54552b446facd98b05d082d57c808b2", "type": "electric_scooter", "bike_id": "c54552b446facd98b05d082d57c808b2", "rental_uris": {"ios": "https://dc.lft.to/lastmile_qr_scan", "android": "https://dc.lft.to/lastmile_qr_scan"}, "fusion_lat": 0.0}, {"lat": 38.93079083333333, "lon": -77.03410933333333, "is_disabled": 0, "fusion_lon": 0.0, "is_reserved": 0, "name": "278b20d457006debb142895c8aecbd97", "type": "electric_scooter", "bike_id": "278b20d457006debb142895c8aecbd97", "rental_uris": {"ios": "https://dc.lft.to/lastmile_qr_scan", "android": "https://dc.lft.to/lastmile_qr_scan"}, "fusion_lat": 0.0}, {"lat": 38.90723916666666, "lon": -77.05075783333334, "is_disabled": 0, "fusion_lon": 0.0, "is_reserved": 0, "name": "65700b588e8c73996ed8ca45bd44a39b", "type": "electric_scooter", "bike_id": "65700b588e8c73996ed8ca45bd44a39b", "rental_uris": {"ios": "https://dc.lft.to/lastmile_qr_scan", "android": "https://dc.lft.to/lastmile_qr_scan"}, "fusion_lat": 0.0}, {"lat": 38.9217295, "lon": -77.04021216666666, "is_disabled": 0, "fusion_lon": 0.0, "is_reserved": 0, "name": "cbf8c12c5db08fc185153298f1b8215d", "type": "electric_scooter", "bike_id": "cbf8c12c5db08fc185153298f1b8215d", "rental_uris": {"ios": "https://dc.lft.to/lastmile_qr_scan", "android": "https://dc.lft.to/lastmile_qr_scan"}, "fusion_lat": 0.0}, {"lat": 38.9474945, "lon": -77.03281666666666, "is_disabled": 0, "fusion_lon": 0.0, "is_reserved": 0, "name": "701b0e180704113c4e72642824eae969", "type": "electric_scooter", "bike_id": "701b0e180704113c4e72642824eae969", "rental_uris": {"ios": "https://dc.lft.to/lastmile_qr_scan", "android": "https://dc.lft.to/lastmile_qr_scan"}, "fusion_lat": 0.0}, {"lat": 38.9398825, "lon": -77.0253615, "is_disabled": 0, "fusion_lon": 0.0, "is_reserved": 0, "name": "ef195ce71ec4025b9c23ed986fbfb171", "type": "electric_scooter", "bike_id": "ef195ce71ec4025b9c23ed986fbfb171", "rental_uris": {"ios": "https://dc.lft.to/lastmile_qr_scan", "android": "https://dc.lft.to/lastmile_qr_scan"}, "fusion_lat": 0.0}, {"lat": 38.920267333333335, "lon": -77.03055616666667, "is_disabled": 0, "fusion_lon": 0.0, "is_reserved": 0, "name": "05233a70f5e1479db83aad7b13b6fb37", "type": "electric_scooter", "bike_id": "05233a70f5e1479db83aad7b13b6fb37", "rental_uris": {"ios": "https://dc.lft.to/lastmile_qr_scan", "android": "https://dc.lft.to/lastmile_qr_scan"}, "fusion_lat": 0.0}, {"lat": 38.90030633333333, "lon": -77.00204216666667, "is_disabled": 0, "fusion_lon": 0.0, "is_reserved": 0, "name": "a86acaccd79ba786125284cbf8ebd09c", "type": "electric_scooter", "bike_id": "a86acaccd79ba786125284cbf8ebd09c", "rental_uris": {"ios": "https://dc.lft.to/lastmile_qr_scan", "android": "https://dc.lft.to/lastmile_qr_scan"}, "fusion_lat": 0.0}, {"lat": 38.87611866666667, "lon": -77.00596466666667, "is_disabled": 0, "fusion_lon": 0.0, "is_reserved": 0, "name": "eb9b8eb95c3786bdb4bf311348e7272e", "type": "electric_scooter", "bike_id": "eb9b8eb95c3786bdb4bf311348e7272e", "rental_uris": {"ios": "https://dc.lft.to/lastmile_qr_scan", "android": "https://dc.lft.to/lastmile_qr_scan"}, "fusion_lat": 0.0}, {"lat": 38.9210925, "lon": -77.04384916666666, "is_disabled": 0, "fusion_lon": 0.0, "is_reserved": 0, "name": "b6094a36e5045c91ba0e4dfc9152d11e", "type": "electric_scooter", "bike_id": "b6094a36e5045c91ba0e4dfc9152d11e", "rental_uris": {"ios": "https://dc.lft.to/lastmile_qr_scan", "android": "https://dc.lft.to/lastmile_qr_scan"}, "fusion_lat": 0.0}, {"lat": 38.921703666666666, "lon": -77.03834, "is_disabled": 0, "fusion_lon": 0.0, "is_reserved": 0, "name": "62b81da0b38e5271bb9d88b06ef3a2fa", "type": "electric_scooter", "bike_id": "62b81da0b38e5271bb9d88b06ef3a2fa", "rental_uris": {"ios": "https://dc.lft.to/lastmile_qr_scan", "android": "https://dc.lft.to/lastmile_qr_scan"}, "fusion_lat": 0.0}, {"lat": 38.92278983333333, "lon": -76.99775816666667, "is_disabled": 0, "fusion_lon": 0.0, "is_reserved": 0, "name": "d4baf7aa5b8200fd5017a80f6e602a76", "type": "electric_bike", "bike_id": "d4baf7aa5b8200fd5017a80f6e602a76", "rental_uris": {"ios": "https://dc.lft.to/lastmile_qr_scan", "android": "https://dc.lft.to/lastmile_qr_scan"}, "fusion_lat": 0.0}, {"lat": 38.9130445, "lon": -77.01450333333334, "is_disabled": 0, "fusion_lon": 0.0, "is_reserved": 0, "name": "50399d09e9f207eef3528f8c5d156e74", "type": "electric_scooter", "bike_id": "50399d09e9f207eef3528f8c5d156e74", "rental_uris": {"ios": "https://dc.lft.to/lastmile_qr_scan", "android": "https://dc.lft.to/lastmile_qr_scan"}, "fusion_lat": 0.0}, {"lat": 38.905550166666664, "lon": -77.00596933333334, "is_disabled": 0, "fusion_lon": 0.0, "is_reserved": 0, "name": "2fa5e3b47716ca8d3eeacd31dcfabe05", "type": "electric_scooter", "bike_id": "2fa5e3b47716ca8d3eeacd31dcfabe05", "rental_uris": {"ios": "https://dc.lft.to/lastmile_qr_scan", "android": "https://dc.lft.to/lastmile_qr_scan"}, "fusion_lat": 0.0}, {"lat": 38.946611, "lon": -76.95666466666667, "is_disabled": 0, "fusion_lon": 0.0, "is_reserved": 0, "name": "7eec7f3c3539b4fcb196420340fe7b09", "type": "electric_bike", "bike_id": "7eec7f3c3539b4fcb196420340fe7b09", "rental_uris": {"ios": "https://dc.lft.to/lastmile_qr_scan", "android": "https://dc.lft.to/lastmile_qr_scan"}, "fusion_lat": 0.0}, {"lat": 38.93706366666667, "lon": -77.03636083333333, "is_disabled": 0, "fusion_lon": 0.0, "is_reserved": 0, "name": "41027a1552754f6b9cc2426a75cf6727", "type": "electric_scooter", "bike_id": "41027a1552754f6b9cc2426a75cf6727", "rental_uris": {"ios": "https://dc.lft.to/lastmile_qr_scan", "android": "https://dc.lft.to/lastmile_qr_scan"}, "fusion_lat": 0.0}, {"lat": 38.91406666666666, "lon": -77.0248175, "is_disabled": 0, "fusion_lon": 0.0, "is_reserved": 0, "name": "4797c16476d83b33e7aa9d510db31f07", "type": "electric_scooter", "bike_id": "4797c16476d83b33e7aa9d510db31f07", "rental_uris": {"ios": "https://dc.lft.to/lastmile_qr_scan", "android": "https://dc.lft.to/lastmile_qr_scan"}, "fusion_lat": 0.0}, {"lat": 38.91601, "lon": -77.049085, "is_disabled": 0, "fusion_lon": 0.0, "is_reserved": 0, "name": "17548944a4bb09cbe430375ddf360534", "type": "electric_scooter", "bike_id": "17548944a4bb09cbe430375ddf360534", "rental_uris": {"ios": "https://dc.lft.to/lastmile_qr_scan", "android": "https://dc.lft.to/lastmile_qr_scan"}, "fusion_lat": 0.0}, {"lat": 38.915737166666666, "lon": -77.036418, "is_disabled": 0, "fusion_lon": 0.0, "is_reserved": 0, "name": "38aa26c53d38b8faed8b25f881813beb", "type": "electric_scooter", "bike_id": "38aa26c53d38b8faed8b25f881813beb", "rental_uris": {"ios": "https://dc.lft.to/lastmile_qr_scan", "android": "https://dc.lft.to/lastmile_qr_scan"}, "fusion_lat": 0.0}, {"lat": 38.89885316666667, "lon": -77.05358, "is_disabled": 0, "fusion_lon": 0.0, "is_reserved": 0, "name": "2b8d49a18041935dfab37c1e8859783c", "type": "electric_scooter", "bike_id": "2b8d49a18041935dfab37c1e8859783c", "rental_uris": {"ios": "https://dc.lft.to/lastmile_qr_scan", "android": "https://dc.lft.to/lastmile_qr_scan"}, "fusion_lat": 0.0}, {"lat": 38.87843783333334, "lon": -77.019424, "is_disabled": 0, "fusion_lon": 0.0, "is_reserved": 0, "name": "8e4b2f93570d3becdf24ae61a47a31a7", "type": "electric_scooter", "bike_id": "8e4b2f93570d3becdf24ae61a47a31a7", "rental_uris": {"ios": "https://dc.lft.to/lastmile_qr_scan", "android": "https://dc.lft.to/lastmile_qr_scan"}, "fusion_lat": 0.0}, {"lat": 38.902625666666665, "lon": -77.01543983333333, "is_disabled": 0, "fusion_lon": 0.0, "is_reserved": 0, "name": "009b3f913034f21c2de86068276723ba", "type": "electric_scooter", "bike_id": "009b3f913034f21c2de86068276723ba", "rental_uris": {"ios": "https://dc.lft.to/lastmile_qr_scan", "android": "https://dc.lft.to/lastmile_qr_scan"}, "fusion_lat": 0.0}, {"lat": 38.892239333333336, "lon": -77.04505966666666, "is_disabled": 0, "fusion_lon": 0.0, "is_reserved": 0, "name": "fda153adc2f5f158252d30d466f10015", "type": "electric_scooter", "bike_id": "fda153adc2f5f158252d30d466f10015", "rental_uris": {"ios": "https://dc.lft.to/lastmile_qr_scan", "android": "https://dc.lft.to/lastmile_qr_scan"}, "fusion_lat": 0.0}, {"lat": 38.9345265, "lon": -77.03868216666666, "is_disabled": 0, "fusion_lon": 0.0, "is_reserved": 0, "name": "f432279e7fd9f6ab009bcead55b08c76", "type": "electric_scooter", "bike_id": "f432279e7fd9f6ab009bcead55b08c76", "rental_uris": {"ios": "https://dc.lft.to/lastmile_qr_scan", "android": "https://dc.lft.to/lastmile_qr_scan"}, "fusion_lat": 0.0}, {"lat": 38.916957, "lon": -77.027454, "is_disabled": 0, "fusion_lon": 0.0, "is_reserved": 0, "name": "13fb4c9a5e0eccb7f5fb510cd7ffd301", "type": "electric_scooter", "bike_id": "13fb4c9a5e0eccb7f5fb510cd7ffd301", "rental_uris": {"ios": "https://dc.lft.to/lastmile_qr_scan", "android": "https://dc.lft.to/lastmile_qr_scan"}, "fusion_lat": 0.0}, {"lat": 38.88734866666667, "lon": -77.02131416666667, "is_disabled": 0, "fusion_lon": 0.0, "is_reserved": 0, "name": "2a55a5de1a438012012ff9ab3a588339", "type": "electric_scooter", "bike_id": "2a55a5de1a438012012ff9ab3a588339", "rental_uris": {"ios": "https://dc.lft.to/lastmile_qr_scan", "android": "https://dc.lft.to/lastmile_qr_scan"}, "fusion_lat": 0.0}, {"lat": 38.88747016666667, "lon": -77.01408133333334, "is_disabled": 0, "fusion_lon": 0.0, "is_reserved": 0, "name": "b02d730444a2e8c8421ab41f1edb66fb", "type": "electric_scooter", "bike_id": "b02d730444a2e8c8421ab41f1edb66fb", "rental_uris": {"ios": "https://dc.lft.to/lastmile_qr_scan", "android": "https://dc.lft.to/lastmile_qr_scan"}, "fusion_lat": 0.0}, {"lat": 38.89862683333333, "lon": -77.02174833333333, "is_disabled": 0, "fusion_lon": 0.0, "is_reserved": 0, "name": "7b42abc0a0fd9b7b90759e5ad88f46e0", "type": "electric_scooter", "bike_id": "7b42abc0a0fd9b7b90759e5ad88f46e0", "rental_uris": {"ios": "https://dc.lft.to/lastmile_qr_scan", "android": "https://dc.lft.to/lastmile_qr_scan"}, "fusion_lat": 0.0}, {"lat": 38.945006, "lon": -77.07791783333333, "is_disabled": 0, "fusion_lon": 0.0, "is_reserved": 0, "name": "898f4a5a5ae20a9b80d3f3c0c9d109c8", "type": "electric_scooter", "bike_id": "898f4a5a5ae20a9b80d3f3c0c9d109c8", "rental_uris": {"ios": "https://dc.lft.to/lastmile_qr_scan", "android": "https://dc.lft.to/lastmile_qr_scan"}, "fusion_lat": 0.0}, {"lat": 38.92376683333333, "lon": -77.0305815, "is_disabled": 0, "fusion_lon": 0.0, "is_reserved": 0, "name": "e7fd35323c55f1ab88f1aabe7c5c7179", "type": "electric_scooter", "bike_id": "e7fd35323c55f1ab88f1aabe7c5c7179", "rental_uris": {"ios": "https://dc.lft.to/lastmile_qr_scan", "android": "https://dc.lft.to/lastmile_qr_scan"}, "fusion_lat": 0.0}, {"lat": 38.89770016666667, "lon": -77.03344366666667, "is_disabled": 0, "fusion_lon": 0.0, "is_reserved": 0, "name": "6d47835b8fc9c4da8202a5a9056006ad", "type": "electric_scooter", "bike_id": "6d47835b8fc9c4da8202a5a9056006ad", "rental_uris": {"ios": "https://dc.lft.to/lastmile_qr_scan", "android": "https://dc.lft.to/lastmile_qr_scan"}, "fusion_lat": 0.0}, {"lat": 38.9233055, "lon": -77.05683316666666, "is_disabled": 0, "fusion_lon": 0.0, "is_reserved": 0, "name": "4c034450d1d3832d3e8b71773ca78d69", "type": "electric_scooter", "bike_id": "4c034450d1d3832d3e8b71773ca78d69", "rental_uris": {"ios": "https://dc.lft.to/lastmile_qr_scan", "android": "https://dc.lft.to/lastmile_qr_scan"}, "fusion_lat": 0.0}, {"lat": 38.85811966666667, "lon": -76.9899285, "is_disabled": 0, "fusion_lon": 0.0, "is_reserved": 0, "name": "eb63e74f9f942b0a7438ecc5ada744bd", "type": "electric_scooter", "bike_id": "eb63e74f9f942b0a7438ecc5ada744bd", "rental_uris": {"ios": "https://dc.lft.to/lastmile_qr_scan", "android": "https://dc.lft.to/lastmile_qr_scan"}, "fusion_lat": 0.0}, {"lat": 38.883427166666664, "lon": -76.93497066666667, "is_disabled": 0, "fusion_lon": 0.0, "is_reserved": 0, "name": "3a8eb72a1c2f385e338484bbd8aab35a", "type": "electric_scooter", "bike_id": "3a8eb72a1c2f385e338484bbd8aab35a", "rental_uris": {"ios": "https://dc.lft.to/lastmile_qr_scan", "android": "https://dc.lft.to/lastmile_qr_scan"}, "fusion_lat": 0.0}, {"lat": 38.9125745, "lon": -77.03865166666667, "is_disabled": 0, "fusion_lon": 0.0, "is_reserved": 0, "name": "c80e51a93e8eea3f2da334be8ef41095", "type": "electric_scooter", "bike_id": "c80e51a93e8eea3f2da334be8ef41095", "rental_uris": {"ios": "https://dc.lft.to/lastmile_qr_scan", "android": "https://dc.lft.to/lastmile_qr_scan"}, "fusion_lat": 0.0}, {"lat": 38.904112833333336, "lon": -76.97330783333334, "is_disabled": 0, "fusion_lon": 0.0, "is_reserved": 0, "name": "6be978cc92ba617027dfa8fec642fdb2", "type": "electric_scooter", "bike_id": "6be978cc92ba617027dfa8fec642fdb2", "rental_uris": {"ios": "https://dc.lft.to/lastmile_qr_scan", "android": "https://dc.lft.to/lastmile_qr_scan"}, "fusion_lat": 0.0}, {"lat": 38.918622, "lon": -77.01523033333334, "is_disabled": 0, "fusion_lon": 0.0, "is_reserved": 0, "name": "73ba533c46b8ef89128e38741f0dd21a", "type": "electric_scooter", "bike_id": "73ba533c46b8ef89128e38741f0dd21a", "rental_uris": {"ios": "https://dc.lft.to/lastmile_qr_scan", "android": "https://dc.lft.to/lastmile_qr_scan"}, "fusion_lat": 0.0}, {"lat": 38.921168, "lon": -77.02515916666667, "is_disabled": 0, "fusion_lon": 0.0, "is_reserved": 0, "name": "68f4a9995e1021d8d3a322be4327e1fd", "type": "electric_scooter", "bike_id": "68f4a9995e1021d8d3a322be4327e1fd", "rental_uris": {"ios": "https://dc.lft.to/lastmile_qr_scan", "android": "https://dc.lft.to/lastmile_qr_scan"}, "fusion_lat": 0.0}, {"lat": 38.92452, "lon": -77.02244666666667, "is_disabled": 0, "fusion_lon": 0.0, "is_reserved": 0, "name": "6de143ee9283c7532393a3ca2e1b4bc5", "type": "electric_scooter", "bike_id": "6de143ee9283c7532393a3ca2e1b4bc5", "rental_uris": {"ios": "https://dc.lft.to/lastmile_qr_scan", "android": "https://dc.lft.to/lastmile_qr_scan"}, "fusion_lat": 0.0}, {"lat": 38.91706666666666, "lon": -77.02681383333334, "is_disabled": 0, "fusion_lon": 0.0, "is_reserved": 0, "name": "64427c6e1abc153a70ae27432de0b6cc", "type": "electric_scooter", "bike_id": "64427c6e1abc153a70ae27432de0b6cc", "rental_uris": {"ios": "https://dc.lft.to/lastmile_qr_scan", "android": "https://dc.lft.to/lastmile_qr_scan"}, "fusion_lat": 0.0}, {"lat": 38.9166975, "lon": -77.02269716666666, "is_disabled": 0, "fusion_lon": 0.0, "is_reserved": 0, "name": "a2584ea2e60a5f5401388657fc7b5fc6", "type": "electric_scooter", "bike_id": "a2584ea2e60a5f5401388657fc7b5fc6", "rental_uris": {"ios": "https://dc.lft.to/lastmile_qr_scan", "android": "https://dc.lft.to/lastmile_qr_scan"}, "fusion_lat": 0.0}, {"lat": 38.903822, "lon": -77.05147183333334, "is_disabled": 0, "fusion_lon": 0.0, "is_reserved": 0, "name": "edb7efe179dd82dbc1ec544342bbdcb5", "type": "electric_scooter", "bike_id": "edb7efe179dd82dbc1ec544342bbdcb5", "rental_uris": {"ios": "https://dc.lft.to/lastmile_qr_scan", "android": "https://dc.lft.to/lastmile_qr_scan"}, "fusion_lat": 0.0}, {"lat": 38.93106266666667, "lon": -77.0247325, "is_disabled": 0, "fusion_lon": 0.0, "is_reserved": 0, "name": "b4dbe112bf1150daee202ead99f39699", "type": "electric_scooter", "bike_id": "b4dbe112bf1150daee202ead99f39699", "rental_uris": {"ios": "https://dc.lft.to/lastmile_qr_scan", "android": "https://dc.lft.to/lastmile_qr_scan"}, "fusion_lat": 0.0}, {"lat": 38.876568666666664, "lon": -77.01589733333333, "is_disabled": 0, "fusion_lon": 0.0, "is_reserved": 0, "name": "7412bd15eefc7bc3acd608ce8a25b664", "type": "electric_scooter", "bike_id": "7412bd15eefc7bc3acd608ce8a25b664", "rental_uris": {"ios": "https://dc.lft.to/lastmile_qr_scan", "android": "https://dc.lft.to/lastmile_qr_scan"}, "fusion_lat": 0.0}, {"lat": 38.8999505, "lon": -77.01648916666667, "is_disabled": 0, "fusion_lon": 0.0, "is_reserved": 0, "name": "3a72a8778022f9ba5f6993cc4f1ee459", "type": "electric_scooter", "bike_id": "3a72a8778022f9ba5f6993cc4f1ee459", "rental_uris": {"ios": "https://dc.lft.to/lastmile_qr_scan", "android": "https://dc.lft.to/lastmile_qr_scan"}, "fusion_lat": 0.0}, {"lat": 38.9064605, "lon": -77.03457116666667, "is_disabled": 0, "fusion_lon": 0.0, "is_reserved": 0, "name": "9b673b81ed3f4e00e41193a7525f4137", "type": "electric_scooter", "bike_id": "9b673b81ed3f4e00e41193a7525f4137", "rental_uris": {"ios": "https://dc.lft.to/lastmile_qr_scan", "android": "https://dc.lft.to/lastmile_qr_scan"}, "fusion_lat": 0.0}, {"lat": 38.90547733333333, "lon": -77.002034, "is_disabled": 0, "fusion_lon": 0.0, "is_reserved": 0, "name": "88ebfcd85ce53c0714edead25bb09a46", "type": "electric_scooter", "bike_id": "88ebfcd85ce53c0714edead25bb09a46", "rental_uris": {"ios": "https://dc.lft.to/lastmile_qr_scan", "android": "https://dc.lft.to/lastmile_qr_scan"}, "fusion_lat": 0.0}, {"lat": 38.8906185, "lon": -76.94455416666666, "is_disabled": 0, "fusion_lon": 0.0, "is_reserved": 0, "name": "f5a54c889860aa9416a7d1b7e1c41c60", "type": "electric_scooter", "bike_id": "f5a54c889860aa9416a7d1b7e1c41c60", "rental_uris": {"ios": "https://dc.lft.to/lastmile_qr_scan", "android": "https://dc.lft.to/lastmile_qr_scan"}, "fusion_lat": 0.0}, {"lat": 38.91817433333333, "lon": -77.0321065, "is_disabled": 0, "fusion_lon": 0.0, "is_reserved": 0, "name": "32e076c0e55be8abce899d7e1020f1d2", "type": "electric_scooter", "bike_id": "32e076c0e55be8abce899d7e1020f1d2", "rental_uris": {"ios": "https://dc.lft.to/lastmile_qr_scan", "android": "https://dc.lft.to/lastmile_qr_scan"}, "fusion_lat": 0.0}, {"lat": 38.907528166666665, "lon": -77.035794, "is_disabled": 0, "fusion_lon": 0.0, "is_reserved": 0, "name": "07e624b5e66d74281e4571c578243f55", "type": "electric_scooter", "bike_id": "07e624b5e66d74281e4571c578243f55", "rental_uris": {"ios": "https://dc.lft.to/lastmile_qr_scan", "android": "https://dc.lft.to/lastmile_qr_scan"}, "fusion_lat": 0.0}, {"lat": 38.9408775, "lon": -77.02636266666667, "is_disabled": 0, "fusion_lon": 0.0, "is_reserved": 0, "name": "655d08312916ab985c89d08bf816a6cc", "type": "electric_scooter", "bike_id": "655d08312916ab985c89d08bf816a6cc", "rental_uris": {"ios": "https://dc.lft.to/lastmile_qr_scan", "android": "https://dc.lft.to/lastmile_qr_scan"}, "fusion_lat": 0.0}, {"lat": 38.9274075, "lon": -77.02249866666666, "is_disabled": 0, "fusion_lon": 0.0, "is_reserved": 0, "name": "fa9036c797565c4e99c832637527eb33", "type": "electric_scooter", "bike_id": "fa9036c797565c4e99c832637527eb33", "rental_uris": {"ios": "https://dc.lft.to/lastmile_qr_scan", "android": "https://dc.lft.to/lastmile_qr_scan"}, "fusion_lat": 0.0}, {"lat": 38.9429345, "lon": -77.02173366666666, "is_disabled": 0, "fusion_lon": 0.0, "is_reserved": 0, "name": "9e6fb150e6e667f7ffe0f795d4327196", "type": "electric_scooter", "bike_id": "9e6fb150e6e667f7ffe0f795d4327196", "rental_uris": {"ios": "https://dc.lft.to/lastmile_qr_scan", "android": "https://dc.lft.to/lastmile_qr_scan"}, "fusion_lat": 0.0}, {"lat": 38.915389, "lon": -77.037986, "is_disabled": 0, "fusion_lon": 0.0, "is_reserved": 0, "name": "c440a00000df6f43660b5cab55009243", "type": "electric_scooter", "bike_id": "c440a00000df6f43660b5cab55009243", "rental_uris": {"ios": "https://dc.lft.to/lastmile_qr_scan", "android": "https://dc.lft.to/lastmile_qr_scan"}, "fusion_lat": 0.0}, {"lat": 38.917010833333336, "lon": -77.0303185, "is_disabled": 0, "fusion_lon": 0.0, "is_reserved": 0, "name": "5c106388e53ffa69abe56cdb21aa8a98", "type": "electric_scooter", "bike_id": "5c106388e53ffa69abe56cdb21aa8a98", "rental_uris": {"ios": "https://dc.lft.to/lastmile_qr_scan", "android": "https://dc.lft.to/lastmile_qr_scan"}, "fusion_lat": 0.0}, {"lat": 38.8393585, "lon": -77.079026, "is_disabled": 0, "fusion_lon": 0.0, "is_reserved": 0, "name": "c1aafa2e86d967a42af832729cd40381", "type": "electric_bike", "bike_id": "c1aafa2e86d967a42af832729cd40381", "rental_uris": {"ios": "https://dc.lft.to/lastmile_qr_scan", "android": "https://dc.lft.to/lastmile_qr_scan"}, "fusion_lat": 0.0}, {"lat": 38.9247115, "lon": -77.02205816666667, "is_disabled": 0, "fusion_lon": 0.0, "is_reserved": 0, "name": "ee508a6ab29b471c1112b9efaf507c97", "type": "electric_scooter", "bike_id": "ee508a6ab29b471c1112b9efaf507c97", "rental_uris": {"ios": "https://dc.lft.to/lastmile_qr_scan", "android": "https://dc.lft.to/lastmile_qr_scan"}, "fusion_lat": 0.0}, {"lat": 38.90074883333333, "lon": -77.02713783333333, "is_disabled": 0, "fusion_lon": 0.0, "is_reserved": 0, "name": "7c736ae6de3a1de1d3bb67006d088fb6", "type": "electric_scooter", "bike_id": "7c736ae6de3a1de1d3bb67006d088fb6", "rental_uris": {"ios": "https://dc.lft.to/lastmile_qr_scan", "android": "https://dc.lft.to/lastmile_qr_scan"}, "fusion_lat": 0.0}, {"lat": 38.93723633333333, "lon": -77.03255333333334, "is_disabled": 0, "fusion_lon": 0.0, "is_reserved": 0, "name": "310dd914adc97784181cffba8e49e2f3", "type": "electric_scooter", "bike_id": "310dd914adc97784181cffba8e49e2f3", "rental_uris": {"ios": "https://dc.lft.to/lastmile_qr_scan", "android": "https://dc.lft.to/lastmile_qr_scan"}, "fusion_lat": 0.0}, {"lat": 38.89740333333334, "lon": -77.043583, "is_disabled": 0, "fusion_lon": 0.0, "is_reserved": 0, "name": "bb111bfade30795c30e9112003729190", "type": "electric_scooter", "bike_id": "bb111bfade30795c30e9112003729190", "rental_uris": {"ios": "https://dc.lft.to/lastmile_qr_scan", "android": "https://dc.lft.to/lastmile_qr_scan"}, "fusion_lat": 0.0}, {"lat": 38.90981583333333, "lon": -77.03944783333333, "is_disabled": 0, "fusion_lon": 0.0, "is_reserved": 0, "name": "b90dc8af077344a2f9e3076d29545189", "type": "electric_scooter", "bike_id": "b90dc8af077344a2f9e3076d29545189", "rental_uris": {"ios": "https://dc.lft.to/lastmile_qr_scan", "android": "https://dc.lft.to/lastmile_qr_scan"}, "fusion_lat": 0.0}, {"lat": 38.95637383333333, "lon": -77.03303183333334, "is_disabled": 0, "fusion_lon": 0.0, "is_reserved": 0, "name": "0e872e2d1a0e7831c7fb931805636f87", "type": "electric_scooter", "bike_id": "0e872e2d1a0e7831c7fb931805636f87", "rental_uris": {"ios": "https://dc.lft.to/lastmile_qr_scan", "android": "https://dc.lft.to/lastmile_qr_scan"}, "fusion_lat": 0.0}, {"lat": 38.90600516666667, "lon": -77.04365566666667, "is_disabled": 0, "fusion_lon": 0.0, "is_reserved": 0, "name": "d30ddc01749043f1cd993b6d46ba3665", "type": "electric_scooter", "bike_id": "d30ddc01749043f1cd993b6d46ba3665", "rental_uris": {"ios": "https://dc.lft.to/lastmile_qr_scan", "android": "https://dc.lft.to/lastmile_qr_scan"}, "fusion_lat": 0.0}, {"lat": 38.95729433333333, "lon": -77.02403, "is_disabled": 0, "fusion_lon": 0.0, "is_reserved": 0, "name": "8ba30063cf2607883a4f77c2cfb86639", "type": "electric_scooter", "bike_id": "8ba30063cf2607883a4f77c2cfb86639", "rental_uris": {"ios": "https://dc.lft.to/lastmile_qr_scan", "android": "https://dc.lft.to/lastmile_qr_scan"}, "fusion_lat": 0.0}, {"lat": 38.93609416666666, "lon": -77.03181516666666, "is_disabled": 0, "fusion_lon": 0.0, "is_reserved": 0, "name": "cc5d2be6f269dec90c67fb095caa1fb8", "type": "electric_scooter", "bike_id": "cc5d2be6f269dec90c67fb095caa1fb8", "rental_uris": {"ios": "https://dc.lft.to/lastmile_qr_scan", "android": "https://dc.lft.to/lastmile_qr_scan"}, "fusion_lat": 0.0}, {"lat": 38.917133, "lon": -77.0287715, "is_disabled": 0, "fusion_lon": 0.0, "is_reserved": 0, "name": "6997453320184a39d89e4dc5692fe1b5", "type": "electric_scooter", "bike_id": "6997453320184a39d89e4dc5692fe1b5", "rental_uris": {"ios": "https://dc.lft.to/lastmile_qr_scan", "android": "https://dc.lft.to/lastmile_qr_scan"}, "fusion_lat": 0.0}, {"lat": 38.931907833333334, "lon": -77.03460983333333, "is_disabled": 0, "fusion_lon": 0.0, "is_reserved": 0, "name": "99601d0825c23ebf19e70dc3dd2150c7", "type": "electric_scooter", "bike_id": "99601d0825c23ebf19e70dc3dd2150c7", "rental_uris": {"ios": "https://dc.lft.to/lastmile_qr_scan", "android": "https://dc.lft.to/lastmile_qr_scan"}, "fusion_lat": 0.0}, {"lat": 38.91255533333333, "lon": -76.97205916666667, "is_disabled": 0, "fusion_lon": 0.0, "is_reserved": 0, "name": "5a9ba5595ef908bddfd0da562f0d14b8", "type": "electric_scooter", "bike_id": "5a9ba5595ef908bddfd0da562f0d14b8", "rental_uris": {"ios": "https://dc.lft.to/lastmile_qr_scan", "android": "https://dc.lft.to/lastmile_qr_scan"}, "fusion_lat": 0.0}, {"lat": 38.93877116666667, "lon": -77.024843, "is_disabled": 0, "fusion_lon": 0.0, "is_reserved": 0, "name": "348c757537e12a991add72d6dea9fe61", "type": "electric_scooter", "bike_id": "348c757537e12a991add72d6dea9fe61", "rental_uris": {"ios": "https://dc.lft.to/lastmile_qr_scan", "android": "https://dc.lft.to/lastmile_qr_scan"}, "fusion_lat": 0.0}, {"lat": 38.92755583333334, "lon": -77.0335565, "is_disabled": 0, "fusion_lon": 0.0, "is_reserved": 0, "name": "da4acca608e5550a13040b45f7106b2f", "type": "electric_scooter", "bike_id": "da4acca608e5550a13040b45f7106b2f", "rental_uris": {"ios": "https://dc.lft.to/lastmile_qr_scan", "android": "https://dc.lft.to/lastmile_qr_scan"}, "fusion_lat": 0.0}, {"lat": 38.923727666666665, "lon": -77.02925966666666, "is_disabled": 0, "fusion_lon": 0.0, "is_reserved": 0, "name": "b21a875ab623cfbc6f0fe4388ce7d1c2", "type": "electric_scooter", "bike_id": "b21a875ab623cfbc6f0fe4388ce7d1c2", "rental_uris": {"ios": "https://dc.lft.to/lastmile_qr_scan", "android": "https://dc.lft.to/lastmile_qr_scan"}, "fusion_lat": 0.0}, {"lat": 38.8923505, "lon": -77.04875383333334, "is_disabled": 0, "fusion_lon": 0.0, "is_reserved": 0, "name": "268c25a4f847a0d52cf690fb2226329d", "type": "electric_scooter", "bike_id": "268c25a4f847a0d52cf690fb2226329d", "rental_uris": {"ios": "https://dc.lft.to/lastmile_qr_scan", "android": "https://dc.lft.to/lastmile_qr_scan"}, "fusion_lat": 0.0}, {"lat": 38.927038333333336, "lon": -76.997673, "is_disabled": 0, "fusion_lon": 0.0, "is_reserved": 0, "name": "e839ac1fef934f2926cbc9f7e4aa0de7", "type": "electric_scooter", "bike_id": "e839ac1fef934f2926cbc9f7e4aa0de7", "rental_uris": {"ios": "https://dc.lft.to/lastmile_qr_scan", "android": "https://dc.lft.to/lastmile_qr_scan"}, "fusion_lat": 0.0}, {"lat": 38.91038616666667, "lon": -77.042653, "is_disabled": 0, "fusion_lon": 0.0, "is_reserved": 0, "name": "cf1566890fa68157711cefe18b61ad5e", "type": "electric_scooter", "bike_id": "cf1566890fa68157711cefe18b61ad5e", "rental_uris": {"ios": "https://dc.lft.to/lastmile_qr_scan", "android": "https://dc.lft.to/lastmile_qr_scan"}, "fusion_lat": 0.0}, {"lat": 38.906880666666666, "lon": -77.0359085, "is_disabled": 0, "fusion_lon": 0.0, "is_reserved": 0, "name": "fa565f41156e47254fcd7d3f96e5f599", "type": "electric_scooter", "bike_id": "fa565f41156e47254fcd7d3f96e5f599", "rental_uris": {"ios": "https://dc.lft.to/lastmile_qr_scan", "android": "https://dc.lft.to/lastmile_qr_scan"}, "fusion_lat": 0.0}, {"lat": 38.9358015, "lon": -77.036569, "is_disabled": 0, "fusion_lon": 0.0, "is_reserved": 0, "name": "70add3a34aaba94d4ddb5b3af32ab5ae", "type": "electric_bike", "bike_id": "70add3a34aaba94d4ddb5b3af32ab5ae", "rental_uris": {"ios": "https://dc.lft.to/lastmile_qr_scan", "android": "https://dc.lft.to/lastmile_qr_scan"}, "fusion_lat": 0.0}, {"lat": 38.926010166666664, "lon": -77.06418633333334, "is_disabled": 0, "fusion_lon": 0.0, "is_reserved": 0, "name": "9a10f8587f830291a5db9932da90405e", "type": "electric_bike", "bike_id": "9a10f8587f830291a5db9932da90405e", "rental_uris": {"ios": "https://dc.lft.to/lastmile_qr_scan", "android": "https://dc.lft.to/lastmile_qr_scan"}, "fusion_lat": 0.0}, {"lat": 38.91423616666667, "lon": -77.021771, "is_disabled": 0, "fusion_lon": 0.0, "is_reserved": 0, "name": "d55101b70b5ac55d33989ba695e5ab2d", "type": "electric_scooter", "bike_id": "d55101b70b5ac55d33989ba695e5ab2d", "rental_uris": {"ios": "https://dc.lft.to/lastmile_qr_scan", "android": "https://dc.lft.to/lastmile_qr_scan"}, "fusion_lat": 0.0}, {"lat": 38.946511, "lon": -77.029628, "is_disabled": 0, "fusion_lon": 0.0, "is_reserved": 0, "name": "49ca890470f7a61c32dcdcde488aab96", "type": "electric_scooter", "bike_id": "49ca890470f7a61c32dcdcde488aab96", "rental_uris": {"ios": "https://dc.lft.to/lastmile_qr_scan", "android": "https://dc.lft.to/lastmile_qr_scan"}, "fusion_lat": 0.0}, {"lat": 38.9314365, "lon": -77.04268466666667, "is_disabled": 0, "fusion_lon": 0.0, "is_reserved": 0, "name": "255654ffc70bd311c79249c5611895ba", "type": "electric_scooter", "bike_id": "255654ffc70bd311c79249c5611895ba", "rental_uris": {"ios": "https://dc.lft.to/lastmile_qr_scan", "android": "https://dc.lft.to/lastmile_qr_scan"}, "fusion_lat": 0.0},