{"data": {"bikes": [{"fusion_lat": 0.0, "bike_id": "43dccadca99ab75ab3e860e0f70a098b", "fusion_lon": 0.0, "lon": -77.01962016666667, "lat": 38.92342683333333, "is_reserved": 0, "is_disabled": 0, "rental_uris": {"android": "https://dc.lft.to/lastmile_qr_scan", "ios": "https://dc.lft.to/lastmile_qr_scan"}, "name": "43dccadca99ab75ab3e860e0f70a098b", "type": "electric_scooter"}, {"fusion_lat": 0.0, "bike_id": "a6d1591604c2ffdde33926d1eddb3f75", "fusion_lon": 0.0, "lon": -76.99023033333333, "lat": 38.8827615, "is_reserved": 0, "is_disabled": 0, "rental_uris": {"android": "https://dc.lft.to/lastmile_qr_scan", "ios": "https://dc.lft.to/lastmile_qr_scan"}, "name": "a6d1591604c2ffdde33926d1eddb3f75", "type": "electric_scooter"}, {"fusion_lat": 0.0, "bike_id": "a1726dc58b21e28c47a9f555c36b9897", "fusion_lon": 0.0, "lon": -77.00435433333334, "lat": 38.87751633333333, "is_reserved": 0, "is_disabled": 0, "rental_uris": {"android": "https://dc.lft.to/lastmile_qr_scan", "ios": "https://dc.lft.to/lastmile_qr_scan"}, "name": "a1726dc58b21e28c47a9f555c36b9897", "type": "electric_scooter"}, {"fusion_lat": 0.0, "bike_id": "abebf89a18282558e13400452697142b", "fusion_lon": 0.0, "lon": -77.02777366666666, "lat": 38.892010166666665, "is_reserved": 0, "is_disabled": 0, "rental_uris": {"android": "https://dc.lft.to/lastmile_qr_scan", "ios": "https://dc.lft.to/lastmile_qr_scan"}, "name": "abebf89a18282558e13400452697142b", "type": "electric_scooter"}, {"fusion_lat": 0.0, "bike_id": "440e8aadda6c5b755a2f22dbc7d40d2b", "fusion_lon": 0.0, "lon": -76.98394433333333, "lat": 38.86639383333333, "is_reserved": 0, "is_disabled": 0, "rental_uris": {"android": "https://dc.lft.to/lastmile_qr_scan", "ios": "https://dc.lft.to/lastmile_qr_scan"}, "name": "440e8aadda6c5b755a2f22dbc7d40d2b", "type": "electric_scooter"}, {"fusion_lat": 0.0, "bike_id": "4176fdaa548ce516d7be65394652a752", "fusion_lon": 0.0, "lon": -77.07898483333334, "lat": 38.839336833333334, "is_reserved": 0, "is_disabled": 0, "rental_uris": {"android": "https://dc.lft.to/lastmile_qr_scan", "ios": "https://dc.lft.to/lastmile_qr_scan"}, "name": "4176fdaa548ce516d7be65394652a752", "type": "electric_bike"}, {"fusion_lat": 0.0, "bike_id": "8627c7e7ed8f72ef6e4c02d771f63e96", "fusion_lon": 0.0, "lon": -77.0364395, "lat": 38.934715, "is_reserved": 0, "is_disabled": 0, "rental_uris": {"android": "https://dc.lft.to/lastmile_qr_scan", "ios": "https://dc.lft.to/lastmile_qr_scan"}, "name": "8627c7e7ed8f72ef6e4c02d771f63e96", "type": "electric_scooter"}, {"fusion_lat": 0.0, "bike_id": "432db0feef7416397825874e439f3f45", "fusion_lon": 0.0, "lon": -76.93191633333333, "lat": 38.89879583333333, "is_reserved": 0, "is_disabled": 0, "rental_uris": {"android": "https://dc.lft.to/lastmile_qr_scan", "ios": "https://dc.lft.to/lastmile_qr_scan"}, "name": "432db0feef7416397825874e439f3f45", "type": "electric_scooter"}, {"fusion_lat": 0.0, "bike_id": "91d14ce2deaf7c26f7402800805131ec", "fusion_lon": 0.0, "lon": -77.04029933333334, "lat": 38.901165666666664, "is_reserved": 0, "is_disabled": 0, "rental_uris": {"android": "https://dc.lft.to/lastmile_qr_scan", "ios": "https://dc.lft.to/lastmile_qr_scan"}, "name": "91d14ce2deaf7c26f7402800805131ec", "type": "electric_scooter"}, {"fusion_lat": 0.0, "bike_id": "09fc2ba9bda4b632d7425254f69de33f", "fusion_lon": 0.0, "lon": -77.041656, "lat": 38.91988083333333, "is_reserved": 0, "is_disabled": 0, "rental_uris": {"android": "https://dc.lft.to/lastmile_qr_scan", "ios": "https://dc.lft.to/lastmile_qr_scan"}, "name": "09fc2ba9bda4b632d7425254f69de33f", "type": "electric_scooter"}, {"fusion_lat": 0.0, "bike_id": "f8092ebc00444c952b0c8d344bb45d7a", "fusion_lon": 0.0, "lon": -77.05343816666667, "lat": 38.852678, "is_reserved": 0, "is_disabled": 0, "rental_uris": {"android": "https://dc.lft.to/lastmile_qr_scan", "ios": "https://dc.lft.to/lastmile_qr_scan"}, "name": "f8092ebc00444c952b0c8d344bb45d7a", "type": "electric_bike"}, {"fusion_lat": 0.0, "bike_id": "daf18bb2f0ca3835978dc7a6ec115ce8", "fusion_lon": 0.0, "lon": -77.04182233333333, "lat": 38.892562166666664, "is_reserved": 0, "is_disabled": 0, "rental_uris": {"android": "https://dc.lft.to/lastmile_qr_scan", "ios": "https://dc.lft.to/lastmile_qr_scan"}, "name": "daf18bb2f0ca3835978dc7a6ec115ce8", "type": "electric_scooter"}, {"fusion_lat": 0.0, "bike_id": "37085c6e89ab85764e1bfec4845f505d", "fusion_lon": 0.0, "lon": -77.02718566666667, "lat": 38.906740666666664, "is_reserved": 0, "is_disabled": 0, "rental_uris": {"android": "https://dc.lft.to/lastmile_qr_scan", "ios": "https://dc.lft.to/lastmile_qr_scan"}, "name": "37085c6e89ab85764e1bfec4845f505d", "type": "electric_scooter"}, {"fusion_lat": 0.0, "bike_id": "e7d0b5da097a1b7e8218ede3c074a9df", "fusion_lon": 0.0, "lon": -77.06620133333334, "lat": 38.912239666666665, "is_reserved": 0, "is_disabled": 0, "rental_uris": {"android": "https://dc.lft.to/lastmile_qr_scan", "ios": "https://dc.lft.to/lastmile_qr_scan"}, "name": "e7d0b5da097a1b7e8218ede3c074a9df", "type": "electric_scooter"}, {"fusion_lat": 0.0, "bike_id": "218f292c72253bf5579d90828a4616e3", "fusion_lon": 0.0, "lon": -77.02904366666667, "lat": 38.9170105, "is_reserved": 0, "is_disabled": 0, "rental_uris": {"android": "https://dc.lft.to/lastmile_qr_scan", "ios": "https://dc.lft.to/lastmile_qr_scan"}, "name": "218f292c72253bf5579d90828a4616e3", "type": "electric_scooter"}, {"fusion_lat": 0.0, "bike_id": "7303cc066e1efd2712fab1ac593fa902", "fusion_lon": 0.0, "lon": -77.03066833333334, "lat": 38.92256616666667, "is_reserved": 0, "is_disabled": 0, "rental_uris": {"android": "https://dc.lft.to/lastmile_qr_scan", "ios": "https://dc.lft.to/lastmile_qr_scan"}, "name": "7303cc066e1efd2712fab1ac593fa902", "type": "electric_scooter"}, {"fusion_lat": 0.0, "bike_id": "27a081704447ee90a6ebefb9fa23069e", "fusion_lon": 0.0, "lon": -77.075526, "lat": 38.91043333333333, "is_reserved": 0, "is_disabled": 0, "rental_uris": {"android": "https://dc.lft.to/lastmile_qr_scan", "ios": "https://dc.lft.to/lastmile_qr_scan"}, "name": "27a081704447ee90a6ebefb9fa23069e", "type": "electric_bike"}, {"fusion_lat": 0.0, "bike_id": "b1d144740c940a683e8ace84945d94a0", "fusion_lon": 0.0, "lon": -77.0297615, "lat": 38.916759166666665, "is_reserved": 0, "is_disabled": 0, "rental_uris": {"android": "https://dc.lft.to/lastmile_qr_scan", "ios": "https://dc.lft.to/lastmile_qr_scan"}, "name": "b1d144740c940a683e8ace84945d94a0", "type": "electric_scooter"}, {"fusion_lat": 0.0, "bike_id": "c5a835b5b2486c5f1c75fcbfa01a12e8", "fusion_lon": 0.0, "lon": -77.0312035, "lat": 38.91571416666667, "is_reserved": 0, "is_disabled": 0, "rental_uris": {"android": "https://dc.lft.to/lastmile_qr_scan", "ios": "https://dc.lft.to/lastmile_qr_scan"}, "name": "c5a835b5b2486c5f1c75fcbfa01a12e8", "type": "electric_scooter"}, {"fusion_lat": 0.0, "bike_id": "16f63ba5fef997969e85e48e62e33749", "fusion_lon": 0.0, "lon": -76.97676533333333, "lat": 38.95247466666667, "is_reserved": 0, "is_disabled": 0, "rental_uris": {"android": "https://dc.lft.to/lastmile_qr_scan", "ios": "https://dc.lft.to/lastmile_qr_scan"}, "name": "16f63ba5fef997969e85e48e62e33749", "type": "electric_bike"}, {"fusion_lat": 0.0, "bike_id": "27811a193feff7fac962552969e71f33", "fusion_lon": 0.0, "lon": -77.0292525, "lat": 38.93465116666667, "is_reserved": 0, "is_disabled": 0, "rental_uris": {"android": "https://dc.lft.to/lastmile_qr_scan", "ios": "https://dc.lft.to/lastmile_qr_scan"}, "name": "27811a193feff7fac962552969e71f33", "type": "electric_scooter"}, {"fusion_lat": 0.0, "bike_id": "5beed092f512af973a8277cc06dde6f9", "fusion_lon": 0.0, "lon": -76.98775183333333, "lat": 38.867428333333336, "is_reserved": 0, "is_disabled": 0, "rental_uris": {"android": "https://dc.lft.to/lastmile_qr_scan", "ios": "https://dc.lft.to/lastmile_qr_scan"}, "name": "5beed092f512af973a8277cc06dde6f9", "type": "electric_scooter"}, {"fusion_lat": 0.0, "bike_id": "9a690358375a1594ed6fcd586a7a392a", "fusion_lon": 0.0, "lon": -77.05236783333334, "lat": 38.925517166666666, "is_reserved": 0, "is_disabled": 0, "rental_uris": {"android": "https://dc.lft.to/lastmile_qr_scan", "ios": "https://dc.lft.to/lastmile_qr_scan"}, "name": "9a690358375a1594ed6fcd586a7a392a", "type": "electric_scooter"}, {"fusion_lat": 0.0, "bike_id": "3130b5c53bec0e495cfc1fa3c115d067", "fusion_lon": 0.0, "lon": -77.03836766666667, "lat": 38.906792, "is_reserved": 0, "is_disabled": 0, "rental_uris": {"android": "https://dc.lft.to/lastmile_qr_scan", "ios": "https://dc.lft.to/lastmile_qr_scan"}, "name": "3130b5c53bec0e495cfc1fa3c115d067", "type": "electric_scooter"}, {"fusion_lat": 0.0, "bike_id": "cb243ee4fa3a4cafaf75abf1e9131e9a", "fusion_lon": 0.0, "lon": -77.03914133333333, "lat": 38.899134333333336, "is_reserved": 0, "is_disabled": 0, "rental_uris": {"android": "https://dc.lft.to/lastmile_qr_scan", "ios": "https://dc.lft.to/lastmile_qr_scan"}, "name": "cb243ee4fa3a4cafaf75abf1e9131e9a", "type": "electric_scooter"}, {"fusion_lat": 0.0, "bike_id": "e7cad41a325eacab9095f3f817a85970", "fusion_lon": 0.0, "lon": -77.009856, "lat": 38.87291733333333, "is_reserved": 0, "is_disabled": 0, "rental_uris": {"android": "https://dc.lft.to/lastmile_qr_scan", "ios": "https://dc.lft.to/lastmile_qr_scan"}, "name": "e7cad41a325eacab9095f3f817a85970", "type": "electric_scooter"}, {"fusion_lat": 0.0, "bike_id": "e70efc7929ab63fc801f79e134654147", "fusion_lon": 0.0, "lon": -77.0284405, "lat": 38.93283533333334, "is_reserved": 0, "is_disabled": 0, "rental_uris": {"android": "https://dc.lft.to/lastmile_qr_scan", "ios": "https://dc.lft.to/lastmile_qr_scan"}, "name": "e70efc7929ab63fc801f79e134654147", "type": "electric_scooter"}, {"fusion_lat": 0.0, "bike_id": "2c1b41b1ebe2504208cab6e01149f949", "fusion_lon": 0.0, "lon": -77.04661516666667, "lat": 38.899532666666666, "is_reserved": 0, "is_disabled": 0, "rental_uris": {"android": "https://dc.lft.to/lastmile_qr_scan", "ios": "https://dc.lft.to/lastmile_qr_scan"}, "name": "2c1b41b1ebe2504208cab6e01149f949", "type": "electric_scooter"}, {"fusion_lat": 0.0, "bike_id": "749b1097682f93dd9f3637692737183f", "fusion_lon": 0.0, "lon": -77.01956783333333, "lat": 38.92315216666667, "is_reserved": 0, "is_disabled": 0, "rental_uris": {"android": "https://dc.lft.to/lastmile_qr_scan", "ios": "https://dc.lft.to/lastmile_qr_scan"}, "name": "749b1097682f93dd9f3637692737183f", "type": "electric_scooter"}, {"fusion_lat": 0.0, "bike_id": "b3b5f7b204eff5b8275fe9408a39990d", "fusion_lon": 0.0, "lon": -76.9375455, "lat": 38.8903545, "is_reserved": 0, "is_disabled": 0, "rental_uris": {"android": "https://dc.lft.to/lastmile_qr_scan", "ios": "https://dc.lft.to/lastmile_qr_scan"}, "name": "b3b5f7b204eff5b8275fe9408a39990d", "type": "electric_scooter"}, {"fusion_lat": 0.0, "bike_id": "0a677a867930505e44b905bb12ad7f9b", "fusion_lon": 0.0, "lon": -77.05935116666667, "lat": 38.90532266666666, "is_reserved": 0, "is_disabled": 0, "rental_uris": {"android": "https://dc.lft.to/lastmile_qr_scan", "ios": "https://dc.lft.to/lastmile_qr_scan"}, "name": "0a677a867930505e44b905bb12ad7f9b", "type": "electric_bike"}, {"fusion_lat": 0.0, "bike_id": "761ab2c8ac941be3dccc4b5f10feceac", "fusion_lon": 0.0, "lon": -77.02785283333333, "lat": 38.96209783333333, "is_reserved": 0, "is_disabled": 0, "rental_uris": {"android": "https://dc.lft.to/lastmile_qr_scan", "ios": "https://dc.lft.to/lastmile_qr_scan"}, "name": "761ab2c8ac941be3dccc4b5f10feceac", "type": "electric_scooter"}, {"fusion_lat": 0.0, "bike_id": "47dac8541130fbb33ec2778b73e3af74", "fusion_lon": 0.0, "lon": -77.022162, "lat": 38.9101975, "is_reserved": 0, "is_disabled": 0, "rental_uris": {"android": "https://dc.lft.to/lastmile_qr_scan", "ios": "https://dc.lft.to/lastmile_qr_scan"}, "name": "47dac8541130fbb33ec2778b73e3af74", "type": "electric_scooter"}, {"fusion_lat": 0.0, "bike_id": "9db5478b3ba9c622930d49568d0e2bf9", "fusion_lon": 0.0, "lon": -77.02205733333334, "lat": 38.892946, "is_reserved": 0, "is_disabled": 0, "rental_uris": {"android": "https://dc.lft.to/lastmile_qr_scan", "ios": "https://dc.lft.to/lastmile_qr_scan"}, "name": "9db5478b3ba9c622930d49568d0e2bf9", "type": "electric_scooter"}, {"fusion_lat": 0.0, "bike_id": "c806616a5240f1befc7356b2d000bced", "fusion_lon": 0.0, "lon": -77.03414933333333, "lat": 38.92273466666666, "is_reserved": 0, "is_disabled": 0, "rental_uris": {"android": "https://dc.lft.to/lastmile_qr_scan", "ios": "https://dc.lft.to/lastmile_qr_scan"}, "name": "c806616a5240f1befc7356b2d000bced", "type": "electric_scooter"}, {"fusion_lat": 0.0, "bike_id": "429d133cf186b409290841b708d891c9", "fusion_lon": 0.0, "lon": -77.02737466666666, "lat": 38.896690166666666, "is_reserved": 0, "is_disabled": 0, "rental_uris": {"android": "https://dc.lft.to/lastmile_qr_scan", "ios": "https://dc.lft.to/lastmile_qr_scan"}, "name": "429d133cf186b409290841b708d891c9", "type": "electric_scooter"}, {"fusion_lat": 0.0, "bike_id": "9645eff12ddcea91c891d14b4f10c97b", "fusion_lon": 0.0, "lon": -77.03179583333333, "lat": 38.896293, "is_reserved": 0, "is_disabled": 0, "rental_uris": {"android": "https://dc.lft.to/lastmile_qr_scan", "ios": "https://dc.lft.to/lastmile_qr_scan"}, "name": "9645eff12ddcea91c891d14b4f10c97b", "type": "electric_scooter"}, {"fusion_lat": 0.0, "bike_id": "62fa62d8d6d07985fcc6e5247c9ad386", "fusion_lon": 0.0, "lon": -77.02167116666666, "lat": 38.89731416666667, "is_reserved": 0, "is_disabled": 0, "rental_uris": {"android": "https://dc.lft.to/lastmile_qr_scan", "ios": "https://dc.lft.to/lastmile_qr_scan"}, "name": "62fa62d8d6d07985fcc6e5247c9ad386", "type": "electric_scooter"}, {"fusion_lat": 0.0, "bike_id": "69d9e69fb170f6af176f22e0352c380c", "fusion_lon": 0.0, "lon": -76.98253466666667, "lat": 38.9004825, "is_reserved": 0, "is_disabled": 0, "rental_uris": {"android": "https://dc.lft.to/lastmile_qr_scan", "ios": "https://dc.lft.to/lastmile_qr_scan"}, "name": "69d9e69fb170f6af176f22e0352c380c", "type": "electric_scooter"}, {"fusion_lat": 0.0, "bike_id": "b4be0c2742274055e39c76e9c716a985", "fusion_lon": 0.0, "lon": -77.03390383333333, "lat": 38.9027025, "is_reserved": 0, "is_disabled": 0, "rental_uris": {"android": "https://dc.lft.to/lastmile_qr_scan", "ios": "https://dc.lft.to/lastmile_qr_scan"}, "name": "b4be0c2742274055e39c76e9c716a985", "type": "electric_scooter"}, {"fusion_lat": 0.0, "bike_id": "7e72c97c67e516202f7b99a8aa0fae72", "fusion_lon": 0.0, "lon": -77.045046, "lat": 38.90526633333333, "is_reserved": 0, "is_disabled": 0, "rental_uris": {"android": "https://dc.lft.to/lastmile_qr_scan", "ios": "https://dc.lft.to/lastmile_qr_scan"}, "name": "7e72c97c67e516202f7b99a8aa0fae72", "type": "electric_scooter"}, {"fusion_lat": 0.0, "bike_id": "ee6dadbdc8aa661aa0ffb7bfc97ec160", "fusion_lon": 0.0, "lon": -77.04576666666667, "lat": 38.90212966666667, "is_reserved": 0, "is_disabled": 0, "rental_uris": {"android": "https://dc.lft.to/lastmile_qr_scan", "ios": "https://dc.lft.to/lastmile_qr_scan"}, "name": "ee6dadbdc8aa661aa0ffb7bfc97ec160", "type": "electric_scooter"}, {"fusion_lat": 0.0, "bike_id": "e6f1a315fd0bc5a0e69c2b132fa21a9f", "fusion_lon": 0.0, "lon": -77.04643116666666, "lat": 38.892191, "is_reserved": 0, "is_disabled": 0, "rental_uris": {"android": "https://dc.lft.to/lastmile_qr_scan", "ios": "https://dc.lft.to/lastmile_qr_scan"}, "name": "e6f1a315fd0bc5a0e69c2b132fa21a9f", "type": "electric_scooter"}, {"fusion_lat": 0.0, "bike_id": "3f7d5147b676b07f97b40f3e7b3e8f1a", "fusion_lon": 0.0, "lon": -76.99949066666667, "lat": 38.9193035, "is_reserved": 0, "is_disabled": 0, "rental_uris": {"android": "https://dc.lft.to/lastmile_qr_scan", "ios": "https://dc.lft.to/lastmile_qr_scan"}, "name": "3f7d5147b676b07f97b40f3e7b3e8f1a", "type": "electric_scooter"}, {"fusion_lat": 0.0, "bike_id": "f9ac8cad9559e8f7d098c92723b14114", "fusion_lon": 0.0, "lon": -77.04428733333333, "lat": 38.92131466666667, "is_reserved": 0, "is_disabled": 0, "rental_uris": {"android": "https://dc.lft.to/lastmile_qr_scan", "ios": "https://dc.lft.to/lastmile_qr_scan"}, "name": "f9ac8cad9559e8f7d098c92723b14114", "type": "electric_scooter"}, {"fusion_lat": 0.0, "bike_id": "ea080eb38de8c33e7570a191ccbbc138", "fusion_lon": 0.0, "lon": -77.0217615, "lat": 38.908513, "is_reserved": 0, "is_disabled": 0, "rental_uris": {"android": "https://dc.lft.to/lastmile_qr_scan", "ios": "https://dc.lft.to/lastmile_qr_scan"}, "name": "ea080eb38de8c33e7570a191ccbbc138", "type": "electric_scooter"}, {"fusion_lat": 0.0, "bike_id": "8c00a099747100e64ec30638bb2723c4", "fusion_lon": 0.0, "lon": -77.03217833333333, "lat": 38.927649833333334, "is_reserved": 0, "is_disabled": 0, "rental_uris": {"android": "https://dc.lft.to/lastmile_qr_scan", "ios": "https://dc.lft.to/lastmile_qr_scan"}, "name": "8c00a099747100e64ec30638bb2723c4", "type": "electric_scooter"}, {"fusion_lat": 0.0, "bike_id": "82efb75fe504565f190240b65c572500", "fusion_lon": 0.0, "lon": -77.02289383333333, "lat": 38.91702216666667, "is_reserved": 0, "is_disabled": 0, "rental_uris": {"android": "https://dc.lft.to/lastmile_qr_scan", "ios": "https://dc.lft.to/lastmile_qr_scan"}, "name": "82efb75fe504565f190240b65c572500", "type": "electric_scooter"}, {"fusion_lat": 0.0, "bike_id": "988f6fad972a0eb722284e7cd22e123c", "fusion_lon": 0.0, "lon": -77.02499333333333, "lat": 38.919323166666665, "is_reserved": 0, "is_disabled": 0, "rental_uris": {"android": "https://dc.lft.to/lastmile_qr_scan", "ios": "https://dc.lft.to/lastmile_qr_scan"}, "name": "988f6fad972a0eb722284e7cd22e123c", "type": "electric_scooter"}, {"fusion_lat": 0.0, "bike_id": "1497fe3c0695e84ce3b5bc712d0658cc", "fusion_lon": 0.0, "lon": -77.0236055, "lat": 38.89220016666667, "is_reserved": 0, "is_disabled": 0, "rental_uris": {"android": "https://dc.lft.to/lastmile_qr_scan", "ios": "https://dc.lft.to/lastmile_qr_scan"}, "name": "1497fe3c0695e84ce3b5bc712d0658cc", "type": "electric_scooter"}, {"fusion_lat": 0.0, "bike_id": "fdd816fbc147611424e77bdedbc5ca6f", "fusion_lon": 0.0, "lon": -77.03376783333333, "lat": 38.92810683333333, "is_reserved": 0, "is_disabled": 0, "rental_uris": {"android": "https://dc.lft.to/lastmile_qr_scan", "ios": "https://dc.lft.to/lastmile_qr_scan"}, "name": "fdd816fbc147611424e77bdedbc5ca6f", "type": "electric_scooter"}, {"fusion_lat": 0.0, "bike_id": "9caafbb145a668017ab9a41f497ca4a4", "fusion_lon": 0.0, "lon": -77.04873866666667, "lat": 38.89235683333333, "is_reserved": 0, "is_disabled": 0, "rental_uris": {"android": "https://dc.lft.to/lastmile_qr_scan", "ios": "https://dc.lft.to/lastmile_qr_scan"}, "name": "9caafbb145a668017ab9a41f497ca4a4", "type": "electric_scooter"}, {"fusion_lat": 0.0, "bike_id": "2763492c65c9b0cb248a2ce99f212126", "fusion_lon": 0.0, "lon": -77.03185233333333, "lat": 38.912205, "is_reserved": 0, "is_disabled": 0, "rental_uris": {"android": "https://dc.lft.to/lastmile_qr_scan", "ios": "https://dc.lft.to/lastmile_qr_scan"}, "name": "2763492c65c9b0cb248a2ce99f212126", "type": "electric_scooter"}, {"fusion_lat": 0.0, "bike_id": "98c43cd586989fd81ffe6bb81ddbd149", "fusion_lon": 0.0, "lon": -77.02585816666667, "lat": 38.943044666666665, "is_reserved": 0, "is_disabled": 0, "rental_uris": {"android": "https://dc.lft.to/lastmile_qr_scan", "ios": "https://dc.lft.to/lastmile_qr_scan"}, "name": "98c43cd586989fd81ffe6bb81ddbd149", "type": "electric_scooter"}, {"fusion_lat": 0.0, "bike_id": "29a6709880f7af7a3e16034503b16b0e", "fusion_lon": 0.0, "lon": -76.9313275, "lat": 38.87853883333333, "is_reserved": 0, "is_disabled": 0, "rental_uris": {"android": "https://dc.lft.to/lastmile_qr_scan", "ios": "https://dc.lft.to/lastmile_qr_scan"}, "name": "29a6709880f7af7a3e16034503b16b0e", "type": "electric_scooter"}, {"fusion_lat": 0.0, "bike_id": "276f3698f5834b758fc205a0f73b868e", "fusion_lon": 0.0, "lon": -77.07284933333334, "lat": 38.93096466666667, "is_reserved": 0, "is_disabled": 0, "rental_uris": {"android": "https://dc.lft.to/lastmile_qr_scan", "ios": "https://dc.lft.to/lastmile_qr_scan"}, "name": "276f3698f5834b758fc205a0f73b868e", "type": "electric_scooter"}, {"fusion_lat": 0.0, "bike_id": "8a1595ebd1ead4a038c3d86a19abe140", "fusion_lon": 0.0, "lon": -77.03639683333333, "lat": 38.9230845, "is_reserved": 0, "is_disabled": 0, "rental_uris": {"android": "https://dc.lft.to/lastmile_qr_scan", "ios": "https://dc.lft.to/lastmile_qr_scan"}, "name": "8a1595ebd1ead4a038c3d86a19abe140", "type": "electric_scooter"}, {"fusion_lat": 0.0, "bike_id": "788ef6ab69a9de97826673718c8b2a75", "fusion_lon": 0.0, "lon": -77.04168183333333, "lat": 38.9125875, "is_reserved": 0, "is_disabled": 0, "rental_uris": {"android": "https://dc.lft.to/lastmile_qr_scan", "ios": "https://dc.lft.to/lastmile_qr_scan"}, "name": "788ef6ab69a9de97826673718c8b2a75", "type": "electric_scooter"}, {"fusion_lat": 0.0, "bike_id": "5720ad644f3e3c71624879a6b43da8b2", "fusion_lon": 0.0, "lon": -77.01635816666666, "lat": 38.929013, "is_reserved": 0, "is_disabled": 0, "rental_uris": {"android": "https://dc.lft.to/lastmile_qr_scan", "ios": "https://dc.lft.to/lastmile_qr_scan"}, "name": "5720ad644f3e3c71624879a6b43da8b2", "type": "electric_scooter"}, {"fusion_lat": 0.0, "bike_id": "a268b9d959202cc9a657deef3b72bcf5", "fusion_lon": 0.0, "lon": -77.04494316666667, "lat": 38.897565166666666, "is_reserved": 0, "is_disabled": 0, "rental_uris": {"android": "https://dc.lft.to/lastmile_qr_scan", "ios": "https://dc.lft.to/lastmile_qr_scan"}, "name": "a268b9d959202cc9a657deef3b72bcf5", "type": "electric_scooter"}, {"fusion_lat": 0.0, "bike_id": "980fd3566c26bdba5c40d7a086abcbee", "fusion_lon": 0.0, "lon": -77.008995, "lat": 38.900582166666666, "is_reserved": 0, "is_disabled": 0, "rental_uris": {"android": "https://dc.lft.to/lastmile_qr_scan", "ios": "https://dc.lft.to/lastmile_qr_scan"}, "name": "980fd3566c26bdba5c40d7a086abcbee", "type": "electric_scooter"}, {"fusion_lat": 0.0, "bike_id": "41028b6a8781d9dafab8da19da7d1a2d", "fusion_lon": 0.0, "lon": -77.073426, "lat": 38.90990383333333, "is_reserved": 0, "is_disabled": 0, "rental_uris": {"android": "https://dc.lft.to/lastmile_qr_scan", "ios": "https://dc.lft.to/lastmile_qr_scan"}, "name": "41028b6a8781d9dafab8da19da7d1a2d", "type": "electric_scooter"}, {"fusion_lat": 0.0, "bike_id": "3d388f62be5bcf323ec13f1bd4111cc6", "fusion_lon": 0.0, "lon": -76.955765, "lat": 38.8877245, "is_reserved": 0, "is_disabled": 0, "rental_uris": {"android": "https://dc.lft.to/lastmile_qr_scan", "ios": "https://dc.lft.to/lastmile_qr_scan"}, "name": "3d388f62be5bcf323ec13f1bd4111cc6", "type": "electric_scooter"}, {"fusion_lat": 0.0, "bike_id": "a72406683a342dea66bee5da8f14bee9", "fusion_lon": 0.0, "lon": -77.02145716666666, "lat": 38.9057395, "is_reserved": 0, "is_disabled": 0, "rental_uris": {"android": "https://dc.lft.to/lastmile_qr_scan", "ios": "https://dc.lft.to/lastmile_qr_scan"}, "name": "a72406683a342dea66bee5da8f14bee9", "type": "electric_scooter"}, {"fusion_lat": 0.0, "bike_id": "9ac3dab8285842fdbd0acc66ff07c180", "fusion_lon": 0.0, "lon": -76.98549083333333, "lat": 38.920194333333335, "is_reserved": 0, "is_disabled": 0, "rental_uris": {"android": "https://dc.lft.to/lastmile_qr_scan", "ios": "https://dc.lft.to/lastmile_qr_scan"}, "name": "9ac3dab8285842fdbd0acc66ff07c180", "type": "electric_scooter"}, {"fusion_lat": 0.0, "bike_id": "177813a9adfa8500fcc4190dd179a138", "fusion_lon": 0.0, "lon": -77.02849983333333, "lat": 38.92588, "is_reserved": 0, "is_disabled": 0, "rental_uris": {"android": "https://dc.lft.to/lastmile_qr_scan", "ios": "https://dc.lft.to/lastmile_qr_scan"}, "name": "177813a9adfa8500fcc4190dd179a138", "type": "electric_scooter"}, {"fusion_lat": 0.0, "bike_id": "86db4f57306c40ea142f1959ca0512e6", "fusion_lon": 0.0, "lon": -77.0238385, "lat": 38.932506833333335, "is_reserved": 0, "is_disabled": 0, "rental_uris": {"android": "https://dc.lft.to/lastmile_qr_scan", "ios": "https://dc.lft.to/lastmile_qr_scan"}, "name": "86db4f57306c40ea142f1959ca0512e6", "type": "electric_scooter"}, {"fusion_lat": 0.0, "bike_id": "da7ddef52e33084f62a44a6052e325c6", "fusion_lon": 0.0, "lon": -77.0224235, "lat": 38.92625183333333, "is_reserved": 0, "is_disabled": 0, "rental_uris": {"android": "https://dc.lft.to/lastmile_qr_scan", "ios": "https://dc.lft.to/lastmile_qr_scan"}, "name": "da7ddef52e33084f62a44a6052e325c6", "type": "electric_scooter"}, {"fusion_lat": 0.0, "bike_id": "12a6263a44bb5a396e43d8cf60cdae57", "fusion_lon": 0.0, "lon": -77.0439135, "lat": 39.047190666666665, "is_reserved": 0, "is_disabled": 0, "rental_uris": {"android": "https://dc.lft.to/lastmile_qr_scan", "ios": "https://dc.lft.to/lastmile_qr_scan"}, "name": "12a6263a44bb5a396e43d8cf60cdae57", "type": "electric_bike"}, {"fusion_lat": 0.0, "bike_id": "a0c2c2c6640e745fcab658a7be9dd4d9", "fusion_lon": 0.0, "lon": -77.0465975, "lat": 38.89827066666667, "is_reserved": 0, "is_disabled": 0, "rental_uris": {"android": "https://dc.lft.to/lastmile_qr_scan", "ios": "https://dc.lft.to/lastmile_qr_scan"}, "name": "a0c2c2c6640e745fcab658a7be9dd4d9", "type": "electric_scooter"}, {"fusion_lat": 0.0, "bike_id": "6746df19a196d0c2469bdabc2e670f54", "fusion_lon": 0.0, "lon": -77.03292283333333, "lat": 38.904691166666666, "is_reserved": 0, "is_disabled": 0, "rental_uris": {"android": "https://dc.lft.to/lastmile_qr_scan", "ios": "https://dc.lft.to/lastmile_qr_scan"}, "name": "6746df19a196d0c2469bdabc2e670f54", "type": "electric_scooter"}, {"fusion_lat": 0.0, "bike_id": "953be2c3213e55c49d2f86f9b87e969c", "fusion_lon": 0.0, "lon": -77.04351483333333, "lat": 38.91053866666667, "is_reserved": 0, "is_disabled": 0, "rental_uris": {"android": "https://dc.lft.to/lastmile_qr_scan", "ios": "https://dc.lft.to/lastmile_qr_scan"}, "name": "953be2c3213e55c49d2f86f9b87e969c", "type": "electric_scooter"}, {"fusion_lat": 0.0, "bike_id": "a02216b13f1a5805dcb26f6750380391", "fusion_lon": 0.0, "lon": -77.00717166666666, "lat": 38.946079, "is_reserved": 0, "is_disabled": 0, "rental_uris": {"android": "https://dc.lft.to/lastmile_qr_scan", "ios": "https://dc.lft.to/lastmile_qr_scan"}, "name": "a02216b13f1a5805dcb26f6750380391", "type": "electric_bike"}, {"fusion_lat": 0.0, "bike_id": "b000572dbcd5316fbe2e4adcf2c9be2f", "fusion_lon": 0.0, "lon": -77.02100483333334, "lat": 38.921592833333335, "is_reserved": 0, "is_disabled": 0, "rental_uris": {"android": "https://dc.lft.to/lastmile_qr_scan", "ios": "https://dc.lft.to/lastmile_qr_scan"}, "name": "b000572dbcd5316fbe2e4adcf2c9be2f", "type": "electric_scooter"}, {"fusion_lat": 0.0, "bike_id": "c70717c0b531cd0cd28448dda26b06d2", "fusion_lon": 0.0, "lon": -76.97740183333333, "lat": 38.86499, "is_reserved": 0, "is_disabled": 0, "rental_uris": {"android": "https://dc.lft.to/lastmile_qr_scan", "ios": "https://dc.lft.to/lastmile_qr_scan"}, "name": "c70717c0b531cd0cd28448dda26b06d2", "type": "electric_bike"}, {"fusion_lat": 0.0, "bike_id": "5ebddc94d6d55d3f5181c101c97ef352", "fusion_lon": 0.0, "lon": -77.02201833333334, "lat": 38.9113045, "is_reserved": 0, "is_disabled": 0, "rental_uris": {"android": "https://dc.lft.to/lastmile_qr_scan", "ios": "https://dc.lft.to/lastmile_qr_scan"}, "name": "5ebddc94d6d55d3f5181c101c97ef352", "type": "electric_scooter"}, {"fusion_lat": 0.0, "bike_id": "91ca50d12f26214188098d005838fef8", "fusion_lon": 0.0, "lon": -77.00655816666666, "lat": 38.9446355, "is_reserved": 0, "is_disabled": 0, "rental_uris": {"android": "https://dc.lft.to/lastmile_qr_scan", "ios": "https://dc.lft.to/lastmile_qr_scan"}, "name": "91ca50d12f26214188098d005838fef8", "type": "electric_scooter"}, {"fusion_lat": 0.0, "bike_id": "1d021bf7848e53757f6bceb70a2e777e", "fusion_lon": 0.0, "lon": -77.18571266666666, "lat": 39.099810833333336, "is_reserved": 0, "is_disabled": 0, "rental_uris": {"android": "https://dc.lft.to/lastmile_qr_scan", "ios": "https://dc.lft.to/lastmile_qr_scan"}, "name": "1d021bf7848e53757f6bceb70a2e777e", "type": "electric_bike"}, {"fusion_lat": 0.0, "bike_id": "7447041c2a16b231d3a6afe2a298f19d", "fusion_lon": 0.0, "lon": -77.04128166666666, "lat": 38.927248, "is_reserved": 0, "is_disabled": 0, "rental_uris": {"android": "https://dc.lft.to/lastmile_qr_scan", "ios": "https://dc.lft.to/lastmile_qr_scan"}, "name": "7447041c2a16b231d3a6afe2a298f19d", "type": "electric_scooter"}, {"fusion_lat": 0.0, "bike_id": "f636e00e55bcd1bd6594cd414ddc0b59", "fusion_lon": 0.0, "lon": -77.002479, "lat": 38.952257333333336, "is_reserved": 0, "is_disabled": 0, "rental_uris": {"android": "https://dc.lft.to/lastmile_qr_scan", "ios": "https://dc.lft.to/lastmile_qr_scan"}, "name": "f636e00e55bcd1bd6594cd414ddc0b59", "type": "electric_scooter"}, {"fusion_lat": 0.0, "bike_id": "b9e3c145d6ab2e7f8c2287c98d6a5c1c", "fusion_lon": 0.0, "lon": -77.02552383333334, "lat": 38.94108633333333, "is_reserved": 0, "is_disabled": 0, "rental_uris": {"android": "https://dc.lft.to/lastmile_qr_scan", "ios": "https://dc.lft.to/lastmile_qr_scan"}, "name": "b9e3c145d6ab2e7f8c2287c98d6a5c1c", "type": "electric_scooter"}, {"fusion_lat": 0.0, "bike_id": "30d584a1a3bdc2ad632f6b5c4644ccb5", "fusion_lon": 0.0, "lon": -77.03963133333333, "lat": 38.916403833333334, "is_reserved": 0, "is_disabled": 0, "rental_uris": {"android": "https://dc.lft.to/lastmile_qr_scan", "ios": "https://dc.lft.to/lastmile_qr_scan"}, "name": "30d584a1a3bdc2ad632f6b5c4644ccb5", "type": "electric_scooter"}, {"fusion_lat": 0.0, "bike_id": "596169a9c2aa33032f1ef5400d9d1ba1", "fusion_lon": 0.0, "lon": -77.0247285, "lat": 38.91821266666667, "is_reserved": 0, "is_disabled": 0, "rental_uris": {"android": "https://dc.lft.to/lastmile_qr_scan", "ios": "https://dc.lft.to/lastmile_qr_scan"}, "name": "596169a9c2aa33032f1ef5400d9d1ba1", "type": "electric_scooter"}, {"fusion_lat": 0.0, "bike_id": "d54cdcbab3c05d8eae363cb603432b1a", "fusion_lon": 0.0, "lon": -77.03193866666666, "lat": 38.916798, "is_reserved": 0, "is_disabled": 0, "rental_uris": {"android": "https://dc.lft.to/lastmile_qr_scan", "ios": "https://dc.lft.to/lastmile_qr_scan"}, "name": "d54cdcbab3c05d8eae363cb603432b1a", "type": "electric_scooter"}, {"fusion_lat": 0.0, "bike_id": "4e12f637ae1a28927904bea817217512", "fusion_lon": 0.0, "lon": -76.99035016666667, "lat": 38.8988295, "is_reserved": 0, "is_disabled": 0, "rental_uris": {"android": "https://dc.lft.to/lastmile_qr_scan", "ios": "https://dc.lft.to/lastmile_qr_scan"}, "name": "4e12f637ae1a28927904bea817217512", "type": "electric_scooter"}, {"fusion_lat": 0.0, "bike_id": "ce3aaf0295d718fa3193d9cc1db47e55", "fusion_lon": 0.0, "lon": -77.05042183333333, "lat": 38.92524066666667, "is_reserved": 0, "is_disabled": 0, "rental_uris": {"android": "https://dc.lft.to/lastmile_qr_scan", "ios": "https://dc.lft.to/lastmile_qr_scan"}, "name": "ce3aaf0295d718fa3193d9cc1db47e55", "type": "electric_scooter"}, {"fusion_lat": 0.0, "bike_id": "bfad92d6a3231c248c01b4d76bf24f85", "fusion_lon": 0.0, "lon": -77.051861, "lat": 38.9238945, "is_reserved": 0, "is_disabled": 0, "rental_uris": {"android": "https://dc.lft.to/lastmile_qr_scan", "ios": "https://dc.lft.to/lastmile_qr_scan"}, "name": "bfad92d6a3231c248c01b4d76bf24f85", "type": "electric_scooter"}, {"fusion_lat": 0.0, "bike_id": "2b0e11c3dec140e9a3c9a58cd8c77ed7", "fusion_lon": 0.0, "lon": -76.9841275, "lat": 38.90631233333333, "is_reserved": 0, "is_disabled": 0, "rental_uris": {"android": "https://dc.lft.to/lastmile_qr_scan", "ios": "https://dc.lft.to/lastmile_qr_scan"}, "name": "2b0e11c3dec140e9a3c9a58cd8c77ed7", "type": "electric_scooter"}, {"fusion_lat": 0.0, "bike_id": "d445917f884e99807beee127e0e7a9ac", "fusion_lon": 0.0, "lon": -77.05901666666666, "lat": 38.90310233333334, "is_reserved": 0, "is_disabled": 0, "rental_uris": {"android": "https://dc.lft.to/lastmile_qr_scan", "ios": "https://dc.lft.to/lastmile_qr_scan"}, "name": "d445917f884e99807beee127e0e7a9ac", "type": "electric_scooter"}, {"fusion_lat": 0.0, "bike_id": "e4e42789bb9774b30f6126efd9d07016", "fusion_lon": 0.0, "lon": -77.03112083333333, "lat": 38.91567916666666, "is_reserved": 0, "is_disabled": 0, "rental_uris": {"android": "https://dc.lft.to/lastmile_qr_scan", "ios": "https://dc.lft.to/lastmile_qr_scan"}, "name": "e4e42789bb9774b30f6126efd9d07016", "type": "electric_scooter"}, {"fusion_lat": 0.0, "bike_id": "c83bf6d3343a1fa0eea96aed1b2667c5", "fusion_lon": 0.0, "lon": -76.98367066666667, "lat": 38.91554383333333, "is_reserved": 0, "is_disabled": 0, "rental_uris": {"android": "https://dc.lft.to/lastmile_qr_scan", "ios": "https://dc.lft.to/lastmile_qr_scan"}, "name": "c83bf6d3343a1fa0eea96aed1b2667c5", "type": "electric_scooter"}, {"fusion_lat": 0.0, "bike_id": "6cc21864f966612062dd186ab57f8567", "fusion_lon": 0.0, "lon": -76.9988485, "lat": 38.92056483333333, "is_reserved": 0, "is_disabled": 0, "rental_uris": {"android": "https://dc.lft.to/lastmile_qr_scan", "ios": "https://dc.lft.to/lastmile_qr_scan"}, "name": "6cc21864f966612062dd186ab57f8567", "type": "electric_scooter"}, {"fusion_lat": 0.0, "bike_id": "f5b8ae4dc2907e5c4d603945bc6d486c", "fusion_lon": 0.0, "lon": -77.02655966666667, "lat": 38.9387105, "is_reserved": 0, "is_disabled": 0, "rental_uris": {"android": "https://dc.lft.to/lastmile_qr_scan", "ios": "https://dc.lft.to/lastmile_qr_scan"}, "name": "f5b8ae4dc2907e5c4d603945bc6d486c", "type": "electric_scooter"}, {"fusion_lat": 0.0, "bike_id": "214bcdad7caf3afe4ed9cdfdedc159fb", "fusion_lon": 0.0, "lon": -77.04382916666667, "lat": 38.920729666666666, "is_reserved": 0, "is_disabled": 0, "rental_uris": {"android": "https://dc.lft.to/lastmile_qr_scan", "ios": "https://dc.lft.to/lastmile_qr_scan"}, "name": "214bcdad7caf3afe4ed9cdfdedc159fb", "type": "electric_scooter"}, {"fusion_lat": 0.0, "bike_id": "1c0f50db47524b425b6c1d5bbf03e2e4", "fusion_lon": 0.0, "lon": -76.99357633333334, "lat": 38.84508233333333, "is_reserved": 0, "is_disabled": 0, "rental_uris": {"android": "https://dc.lft.to/lastmile_qr_scan", "ios": "https://dc.lft.to/lastmile_qr_scan"}, "name": "1c0f50db47524b425b6c1d5bbf03e2e4", "type": "electric_bike"}, {"fusion_lat": 0.0, "bike_id": "b945d8b5c5286ca09ae5842a2cbc9506", "fusion_lon": 0.0, "lon": -76.97647466666666, "lat": 38.898785833333335, "is_reserved": 0, "is_disabled": 0, "rental_uris": {"android": "https://dc.lft.to/lastmile_qr_scan", "ios": "https://dc.lft.to/lastmile_qr_scan"}, "name": "b945d8b5c5286ca09ae5842a2cbc9506", "type": "electric_bike"}, {"fusion_lat": 0.0, "bike_id": "882dc0d271d1693374aa662a34ea1669", "fusion_lon": 0.0, "lon": -77.03590266666667, "lat": 38.909789333333336, "is_reserved": 0, "is_disabled": 0, "rental_uris": {"android": "https://dc.lft.to/lastmile_qr_scan", "ios": "https://dc.lft.to/lastmile_qr_scan"}, "name": "882dc0d271d1693374aa662a34ea1669", "type": "electric_scooter"}, {"fusion_lat": 0.0, "bike_id": "e2d7b5ef0e4265009bd4d502a13f6af2", "fusion_lon": 0.0, "lon": -77.01379916666667, "lat": 38.89830166666667, "is_reserved": 0, "is_disabled": 0, "rental_uris": {"android": "https://dc.lft.to/lastmile_qr_scan", "ios": "https://dc.lft.to/lastmile_qr_scan"}, "name": "e2d7b5ef0e4265009bd4d502a13f6af2", "type": "electric_scooter"}, {"fusion_lat": 0.0, "bike_id": "954d01c8d811b047b248e5f81317332e", "fusion_lon": 0.0, "lon": -77.03004216666666, "lat": 39.04196483333333, "is_reserved": 0, "is_disabled": 0, "rental_uris": {"android": "https://dc.lft.to/lastmile_qr_scan", "ios": "https://dc.lft.to/lastmile_qr_scan"}, "name": "954d01c8d811b047b248e5f81317332e", "type": "electric_bike"}, {"fusion_lat": 0.0, "bike_id": "4e48287b58e7f637198217f391744e48", "fusion_lon": 0.0, "lon": -77.04333883333334, "lat": 38.90686516666667, "is_reserved": 0, "is_disabled": 0, "rental_uris": {"android": "https://dc.lft.to/lastmile_qr_scan", "ios": "https://dc.lft.to/lastmile_qr_scan"}, "name": "4e48287b58e7f637198217f391744e48", "type": "electric_scooter"}, {"fusion_lat": 0.0, "bike_id": "c020f7c1846edbdfa4ead866369d24b3", "fusion_lon": 0.0, "lon": -77.00192283333334, "lat": 38.891078, "is_reserved": 0, "is_disabled": 0, "rental_uris": {"android": "https://dc.lft.to/lastmile_qr_scan", "ios": "https://dc.lft.to/lastmile_qr_scan"}, "name": "c020f7c1846edbdfa4ead866369d24b3", "type": "electric_scooter"}, {"fusion_lat": 0.0, "bike_id": "cf39ab5fce887d9c401f3cdd21975a0e", "fusion_lon": 0.0, "lon": -77.02693166666667, "lat": 38.918674333333335, "is_reserved": 0, "is_disabled": 0, "rental_uris": {"android": "https://dc.lft.to/lastmile_qr_scan", "ios": "https://dc.lft.to/lastmile_qr_scan"}, "name": "cf39ab5fce887d9c401f3cdd21975a0e", "type": "electric_scooter"}, {"fusion_lat": 0.0, "bike_id": "ce9d869fc200216670411d10c2472c1b", "fusion_lon": 0.0, "lon": -77.077928, "lat": 38.996075, "is_reserved": 0, "is_disabled": 0, "rental_uris": {"android": "https://dc.lft.to/lastmile_qr_scan", "ios": "https://dc.lft.to/lastmile_qr_scan"}, "name": "ce9d869fc200216670411d10c2472c1b", "type": "electric_bike"}, {"fusion_lat": 0.0, "bike_id": "4597e1c8cb989f803aab44df49f64d02", "fusion_lon": 0.0, "lon": -77.0200745, "lat": 38.8861385, "is_reserved": 0, "is_disabled": 0, "rental_uris": {"android": "https://dc.lft.to/lastmile_qr_scan", "ios": "https://dc.lft.to/lastmile_qr_scan"}, "name": "4597e1c8cb989f803aab44df49f64d02", "type": "electric_scooter"}, {"fusion_lat": 0.0, "bike_id": "73019be8d5738fc74ba8d09ec64b28b3", "fusion_lon": 0.0, "lon": -77.0421365, "lat": 38.921307, "is_reserved": 0, "is_disabled": 0, "rental_uris": {"android": "https://dc.lft.to/lastmile_qr_scan", "ios": "https://dc.lft.to/lastmile_qr_scan"}, "name": "73019be8d5738fc74ba8d09ec64b28b3", "type": "electric_scooter"}, {"fusion_lat": 0.0, "bike_id": "e0ae0efafbbbcad62328ab30e3c1e934", "fusion_lon": 0.0, "lon": -76.99850066666667, "lat": 38.841598833333336, "is_reserved": 0, "is_disabled": 0, "rental_uris": {"android": "https://dc.lft.to/lastmile_qr_scan", "ios": "https://dc.lft.to/lastmile_qr_scan"}, "name": "e0ae0efafbbbcad62328ab30e3c1e934", "type": "electric_scooter"}, {"fusion_lat": 0.0, "bike_id": "d7b5ace913f1e1135817623d0d6ced0d", "fusion_lon": 0.0, "lon": -77.1249225, "lat": 38.82789833333333, "is_reserved": 0, "is_disabled": 0, "rental_uris": {"android": "https://dc.lft.to/lastmile_qr_scan", "ios": "https://dc.lft.to/lastmile_qr_scan"}, "name": "d7b5ace913f1e1135817623d0d6ced0d", "type": "electric_bike"}, {"fusion_lat": 0.0, "bike_id": "1fcfd8376630bd85dfdbe86ef3eb9434", "fusion_lon": 0.0, "lon": -77.03311066666667, "lat": 38.89815883333333, "is_reserved": 0, "is_disabled": 0, "rental_uris": {"android": "https://dc.lft.to/lastmile_qr_scan", "ios": "https://dc.lft.to/lastmile_qr_scan"}, "name": "1fcfd8376630bd85dfdbe86ef3eb9434", "type": "electric_scooter"}, {"fusion_lat": 0.0, "bike_id": "8ab8198c83d28593f683d02817ad6751", "fusion_lon": 0.0, "lon": -77.02724866666667, "lat": 38.93474633333334, "is_reserved": 0, "is_disabled": 0, "rental_uris": {"android": "https://dc.lft.to/lastmile_qr_scan", "ios": "https://dc.lft.to/lastmile_qr_scan"}, "name": "8ab8198c83d28593f683d02817ad6751", "type": "electric_scooter"}, {"fusion_lat": 0.0, "bike_id": "ba198617044c5b92aacd7dd9430d7041", "fusion_lon": 0.0, "lon": -77.04653833333333, "lat": 38.90013116666667, "is_reserved": 0, "is_disabled": 0, "rental_uris": {"android": "https://dc.lft.to/lastmile_qr_scan", "ios": "https://dc.lft.to/lastmile_qr_scan"}, "name": "ba198617044c5b92aacd7dd9430d7041", "type": "electric_scooter"}, {"fusion_lat": 0.0, "bike_id": "d483472591496856fd8d031f45a235e4", "fusion_lon": 0.0, "lon": -76.985667, "lat": 38.899606, "is_reserved": 0, "is_disabled": 0, "rental_uris": {"android": "https://dc.lft.to/lastmile_qr_scan", "ios": "https://dc.lft.to/lastmile_qr_scan"}, "name": "d483472591496856fd8d031f45a235e4", "type": "electric_scooter"}, {"fusion_lat": 0.0, "bike_id": "5477d7ed425b5f1eeeea83921bfa3afa", "fusion_lon": 0.0, "lon": -77.00281566666666, "lat": 38.957152, "is_reserved": 0, "is_disabled": 0, "rental_uris": {"android": "https://dc.lft.to/lastmile_qr_scan", "ios": "https://dc.lft.to/lastmile_qr_scan"}, "name": "5477d7ed425b5f1eeeea83921bfa3afa", "type": "electric_bike"}, {"fusion_lat": 0.0, "bike_id": "1ea77c219525ae8ecb50e44358d68327", "fusion_lon": 0.0, "lon": -77.07596233333334, "lat": 38.91224233333333, "is_reserved": 0, "is_disabled": 0, "rental_uris": {"android": "https://dc.lft.to/lastmile_qr_scan", "ios": "https://dc.lft.to/lastmile_qr_scan"}, "name": "1ea77c219525ae8ecb50e44358d68327", "type": "electric_scooter"}, {"fusion_lat": 0.0, "bike_id": "f74fa7e15a9a257cf8321aef4b6a69ac", "fusion_lon": 0.0, "lon": -77.0058915, "lat": 38.902001166666665, "is_reserved": 0, "is_disabled": 0, "rental_uris": {"android": "https://dc.lft.to/lastmile_qr_scan", "ios": "https://dc.lft.to/lastmile_qr_scan"}, "name": "f74fa7e15a9a257cf8321aef4b6a69ac", "type": "electric_scooter"}, {"fusion_lat": 0.0, "bike_id": "be383269c819fa846f943fc27c5644db", "fusion_lon": 0.0, "lon": -77.10649066666667, "lat": 38.9361305, "is_reserved": 0, "is_disabled": 0, "rental_uris": {"android": "https://dc.lft.to/lastmile_qr_scan", "ios": "https://dc.lft.to/lastmile_qr_scan"}, "name": "be383269c819fa846f943fc27c5644db", "type": "electric_bike"}, {"fusion_lat": 0.0, "bike_id": "65dbafc0ee024233eed6c77abfc61e74", "fusion_lon": 0.0, "lon": -77.02985016666666, "lat": 38.930683, "is_reserved": 0, "is_disabled": 0, "rental_uris": {"android": "https://dc.lft.to/lastmile_qr_scan", "ios": "https://dc.lft.to/lastmile_qr_scan"}, "name": "65dbafc0ee024233eed6c77abfc61e74", "type": "electric_scooter"}, {"fusion_lat": 0.0, "bike_id": "0efc9cd453e86f4ab056f568e504c301", "fusion_lon": 0.0, "lon": -77.04824666666667, "lat": 38.909623, "is_reserved": 0, "is_disabled": 0, "rental_uris": {"android": "https://dc.lft.to/lastmile_qr_scan", "ios": "https://dc.lft.to/lastmile_qr_scan"}, "name": "0efc9cd453e86f4ab056f568e504c301", "type": "electric_scooter"}, {"fusion_lat": 0.0, "bike_id": "37dc1e1f11e38a28d84be40c98c741cb", "fusion_lon": 0.0, "lon": -77.03209066666666, "lat": 38.9039085, "is_reserved": 0, "is_disabled": 0, "rental_uris": {"android": "https://dc.lft.to/lastmile_qr_scan", "ios": "https://dc.lft.to/lastmile_qr_scan"}, "name": "37dc1e1f11e38a28d84be40c98c741cb", "type": "electric_scooter"}, {"fusion_lat": 0.0, "bike_id": "deb1c9e49d1631519425e2b1527d1293", "fusion_lon": 0.0, "lon": -77.04348883333333, "lat": 38.921446833333334, "is_reserved": 0, "is_disabled": 0, "rental_uris": {"android": "https://dc.lft.to/lastmile_qr_scan", "ios": "https://dc.lft.to/lastmile_qr_scan"}, "name": "deb1c9e49d1631519425e2b1527d1293", "type": "electric_scooter"}, {"fusion_lat": 0.0, "bike_id": "a9423eaef43b8e54cb7e9aa8fb04f18c", "fusion_lon": 0.0, "lon": -77.03449366666666, "lat": 38.9095575, "is_reserved": 0, "is_disabled": 0, "rental_uris": {"android": "https://dc.lft.to/lastmile_qr_scan", "ios": "https://dc.lft.to/lastmile_qr_scan"}, "name": "a9423eaef43b8e54cb7e9aa8fb04f18c", "type": "electric_scooter"}, {"fusion_lat": 0.0, "bike_id": "c24c5a3b06a6ebbf356b2ef16ed6b424", "fusion_lon": 0.0, "lon": -77.04290766666666, "lat": 38.911251666666665, "is_reserved": 0, "is_disabled": 0, "rental_uris": {"android": "https://dc.lft.to/lastmile_qr_scan", "ios": "https://dc.lft.to/lastmile_qr_scan"}, "name": "c24c5a3b06a6ebbf356b2ef16ed6b424", "type": "electric_scooter"}, {"fusion_lat": 0.0, "bike_id": "82ee090713a491cf544d9fceae4fb7a7", "fusion_lon": 0.0, "lon": -77.00650983333334, "lat": 38.90101533333333, "is_reserved": 0, "is_disabled": 0, "rental_uris": {"android": "https://dc.lft.to/lastmile_qr_scan", "ios": "https://dc.lft.to/lastmile_qr_scan"}, "name": "82ee090713a491cf544d9fceae4fb7a7", "type": "electric_scooter"}, {"fusion_lat": 0.0, "bike_id": "425eca1a86380b42805881134f955020", "fusion_lon": 0.0, "lon": -76.99580883333333, "lat": 38.851782666666665, "is_reserved": 0, "is_disabled": 0, "rental_uris": {"android": "https://dc.lft.to/lastmile_qr_scan", "ios": "https://dc.lft.to/lastmile_qr_scan"}, "name": "425eca1a86380b42805881134f955020", "type": "electric_scooter"}, {"fusion_lat": 0.0, "bike_id": "8fbb3f9b1b0fc2bf40bebe1530392886", "fusion_lon": 0.0, "lon": -77.0392445, "lat": 38.9027855, "is_reserved": 0, "is_disabled": 0, "rental_uris": {"android": "https://dc.lft.to/lastmile_qr_scan", "ios": "https://dc.lft.to/lastmile_qr_scan"}, "name": "8fbb3f9b1b0fc2bf40bebe1530392886", "type": "electric_scooter"}, {"fusion_lat": 0.0, "bike_id": "1196ad10fdbac5214d3f267b35daff47", "fusion_lon": 0.0, "lon": -76.9986715, "lat": 38.90026566666667, "is_reserved": 0, "is_disabled": 0, "rental_uris": {"android": "https://dc.lft.to/lastmile_qr_scan", "ios": "https://dc.lft.to/lastmile_qr_scan"}, "name": "1196ad10fdbac5214d3f267b35daff47", "type": "electric_scooter"}, {"fusion_lat": 0.0, "bike_id": "d25049cce423afaa016f0a8e3b4f4047", "fusion_lon": 0.0, "lon": -77.02652716666667, "lat": 38.93862466666667, "is_reserved": 0, "is_disabled": 0, "rental_uris": {"android": "https://dc.lft.to/lastmile_qr_scan", "ios": "https://dc.lft.to/lastmile_qr_scan"}, "name": "d25049cce423afaa016f0a8e3b4f4047", "type": "electric_scooter"}, {"fusion_lat": 0.0, "bike_id": "9415550ef72529bc7c6c7fb4280dfc24", "fusion_lon": 0.0, "lon": -76.97838633333333, "lat": 38.8991435, "is_reserved": 0, "is_disabled": 0, "rental_uris": {"android": "https://dc.lft.to/lastmile_qr_scan", "ios": "https://dc.lft.to/lastmile_qr_scan"}, "name": "9415550ef72529bc7c6c7fb4280dfc24", "type": "electric_scooter"}, {"fusion_lat": 0.0, "bike_id": "396229e265a42f1a470e935648cf8efc", "fusion_lon": 0.0, "lon": -77.04802916666667, "lat": 38.9050195, "is_reserved": 0, "is_disabled": 0, "rental_uris": {"android": "https://dc.lft.to/lastmile_qr_scan", "ios": "https://dc.lft.to/lastmile_qr_scan"}, "name": "396229e265a42f1a470e935648cf8efc", "type": "electric_scooter"}, {"fusion_lat": 0.0, "bike_id": "6ef03a0f1c4f65524f5c33f4b68d7df4", "fusion_lon": 0.0, "lon": -77.01224366666666, "lat": 38.91442883333333, "is_reserved": 0, "is_disabled": 0, "rental_uris": {"android": "https://dc.lft.to/lastmile_qr_scan", "ios": "https://dc.lft.to/lastmile_qr_scan"}, "name": "6ef03a0f1c4f65524f5c33f4b68d7df4", "type": "electric_scooter"}, {"fusion_lat": 0.0, "bike_id": "4eaa56372088235be4449955a22186b9", "fusion_lon": 0.0, "lon": -77.04486966666667, "lat": 38.8922835, "is_reserved": 0, "is_disabled": 0, "rental_uris": {"android": "https://dc.lft.to/lastmile_qr_scan", "ios": "https://dc.lft.to/lastmile_qr_scan"}, "name": "4eaa56372088235be4449955a22186b9", "type": "electric_scooter"}, {"fusion_lat": 0.0, "bike_id": "69f59959596c9949a6104a28b25f674f", "fusion_lon": 0.0, "lon": -77.03327, "lat": 38.947167, "is_reserved": 0, "is_disabled": 0, "rental_uris": {"android": "https://dc.lft.to/lastmile_qr_scan", "ios": "https://dc.lft.to/lastmile_qr_scan"}, "name": "69f59959596c9949a6104a28b25f674f", "type": "electric_scooter"}, {"fusion_lat": 0.0, "bike_id": "48ca62e10ce4659a40ee1f0e126dced3", "fusion_lon": 0.0, "lon": -77.02714066666667, "lat": 38.89728566666667, "is_reserved": 0, "is_disabled": 0, "rental_uris": {"android": "https://dc.lft.to/lastmile_qr_scan", "ios": "https://dc.lft.to/lastmile_qr_scan"}, "name": "48ca62e10ce4659a40ee1f0e126dced3", "type": "electric_scooter"}, {"fusion_lat": 0.0, "bike_id": "72f0255423506421c0c645feeb395275", "fusion_lon": 0.0, "lon": -77.033185, "lat": 38.898307, "is_reserved": 0, "is_disabled": 0, "rental_uris": {"android": "https://dc.lft.to/lastmile_qr_scan", "ios": "https://dc.lft.to/lastmile_qr_scan"}, "name": "72f0255423506421c0c645feeb395275", "type": "electric_scooter"}, {"fusion_lat": 0.0, "bike_id": "b083a5dc9753bc8c8238aecc4f5c226b", "fusion_lon": 0.0, "lon": -77.0433705, "lat": 38.8922455, "is_reserved": 0, "is_disabled": 0, "rental_uris": {"android": "https://dc.lft.to/lastmile_qr_scan", "ios": "https://dc.lft.to/lastmile_qr_scan"}, "name": "b083a5dc9753bc8c8238aecc4f5c226b", "type": "electric_scooter"}, {"fusion_lat": 0.0, "bike_id": "55294bf7365044be0e24f949a72d615d", "fusion_lon": 0.0, "lon": -77.05003233333333, "lat": 38.892305666666665, "is_reserved": 0, "is_disabled": 0, "rental_uris": {"android": "https://dc.lft.to/lastmile_qr_scan", "ios": "https://dc.lft.to/lastmile_qr_scan"}, "name": "55294bf7365044be0e24f949a72d615d", "type": "electric_scooter"}, {"fusion_lat": 0.0, "bike_id": "85b0a82c286e9c99083a20fc6a05b132", "fusion_lon": 0.0, "lon": -77.01971766666666, "lat": 38.88375966666667, "is_reserved": 0, "is_disabled": 0, "rental_uris": {"android": "https://dc.lft.to/lastmile_qr_scan", "ios": "https://dc.lft.to/lastmile_qr_scan"}, "name": "85b0a82c286e9c99083a20fc6a05b132", "type": "electric_scooter"}, {"fusion_lat": 0.0, "bike_id": "2bdb34526dcca8e660c3b548a3ed8676", "fusion_lon": 0.0, "lon": -76.99373583333333, "lat": 38.8796945, "is_reserved": 0, "is_disabled": 0, "rental_uris": {"android": "https://dc.lft.to/lastmile_qr_scan", "ios": "https://dc.lft.to/lastmile_qr_scan"}, "name": "2bdb34526dcca8e660c3b548a3ed8676", "type": "electric_scooter"}, {"fusion_lat": 0.0, "bike_id": "7633130091d5b83f08e386e826963e10", "fusion_lon": 0.0, "lon": -77.03125316666667, "lat": 38.92394916666667, "is_reserved": 0, "is_disabled": 0, "rental_uris": {"android": "https://dc.lft.to/lastmile_qr_scan", "ios": "https://dc.lft.to/lastmile_qr_scan"}, "name": "7633130091d5b83f08e386e826963e10", "type": "electric_scooter"}, {"fusion_lat": 0.0, "bike_id": "2445259165db753282284e821c5a0311", "fusion_lon": 0.0, "lon": -77.03815916666667, "lat": 38.90666233333334, "is_reserved": 0, "is_disabled": 0, "rental_uris": {"android": "https://dc.lft.to/lastmile_qr_scan", "ios": "https://dc.lft.to/lastmile_qr_scan"}, "name": "2445259165db753282284e821c5a0311", "type": "electric_scooter"}, {"fusion_lat": 0.0, "bike_id": "5f73a794c46f95a1ebf134ca6d622763", "fusion_lon": 0.0, "lon": -76.9900665, "lat": 38.86511516666667, "is_reserved": 0, "is_disabled": 0, "rental_uris": {"android": "https://dc.lft.to/lastmile_qr_scan", "ios": "https://dc.lft.to/lastmile_qr_scan"}, "name": "5f73a794c46f95a1ebf134ca6d622763", "type": "electric_scooter"}, {"fusion_lat": 0.0, "bike_id": "f4e842556d33a3f731f15e97e4ef1f5c", "fusion_lon": 0.0, "lon": -77.03968416666666, "lat": 38.89225783333333, "is_reserved": 0, "is_disabled": 0, "rental_uris": {"android": "https://dc.lft.to/lastmile_qr_scan", "ios": "https://dc.lft.to/lastmile_qr_scan"}, "name": "f4e842556d33a3f731f15e97e4ef1f5c", "type": "electric_scooter"}, {"fusion_lat": 0.0, "bike_id": "865dffd3c12a57f873c8025c73c5ebc3", "fusion_lon": 0.0, "lon": -77.03183983333334, "lat": 38.9174775, "is_reserved": 0, "is_disabled": 0, "rental_uris": {"android": "https://dc.lft.to/lastmile_qr_scan", "ios": "https://dc.lft.to/lastmile_qr_scan"}, "name": "865dffd3c12a57f873c8025c73c5ebc3", "type": "electric_scooter"}, {"fusion_lat": 0.0, "bike_id": "5d8561ee93dc00558c0a55223c3b8b72", "fusion_lon": 0.0, "lon": -76.98855533333334, "lat": 38.867391166666664, "is_reserved": 0, "is_disabled": 0, "rental_uris": {"android": "https://dc.lft.to/lastmile_qr_scan", "ios": "https://dc.lft.to/lastmile_qr_scan"}, "name": "5d8561ee93dc00558c0a55223c3b8b72", "type": "electric_scooter"}, {"fusion_lat": 0.0, "bike_id": "ed5e006574b649c734fe98f4420e7de2", "fusion_lon": 0.0, "lon": -77.02209766666667, "lat": 38.878954666666665, "is_reserved": 0, "is_disabled": 0, "rental_uris": {"android": "https://dc.lft.to/lastmile_qr_scan", "ios": "https://dc.lft.to/lastmile_qr_scan"}, "name": "ed5e006574b649c734fe98f4420e7de2", "type": "electric_scooter"}, {"fusion_lat": 0.0, "bike_id": "bfab2ce25fdded28a4800eb86a330f05", "fusion_lon": 0.0, "lon": -77.01744583333333, "lat": 38.88749833333333, "is_reserved": 0, "is_disabled": 0, "rental_uris": {"android": "https://dc.lft.to/lastmile_qr_scan", "ios": "https://dc.lft.to/lastmile_qr_scan"}, "name": "bfab2ce25fdded28a4800eb86a330f05", "type": "electric_scooter"}, {"fusion_lat": 0.0, "bike_id": "c2c44bd2f28301bde0f0e2013ee0dbbd", "fusion_lon": 0.0, "lon": -77.0374245, "lat": 38.918090166666666, "is_reserved": 0, "is_disabled": 0, "rental_uris": {"android": "https://dc.lft.to/lastmile_qr_scan", "ios": "https://dc.lft.to/lastmile_qr_scan"}, "name": "c2c44bd2f28301bde0f0e2013ee0dbbd", "type": "electric_scooter"}, {"fusion_lat": 0.0, "bike_id": "4225e94ee4311ab4be274ecad99a4aa1", "fusion_lon": 0.0, "lon": -77.04262683333333, "lat": 38.907374833333336, "is_reserved": 0, "is_disabled": 0, "rental_uris": {"android": "https://dc.lft.to/lastmile_qr_scan", "ios": "https://dc.lft.to/lastmile_qr_scan"}, "name": "4225e94ee4311ab4be274ecad99a4aa1", "type": "electric_scooter"}, {"fusion_lat": 0.0, "bike_id": "ec6fff82d0af5c05bc8feb29b0fa2d41", "fusion_lon": 0.0, "lon": -77.02596266666667, "lat": 38.920414666666666, "is_reserved": 0, "is_disabled": 0, "rental_uris": {"android": "https://dc.lft.to/lastmile_qr_scan", "ios": "https://dc.lft.to/lastmile_qr_scan"}, "name": "ec6fff82d0af5c05bc8feb29b0fa2d41", "type": "electric_scooter"}, {"fusion_lat": 0.0, "bike_id": "4c8feb2565904a78b5a806a392172528", "fusion_lon": 0.0, "lon": -77.04338783333333, "lat": 38.922161, "is_reserved": 0, "is_disabled": 0, "rental_uris": {"android": "https://dc.lft.to/lastmile_qr_scan", "ios": "https://dc.lft.to/lastmile_qr_scan"}, "name": "4c8feb2565904a78b5a806a392172528", "type": "electric_scooter"}, {"fusion_lat": 0.0, "bike_id": "85fb816b7f5e096fa76f5b493a7a924e", "fusion_lon": 0.0, "lon": -77.04942833333334, "lat": 38.90947233333333, "is_reserved": 0, "is_disabled": 0, "rental_uris": {"android": "https://dc.lft.to/lastmile_qr_scan", "ios": "https://dc.lft.to/lastmile_qr_scan"}, "name": "85fb816b7f5e096fa76f5b493a7a924e", "type": "electric_scooter"}, {"fusion_lat": 0.0, "bike_id": "9c95e85028fe83230836981869f41bd9", "fusion_lon": 0.0, "lon": -77.05164616666667, "lat": 39.04321066666667, "is_reserved": 0, "is_disabled": 0, "rental_uris": {"android": "https://dc.lft.to/lastmile_qr_scan", "ios": "https://dc.lft.to/lastmile_qr_scan"}, "name": "9c95e85028fe83230836981869f41bd9", "type": "electric_bike"}, {"fusion_lat": 0.0, "bike_id": "f4737f385b70e51b569d11be98fe9295", "fusion_lon": 0.0, "lon": -76.93303016666667, "lat": 38.89197883333333, "is_reserved": 0, "is_disabled": 0, "rental_uris": {"android": "https://dc.lft.to/lastmile_qr_scan", "ios": "https://dc.lft.to/lastmile_qr_scan"}, "name": "f4737f385b70e51b569d11be98fe9295", "type": "electric_scooter"}, {"fusion_lat": 0.0, "bike_id": "e215c68151a72067b2302a0ed15933f3", "fusion_lon": 0.0, "lon": -77.06379416666667, "lat": 38.90514816666666, "is_reserved": 0, "is_disabled": 0, "rental_uris": {"android": "https://dc.lft.to/lastmile_qr_scan", "ios": "https://dc.lft.to/lastmile_qr_scan"}, "name": "e215c68151a72067b2302a0ed15933f3", "type": "electric_scooter"}, {"fusion_lat": 0.0, "bike_id": "1e867c4991da1a3541ad5524312789dc", "fusion_lon": 0.0, "lon": -77.09550116666666, "lat": 38.981992166666664, "is_reserved": 0, "is_disabled": 0, "rental_uris": {"android": "https://dc.lft.to/lastmile_qr_scan", "ios": "https://dc.lft.to/lastmile_qr_scan"}, "name": "1e867c4991da1a3541ad5524312789dc", "type": "electric_bike"}, {"fusion_lat": 0.0, "bike_id": "48309a0c38bc97da41b14e87b19f3c81", "fusion_lon": 0.0, "lon": -77.04893116666666, "lat": 38.90546833333333, "is_reserved": 0, "is_disabled": 0, "rental_uris": {"android": "https://dc.lft.to/lastmile_qr_scan", "ios": "https://dc.lft.to/lastmile_qr_scan"}, "name": "48309a0c38bc97da41b14e87b19f3c81", "type": "electric_scooter"}, {"fusion_lat": 0.0, "bike_id": "16077967b5d6618516bb0e672ea8f54c", "fusion_lon": 0.0, "lon": -77.01499783333334, "lat": 38.89225166666667, "is_reserved": 0, "is_disabled": 0, "rental_uris": {"android": "https://dc.lft.to/lastmile_qr_scan", "ios": "https://dc.lft.to/lastmile_qr_scan"}, "name": "16077967b5d6618516bb0e672ea8f54c", "type": "electric_scooter"}, {"fusion_lat": 0.0, "bike_id": "faf09b351ce3726d44a95bdf3c066856", "fusion_lon": 0.0, "lon": -77.01699466666666, "lat": 38.92055716666667, "is_reserved": 0, "is_disabled": 0, "rental_uris": {"android": "https://dc.lft.to/lastmile_qr_scan", "ios": "https://dc.lft.to/lastmile_qr_scan"}, "name": "faf09b351ce3726d44a95bdf3c066856", "type": "electric_scooter"}, {"fusion_lat": 0.0, "bike_id": "e9e06917f11d5f1fa39f0acd39f5e55e", "fusion_lon": 0.0, "lon": -76.93758383333333, "lat": 38.890403666666664, "is_reserved": 0, "is_disabled": 0, "rental_uris": {"android": "https://dc.lft.to/lastmile_qr_scan", "ios": "https://dc.lft.to/lastmile_qr_scan"}, "name": "e9e06917f11d5f1fa39f0acd39f5e55e", "type": "electric_scooter"}, {"fusion_lat": 0.0, "bike_id": "d521b7d218d14bfb6733d0fc08efc4e6", "fusion_lon": 0.0, "lon": -77.11151666666666, "lat": 38.85513683333333, "is_reserved": 0, "is_disabled": 0, "rental_uris": {"android": "https://dc.lft.to/lastmile_qr_scan", "ios": "https://dc.lft.to/lastmile_qr_scan"}, "name": "d521b7d218d14bfb6733d0fc08efc4e6", "type": "electric_bike"}, {"fusion_lat": 0.0, "bike_id": "6e64caf13a8c63573d5d2eb989960033", "fusion_lon": 0.0, "lon": -77.1048465, "lat": 38.856017, "is_reserved": 0, "is_disabled": 0, "rental_uris": {"android": "https://dc.lft.to/lastmile_qr_scan", "ios": "https://dc.lft.to/lastmile_qr_scan"}, "name": "6e64caf13a8c63573d5d2eb989960033", "type": "electric_bike"}, {"fusion_lat": 0.0, "bike_id": "210f9d943647f472495cec3aaf46339a", "fusion_lon": 0.0, "lon": -77.00074183333334, "lat": 38.895010166666665, "is_reserved": 0, "is_disabled": 0, "rental_uris": {"android": "https://dc.lft.to/lastmile_qr_scan", "ios": "https://dc.lft.to/lastmile_qr_scan"}, "name": "210f9d943647f472495cec3aaf46339a", "type": "electric_scooter"}, {"fusion_lat": 0.0, "bike_id": "14f665c0a3e701508ca7a549813027c0", "fusion_lon": 0.0, "lon": -76.98226283333334, "lat": 38.86655616666667, "is_reserved": 0, "is_disabled": 0, "rental_uris": {"android": "https://dc.lft.to/lastmile_qr_scan", "ios": "https://dc.lft.to/lastmile_qr_scan"}, "name": "14f665c0a3e701508ca7a549813027c0", "type": "electric_scooter"}, {"fusion_lat": 0.0, "bike_id": "ab6e80b75cb438b0ccee495fd7b454c7", "fusion_lon": 0.0, "lon": -77.0436225, "lat": 38.90152833333333, "is_reserved": 0, "is_disabled": 0, "rental_uris": {"android": "https://dc.lft.to/lastmile_qr_scan", "ios": "https://dc.lft.to/lastmile_qr_scan"}, "name": "ab6e80b75cb438b0ccee495fd7b454c7", "type": "electric_scooter"}, {"fusion_lat": 0.0, "bike_id": "2fff3d000f37b5431a0d66097175091c", "fusion_lon": 0.0, "lon": -77.04185883333334, "lat": 38.892306833333336, "is_reserved": 0, "is_disabled": 0, "rental_uris": {"android": "https://dc.lft.to/lastmile_qr_scan", "ios": "https://dc.lft.to/lastmile_qr_scan"}, "name": "2fff3d000f37b5431a0d66097175091c", "type": "electric_scooter"}, {"fusion_lat": 0.0, "bike_id": "da668a5a3eaa9ffdb0511c4b41524549", "fusion_lon": 0.0, "lon": -77.02408716666666, "lat": 38.891983333333336, "is_reserved": 0, "is_disabled": 0, "rental_uris": {"android": "https://dc.lft.to/lastmile_qr_scan", "ios": "https://dc.lft.to/lastmile_qr_scan"}, "name": "da668a5a3eaa9ffdb0511c4b41524549", "type": "electric_scooter"}, {"fusion_lat": 0.0, "bike_id": "7bd8c66dfa8af1dddbac05ff2df4fafd", "fusion_lon": 0.0, "lon": -77.03925716666667, "lat": 38.898621, "is_reserved": 0, "is_disabled": 0, "rental_uris": {"android": "https://dc.lft.to/lastmile_qr_scan", "ios": "https://dc.lft.to/lastmile_qr_scan"}, "name": "7bd8c66dfa8af1dddbac05ff2df4fafd", "type": "electric_scooter"}, {"fusion_lat": 0.0, "bike_id": "d152dece267faa08bad07492e836ddd4", "fusion_lon": 0.0, "lon": -77.05697916666666, "lat": 38.937248833333335, "is_reserved": 0, "is_disabled": 0, "rental_uris": {"android": "https://dc.lft.to/lastmile_qr_scan", "ios": "https://dc.lft.to/lastmile_qr_scan"}, "name": "d152dece267faa08bad07492e836ddd4", "type": "electric_scooter"}, {"fusion_lat": 0.0, "bike_id": "4940c97d687b2a1fa58887eaebed2321", "fusion_lon": 0.0, "lon": -76.9823185, "lat": 38.886449, "is_reserved": 0, "is_disabled": 0, "rental_uris": {"android": "https://dc.lft.to/lastmile_qr_scan", "ios": "https://dc.lft.to/lastmile_qr_scan"}, "name": "4940c97d687b2a1fa58887eaebed2321", "type": "electric_scooter"}, {"fusion_lat": 0.0, "bike_id": "f4fd5faf3123c89ba099acd0fc024b43", "fusion_lon": 0.0, "lon": -77.02780016666667, "lat": 38.89224933333333, "is_reserved": 0, "is_disabled": 0, "rental_uris": {"android": "https://dc.lft.to/lastmile_qr_scan", "ios": "https://dc.lft.to/lastmile_qr_scan"}, "name": "f4fd5faf3123c89ba099acd0fc024b43", "type": "electric_scooter"}, {"fusion_lat": 0.0, "bike_id": "b210d71fd5879874be593db1ced46b03", "fusion_lon": 0.0, "lon": -76.98580333333334, "lat": 38.908104333333334, "is_reserved": 0, "is_disabled": 0, "rental_uris": {"android": "https://dc.lft.to/lastmile_qr_scan", "ios": "https://dc.lft.to/lastmile_qr_scan"}, "name": "b210d71fd5879874be593db1ced46b03", "type": "electric_scooter"}, {"fusion_lat": 0.0, "bike_id": "0ec8c12f9def77a8d79de157a0982b0d", "fusion_lon": 0.0, "lon": -77.03221066666667, "lat": 38.91639816666667, "is_reserved": 0, "is_disabled": 0, "rental_uris": {"android": "https://dc.lft.to/lastmile_qr_scan", "ios": "https://dc.lft.to/lastmile_qr_scan"}, "name": "0ec8c12f9def77a8d79de157a0982b0d", "type": "electric_scooter"}, {"fusion_lat": 0.0, "bike_id": "1d5ea43e5ccc628d992cf0c5846dd907", "fusion_lon": 0.0, "lon": -77.04100233333334, "lat": 38.89846433333334, "is_reserved": 0, "is_disabled": 0, "rental_uris": {"android": "https://dc.lft.to/lastmile_qr_scan", "ios": "https://dc.lft.to/lastmile_qr_scan"}, "name": "1d5ea43e5ccc628d992cf0c5846dd907", "type": "electric_scooter"}, {"fusion_lat": 0.0, "bike_id": "52e6b94ff421c45137b33d7ab080832c", "fusion_lon": 0.0, "lon": -76.94570566666667, "lat": 38.86622766666667, "is_reserved": 0, "is_disabled": 0, "rental_uris": {"android": "https://dc.lft.to/lastmile_qr_scan", "ios": "https://dc.lft.to/lastmile_qr_scan"}, "name": "52e6b94ff421c45137b33d7ab080832c", "type": "electric_bike"}, {"fusion_lat": 0.0, "bike_id": "8effc329d6978acea91c5d1f44337961", "fusion_lon": 0.0, "lon": -76.9900295, "lat": 38.86502616666667, "is_reserved": 0, "is_disabled": 0, "rental_uris": {"android": "https://dc.lft.to/lastmile_qr_scan", "ios": "https://dc.lft.to/lastmile_qr_scan"}, "name": "8effc329d6978acea91c5d1f44337961", "type": "electric_scooter"}, {"fusion_lat": 0.0, "bike_id": "c2a79c1780ab1ca86cf0b3459d21cfad", "fusion_lon": 0.0, "lon": -77.04687966666667, "lat": 38.895142, "is_reserved": 0, "is_disabled": 0, "rental_uris": {"android": "https://dc.lft.to/lastmile_qr_scan", "ios": "https://dc.lft.to/lastmile_qr_scan"}, "name": "c2a79c1780ab1ca86cf0b3459d21cfad", "type": "electric_scooter"}, {"fusion_lat": 0.0, "bike_id": "298ccf3dd8d14fd4bc36c3ef953e39d5", "fusion_lon": 0.0, "lon": -77.03197316666666, "lat": 38.918225, "is_reserved": 0, "is_disabled": 0, "rental_uris": {"android": "https://dc.lft.to/lastmile_qr_scan", "ios": "https://dc.lft.to/lastmile_qr_scan"}, "name": "298ccf3dd8d14fd4bc36c3ef953e39d5", "type": "electric_scooter"}, {"fusion_lat": 0.0, "bike_id": "c7ba848a46075c22b211346d07f09e0a", "fusion_lon": 0.0, "lon": -77.0074245, "lat": 38.89843783333333, "is_reserved": 0, "is_disabled": 0, "rental_uris": {"android": "https://dc.lft.to/lastmile_qr_scan", "ios": "https://dc.lft.to/lastmile_qr_scan"}, "name": "c7ba848a46075c22b211346d07f09e0a", "type": "electric_scooter"}, {"fusion_lat": 0.0, "bike_id": "2f5b18b574a6ba51b0aa6be944ba630f", "fusion_lon": 0.0, "lon": -77.04418483333333, "lat": 38.91133833333333, "is_reserved": 0, "is_disabled": 0, "rental_uris": {"android": "https://dc.lft.to/lastmile_qr_scan", "ios": "https://dc.lft.to/lastmile_qr_scan"}, "name": "2f5b18b574a6ba51b0aa6be944ba630f", "type": "electric_scooter"}, {"fusion_lat": 0.0, "bike_id": "b5c9b493dae74983f2e1a826c128eb42", "fusion_lon": 0.0, "lon": -77.0557475, "lat": 38.915989333333336, "is_reserved": 0, "is_disabled": 0, "rental_uris": {"android": "https://dc.lft.to/lastmile_qr_scan", "ios": "https://dc.lft.to/lastmile_qr_scan"}, "name": "b5c9b493dae74983f2e1a826c128eb42", "type": "electric_scooter"}, {"fusion_lat": 0.0, "bike_id": "a3cc59567edc3fa61d0a874ad5655da2", "fusion_lon": 0.0, "lon": -77.02096716666667, "lat": 38.957606166666665, "is_reserved": 0, "is_disabled": 0, "rental_uris": {"android": "https://dc.lft.to/lastmile_qr_scan", "ios": "https://dc.lft.to/lastmile_qr_scan"}, "name": "a3cc59567edc3fa61d0a874ad5655da2", "type": "electric_scooter"}, {"fusion_lat": 0.0, "bike_id": "f9e3dea69a3d2e6a178538e1c7fde46d", "fusion_lon": 0.0, "lon": -77.05281483333333, "lat": 38.9255075, "is_reserved": 0, "is_disabled": 0, "rental_uris": {"android": "https://dc.lft.to/lastmile_qr_scan", "ios": "https://dc.lft.to/lastmile_qr_scan"}, "name": "f9e3dea69a3d2e6a178538e1c7fde46d", "type": "electric_scooter"}, {"fusion_lat": 0.0, "bike_id": "5653537d8a3d311de80516107830986c", "fusion_lon": 0.0, "lon": -77.03175783333333, "lat": 38.918415, "is_reserved": 0, "is_disabled": 0, "rental_uris": {"android": "https://dc.lft.to/lastmile_qr_scan", "ios": "https://dc.lft.to/lastmile_qr_scan"}, "name": "5653537d8a3d311de80516107830986c", "type": "electric_scooter"}, {"fusion_lat": 0.0, "bike_id": "e9b3735c4e66b2eb71709a80681429b9", "fusion_lon": 0.0, "lon": -77.046524, "lat": 38.8983185, "is_reserved": 0, "is_disabled": 0, "rental_uris": {"android": "https://dc.lft.to/lastmile_qr_scan", "ios": "https://dc.lft.to/lastmile_qr_scan"}, "name": "e9b3735c4e66b2eb71709a80681429b9", "type": "electric_scooter"}, {"fusion_lat": 0.0, "bike_id": "cd6f60dcf042248a038b0bacca201363", "fusion_lon": 0.0, "lon": -77.02545783333333, "lat": 38.93087283333333, "is_reserved": 0, "is_disabled": 0, "rental_uris": {"android": "https://dc.lft.to/lastmile_qr_scan", "ios": "https://dc.lft.to/lastmile_qr_scan"}, "name": "cd6f60dcf042248a038b0bacca201363", "type": "electric_scooter"}, {"fusion_lat": 0.0, "bike_id": "d5b65c0a34ffd75bc6612f5afdc78372", "fusion_lon": 0.0, "lon": -76.98907766666666, "lat": 38.8666995, "is_reserved": 0, "is_disabled": 0, "rental_uris": {"android": "https://dc.lft.to/lastmile_qr_scan", "ios": "https://dc.lft.to/lastmile_qr_scan"}, "name": "d5b65c0a34ffd75bc6612f5afdc78372", "type": "electric_scooter"}, {"fusion_lat": 0.0, "bike_id": "d64114633a6cff09fda80e2cac30b8fb", "fusion_lon": 0.0, "lon": -77.02885616666667, "lat": 38.894938333333336, "is_reserved": 0, "is_disabled": 0, "rental_uris": {"android": "https://dc.lft.to/lastmile_qr_scan", "ios": "https://dc.lft.to/lastmile_qr_scan"}, "name": "d64114633a6cff09fda80e2cac30b8fb", "type": "electric_scooter"}, {"fusion_lat": 0.0, "bike_id": "e2cba770fdef853d2cfb473cefd60317", "fusion_lon": 0.0, "lon": -77.026747, "lat": 38.895418666666664, "is_reserved": 0, "is_disabled": 0, "rental_uris": {"android": "https://dc.lft.to/lastmile_qr_scan", "ios": "https://dc.lft.to/lastmile_qr_scan"}, "name": "e2cba770fdef853d2cfb473cefd60317", "type": "electric_scooter"}, {"fusion_lat": 0.0, "bike_id": "9436849d3b345dcf4fbb7b65b18f86ab", "fusion_lon": 0.0, "lon": -77.04334166666666, "lat": 38.91110716666667, "is_reserved": 0, "is_disabled": 0, "rental_uris": {"android": "https://dc.lft.to/lastmile_qr_scan", "ios": "https://dc.lft.to/lastmile_qr_scan"}, "name": "9436849d3b345dcf4fbb7b65b18f86ab", "type": "electric_scooter"}, {"fusion_lat": 0.0, "bike_id": "72482224aaad2758d9ac3a004c9b53c7", "fusion_lon": 0.0, "lon": -77.039426, "lat": 38.8990435, "is_reserved": 0, "is_disabled": 0, "rental_uris": {"android": "https://dc.lft.to/lastmile_qr_scan", "ios": "https://dc.lft.to/lastmile_qr_scan"}, "name": "72482224aaad2758d9ac3a004c9b53c7", "type": "electric_scooter"}, {"fusion_lat": 0.0, "bike_id": "3eb29ba3f5b8d2e7fe3d6e919524d84f", "fusion_lon": 0.0, "lon": -77.03307266666667, "lat": 38.89830166666667, "is_reserved": 0, "is_disabled": 0, "rental_uris": {"android": "https://dc.lft.to/lastmile_qr_scan", "ios": "https://dc.lft.to/lastmile_qr_scan"}, "name": "3eb29ba3f5b8d2e7fe3d6e919524d84f", "type": "electric_scooter"}, {"fusion_lat": 0.0, "bike_id": "099ff8ca21a3c9304f537f3488a7ba26", "fusion_lon": 0.0, "lon": -76.980849, "lat": 38.9070875, "is_reserved": 0, "is_disabled": 0, "rental_uris": {"android": "https://dc.lft.to/lastmile_qr_scan", "ios": "https://dc.lft.to/lastmile_qr_scan"}, "name": "099ff8ca21a3c9304f537f3488a7ba26", "type": "electric_scooter"}, {"fusion_lat": 0.0, "bike_id": "5426fbb09fd8036c2fba10e46eb43734", "fusion_lon": 0.0, "lon": -77.02702383333333, "lat": 38.906355, "is_reserved": 0, "is_disabled": 0, "rental_uris": {"android": "https://dc.lft.to/lastmile_qr_scan", "ios": "https://dc.lft.to/lastmile_qr_scan"}, "name": "5426fbb09fd8036c2fba10e46eb43734", "type": "electric_scooter"}, {"fusion_lat": 0.0, "bike_id": "df39eca641fc3f5f527e355c6102087c", "fusion_lon": 0.0, "lon": -77.0384765, "lat": 38.913252, "is_reserved": 0, "is_disabled": 0, "rental_uris": {"android": "https://dc.lft.to/lastmile_qr_scan", "ios": "https://dc.lft.to/lastmile_qr_scan"}, "name": "df39eca641fc3f5f527e355c6102087c", "type": "electric_scooter"}, {"fusion_lat": 0.0, "bike_id": "d76672c8d042f312f45ea0281c0bf09b", "fusion_lon": 0.0, "lon": -77.03970416666667, "lat": 38.89222766666666, "is_reserved": 0, "is_disabled": 0, "rental_uris": {"android": "https://dc.lft.to/lastmile_qr_scan", "ios": "https://dc.lft.to/lastmile_qr_scan"}, "name": "d76672c8d042f312f45ea0281c0bf09b", "type": "electric_scooter"}, {"fusion_lat": 0.0, "bike_id": "4a3d7190542628af1be9a57e78fa6671", "fusion_lon": 0.0, "lon": -76.9900855, "lat": 38.86506133333334, "is_reserved": 0, "is_disabled": 0, "rental_uris": {"android": "https://dc.lft.to/lastmile_qr_scan", "ios": "https://dc.lft.to/lastmile_qr_scan"}, "name": "4a3d7190542628af1be9a57e78fa6671", "type": "electric_scooter"}, {"fusion_lat": 0.0, "bike_id": "4a640699a10c771ca8d2178eda63520d", "fusion_lon": 0.0, "lon": -77.108423, "lat": 38.8120395, "is_reserved": 0, "is_disabled": 0, "rental_uris": {"android": "https://dc.lft.to/lastmile_qr_scan", "ios": "https://dc.lft.to/lastmile_qr_scan"}, "name": "4a640699a10c771ca8d2178eda63520d", "type": "electric_bike"}, {"fusion_lat": 0.0, "bike_id": "4fcdccbc401db52f2faa5f4142b3fe98", "fusion_lon": 0.0, "lon": -77.03676683333333, "lat": 38.9168055, "is_reserved": 0, "is_disabled": 0, "rental_uris": {"android": "https://dc.lft.to/lastmile_qr_scan", "ios": "https://dc.lft.to/lastmile_qr_scan"}, "name": "4fcdccbc401db52f2faa5f4142b3fe98", "type": "electric_scooter"}, {"fusion_lat": 0.0, "bike_id": "e82fcd3999d1728dfa4b3d2eae626a99", "fusion_lon": 0.0, "lon": -77.04594466666667, "lat": 38.92131933333334, "is_reserved": 0, "is_disabled": 0, "rental_uris": {"android": "https://dc.lft.to/lastmile_qr_scan", "ios": "https://dc.lft.to/lastmile_qr_scan"}, "name": "e82fcd3999d1728dfa4b3d2eae626a99", "type": "electric_scooter"}, {"fusion_lat": 0.0, "bike_id": "cdeb8a6acd709727d43e0151840a9578", "fusion_lon": 0.0, "lon": -77.04877933333333, "lat": 38.8922995, "is_reserved": 0, "is_disabled": 0, "rental_uris": {"android": "https://dc.lft.to/lastmile_qr_scan", "ios": "https://dc.lft.to/lastmile_qr_scan"}, "name": "cdeb8a6acd709727d43e0151840a9578", "type": "electric_scooter"}, {"fusion_lat": 0.0, "bike_id": "f56b7bc4976273a38ee94a7d25092e4b", "fusion_lon": 0.0, "lon": -76.960921, "lat": 38.91859916666667, "is_reserved": 0, "is_disabled": 0, "rental_uris": {"android": "https://dc.lft.to/lastmile_qr_scan", "ios": "https://dc.lft.to/lastmile_qr_scan"}, "name": "f56b7bc4976273a38ee94a7d25092e4b", "type": "electric_bike"}, {"fusion_lat": 0.0, "bike_id": "355ab1f912ee7cc1c54f4bbacd2f465b", "fusion_lon": 0.0, "lon": -77.03515266666666, "lat": 38.9070705, "is_reserved": 0, "is_disabled": 0, "rental_uris": {"android": "https://dc.lft.to/lastmile_qr_scan", "ios": "https://dc.lft.to/lastmile_qr_scan"}, "name": "355ab1f912ee7cc1c54f4bbacd2f465b", "type": "electric_scooter"}, {"fusion_lat": 0.0, "bike_id": "b7d3e2c53886ec89dbbe54453ce674f5", "fusion_lon": 0.0, "lon": -77.07229166666667, "lat": 38.968214333333336, "is_reserved": 0, "is_disabled": 0, "rental_uris": {"android": "https://dc.lft.to/lastmile_qr_scan", "ios": "https://dc.lft.to/lastmile_qr_scan"}, "name": "b7d3e2c53886ec89dbbe54453ce674f5", "type": "electric_bike"}, {"fusion_lat": 0.0, "bike_id": "5c0f1bb7edccbdead83862e0c1e0ce3c", "fusion_lon": 0.0, "lon": -76.99387516666667, "lat": 38.9718825, "is_reserved": 0, "is_disabled": 0, "rental_uris": {"android": "https://dc.lft.to/lastmile_qr_scan", "ios": "https://dc.lft.to/lastmile_qr_scan"}, "name": "5c0f1bb7edccbdead83862e0c1e0ce3c", "type": "electric_bike"}, {"fusion_lat": 0.0, "bike_id": "cda7b24a1532904675c4a01c94c618a0", "fusion_lon": 0.0, "lon": -77.01089116666667, "lat": 38.898214333333335, "is_reserved": 0, "is_disabled": 0, "rental_uris": {"android": "https://dc.lft.to/lastmile_qr_scan", "ios": "https://dc.lft.to/lastmile_qr_scan"}, "name": "cda7b24a1532904675c4a01c94c618a0", "type": "electric_scooter"}, {"fusion_lat": 0.0, "bike_id": "b6a4d49aa4e2c1ce24f87cefa42600cc", "fusion_lon": 0.0, "lon": -77.01770983333333, "lat": 38.88736266666667, "is_reserved": 0, "is_disabled": 0, "rental_uris": {"android": "https://dc.lft.to/lastmile_qr_scan", "ios": "https://dc.lft.to/lastmile_qr_scan"}, "name": "b6a4d49aa4e2c1ce24f87cefa42600cc", "type": "electric_scooter"}, {"fusion_lat": 0.0, "bike_id": "5cbaebed850ea26f71f91a95f8eb1ebe", "fusion_lon": 0.0, "lon": -77.01815466666666, "lat": 38.922276833333335, "is_reserved": 0, "is_disabled": 0, "rental_uris": {"android": "https://dc.lft.to/lastmile_qr_scan", "ios": "https://dc.lft.to/lastmile_qr_scan"}, "name": "5cbaebed850ea26f71f91a95f8eb1ebe", "type": "electric_scooter"}, {"fusion_lat": 0.0, "bike_id": "9ec1248fd2356df78ffcad70f373e05c", "fusion_lon": 0.0, "lon": -77.03379616666666, "lat": 38.92161983333333, "is_reserved": 0, "is_disabled": 0, "rental_uris": {"android": "https://dc.lft.to/lastmile_qr_scan", "ios": "https://dc.lft.to/lastmile_qr_scan"}, "name": "9ec1248fd2356df78ffcad70f373e05c", "type": "electric_scooter"}, {"fusion_lat": 0.0, "bike_id": "7e27bf50d93337f1abab81f78d5f819a", "fusion_lon": 0.0, "lon": -77.023876, "lat": 38.89242183333333, "is_reserved": 0, "is_disabled": 0, "rental_uris": {"android": "https://dc.lft.to/lastmile_qr_scan", "ios": "https://dc.lft.to/lastmile_qr_scan"}, "name": "7e27bf50d93337f1abab81f78d5f819a", "type": "electric_scooter"}, {"fusion_lat": 0.0, "bike_id": "f52372a004011a84b65b64bab0c40db3", "fusion_lon": 0.0, "lon": -77.03449816666667, "lat": 38.90950633333333, "is_reserved": 0, "is_disabled": 0, "rental_uris": {"android": "https://dc.lft.to/lastmile_qr_scan", "ios": "https://dc.lft.to/lastmile_qr_scan"}, "name": "f52372a004011a84b65b64bab0c40db3", "type": "electric_scooter"}, {"fusion_lat": 0.0, "bike_id": "c2fde5a1246930cb3fc807e7cd4a205f", "fusion_lon": 0.0, "lon": -77.03371833333334, "lat": 38.901182166666665, "is_reserved": 0, "is_disabled": 0, "rental_uris": {"android": "https://dc.lft.to/lastmile_qr_scan", "ios": "https://dc.lft.to/lastmile_qr_scan"}, "name": "c2fde5a1246930cb3fc807e7cd4a205f", "type": "electric_scooter"}, {"fusion_lat": 0.0, "bike_id": "ae7ba9a53b1b4b15d0eebcba4276a517", "fusion_lon": 0.0, "lon": -76.9335695, "lat": 38.88797483333333, "is_reserved": 0, "is_disabled": 0, "rental_uris": {"android": "https://dc.lft.to/lastmile_qr_scan", "ios": "https://dc.lft.to/lastmile_qr_scan"}, "name": "ae7ba9a53b1b4b15d0eebcba4276a517", "type": "electric_scooter"}, {"fusion_lat": 0.0, "bike_id": "86aabb7df1dcd9f6692895f682190fb6", "fusion_lon": 0.0, "lon": -77.01453883333333, "lat": 38.929869833333335, "is_reserved": 0, "is_disabled": 0, "rental_uris": {"android": "https://dc.lft.to/lastmile_qr_scan", "ios": "https://dc.lft.to/lastmile_qr_scan"}, "name": "86aabb7df1dcd9f6692895f682190fb6", "type": "electric_scooter"}, {"fusion_lat": 0.0, "bike_id": "d31c8d45f98d420bddf53b70f5058cf7", "fusion_lon": 0.0, "lon": -77.02706516666667, "lat": 38.8978275, "is_reserved": 0, "is_disabled": 0, "rental_uris": {"android": "https://dc.lft.to/lastmile_qr_scan", "ios": "https://dc.lft.to/lastmile_qr_scan"}, "name": "d31c8d45f98d420bddf53b70f5058cf7", "type": "electric_scooter"}, {"fusion_lat": 0.0, "bike_id": "a1a461722ab48439c0ad1c01851a6ebe", "fusion_lon": 0.0, "lon": -77.02801733333334, "lat": 38.91697166666667, "is_reserved": 0, "is_disabled": 0, "rental_uris": {"android": "https://dc.lft.to/lastmile_qr_scan", "ios": "https://dc.lft.to/lastmile_qr_scan"}, "name": "a1a461722ab48439c0ad1c01851a6ebe", "type": "electric_scooter"}, {"fusion_lat": 0.0, "bike_id": "71635730a9a02b840e8626f327e03a11", "fusion_lon": 0.0, "lon": -77.04601183333334, "lat": 38.90268583333334, "is_reserved": 0, "is_disabled": 0, "rental_uris": {"android": "https://dc.lft.to/lastmile_qr_scan", "ios": "https://dc.lft.to/lastmile_qr_scan"}, "name": "71635730a9a02b840e8626f327e03a11", "type": "electric_scooter"}, {"fusion_lat": 0.0, "bike_id": "268489c989d3fe297af1a4fb118e07ab", "fusion_lon": 0.0, "lon": -77.02975933333333, "lat": 38.91667966666667, "is_reserved": 0, "is_disabled": 0, "rental_uris": {"android": "https://dc.lft.to/lastmile_qr_scan", "ios": "https://dc.lft.to/lastmile_qr_scan"}, "name": "268489c989d3fe297af1a4fb118e07ab", "type": "electric_scooter"}, {"fusion_lat": 0.0, "bike_id": "d914f726ab5426f8cd701889ff91c35b", "fusion_lon": 0.0, "lon": -76.994911, "lat": 38.842194, "is_reserved": 0, "is_disabled": 0, "rental_uris": {"android": "https://dc.lft.to/lastmile_qr_scan", "ios": "https://dc.lft.to/lastmile_qr_scan"}, "name": "d914f726ab5426f8cd701889ff91c35b", "type": "electric_scooter"}, {"fusion_lat": 0.0, "bike_id": "9585b68a8ef772f68ba559ac5e14d6d4", "fusion_lon": 0.0, "lon": -77.011897, "lat": 38.90033866666667, "is_reserved": 0, "is_disabled": 0, "rental_uris": {"android": "https://dc.lft.to/lastmile_qr_scan", "ios": "https://dc.lft.to/lastmile_qr_scan"}, "name": "9585b68a8ef772f68ba559ac5e14d6d4", "type": "electric_scooter"}, {"fusion_lat": 0.0, "bike_id": "bb41639a8ce7236d8d7e15539ed248ce", "fusion_lon": 0.0, "lon": -77.04270016666666, "lat": 38.922373, "is_reserved": 0, "is_disabled": 0, "rental_uris": {"android": "https://dc.lft.to/lastmile_qr_scan", "ios": "https://dc.lft.to/lastmile_qr_scan"}, "name": "bb41639a8ce7236d8d7e15539ed248ce", "type": "electric_scooter"}, {"fusion_lat": 0.0, "bike_id": "c48441512413850734421bb77d2dac0a", "fusion_lon": 0.0, "lon": -77.05005233333333, "lat": 38.891933333333334, "is_reserved": 0, "is_disabled": 0, "rental_uris": {"android": "https://dc.lft.to/lastmile_qr_scan", "ios": "https://dc.lft.to/lastmile_qr_scan"}, "name": "c48441512413850734421bb77d2dac0a", "type": "electric_scooter"}, {"fusion_lat": 0.0, "bike_id": "c128b8b20da7efaae2eadfd73a5c711a", "fusion_lon": 0.0, "lon": -77.03210283333334, "lat": 38.89735816666666, "is_reserved": 0, "is_disabled": 0, "rental_uris": {"android": "https://dc.lft.to/lastmile_qr_scan", "ios": "https://dc.lft.to/lastmile_qr_scan"}, "name": "c128b8b20da7efaae2eadfd73a5c711a", "type": "electric_scooter"}, {"fusion_lat": 0.0, "bike_id": "a8f9a7c967c22c139eac938a46fb2c1f", "fusion_lon": 0.0, "lon": -77.027423, "lat": 38.917022, "is_reserved": 0, "is_disabled": 0, "rental_uris": {"android": "https://dc.lft.to/lastmile_qr_scan", "ios": "https://dc.lft.to/lastmile_qr_scan"}, "name": "a8f9a7c967c22c139eac938a46fb2c1f", "type": "electric_scooter"}, {"fusion_lat": 0.0, "bike_id": "66200596fa83b24aa802270bf33ce2da", "fusion_lon": 0.0, "lon": -77.00295466666667, "lat": 38.89201666666666, "is_reserved": 0, "is_disabled": 0, "rental_uris": {"android": "https://dc.lft.to/lastmile_qr_scan", "ios": "https://dc.lft.to/lastmile_qr_scan"}, "name": "66200596fa83b24aa802270bf33ce2da", "type": "electric_scooter"}, {"fusion_lat": 0.0, "bike_id": "dc85f87178ba3d4e3ef0d5189d06de06", "fusion_lon": 0.0, "lon": -77.030427, "lat": 38.90256683333333, "is_reserved": 0, "is_disabled": 0, "rental_uris": {"android": "https://dc.lft.to/lastmile_qr_scan", "ios": "https://dc.lft.to/lastmile_qr_scan"}, "name": "dc85f87178ba3d4e3ef0d5189d06de06", "type": "electric_scooter"}, {"fusion_lat": 0.0, "bike_id": "c7778a361111ef0e4cd4e77a6ef5c05f", "fusion_lon": 0.0, "lon": -77.0318155, "lat": 38.91744966666667, "is_reserved": 0, "is_disabled": 0, "rental_uris": {"android": "https://dc.lft.to/lastmile_qr_scan", "ios": "https://dc.lft.to/lastmile_qr_scan"}, "name": "c7778a361111ef0e4cd4e77a6ef5c05f", "type": "electric_scooter"}, {"fusion_lat": 0.0, "bike_id": "9307d0808626706f87f2e6dbb26ba378", "fusion_lon": 0.0, "lon": -77.05741816666666, "lat": 38.93351883333333, "is_reserved": 0, "is_disabled": 0, "rental_uris": {"android": "https://dc.lft.to/lastmile_qr_scan", "ios": "https://dc.lft.to/lastmile_qr_scan"}, "name": "9307d0808626706f87f2e6dbb26ba378", "type": "electric_scooter"}, {"fusion_lat": 0.0, "bike_id": "51e3e1f5384d00ca44472a9ea00eed0c", "fusion_lon": 0.0, "lon": -76.990771, "lat": 38.89807883333334, "is_reserved": 0, "is_disabled": 0, "rental_uris": {"android": "https://dc.lft.to/lastmile_qr_scan", "ios": "https://dc.lft.to/lastmile_qr_scan"}, "name": "51e3e1f5384d00ca44472a9ea00eed0c", "type": "electric_bike"}, {"fusion_lat": 0.0, "bike_id": "112998847421b1d99dc8db4ac4504fe4", "fusion_lon": 0.0, "lon": -77.0321615, "lat": 38.914773833333335, "is_reserved": 0, "is_disabled": 0, "rental_uris": {"android": "https://dc.lft.to/lastmile_qr_scan", "ios": "https://dc.lft.to/lastmile_qr_scan"}, "name": "112998847421b1d99dc8db4ac4504fe4", "type": "electric_scooter"}, {"fusion_lat": 0.0, "bike_id": "de6e6acd112172be7b9c4c6b2aca4815", "fusion_lon": 0.0, "lon": -76.98026333333334, "lat": 38.853223666666665, "is_reserved": 0, "is_disabled": 0, "rental_uris": {"android": "https://dc.lft.to/lastmile_qr_scan", "ios": "https://dc.lft.to/lastmile_qr_scan"}, "name": "de6e6acd112172be7b9c4c6b2aca4815", "type": "electric_bike"}, {"fusion_lat": 0.0, "bike_id": "085a494c33dbff03661df65afa444a3c", "fusion_lon": 0.0, "lon": -76.9898875, "lat": 38.93361133333333, "is_reserved": 0, "is_disabled": 0, "rental_uris": {"android": "https://dc.lft.to/lastmile_qr_scan", "ios": "https://dc.lft.to/lastmile_qr_scan"}, "name": "085a494c33dbff03661df65afa444a3c", "type": "electric_scooter"}, {"fusion_lat": 0.0, "bike_id": "15463e516c111ddd714d6dd953d7d40a", "fusion_lon": 0.0, "lon": -77.03263816666667, "lat": 38.90115216666667, "is_reserved": 0, "is_disabled": 0, "rental_uris": {"android": "https://dc.lft.to/lastmile_qr_scan", "ios": "https://dc.lft.to/lastmile_qr_scan"}, "name": "15463e516c111ddd714d6dd953d7d40a", "type": "electric_scooter"}, {"fusion_lat": 0.0, "bike_id": "0ffb892a38b4c55c62eb6d281ad64f73", "fusion_lon": 0.0, "lon": -77.01913933333333, "lat": 38.937805, "is_reserved": 0, "is_disabled": 0, "rental_uris": {"android": "https://dc.lft.to/lastmile_qr_scan", "ios": "https://dc.lft.to/lastmile_qr_scan"}, "name": "0ffb892a38b4c55c62eb6d281ad64f73", "type": "electric_bike"}, {"fusion_lat": 0.0, "bike_id": "04640a0cecdc88d12efed59215e96f47", "fusion_lon": 0.0, "lon": -77.02010766666666, "lat": 38.924206833333336, "is_reserved": 0, "is_disabled": 0, "rental_uris": {"android": "https://dc.lft.to/lastmile_qr_scan", "ios": "https://dc.lft.to/lastmile_qr_scan"}, "name": "04640a0cecdc88d12efed59215e96f47", "type": "electric_scooter"}, {"fusion_lat": 0.0, "bike_id": "4de15a5780851d3f24b4cd1089dc34bf", "fusion_lon": 0.0, "lon": -77.03183033333333, "lat": 38.8923195, "is_reserved": 0, "is_disabled": 0, "rental_uris": {"android": "https://dc.lft.to/lastmile_qr_scan", "ios": "https://dc.lft.to/lastmile_qr_scan"}, "name": "4de15a5780851d3f24b4cd1089dc34bf", "type": "electric_scooter"}, {"fusion_lat": 0.0, "bike_id": "3a52ab75f947cd6990f7446b1c9b3228", "fusion_lon": 0.0, "lon": -77.03531516666666, "lat": 38.924886, "is_reserved": 0, "is_disabled": 0, "rental_uris": {"android": "https://dc.lft.to/lastmile_qr_scan", "ios": "https://dc.lft.to/lastmile_qr_scan"}, "name": "3a52ab75f947cd6990f7446b1c9b3228", "type": "electric_scooter"}, {"fusion_lat": 0.0, "bike_id": "c45410c048438b303673e2bee1fa2d4c", "fusion_lon": 0.0, "lon": -77.04642483333333, "lat": 38.892270333333336, "is_reserved": 0, "is_disabled": 0, "rental_uris": {"android": "https://dc.lft.to/lastmile_qr_scan", "ios": "https://dc.lft.to/lastmile_qr_scan"}, "name": "c45410c048438b303673e2bee1fa2d4c", "type": "electric_scooter"}, {"fusion_lat": 0.0, "bike_id": "8e2350a32bd544cbd31378afac88dc84", "fusion_lon": 0.0, "lon": -77.00385483333334, "lat": 38.876451, "is_reserved": 0, "is_disabled": 0, "rental_uris": {"android": "https://dc.lft.to/lastmile_qr_scan", "ios": "https://dc.lft.to/lastmile_qr_scan"}, "name": "8e2350a32bd544cbd31378afac88dc84", "type": "electric_scooter"}, {"fusion_lat": 0.0, "bike_id": "e91b390b0ffafe0351052a75761d460e", "fusion_lon": 0.0, "lon": -76.94889733333333, "lat": 38.895133, "is_reserved": 0, "is_disabled": 0, "rental_uris": {"android": "https://dc.lft.to/lastmile_qr_scan", "ios": "https://dc.lft.to/lastmile_qr_scan"}, "name": "e91b390b0ffafe0351052a75761d460e", "type": "electric_scooter"}, {"fusion_lat": 0.0, "bike_id": "790ab4f377ea562b1059424141d3ba39", "fusion_lon": 0.0, "lon": -77.03214133333333, "lat": 38.904378333333334, "is_reserved": 0, "is_disabled": 0, "rental_uris": {"android": "https://dc.lft.to/lastmile_qr_scan", "ios": "https://dc.lft.to/lastmile_qr_scan"}, "name": "790ab4f377ea562b1059424141d3ba39", "type": "electric_scooter"}, {"fusion_lat": 0.0, "bike_id": "71a0ae758af0720e95ed92e755dd1b2d", "fusion_lon": 0.0, "lon": -77.0500275, "lat": 38.89227266666666, "is_reserved": 0, "is_disabled": 0, "rental_uris": {"android": "https://dc.lft.to/lastmile_qr_scan", "ios": "https://dc.lft.to/lastmile_qr_scan"}, "name": "71a0ae758af0720e95ed92e755dd1b2d", "type": "electric_scooter"}, {"fusion_lat": 0.0, "bike_id": "cda454c3d10f708f20f7ea8c97594694", "fusion_lon": 0.0, "lon": -77.03518416666667, "lat": 38.92202266666666, "is_reserved": 0, "is_disabled": 0, "rental_uris": {"android": "https://dc.lft.to/lastmile_qr_scan", "ios": "https://dc.lft.to/lastmile_qr_scan"}, "name": "cda454c3d10f708f20f7ea8c97594694", "type": "electric_scooter"}, {"fusion_lat": 0.0, "bike_id": "435c9a2f149deecccd10c3eb66e839fe", "fusion_lon": 0.0, "lon": -77.03917233333334, "lat": 38.9257675, "is_reserved": 0, "is_disabled": 0, "rental_uris": {"android": "https://dc.lft.to/lastmile_qr_scan", "ios": "https://dc.lft.to/lastmile_qr_scan"}, "name": "435c9a2f149deecccd10c3eb66e839fe", "type": "electric_scooter"}, {"fusion_lat": 0.0, "bike_id": "66c94355cef11f99a61f9ac21dbddc28", "fusion_lon": 0.0, "lon": -77.027687, "lat": 38.93461583333333, "is_reserved": 0, "is_disabled": 0, "rental_uris": {"android": "https://dc.lft.to/lastmile_qr_scan", "ios": "https://dc.lft.to/lastmile_qr_scan"}, "name": "66c94355cef11f99a61f9ac21dbddc28", "type": "electric_scooter"}, {"fusion_lat": 0.0, "bike_id": "782527767edfbd0a63525ca151ffa80b", "fusion_lon": 0.0, "lon": -77.03209633333333, "lat": 38.914250833333334, "is_reserved": 0, "is_disabled": 0, "rental_uris": {"android": "https://dc.lft.to/lastmile_qr_scan", "ios": "https://dc.lft.to/lastmile_qr_scan"}, "name": "782527767edfbd0a63525ca151ffa80b", "type": "electric_scooter"}, {"fusion_lat": 0.0, "bike_id": "fb5c121af9e7c8301f9232286e43eb0d", "fusion_lon": 0.0, "lon": -77.027193, "lat": 38.91680516666667, "is_reserved": 0, "is_disabled": 0, "rental_uris": {"android": "https://dc.lft.to/lastmile_qr_scan", "ios": "https://dc.lft.to/lastmile_qr_scan"}, "name": "fb5c121af9e7c8301f9232286e43eb0d", "type": "electric_scooter"}, {"fusion_lat": 0.0, "bike_id": "4f3df86f9e220bc46b5dd5af75f275c0", "fusion_lon": 0.0, "lon": -77.0996145, "lat": 38.857994833333336, "is_reserved": 0, "is_disabled": 0, "rental_uris": {"android": "https://dc.lft.to/lastmile_qr_scan", "ios": "https://dc.lft.to/lastmile_qr_scan"}, "name": "4f3df86f9e220bc46b5dd5af75f275c0", "type": "electric_bike"}, {"fusion_lat": 0.0, "bike_id": "035561cb551688d8b8586274026edfa9", "fusion_lon": 0.0, "lon": -77.035604, "lat": 38.908423166666665, "is_reserved": 0, "is_disabled": 0, "rental_uris": {"android": "https://dc.lft.to/lastmile_qr_scan", "ios": "https://dc.lft.to/lastmile_qr_scan"}, "name": "035561cb551688d8b8586274026edfa9", "type": "electric_scooter"}, {"fusion_lat": 0.0, "bike_id": "d3b1b2437422bab66afbf8e34714ef01", "fusion_lon": 0.0, "lon": -77.0262755, "lat": 38.892675833333335, "is_reserved": 0, "is_disabled": 0, "rental_uris": {"android": "https://dc.lft.to/lastmile_qr_scan", "ios": "https://dc.lft.to/lastmile_qr_scan"}, "name": "d3b1b2437422bab66afbf8e34714ef01", "type": "electric_scooter"}, {"fusion_lat": 0.0, "bike_id": "f3d2328aaf4a4a4dc12709e6caac946f", "fusion_lon": 0.0, "lon": -77.03187166666666, "lat": 38.920821, "is_reserved": 0, "is_disabled": 0, "rental_uris": {"android": "https://dc.lft.to/lastmile_qr_scan", "ios": "https://dc.lft.to/lastmile_qr_scan"}, "name": "f3d2328aaf4a4a4dc12709e6caac946f", "type": "electric_scooter"}, {"fusion_lat": 0.0, "bike_id": "93f3e319356f955fcbbef96f4ed90938", "fusion_lon": 0.0, "lon": -77.049064, "lat": 38.888408, "is_reserved": 0, "is_disabled": 0, "rental_uris": {"android": "https://dc.lft.to/lastmile_qr_scan", "ios": "https://dc.lft.to/lastmile_qr_scan"}, "name": "93f3e319356f955fcbbef96f4ed90938", "type": "electric_scooter"}, {"fusion_lat": 0.0, "bike_id": "89052e0b9453a90e38ade09468882fc9", "fusion_lon": 0.0, "lon": -77.0021195, "lat": 38.90036416666667, "is_reserved": 0, "is_disabled": 0, "rental_uris": {"android": "https://dc.lft.to/lastmile_qr_scan", "ios": "https://dc.lft.to/lastmile_qr_scan"}, "name": "89052e0b9453a90e38ade09468882fc9", "type": "electric_scooter"}, {"fusion_lat": 0.0, "bike_id": "afcd542d5e203812ba439bd524325f00", "fusion_lon": 0.0, "lon": -77.0317295, "lat": 38.892011833333335, "is_reserved": 0, "is_disabled": 0, "rental_uris": {"android": "https://dc.lft.to/lastmile_qr_scan", "ios": "https://dc.lft.to/lastmile_qr_scan"}, "name": "afcd542d5e203812ba439bd524325f00", "type": "electric_scooter"}, {"fusion_lat": 0.0, "bike_id": "0fa3837ce71338aabbdd235a485d7a0d", "fusion_lon": 0.0, "lon": -77.04659733333334, "lat": 38.9043475, "is_reserved": 0, "is_disabled": 0, "rental_uris": {"android": "https://dc.lft.to/lastmile_qr_scan", "ios": "https://dc.lft.to/lastmile_qr_scan"}, "name": "0fa3837ce71338aabbdd235a485d7a0d", "type": "electric_scooter"}, {"fusion_lat": 0.0, "bike_id": "5b4fcbd6c8448cdb7a66b26be6eb3810", "fusion_lon": 0.0, "lon": -77.04700683333333, "lat": 38.92140333333333, "is_reserved": 0, "is_disabled": 0, "rental_uris": {"android": "https://dc.lft.to/lastmile_qr_scan", "ios": "https://dc.lft.to/lastmile_qr_scan"}, "name": "5b4fcbd6c8448cdb7a66b26be6eb3810", "type": "electric_scooter"}, {"fusion_lat": 0.0, "bike_id": "df23fb66c60db5e06ce9ae510c6e6d60", "fusion_lon": 0.0, "lon": -77.05150916666666, "lat": 38.923724166666666, "is_reserved": 0, "is_disabled": 0, "rental_uris": {"android": "https://dc.lft.to/lastmile_qr_scan", "ios": "https://dc.lft.to/lastmile_qr_scan"}, "name": "df23fb66c60db5e06ce9ae510c6e6d60", "type": "electric_scooter"}, {"fusion_lat": 0.0, "bike_id": "0b173c333763e05b118f48ab50a07288", "fusion_lon": 0.0, "lon": -77.03323333333333, "lat": 38.9001395, "is_reserved": 0, "is_disabled": 0, "rental_uris": {"android": "https://dc.lft.to/lastmile_qr_scan", "ios": "https://dc.lft.to/lastmile_qr_scan"}, "name": "0b173c333763e05b118f48ab50a07288", "type": "electric_scooter"}, {"fusion_lat": 0.0, "bike_id": "b92c80e5036b5c5e4c0fca17a5cde8b7", "fusion_lon": 0.0, "lon": -77.02498733333333, "lat": 38.93098633333334, "is_reserved": 0, "is_disabled": 0, "rental_uris": {"android": "https://dc.lft.to/lastmile_qr_scan", "ios": "https://dc.lft.to/lastmile_qr_scan"}, "name": "b92c80e5036b5c5e4c0fca17a5cde8b7", "type": "electric_scooter"}, {"fusion_lat": 0.0, "bike_id": "d869b040536adfbaf71155fdaa7508b4", "fusion_lon": 0.0, "lon": -77.04255916666666, "lat": 38.89997533333333, "is_reserved": 0, "is_disabled": 0, "rental_uris": {"android": "https://dc.lft.to/lastmile_qr_scan", "ios": "https://dc.lft.to/lastmile_qr_scan"}, "name": "d869b040536adfbaf71155fdaa7508b4", "type": "electric_scooter"}, {"fusion_lat": 0.0, "bike_id": "2831017f5e50e3423d2c73a8c98b17f0", "fusion_lon": 0.0, "lon": -77.033928, "lat": 38.9026835, "is_reserved": 0, "is_disabled": 0, "rental_uris": {"android": "https://dc.lft.to/lastmile_qr_scan", "ios": "https://dc.lft.to/lastmile_qr_scan"}, "name": "2831017f5e50e3423d2c73a8c98b17f0", "type": "electric_scooter"}, {"fusion_lat": 0.0, "bike_id": "c3e9d8ced09cf60b28b6e465acd7116e", "fusion_lon": 0.0, "lon": -77.01189933333333, "lat": 38.89682766666667, "is_reserved": 0, "is_disabled": 0, "rental_uris": {"android": "https://dc.lft.to/lastmile_qr_scan", "ios": "https://dc.lft.to/lastmile_qr_scan"}, "name": "c3e9d8ced09cf60b28b6e465acd7116e", "type": "electric_scooter"}, {"fusion_lat": 0.0, "bike_id": "b5403abd015913ceff35c8020f9645fc", "fusion_lon": 0.0, "lon": -77.00691816666667, "lat": 38.90896716666666, "is_reserved": 0, "is_disabled": 0, "rental_uris": {"android": "https://dc.lft.to/lastmile_qr_scan", "ios": "https://dc.lft.to/lastmile_qr_scan"}, "name": "b5403abd015913ceff35c8020f9645fc", "type": "electric_scooter"}, {"fusion_lat": 0.0, "bike_id": "8fc97b44856901d00747f6abf5960a57", "fusion_lon": 0.0, "lon": -77.03987833333333, "lat": 38.90855366666667, "is_reserved": 0, "is_disabled": 0, "rental_uris": {"android": "https://dc.lft.to/lastmile_qr_scan", "ios": "https://dc.lft.to/lastmile_qr_scan"}, "name": "8fc97b44856901d00747f6abf5960a57", "type": "electric_scooter"}, {"fusion_lat": 0.0, "bike_id": "04d935695ac1f900393dde788d497424", "fusion_lon": 0.0, "lon": -76.998134, "lat": 38.9050525, "is_reserved": 0, "is_disabled": 0, "rental_uris": {"android": "https://dc.lft.to/lastmile_qr_scan", "ios": "https://dc.lft.to/lastmile_qr_scan"}, "name": "04d935695ac1f900393dde788d497424", "type": "electric_bike"}, {"fusion_lat": 0.0, "bike_id": "0c56b0732f75e2310cde3a16c7673647", "fusion_lon": 0.0, "lon": -77.02407516666666, "lat": 38.88287733333333, "is_reserved": 0, "is_disabled": 0, "rental_uris": {"android": "https://dc.lft.to/lastmile_qr_scan", "ios": "https://dc.lft.to/lastmile_qr_scan"}, "name": "0c56b0732f75e2310cde3a16c7673647", "type": "electric_scooter"}, {"fusion_lat": 0.0, "bike_id": "0935693418f5abc44c94b7eb5160b442", "fusion_lon": 0.0, "lon": -77.01960716666666, "lat": 38.923305, "is_reserved": 0, "is_disabled": 0, "rental_uris": {"android": "https://dc.lft.to/lastmile_qr_scan", "ios": "https://dc.lft.to/lastmile_qr_scan"}, "name": "0935693418f5abc44c94b7eb5160b442", "type": "electric_scooter"}, {"fusion_lat": 0.0, "bike_id": "0b8160a0059b20a11483caebd340d098", "fusion_lon": 0.0, "lon": -77.02821333333333, "lat": 38.950877166666665, "is_reserved": 0, "is_disabled": 0, "rental_uris": {"android": "https://dc.lft.to/lastmile_qr_scan", "ios": "https://dc.lft.to/lastmile_qr_scan"}, "name": "0b8160a0059b20a11483caebd340d098", "type": "electric_scooter"}, {"fusion_lat": 0.0, "bike_id": "c1b8b654b45cb64e133ad55ff7d975c8", "fusion_lon": 0.0, "lon": -76.94988783333334, "lat": 38.893647, "is_reserved": 0, "is_disabled": 0, "rental_uris": {"android": "https://dc.lft.to/lastmile_qr_scan", "ios": "https://dc.lft.to/lastmile_qr_scan"}, "name": "c1b8b654b45cb64e133ad55ff7d975c8", "type": "electric_scooter"}, {"fusion_lat": 0.0, "bike_id": "b3228dc52aa63f7470d807e3d129c33b", "fusion_lon": 0.0, "lon": -76.997386, "lat": 39.042379, "is_reserved": 0, "is_disabled": 0, "rental_uris": {"android": "https://dc.lft.to/lastmile_qr_scan", "ios": "https://dc.lft.to/lastmile_qr_scan"}, "name": "b3228dc52aa63f7470d807e3d129c33b", "type": "electric_bike"}, {"fusion_lat": 0.0, "bike_id": "b707a53f408f9fe0e860b29b93787dd0", "fusion_lon": 0.0, "lon": -76.935372, "lat": 38.896845166666665, "is_reserved": 0, "is_disabled": 0, "rental_uris": {"android": "https://dc.lft.to/lastmile_qr_scan", "ios": "https://dc.lft.to/lastmile_qr_scan"}, "name": "b707a53f408f9fe0e860b29b93787dd0", "type": "electric_scooter"}, {"fusion_lat": 0.0, "bike_id": "de7dd1a361a78e2a23887e92abb038ac", "fusion_lon": 0.0, "lon": -77.023826, "lat": 38.90800433333333, "is_reserved": 0, "is_disabled": 0, "rental_uris": {"android": "https://dc.lft.to/lastmile_qr_scan", "ios": "https://dc.lft.to/lastmile_qr_scan"}, "name": "de7dd1a361a78e2a23887e92abb038ac", "type": "electric_scooter"}, {"fusion_lat": 0.0, "bike_id": "8d3d8e6cb2652e93e6c8bfe4286b778c", "fusion_lon": 0.0, "lon": -77.03452783333333, "lat": 38.90734416666667, "is_reserved": 0, "is_disabled": 0, "rental_uris": {"android": "https://dc.lft.to/lastmile_qr_scan", "ios": "https://dc.lft.to/lastmile_qr_scan"}, "name": "8d3d8e6cb2652e93e6c8bfe4286b778c", "type": "electric_scooter"}, {"fusion_lat": 0.0, "bike_id": "c5b08f1d3f3f9aefa1fde8ce7438f0c0", "fusion_lon": 0.0, "lon": -77.02979233333333, "lat": 38.9246925, "is_reserved": 0, "is_disabled": 0, "rental_uris": {"android": "https://dc.lft.to/lastmile_qr_scan", "ios": "https://dc.lft.to/lastmile_qr_scan"}, "name": "c5b08f1d3f3f9aefa1fde8ce7438f0c0", "type": "electric_scooter"}, {"fusion_lat": 0.0, "bike_id": "219ef5a0bd21539a3511aa3fb1a202c9", "fusion_lon": 0.0, "lon": -77.03188983333334, "lat": 38.91300666666667, "is_reserved": 0, "is_disabled": 0, "rental_uris": {"android": "https://dc.lft.to/lastmile_qr_scan", "ios": "https://dc.lft.to/lastmile_qr_scan"}, "name": "219ef5a0bd21539a3511aa3fb1a202c9", "type": "electric_scooter"}, {"fusion_lat": 0.0, "bike_id": "b584566723543d6a7c5520f167d41b7e", "fusion_lon": 0.0, "lon": -77.0318255, "lat": 38.924877, "is_reserved": 0, "is_disabled": 0, "rental_uris": {"android": "https://dc.lft.to/lastmile_qr_scan", "ios": "https://dc.lft.to/lastmile_qr_scan"}, "name": "b584566723543d6a7c5520f167d41b7e", "type": "electric_scooter"}, {"fusion_lat": 0.0, "bike_id": "c74a9b3a568d12855fbf65c07ceb9fc2", "fusion_lon": 0.0, "lon": -77.08028666666667, "lat": 38.95065183333333, "is_reserved": 0, "is_disabled": 0, "rental_uris": {"android": "https://dc.lft.to/lastmile_qr_scan", "ios": "https://dc.lft.to/lastmile_qr_scan"}, "name": "c74a9b3a568d12855fbf65c07ceb9fc2", "type": "electric_scooter"}, {"fusion_lat": 0.0, "bike_id": "54233510c5b205ced1f5407b25435991", "fusion_lon": 0.0, "lon": -77.0185715, "lat": 38.9149465, "is_reserved": 0, "is_disabled": 0, "rental_uris": {"android": "https://dc.lft.to/lastmile_qr_scan", "ios": "https://dc.lft.to/lastmile_qr_scan"}, "name": "54233510c5b205ced1f5407b25435991", "type": "electric_scooter"}, {"fusion_lat": 0.0, "bike_id": "6ff6ec97bad0dd6ef50f2b0e030fa8db", "fusion_lon": 0.0, "lon": -77.01071733333333, "lat": 38.89622983333334, "is_reserved": 0, "is_disabled": 0, "rental_uris": {"android": "https://dc.lft.to/lastmile_qr_scan", "ios": "https://dc.lft.to/lastmile_qr_scan"}, "name": "6ff6ec97bad0dd6ef50f2b0e030fa8db", "type": "electric_scooter"}, {"fusion_lat": 0.0, "bike_id": "b45ac656617b59ed482e7b8f86d3972f", "fusion_lon": 0.0, "lon": -77.0174515, "lat": 38.88747383333333, "is_reserved": 0, "is_disabled": 0, "rental_uris": {"android": "https://dc.lft.to/lastmile_qr_scan", "ios": "https://dc.lft.to/lastmile_qr_scan"}, "name": "b45ac656617b59ed482e7b8f86d3972f", "type": "electric_scooter"}, {"fusion_lat": 0.0, "bike_id": "6485b802e17e0d73d74d35928808f43c", "fusion_lon": 0.0, "lon": -77.0323935, "lat": 38.929971333333334, "is_reserved": 0, "is_disabled": 0, "rental_uris": {"android": "https://dc.lft.to/lastmile_qr_scan", "ios": "https://dc.lft.to/lastmile_qr_scan"}, "name": "6485b802e17e0d73d74d35928808f43c", "type": "electric_scooter"}, {"fusion_lat": 0.0, "bike_id": "663db3fed1b0d8d638e41a3c5135c254", "fusion_lon": 0.0, "lon": -77.03335816666667, "lat": 38.9028705, "is_reserved": 0, "is_disabled": 0, "rental_uris": {"android": "https://dc.lft.to/lastmile_qr_scan", "ios": "https://dc.lft.to/lastmile_qr_scan"}, "name": "663db3fed1b0d8d638e41a3c5135c254", "type": "electric_scooter"}, {"fusion_lat": 0.0, "bike_id": "43d6c8d71a34e352a90298cfc34b2a8a", "fusion_lon": 0.0, "lon": -77.03190416666666, "lat": 38.9129895, "is_reserved": 0, "is_disabled": 0, "rental_uris": {"android": "https://dc.lft.to/lastmile_qr_scan", "ios": "https://dc.lft.to/lastmile_qr_scan"}, "name": "43d6c8d71a34e352a90298cfc34b2a8a", "type": "electric_scooter"}, {"fusion_lat": 0.0, "bike_id": "2466519a14fd42353326b30fc24721a4", "fusion_lon": 0.0, "lon": -77.09470366666666, "lat": 38.869436, "is_reserved": 0, "is_disabled": 0, "rental_uris": {"android": "https://dc.lft.to/lastmile_qr_scan", "ios": "https://dc.lft.to/lastmile_qr_scan"}, "name": "2466519a14fd42353326b30fc24721a4", "type": "electric_bike"},