{"data": {"bikes": [{"is_disabled": 0, "fusion_lon": 0.0, "fusion_lat": 0.0, "lat": 38.90953233333333, "type": "electric_scooter", "lon": -77.023125, "bike_id": "6f089fc5bf35118cd6590b38335ade4e", "rental_uris": {"android": "https://dc.lft.to/lastmile_qr_scan", "ios": "https://dc.lft.to/lastmile_qr_scan"}, "name": "6f089fc5bf35118cd6590b38335ade4e", "is_reserved": 0}, {"is_disabled": 0, "fusion_lon": 0.0, "fusion_lat": 0.0, "lat": 38.90250283333334, "type": "electric_scooter", "lon": -77.03458733333333, "bike_id": "fc900190a36f455b8cd0a7a8d2789d64", "rental_uris": {"android": "https://dc.lft.to/lastmile_qr_scan", "ios": "https://dc.lft.to/lastmile_qr_scan"}, "name": "fc900190a36f455b8cd0a7a8d2789d64", "is_reserved": 0}, {"is_disabled": 0, "fusion_lon": 0.0, "fusion_lat": 0.0, "lat": 38.90281916666667, "type": "electric_scooter", "lon": -77.01745033333333, "bike_id": "c59101b2022419d24609e2918f05e6a5", "rental_uris": {"android": "https://dc.lft.to/lastmile_qr_scan", "ios": "https://dc.lft.to/lastmile_qr_scan"}, "name": "c59101b2022419d24609e2918f05e6a5", "is_reserved": 0}, {"is_disabled": 0, "fusion_lon": 0.0, "fusion_lat": 0.0, "lat": 38.860425, "type": "electric_scooter", "lon": -76.9837935, "bike_id": "c36c32240ac9cd9c67457d6ebb697174", "rental_uris": {"android": "https://dc.lft.to/lastmile_qr_scan", "ios": "https://dc.lft.to/lastmile_qr_scan"}, "name": "c36c32240ac9cd9c67457d6ebb697174", "is_reserved": 0}, {"is_disabled": 0, "fusion_lon": 0.0, "fusion_lat": 0.0, "lat": 38.865109, "type": "electric_scooter", "lon": -76.973447, "bike_id": "83f857821e7d13eb7f5bc6505ffb7269", "rental_uris": {"android": "https://dc.lft.to/lastmile_qr_scan", "ios": "https://dc.lft.to/lastmile_qr_scan"}, "name": "83f857821e7d13eb7f5bc6505ffb7269", "is_reserved": 0}, {"is_disabled": 0, "fusion_lon": 0.0, "fusion_lat": 0.0, "lat": 38.8584175, "type": "electric_scooter", "lon": -76.99074316666666, "bike_id": "7e6b8eb7ff4cf7e6928995dfaa4ca6ec", "rental_uris": {"android": "https://dc.lft.to/lastmile_qr_scan", "ios": "https://dc.lft.to/lastmile_qr_scan"}, "name": "7e6b8eb7ff4cf7e6928995dfaa4ca6ec", "is_reserved": 0}, {"is_disabled": 0, "fusion_lon": 0.0, "fusion_lat": 0.0, "lat": 38.94978966666667, "type": "electric_scooter", "lon": -77.02704333333334, "bike_id": "1962e3f18636f4429ee269116b1aa2f4", "rental_uris": {"android": "https://dc.lft.to/lastmile_qr_scan", "ios": "https://dc.lft.to/lastmile_qr_scan"}, "name": "1962e3f18636f4429ee269116b1aa2f4", "is_reserved": 0}, {"is_disabled": 0, "fusion_lon": 0.0, "fusion_lat": 0.0, "lat": 38.8949685, "type": "electric_scooter", "lon": -77.02271766666667, "bike_id": "51b2d81a9637928575e6781ef1ae6a5e", "rental_uris": {"android": "https://dc.lft.to/lastmile_qr_scan", "ios": "https://dc.lft.to/lastmile_qr_scan"}, "name": "51b2d81a9637928575e6781ef1ae6a5e", "is_reserved": 0}, {"is_disabled": 0, "fusion_lon": 0.0, "fusion_lat": 0.0, "lat": 38.9247305, "type": "electric_scooter", "lon": -77.022053, "bike_id": "8d8ca173b88ad43299fcc5a962763a8d", "rental_uris": {"android": "https://dc.lft.to/lastmile_qr_scan", "ios": "https://dc.lft.to/lastmile_qr_scan"}, "name": "8d8ca173b88ad43299fcc5a962763a8d", "is_reserved": 0}, {"is_disabled": 0, "fusion_lon": 0.0, "fusion_lat": 0.0, "lat": 38.962130333333334, "type": "electric_scooter", "lon": -77.0280385, "bike_id": "5a4661d552acf9fd9041a07e4d8602fb", "rental_uris": {"android": "https://dc.lft.to/lastmile_qr_scan", "ios": "https://dc.lft.to/lastmile_qr_scan"}, "name": "5a4661d552acf9fd9041a07e4d8602fb", "is_reserved": 0}, {"is_disabled": 0, "fusion_lon": 0.0, "fusion_lat": 0.0, "lat": 38.96191, "type": "electric_scooter", "lon": -77.02788783333334, "bike_id": "b001dfd19a769c0a3ff2657ca995dd04", "rental_uris": {"android": "https://dc.lft.to/lastmile_qr_scan", "ios": "https://dc.lft.to/lastmile_qr_scan"}, "name": "b001dfd19a769c0a3ff2657ca995dd04", "is_reserved": 0}, {"is_disabled": 0, "fusion_lon": 0.0, "fusion_lat": 0.0, "lat": 38.87826916666667, "type": "electric_scooter", "lon": -76.96308116666667, "bike_id": "13fca5f4808246f0685e84babf681b16", "rental_uris": {"android": "https://dc.lft.to/lastmile_qr_scan", "ios": "https://dc.lft.to/lastmile_qr_scan"}, "name": "13fca5f4808246f0685e84babf681b16", "is_reserved": 0}, {"is_disabled": 0, "fusion_lon": 0.0, "fusion_lat": 0.0, "lat": 38.89610116666667, "type": "electric_scooter", "lon": -77.03382283333333, "bike_id": "429aa408094a1752fcfd3e986fb9a384", "rental_uris": {"android": "https://dc.lft.to/lastmile_qr_scan", "ios": "https://dc.lft.to/lastmile_qr_scan"}, "name": "429aa408094a1752fcfd3e986fb9a384", "is_reserved": 0}, {"is_disabled": 0, "fusion_lon": 0.0, "fusion_lat": 0.0, "lat": 38.90095616666667, "type": "electric_scooter", "lon": -76.9884385, "bike_id": "71bd7aaca317c236fec622aace80afcb", "rental_uris": {"android": "https://dc.lft.to/lastmile_qr_scan", "ios": "https://dc.lft.to/lastmile_qr_scan"}, "name": "71bd7aaca317c236fec622aace80afcb", "is_reserved": 0}, {"is_disabled": 0, "fusion_lon": 0.0, "fusion_lat": 0.0, "lat": 38.918199666666666, "type": "electric_scooter", "lon": -77.01215133333334, "bike_id": "57d311800f9626e994a5486a91fd6a7d", "rental_uris": {"android": "https://dc.lft.to/lastmile_qr_scan", "ios": "https://dc.lft.to/lastmile_qr_scan"}, "name": "57d311800f9626e994a5486a91fd6a7d", "is_reserved": 0}, {"is_disabled": 0, "fusion_lon": 0.0, "fusion_lat": 0.0, "lat": 38.91186966666667, "type": "electric_scooter", "lon": -77.04162916666667, "bike_id": "f2ffe1ddc298e66316ef32c147116ffe", "rental_uris": {"android": "https://dc.lft.to/lastmile_qr_scan", "ios": "https://dc.lft.to/lastmile_qr_scan"}, "name": "f2ffe1ddc298e66316ef32c147116ffe", "is_reserved": 0}, {"is_disabled": 0, "fusion_lon": 0.0, "fusion_lat": 0.0, "lat": 38.887605, "type": "electric_scooter", "lon": -77.03361616666666, "bike_id": "561457857e7d0f23769245e09c88dea5", "rental_uris": {"android": "https://dc.lft.to/lastmile_qr_scan", "ios": "https://dc.lft.to/lastmile_qr_scan"}, "name": "561457857e7d0f23769245e09c88dea5", "is_reserved": 0}, {"is_disabled": 0, "fusion_lon": 0.0, "fusion_lat": 0.0, "lat": 38.921648833333336, "type": "electric_scooter", "lon": -77.0338475, "bike_id": "2bb484ac7e0ea91393098ca35d222559", "rental_uris": {"android": "https://dc.lft.to/lastmile_qr_scan", "ios": "https://dc.lft.to/lastmile_qr_scan"}, "name": "2bb484ac7e0ea91393098ca35d222559", "is_reserved": 0}, {"is_disabled": 0, "fusion_lon": 0.0, "fusion_lat": 0.0, "lat": 38.91953016666667, "type": "electric_scooter", "lon": -77.028126, "bike_id": "3f697f0a2ade681057dfbf06629896e4", "rental_uris": {"android": "https://dc.lft.to/lastmile_qr_scan", "ios": "https://dc.lft.to/lastmile_qr_scan"}, "name": "3f697f0a2ade681057dfbf06629896e4", "is_reserved": 0}, {"is_disabled": 0, "fusion_lon": 0.0, "fusion_lat": 0.0, "lat": 38.914162833333336, "type": "electric_scooter", "lon": -77.02224233333334, "bike_id": "d2ba2dda7bc100b6eb736e8c0eba1f1a", "rental_uris": {"android": "https://dc.lft.to/lastmile_qr_scan", "ios": "https://dc.lft.to/lastmile_qr_scan"}, "name": "d2ba2dda7bc100b6eb736e8c0eba1f1a", "is_reserved": 0}, {"is_disabled": 0, "fusion_lon": 0.0, "fusion_lat": 0.0, "lat": 38.8337525, "type": "electric_scooter", "lon": -76.99297916666667, "bike_id": "94bdf302a9bff6140543080094d92ae3", "rental_uris": {"android": "https://dc.lft.to/lastmile_qr_scan", "ios": "https://dc.lft.to/lastmile_qr_scan"}, "name": "94bdf302a9bff6140543080094d92ae3", "is_reserved": 0}, {"is_disabled": 0, "fusion_lon": 0.0, "fusion_lat": 0.0, "lat": 38.91443266666667, "type": "electric_scooter", "lon": -77.02294133333334, "bike_id": "179ee200297a32647028aa65e0a492c6", "rental_uris": {"android": "https://dc.lft.to/lastmile_qr_scan", "ios": "https://dc.lft.to/lastmile_qr_scan"}, "name": "179ee200297a32647028aa65e0a492c6", "is_reserved": 0}, {"is_disabled": 0, "fusion_lon": 0.0, "fusion_lat": 0.0, "lat": 39.007863, "type": "electric_bike", "lon": -76.99573016666666, "bike_id": "751b7391f8f5dc7b2aad9fc3e81835b8", "rental_uris": {"android": "https://dc.lft.to/lastmile_qr_scan", "ios": "https://dc.lft.to/lastmile_qr_scan"}, "name": "751b7391f8f5dc7b2aad9fc3e81835b8", "is_reserved": 0}, {"is_disabled": 0, "fusion_lon": 0.0, "fusion_lat": 0.0, "lat": 38.90074333333333, "type": "electric_scooter", "lon": -77.002081, "bike_id": "3fc087b44f6758051942074ac44c5836", "rental_uris": {"android": "https://dc.lft.to/lastmile_qr_scan", "ios": "https://dc.lft.to/lastmile_qr_scan"}, "name": "3fc087b44f6758051942074ac44c5836", "is_reserved": 0}, {"is_disabled": 0, "fusion_lon": 0.0, "fusion_lat": 0.0, "lat": 38.94285683333333, "type": "electric_bike", "lon": -77.02800466666666, "bike_id": "6b3f4c26df73c5419ebec723e850f1c3", "rental_uris": {"android": "https://dc.lft.to/lastmile_qr_scan", "ios": "https://dc.lft.to/lastmile_qr_scan"}, "name": "6b3f4c26df73c5419ebec723e850f1c3", "is_reserved": 0}, {"is_disabled": 0, "fusion_lon": 0.0, "fusion_lat": 0.0, "lat": 38.9053455, "type": "electric_bike", "lon": -77.05912416666666, "bike_id": "2e287da7b5eae8c072e17b5151deb712", "rental_uris": {"android": "https://dc.lft.to/lastmile_qr_scan", "ios": "https://dc.lft.to/lastmile_qr_scan"}, "name": "2e287da7b5eae8c072e17b5151deb712", "is_reserved": 0}, {"is_disabled": 0, "fusion_lon": 0.0, "fusion_lat": 0.0, "lat": 38.9051355, "type": "electric_scooter", "lon": -76.98250166666666, "bike_id": "c0c4e37435e53ecb485eb1ce0ac4bb95", "rental_uris": {"android": "https://dc.lft.to/lastmile_qr_scan", "ios": "https://dc.lft.to/lastmile_qr_scan"}, "name": "c0c4e37435e53ecb485eb1ce0ac4bb95", "is_reserved": 0}, {"is_disabled": 0, "fusion_lon": 0.0, "fusion_lat": 0.0, "lat": 38.92157916666667, "type": "electric_scooter", "lon": -77.03399233333333, "bike_id": "391b2e8b60fd15b99d6e4d0633e9d28d", "rental_uris": {"android": "https://dc.lft.to/lastmile_qr_scan", "ios": "https://dc.lft.to/lastmile_qr_scan"}, "name": "391b2e8b60fd15b99d6e4d0633e9d28d", "is_reserved": 0}, {"is_disabled": 0, "fusion_lon": 0.0, "fusion_lat": 0.0, "lat": 38.91968816666667, "type": "electric_scooter", "lon": -77.0237865, "bike_id": "c32233718ddeb06c7402c164db168227", "rental_uris": {"android": "https://dc.lft.to/lastmile_qr_scan", "ios": "https://dc.lft.to/lastmile_qr_scan"}, "name": "c32233718ddeb06c7402c164db168227", "is_reserved": 0}, {"is_disabled": 0, "fusion_lon": 0.0, "fusion_lat": 0.0, "lat": 38.9169275, "type": "electric_bike", "lon": -77.09161933333333, "bike_id": "83b8be0fdff15ecb2e883c34cdc04995", "rental_uris": {"android": "https://dc.lft.to/lastmile_qr_scan", "ios": "https://dc.lft.to/lastmile_qr_scan"}, "name": "83b8be0fdff15ecb2e883c34cdc04995", "is_reserved": 0}, {"is_disabled": 0, "fusion_lon": 0.0, "fusion_lat": 0.0, "lat": 38.834266166666666, "type": "electric_bike", "lon": -77.10358333333333, "bike_id": "0b7453cd20d9018d75e9cf6620c70e4a", "rental_uris": {"android": "https://dc.lft.to/lastmile_qr_scan", "ios": "https://dc.lft.to/lastmile_qr_scan"}, "name": "0b7453cd20d9018d75e9cf6620c70e4a", "is_reserved": 0}, {"is_disabled": 0, "fusion_lon": 0.0, "fusion_lat": 0.0, "lat": 38.9089835, "type": "electric_scooter", "lon": -76.9982235, "bike_id": "7ba801e18d5dc0c4a6036890a43e57c0", "rental_uris": {"android": "https://dc.lft.to/lastmile_qr_scan", "ios": "https://dc.lft.to/lastmile_qr_scan"}, "name": "7ba801e18d5dc0c4a6036890a43e57c0", "is_reserved": 0}, {"is_disabled": 0, "fusion_lon": 0.0, "fusion_lat": 0.0, "lat": 38.918365333333334, "type": "electric_scooter", "lon": -77.02302733333333, "bike_id": "d6d3f8b871bbae39ed799745924108df", "rental_uris": {"android": "https://dc.lft.to/lastmile_qr_scan", "ios": "https://dc.lft.to/lastmile_qr_scan"}, "name": "d6d3f8b871bbae39ed799745924108df", "is_reserved": 0}, {"is_disabled": 0, "fusion_lon": 0.0, "fusion_lat": 0.0, "lat": 38.91107783333333, "type": "electric_scooter", "lon": -77.02305716666666, "bike_id": "6382cd2a9a72fbfd01d692318b5a0a4b", "rental_uris": {"android": "https://dc.lft.to/lastmile_qr_scan", "ios": "https://dc.lft.to/lastmile_qr_scan"}, "name": "6382cd2a9a72fbfd01d692318b5a0a4b", "is_reserved": 0}, {"is_disabled": 0, "fusion_lon": 0.0, "fusion_lat": 0.0, "lat": 38.919117666666665, "type": "electric_scooter", "lon": -77.036257, "bike_id": "f850090ab18523881cb6aa59be41ba26", "rental_uris": {"android": "https://dc.lft.to/lastmile_qr_scan", "ios": "https://dc.lft.to/lastmile_qr_scan"}, "name": "f850090ab18523881cb6aa59be41ba26", "is_reserved": 0}, {"is_disabled": 0, "fusion_lon": 0.0, "fusion_lat": 0.0, "lat": 38.87957266666667, "type": "electric_scooter", "lon": -77.00912516666666, "bike_id": "69018ed607e985b054f6f4b4983e9123", "rental_uris": {"android": "https://dc.lft.to/lastmile_qr_scan", "ios": "https://dc.lft.to/lastmile_qr_scan"}, "name": "69018ed607e985b054f6f4b4983e9123", "is_reserved": 0}, {"is_disabled": 0, "fusion_lon": 0.0, "fusion_lat": 0.0, "lat": 38.8767415, "type": "electric_scooter", "lon": -76.93193633333334, "bike_id": "21dd1a04032f1dcd8bb88d85fb94c606", "rental_uris": {"android": "https://dc.lft.to/lastmile_qr_scan", "ios": "https://dc.lft.to/lastmile_qr_scan"}, "name": "21dd1a04032f1dcd8bb88d85fb94c606", "is_reserved": 0}, {"is_disabled": 0, "fusion_lon": 0.0, "fusion_lat": 0.0, "lat": 38.93398583333333, "type": "electric_scooter", "lon": -77.04557316666667, "bike_id": "f6978aa1c81416f848a326f2b7119c16", "rental_uris": {"android": "https://dc.lft.to/lastmile_qr_scan", "ios": "https://dc.lft.to/lastmile_qr_scan"}, "name": "f6978aa1c81416f848a326f2b7119c16", "is_reserved": 0}, {"is_disabled": 0, "fusion_lon": 0.0, "fusion_lat": 0.0, "lat": 38.91913666666667, "type": "electric_scooter", "lon": -77.02409766666666, "bike_id": "e8a88e4c54eeecf782574614a04a4e13", "rental_uris": {"android": "https://dc.lft.to/lastmile_qr_scan", "ios": "https://dc.lft.to/lastmile_qr_scan"}, "name": "e8a88e4c54eeecf782574614a04a4e13", "is_reserved": 0}, {"is_disabled": 0, "fusion_lon": 0.0, "fusion_lat": 0.0, "lat": 38.91707366666667, "type": "electric_scooter", "lon": -77.02828333333333, "bike_id": "c2c512786d7e45f619d192b41020640a", "rental_uris": {"android": "https://dc.lft.to/lastmile_qr_scan", "ios": "https://dc.lft.to/lastmile_qr_scan"}, "name": "c2c512786d7e45f619d192b41020640a", "is_reserved": 0}, {"is_disabled": 0, "fusion_lon": 0.0, "fusion_lat": 0.0, "lat": 38.86586066666667, "type": "electric_scooter", "lon": -76.98723216666667, "bike_id": "9a47ef3ced77e7b38169b93dd0e55114", "rental_uris": {"android": "https://dc.lft.to/lastmile_qr_scan", "ios": "https://dc.lft.to/lastmile_qr_scan"}, "name": "9a47ef3ced77e7b38169b93dd0e55114", "is_reserved": 0}, {"is_disabled": 0, "fusion_lon": 0.0, "fusion_lat": 0.0, "lat": 38.94535833333333, "type": "electric_bike", "lon": -77.34461166666667, "bike_id": "6973d25a502f2b4181da6323eee6cd71", "rental_uris": {"android": "https://dc.lft.to/lastmile_qr_scan", "ios": "https://dc.lft.to/lastmile_qr_scan"}, "name": "6973d25a502f2b4181da6323eee6cd71", "is_reserved": 0}, {"is_disabled": 0, "fusion_lon": 0.0, "fusion_lat": 0.0, "lat": 38.887452833333334, "type": "electric_scooter", "lon": -77.0222775, "bike_id": "ea5a661a0972e4bb2a316ed1d223d248", "rental_uris": {"android": "https://dc.lft.to/lastmile_qr_scan", "ios": "https://dc.lft.to/lastmile_qr_scan"}, "name": "ea5a661a0972e4bb2a316ed1d223d248", "is_reserved": 0}, {"is_disabled": 0, "fusion_lon": 0.0, "fusion_lat": 0.0, "lat": 38.908158666666665, "type": "electric_scooter", "lon": -77.0393795, "bike_id": "231283ac87f06e0b0e16cbc80a22ae65", "rental_uris": {"android": "https://dc.lft.to/lastmile_qr_scan", "ios": "https://dc.lft.to/lastmile_qr_scan"}, "name": "231283ac87f06e0b0e16cbc80a22ae65", "is_reserved": 0}, {"is_disabled": 0, "fusion_lon": 0.0, "fusion_lat": 0.0, "lat": 38.918738833333336, "type": "electric_scooter", "lon": -77.02438283333333, "bike_id": "4245dd3383c419f32969614886477938", "rental_uris": {"android": "https://dc.lft.to/lastmile_qr_scan", "ios": "https://dc.lft.to/lastmile_qr_scan"}, "name": "4245dd3383c419f32969614886477938", "is_reserved": 0}, {"is_disabled": 0, "fusion_lon": 0.0, "fusion_lat": 0.0, "lat": 38.936214, "type": "electric_scooter", "lon": -77.02473383333333, "bike_id": "10e1090cfe29660ec2f0a85b18247ec0", "rental_uris": {"android": "https://dc.lft.to/lastmile_qr_scan", "ios": "https://dc.lft.to/lastmile_qr_scan"}, "name": "10e1090cfe29660ec2f0a85b18247ec0", "is_reserved": 0}, {"is_disabled": 0, "fusion_lon": 0.0, "fusion_lat": 0.0, "lat": 38.949732166666664, "type": "electric_scooter", "lon": -77.09441416666667, "bike_id": "d7b48e685b535c60a37ace8f21fa4520", "rental_uris": {"android": "https://dc.lft.to/lastmile_qr_scan", "ios": "https://dc.lft.to/lastmile_qr_scan"}, "name": "d7b48e685b535c60a37ace8f21fa4520", "is_reserved": 0}, {"is_disabled": 0, "fusion_lon": 0.0, "fusion_lat": 0.0, "lat": 38.87826666666667, "type": "electric_scooter", "lon": -76.96319533333333, "bike_id": "a9da60d00f7627b8b2aa762d0ac7c5d3", "rental_uris": {"android": "https://dc.lft.to/lastmile_qr_scan", "ios": "https://dc.lft.to/lastmile_qr_scan"}, "name": "a9da60d00f7627b8b2aa762d0ac7c5d3", "is_reserved": 0}, {"is_disabled": 0, "fusion_lon": 0.0, "fusion_lat": 0.0, "lat": 38.905363666666666, "type": "electric_scooter", "lon": -77.05048783333334, "bike_id": "ee146ad74383dabe0d06b12bf21b3572", "rental_uris": {"android": "https://dc.lft.to/lastmile_qr_scan", "ios": "https://dc.lft.to/lastmile_qr_scan"}, "name": "ee146ad74383dabe0d06b12bf21b3572", "is_reserved": 0}, {"is_disabled": 0, "fusion_lon": 0.0, "fusion_lat": 0.0, "lat": 38.90036033333333, "type": "electric_scooter", "lon": -76.9882445, "bike_id": "257a4e7a7f3b1b5a5fee46f5e1663eb8", "rental_uris": {"android": "https://dc.lft.to/lastmile_qr_scan", "ios": "https://dc.lft.to/lastmile_qr_scan"}, "name": "257a4e7a7f3b1b5a5fee46f5e1663eb8", "is_reserved": 0}, {"is_disabled": 0, "fusion_lon": 0.0, "fusion_lat": 0.0, "lat": 38.91242166666667, "type": "electric_scooter", "lon": -77.02231516666667, "bike_id": "c4ff85f8524f15eb0de4a83e05978bc3", "rental_uris": {"android": "https://dc.lft.to/lastmile_qr_scan", "ios": "https://dc.lft.to/lastmile_qr_scan"}, "name": "c4ff85f8524f15eb0de4a83e05978bc3", "is_reserved": 0}, {"is_disabled": 0, "fusion_lon": 0.0, "fusion_lat": 0.0, "lat": 38.962129833333336, "type": "electric_scooter", "lon": -77.02804383333333, "bike_id": "2d5a48039a48f699e7e4d74f8daeaf31", "rental_uris": {"android": "https://dc.lft.to/lastmile_qr_scan", "ios": "https://dc.lft.to/lastmile_qr_scan"}, "name": "2d5a48039a48f699e7e4d74f8daeaf31", "is_reserved": 0}, {"is_disabled": 0, "fusion_lon": 0.0, "fusion_lat": 0.0, "lat": 38.846180833333335, "type": "electric_scooter", "lon": -76.99629866666666, "bike_id": "8ea459cfd40875b49352a1ce77cb8d1c", "rental_uris": {"android": "https://dc.lft.to/lastmile_qr_scan", "ios": "https://dc.lft.to/lastmile_qr_scan"}, "name": "8ea459cfd40875b49352a1ce77cb8d1c", "is_reserved": 0}, {"is_disabled": 0, "fusion_lon": 0.0, "fusion_lat": 0.0, "lat": 38.9225535, "type": "electric_scooter", "lon": -77.04304383333333, "bike_id": "4f62456918bb8d9889e60c800424cc1c", "rental_uris": {"android": "https://dc.lft.to/lastmile_qr_scan", "ios": "https://dc.lft.to/lastmile_qr_scan"}, "name": "4f62456918bb8d9889e60c800424cc1c", "is_reserved": 0}, {"is_disabled": 0, "fusion_lon": 0.0, "fusion_lat": 0.0, "lat": 38.865250333333336, "type": "electric_scooter", "lon": -76.98976416666666, "bike_id": "6a23e7a27d89f555f4c020be902924e7", "rental_uris": {"android": "https://dc.lft.to/lastmile_qr_scan", "ios": "https://dc.lft.to/lastmile_qr_scan"}, "name": "6a23e7a27d89f555f4c020be902924e7", "is_reserved": 0}, {"is_disabled": 0, "fusion_lon": 0.0, "fusion_lat": 0.0, "lat": 38.912671333333336, "type": "electric_scooter", "lon": -77.0223595, "bike_id": "62da4d1e61130bb1dd2153788427b63a", "rental_uris": {"android": "https://dc.lft.to/lastmile_qr_scan", "ios": "https://dc.lft.to/lastmile_qr_scan"}, "name": "62da4d1e61130bb1dd2153788427b63a", "is_reserved": 0}, {"is_disabled": 0, "fusion_lon": 0.0, "fusion_lat": 0.0, "lat": 38.79892016666667, "type": "electric_bike", "lon": -77.1389055, "bike_id": "a03ddddec315bb0a97980d2779c6022f", "rental_uris": {"android": "https://dc.lft.to/lastmile_qr_scan", "ios": "https://dc.lft.to/lastmile_qr_scan"}, "name": "a03ddddec315bb0a97980d2779c6022f", "is_reserved": 0}, {"is_disabled": 0, "fusion_lon": 0.0, "fusion_lat": 0.0, "lat": 38.915991, "type": "electric_scooter", "lon": -77.04027133333334, "bike_id": "11a66f30b811c2ccf14a5fdab8b7dc25", "rental_uris": {"android": "https://dc.lft.to/lastmile_qr_scan", "ios": "https://dc.lft.to/lastmile_qr_scan"}, "name": "11a66f30b811c2ccf14a5fdab8b7dc25", "is_reserved": 0}, {"is_disabled": 0, "fusion_lon": 0.0, "fusion_lat": 0.0, "lat": 38.92012783333333, "type": "electric_scooter", "lon": -77.031512, "bike_id": "e2878cd695d6dad8326b062e02c6f4bf", "rental_uris": {"android": "https://dc.lft.to/lastmile_qr_scan", "ios": "https://dc.lft.to/lastmile_qr_scan"}, "name": "e2878cd695d6dad8326b062e02c6f4bf", "is_reserved": 0}, {"is_disabled": 0, "fusion_lon": 0.0, "fusion_lat": 0.0, "lat": 38.8036325, "type": "electric_bike", "lon": -77.03897216666667, "bike_id": "f4f83bd05a77b1bf95b5bff3f9d1c858", "rental_uris": {"android": "https://dc.lft.to/lastmile_qr_scan", "ios": "https://dc.lft.to/lastmile_qr_scan"}, "name": "f4f83bd05a77b1bf95b5bff3f9d1c858", "is_reserved": 0}, {"is_disabled": 0, "fusion_lon": 0.0, "fusion_lat": 0.0, "lat": 38.9705415, "type": "electric_bike", "lon": -76.93607783333333, "bike_id": "5b44656dceb533a78f820ab5823431f3", "rental_uris": {"android": "https://dc.lft.to/lastmile_qr_scan", "ios": "https://dc.lft.to/lastmile_qr_scan"}, "name": "5b44656dceb533a78f820ab5823431f3", "is_reserved": 0}, {"is_disabled": 0, "fusion_lon": 0.0, "fusion_lat": 0.0, "lat": 38.924951666666665, "type": "electric_scooter", "lon": -77.02442766666667, "bike_id": "24626db3f430124a1e8a61628eb59c7c", "rental_uris": {"android": "https://dc.lft.to/lastmile_qr_scan", "ios": "https://dc.lft.to/lastmile_qr_scan"}, "name": "24626db3f430124a1e8a61628eb59c7c", "is_reserved": 0}, {"is_disabled": 0, "fusion_lon": 0.0, "fusion_lat": 0.0, "lat": 38.8528015, "type": "electric_bike", "lon": -76.98156933333334, "bike_id": "ac0ace0c720497a80819f549b3dfb696", "rental_uris": {"android": "https://dc.lft.to/lastmile_qr_scan", "ios": "https://dc.lft.to/lastmile_qr_scan"}, "name": "ac0ace0c720497a80819f549b3dfb696", "is_reserved": 0}, {"is_disabled": 0, "fusion_lon": 0.0, "fusion_lat": 0.0, "lat": 38.910062, "type": "electric_scooter", "lon": -77.04421933333333, "bike_id": "018c9cc49e564b520f1e7b46a9c5de49", "rental_uris": {"android": "https://dc.lft.to/lastmile_qr_scan", "ios": "https://dc.lft.to/lastmile_qr_scan"}, "name": "018c9cc49e564b520f1e7b46a9c5de49", "is_reserved": 0}, {"is_disabled": 0, "fusion_lon": 0.0, "fusion_lat": 0.0, "lat": 38.928412333333334, "type": "electric_scooter", "lon": -76.99785383333334, "bike_id": "279e16425aa60cb9ef15fae895c54f3a", "rental_uris": {"android": "https://dc.lft.to/lastmile_qr_scan", "ios": "https://dc.lft.to/lastmile_qr_scan"}, "name": "279e16425aa60cb9ef15fae895c54f3a", "is_reserved": 0}, {"is_disabled": 0, "fusion_lon": 0.0, "fusion_lat": 0.0, "lat": 38.88116866666667, "type": "electric_bike", "lon": -77.0018855, "bike_id": "ed52537163a6818b849cc54378e5feae", "rental_uris": {"android": "https://dc.lft.to/lastmile_qr_scan", "ios": "https://dc.lft.to/lastmile_qr_scan"}, "name": "ed52537163a6818b849cc54378e5feae", "is_reserved": 0}, {"is_disabled": 0, "fusion_lon": 0.0, "fusion_lat": 0.0, "lat": 38.93170283333333, "type": "electric_scooter", "lon": -77.07271333333334, "bike_id": "8587f80a7bdaa26b2acccca946f8b0d8", "rental_uris": {"android": "https://dc.lft.to/lastmile_qr_scan", "ios": "https://dc.lft.to/lastmile_qr_scan"}, "name": "8587f80a7bdaa26b2acccca946f8b0d8", "is_reserved": 0}, {"is_disabled": 0, "fusion_lon": 0.0, "fusion_lat": 0.0, "lat": 38.930674833333335, "type": "electric_scooter", "lon": -77.03401566666666, "bike_id": "9be18621bfb66f8732d676ea2bc4cb6b", "rental_uris": {"android": "https://dc.lft.to/lastmile_qr_scan", "ios": "https://dc.lft.to/lastmile_qr_scan"}, "name": "9be18621bfb66f8732d676ea2bc4cb6b", "is_reserved": 0}, {"is_disabled": 0, "fusion_lon": 0.0, "fusion_lat": 0.0, "lat": 38.90772916666667, "type": "electric_scooter", "lon": -77.0466795, "bike_id": "f09878ba31662ad45e1c482f7f8400b7", "rental_uris": {"android": "https://dc.lft.to/lastmile_qr_scan", "ios": "https://dc.lft.to/lastmile_qr_scan"}, "name": "f09878ba31662ad45e1c482f7f8400b7", "is_reserved": 0}, {"is_disabled": 0, "fusion_lon": 0.0, "fusion_lat": 0.0, "lat": 38.907646, "type": "electric_scooter", "lon": -77.06765616666667, "bike_id": "849e06ea0a18d9dfd6b8cd4d64e62789", "rental_uris": {"android": "https://dc.lft.to/lastmile_qr_scan", "ios": "https://dc.lft.to/lastmile_qr_scan"}, "name": "849e06ea0a18d9dfd6b8cd4d64e62789", "is_reserved": 0}, {"is_disabled": 0, "fusion_lon": 0.0, "fusion_lat": 0.0, "lat": 38.88498966666667, "type": "electric_scooter", "lon": -77.02092766666667, "bike_id": "11174ce857b30d1306baa19ed7c443d1", "rental_uris": {"android": "https://dc.lft.to/lastmile_qr_scan", "ios": "https://dc.lft.to/lastmile_qr_scan"}, "name": "11174ce857b30d1306baa19ed7c443d1", "is_reserved": 0}, {"is_disabled": 0, "fusion_lon": 0.0, "fusion_lat": 0.0, "lat": 38.904754833333335, "type": "electric_bike", "lon": -76.929475, "bike_id": "cdcbd3cc1ab407c461fb488850b263c8", "rental_uris": {"android": "https://dc.lft.to/lastmile_qr_scan", "ios": "https://dc.lft.to/lastmile_qr_scan"}, "name": "cdcbd3cc1ab407c461fb488850b263c8", "is_reserved": 0}, {"is_disabled": 0, "fusion_lon": 0.0, "fusion_lat": 0.0, "lat": 38.9251255, "type": "electric_scooter", "lon": -77.02580666666667, "bike_id": "4aa4dba63ffb2ece55ed333f496bbcc6", "rental_uris": {"android": "https://dc.lft.to/lastmile_qr_scan", "ios": "https://dc.lft.to/lastmile_qr_scan"}, "name": "4aa4dba63ffb2ece55ed333f496bbcc6", "is_reserved": 0}, {"is_disabled": 0, "fusion_lon": 0.0, "fusion_lat": 0.0, "lat": 38.89842383333333, "type": "electric_scooter", "lon": -76.94635666666667, "bike_id": "88f4b51a614484cbbf7b1e25abe84914", "rental_uris": {"android": "https://dc.lft.to/lastmile_qr_scan", "ios": "https://dc.lft.to/lastmile_qr_scan"}, "name": "88f4b51a614484cbbf7b1e25abe84914", "is_reserved": 0}, {"is_disabled": 0, "fusion_lon": 0.0, "fusion_lat": 0.0, "lat": 38.921501166666665, "type": "electric_scooter", "lon": -77.03506133333333, "bike_id": "751f7442714fbf9c8873b0808ef3da5e", "rental_uris": {"android": "https://dc.lft.to/lastmile_qr_scan", "ios": "https://dc.lft.to/lastmile_qr_scan"}, "name": "751f7442714fbf9c8873b0808ef3da5e", "is_reserved": 0}, {"is_disabled": 0, "fusion_lon": 0.0, "fusion_lat": 0.0, "lat": 38.93174916666667, "type": "electric_scooter", "lon": -77.072811, "bike_id": "0934d5757d031dc74cf4becf26ada5c3", "rental_uris": {"android": "https://dc.lft.to/lastmile_qr_scan", "ios": "https://dc.lft.to/lastmile_qr_scan"}, "name": "0934d5757d031dc74cf4becf26ada5c3", "is_reserved": 0}, {"is_disabled": 0, "fusion_lon": 0.0, "fusion_lat": 0.0, "lat": 38.91415283333333, "type": "electric_scooter", "lon": -77.02238433333333, "bike_id": "5c0a43db0d32511156e1e216873c3ad1", "rental_uris": {"android": "https://dc.lft.to/lastmile_qr_scan", "ios": "https://dc.lft.to/lastmile_qr_scan"}, "name": "5c0a43db0d32511156e1e216873c3ad1", "is_reserved": 0}, {"is_disabled": 0, "fusion_lon": 0.0, "fusion_lat": 0.0, "lat": 38.916794333333335, "type": "electric_scooter", "lon": -77.03760483333333, "bike_id": "16f69b28895005005944ecd80ddbccb3", "rental_uris": {"android": "https://dc.lft.to/lastmile_qr_scan", "ios": "https://dc.lft.to/lastmile_qr_scan"}, "name": "16f69b28895005005944ecd80ddbccb3", "is_reserved": 0}, {"is_disabled": 0, "fusion_lon": 0.0, "fusion_lat": 0.0, "lat": 38.931719333333334, "type": "electric_scooter", "lon": -77.0725585, "bike_id": "b4a63edc4dc65f723a3a9db11d9934ab", "rental_uris": {"android": "https://dc.lft.to/lastmile_qr_scan", "ios": "https://dc.lft.to/lastmile_qr_scan"}, "name": "b4a63edc4dc65f723a3a9db11d9934ab", "is_reserved": 0}, {"is_disabled": 0, "fusion_lon": 0.0, "fusion_lat": 0.0, "lat": 38.884661666666666, "type": "electric_scooter", "lon": -77.01968316666667, "bike_id": "d8becca71b0c22585f8a0b1729de5d7f", "rental_uris": {"android": "https://dc.lft.to/lastmile_qr_scan", "ios": "https://dc.lft.to/lastmile_qr_scan"}, "name": "d8becca71b0c22585f8a0b1729de5d7f", "is_reserved": 0}, {"is_disabled": 0, "fusion_lon": 0.0, "fusion_lat": 0.0, "lat": 38.8997805, "type": "electric_scooter", "lon": -77.05062666666667, "bike_id": "885e00630be67198836e4c47ed6d9ca6", "rental_uris": {"android": "https://dc.lft.to/lastmile_qr_scan", "ios": "https://dc.lft.to/lastmile_qr_scan"}, "name": "885e00630be67198836e4c47ed6d9ca6", "is_reserved": 0}, {"is_disabled": 0, "fusion_lon": 0.0, "fusion_lat": 0.0, "lat": 38.820829833333335, "type": "electric_bike", "lon": -77.0536735, "bike_id": "c55b7aa11bbc8cded3673ff2b17728bf", "rental_uris": {"android": "https://dc.lft.to/lastmile_qr_scan", "ios": "https://dc.lft.to/lastmile_qr_scan"}, "name": "c55b7aa11bbc8cded3673ff2b17728bf", "is_reserved": 0}, {"is_disabled": 0, "fusion_lon": 0.0, "fusion_lat": 0.0, "lat": 39.0309355, "type": "electric_bike", "lon": -77.1040505, "bike_id": "f42211a79bc52e987da270a50828b71a", "rental_uris": {"android": "https://dc.lft.to/lastmile_qr_scan", "ios": "https://dc.lft.to/lastmile_qr_scan"}, "name": "f42211a79bc52e987da270a50828b71a", "is_reserved": 0}, {"is_disabled": 0, "fusion_lon": 0.0, "fusion_lat": 0.0, "lat": 38.92058316666667, "type": "electric_scooter", "lon": -77.02455183333333, "bike_id": "258424d0cd1e85d100039866ca2e1787", "rental_uris": {"android": "https://dc.lft.to/lastmile_qr_scan", "ios": "https://dc.lft.to/lastmile_qr_scan"}, "name": "258424d0cd1e85d100039866ca2e1787", "is_reserved": 0}, {"is_disabled": 0, "fusion_lon": 0.0, "fusion_lat": 0.0, "lat": 38.905133166666666, "type": "electric_scooter", "lon": -77.02954466666667, "bike_id": "9b13a35200a49a60675dae213df15826", "rental_uris": {"android": "https://dc.lft.to/lastmile_qr_scan", "ios": "https://dc.lft.to/lastmile_qr_scan"}, "name": "9b13a35200a49a60675dae213df15826", "is_reserved": 0}, {"is_disabled": 0, "fusion_lon": 0.0, "fusion_lat": 0.0, "lat": 38.909852666666666, "type": "electric_scooter", "lon": -77.021836, "bike_id": "0d31eb85b81190906e1727e479383e03", "rental_uris": {"android": "https://dc.lft.to/lastmile_qr_scan", "ios": "https://dc.lft.to/lastmile_qr_scan"}, "name": "0d31eb85b81190906e1727e479383e03", "is_reserved": 0}, {"is_disabled": 0, "fusion_lon": 0.0, "fusion_lat": 0.0, "lat": 38.95353933333333, "type": "electric_bike", "lon": -76.98089683333333, "bike_id": "656c34a238e301a0ddaa8f797ff1e88b", "rental_uris": {"android": "https://dc.lft.to/lastmile_qr_scan", "ios": "https://dc.lft.to/lastmile_qr_scan"}, "name": "656c34a238e301a0ddaa8f797ff1e88b", "is_reserved": 0}, {"is_disabled": 0, "fusion_lon": 0.0, "fusion_lat": 0.0, "lat": 38.869527166666664, "type": "electric_scooter", "lon": -76.97598766666667, "bike_id": "6519520ff339957cf9f5569f7e66c5cc", "rental_uris": {"android": "https://dc.lft.to/lastmile_qr_scan", "ios": "https://dc.lft.to/lastmile_qr_scan"}, "name": "6519520ff339957cf9f5569f7e66c5cc", "is_reserved": 0}, {"is_disabled": 0, "fusion_lon": 0.0, "fusion_lat": 0.0, "lat": 38.89531983333333, "type": "electric_scooter", "lon": -76.94908683333334, "bike_id": "3660de41dd10763bc660e3ed800e12d2", "rental_uris": {"android": "https://dc.lft.to/lastmile_qr_scan", "ios": "https://dc.lft.to/lastmile_qr_scan"}, "name": "3660de41dd10763bc660e3ed800e12d2", "is_reserved": 0}, {"is_disabled": 0, "fusion_lon": 0.0, "fusion_lat": 0.0, "lat": 38.91110966666667, "type": "electric_scooter", "lon": -77.0383715, "bike_id": "5681e37499d481097e39d0704d064ad1", "rental_uris": {"android": "https://dc.lft.to/lastmile_qr_scan", "ios": "https://dc.lft.to/lastmile_qr_scan"}, "name": "5681e37499d481097e39d0704d064ad1", "is_reserved": 0}, {"is_disabled": 0, "fusion_lon": 0.0, "fusion_lat": 0.0, "lat": 38.93633966666667, "type": "electric_scooter", "lon": -77.02697, "bike_id": "e3611b5e09c1522b08c7c85a327a6809", "rental_uris": {"android": "https://dc.lft.to/lastmile_qr_scan", "ios": "https://dc.lft.to/lastmile_qr_scan"}, "name": "e3611b5e09c1522b08c7c85a327a6809", "is_reserved": 0}, {"is_disabled": 0, "fusion_lon": 0.0, "fusion_lat": 0.0, "lat": 38.924572, "type": "electric_bike", "lon": -76.9995415, "bike_id": "7434a953aeeec6e9bab6f67c46a85a32", "rental_uris": {"android": "https://dc.lft.to/lastmile_qr_scan", "ios": "https://dc.lft.to/lastmile_qr_scan"}, "name": "7434a953aeeec6e9bab6f67c46a85a32", "is_reserved": 0}, {"is_disabled": 0, "fusion_lon": 0.0, "fusion_lat": 0.0, "lat": 38.9095865, "type": "electric_scooter", "lon": -77.0230875, "bike_id": "d4aa936343252c9348a1e079ede78e52", "rental_uris": {"android": "https://dc.lft.to/lastmile_qr_scan", "ios": "https://dc.lft.to/lastmile_qr_scan"}, "name": "d4aa936343252c9348a1e079ede78e52", "is_reserved": 0}, {"is_disabled": 0, "fusion_lon": 0.0, "fusion_lat": 0.0, "lat": 38.905307666666666, "type": "electric_scooter", "lon": -77.02135766666666, "bike_id": "076b62ba178555ac098eb996e39bf998", "rental_uris": {"android": "https://dc.lft.to/lastmile_qr_scan", "ios": "https://dc.lft.to/lastmile_qr_scan"}, "name": "076b62ba178555ac098eb996e39bf998", "is_reserved": 0}, {"is_disabled": 0, "fusion_lon": 0.0, "fusion_lat": 0.0, "lat": 38.897413, "type": "electric_scooter", "lon": -77.02183083333334, "bike_id": "2da890c14ddaf6edec120b558b78671a", "rental_uris": {"android": "https://dc.lft.to/lastmile_qr_scan", "ios": "https://dc.lft.to/lastmile_qr_scan"}, "name": "2da890c14ddaf6edec120b558b78671a", "is_reserved": 0}, {"is_disabled": 0, "fusion_lon": 0.0, "fusion_lat": 0.0, "lat": 38.873726833333336, "type": "electric_scooter", "lon": -77.00095216666666, "bike_id": "9931b9cc3fbd9e1fafd482298d477b10", "rental_uris": {"android": "https://dc.lft.to/lastmile_qr_scan", "ios": "https://dc.lft.to/lastmile_qr_scan"}, "name": "9931b9cc3fbd9e1fafd482298d477b10", "is_reserved": 0}, {"is_disabled": 0, "fusion_lon": 0.0, "fusion_lat": 0.0, "lat": 38.910757, "type": "electric_scooter", "lon": -77.04387216666667, "bike_id": "80dbd42a9b251add712ff62d48a9e599", "rental_uris": {"android": "https://dc.lft.to/lastmile_qr_scan", "ios": "https://dc.lft.to/lastmile_qr_scan"}, "name": "80dbd42a9b251add712ff62d48a9e599", "is_reserved": 0}, {"is_disabled": 0, "fusion_lon": 0.0, "fusion_lat": 0.0, "lat": 38.91475583333333, "type": "electric_scooter", "lon": -77.039412, "bike_id": "15f1f63ae8053672fe04e4446f5d5fbe", "rental_uris": {"android": "https://dc.lft.to/lastmile_qr_scan", "ios": "https://dc.lft.to/lastmile_qr_scan"}, "name": "15f1f63ae8053672fe04e4446f5d5fbe", "is_reserved": 0}, {"is_disabled": 0, "fusion_lon": 0.0, "fusion_lat": 0.0, "lat": 38.90447616666667, "type": "electric_scooter", "lon": -77.05334533333334, "bike_id": "98403b7366c8292bef7ceacf39c4efad", "rental_uris": {"android": "https://dc.lft.to/lastmile_qr_scan", "ios": "https://dc.lft.to/lastmile_qr_scan"}, "name": "98403b7366c8292bef7ceacf39c4efad", "is_reserved": 0}, {"is_disabled": 0, "fusion_lon": 0.0, "fusion_lat": 0.0, "lat": 38.90670466666667, "type": "electric_scooter", "lon": -77.03764066666666, "bike_id": "9afd07b4e3312361deecae6ef29052e5", "rental_uris": {"android": "https://dc.lft.to/lastmile_qr_scan", "ios": "https://dc.lft.to/lastmile_qr_scan"}, "name": "9afd07b4e3312361deecae6ef29052e5", "is_reserved": 0}, {"is_disabled": 0, "fusion_lon": 0.0, "fusion_lat": 0.0, "lat": 38.91052533333333, "type": "electric_scooter", "lon": -77.042515, "bike_id": "04887fb5cbcb9d8bbb9ecaaf6e087d14", "rental_uris": {"android": "https://dc.lft.to/lastmile_qr_scan", "ios": "https://dc.lft.to/lastmile_qr_scan"}, "name": "04887fb5cbcb9d8bbb9ecaaf6e087d14", "is_reserved": 0}, {"is_disabled": 0, "fusion_lon": 0.0, "fusion_lat": 0.0, "lat": 38.897901, "type": "electric_scooter", "lon": -76.93054066666667, "bike_id": "29dd737bd33cc709f23f8b481aa37744", "rental_uris": {"android": "https://dc.lft.to/lastmile_qr_scan", "ios": "https://dc.lft.to/lastmile_qr_scan"}, "name": "29dd737bd33cc709f23f8b481aa37744", "is_reserved": 0}, {"is_disabled": 0, "fusion_lon": 0.0, "fusion_lat": 0.0, "lat": 38.93533866666667, "type": "electric_scooter", "lon": -77.057693, "bike_id": "393877f2222f799c5cc887100a0dd2e1", "rental_uris": {"android": "https://dc.lft.to/lastmile_qr_scan", "ios": "https://dc.lft.to/lastmile_qr_scan"}, "name": "393877f2222f799c5cc887100a0dd2e1", "is_reserved": 0}, {"is_disabled": 0, "fusion_lon": 0.0, "fusion_lat": 0.0, "lat": 38.908358666666665, "type": "electric_scooter", "lon": -77.02710666666667, "bike_id": "15451648f4573421608a1c5e8828b9cc", "rental_uris": {"android": "https://dc.lft.to/lastmile_qr_scan", "ios": "https://dc.lft.to/lastmile_qr_scan"}, "name": "15451648f4573421608a1c5e8828b9cc", "is_reserved": 0}, {"is_disabled": 0, "fusion_lon": 0.0, "fusion_lat": 0.0, "lat": 38.94290066666667, "type": "electric_scooter", "lon": -77.02172483333334, "bike_id": "5d012647fef4affff9e1e51aff0d71bb", "rental_uris": {"android": "https://dc.lft.to/lastmile_qr_scan", "ios": "https://dc.lft.to/lastmile_qr_scan"}, "name": "5d012647fef4affff9e1e51aff0d71bb", "is_reserved": 0}, {"is_disabled": 0, "fusion_lon": 0.0, "fusion_lat": 0.0, "lat": 38.867308333333334, "type": "electric_scooter", "lon": -76.98850033333333, "bike_id": "51b45f76233ceaadbcf64250cb920719", "rental_uris": {"android": "https://dc.lft.to/lastmile_qr_scan", "ios": "https://dc.lft.to/lastmile_qr_scan"}, "name": "51b45f76233ceaadbcf64250cb920719", "is_reserved": 0}, {"is_disabled": 0, "fusion_lon": 0.0, "fusion_lat": 0.0, "lat": 38.9498015, "type": "electric_scooter", "lon": -77.02705216666666, "bike_id": "fba69cb78b4d4001ddf5319cb29d717a", "rental_uris": {"android": "https://dc.lft.to/lastmile_qr_scan", "ios": "https://dc.lft.to/lastmile_qr_scan"}, "name": "fba69cb78b4d4001ddf5319cb29d717a", "is_reserved": 0}, {"is_disabled": 0, "fusion_lon": 0.0, "fusion_lat": 0.0, "lat": 38.87686866666667, "type": "electric_scooter", "lon": -77.01759283333334, "bike_id": "9c4767aa8110a5371cf29b76c65876d7", "rental_uris": {"android": "https://dc.lft.to/lastmile_qr_scan", "ios": "https://dc.lft.to/lastmile_qr_scan"}, "name": "9c4767aa8110a5371cf29b76c65876d7", "is_reserved": 0}, {"is_disabled": 0, "fusion_lon": 0.0, "fusion_lat": 0.0, "lat": 38.906295666666665, "type": "electric_scooter", "lon": -77.03747966666667, "bike_id": "f78997897b153a8719b137eaacaca319", "rental_uris": {"android": "https://dc.lft.to/lastmile_qr_scan", "ios": "https://dc.lft.to/lastmile_qr_scan"}, "name": "f78997897b153a8719b137eaacaca319", "is_reserved": 0}, {"is_disabled": 0, "fusion_lon": 0.0, "fusion_lat": 0.0, "lat": 38.911882, "type": "electric_scooter", "lon": -77.02984066666667, "bike_id": "f243767e312410fcb8f667d94a1c688a", "rental_uris": {"android": "https://dc.lft.to/lastmile_qr_scan", "ios": "https://dc.lft.to/lastmile_qr_scan"}, "name": "f243767e312410fcb8f667d94a1c688a", "is_reserved": 0}, {"is_disabled": 0, "fusion_lon": 0.0, "fusion_lat": 0.0, "lat": 38.90722383333333, "type": "electric_scooter", "lon": -77.02543233333333, "bike_id": "3e9e8a16599b0ce7c168269433a16d87", "rental_uris": {"android": "https://dc.lft.to/lastmile_qr_scan", "ios": "https://dc.lft.to/lastmile_qr_scan"}, "name": "3e9e8a16599b0ce7c168269433a16d87", "is_reserved": 0}, {"is_disabled": 0, "fusion_lon": 0.0, "fusion_lat": 0.0, "lat": 38.83144983333333, "type": "electric_bike", "lon": -76.99689283333333, "bike_id": "51bad64215c0d526418203b0a0da4a7c", "rental_uris": {"android": "https://dc.lft.to/lastmile_qr_scan", "ios": "https://dc.lft.to/lastmile_qr_scan"}, "name": "51bad64215c0d526418203b0a0da4a7c", "is_reserved": 0}, {"is_disabled": 0, "fusion_lon": 0.0, "fusion_lat": 0.0, "lat": 38.897324166666664, "type": "electric_scooter", "lon": -77.04985816666667, "bike_id": "bac874ea714db9f3cebe349bd1f2ca73", "rental_uris": {"android": "https://dc.lft.to/lastmile_qr_scan", "ios": "https://dc.lft.to/lastmile_qr_scan"}, "name": "bac874ea714db9f3cebe349bd1f2ca73", "is_reserved": 0}, {"is_disabled": 0, "fusion_lon": 0.0, "fusion_lat": 0.0, "lat": 38.92119233333333, "type": "electric_bike", "lon": -77.01210183333333, "bike_id": "11141cf2647a53f8dcda4e46f058b301", "rental_uris": {"android": "https://dc.lft.to/lastmile_qr_scan", "ios": "https://dc.lft.to/lastmile_qr_scan"}, "name": "11141cf2647a53f8dcda4e46f058b301", "is_reserved": 0}, {"is_disabled": 0, "fusion_lon": 0.0, "fusion_lat": 0.0, "lat": 38.9198555, "type": "electric_scooter", "lon": -77.03275833333333, "bike_id": "139bbe4ac5fc91c6f433044970877b4c", "rental_uris": {"android": "https://dc.lft.to/lastmile_qr_scan", "ios": "https://dc.lft.to/lastmile_qr_scan"}, "name": "139bbe4ac5fc91c6f433044970877b4c", "is_reserved": 0}, {"is_disabled": 0, "fusion_lon": 0.0, "fusion_lat": 0.0, "lat": 38.918042666666665, "type": "electric_scooter", "lon": -77.0327265, "bike_id": "3e9feb31e91b9ec4b1743620b7e2cc57", "rental_uris": {"android": "https://dc.lft.to/lastmile_qr_scan", "ios": "https://dc.lft.to/lastmile_qr_scan"}, "name": "3e9feb31e91b9ec4b1743620b7e2cc57", "is_reserved": 0}, {"is_disabled": 0, "fusion_lon": 0.0, "fusion_lat": 0.0, "lat": 38.841025, "type": "electric_bike", "lon": -77.089465, "bike_id": "334d96f066e3dee053fbc493b4bf1f5d", "rental_uris": {"android": "https://dc.lft.to/lastmile_qr_scan", "ios": "https://dc.lft.to/lastmile_qr_scan"}, "name": "334d96f066e3dee053fbc493b4bf1f5d", "is_reserved": 0}, {"is_disabled": 0, "fusion_lon": 0.0, "fusion_lat": 0.0, "lat": 38.90782633333333, "type": "electric_scooter", "lon": -77.0096945, "bike_id": "815eb7776ff6176cb0adbc2140a4c1e9", "rental_uris": {"android": "https://dc.lft.to/lastmile_qr_scan", "ios": "https://dc.lft.to/lastmile_qr_scan"}, "name": "815eb7776ff6176cb0adbc2140a4c1e9", "is_reserved": 0}, {"is_disabled": 0, "fusion_lon": 0.0, "fusion_lat": 0.0, "lat": 38.9127165, "type": "electric_scooter", "lon": -77.0386505, "bike_id": "18c3dd862cfcdc9eada76fdf9e7a893e", "rental_uris": {"android": "https://dc.lft.to/lastmile_qr_scan", "ios": "https://dc.lft.to/lastmile_qr_scan"}, "name": "18c3dd862cfcdc9eada76fdf9e7a893e", "is_reserved": 0}, {"is_disabled": 0, "fusion_lon": 0.0, "fusion_lat": 0.0, "lat": 38.9299045, "type": "electric_scooter", "lon": -77.01981366666666, "bike_id": "18514bec9cbc2eab05477add4bf449b8", "rental_uris": {"android": "https://dc.lft.to/lastmile_qr_scan", "ios": "https://dc.lft.to/lastmile_qr_scan"}, "name": "18514bec9cbc2eab05477add4bf449b8", "is_reserved": 0}, {"is_disabled": 0, "fusion_lon": 0.0, "fusion_lat": 0.0, "lat": 38.903801, "type": "electric_scooter", "lon": -77.017771, "bike_id": "b6f42030df714676e4b2f428400eab00", "rental_uris": {"android": "https://dc.lft.to/lastmile_qr_scan", "ios": "https://dc.lft.to/lastmile_qr_scan"}, "name": "b6f42030df714676e4b2f428400eab00", "is_reserved": 0}, {"is_disabled": 0, "fusion_lon": 0.0, "fusion_lat": 0.0, "lat": 38.89677366666667, "type": "electric_bike", "lon": -76.9406235, "bike_id": "b6243e4fb9e3b2141ad04c0ea3e555b5", "rental_uris": {"android": "https://dc.lft.to/lastmile_qr_scan", "ios": "https://dc.lft.to/lastmile_qr_scan"}, "name": "b6243e4fb9e3b2141ad04c0ea3e555b5", "is_reserved": 0}, {"is_disabled": 0, "fusion_lon": 0.0, "fusion_lat": 0.0, "lat": 38.91115966666667, "type": "electric_scooter", "lon": -77.04361866666666, "bike_id": "0f5fe9c54504c8e9948d39131eb54734", "rental_uris": {"android": "https://dc.lft.to/lastmile_qr_scan", "ios": "https://dc.lft.to/lastmile_qr_scan"}, "name": "0f5fe9c54504c8e9948d39131eb54734", "is_reserved": 0}, {"is_disabled": 0, "fusion_lon": 0.0, "fusion_lat": 0.0, "lat": 38.90539966666667, "type": "electric_scooter", "lon": -77.05048033333334, "bike_id": "962d8a5fb0f9d4ae7ea51f7f5ab0df39", "rental_uris": {"android": "https://dc.lft.to/lastmile_qr_scan", "ios": "https://dc.lft.to/lastmile_qr_scan"}, "name": "962d8a5fb0f9d4ae7ea51f7f5ab0df39", "is_reserved": 0}, {"is_disabled": 0, "fusion_lon": 0.0, "fusion_lat": 0.0, "lat": 38.95660766666666, "type": "electric_bike", "lon": -77.0022965, "bike_id": "5da61147d32b1c9ee5931c7d5241fc92", "rental_uris": {"android": "https://dc.lft.to/lastmile_qr_scan", "ios": "https://dc.lft.to/lastmile_qr_scan"}, "name": "5da61147d32b1c9ee5931c7d5241fc92", "is_reserved": 0}, {"is_disabled": 0, "fusion_lon": 0.0, "fusion_lat": 0.0, "lat": 38.922959166666665, "type": "electric_scooter", "lon": -77.04146433333334, "bike_id": "fc0ecb6413182d55022c9d3da0500605", "rental_uris": {"android": "https://dc.lft.to/lastmile_qr_scan", "ios": "https://dc.lft.to/lastmile_qr_scan"}, "name": "fc0ecb6413182d55022c9d3da0500605", "is_reserved": 0}, {"is_disabled": 0, "fusion_lon": 0.0, "fusion_lat": 0.0, "lat": 38.899193333333336, "type": "electric_scooter", "lon": -76.991597, "bike_id": "e187ee4fbabba557fb2388b0b9636d81", "rental_uris": {"android": "https://dc.lft.to/lastmile_qr_scan", "ios": "https://dc.lft.to/lastmile_qr_scan"}, "name": "e187ee4fbabba557fb2388b0b9636d81", "is_reserved": 0}, {"is_disabled": 0, "fusion_lon": 0.0, "fusion_lat": 0.0, "lat": 38.8875215, "type": "electric_scooter", "lon": -77.00228533333333, "bike_id": "45817e24ce8104636b5e183170c1fc65", "rental_uris": {"android": "https://dc.lft.to/lastmile_qr_scan", "ios": "https://dc.lft.to/lastmile_qr_scan"}, "name": "45817e24ce8104636b5e183170c1fc65", "is_reserved": 0}, {"is_disabled": 0, "fusion_lon": 0.0, "fusion_lat": 0.0, "lat": 38.970519833333334, "type": "electric_bike", "lon": -76.96058583333334, "bike_id": "f7ddd478cc89ed0f64232752ab68c433", "rental_uris": {"android": "https://dc.lft.to/lastmile_qr_scan", "ios": "https://dc.lft.to/lastmile_qr_scan"}, "name": "f7ddd478cc89ed0f64232752ab68c433", "is_reserved": 0}, {"is_disabled": 0, "fusion_lon": 0.0, "fusion_lat": 0.0, "lat": 38.9261445, "type": "electric_scooter", "lon": -76.9820385, "bike_id": "2dbdaa763f4d6735dfb7f4c75dd5e54e", "rental_uris": {"android": "https://dc.lft.to/lastmile_qr_scan", "ios": "https://dc.lft.to/lastmile_qr_scan"}, "name": "2dbdaa763f4d6735dfb7f4c75dd5e54e", "is_reserved": 0}, {"is_disabled": 0, "fusion_lon": 0.0, "fusion_lat": 0.0, "lat": 38.91727983333333, "type": "electric_scooter", "lon": -76.99178066666667, "bike_id": "2853c0f1ae0c140087eac4a6cfd807a0", "rental_uris": {"android": "https://dc.lft.to/lastmile_qr_scan", "ios": "https://dc.lft.to/lastmile_qr_scan"}, "name": "2853c0f1ae0c140087eac4a6cfd807a0", "is_reserved": 0}, {"is_disabled": 0, "fusion_lon": 0.0, "fusion_lat": 0.0, "lat": 38.88882183333333, "type": "electric_scooter", "lon": -76.9863565, "bike_id": "1cafe0ec509f928b669b3e24c8f63fac", "rental_uris": {"android": "https://dc.lft.to/lastmile_qr_scan", "ios": "https://dc.lft.to/lastmile_qr_scan"}, "name": "1cafe0ec509f928b669b3e24c8f63fac", "is_reserved": 0}, {"is_disabled": 0, "fusion_lon": 0.0, "fusion_lat": 0.0, "lat": 38.875432833333335, "type": "electric_scooter", "lon": -77.0046415, "bike_id": "dd7aa64c23dcda37a09b540570dea4af", "rental_uris": {"android": "https://dc.lft.to/lastmile_qr_scan", "ios": "https://dc.lft.to/lastmile_qr_scan"}, "name": "dd7aa64c23dcda37a09b540570dea4af", "is_reserved": 0}, {"is_disabled": 0, "fusion_lon": 0.0, "fusion_lat": 0.0, "lat": 38.923396833333335, "type": "electric_scooter", "lon": -77.04020283333334, "bike_id": "e6a41eb4f55f919a7918bbf22cafd851", "rental_uris": {"android": "https://dc.lft.to/lastmile_qr_scan", "ios": "https://dc.lft.to/lastmile_qr_scan"}, "name": "e6a41eb4f55f919a7918bbf22cafd851", "is_reserved": 0}, {"is_disabled": 0, "fusion_lon": 0.0, "fusion_lat": 0.0, "lat": 38.85539083333333, "type": "electric_bike", "lon": -77.10730466666666, "bike_id": "eb2069bfb156ae0035d62eb936d65d5d", "rental_uris": {"android": "https://dc.lft.to/lastmile_qr_scan", "ios": "https://dc.lft.to/lastmile_qr_scan"}, "name": "eb2069bfb156ae0035d62eb936d65d5d", "is_reserved": 0}, {"is_disabled": 0, "fusion_lon": 0.0, "fusion_lat": 0.0, "lat": 38.975724166666666, "type": "electric_bike", "lon": -76.96407083333334, "bike_id": "e99af5daab246b7359a7e3dea54ff419", "rental_uris": {"android": "https://dc.lft.to/lastmile_qr_scan", "ios": "https://dc.lft.to/lastmile_qr_scan"}, "name": "e99af5daab246b7359a7e3dea54ff419", "is_reserved": 0}, {"is_disabled": 0, "fusion_lon": 0.0, "fusion_lat": 0.0, "lat": 38.8882235, "type": "electric_bike", "lon": -77.1274325, "bike_id": "d92b404a15f1308211bb1de70e0a9ac5", "rental_uris": {"android": "https://dc.lft.to/lastmile_qr_scan", "ios": "https://dc.lft.to/lastmile_qr_scan"}, "name": "d92b404a15f1308211bb1de70e0a9ac5", "is_reserved": 0}, {"is_disabled": 0, "fusion_lon": 0.0, "fusion_lat": 0.0, "lat": 38.901974333333335, "type": "electric_scooter", "lon": -77.02408, "bike_id": "e4282dc13edb3e51e8030a3b55f5ff33", "rental_uris": {"android": "https://dc.lft.to/lastmile_qr_scan", "ios": "https://dc.lft.to/lastmile_qr_scan"}, "name": "e4282dc13edb3e51e8030a3b55f5ff33", "is_reserved": 0}, {"is_disabled": 0, "fusion_lon": 0.0, "fusion_lat": 0.0, "lat": 38.919921333333335, "type": "electric_scooter", "lon": -77.03876416666667, "bike_id": "d054307b8884cf24cba92ca053bd59e4", "rental_uris": {"android": "https://dc.lft.to/lastmile_qr_scan", "ios": "https://dc.lft.to/lastmile_qr_scan"}, "name": "d054307b8884cf24cba92ca053bd59e4", "is_reserved": 0}, {"is_disabled": 0, "fusion_lon": 0.0, "fusion_lat": 0.0, "lat": 38.907652166666665, "type": "electric_scooter", "lon": -77.03275816666667, "bike_id": "70fcb1cd9440195daa288387eb0a7cac", "rental_uris": {"android": "https://dc.lft.to/lastmile_qr_scan", "ios": "https://dc.lft.to/lastmile_qr_scan"}, "name": "70fcb1cd9440195daa288387eb0a7cac", "is_reserved": 0}, {"is_disabled": 0, "fusion_lon": 0.0, "fusion_lat": 0.0, "lat": 38.990876166666666, "type": "electric_bike", "lon": -76.87494833333334, "bike_id": "2e97d77f7cf8dfc263dedd4e49be8800", "rental_uris": {"android": "https://dc.lft.to/lastmile_qr_scan", "ios": "https://dc.lft.to/lastmile_qr_scan"}, "name": "2e97d77f7cf8dfc263dedd4e49be8800", "is_reserved": 0}, {"is_disabled": 0, "fusion_lon": 0.0, "fusion_lat": 0.0, "lat": 38.89921433333333, "type": "electric_bike", "lon": -77.02182433333333, "bike_id": "5fdada434a5c67f2ac838edb3b05bbd7", "rental_uris": {"android": "https://dc.lft.to/lastmile_qr_scan", "ios": "https://dc.lft.to/lastmile_qr_scan"}, "name": "5fdada434a5c67f2ac838edb3b05bbd7", "is_reserved": 0}, {"is_disabled": 0, "fusion_lon": 0.0, "fusion_lat": 0.0, "lat": 38.95721233333333, "type": "electric_scooter", "lon": -77.03102616666666, "bike_id": "572c9723c2b5d34377fc207e075a8b5e", "rental_uris": {"android": "https://dc.lft.to/lastmile_qr_scan", "ios": "https://dc.lft.to/lastmile_qr_scan"}, "name": "572c9723c2b5d34377fc207e075a8b5e", "is_reserved": 0}, {"is_disabled": 0, "fusion_lon": 0.0, "fusion_lat": 0.0, "lat": 38.92402116666667, "type": "electric_scooter", "lon": -77.02542266666667, "bike_id": "f3adbf8eca0488dfcc4808d6532c23bd", "rental_uris": {"android": "https://dc.lft.to/lastmile_qr_scan", "ios": "https://dc.lft.to/lastmile_qr_scan"}, "name": "f3adbf8eca0488dfcc4808d6532c23bd", "is_reserved": 0}, {"is_disabled": 0, "fusion_lon": 0.0, "fusion_lat": 0.0, "lat": 38.83117933333333, "type": "electric_bike", "lon": -77.04327033333334, "bike_id": "1e6b5591659cd1d1af44dc00e43c9c84", "rental_uris": {"android": "https://dc.lft.to/lastmile_qr_scan", "ios": "https://dc.lft.to/lastmile_qr_scan"}, "name": "1e6b5591659cd1d1af44dc00e43c9c84", "is_reserved": 0}, {"is_disabled": 0, "fusion_lon": 0.0, "fusion_lat": 0.0, "lat": 38.83809816666667, "type": "electric_scooter", "lon": -77.00433983333333, "bike_id": "2743b2fe642bcac3896bd1a0d90e78ea", "rental_uris": {"android": "https://dc.lft.to/lastmile_qr_scan", "ios": "https://dc.lft.to/lastmile_qr_scan"}, "name": "2743b2fe642bcac3896bd1a0d90e78ea", "is_reserved": 0}, {"is_disabled": 0, "fusion_lon": 0.0, "fusion_lat": 0.0, "lat": 39.115120833333336, "type": "electric_bike", "lon": -77.1955405, "bike_id": "99bc8b0556b4d82c970da2a72a5d3eef", "rental_uris": {"android": "https://dc.lft.to/lastmile_qr_scan", "ios": "https://dc.lft.to/lastmile_qr_scan"}, "name": "99bc8b0556b4d82c970da2a72a5d3eef", "is_reserved": 0}, {"is_disabled": 0, "fusion_lon": 0.0, "fusion_lat": 0.0, "lat": 38.9925145, "type": "electric_bike", "lon": -77.0500195, "bike_id": "85c9fa76d723aca6f7d858d8078b5e3c", "rental_uris": {"android": "https://dc.lft.to/lastmile_qr_scan", "ios": "https://dc.lft.to/lastmile_qr_scan"}, "name": "85c9fa76d723aca6f7d858d8078b5e3c", "is_reserved": 0}, {"is_disabled": 0, "fusion_lon": 0.0, "fusion_lat": 0.0, "lat": 38.854705, "type": "electric_bike", "lon": -76.97096516666667, "bike_id": "25457fafbe53690899812b75a6c330ca", "rental_uris": {"android": "https://dc.lft.to/lastmile_qr_scan", "ios": "https://dc.lft.to/lastmile_qr_scan"}, "name": "25457fafbe53690899812b75a6c330ca", "is_reserved": 0}, {"is_disabled": 0, "fusion_lon": 0.0, "fusion_lat": 0.0, "lat": 38.96717783333333, "type": "electric_scooter", "lon": -77.0273335, "bike_id": "0920ab9db0669595fe52041b28899b5f", "rental_uris": {"android": "https://dc.lft.to/lastmile_qr_scan", "ios": "https://dc.lft.to/lastmile_qr_scan"}, "name": "0920ab9db0669595fe52041b28899b5f", "is_reserved": 0}, {"is_disabled": 0, "fusion_lon": 0.0, "fusion_lat": 0.0, "lat": 38.92330533333333, "type": "electric_scooter", "lon": -77.03561566666667, "bike_id": "86e14bba55c813e1933bf580dcbc246d", "rental_uris": {"android": "https://dc.lft.to/lastmile_qr_scan", "ios": "https://dc.lft.to/lastmile_qr_scan"}, "name": "86e14bba55c813e1933bf580dcbc246d", "is_reserved": 0}, {"is_disabled": 0, "fusion_lon": 0.0, "fusion_lat": 0.0, "lat": 38.930473166666665, "type": "electric_scooter", "lon": -77.004168, "bike_id": "7bb7cfee1dcd20fed1dda925655b687d", "rental_uris": {"android": "https://dc.lft.to/lastmile_qr_scan", "ios": "https://dc.lft.to/lastmile_qr_scan"}, "name": "7bb7cfee1dcd20fed1dda925655b687d", "is_reserved": 0}, {"is_disabled": 0, "fusion_lon": 0.0, "fusion_lat": 0.0, "lat": 38.9907815, "type": "electric_bike", "lon": -77.00179383333334, "bike_id": "e47ad14d43370543801e9c2922099e58", "rental_uris": {"android": "https://dc.lft.to/lastmile_qr_scan", "ios": "https://dc.lft.to/lastmile_qr_scan"}, "name": "e47ad14d43370543801e9c2922099e58", "is_reserved": 0}, {"is_disabled": 0, "fusion_lon": 0.0, "fusion_lat": 0.0, "lat": 38.91818116666666, "type": "electric_scooter", "lon": -77.0363695, "bike_id": "ae196ab2f983a4cc6c895f30130ce00e", "rental_uris": {"android": "https://dc.lft.to/lastmile_qr_scan", "ios": "https://dc.lft.to/lastmile_qr_scan"}, "name": "ae196ab2f983a4cc6c895f30130ce00e", "is_reserved": 0}, {"is_disabled": 0, "fusion_lon": 0.0, "fusion_lat": 0.0, "lat": 38.9430255, "type": "electric_scooter", "lon": -77.02353416666666, "bike_id": "8fdf50ccbd22ef3cae911e01259d0892", "rental_uris": {"android": "https://dc.lft.to/lastmile_qr_scan", "ios": "https://dc.lft.to/lastmile_qr_scan"}, "name": "8fdf50ccbd22ef3cae911e01259d0892", "is_reserved": 0}, {"is_disabled": 0, "fusion_lon": 0.0, "fusion_lat": 0.0, "lat": 38.92396016666667, "type": "electric_scooter", "lon": -77.02445233333333, "bike_id": "ba40a565b5df0f20248a03ad1608710d", "rental_uris": {"android": "https://dc.lft.to/lastmile_qr_scan", "ios": "https://dc.lft.to/lastmile_qr_scan"}, "name": "ba40a565b5df0f20248a03ad1608710d", "is_reserved": 0}, {"is_disabled": 0, "fusion_lon": 0.0, "fusion_lat": 0.0, "lat": 38.94221183333333, "type": "electric_scooter", "lon": -77.02504633333334, "bike_id": "4329a625c23178084594ede252335491", "rental_uris": {"android": "https://dc.lft.to/lastmile_qr_scan", "ios": "https://dc.lft.to/lastmile_qr_scan"}, "name": "4329a625c23178084594ede252335491", "is_reserved": 0}, {"is_disabled": 0, "fusion_lon": 0.0, "fusion_lat": 0.0, "lat": 38.92753833333333, "type": "electric_scooter", "lon": -77.0059585, "bike_id": "376ca928edb7978b3f958301367c77c1", "rental_uris": {"android": "https://dc.lft.to/lastmile_qr_scan", "ios": "https://dc.lft.to/lastmile_qr_scan"}, "name": "376ca928edb7978b3f958301367c77c1", "is_reserved": 0}, {"is_disabled": 0, "fusion_lon": 0.0, "fusion_lat": 0.0, "lat": 38.876539, "type": "electric_scooter", "lon": -77.0030725, "bike_id": "d16959e08e7f87050d8fab74ff97bcbe", "rental_uris": {"android": "https://dc.lft.to/lastmile_qr_scan", "ios": "https://dc.lft.to/lastmile_qr_scan"}, "name": "d16959e08e7f87050d8fab74ff97bcbe", "is_reserved": 0}, {"is_disabled": 0, "fusion_lon": 0.0, "fusion_lat": 0.0, "lat": 38.90392416666667, "type": "electric_scooter", "lon": -76.9900815, "bike_id": "88841f56597a7521532cb78263073c38", "rental_uris": {"android": "https://dc.lft.to/lastmile_qr_scan", "ios": "https://dc.lft.to/lastmile_qr_scan"}, "name": "88841f56597a7521532cb78263073c38", "is_reserved": 0}, {"is_disabled": 0, "fusion_lon": 0.0, "fusion_lat": 0.0, "lat": 38.914731833333335, "type": "electric_scooter", "lon": -77.0384955, "bike_id": "ec09a261b56463d8d7c85a9e6df5e3c1", "rental_uris": {"android": "https://dc.lft.to/lastmile_qr_scan", "ios": "https://dc.lft.to/lastmile_qr_scan"}, "name": "ec09a261b56463d8d7c85a9e6df5e3c1", "is_reserved": 0}, {"is_disabled": 0, "fusion_lon": 0.0, "fusion_lat": 0.0, "lat": 38.899796333333335, "type": "electric_scooter", "lon": -77.0230135, "bike_id": "e67c1725dcb69bf9b54d3df7e524b508", "rental_uris": {"android": "https://dc.lft.to/lastmile_qr_scan", "ios": "https://dc.lft.to/lastmile_qr_scan"}, "name": "e67c1725dcb69bf9b54d3df7e524b508", "is_reserved": 0}, {"is_disabled": 0, "fusion_lon": 0.0, "fusion_lat": 0.0, "lat": 38.92113633333334, "type": "electric_scooter", "lon": -77.03003316666667, "bike_id": "4d6d6fe7c1cc1c52c5f665ddd555c1d7", "rental_uris": {"android": "https://dc.lft.to/lastmile_qr_scan", "ios": "https://dc.lft.to/lastmile_qr_scan"}, "name": "4d6d6fe7c1cc1c52c5f665ddd555c1d7", "is_reserved": 0}, {"is_disabled": 0, "fusion_lon": 0.0, "fusion_lat": 0.0, "lat": 38.905696166666665, "type": "electric_scooter", "lon": -77.00552783333333, "bike_id": "d92cd55cd9c94af2bb38f006929b8089", "rental_uris": {"android": "https://dc.lft.to/lastmile_qr_scan", "ios": "https://dc.lft.to/lastmile_qr_scan"}, "name": "d92cd55cd9c94af2bb38f006929b8089", "is_reserved": 0}, {"is_disabled": 0, "fusion_lon": 0.0, "fusion_lat": 0.0, "lat": 38.9274685, "type": "electric_scooter", "lon": -77.032719, "bike_id": "bc1418adff1b42146e994e249d190a3d", "rental_uris": {"android": "https://dc.lft.to/lastmile_qr_scan", "ios": "https://dc.lft.to/lastmile_qr_scan"}, "name": "bc1418adff1b42146e994e249d190a3d", "is_reserved": 0}, {"is_disabled": 0, "fusion_lon": 0.0, "fusion_lat": 0.0, "lat": 38.9260035, "type": "electric_scooter", "lon": -77.02159883333333, "bike_id": "fcbf1fd09992e7cdec0bfb89422c9a1a", "rental_uris": {"android": "https://dc.lft.to/lastmile_qr_scan", "ios": "https://dc.lft.to/lastmile_qr_scan"}, "name": "fcbf1fd09992e7cdec0bfb89422c9a1a", "is_reserved": 0}, {"is_disabled": 0, "fusion_lon": 0.0, "fusion_lat": 0.0, "lat": 38.92229783333333, "type": "electric_scooter", "lon": -77.0343905, "bike_id": "773003cb57eff61177c99c3b1a9b6740", "rental_uris": {"android": "https://dc.lft.to/lastmile_qr_scan", "ios": "https://dc.lft.to/lastmile_qr_scan"}, "name": "773003cb57eff61177c99c3b1a9b6740", "is_reserved": 0}, {"is_disabled": 0, "fusion_lon": 0.0, "fusion_lat": 0.0, "lat": 38.90331716666667, "type": "electric_scooter", "lon": -77.03828133333333, "bike_id": "528cfdfc333d521a985f496ad43c4cfb", "rental_uris": {"android": "https://dc.lft.to/lastmile_qr_scan", "ios": "https://dc.lft.to/lastmile_qr_scan"}, "name": "528cfdfc333d521a985f496ad43c4cfb", "is_reserved": 0}, {"is_disabled": 0, "fusion_lon": 0.0, "fusion_lat": 0.0, "lat": 38.908748, "type": "electric_scooter", "lon": -77.04360216666667, "bike_id": "e12da40918bfa61ecdc3debe14127cbe", "rental_uris": {"android": "https://dc.lft.to/lastmile_qr_scan", "ios": "https://dc.lft.to/lastmile_qr_scan"}, "name": "e12da40918bfa61ecdc3debe14127cbe", "is_reserved": 0}, {"is_disabled": 0, "fusion_lon": 0.0, "fusion_lat": 0.0, "lat": 38.91914966666667, "type": "electric_scooter", "lon": -77.03629566666666, "bike_id": "7ecfda31042277788de3d1ebf33996da", "rental_uris": {"android": "https://dc.lft.to/lastmile_qr_scan", "ios": "https://dc.lft.to/lastmile_qr_scan"}, "name": "7ecfda31042277788de3d1ebf33996da", "is_reserved": 0}, {"is_disabled": 0, "fusion_lon": 0.0, "fusion_lat": 0.0, "lat": 38.887342833333335, "type": "electric_scooter", "lon": -77.02163666666667, "bike_id": "2f31b5465d69c9f75e1cf2f9a3404ea7", "rental_uris": {"android": "https://dc.lft.to/lastmile_qr_scan", "ios": "https://dc.lft.to/lastmile_qr_scan"}, "name": "2f31b5465d69c9f75e1cf2f9a3404ea7", "is_reserved": 0}, {"is_disabled": 0, "fusion_lon": 0.0, "fusion_lat": 0.0, "lat": 38.939608166666666, "type": "electric_scooter", "lon": -77.03276766666667, "bike_id": "0e9a07d37afebd6d989bda06a17f63d9", "rental_uris": {"android": "https://dc.lft.to/lastmile_qr_scan", "ios": "https://dc.lft.to/lastmile_qr_scan"}, "name": "0e9a07d37afebd6d989bda06a17f63d9", "is_reserved": 0}, {"is_disabled": 0, "fusion_lon": 0.0, "fusion_lat": 0.0, "lat": 38.8973575, "type": "electric_scooter", "lon": -77.00978983333333, "bike_id": "4901441f4313da6e099b2736ff389112", "rental_uris": {"android": "https://dc.lft.to/lastmile_qr_scan", "ios": "https://dc.lft.to/lastmile_qr_scan"}, "name": "4901441f4313da6e099b2736ff389112", "is_reserved": 0}, {"is_disabled": 0, "fusion_lon": 0.0, "fusion_lat": 0.0, "lat": 38.9155015, "type": "electric_scooter", "lon": -77.020447, "bike_id": "f4b7a81acdf60b9b2cc344682e4421f6", "rental_uris": {"android": "https://dc.lft.to/lastmile_qr_scan", "ios": "https://dc.lft.to/lastmile_qr_scan"}, "name": "f4b7a81acdf60b9b2cc344682e4421f6", "is_reserved": 0}, {"is_disabled": 0, "fusion_lon": 0.0, "fusion_lat": 0.0, "lat": 38.93102366666667, "type": "electric_scooter", "lon": -77.035172, "bike_id": "ce1b3bafff124ae1368b8d41cb769057", "rental_uris": {"android": "https://dc.lft.to/lastmile_qr_scan", "ios": "https://dc.lft.to/lastmile_qr_scan"}, "name": "ce1b3bafff124ae1368b8d41cb769057", "is_reserved": 0}, {"is_disabled": 0, "fusion_lon": 0.0, "fusion_lat": 0.0, "lat": 38.91403483333333, "type": "electric_scooter", "lon": -77.02668633333333, "bike_id": "2e3422f4308fa7fe8f3adc527a8c1e74", "rental_uris": {"android": "https://dc.lft.to/lastmile_qr_scan", "ios": "https://dc.lft.to/lastmile_qr_scan"}, "name": "2e3422f4308fa7fe8f3adc527a8c1e74", "is_reserved": 0}, {"is_disabled": 0, "fusion_lon": 0.0, "fusion_lat": 0.0, "lat": 38.89500983333333, "type": "electric_scooter", "lon": -76.94880166666667, "bike_id": "1e326842a350abe5e89c1e52ce6afadf", "rental_uris": {"android": "https://dc.lft.to/lastmile_qr_scan", "ios": "https://dc.lft.to/lastmile_qr_scan"}, "name": "1e326842a350abe5e89c1e52ce6afadf", "is_reserved": 0}, {"is_disabled": 0, "fusion_lon": 0.0, "fusion_lat": 0.0, "lat": 38.9993085, "type": "electric_bike", "lon": -77.00123966666666, "bike_id": "62a89dc38172b273e20248fef6353831", "rental_uris": {"android": "https://dc.lft.to/lastmile_qr_scan", "ios": "https://dc.lft.to/lastmile_qr_scan"}, "name": "62a89dc38172b273e20248fef6353831", "is_reserved": 0}, {"is_disabled": 0, "fusion_lon": 0.0, "fusion_lat": 0.0, "lat": 38.85537166666667, "type": "electric_bike", "lon": -77.10711266666667, "bike_id": "140e19ffff931fc61fb74df2a331f50b", "rental_uris": {"android": "https://dc.lft.to/lastmile_qr_scan", "ios": "https://dc.lft.to/lastmile_qr_scan"}, "name": "140e19ffff931fc61fb74df2a331f50b", "is_reserved": 0}, {"is_disabled": 0, "fusion_lon": 0.0, "fusion_lat": 0.0, "lat": 39.095899, "type": "electric_bike", "lon": -77.1478, "bike_id": "7873c24149719e7239e63fc9e1a7a828", "rental_uris": {"android": "https://dc.lft.to/lastmile_qr_scan", "ios": "https://dc.lft.to/lastmile_qr_scan"}, "name": "7873c24149719e7239e63fc9e1a7a828", "is_reserved": 0}, {"is_disabled": 0, "fusion_lon": 0.0, "fusion_lat": 0.0, "lat": 38.880118833333334, "type": "electric_scooter", "lon": -76.9311545, "bike_id": "8bdcf5fed3912a6489938465bf7eee39", "rental_uris": {"android": "https://dc.lft.to/lastmile_qr_scan", "ios": "https://dc.lft.to/lastmile_qr_scan"}, "name": "8bdcf5fed3912a6489938465bf7eee39", "is_reserved": 0}, {"is_disabled": 0, "fusion_lon": 0.0, "fusion_lat": 0.0, "lat": 38.90723666666667, "type": "electric_scooter", "lon": -77.01713883333333, "bike_id": "1b99bd9f4b94be76a2460d09683253c5", "rental_uris": {"android": "https://dc.lft.to/lastmile_qr_scan", "ios": "https://dc.lft.to/lastmile_qr_scan"}, "name": "1b99bd9f4b94be76a2460d09683253c5", "is_reserved": 0}, {"is_disabled": 0, "fusion_lon": 0.0, "fusion_lat": 0.0, "lat": 38.919394, "type": "electric_scooter", "lon": -77.08133766666667, "bike_id": "9c03b096dbc2a5becc337d4a5bc94763", "rental_uris": {"android": "https://dc.lft.to/lastmile_qr_scan", "ios": "https://dc.lft.to/lastmile_qr_scan"}, "name": "9c03b096dbc2a5becc337d4a5bc94763", "is_reserved": 0}, {"is_disabled": 0, "fusion_lon": 0.0, "fusion_lat": 0.0, "lat": 38.8272655, "type": "electric_bike", "lon": -77.008651, "bike_id": "6479a37d433628757d22ff861e4a0e3a", "rental_uris": {"android": "https://dc.lft.to/lastmile_qr_scan", "ios": "https://dc.lft.to/lastmile_qr_scan"}, "name": "6479a37d433628757d22ff861e4a0e3a", "is_reserved": 0}, {"is_disabled": 0, "fusion_lon": 0.0, "fusion_lat": 0.0, "lat": 38.935272833333336, "type": "electric_scooter", "lon": -77.02384816666667, "bike_id": "be01e9adf88c6edf0f5d06ae0bcad9f0", "rental_uris": {"android": "https://dc.lft.to/lastmile_qr_scan", "ios": "https://dc.lft.to/lastmile_qr_scan"}, "name": "be01e9adf88c6edf0f5d06ae0bcad9f0", "is_reserved": 0}, {"is_disabled": 0, "fusion_lon": 0.0, "fusion_lat": 0.0, "lat": 38.8925435, "type": "electric_scooter", "lon": -77.03200616666666, "bike_id": "4999edb2e7d25ab127df813200796c54", "rental_uris": {"android": "https://dc.lft.to/lastmile_qr_scan", "ios": "https://dc.lft.to/lastmile_qr_scan"}, "name": "4999edb2e7d25ab127df813200796c54", "is_reserved": 0}, {"is_disabled": 0, "fusion_lon": 0.0, "fusion_lat": 0.0, "lat": 38.90715766666667, "type": "electric_scooter", "lon": -77.02444233333334, "bike_id": "ca51f2a447dc39393a0563a84f9b27e3", "rental_uris": {"android": "https://dc.lft.to/lastmile_qr_scan", "ios": "https://dc.lft.to/lastmile_qr_scan"}, "name": "ca51f2a447dc39393a0563a84f9b27e3", "is_reserved": 0}, {"is_disabled": 0, "fusion_lon": 0.0, "fusion_lat": 0.0, "lat": 38.89369216666667, "type": "electric_scooter", "lon": -77.02279366666667, "bike_id": "4d256f5c753332643254d24542ff6915", "rental_uris": {"android": "https://dc.lft.to/lastmile_qr_scan", "ios": "https://dc.lft.to/lastmile_qr_scan"}, "name": "4d256f5c753332643254d24542ff6915", "is_reserved": 0}, {"is_disabled": 0, "fusion_lon": 0.0, "fusion_lat": 0.0, "lat": 38.9148535, "type": "electric_scooter", "lon": -76.98364433333333, "bike_id": "7f26b7a18fcee71bca9548a61da8dc9a", "rental_uris": {"android": "https://dc.lft.to/lastmile_qr_scan", "ios": "https://dc.lft.to/lastmile_qr_scan"}, "name": "7f26b7a18fcee71bca9548a61da8dc9a", "is_reserved": 0}, {"is_disabled": 0, "fusion_lon": 0.0, "fusion_lat": 0.0, "lat": 38.894987666666665, "type": "electric_scooter", "lon": -76.9487875, "bike_id": "2a29db1db43467f0466febbc2de3201e", "rental_uris": {"android": "https://dc.lft.to/lastmile_qr_scan", "ios": "https://dc.lft.to/lastmile_qr_scan"}, "name": "2a29db1db43467f0466febbc2de3201e", "is_reserved": 0}, {"is_disabled": 0, "fusion_lon": 0.0, "fusion_lat": 0.0, "lat": 38.94414, "type": "electric_scooter", "lon": -77.02624733333333, "bike_id": "5126129ac349f7a383dbdff329b5a7c1", "rental_uris": {"android": "https://dc.lft.to/lastmile_qr_scan", "ios": "https://dc.lft.to/lastmile_qr_scan"}, "name": "5126129ac349f7a383dbdff329b5a7c1", "is_reserved": 0}, {"is_disabled": 0, "fusion_lon": 0.0, "fusion_lat": 0.0, "lat": 38.901348, "type": "electric_scooter", "lon": -76.99360366666667, "bike_id": "47f83f21ae64f777fe33daf81688a772", "rental_uris": {"android": "https://dc.lft.to/lastmile_qr_scan", "ios": "https://dc.lft.to/lastmile_qr_scan"}, "name": "47f83f21ae64f777fe33daf81688a772", "is_reserved": 0}, {"is_disabled": 0, "fusion_lon": 0.0, "fusion_lat": 0.0, "lat": 38.978231, "type": "electric_bike", "lon": -76.92889383333333, "bike_id": "dd2cf9bb4eeb2cfbc6af637191bfa650", "rental_uris": {"android": "https://dc.lft.to/lastmile_qr_scan", "ios": "https://dc.lft.to/lastmile_qr_scan"}, "name": "dd2cf9bb4eeb2cfbc6af637191bfa650", "is_reserved": 0}, {"is_disabled": 0, "fusion_lon": 0.0, "fusion_lat": 0.0, "lat": 38.9396945, "type": "electric_scooter", "lon": -77.02796416666666, "bike_id": "d695fa480a20c3c762d2b4e8cdc5e1e6", "rental_uris": {"android": "https://dc.lft.to/lastmile_qr_scan", "ios": "https://dc.lft.to/lastmile_qr_scan"}, "name": "d695fa480a20c3c762d2b4e8cdc5e1e6", "is_reserved": 0}, {"is_disabled": 0, "fusion_lon": 0.0, "fusion_lat": 0.0, "lat": 38.902170166666664, "type": "electric_scooter", "lon": -77.0243745, "bike_id": "498df773d3a3913e9a991e0e9589206e", "rental_uris": {"android": "https://dc.lft.to/lastmile_qr_scan", "ios": "https://dc.lft.to/lastmile_qr_scan"}, "name": "498df773d3a3913e9a991e0e9589206e", "is_reserved": 0}, {"is_disabled": 0, "fusion_lon": 0.0, "fusion_lat": 0.0, "lat": 38.931252, "type": "electric_scooter", "lon": -77.057123, "bike_id": "80f7c6503e45fc260f449a5599057a91", "rental_uris": {"android": "https://dc.lft.to/lastmile_qr_scan", "ios": "https://dc.lft.to/lastmile_qr_scan"}, "name": "80f7c6503e45fc260f449a5599057a91", "is_reserved": 0}, {"is_disabled": 0, "fusion_lon": 0.0, "fusion_lat": 0.0, "lat": 38.89962333333333, "type": "electric_scooter", "lon": -76.98313833333333, "bike_id": "b7390d41dec19b04660f60c44a46726c", "rental_uris": {"android": "https://dc.lft.to/lastmile_qr_scan", "ios": "https://dc.lft.to/lastmile_qr_scan"}, "name": "b7390d41dec19b04660f60c44a46726c", "is_reserved": 0}, {"is_disabled": 0, "fusion_lon": 0.0, "fusion_lat": 0.0, "lat": 38.91452316666667, "type": "electric_scooter", "lon": -77.0199715, "bike_id": "8813554f9de5582e1a6bc33a02137e24", "rental_uris": {"android": "https://dc.lft.to/lastmile_qr_scan", "ios": "https://dc.lft.to/lastmile_qr_scan"}, "name": "8813554f9de5582e1a6bc33a02137e24", "is_reserved": 0}, {"is_disabled": 0, "fusion_lon": 0.0, "fusion_lat": 0.0, "lat": 38.900245, "type": "electric_scooter", "lon": -77.00199483333333, "bike_id": "065b19a70ee737456a979df552e4fe16", "rental_uris": {"android": "https://dc.lft.to/lastmile_qr_scan", "ios": "https://dc.lft.to/lastmile_qr_scan"}, "name": "065b19a70ee737456a979df552e4fe16", "is_reserved": 0}, {"is_disabled": 0, "fusion_lon": 0.0, "fusion_lat": 0.0, "lat": 38.91426883333333, "type": "electric_scooter", "lon": -77.0454035, "bike_id": "5253e95695005f6a48db9f16af2f9ff3", "rental_uris": {"android": "https://dc.lft.to/lastmile_qr_scan", "ios": "https://dc.lft.to/lastmile_qr_scan"}, "name": "5253e95695005f6a48db9f16af2f9ff3", "is_reserved": 0}, {"is_disabled": 0, "fusion_lon": 0.0, "fusion_lat": 0.0, "lat": 38.90072216666667, "type": "electric_scooter", "lon": -77.050388, "bike_id": "501676be9cb31d305d4b70df3ad956a0", "rental_uris": {"android": "https://dc.lft.to/lastmile_qr_scan", "ios": "https://dc.lft.to/lastmile_qr_scan"}, "name": "501676be9cb31d305d4b70df3ad956a0", "is_reserved": 0}, {"is_disabled": 0, "fusion_lon": 0.0, "fusion_lat": 0.0, "lat": 38.895225833333335, "type": "electric_scooter", "lon": -77.02930333333333, "bike_id": "a2e615f1bbfcc2cb1a34cc0ee603fe61", "rental_uris": {"android": "https://dc.lft.to/lastmile_qr_scan", "ios": "https://dc.lft.to/lastmile_qr_scan"}, "name": "a2e615f1bbfcc2cb1a34cc0ee603fe61", "is_reserved": 0}, {"is_disabled": 0, "fusion_lon": 0.0, "fusion_lat": 0.0, "lat": 38.8624445, "type": "electric_scooter", "lon": -76.99505416666666, "bike_id": "be651980fcee35c7c500048754cb22f5", "rental_uris": {"android": "https://dc.lft.to/lastmile_qr_scan", "ios": "https://dc.lft.to/lastmile_qr_scan"}, "name": "be651980fcee35c7c500048754cb22f5", "is_reserved": 0}, {"is_disabled": 0, "fusion_lon": 0.0, "fusion_lat": 0.0, "lat": 38.96817083333333, "type": "electric_scooter", "lon": -77.00894783333334, "bike_id": "a92fe148f42e03a5c417dd69d8cc0957", "rental_uris": {"android": "https://dc.lft.to/lastmile_qr_scan", "ios": "https://dc.lft.to/lastmile_qr_scan"}, "name": "a92fe148f42e03a5c417dd69d8cc0957", "is_reserved": 0}, {"is_disabled": 0, "fusion_lon": 0.0, "fusion_lat": 0.0, "lat": 38.90780916666667, "type": "electric_scooter", "lon": -77.04479166666667, "bike_id": "23ed33b07a02d5524f8905cfb405c028", "rental_uris": {"android": "https://dc.lft.to/lastmile_qr_scan", "ios": "https://dc.lft.to/lastmile_qr_scan"}, "name": "23ed33b07a02d5524f8905cfb405c028", "is_reserved": 0}, {"is_disabled": 0, "fusion_lon": 0.0, "fusion_lat": 0.0, "lat": 38.89720333333333, "type": "electric_bike", "lon": -76.9054575, "bike_id": "8ee7e23bb589ce92942160f8673cb28d", "rental_uris": {"android": "https://dc.lft.to/lastmile_qr_scan", "ios": "https://dc.lft.to/lastmile_qr_scan"}, "name": "8ee7e23bb589ce92942160f8673cb28d", "is_reserved": 0}, {"is_disabled": 0, "fusion_lon": 0.0, "fusion_lat": 0.0, "lat": 38.903875166666666, "type": "electric_scooter", "lon": -77.0047325, "bike_id": "49edb6b401ccd940ac08db48488f814e", "rental_uris": {"android": "https://dc.lft.to/lastmile_qr_scan", "ios": "https://dc.lft.to/lastmile_qr_scan"}, "name": "49edb6b401ccd940ac08db48488f814e", "is_reserved": 0}, {"is_disabled": 0, "fusion_lon": 0.0, "fusion_lat": 0.0, "lat": 38.88625616666667, "type": "electric_bike", "lon": -77.09242666666667, "bike_id": "8003fc7d1b6b12a97481bbf3cdda079b", "rental_uris": {"android": "https://dc.lft.to/lastmile_qr_scan", "ios": "https://dc.lft.to/lastmile_qr_scan"}, "name": "8003fc7d1b6b12a97481bbf3cdda079b", "is_reserved": 0}, {"is_disabled": 0, "fusion_lon": 0.0, "fusion_lat": 0.0, "lat": 39.05205683333333, "type": "electric_bike", "lon": -77.04415733333333, "bike_id": "05f04cb5942cbedf92d26a2e4c8579d2", "rental_uris": {"android": "https://dc.lft.to/lastmile_qr_scan", "ios": "https://dc.lft.to/lastmile_qr_scan"}, "name": "05f04cb5942cbedf92d26a2e4c8579d2", "is_reserved": 0}, {"is_disabled": 0, "fusion_lon": 0.0, "fusion_lat": 0.0, "lat": 38.9053175, "type": "electric_scooter", "lon": -77.05145383333333, "bike_id": "8d8f2b5f2b82ff0a4acd0651a82195c6", "rental_uris": {"android": "https://dc.lft.to/lastmile_qr_scan", "ios": "https://dc.lft.to/lastmile_qr_scan"}, "name": "8d8f2b5f2b82ff0a4acd0651a82195c6", "is_reserved": 0}, {"is_disabled": 0, "fusion_lon": 0.0, "fusion_lat": 0.0, "lat": 38.9094195, "type": "electric_scooter", "lon": -77.0393205, "bike_id": "de5c8383ffe5a50d271d4adc5e1bc8bd", "rental_uris": {"android": "https://dc.lft.to/lastmile_qr_scan", "ios": "https://dc.lft.to/lastmile_qr_scan"}, "name": "de5c8383ffe5a50d271d4adc5e1bc8bd", "is_reserved": 0}, {"is_disabled": 0, "fusion_lon": 0.0, "fusion_lat": 0.0, "lat": 38.92034183333333, "type": "electric_scooter", "lon": -77.02592533333333, "bike_id": "123df12276543c2d7c6b90a7720c3335", "rental_uris": {"android": "https://dc.lft.to/lastmile_qr_scan", "ios": "https://dc.lft.to/lastmile_qr_scan"}, "name": "123df12276543c2d7c6b90a7720c3335", "is_reserved": 0}, {"is_disabled": 0, "fusion_lon": 0.0, "fusion_lat": 0.0, "lat": 38.899513, "type": "electric_scooter", "lon": -77.05158583333333, "bike_id": "c685b90023096af3fcdf82aa07c29088", "rental_uris": {"android": "https://dc.lft.to/lastmile_qr_scan", "ios": "https://dc.lft.to/lastmile_qr_scan"}, "name": "c685b90023096af3fcdf82aa07c29088", "is_reserved": 0}, {"is_disabled": 0, "fusion_lon": 0.0, "fusion_lat": 0.0, "lat": 38.947025, "type": "electric_scooter", "lon": -77.09068066666667, "bike_id": "2228337360a26a1f17787a9f95ad6cb4", "rental_uris": {"android": "https://dc.lft.to/lastmile_qr_scan", "ios": "https://dc.lft.to/lastmile_qr_scan"}, "name": "2228337360a26a1f17787a9f95ad6cb4", "is_reserved": 0}, {"is_disabled": 0, "fusion_lon": 0.0, "fusion_lat": 0.0, "lat": 38.877001, "type": "electric_scooter", "lon": -77.016238, "bike_id": "0033d931a853ce3a6e9b0155fc18f5c3", "rental_uris": {"android": "https://dc.lft.to/lastmile_qr_scan", "ios": "https://dc.lft.to/lastmile_qr_scan"}, "name": "0033d931a853ce3a6e9b0155fc18f5c3", "is_reserved": 0}, {"is_disabled": 0, "fusion_lon": 0.0, "fusion_lat": 0.0, "lat": 38.900256166666665, "type": "electric_scooter", "lon": -76.99119183333333, "bike_id": "db888909cbd099e11a9051e55cf2a249", "rental_uris": {"android": "https://dc.lft.to/lastmile_qr_scan", "ios": "https://dc.lft.to/lastmile_qr_scan"}, "name": "db888909cbd099e11a9051e55cf2a249", "is_reserved": 0}, {"is_disabled": 0, "fusion_lon": 0.0, "fusion_lat": 0.0, "lat": 38.91014283333333, "type": "electric_scooter", "lon": -77.03198866666666, "bike_id": "f1d98859aa9ed361faef93ffe5765d63", "rental_uris": {"android": "https://dc.lft.to/lastmile_qr_scan", "ios": "https://dc.lft.to/lastmile_qr_scan"}, "name": "f1d98859aa9ed361faef93ffe5765d63", "is_reserved": 0}, {"is_disabled": 0, "fusion_lon": 0.0, "fusion_lat": 0.0, "lat": 38.89224033333333, "type": "electric_scooter", "lon": -77.04802866666667, "bike_id": "cae38eba20d2e2baff48bb595a1aebe1", "rental_uris": {"android": "https://dc.lft.to/lastmile_qr_scan", "ios": "https://dc.lft.to/lastmile_qr_scan"}, "name": "cae38eba20d2e2baff48bb595a1aebe1", "is_reserved": 0}, {"is_disabled": 0, "fusion_lon": 0.0, "fusion_lat": 0.0, "lat": 38.9066445, "type": "electric_scooter", "lon": -77.01209683333333, "bike_id": "14bd27fd7c5878c8be74b19825b53d94", "rental_uris": {"android": "https://dc.lft.to/lastmile_qr_scan", "ios": "https://dc.lft.to/lastmile_qr_scan"}, "name": "14bd27fd7c5878c8be74b19825b53d94", "is_reserved": 0}, {"is_disabled": 0, "fusion_lon": 0.0, "fusion_lat": 0.0, "lat": 38.842985666666664, "type": "electric_bike", "lon": -77.07656683333333, "bike_id": "8bae7ca1a24041ebaa9d27fb27b30c04", "rental_uris": {"android": "https://dc.lft.to/lastmile_qr_scan", "ios": "https://dc.lft.to/lastmile_qr_scan"}, "name": "8bae7ca1a24041ebaa9d27fb27b30c04", "is_reserved": 0}, {"is_disabled": 0, "fusion_lon": 0.0, "fusion_lat": 0.0, "lat": 38.89897883333333, "type": "electric_bike", "lon": -77.02176566666667, "bike_id": "e8e8fd064e93e4660b33d772a61ef730", "rental_uris": {"android": "https://dc.lft.to/lastmile_qr_scan", "ios": "https://dc.lft.to/lastmile_qr_scan"}, "name": "e8e8fd064e93e4660b33d772a61ef730", "is_reserved": 0}, {"is_disabled": 0, "fusion_lon": 0.0, "fusion_lat": 0.0, "lat": 38.880389666666666, "type": "electric_bike", "lon": -76.99013516666666, "bike_id": "25349f2f4abe54c07686bd934d2ea833", "rental_uris": {"android": "https://dc.lft.to/lastmile_qr_scan", "ios": "https://dc.lft.to/lastmile_qr_scan"}, "name": "25349f2f4abe54c07686bd934d2ea833", "is_reserved": 0}, {"is_disabled": 0, "fusion_lon": 0.0, "fusion_lat": 0.0, "lat": 38.9002325, "type": "electric_scooter", "lon": -77.01198766666667, "bike_id": "56f9ca181fdc32c35337e9856f76d185", "rental_uris": {"android": "https://dc.lft.to/lastmile_qr_scan", "ios": "https://dc.lft.to/lastmile_qr_scan"}, "name": "56f9ca181fdc32c35337e9856f76d185", "is_reserved": 0}, {"is_disabled": 0, "fusion_lon": 0.0, "fusion_lat": 0.0, "lat": 38.924161166666664, "type": "electric_scooter", "lon": -77.05073116666667, "bike_id": "5e3354bce16778aabf1ccd9eb0d976f5", "rental_uris": {"android": "https://dc.lft.to/lastmile_qr_scan", "ios": "https://dc.lft.to/lastmile_qr_scan"}, "name": "5e3354bce16778aabf1ccd9eb0d976f5", "is_reserved": 0}, {"is_disabled": 0, "fusion_lon": 0.0, "fusion_lat": 0.0, "lat": 38.899258, "type": "electric_scooter", "lon": -77.04041083333334, "bike_id": "f92ba015a25854db4aa5139aa415c214", "rental_uris": {"android": "https://dc.lft.to/lastmile_qr_scan", "ios": "https://dc.lft.to/lastmile_qr_scan"}, "name": "f92ba015a25854db4aa5139aa415c214", "is_reserved": 0}, {"is_disabled": 0, "fusion_lon": 0.0, "fusion_lat": 0.0, "lat": 38.866241333333335, "type": "electric_scooter", "lon": -76.98717166666667, "bike_id": "4436fef500ffd3a3debb96ff83f57b28", "rental_uris": {"android": "https://dc.lft.to/lastmile_qr_scan", "ios": "https://dc.lft.to/lastmile_qr_scan"}, "name": "4436fef500ffd3a3debb96ff83f57b28", "is_reserved": 0}, {"is_disabled": 0, "fusion_lon": 0.0, "fusion_lat": 0.0, "lat": 38.91604016666667, "type": "electric_scooter", "lon": -77.01124033333333, "bike_id": "e9917cd9e4b7f3500ff6f005e67e1765", "rental_uris": {"android": "https://dc.lft.to/lastmile_qr_scan", "ios": "https://dc.lft.to/lastmile_qr_scan"}, "name": "e9917cd9e4b7f3500ff6f005e67e1765", "is_reserved": 0}, {"is_disabled": 0, "fusion_lon": 0.0, "fusion_lat": 0.0, "lat": 38.953035, "type": "electric_scooter", "lon": -77.06985833333333, "bike_id": "f29262df565235c839b12662c6ee6a53", "rental_uris": {"android": "https://dc.lft.to/lastmile_qr_scan", "ios": "https://dc.lft.to/lastmile_qr_scan"}, "name": "f29262df565235c839b12662c6ee6a53", "is_reserved": 0}, {"is_disabled": 0, "fusion_lon": 0.0, "fusion_lat": 0.0, "lat": 38.936974, "type": "electric_scooter", "lon": -77.0560125, "bike_id": "f627f16fefdae146d33c4ac32eb92c40", "rental_uris": {"android": "https://dc.lft.to/lastmile_qr_scan", "ios": "https://dc.lft.to/lastmile_qr_scan"}, "name": "f627f16fefdae146d33c4ac32eb92c40", "is_reserved": 0}, {"is_disabled": 0, "fusion_lon": 0.0, "fusion_lat": 0.0, "lat": 38.948085166666665, "type": "electric_bike", "lon": -77.02975766666667, "bike_id": "e0df9998bcfd4642c9312873ef4fed5f", "rental_uris": {"android": "https://dc.lft.to/lastmile_qr_scan", "ios": "https://dc.lft.to/lastmile_qr_scan"}, "name": "e0df9998bcfd4642c9312873ef4fed5f", "is_reserved": 0}, {"is_disabled": 0, "fusion_lon": 0.0, "fusion_lat": 0.0, "lat": 38.88506183333333, "type": "electric_scooter", "lon": -77.0209855, "bike_id": "32a4915e035086b9f27e764ad66e3529", "rental_uris": {"android": "https://dc.lft.to/lastmile_qr_scan", "ios": "https://dc.lft.to/lastmile_qr_scan"}, "name": "32a4915e035086b9f27e764ad66e3529", "is_reserved": 0}, {"is_disabled": 0, "fusion_lon": 0.0, "fusion_lat": 0.0, "lat": 38.897437, "type": "electric_scooter", "lon": -77.0221365, "bike_id": "c52af82697f8359393ba596880e13e0b", "rental_uris": {"android": "https://dc.lft.to/lastmile_qr_scan", "ios": "https://dc.lft.to/lastmile_qr_scan"}, "name": "c52af82697f8359393ba596880e13e0b", "is_reserved": 0}, {"is_disabled": 0, "fusion_lon": 0.0, "fusion_lat": 0.0, "lat": 38.888329, "type": "electric_scooter", "lon": -76.91781833333333, "bike_id": "55180462a838f58b956d25c0a10bd31e", "rental_uris": {"android": "https://dc.lft.to/lastmile_qr_scan", "ios": "https://dc.lft.to/lastmile_qr_scan"}, "name": "55180462a838f58b956d25c0a10bd31e", "is_reserved": 0}, {"is_disabled": 0, "fusion_lon": 0.0, "fusion_lat": 0.0, "lat": 38.932317166666664, "type": "electric_scooter", "lon": -76.999374, "bike_id": "9ca5cfed9215958f0f49484ab990ef37", "rental_uris": {"android": "https://dc.lft.to/lastmile_qr_scan", "ios": "https://dc.lft.to/lastmile_qr_scan"}, "name": "9ca5cfed9215958f0f49484ab990ef37", "is_reserved": 0}, {"is_disabled": 0, "fusion_lon": 0.0, "fusion_lat": 0.0, "lat": 38.90271383333334, "type": "electric_scooter", "lon": -77.0383695, "bike_id": "071b9400eadf00a55f91a595e1a031e5", "rental_uris": {"android": "https://dc.lft.to/lastmile_qr_scan", "ios": "https://dc.lft.to/lastmile_qr_scan"}, "name": "071b9400eadf00a55f91a595e1a031e5", "is_reserved": 0}, {"is_disabled": 0, "fusion_lon": 0.0, "fusion_lat": 0.0, "lat": 38.917107666666666, "type": "electric_scooter", "lon": -77.03398533333333, "bike_id": "1af8f1eafa0585e31edae37e62745aa0", "rental_uris": {"android": "https://dc.lft.to/lastmile_qr_scan", "ios": "https://dc.lft.to/lastmile_qr_scan"}, "name": "1af8f1eafa0585e31edae37e62745aa0", "is_reserved": 0}, {"is_disabled": 0, "fusion_lon": 0.0, "fusion_lat": 0.0, "lat": 38.8859315, "type": "electric_scooter", "lon": -76.99778833333333, "bike_id": "b0e60a3f917efb50ad6dc840de68b8cd", "rental_uris": {"android": "https://dc.lft.to/lastmile_qr_scan", "ios": "https://dc.lft.to/lastmile_qr_scan"}, "name": "b0e60a3f917efb50ad6dc840de68b8cd", "is_reserved": 0}, {"is_disabled": 0, "fusion_lon": 0.0, "fusion_lat": 0.0, "lat": 38.90554733333333, "type": "electric_scooter", "lon": -77.046597, "bike_id": "dcd6b84f89ef65c2168772bf6e73a08a", "rental_uris": {"android": "https://dc.lft.to/lastmile_qr_scan", "ios": "https://dc.lft.to/lastmile_qr_scan"}, "name": "dcd6b84f89ef65c2168772bf6e73a08a", "is_reserved": 0}, {"is_disabled": 0, "fusion_lon": 0.0, "fusion_lat": 0.0, "lat": 38.892458, "type": "electric_scooter", "lon": -77.033514, "bike_id": "30149c512da1f2acc8f9fa4802e566e2", "rental_uris": {"android": "https://dc.lft.to/lastmile_qr_scan", "ios": "https://dc.lft.to/lastmile_qr_scan"}, "name": "30149c512da1f2acc8f9fa4802e566e2", "is_reserved": 0}, {"is_disabled": 0, "fusion_lon": 0.0, "fusion_lat": 0.0, "lat": 38.807270833333334, "type": "electric_bike", "lon": -77.07869683333334, "bike_id": "a92e8f5f652277f5d40b10fb7c1b0fb3", "rental_uris": {"android": "https://dc.lft.to/lastmile_qr_scan", "ios": "https://dc.lft.to/lastmile_qr_scan"}, "name": "a92e8f5f652277f5d40b10fb7c1b0fb3", "is_reserved": 0}, {"is_disabled": 0, "fusion_lon": 0.0, "fusion_lat": 0.0, "lat": 38.94892316666667, "type": "electric_bike", "lon": -76.96379266666666, "bike_id": "badbc966b3e2461b6ebf0e023a6c1e4b", "rental_uris": {"android": "https://dc.lft.to/lastmile_qr_scan", "ios": "https://dc.lft.to/lastmile_qr_scan"}, "name": "badbc966b3e2461b6ebf0e023a6c1e4b", "is_reserved": 0}, {"is_disabled": 0, "fusion_lon": 0.0, "fusion_lat": 0.0, "lat": 38.903541, "type": "electric_scooter", "lon": -77.05340233333334, "bike_id": "591573e9f70e26c08d890cdd57890c5d", "rental_uris": {"android": "https://dc.lft.to/lastmile_qr_scan", "ios": "https://dc.lft.to/lastmile_qr_scan"}, "name": "591573e9f70e26c08d890cdd57890c5d", "is_reserved": 0}, {"is_disabled": 0, "fusion_lon": 0.0, "fusion_lat": 0.0, "lat": 38.8913675, "type": "electric_bike", "lon": -77.01426133333334, "bike_id": "cdae3762aa4b5a5e3ff974e8a0df3dbb", "rental_uris": {"android": "https://dc.lft.to/lastmile_qr_scan", "ios": "https://dc.lft.to/lastmile_qr_scan"}, "name": "cdae3762aa4b5a5e3ff974e8a0df3dbb", "is_reserved": 0}, {"is_disabled": 0, "fusion_lon": 0.0, "fusion_lat": 0.0, "lat": 38.936729166666666, "type": "electric_bike", "lon": -76.95204683333333, "bike_id": "db9c858452d45a56c89f5862381ff7aa", "rental_uris": {"android": "https://dc.lft.to/lastmile_qr_scan", "ios": "https://dc.lft.to/lastmile_qr_scan"}, "name": "db9c858452d45a56c89f5862381ff7aa", "is_reserved": 0}, {"is_disabled": 0, "fusion_lon": 0.0, "fusion_lat": 0.0, "lat": 38.924299833333336, "type": "electric_scooter", "lon": -77.03172583333334, "bike_id": "539d519a87b235570e9a726a591e2cbb", "rental_uris": {"android": "https://dc.lft.to/lastmile_qr_scan", "ios": "https://dc.lft.to/lastmile_qr_scan"}, "name": "539d519a87b235570e9a726a591e2cbb", "is_reserved": 0}, {"is_disabled": 0, "fusion_lon": 0.0, "fusion_lat": 0.0, "lat": 38.883139, "type": "electric_scooter", "lon": -77.04535916666667, "bike_id": "d1d83b2d12f81438297f96db3a451e7f", "rental_uris": {"android": "https://dc.lft.to/lastmile_qr_scan", "ios": "https://dc.lft.to/lastmile_qr_scan"}, "name": "d1d83b2d12f81438297f96db3a451e7f", "is_reserved": 0}, {"is_disabled": 0, "fusion_lon": 0.0, "fusion_lat": 0.0, "lat": 38.89752583333333, "type": "electric_scooter", "lon": -77.05140633333333, "bike_id": "5fb67c9687e27e6a8aa82ac9ca4b894d", "rental_uris": {"android": "https://dc.lft.to/lastmile_qr_scan", "ios": "https://dc.lft.to/lastmile_qr_scan"}, "name": "5fb67c9687e27e6a8aa82ac9ca4b894d", "is_reserved": 0}, {"is_disabled": 0, "fusion_lon": 0.0, "fusion_lat": 0.0, "lat": 38.884422666666666, "type": "electric_scooter", "lon": -77.02963016666666, "bike_id": "7e5af1b65977f499fb4456b0d93578bb", "rental_uris": {"android": "https://dc.lft.to/lastmile_qr_scan", "ios": "https://dc.lft.to/lastmile_qr_scan"}, "name": "7e5af1b65977f499fb4456b0d93578bb", "is_reserved": 0}, {"is_disabled": 0, "fusion_lon": 0.0, "fusion_lat": 0.0, "lat": 38.8874325, "type": "electric_scooter", "lon": -77.013786, "bike_id": "bc77f7e199214cb5003d23cb5d8b92dc", "rental_uris": {"android": "https://dc.lft.to/lastmile_qr_scan", "ios": "https://dc.lft.to/lastmile_qr_scan"}, "name": "bc77f7e199214cb5003d23cb5d8b92dc", "is_reserved": 0}, {"is_disabled": 0, "fusion_lon": 0.0, "fusion_lat": 0.0, "lat": 38.92176366666666, "type": "electric_scooter", "lon": -77.04219516666667, "bike_id": "e23344486a4b0a82f713f6d112e59296", "rental_uris": {"android": "https://dc.lft.to/lastmile_qr_scan", "ios": "https://dc.lft.to/lastmile_qr_scan"}, "name": "e23344486a4b0a82f713f6d112e59296", "is_reserved": 0}, {"is_disabled": 0, "fusion_lon": 0.0, "fusion_lat": 0.0, "lat": 38.912093666666664, "type": "electric_scooter", "lon": -77.0384775, "bike_id": "beaa4f045f21b91b29561f93ab3551a3", "rental_uris": {"android": "https://dc.lft.to/lastmile_qr_scan", "ios": "https://dc.lft.to/lastmile_qr_scan"}, "name": "beaa4f045f21b91b29561f93ab3551a3", "is_reserved": 0}, {"is_disabled": 0, "fusion_lon": 0.0, "fusion_lat": 0.0, "lat": 38.8863175, "type": "electric_scooter", "lon": -77.01536683333333, "bike_id": "d3dd276b9823a59e895195c5dfa4a365", "rental_uris": {"android": "https://dc.lft.to/lastmile_qr_scan", "ios": "https://dc.lft.to/lastmile_qr_scan"}, "name": "d3dd276b9823a59e895195c5dfa4a365", "is_reserved": 0}, {"is_disabled": 0, "fusion_lon": 0.0, "fusion_lat": 0.0, "lat": 38.91818966666666, "type": "electric_scooter", "lon": -77.0343285, "bike_id": "6a1cc5b07e340f4bd7bc500050e08a6a", "rental_uris": {"android": "https://dc.lft.to/lastmile_qr_scan", "ios": "https://dc.lft.to/lastmile_qr_scan"}, "name": "6a1cc5b07e340f4bd7bc500050e08a6a", "is_reserved": 0}, {"is_disabled": 0, "fusion_lon": 0.0, "fusion_lat": 0.0, "lat": 38.93900383333333, "type": "electric_scooter", "lon": -77.033377, "bike_id": "b9126fc97b5e609c5f35c4bbe11b2910", "rental_uris": {"android": "https://dc.lft.to/lastmile_qr_scan", "ios": "https://dc.lft.to/lastmile_qr_scan"}, "name": "b9126fc97b5e609c5f35c4bbe11b2910", "is_reserved": 0}, {"is_disabled": 0, "fusion_lon": 0.0, "fusion_lat": 0.0, "lat": 38.900679833333335, "type": "electric_scooter", "lon": -77.052386, "bike_id": "0f2157d6f6b9df71f62d5df0b0f55c9f", "rental_uris": {"android": "https://dc.lft.to/lastmile_qr_scan", "ios": "https://dc.lft.to/lastmile_qr_scan"}, "name": "0f2157d6f6b9df71f62d5df0b0f55c9f", "is_reserved": 0}, {"is_disabled": 0, "fusion_lon": 0.0, "fusion_lat": 0.0, "lat": 38.906520666666665, "type": "electric_scooter", "lon": -77.02524216666667, "bike_id": "8bf2ef7119b86a5660c69b7910b97f92", "rental_uris": {"android": "https://dc.lft.to/lastmile_qr_scan", "ios": "https://dc.lft.to/lastmile_qr_scan"}, "name": "8bf2ef7119b86a5660c69b7910b97f92", "is_reserved": 0}, {"is_disabled": 0, "fusion_lon": 0.0, "fusion_lat": 0.0, "lat": 38.925937833333336, "type": "electric_bike", "lon": -77.02446633333334, "bike_id": "6c72ffda881d537997d417865d1ba00f", "rental_uris": {"android": "https://dc.lft.to/lastmile_qr_scan", "ios": "https://dc.lft.to/lastmile_qr_scan"}, "name": "6c72ffda881d537997d417865d1ba00f", "is_reserved": 0}, {"is_disabled": 0, "fusion_lon": 0.0, "fusion_lat": 0.0, "lat": 38.892592, "type": "electric_scooter", "lon": -76.94156133333334, "bike_id": "d1b79214086157a17464e213cc64dab2", "rental_uris": {"android": "https://dc.lft.to/lastmile_qr_scan", "ios": "https://dc.lft.to/lastmile_qr_scan"}, "name": "d1b79214086157a17464e213cc64dab2", "is_reserved": 0}, {"is_disabled": 0, "fusion_lon": 0.0, "fusion_lat": 0.0, "lat": 38.9014765, "type": "electric_scooter", "lon": -77.04082316666667, "bike_id": "3fbaf5e61191a6d37cd2b9b27ec93006", "rental_uris": {"android": "https://dc.lft.to/lastmile_qr_scan", "ios": "https://dc.lft.to/lastmile_qr_scan"}, "name": "3fbaf5e61191a6d37cd2b9b27ec93006", "is_reserved": 0}, {"is_disabled": 0, "fusion_lon": 0.0, "fusion_lat": 0.0, "lat": 38.90749016666667, "type": "electric_scooter", "lon": -77.046707, "bike_id": "64787daabfbc636d29ebc8e68d12abfd", "rental_uris": {"android": "https://dc.lft.to/lastmile_qr_scan", "ios": "https://dc.lft.to/lastmile_qr_scan"}, "name": "64787daabfbc636d29ebc8e68d12abfd", "is_reserved": 0}, {"is_disabled": 0, "fusion_lon": 0.0, "fusion_lat": 0.0, "lat": 38.95041666666667, "type": "electric_scooter", "lon": -77.02295016666666, "bike_id": "a7ccc56108694aa954c2427b823d0141", "rental_uris": {"android": "https://dc.lft.to/lastmile_qr_scan", "ios": "https://dc.lft.to/lastmile_qr_scan"}, "name": "a7ccc56108694aa954c2427b823d0141", "is_reserved": 0}, {"is_disabled": 0, "fusion_lon": 0.0, "fusion_lat": 0.0, "lat": 38.904207, "type": "electric_scooter", "lon": -77.05132983333333, "bike_id": "4624a0bdf38110b307fcdc91c9fc074c", "rental_uris": {"android": "https://dc.lft.to/lastmile_qr_scan", "ios": "https://dc.lft.to/lastmile_qr_scan"}, "name": "4624a0bdf38110b307fcdc91c9fc074c", "is_reserved": 0}, {"is_disabled": 0, "fusion_lon": 0.0, "fusion_lat": 0.0, "lat": 38.92152266666667, "type": "electric_scooter", "lon": -77.0347205, "bike_id": "d7cafc121b8d51ebb5a4560e16f48aad", "rental_uris": {"android": "https://dc.lft.to/lastmile_qr_scan", "ios": "https://dc.lft.to/lastmile_qr_scan"}, "name": "d7cafc121b8d51ebb5a4560e16f48aad", "is_reserved": 0}, {"is_disabled": 0, "fusion_lon": 0.0, "fusion_lat": 0.0, "lat": 38.88349066666667, "type": "electric_scooter", "lon": -76.92787516666667, "bike_id": "e4fd4fa98e1447956ff081b59235ad0f", "rental_uris": {"android": "https://dc.lft.to/lastmile_qr_scan", "ios": "https://dc.lft.to/lastmile_qr_scan"}, "name": "e4fd4fa98e1447956ff081b59235ad0f", "is_reserved": 0}, {"is_disabled": 0, "fusion_lon": 0.0, "fusion_lat": 0.0, "lat": 38.92708183333333, "type": "electric_scooter", "lon": -76.9720965, "bike_id": "841f66104e9eaddeacbe65c8e0ca8bda", "rental_uris": {"android": "https://dc.lft.to/lastmile_qr_scan", "ios": "https://dc.lft.to/lastmile_qr_scan"}, "name": "841f66104e9eaddeacbe65c8e0ca8bda", "is_reserved": 0}, {"is_disabled": 0, "fusion_lon": 0.0, "fusion_lat": 0.0, "lat": 38.9138115, "type": "electric_scooter", "lon": -77.0298295, "bike_id": "2bf08c74820db31af6d0c3bbb3bd0cf3", "rental_uris": {"android": "https://dc.lft.to/lastmile_qr_scan", "ios": "https://dc.lft.to/lastmile_qr_scan"}, "name": "2bf08c74820db31af6d0c3bbb3bd0cf3", "is_reserved": 0}, {"is_disabled": 0, "fusion_lon": 0.0, "fusion_lat": 0.0, "lat": 38.924070666666665, "type": "electric_scooter", "lon": -77.02561716666666, "bike_id": "e3481f1a7e67e5517a8ca7c91efd60be", "rental_uris": {"android": "https://dc.lft.to/lastmile_qr_scan", "ios": "https://dc.lft.to/lastmile_qr_scan"}, "name": "e3481f1a7e67e5517a8ca7c91efd60be", "is_reserved": 0}, {"is_disabled": 0, "fusion_lon": 0.0, "fusion_lat": 0.0, "lat": 38.876561833333334, "type": "electric_scooter", "lon": -77.00294333333333, "bike_id": "159998503b38299fcbc0a48ed3f6c959", "rental_uris": {"android": "https://dc.lft.to/lastmile_qr_scan", "ios": "https://dc.lft.to/lastmile_qr_scan"}, "name": "159998503b38299fcbc0a48ed3f6c959", "is_reserved": 0}, {"is_disabled": 0, "fusion_lon": 0.0, "fusion_lat": 0.0, "lat": 38.870501, "type": "electric_scooter", "lon": -76.980844, "bike_id": "1066ae3925b57f155cf37c6167e16dfc", "rental_uris": {"android": "https://dc.lft.to/lastmile_qr_scan", "ios": "https://dc.lft.to/lastmile_qr_scan"}, "name": "1066ae3925b57f155cf37c6167e16dfc", "is_reserved": 0}, {"is_disabled": 0, "fusion_lon": 0.0, "fusion_lat": 0.0, "lat": 38.902242333333334, "type": "electric_scooter", "lon": -77.06007416666667, "bike_id": "44e636bdfef316b27a46e66687e6626a", "rental_uris": {"android": "https://dc.lft.to/lastmile_qr_scan", "ios": "https://dc.lft.to/lastmile_qr_scan"}, "name": "44e636bdfef316b27a46e66687e6626a", "is_reserved": 0}, {"is_disabled": 0, "fusion_lon": 0.0, "fusion_lat": 0.0, "lat": 38.90118283333334, "type": "electric_scooter", "lon": -77.048731, "bike_id": "76eb7e96369e33cc3ac9b0c0808e34f2", "rental_uris": {"android": "https://dc.lft.to/lastmile_qr_scan", "ios": "https://dc.lft.to/lastmile_qr_scan"}, "name": "76eb7e96369e33cc3ac9b0c0808e34f2", "is_reserved": 0}, {"is_disabled": 0, "fusion_lon": 0.0, "fusion_lat": 0.0, "lat": 38.918113, "type": "electric_scooter", "lon": -77.010856, "bike_id": "e032e0c606bed8da3d895ff2f88bc8da", "rental_uris": {"android": "https://dc.lft.to/lastmile_qr_scan", "ios": "https://dc.lft.to/lastmile_qr_scan"}, "name": "e032e0c606bed8da3d895ff2f88bc8da", "is_reserved": 0}, {"is_disabled": 0, "fusion_lon": 0.0, "fusion_lat": 0.0, "lat": 38.84930033333333, "type": "electric_bike", "lon": -77.10013433333333, "bike_id": "3e1302df22b6fd6a31ddc36b1143348c", "rental_uris": {"android": "https://dc.lft.to/lastmile_qr_scan", "ios": "https://dc.lft.to/lastmile_qr_scan"}, "name": "3e1302df22b6fd6a31ddc36b1143348c", "is_reserved": 0}, {"is_disabled": 0, "fusion_lon": 0.0, "fusion_lat": 0.0, "lat": 38.95637683333333, "type": "electric_scooter", "lon": -77.09100783333334, "bike_id": "9ac05a9901005bdf1e41243b53b1a5f2", "rental_uris": {"android": "https://dc.lft.to/lastmile_qr_scan", "ios": "https://dc.lft.to/lastmile_qr_scan"}, "name": "9ac05a9901005bdf1e41243b53b1a5f2", "is_reserved": 0}, {"is_disabled": 0, "fusion_lon": 0.0, "fusion_lat": 0.0, "lat": 38.88431116666667, "type": "electric_scooter", "lon": -77.02959483333333, "bike_id": "d3e1c14cb453434f8f00c390d70eb462", "rental_uris": {"android": "https://dc.lft.to/lastmile_qr_scan", "ios": "https://dc.lft.to/lastmile_qr_scan"}, "name": "d3e1c14cb453434f8f00c390d70eb462", "is_reserved": 0}, {"is_disabled": 0, "fusion_lon": 0.0, "fusion_lat": 0.0, "lat": 38.89829966666667, "type": "electric_scooter", "lon": -76.94634216666667, "bike_id": "eed5cefbc4f9b89b27726b528f6e22e9", "rental_uris": {"android": "https://dc.lft.to/lastmile_qr_scan", "ios": "https://dc.lft.to/lastmile_qr_scan"}, "name": "eed5cefbc4f9b89b27726b528f6e22e9", "is_reserved": 0}, {"is_disabled": 0, "fusion_lon": 0.0, "fusion_lat": 0.0, "lat": 38.9138575, "type": "electric_scooter", "lon": -77.02980433333333, "bike_id": "24c0bca69cf112ef9792ae618839afb5", "rental_uris": {"android": "https://dc.lft.to/lastmile_qr_scan", "ios": "https://dc.lft.to/lastmile_qr_scan"}, "name": "24c0bca69cf112ef9792ae618839afb5", "is_reserved": 0}, {"is_disabled": 0, "fusion_lon": 0.0, "fusion_lat": 0.0, "lat": 38.949274333333335, "type": "electric_scooter", "lon": -77.01929566666666, "bike_id": "34d6cd883f131a65b72ccc5a13d278b2", "rental_uris": {"android": "https://dc.lft.to/lastmile_qr_scan", "ios": "https://dc.lft.to/lastmile_qr_scan"}, "name": "34d6cd883f131a65b72ccc5a13d278b2", "is_reserved": 0}, {"is_disabled": 0, "fusion_lon": 0.0, "fusion_lat": 0.0, "lat": 38.920357833333334, "type": "electric_scooter", "lon": -77.01815266666667, "bike_id": "91037985444d723dd7255f5c5200630c", "rental_uris": {"android": "https://dc.lft.to/lastmile_qr_scan", "ios": "https://dc.lft.to/lastmile_qr_scan"}, "name": "91037985444d723dd7255f5c5200630c", "is_reserved": 0}, {"is_disabled": 0, "fusion_lon": 0.0, "fusion_lat": 0.0, "lat": 38.8861005, "type": "electric_scooter", "lon": -77.00578716666666, "bike_id": "98c7d941d07985feeacadd882eef1f7d", "rental_uris": {"android": "https://dc.lft.to/lastmile_qr_scan", "ios": "https://dc.lft.to/lastmile_qr_scan"}, "name": "98c7d941d07985feeacadd882eef1f7d", "is_reserved": 0}, {"is_disabled": 0, "fusion_lon": 0.0, "fusion_lat": 0.0, "lat": 38.906434, "type": "electric_scooter", "lon": -77.0237345, "bike_id": "cdd97e587c3b23741859f9e07147dc12", "rental_uris": {"android": "https://dc.lft.to/lastmile_qr_scan", "ios": "https://dc.lft.to/lastmile_qr_scan"}, "name": "cdd97e587c3b23741859f9e07147dc12", "is_reserved": 0}, {"is_disabled": 0, "fusion_lon": 0.0, "fusion_lat": 0.0, "lat": 38.856443, "type": "electric_bike", "lon": -77.08525933333334, "bike_id": "7417b76423e68fdf87a012b1686c5a49", "rental_uris": {"android": "https://dc.lft.to/lastmile_qr_scan", "ios": "https://dc.lft.to/lastmile_qr_scan"}, "name": "7417b76423e68fdf87a012b1686c5a49", "is_reserved": 0},