{"data": {"bikes": [{"rental_uris": {"ios": "https://dc.lft.to/lastmile_qr_scan", "android": "https://dc.lft.to/lastmile_qr_scan"}, "type": "electric_scooter", "name": "22ae57d2b4e25d12967f7e2db6abfe5c", "is_reserved": 0, "lon": -77.027131, "is_disabled": 0, "fusion_lat": 0.0, "lat": 38.904645333333335, "bike_id": "22ae57d2b4e25d12967f7e2db6abfe5c", "fusion_lon": 0.0}, {"rental_uris": {"ios": "https://dc.lft.to/lastmile_qr_scan", "android": "https://dc.lft.to/lastmile_qr_scan"}, "type": "electric_scooter", "name": "75da36bb91e9c5bf4f0281b2b4916a27", "is_reserved": 0, "lon": -77.044962, "is_disabled": 0, "fusion_lat": 0.0, "lat": 38.914586, "bike_id": "75da36bb91e9c5bf4f0281b2b4916a27", "fusion_lon": 0.0}, {"rental_uris": {"ios": "https://dc.lft.to/lastmile_qr_scan", "android": "https://dc.lft.to/lastmile_qr_scan"}, "type": "electric_scooter", "name": "7f88c9e2458d9e15a8c242a861f087b8", "is_reserved": 0, "lon": -77.01975983333334, "is_disabled": 0, "fusion_lat": 0.0, "lat": 38.88717966666667, "bike_id": "7f88c9e2458d9e15a8c242a861f087b8", "fusion_lon": 0.0}, {"rental_uris": {"ios": "https://dc.lft.to/lastmile_qr_scan", "android": "https://dc.lft.to/lastmile_qr_scan"}, "type": "electric_scooter", "name": "ebe878cca0358e3933be1eb055ddfeb4", "is_reserved": 0, "lon": -77.03902, "is_disabled": 0, "fusion_lat": 0.0, "lat": 38.91266016666667, "bike_id": "ebe878cca0358e3933be1eb055ddfeb4", "fusion_lon": 0.0}, {"rental_uris": {"ios": "https://dc.lft.to/lastmile_qr_scan", "android": "https://dc.lft.to/lastmile_qr_scan"}, "type": "electric_scooter", "name": "6b3faf9975d4d456ddd175109d98d7ee", "is_reserved": 0, "lon": -77.0237165, "is_disabled": 0, "fusion_lat": 0.0, "lat": 38.90307466666667, "bike_id": "6b3faf9975d4d456ddd175109d98d7ee", "fusion_lon": 0.0}, {"rental_uris": {"ios": "https://dc.lft.to/lastmile_qr_scan", "android": "https://dc.lft.to/lastmile_qr_scan"}, "type": "electric_scooter", "name": "f8417e3a76e79cb4b7d8e649b5876c67", "is_reserved": 0, "lon": -77.03891116666667, "is_disabled": 0, "fusion_lat": 0.0, "lat": 38.932405, "bike_id": "f8417e3a76e79cb4b7d8e649b5876c67", "fusion_lon": 0.0}, {"rental_uris": {"ios": "https://dc.lft.to/lastmile_qr_scan", "android": "https://dc.lft.to/lastmile_qr_scan"}, "type": "electric_scooter", "name": "58681571900701668643cf2412c0e445", "is_reserved": 0, "lon": -77.03267733333334, "is_disabled": 0, "fusion_lat": 0.0, "lat": 38.9310825, "bike_id": "58681571900701668643cf2412c0e445", "fusion_lon": 0.0}, {"rental_uris": {"ios": "https://dc.lft.to/lastmile_qr_scan", "android": "https://dc.lft.to/lastmile_qr_scan"}, "type": "electric_scooter", "name": "8647d974f69ba17db723fc11b1cb14e2", "is_reserved": 0, "lon": -77.0337845, "is_disabled": 0, "fusion_lat": 0.0, "lat": 38.9096735, "bike_id": "8647d974f69ba17db723fc11b1cb14e2", "fusion_lon": 0.0}, {"rental_uris": {"ios": "https://dc.lft.to/lastmile_qr_scan", "android": "https://dc.lft.to/lastmile_qr_scan"}, "type": "electric_scooter", "name": "6cb382b13e258a9f3dfc28f70443362c", "is_reserved": 0, "lon": -77.054763, "is_disabled": 0, "fusion_lat": 0.0, "lat": 38.8973195, "bike_id": "6cb382b13e258a9f3dfc28f70443362c", "fusion_lon": 0.0}, {"rental_uris": {"ios": "https://dc.lft.to/lastmile_qr_scan", "android": "https://dc.lft.to/lastmile_qr_scan"}, "type": "electric_scooter", "name": "5e118b234d9f037820ad1b68f8a5c24c", "is_reserved": 0, "lon": -77.00946166666667, "is_disabled": 0, "fusion_lat": 0.0, "lat": 38.89497866666667, "bike_id": "5e118b234d9f037820ad1b68f8a5c24c", "fusion_lon": 0.0}, {"rental_uris": {"ios": "https://dc.lft.to/lastmile_qr_scan", "android": "https://dc.lft.to/lastmile_qr_scan"}, "type": "electric_scooter", "name": "c07953a8e0f9aa0346ca39ace7574d59", "is_reserved": 0, "lon": -77.02702483333333, "is_disabled": 0, "fusion_lat": 0.0, "lat": 38.905693, "bike_id": "c07953a8e0f9aa0346ca39ace7574d59", "fusion_lon": 0.0}, {"rental_uris": {"ios": "https://dc.lft.to/lastmile_qr_scan", "android": "https://dc.lft.to/lastmile_qr_scan"}, "type": "electric_scooter", "name": "46a1c0742b976ddcce54699b3c75fadf", "is_reserved": 0, "lon": -77.03330383333333, "is_disabled": 0, "fusion_lat": 0.0, "lat": 38.92870833333333, "bike_id": "46a1c0742b976ddcce54699b3c75fadf", "fusion_lon": 0.0}, {"rental_uris": {"ios": "https://dc.lft.to/lastmile_qr_scan", "android": "https://dc.lft.to/lastmile_qr_scan"}, "type": "electric_scooter", "name": "f67fe2ba828c5bfe48e45ae2c6c5cb50", "is_reserved": 0, "lon": -76.925909, "is_disabled": 0, "fusion_lat": 0.0, "lat": 38.89755666666667, "bike_id": "f67fe2ba828c5bfe48e45ae2c6c5cb50", "fusion_lon": 0.0}, {"rental_uris": {"ios": "https://dc.lft.to/lastmile_qr_scan", "android": "https://dc.lft.to/lastmile_qr_scan"}, "type": "electric_scooter", "name": "7c992f7ea7bcc316e3a3656b06006d77", "is_reserved": 0, "lon": -77.03184866666666, "is_disabled": 0, "fusion_lat": 0.0, "lat": 38.91791683333334, "bike_id": "7c992f7ea7bcc316e3a3656b06006d77", "fusion_lon": 0.0}, {"rental_uris": {"ios": "https://dc.lft.to/lastmile_qr_scan", "android": "https://dc.lft.to/lastmile_qr_scan"}, "type": "electric_scooter", "name": "b49972341c2ae5604f5669e33a443b4b", "is_reserved": 0, "lon": -76.99598533333334, "is_disabled": 0, "fusion_lat": 0.0, "lat": 38.93179116666667, "bike_id": "b49972341c2ae5604f5669e33a443b4b", "fusion_lon": 0.0}, {"rental_uris": {"ios": "https://dc.lft.to/lastmile_qr_scan", "android": "https://dc.lft.to/lastmile_qr_scan"}, "type": "electric_scooter", "name": "44097bbae62f752795010057cbd0ae0f", "is_reserved": 0, "lon": -77.04356083333333, "is_disabled": 0, "fusion_lat": 0.0, "lat": 38.90556566666667, "bike_id": "44097bbae62f752795010057cbd0ae0f", "fusion_lon": 0.0}, {"rental_uris": {"ios": "https://dc.lft.to/lastmile_qr_scan", "android": "https://dc.lft.to/lastmile_qr_scan"}, "type": "electric_scooter", "name": "96b2ea4188050ce2efbf5ca672305a15", "is_reserved": 0, "lon": -77.04873633333334, "is_disabled": 0, "fusion_lat": 0.0, "lat": 38.892341333333334, "bike_id": "96b2ea4188050ce2efbf5ca672305a15", "fusion_lon": 0.0}, {"rental_uris": {"ios": "https://dc.lft.to/lastmile_qr_scan", "android": "https://dc.lft.to/lastmile_qr_scan"}, "type": "electric_scooter", "name": "cf7871e5a8b19523a479547da5cd8eb7", "is_reserved": 0, "lon": -77.04278966666666, "is_disabled": 0, "fusion_lat": 0.0, "lat": 38.9177485, "bike_id": "cf7871e5a8b19523a479547da5cd8eb7", "fusion_lon": 0.0}, {"rental_uris": {"ios": "https://dc.lft.to/lastmile_qr_scan", "android": "https://dc.lft.to/lastmile_qr_scan"}, "type": "electric_scooter", "name": "7404068b6c1fafd594c1fc9b00eb59f2", "is_reserved": 0, "lon": -77.03392566666666, "is_disabled": 0, "fusion_lat": 0.0, "lat": 38.9384815, "bike_id": "7404068b6c1fafd594c1fc9b00eb59f2", "fusion_lon": 0.0}, {"rental_uris": {"ios": "https://dc.lft.to/lastmile_qr_scan", "android": "https://dc.lft.to/lastmile_qr_scan"}, "type": "electric_scooter", "name": "783648c08040f5f5cc0a56689d4e2809", "is_reserved": 0, "lon": -77.03831066666666, "is_disabled": 0, "fusion_lat": 0.0, "lat": 38.91711683333333, "bike_id": "783648c08040f5f5cc0a56689d4e2809", "fusion_lon": 0.0}, {"rental_uris": {"ios": "https://dc.lft.to/lastmile_qr_scan", "android": "https://dc.lft.to/lastmile_qr_scan"}, "type": "electric_scooter", "name": "c4edd65fdca30420f23d03b6a6a48e79", "is_reserved": 0, "lon": -77.04543033333333, "is_disabled": 0, "fusion_lat": 0.0, "lat": 38.93399516666667, "bike_id": "c4edd65fdca30420f23d03b6a6a48e79", "fusion_lon": 0.0}, {"rental_uris": {"ios": "https://dc.lft.to/lastmile_qr_scan", "android": "https://dc.lft.to/lastmile_qr_scan"}, "type": "electric_scooter", "name": "95e42fb42c59db797637cb567d1f8bda", "is_reserved": 0, "lon": -77.02178033333334, "is_disabled": 0, "fusion_lat": 0.0, "lat": 38.915312666666665, "bike_id": "95e42fb42c59db797637cb567d1f8bda", "fusion_lon": 0.0}, {"rental_uris": {"ios": "https://dc.lft.to/lastmile_qr_scan", "android": "https://dc.lft.to/lastmile_qr_scan"}, "type": "electric_scooter", "name": "45f352d80bbd39f34edbcd17124c681d", "is_reserved": 0, "lon": -77.00919566666667, "is_disabled": 0, "fusion_lat": 0.0, "lat": 38.8974145, "bike_id": "45f352d80bbd39f34edbcd17124c681d", "fusion_lon": 0.0}, {"rental_uris": {"ios": "https://dc.lft.to/lastmile_qr_scan", "android": "https://dc.lft.to/lastmile_qr_scan"}, "type": "electric_scooter", "name": "6af50c6de459043f8dc624c242b6fb63", "is_reserved": 0, "lon": -76.9903905, "is_disabled": 0, "fusion_lat": 0.0, "lat": 38.86361933333333, "bike_id": "6af50c6de459043f8dc624c242b6fb63", "fusion_lon": 0.0}, {"rental_uris": {"ios": "https://dc.lft.to/lastmile_qr_scan", "android": "https://dc.lft.to/lastmile_qr_scan"}, "type": "electric_scooter", "name": "53f097c60d60d8cd75998e295a01ea6b", "is_reserved": 0, "lon": -77.03494683333334, "is_disabled": 0, "fusion_lat": 0.0, "lat": 38.91697083333333, "bike_id": "53f097c60d60d8cd75998e295a01ea6b", "fusion_lon": 0.0}, {"rental_uris": {"ios": "https://dc.lft.to/lastmile_qr_scan", "android": "https://dc.lft.to/lastmile_qr_scan"}, "type": "electric_scooter", "name": "9e05e1d35052b260cd07c213ed323069", "is_reserved": 0, "lon": -77.02242233333334, "is_disabled": 0, "fusion_lat": 0.0, "lat": 38.926763333333334, "bike_id": "9e05e1d35052b260cd07c213ed323069", "fusion_lon": 0.0}, {"rental_uris": {"ios": "https://dc.lft.to/lastmile_qr_scan", "android": "https://dc.lft.to/lastmile_qr_scan"}, "type": "electric_scooter", "name": "ca95dbc695d61539ecd1b209fc702917", "is_reserved": 0, "lon": -77.03564016666667, "is_disabled": 0, "fusion_lat": 0.0, "lat": 38.904836, "bike_id": "ca95dbc695d61539ecd1b209fc702917", "fusion_lon": 0.0}, {"rental_uris": {"ios": "https://dc.lft.to/lastmile_qr_scan", "android": "https://dc.lft.to/lastmile_qr_scan"}, "type": "electric_scooter", "name": "9cd17e96787bbfddbc543b7d6c864467", "is_reserved": 0, "lon": -77.01758366666667, "is_disabled": 0, "fusion_lat": 0.0, "lat": 38.877077666666665, "bike_id": "9cd17e96787bbfddbc543b7d6c864467", "fusion_lon": 0.0}, {"rental_uris": {"ios": "https://dc.lft.to/lastmile_qr_scan", "android": "https://dc.lft.to/lastmile_qr_scan"}, "type": "electric_scooter", "name": "7e292cbc50f1497a09013103370f5b8e", "is_reserved": 0, "lon": -77.023682, "is_disabled": 0, "fusion_lat": 0.0, "lat": 38.892176, "bike_id": "7e292cbc50f1497a09013103370f5b8e", "fusion_lon": 0.0}, {"rental_uris": {"ios": "https://dc.lft.to/lastmile_qr_scan", "android": "https://dc.lft.to/lastmile_qr_scan"}, "type": "electric_scooter", "name": "d7abeadfde7bbaf6f71b2b8590a3a1f0", "is_reserved": 0, "lon": -77.02612466666666, "is_disabled": 0, "fusion_lat": 0.0, "lat": 38.90565733333333, "bike_id": "d7abeadfde7bbaf6f71b2b8590a3a1f0", "fusion_lon": 0.0}, {"rental_uris": {"ios": "https://dc.lft.to/lastmile_qr_scan", "android": "https://dc.lft.to/lastmile_qr_scan"}, "type": "electric_scooter", "name": "a88d3094eea290a039a909473219a996", "is_reserved": 0, "lon": -77.03910933333333, "is_disabled": 0, "fusion_lat": 0.0, "lat": 38.91751, "bike_id": "a88d3094eea290a039a909473219a996", "fusion_lon": 0.0}, {"rental_uris": {"ios": "https://dc.lft.to/lastmile_qr_scan", "android": "https://dc.lft.to/lastmile_qr_scan"}, "type": "electric_scooter", "name": "34077c4629e03c50a53154b73367428e", "is_reserved": 0, "lon": -77.04436416666667, "is_disabled": 0, "fusion_lat": 0.0, "lat": 38.91798933333333, "bike_id": "34077c4629e03c50a53154b73367428e", "fusion_lon": 0.0}, {"rental_uris": {"ios": "https://dc.lft.to/lastmile_qr_scan", "android": "https://dc.lft.to/lastmile_qr_scan"}, "type": "electric_scooter", "name": "3e74a9677e02d83a40b177669d152065", "is_reserved": 0, "lon": -76.99340233333334, "is_disabled": 0, "fusion_lat": 0.0, "lat": 38.91585283333333, "bike_id": "3e74a9677e02d83a40b177669d152065", "fusion_lon": 0.0}, {"rental_uris": {"ios": "https://dc.lft.to/lastmile_qr_scan", "android": "https://dc.lft.to/lastmile_qr_scan"}, "type": "electric_scooter", "name": "0bbee839fb6115e52345a1ac3a6468d2", "is_reserved": 0, "lon": -77.02354483333333, "is_disabled": 0, "fusion_lat": 0.0, "lat": 38.930476666666664, "bike_id": "0bbee839fb6115e52345a1ac3a6468d2", "fusion_lon": 0.0}, {"rental_uris": {"ios": "https://dc.lft.to/lastmile_qr_scan", "android": "https://dc.lft.to/lastmile_qr_scan"}, "type": "electric_scooter", "name": "f405d42a6104670792a051f6d5db4815", "is_reserved": 0, "lon": -77.046742, "is_disabled": 0, "fusion_lat": 0.0, "lat": 38.89239033333333, "bike_id": "f405d42a6104670792a051f6d5db4815", "fusion_lon": 0.0}, {"rental_uris": {"ios": "https://dc.lft.to/lastmile_qr_scan", "android": "https://dc.lft.to/lastmile_qr_scan"}, "type": "electric_scooter", "name": "24ec6f3d0ad7b908046c702f3fcd2584", "is_reserved": 0, "lon": -77.06547916666666, "is_disabled": 0, "fusion_lat": 0.0, "lat": 38.905117, "bike_id": "24ec6f3d0ad7b908046c702f3fcd2584", "fusion_lon": 0.0}, {"rental_uris": {"ios": "https://dc.lft.to/lastmile_qr_scan", "android": "https://dc.lft.to/lastmile_qr_scan"}, "type": "electric_scooter", "name": "343939a19df9dd6241c54e6143f31768", "is_reserved": 0, "lon": -77.05023066666666, "is_disabled": 0, "fusion_lat": 0.0, "lat": 38.9105855, "bike_id": "343939a19df9dd6241c54e6143f31768", "fusion_lon": 0.0}, {"rental_uris": {"ios": "https://dc.lft.to/lastmile_qr_scan", "android": "https://dc.lft.to/lastmile_qr_scan"}, "type": "electric_scooter", "name": "6de43e940a7ae08922345d5b53adaff7", "is_reserved": 0, "lon": -77.02209483333333, "is_disabled": 0, "fusion_lat": 0.0, "lat": 38.878871833333335, "bike_id": "6de43e940a7ae08922345d5b53adaff7", "fusion_lon": 0.0}, {"rental_uris": {"ios": "https://dc.lft.to/lastmile_qr_scan", "android": "https://dc.lft.to/lastmile_qr_scan"}, "type": "electric_scooter", "name": "00f9e5af6d53d6097c8f55dbde34bbb6", "is_reserved": 0, "lon": -77.023497, "is_disabled": 0, "fusion_lat": 0.0, "lat": 38.931594, "bike_id": "00f9e5af6d53d6097c8f55dbde34bbb6", "fusion_lon": 0.0}, {"rental_uris": {"ios": "https://dc.lft.to/lastmile_qr_scan", "android": "https://dc.lft.to/lastmile_qr_scan"}, "type": "electric_scooter", "name": "a6e00ae96d378c019d11c7ab5f34949d", "is_reserved": 0, "lon": -77.01978233333334, "is_disabled": 0, "fusion_lat": 0.0, "lat": 38.952108833333334, "bike_id": "a6e00ae96d378c019d11c7ab5f34949d", "fusion_lon": 0.0}, {"rental_uris": {"ios": "https://dc.lft.to/lastmile_qr_scan", "android": "https://dc.lft.to/lastmile_qr_scan"}, "type": "electric_scooter", "name": "c3d1b4102ccb1a075bd4804b1fe3a78f", "is_reserved": 0, "lon": -77.02069433333334, "is_disabled": 0, "fusion_lat": 0.0, "lat": 38.93111716666667, "bike_id": "c3d1b4102ccb1a075bd4804b1fe3a78f", "fusion_lon": 0.0}, {"rental_uris": {"ios": "https://dc.lft.to/lastmile_qr_scan", "android": "https://dc.lft.to/lastmile_qr_scan"}, "type": "electric_scooter", "name": "7e76b8195e9b8037f68d15d786fca07a", "is_reserved": 0, "lon": -77.0452235, "is_disabled": 0, "fusion_lat": 0.0, "lat": 38.918282166666664, "bike_id": "7e76b8195e9b8037f68d15d786fca07a", "fusion_lon": 0.0}, {"rental_uris": {"ios": "https://dc.lft.to/lastmile_qr_scan", "android": "https://dc.lft.to/lastmile_qr_scan"}, "type": "electric_scooter", "name": "eff7df215a9222d352a6904a023b6b4c", "is_reserved": 0, "lon": -77.02321683333334, "is_disabled": 0, "fusion_lat": 0.0, "lat": 38.92988183333333, "bike_id": "eff7df215a9222d352a6904a023b6b4c", "fusion_lon": 0.0}, {"rental_uris": {"ios": "https://dc.lft.to/lastmile_qr_scan", "android": "https://dc.lft.to/lastmile_qr_scan"}, "type": "electric_scooter", "name": "d45be29fee6bbda17b1ccf424d1d881b", "is_reserved": 0, "lon": -77.00984616666666, "is_disabled": 0, "fusion_lat": 0.0, "lat": 38.905694, "bike_id": "d45be29fee6bbda17b1ccf424d1d881b", "fusion_lon": 0.0}, {"rental_uris": {"ios": "https://dc.lft.to/lastmile_qr_scan", "android": "https://dc.lft.to/lastmile_qr_scan"}, "type": "electric_scooter", "name": "f9775714fd13b0e94abced46cc901c12", "is_reserved": 0, "lon": -77.0425755, "is_disabled": 0, "fusion_lat": 0.0, "lat": 38.90242283333333, "bike_id": "f9775714fd13b0e94abced46cc901c12", "fusion_lon": 0.0}, {"rental_uris": {"ios": "https://dc.lft.to/lastmile_qr_scan", "android": "https://dc.lft.to/lastmile_qr_scan"}, "type": "electric_scooter", "name": "0abba80c0a24b986d52f23c0109a8bc7", "is_reserved": 0, "lon": -76.936994, "is_disabled": 0, "fusion_lat": 0.0, "lat": 38.89019866666667, "bike_id": "0abba80c0a24b986d52f23c0109a8bc7", "fusion_lon": 0.0}, {"rental_uris": {"ios": "https://dc.lft.to/lastmile_qr_scan", "android": "https://dc.lft.to/lastmile_qr_scan"}, "type": "electric_scooter", "name": "10bb132fbd7be052253e921d06e5b525", "is_reserved": 0, "lon": -77.005552, "is_disabled": 0, "fusion_lat": 0.0, "lat": 38.874695333333335, "bike_id": "10bb132fbd7be052253e921d06e5b525", "fusion_lon": 0.0}, {"rental_uris": {"ios": "https://dc.lft.to/lastmile_qr_scan", "android": "https://dc.lft.to/lastmile_qr_scan"}, "type": "electric_scooter", "name": "f4217f4702cecf386e8d3d83fe703b50", "is_reserved": 0, "lon": -77.06416383333334, "is_disabled": 0, "fusion_lat": 0.0, "lat": 38.91399716666667, "bike_id": "f4217f4702cecf386e8d3d83fe703b50", "fusion_lon": 0.0}, {"rental_uris": {"ios": "https://dc.lft.to/lastmile_qr_scan", "android": "https://dc.lft.to/lastmile_qr_scan"}, "type": "electric_scooter", "name": "7c8e21c64eee1411dac7587ac18a61d6", "is_reserved": 0, "lon": -77.0351375, "is_disabled": 0, "fusion_lat": 0.0, "lat": 38.916960833333334, "bike_id": "7c8e21c64eee1411dac7587ac18a61d6", "fusion_lon": 0.0}, {"rental_uris": {"ios": "https://dc.lft.to/lastmile_qr_scan", "android": "https://dc.lft.to/lastmile_qr_scan"}, "type": "electric_scooter", "name": "e30dc3b2329a904c4c94e97adbda0ae2", "is_reserved": 0, "lon": -77.036411, "is_disabled": 0, "fusion_lat": 0.0, "lat": 38.90847816666667, "bike_id": "e30dc3b2329a904c4c94e97adbda0ae2", "fusion_lon": 0.0}, {"rental_uris": {"ios": "https://dc.lft.to/lastmile_qr_scan", "android": "https://dc.lft.to/lastmile_qr_scan"}, "type": "electric_scooter", "name": "66117209fe4f6c6303256090eaae8d29", "is_reserved": 0, "lon": -77.03244583333333, "is_disabled": 0, "fusion_lat": 0.0, "lat": 38.9155915, "bike_id": "66117209fe4f6c6303256090eaae8d29", "fusion_lon": 0.0}, {"rental_uris": {"ios": "https://dc.lft.to/lastmile_qr_scan", "android": "https://dc.lft.to/lastmile_qr_scan"}, "type": "electric_scooter", "name": "c51203a7b9a74c60fb6c2365dbc9c959", "is_reserved": 0, "lon": -77.03807216666667, "is_disabled": 0, "fusion_lat": 0.0, "lat": 38.92071466666667, "bike_id": "c51203a7b9a74c60fb6c2365dbc9c959", "fusion_lon": 0.0}, {"rental_uris": {"ios": "https://dc.lft.to/lastmile_qr_scan", "android": "https://dc.lft.to/lastmile_qr_scan"}, "type": "electric_scooter", "name": "12fd6f52fecd8c72a468ce400b5a9ebe", "is_reserved": 0, "lon": -77.04460183333333, "is_disabled": 0, "fusion_lat": 0.0, "lat": 38.90991316666667, "bike_id": "12fd6f52fecd8c72a468ce400b5a9ebe", "fusion_lon": 0.0}, {"rental_uris": {"ios": "https://dc.lft.to/lastmile_qr_scan", "android": "https://dc.lft.to/lastmile_qr_scan"}, "type": "electric_scooter", "name": "abb8b24727a681780e5aee29f6ff6598", "is_reserved": 0, "lon": -77.017307, "is_disabled": 0, "fusion_lat": 0.0, "lat": 38.88748116666667, "bike_id": "abb8b24727a681780e5aee29f6ff6598", "fusion_lon": 0.0}, {"rental_uris": {"ios": "https://dc.lft.to/lastmile_qr_scan", "android": "https://dc.lft.to/lastmile_qr_scan"}, "type": "electric_scooter", "name": "08faffb1639a0983fc41b4ab4ca7607d", "is_reserved": 0, "lon": -77.03061783333334, "is_disabled": 0, "fusion_lat": 0.0, "lat": 38.924675, "bike_id": "08faffb1639a0983fc41b4ab4ca7607d", "fusion_lon": 0.0}, {"rental_uris": {"ios": "https://dc.lft.to/lastmile_qr_scan", "android": "https://dc.lft.to/lastmile_qr_scan"}, "type": "electric_scooter", "name": "9a81f9efa7a0ab703ae63d566738b268", "is_reserved": 0, "lon": -76.99103116666667, "is_disabled": 0, "fusion_lat": 0.0, "lat": 38.88594416666667, "bike_id": "9a81f9efa7a0ab703ae63d566738b268", "fusion_lon": 0.0}, {"rental_uris": {"ios": "https://dc.lft.to/lastmile_qr_scan", "android": "https://dc.lft.to/lastmile_qr_scan"}, "type": "electric_scooter", "name": "b8a48c8a7a86196f9edbef2d8a92eef7", "is_reserved": 0, "lon": -76.99571, "is_disabled": 0, "fusion_lat": 0.0, "lat": 38.86266066666666, "bike_id": "b8a48c8a7a86196f9edbef2d8a92eef7", "fusion_lon": 0.0}, {"rental_uris": {"ios": "https://dc.lft.to/lastmile_qr_scan", "android": "https://dc.lft.to/lastmile_qr_scan"}, "type": "electric_scooter", "name": "d8d9ab3f92e7db16c851ef7140a2e81c", "is_reserved": 0, "lon": -77.04152883333333, "is_disabled": 0, "fusion_lat": 0.0, "lat": 38.91955633333333, "bike_id": "d8d9ab3f92e7db16c851ef7140a2e81c", "fusion_lon": 0.0}, {"rental_uris": {"ios": "https://dc.lft.to/lastmile_qr_scan", "android": "https://dc.lft.to/lastmile_qr_scan"}, "type": "electric_scooter", "name": "ac7c8873e2ef5caecbfcaec92f50160b", "is_reserved": 0, "lon": -77.06682333333333, "is_disabled": 0, "fusion_lat": 0.0, "lat": 38.90379, "bike_id": "ac7c8873e2ef5caecbfcaec92f50160b", "fusion_lon": 0.0}, {"rental_uris": {"ios": "https://dc.lft.to/lastmile_qr_scan", "android": "https://dc.lft.to/lastmile_qr_scan"}, "type": "electric_scooter", "name": "477efbed5aaf4ced85e1887532796011", "is_reserved": 0, "lon": -77.00794, "is_disabled": 0, "fusion_lat": 0.0, "lat": 38.897187833333334, "bike_id": "477efbed5aaf4ced85e1887532796011", "fusion_lon": 0.0}, {"rental_uris": {"ios": "https://dc.lft.to/lastmile_qr_scan", "android": "https://dc.lft.to/lastmile_qr_scan"}, "type": "electric_scooter", "name": "ab833f1c9ddf3bf47b9fd28569d3eef2", "is_reserved": 0, "lon": -76.93383216666666, "is_disabled": 0, "fusion_lat": 0.0, "lat": 38.899113166666666, "bike_id": "ab833f1c9ddf3bf47b9fd28569d3eef2", "fusion_lon": 0.0}, {"rental_uris": {"ios": "https://dc.lft.to/lastmile_qr_scan", "android": "https://dc.lft.to/lastmile_qr_scan"}, "type": "electric_scooter", "name": "390d7b7cf7757ef90f03f3872431f91f", "is_reserved": 0, "lon": -76.99487416666666, "is_disabled": 0, "fusion_lat": 0.0, "lat": 38.8773865, "bike_id": "390d7b7cf7757ef90f03f3872431f91f", "fusion_lon": 0.0}, {"rental_uris": {"ios": "https://dc.lft.to/lastmile_qr_scan", "android": "https://dc.lft.to/lastmile_qr_scan"}, "type": "electric_scooter", "name": "ba3394c6412e1f76defa5b45f73ed39d", "is_reserved": 0, "lon": -76.9932215, "is_disabled": 0, "fusion_lat": 0.0, "lat": 38.876375, "bike_id": "ba3394c6412e1f76defa5b45f73ed39d", "fusion_lon": 0.0}, {"rental_uris": {"ios": "https://dc.lft.to/lastmile_qr_scan", "android": "https://dc.lft.to/lastmile_qr_scan"}, "type": "electric_scooter", "name": "47a9332b889efa0e66ef8aab5c10b617", "is_reserved": 0, "lon": -76.977243, "is_disabled": 0, "fusion_lat": 0.0, "lat": 38.872456166666666, "bike_id": "47a9332b889efa0e66ef8aab5c10b617", "fusion_lon": 0.0}, {"rental_uris": {"ios": "https://dc.lft.to/lastmile_qr_scan", "android": "https://dc.lft.to/lastmile_qr_scan"}, "type": "electric_scooter", "name": "2e7d2be2901ad64b30b00d2258c11fef", "is_reserved": 0, "lon": -77.0123385, "is_disabled": 0, "fusion_lat": 0.0, "lat": 38.881004, "bike_id": "2e7d2be2901ad64b30b00d2258c11fef", "fusion_lon": 0.0}, {"rental_uris": {"ios": "https://dc.lft.to/lastmile_qr_scan", "android": "https://dc.lft.to/lastmile_qr_scan"}, "type": "electric_scooter", "name": "7bc6aed06a9974c1f8d24634454defe8", "is_reserved": 0, "lon": -77.0219895, "is_disabled": 0, "fusion_lat": 0.0, "lat": 38.919743, "bike_id": "7bc6aed06a9974c1f8d24634454defe8", "fusion_lon": 0.0}, {"rental_uris": {"ios": "https://dc.lft.to/lastmile_qr_scan", "android": "https://dc.lft.to/lastmile_qr_scan"}, "type": "electric_scooter", "name": "576ed5dea583451ba769f6cce950de4d", "is_reserved": 0, "lon": -77.01473766666666, "is_disabled": 0, "fusion_lat": 0.0, "lat": 38.9433135, "bike_id": "576ed5dea583451ba769f6cce950de4d", "fusion_lon": 0.0}, {"rental_uris": {"ios": "https://dc.lft.to/lastmile_qr_scan", "android": "https://dc.lft.to/lastmile_qr_scan"}, "type": "electric_scooter", "name": "3a116c0d058d8724e37d91464ac4b904", "is_reserved": 0, "lon": -77.05826133333333, "is_disabled": 0, "fusion_lat": 0.0, "lat": 38.90515766666667, "bike_id": "3a116c0d058d8724e37d91464ac4b904", "fusion_lon": 0.0}, {"rental_uris": {"ios": "https://dc.lft.to/lastmile_qr_scan", "android": "https://dc.lft.to/lastmile_qr_scan"}, "type": "electric_scooter", "name": "24a8a99c31c9b95bb87bbf386255834c", "is_reserved": 0, "lon": -77.0122325, "is_disabled": 0, "fusion_lat": 0.0, "lat": 38.900851833333334, "bike_id": "24a8a99c31c9b95bb87bbf386255834c", "fusion_lon": 0.0}, {"rental_uris": {"ios": "https://dc.lft.to/lastmile_qr_scan", "android": "https://dc.lft.to/lastmile_qr_scan"}, "type": "electric_scooter", "name": "e7c8d6b847807d2f3742ff7d225fb8a0", "is_reserved": 0, "lon": -77.0318875, "is_disabled": 0, "fusion_lat": 0.0, "lat": 38.91573433333333, "bike_id": "e7c8d6b847807d2f3742ff7d225fb8a0", "fusion_lon": 0.0}, {"rental_uris": {"ios": "https://dc.lft.to/lastmile_qr_scan", "android": "https://dc.lft.to/lastmile_qr_scan"}, "type": "electric_scooter", "name": "15282a60c0665f124c3d9860ae877d70", "is_reserved": 0, "lon": -77.03249633333333, "is_disabled": 0, "fusion_lat": 0.0, "lat": 38.905528333333336, "bike_id": "15282a60c0665f124c3d9860ae877d70", "fusion_lon": 0.0}, {"rental_uris": {"ios": "https://dc.lft.to/lastmile_qr_scan", "android": "https://dc.lft.to/lastmile_qr_scan"}, "type": "electric_bike", "name": "7f8ecfca034945c4e2ecbd65b153f6be", "is_reserved": 0, "lon": -76.91803466666667, "is_disabled": 0, "fusion_lat": 0.0, "lat": 38.99997066666667, "bike_id": "7f8ecfca034945c4e2ecbd65b153f6be", "fusion_lon": 0.0}, {"rental_uris": {"ios": "https://dc.lft.to/lastmile_qr_scan", "android": "https://dc.lft.to/lastmile_qr_scan"}, "type": "electric_scooter", "name": "4712c08b4f8b7f0aebdc55bcb6f8a609", "is_reserved": 0, "lon": -77.0179525, "is_disabled": 0, "fusion_lat": 0.0, "lat": 38.88593983333333, "bike_id": "4712c08b4f8b7f0aebdc55bcb6f8a609", "fusion_lon": 0.0}, {"rental_uris": {"ios": "https://dc.lft.to/lastmile_qr_scan", "android": "https://dc.lft.to/lastmile_qr_scan"}, "type": "electric_scooter", "name": "52ef696a62975301621c5eb086870f06", "is_reserved": 0, "lon": -77.0060765, "is_disabled": 0, "fusion_lat": 0.0, "lat": 38.871752666666666, "bike_id": "52ef696a62975301621c5eb086870f06", "fusion_lon": 0.0}, {"rental_uris": {"ios": "https://dc.lft.to/lastmile_qr_scan", "android": "https://dc.lft.to/lastmile_qr_scan"}, "type": "electric_bike", "name": "964489d61d6e125b8c160ab035c08f4d", "is_reserved": 0, "lon": -77.12978766666667, "is_disabled": 0, "fusion_lat": 0.0, "lat": 38.799833, "bike_id": "964489d61d6e125b8c160ab035c08f4d", "fusion_lon": 0.0}, {"rental_uris": {"ios": "https://dc.lft.to/lastmile_qr_scan", "android": "https://dc.lft.to/lastmile_qr_scan"}, "type": "electric_scooter", "name": "711157060ba20e4fba421b4fbd704acc", "is_reserved": 0, "lon": -76.93290983333333, "is_disabled": 0, "fusion_lat": 0.0, "lat": 38.896904666666664, "bike_id": "711157060ba20e4fba421b4fbd704acc", "fusion_lon": 0.0}, {"rental_uris": {"ios": "https://dc.lft.to/lastmile_qr_scan", "android": "https://dc.lft.to/lastmile_qr_scan"}, "type": "electric_scooter", "name": "c785a474de28cd8e827fca48dc7e5058", "is_reserved": 0, "lon": -77.0336375, "is_disabled": 0, "fusion_lat": 0.0, "lat": 38.94510533333333, "bike_id": "c785a474de28cd8e827fca48dc7e5058", "fusion_lon": 0.0}, {"rental_uris": {"ios": "https://dc.lft.to/lastmile_qr_scan", "android": "https://dc.lft.to/lastmile_qr_scan"}, "type": "electric_scooter", "name": "a5f66906d7735bc933d1a057f0c47a80", "is_reserved": 0, "lon": -76.98883566666666, "is_disabled": 0, "fusion_lat": 0.0, "lat": 38.8665635, "bike_id": "a5f66906d7735bc933d1a057f0c47a80", "fusion_lon": 0.0}, {"rental_uris": {"ios": "https://dc.lft.to/lastmile_qr_scan", "android": "https://dc.lft.to/lastmile_qr_scan"}, "type": "electric_scooter", "name": "c73632c11563437db161122ebacb8c7d", "is_reserved": 0, "lon": -76.99957483333333, "is_disabled": 0, "fusion_lat": 0.0, "lat": 38.89417383333333, "bike_id": "c73632c11563437db161122ebacb8c7d", "fusion_lon": 0.0}, {"rental_uris": {"ios": "https://dc.lft.to/lastmile_qr_scan", "android": "https://dc.lft.to/lastmile_qr_scan"}, "type": "electric_scooter", "name": "ccf5d8bb80c34dde7b7364e0cb0fe0f9", "is_reserved": 0, "lon": -76.94051633333333, "is_disabled": 0, "fusion_lat": 0.0, "lat": 38.88585033333333, "bike_id": "ccf5d8bb80c34dde7b7364e0cb0fe0f9", "fusion_lon": 0.0}, {"rental_uris": {"ios": "https://dc.lft.to/lastmile_qr_scan", "android": "https://dc.lft.to/lastmile_qr_scan"}, "type": "electric_scooter", "name": "9ef4153a80a3c21b73ed774ff620560b", "is_reserved": 0, "lon": -77.017571, "is_disabled": 0, "fusion_lat": 0.0, "lat": 38.921015, "bike_id": "9ef4153a80a3c21b73ed774ff620560b", "fusion_lon": 0.0}, {"rental_uris": {"ios": "https://dc.lft.to/lastmile_qr_scan", "android": "https://dc.lft.to/lastmile_qr_scan"}, "type": "electric_scooter", "name": "19e20026a4d7affd7ba9185a5668af47", "is_reserved": 0, "lon": -76.99510966666666, "is_disabled": 0, "fusion_lat": 0.0, "lat": 38.9097865, "bike_id": "19e20026a4d7affd7ba9185a5668af47", "fusion_lon": 0.0}, {"rental_uris": {"ios": "https://dc.lft.to/lastmile_qr_scan", "android": "https://dc.lft.to/lastmile_qr_scan"}, "type": "electric_scooter", "name": "ea4b56af76e5f430672cffdf4b7a2738", "is_reserved": 0, "lon": -76.95298716666667, "is_disabled": 0, "fusion_lat": 0.0, "lat": 38.885265, "bike_id": "ea4b56af76e5f430672cffdf4b7a2738", "fusion_lon": 0.0}, {"rental_uris": {"ios": "https://dc.lft.to/lastmile_qr_scan", "android": "https://dc.lft.to/lastmile_qr_scan"}, "type": "electric_scooter", "name": "56c2059e4f4d324cd26a40e830c4772e", "is_reserved": 0, "lon": -77.02111716666667, "is_disabled": 0, "fusion_lat": 0.0, "lat": 38.912491333333335, "bike_id": "56c2059e4f4d324cd26a40e830c4772e", "fusion_lon": 0.0}, {"rental_uris": {"ios": "https://dc.lft.to/lastmile_qr_scan", "android": "https://dc.lft.to/lastmile_qr_scan"}, "type": "electric_scooter", "name": "0702932cfc41a6590a50fcd5ac597298", "is_reserved": 0, "lon": -77.04003083333333, "is_disabled": 0, "fusion_lat": 0.0, "lat": 38.918221333333335, "bike_id": "0702932cfc41a6590a50fcd5ac597298", "fusion_lon": 0.0}, {"rental_uris": {"ios": "https://dc.lft.to/lastmile_qr_scan", "android": "https://dc.lft.to/lastmile_qr_scan"}, "type": "electric_scooter", "name": "dcab45d3ee87deb85c001128ccf81837", "is_reserved": 0, "lon": -77.0388065, "is_disabled": 0, "fusion_lat": 0.0, "lat": 38.91756316666667, "bike_id": "dcab45d3ee87deb85c001128ccf81837", "fusion_lon": 0.0}, {"rental_uris": {"ios": "https://dc.lft.to/lastmile_qr_scan", "android": "https://dc.lft.to/lastmile_qr_scan"}, "type": "electric_scooter", "name": "5c1306b5bc7ac9132b04670f7588d1c2", "is_reserved": 0, "lon": -77.00588066666667, "is_disabled": 0, "fusion_lat": 0.0, "lat": 38.87957866666667, "bike_id": "5c1306b5bc7ac9132b04670f7588d1c2", "fusion_lon": 0.0}, {"rental_uris": {"ios": "https://dc.lft.to/lastmile_qr_scan", "android": "https://dc.lft.to/lastmile_qr_scan"}, "type": "electric_scooter", "name": "3b059c018fbf8bb3288a9efdec461875", "is_reserved": 0, "lon": -77.02553466666667, "is_disabled": 0, "fusion_lat": 0.0, "lat": 38.916351666666664, "bike_id": "3b059c018fbf8bb3288a9efdec461875", "fusion_lon": 0.0}, {"rental_uris": {"ios": "https://dc.lft.to/lastmile_qr_scan", "android": "https://dc.lft.to/lastmile_qr_scan"}, "type": "electric_scooter", "name": "6a1366006b9a44be79b35f6a562c8e2f", "is_reserved": 0, "lon": -77.02832733333334, "is_disabled": 0, "fusion_lat": 0.0, "lat": 38.914042333333335, "bike_id": "6a1366006b9a44be79b35f6a562c8e2f", "fusion_lon": 0.0}, {"rental_uris": {"ios": "https://dc.lft.to/lastmile_qr_scan", "android": "https://dc.lft.to/lastmile_qr_scan"}, "type": "electric_scooter", "name": "701638a6da1fec0f8711ccc92999ae4a", "is_reserved": 0, "lon": -77.0219415, "is_disabled": 0, "fusion_lat": 0.0, "lat": 38.911258333333336, "bike_id": "701638a6da1fec0f8711ccc92999ae4a", "fusion_lon": 0.0}, {"rental_uris": {"ios": "https://dc.lft.to/lastmile_qr_scan", "android": "https://dc.lft.to/lastmile_qr_scan"}, "type": "electric_bike", "name": "c10723a05724d9c7d7cccba797d99847", "is_reserved": 0, "lon": -77.22824566666667, "is_disabled": 0, "fusion_lat": 0.0, "lat": 38.8826745, "bike_id": "c10723a05724d9c7d7cccba797d99847", "fusion_lon": 0.0}, {"rental_uris": {"ios": "https://dc.lft.to/lastmile_qr_scan", "android": "https://dc.lft.to/lastmile_qr_scan"}, "type": "electric_scooter", "name": "c8d9fe9fead61234b857216a3af8f613", "is_reserved": 0, "lon": -77.015233, "is_disabled": 0, "fusion_lat": 0.0, "lat": 38.884378, "bike_id": "c8d9fe9fead61234b857216a3af8f613", "fusion_lon": 0.0}, {"rental_uris": {"ios": "https://dc.lft.to/lastmile_qr_scan", "android": "https://dc.lft.to/lastmile_qr_scan"}, "type": "electric_scooter", "name": "40795a2d25697527faa1281d881c21c1", "is_reserved": 0, "lon": -77.03086283333333, "is_disabled": 0, "fusion_lat": 0.0, "lat": 38.93307866666667, "bike_id": "40795a2d25697527faa1281d881c21c1", "fusion_lon": 0.0}, {"rental_uris": {"ios": "https://dc.lft.to/lastmile_qr_scan", "android": "https://dc.lft.to/lastmile_qr_scan"}, "type": "electric_scooter", "name": "beaf58a43e42583b88f3e3b9677e91c3", "is_reserved": 0, "lon": -77.04333783333334, "is_disabled": 0, "fusion_lat": 0.0, "lat": 38.89221383333334, "bike_id": "beaf58a43e42583b88f3e3b9677e91c3", "fusion_lon": 0.0}, {"rental_uris": {"ios": "https://dc.lft.to/lastmile_qr_scan", "android": "https://dc.lft.to/lastmile_qr_scan"}, "type": "electric_scooter", "name": "cc84410ac41a6698bf51f80b10954923", "is_reserved": 0, "lon": -77.00776233333333, "is_disabled": 0, "fusion_lat": 0.0, "lat": 38.952423333333336, "bike_id": "cc84410ac41a6698bf51f80b10954923", "fusion_lon": 0.0}, {"rental_uris": {"ios": "https://dc.lft.to/lastmile_qr_scan", "android": "https://dc.lft.to/lastmile_qr_scan"}, "type": "electric_scooter", "name": "5789a3d8359c2f91f2f8055449c6d63a", "is_reserved": 0, "lon": -77.03554933333334, "is_disabled": 0, "fusion_lat": 0.0, "lat": 38.9046925, "bike_id": "5789a3d8359c2f91f2f8055449c6d63a", "fusion_lon": 0.0}, {"rental_uris": {"ios": "https://dc.lft.to/lastmile_qr_scan", "android": "https://dc.lft.to/lastmile_qr_scan"}, "type": "electric_scooter", "name": "40f18f83e88010eb0963bb776184d58f", "is_reserved": 0, "lon": -77.03907616666666, "is_disabled": 0, "fusion_lat": 0.0, "lat": 38.92477066666667, "bike_id": "40f18f83e88010eb0963bb776184d58f", "fusion_lon": 0.0}, {"rental_uris": {"ios": "https://dc.lft.to/lastmile_qr_scan", "android": "https://dc.lft.to/lastmile_qr_scan"}, "type": "electric_scooter", "name": "8d93f0aacb7cb770662e7249e4f615a9", "is_reserved": 0, "lon": -76.94958866666667, "is_disabled": 0, "fusion_lat": 0.0, "lat": 38.894735833333336, "bike_id": "8d93f0aacb7cb770662e7249e4f615a9", "fusion_lon": 0.0}, {"rental_uris": {"ios": "https://dc.lft.to/lastmile_qr_scan", "android": "https://dc.lft.to/lastmile_qr_scan"}, "type": "electric_scooter", "name": "fc839d929c583c9349d57f2f25d598ea", "is_reserved": 0, "lon": -77.0423705, "is_disabled": 0, "fusion_lat": 0.0, "lat": 38.92153833333333, "bike_id": "fc839d929c583c9349d57f2f25d598ea", "fusion_lon": 0.0}, {"rental_uris": {"ios": "https://dc.lft.to/lastmile_qr_scan", "android": "https://dc.lft.to/lastmile_qr_scan"}, "type": "electric_scooter", "name": "220ea513e0929a8362eef1896cc8b3f6", "is_reserved": 0, "lon": -77.0131585, "is_disabled": 0, "fusion_lat": 0.0, "lat": 38.95649866666667, "bike_id": "220ea513e0929a8362eef1896cc8b3f6", "fusion_lon": 0.0}, {"rental_uris": {"ios": "https://dc.lft.to/lastmile_qr_scan", "android": "https://dc.lft.to/lastmile_qr_scan"}, "type": "electric_scooter", "name": "824358cd1a5c2d8c44b5d5710125ed27", "is_reserved": 0, "lon": -76.93051983333334, "is_disabled": 0, "fusion_lat": 0.0, "lat": 38.88392016666667, "bike_id": "824358cd1a5c2d8c44b5d5710125ed27", "fusion_lon": 0.0}, {"rental_uris": {"ios": "https://dc.lft.to/lastmile_qr_scan", "android": "https://dc.lft.to/lastmile_qr_scan"}, "type": "electric_bike", "name": "46be0a1f1c10f5fd670ad6d85cb88693", "is_reserved": 0, "lon": -76.95158433333333, "is_disabled": 0, "fusion_lat": 0.0, "lat": 39.084321333333335, "bike_id": "46be0a1f1c10f5fd670ad6d85cb88693", "fusion_lon": 0.0}, {"rental_uris": {"ios": "https://dc.lft.to/lastmile_qr_scan", "android": "https://dc.lft.to/lastmile_qr_scan"}, "type": "electric_scooter", "name": "56e9f9318fc03abe0f16dbfb3bbf5576", "is_reserved": 0, "lon": -77.00154866666666, "is_disabled": 0, "fusion_lat": 0.0, "lat": 38.82134416666667, "bike_id": "56e9f9318fc03abe0f16dbfb3bbf5576", "fusion_lon": 0.0}, {"rental_uris": {"ios": "https://dc.lft.to/lastmile_qr_scan", "android": "https://dc.lft.to/lastmile_qr_scan"}, "type": "electric_scooter", "name": "c5935cbaeec6406dfea634de6a9c94b3", "is_reserved": 0, "lon": -77.04559683333333, "is_disabled": 0, "fusion_lat": 0.0, "lat": 38.91828683333333, "bike_id": "c5935cbaeec6406dfea634de6a9c94b3", "fusion_lon": 0.0}, {"rental_uris": {"ios": "https://dc.lft.to/lastmile_qr_scan", "android": "https://dc.lft.to/lastmile_qr_scan"}, "type": "electric_scooter", "name": "01c75618ba1bf69371a8b68d446efed5", "is_reserved": 0, "lon": -77.08780266666666, "is_disabled": 0, "fusion_lat": 0.0, "lat": 38.93559416666667, "bike_id": "01c75618ba1bf69371a8b68d446efed5", "fusion_lon": 0.0}, {"rental_uris": {"ios": "https://dc.lft.to/lastmile_qr_scan", "android": "https://dc.lft.to/lastmile_qr_scan"}, "type": "electric_scooter", "name": "70e379f3963dbed856eb911c0a98a75f", "is_reserved": 0, "lon": -77.03216883333333, "is_disabled": 0, "fusion_lat": 0.0, "lat": 38.917096666666666, "bike_id": "70e379f3963dbed856eb911c0a98a75f", "fusion_lon": 0.0}, {"rental_uris": {"ios": "https://dc.lft.to/lastmile_qr_scan", "android": "https://dc.lft.to/lastmile_qr_scan"}, "type": "electric_scooter", "name": "311f7ac95dff090c05d310bc421c8c91", "is_reserved": 0, "lon": -77.06320766666667, "is_disabled": 0, "fusion_lat": 0.0, "lat": 38.91335383333333, "bike_id": "311f7ac95dff090c05d310bc421c8c91", "fusion_lon": 0.0}, {"rental_uris": {"ios": "https://dc.lft.to/lastmile_qr_scan", "android": "https://dc.lft.to/lastmile_qr_scan"}, "type": "electric_bike", "name": "a593b1a7b18e911e69496f3f3a65d52c", "is_reserved": 0, "lon": -77.1128855, "is_disabled": 0, "fusion_lat": 0.0, "lat": 38.83102366666667, "bike_id": "a593b1a7b18e911e69496f3f3a65d52c", "fusion_lon": 0.0}, {"rental_uris": {"ios": "https://dc.lft.to/lastmile_qr_scan", "android": "https://dc.lft.to/lastmile_qr_scan"}, "type": "electric_scooter", "name": "859b7b8f724065dfb7874349604124ab", "is_reserved": 0, "lon": -77.03601783333333, "is_disabled": 0, "fusion_lat": 0.0, "lat": 38.916977333333335, "bike_id": "859b7b8f724065dfb7874349604124ab", "fusion_lon": 0.0}, {"rental_uris": {"ios": "https://dc.lft.to/lastmile_qr_scan", "android": "https://dc.lft.to/lastmile_qr_scan"}, "type": "electric_scooter", "name": "ad37d25a7650d5f38e34a82ebc46904d", "is_reserved": 0, "lon": -77.04179183333333, "is_disabled": 0, "fusion_lat": 0.0, "lat": 38.899348, "bike_id": "ad37d25a7650d5f38e34a82ebc46904d", "fusion_lon": 0.0}, {"rental_uris": {"ios": "https://dc.lft.to/lastmile_qr_scan", "android": "https://dc.lft.to/lastmile_qr_scan"}, "type": "electric_bike", "name": "312021dd3441d30ebc1e88e6e8d77282", "is_reserved": 0, "lon": -76.99324383333334, "is_disabled": 0, "fusion_lat": 0.0, "lat": 38.93247183333333, "bike_id": "312021dd3441d30ebc1e88e6e8d77282", "fusion_lon": 0.0}, {"rental_uris": {"ios": "https://dc.lft.to/lastmile_qr_scan", "android": "https://dc.lft.to/lastmile_qr_scan"}, "type": "electric_scooter", "name": "1a11fb23ed4d26f29ab5a2c7a53384db", "is_reserved": 0, "lon": -77.00747833333334, "is_disabled": 0, "fusion_lat": 0.0, "lat": 38.905807, "bike_id": "1a11fb23ed4d26f29ab5a2c7a53384db", "fusion_lon": 0.0}, {"rental_uris": {"ios": "https://dc.lft.to/lastmile_qr_scan", "android": "https://dc.lft.to/lastmile_qr_scan"}, "type": "electric_scooter", "name": "44c9270e2c3a1c8260f5307b7b41a1e8", "is_reserved": 0, "lon": -77.025276, "is_disabled": 0, "fusion_lat": 0.0, "lat": 38.901508, "bike_id": "44c9270e2c3a1c8260f5307b7b41a1e8", "fusion_lon": 0.0}, {"rental_uris": {"ios": "https://dc.lft.to/lastmile_qr_scan", "android": "https://dc.lft.to/lastmile_qr_scan"}, "type": "electric_scooter", "name": "e36c9f014782b206572a9b08b4f1644a", "is_reserved": 0, "lon": -77.0381445, "is_disabled": 0, "fusion_lat": 0.0, "lat": 38.90108516666667, "bike_id": "e36c9f014782b206572a9b08b4f1644a", "fusion_lon": 0.0}, {"rental_uris": {"ios": "https://dc.lft.to/lastmile_qr_scan", "android": "https://dc.lft.to/lastmile_qr_scan"}, "type": "electric_bike", "name": "a9e697dd0a44593820ca217e5e4699c3", "is_reserved": 0, "lon": -76.99375916666666, "is_disabled": 0, "fusion_lat": 0.0, "lat": 38.9036585, "bike_id": "a9e697dd0a44593820ca217e5e4699c3", "fusion_lon": 0.0}, {"rental_uris": {"ios": "https://dc.lft.to/lastmile_qr_scan", "android": "https://dc.lft.to/lastmile_qr_scan"}, "type": "electric_scooter", "name": "8e83ae234a1dd0d8456c8f8cb44efeaf", "is_reserved": 0, "lon": -77.02896316666667, "is_disabled": 0, "fusion_lat": 0.0, "lat": 38.916900166666665, "bike_id": "8e83ae234a1dd0d8456c8f8cb44efeaf", "fusion_lon": 0.0}, {"rental_uris": {"ios": "https://dc.lft.to/lastmile_qr_scan", "android": "https://dc.lft.to/lastmile_qr_scan"}, "type": "electric_scooter", "name": "be85a3bd6d201f2fa5dc08bcfb23b5a1", "is_reserved": 0, "lon": -77.024048, "is_disabled": 0, "fusion_lat": 0.0, "lat": 38.91601683333333, "bike_id": "be85a3bd6d201f2fa5dc08bcfb23b5a1", "fusion_lon": 0.0}, {"rental_uris": {"ios": "https://dc.lft.to/lastmile_qr_scan", "android": "https://dc.lft.to/lastmile_qr_scan"}, "type": "electric_scooter", "name": "10a4bc435a81951ffdeb947e55cb4e55", "is_reserved": 0, "lon": -77.0060765, "is_disabled": 0, "fusion_lat": 0.0, "lat": 38.91115966666667, "bike_id": "10a4bc435a81951ffdeb947e55cb4e55", "fusion_lon": 0.0}, {"rental_uris": {"ios": "https://dc.lft.to/lastmile_qr_scan", "android": "https://dc.lft.to/lastmile_qr_scan"}, "type": "electric_scooter", "name": "2c91458d96577a2170659d6e5344a3f5", "is_reserved": 0, "lon": -77.03197916666667, "is_disabled": 0, "fusion_lat": 0.0, "lat": 38.921814833333336, "bike_id": "2c91458d96577a2170659d6e5344a3f5", "fusion_lon": 0.0}, {"rental_uris": {"ios": "https://dc.lft.to/lastmile_qr_scan", "android": "https://dc.lft.to/lastmile_qr_scan"}, "type": "electric_scooter", "name": "e7f8b3334073682af44d998e833cfca9", "is_reserved": 0, "lon": -77.043742, "is_disabled": 0, "fusion_lat": 0.0, "lat": 38.897448, "bike_id": "e7f8b3334073682af44d998e833cfca9", "fusion_lon": 0.0}, {"rental_uris": {"ios": "https://dc.lft.to/lastmile_qr_scan", "android": "https://dc.lft.to/lastmile_qr_scan"}, "type": "electric_scooter", "name": "d3964b84d58554ec54d24c0ce5708473", "is_reserved": 0, "lon": -77.024762, "is_disabled": 0, "fusion_lat": 0.0, "lat": 38.918141166666665, "bike_id": "d3964b84d58554ec54d24c0ce5708473", "fusion_lon": 0.0}, {"rental_uris": {"ios": "https://dc.lft.to/lastmile_qr_scan", "android": "https://dc.lft.to/lastmile_qr_scan"}, "type": "electric_scooter", "name": "6285db74eac124de6f3b353561c71e5c", "is_reserved": 0, "lon": -77.0543995, "is_disabled": 0, "fusion_lat": 0.0, "lat": 38.89604116666667, "bike_id": "6285db74eac124de6f3b353561c71e5c", "fusion_lon": 0.0}, {"rental_uris": {"ios": "https://dc.lft.to/lastmile_qr_scan", "android": "https://dc.lft.to/lastmile_qr_scan"}, "type": "electric_scooter", "name": "e2df38169676ee0b45f3516db91fad62", "is_reserved": 0, "lon": -77.02440566666667, "is_disabled": 0, "fusion_lat": 0.0, "lat": 38.94197533333333, "bike_id": "e2df38169676ee0b45f3516db91fad62", "fusion_lon": 0.0}, {"rental_uris": {"ios": "https://dc.lft.to/lastmile_qr_scan", "android": "https://dc.lft.to/lastmile_qr_scan"}, "type": "electric_scooter", "name": "fab8bd66fd1ecbc8579436a87c4e1316", "is_reserved": 0, "lon": -77.04065533333333, "is_disabled": 0, "fusion_lat": 0.0, "lat": 38.901399, "bike_id": "fab8bd66fd1ecbc8579436a87c4e1316", "fusion_lon": 0.0}, {"rental_uris": {"ios": "https://dc.lft.to/lastmile_qr_scan", "android": "https://dc.lft.to/lastmile_qr_scan"}, "type": "electric_scooter", "name": "a7731022609ab4a41c8f073cbb0e93d4", "is_reserved": 0, "lon": -77.02296666666666, "is_disabled": 0, "fusion_lat": 0.0, "lat": 38.907592, "bike_id": "a7731022609ab4a41c8f073cbb0e93d4", "fusion_lon": 0.0}, {"rental_uris": {"ios": "https://dc.lft.to/lastmile_qr_scan", "android": "https://dc.lft.to/lastmile_qr_scan"}, "type": "electric_scooter", "name": "5f1879351e3903fb3a016e4440fa9ca8", "is_reserved": 0, "lon": -77.04663366666666, "is_disabled": 0, "fusion_lat": 0.0, "lat": 38.8962565, "bike_id": "5f1879351e3903fb3a016e4440fa9ca8", "fusion_lon": 0.0}, {"rental_uris": {"ios": "https://dc.lft.to/lastmile_qr_scan", "android": "https://dc.lft.to/lastmile_qr_scan"}, "type": "electric_scooter", "name": "0d1b7e1cae46bb30d8104f128d11c55f", "is_reserved": 0, "lon": -77.02420183333334, "is_disabled": 0, "fusion_lat": 0.0, "lat": 38.918517333333334, "bike_id": "0d1b7e1cae46bb30d8104f128d11c55f", "fusion_lon": 0.0}, {"rental_uris": {"ios": "https://dc.lft.to/lastmile_qr_scan", "android": "https://dc.lft.to/lastmile_qr_scan"}, "type": "electric_scooter", "name": "f7d402c1f0aa1e31808cc81fb4313e42", "is_reserved": 0, "lon": -77.01990133333334, "is_disabled": 0, "fusion_lat": 0.0, "lat": 38.91049266666667, "bike_id": "f7d402c1f0aa1e31808cc81fb4313e42", "fusion_lon": 0.0}, {"rental_uris": {"ios": "https://dc.lft.to/lastmile_qr_scan", "android": "https://dc.lft.to/lastmile_qr_scan"}, "type": "electric_scooter", "name": "666a534a720f65bf3b856f7d38419781", "is_reserved": 0, "lon": -77.04349633333334, "is_disabled": 0, "fusion_lat": 0.0, "lat": 38.92171316666666, "bike_id": "666a534a720f65bf3b856f7d38419781", "fusion_lon": 0.0}, {"rental_uris": {"ios": "https://dc.lft.to/lastmile_qr_scan", "android": "https://dc.lft.to/lastmile_qr_scan"}, "type": "electric_bike", "name": "67d21d80e113fc8b16d10ac48e83fef3", "is_reserved": 0, "lon": -76.9935195, "is_disabled": 0, "fusion_lat": 0.0, "lat": 38.84506366666667, "bike_id": "67d21d80e113fc8b16d10ac48e83fef3", "fusion_lon": 0.0}, {"rental_uris": {"ios": "https://dc.lft.to/lastmile_qr_scan", "android": "https://dc.lft.to/lastmile_qr_scan"}, "type": "electric_scooter", "name": "83af4ae77c8ed2cb98e509d3cac62ac2", "is_reserved": 0, "lon": -76.97328966666667, "is_disabled": 0, "fusion_lat": 0.0, "lat": 38.9040795, "bike_id": "83af4ae77c8ed2cb98e509d3cac62ac2", "fusion_lon": 0.0}, {"rental_uris": {"ios": "https://dc.lft.to/lastmile_qr_scan", "android": "https://dc.lft.to/lastmile_qr_scan"}, "type": "electric_scooter", "name": "7cbe355778a9238394b7b826b2d4c2ee", "is_reserved": 0, "lon": -76.99590816666667, "is_disabled": 0, "fusion_lat": 0.0, "lat": 38.9094285, "bike_id": "7cbe355778a9238394b7b826b2d4c2ee", "fusion_lon": 0.0}, {"rental_uris": {"ios": "https://dc.lft.to/lastmile_qr_scan", "android": "https://dc.lft.to/lastmile_qr_scan"}, "type": "electric_scooter", "name": "84132055ca0c0b2f6494e2415107441c", "is_reserved": 0, "lon": -77.04209566666667, "is_disabled": 0, "fusion_lat": 0.0, "lat": 38.9210675, "bike_id": "84132055ca0c0b2f6494e2415107441c", "fusion_lon": 0.0}, {"rental_uris": {"ios": "https://dc.lft.to/lastmile_qr_scan", "android": "https://dc.lft.to/lastmile_qr_scan"}, "type": "electric_scooter", "name": "d141e2e4381717324d5434c30eb8818f", "is_reserved": 0, "lon": -77.0012085, "is_disabled": 0, "fusion_lat": 0.0, "lat": 38.874818, "bike_id": "d141e2e4381717324d5434c30eb8818f", "fusion_lon": 0.0}, {"rental_uris": {"ios": "https://dc.lft.to/lastmile_qr_scan", "android": "https://dc.lft.to/lastmile_qr_scan"}, "type": "electric_scooter", "name": "a713ffa78d894387936b99b14aaebfdc", "is_reserved": 0, "lon": -77.01078, "is_disabled": 0, "fusion_lat": 0.0, "lat": 38.91194133333333, "bike_id": "a713ffa78d894387936b99b14aaebfdc", "fusion_lon": 0.0}, {"rental_uris": {"ios": "https://dc.lft.to/lastmile_qr_scan", "android": "https://dc.lft.to/lastmile_qr_scan"}, "type": "electric_scooter", "name": "4e14a2c4957e38df795e749ae3d8d01a", "is_reserved": 0, "lon": -77.03679966666667, "is_disabled": 0, "fusion_lat": 0.0, "lat": 38.9226785, "bike_id": "4e14a2c4957e38df795e749ae3d8d01a", "fusion_lon": 0.0}, {"rental_uris": {"ios": "https://dc.lft.to/lastmile_qr_scan", "android": "https://dc.lft.to/lastmile_qr_scan"}, "type": "electric_scooter", "name": "5db2f126aa10fc4702a94b67b57f4f56", "is_reserved": 0, "lon": -77.04210483333334, "is_disabled": 0, "fusion_lat": 0.0, "lat": 38.9112095, "bike_id": "5db2f126aa10fc4702a94b67b57f4f56", "fusion_lon": 0.0}, {"rental_uris": {"ios": "https://dc.lft.to/lastmile_qr_scan", "android": "https://dc.lft.to/lastmile_qr_scan"}, "type": "electric_scooter", "name": "19369605b756539cfdfa264f33b858f0", "is_reserved": 0, "lon": -77.00194983333333, "is_disabled": 0, "fusion_lat": 0.0, "lat": 38.90030683333333, "bike_id": "19369605b756539cfdfa264f33b858f0", "fusion_lon": 0.0}, {"rental_uris": {"ios": "https://dc.lft.to/lastmile_qr_scan", "android": "https://dc.lft.to/lastmile_qr_scan"}, "type": "electric_scooter", "name": "f059a17afd56a01d619f046e27dbc03a", "is_reserved": 0, "lon": -77.03900883333333, "is_disabled": 0, "fusion_lat": 0.0, "lat": 38.91267083333334, "bike_id": "f059a17afd56a01d619f046e27dbc03a", "fusion_lon": 0.0}, {"rental_uris": {"ios": "https://dc.lft.to/lastmile_qr_scan", "android": "https://dc.lft.to/lastmile_qr_scan"}, "type": "electric_bike", "name": "30bdf5008b4ef3fc47909bab65099063", "is_reserved": 0, "lon": -77.08142183333334, "is_disabled": 0, "fusion_lat": 0.0, "lat": 38.8229925, "bike_id": "30bdf5008b4ef3fc47909bab65099063", "fusion_lon": 0.0}, {"rental_uris": {"ios": "https://dc.lft.to/lastmile_qr_scan", "android": "https://dc.lft.to/lastmile_qr_scan"}, "type": "electric_scooter", "name": "0f7119e085e5a7146ff598b9578110f1", "is_reserved": 0, "lon": -77.03186, "is_disabled": 0, "fusion_lat": 0.0, "lat": 38.924860833333334, "bike_id": "0f7119e085e5a7146ff598b9578110f1", "fusion_lon": 0.0}, {"rental_uris": {"ios": "https://dc.lft.to/lastmile_qr_scan", "android": "https://dc.lft.to/lastmile_qr_scan"}, "type": "electric_bike", "name": "4264bb667cbb3e6d423c9d8db3638c1c", "is_reserved": 0, "lon": -76.98843283333333, "is_disabled": 0, "fusion_lat": 0.0, "lat": 38.844312, "bike_id": "4264bb667cbb3e6d423c9d8db3638c1c", "fusion_lon": 0.0}, {"rental_uris": {"ios": "https://dc.lft.to/lastmile_qr_scan", "android": "https://dc.lft.to/lastmile_qr_scan"}, "type": "electric_scooter", "name": "2456504fdbe6fc890e8401d4678c02b0", "is_reserved": 0, "lon": -77.02387916666666, "is_disabled": 0, "fusion_lat": 0.0, "lat": 38.898179166666665, "bike_id": "2456504fdbe6fc890e8401d4678c02b0", "fusion_lon": 0.0}, {"rental_uris": {"ios": "https://dc.lft.to/lastmile_qr_scan", "android": "https://dc.lft.to/lastmile_qr_scan"}, "type": "electric_scooter", "name": "2febec1cb1c6501c092eb3375c9415e2", "is_reserved": 0, "lon": -77.03881366666667, "is_disabled": 0, "fusion_lat": 0.0, "lat": 38.92505333333333, "bike_id": "2febec1cb1c6501c092eb3375c9415e2", "fusion_lon": 0.0}, {"rental_uris": {"ios": "https://dc.lft.to/lastmile_qr_scan", "android": "https://dc.lft.to/lastmile_qr_scan"}, "type": "electric_scooter", "name": "490e82ebb8ab84b80e61cf4f710f51b0", "is_reserved": 0, "lon": -77.07844533333333, "is_disabled": 0, "fusion_lat": 0.0, "lat": 38.931499333333335, "bike_id": "490e82ebb8ab84b80e61cf4f710f51b0", "fusion_lon": 0.0}, {"rental_uris": {"ios": "https://dc.lft.to/lastmile_qr_scan", "android": "https://dc.lft.to/lastmile_qr_scan"}, "type": "electric_scooter", "name": "1ab21df75542e9f837ebfed34afaed6a", "is_reserved": 0, "lon": -77.04254183333333, "is_disabled": 0, "fusion_lat": 0.0, "lat": 38.9206455, "bike_id": "1ab21df75542e9f837ebfed34afaed6a", "fusion_lon": 0.0}, {"rental_uris": {"ios": "https://dc.lft.to/lastmile_qr_scan", "android": "https://dc.lft.to/lastmile_qr_scan"}, "type": "electric_scooter", "name": "e3e90027143a41610fe338bb2d0ca6d2", "is_reserved": 0, "lon": -77.00956633333334, "is_disabled": 0, "fusion_lat": 0.0, "lat": 38.89770683333333, "bike_id": "e3e90027143a41610fe338bb2d0ca6d2", "fusion_lon": 0.0}, {"rental_uris": {"ios": "https://dc.lft.to/lastmile_qr_scan", "android": "https://dc.lft.to/lastmile_qr_scan"}, "type": "electric_bike", "name": "b2026420b6adcf545f8a619ecf172a2e", "is_reserved": 0, "lon": -77.05986516666667, "is_disabled": 0, "fusion_lat": 0.0, "lat": 38.9290555, "bike_id": "b2026420b6adcf545f8a619ecf172a2e", "fusion_lon": 0.0}, {"rental_uris": {"ios": "https://dc.lft.to/lastmile_qr_scan", "android": "https://dc.lft.to/lastmile_qr_scan"}, "type": "electric_bike", "name": "73ec54a7efca7a1833d4684d6b63e7b5", "is_reserved": 0, "lon": -76.96324766666666, "is_disabled": 0, "fusion_lat": 0.0, "lat": 38.93895366666667, "bike_id": "73ec54a7efca7a1833d4684d6b63e7b5", "fusion_lon": 0.0}, {"rental_uris": {"ios": "https://dc.lft.to/lastmile_qr_scan", "android": "https://dc.lft.to/lastmile_qr_scan"}, "type": "electric_bike", "name": "9973384f30fddb684bfb51b246fa23eb", "is_reserved": 0, "lon": -76.97010933333334, "is_disabled": 0, "fusion_lat": 0.0, "lat": 38.8636895, "bike_id": "9973384f30fddb684bfb51b246fa23eb", "fusion_lon": 0.0}, {"rental_uris": {"ios": "https://dc.lft.to/lastmile_qr_scan", "android": "https://dc.lft.to/lastmile_qr_scan"}, "type": "electric_scooter", "name": "33cbe9c979837a68a17ef4f28f2cb55b", "is_reserved": 0, "lon": -77.01965133333333, "is_disabled": 0, "fusion_lat": 0.0, "lat": 38.919024, "bike_id": "33cbe9c979837a68a17ef4f28f2cb55b", "fusion_lon": 0.0}, {"rental_uris": {"ios": "https://dc.lft.to/lastmile_qr_scan", "android": "https://dc.lft.to/lastmile_qr_scan"}, "type": "electric_scooter", "name": "4a26969865276d2f8ae7d5386ba89e1a", "is_reserved": 0, "lon": -77.0725035, "is_disabled": 0, "fusion_lat": 0.0, "lat": 38.90782516666667, "bike_id": "4a26969865276d2f8ae7d5386ba89e1a", "fusion_lon": 0.0}, {"rental_uris": {"ios": "https://dc.lft.to/lastmile_qr_scan", "android": "https://dc.lft.to/lastmile_qr_scan"}, "type": "electric_scooter", "name": "33dbfcbd9285a0cd47216ffc15a4407b", "is_reserved": 0, "lon": -76.9976035, "is_disabled": 0, "fusion_lat": 0.0, "lat": 38.921963166666664, "bike_id": "33dbfcbd9285a0cd47216ffc15a4407b", "fusion_lon": 0.0}, {"rental_uris": {"ios": "https://dc.lft.to/lastmile_qr_scan", "android": "https://dc.lft.to/lastmile_qr_scan"}, "type": "electric_scooter", "name": "d1e952ec71391cb9d7bee541890f36c1", "is_reserved": 0, "lon": -77.03147533333333, "is_disabled": 0, "fusion_lat": 0.0, "lat": 38.914133666666665, "bike_id": "d1e952ec71391cb9d7bee541890f36c1", "fusion_lon": 0.0}, {"rental_uris": {"ios": "https://dc.lft.to/lastmile_qr_scan", "android": "https://dc.lft.to/lastmile_qr_scan"}, "type": "electric_scooter", "name": "06ae497c7fdea78baa1e9bb39f05bbb1", "is_reserved": 0, "lon": -77.06286, "is_disabled": 0, "fusion_lat": 0.0, "lat": 38.91245166666667, "bike_id": "06ae497c7fdea78baa1e9bb39f05bbb1", "fusion_lon": 0.0}, {"rental_uris": {"ios": "https://dc.lft.to/lastmile_qr_scan", "android": "https://dc.lft.to/lastmile_qr_scan"}, "type": "electric_scooter", "name": "37aa3f777e59318f91f113e74db87458", "is_reserved": 0, "lon": -77.00554933333333, "is_disabled": 0, "fusion_lat": 0.0, "lat": 38.900447, "bike_id": "37aa3f777e59318f91f113e74db87458", "fusion_lon": 0.0}, {"rental_uris": {"ios": "https://dc.lft.to/lastmile_qr_scan", "android": "https://dc.lft.to/lastmile_qr_scan"}, "type": "electric_scooter", "name": "96cd0a42fb97578c0414e404ca374861", "is_reserved": 0, "lon": -77.04350933333333, "is_disabled": 0, "fusion_lat": 0.0, "lat": 38.905617, "bike_id": "96cd0a42fb97578c0414e404ca374861", "fusion_lon": 0.0}, {"rental_uris": {"ios": "https://dc.lft.to/lastmile_qr_scan", "android": "https://dc.lft.to/lastmile_qr_scan"}, "type": "electric_scooter", "name": "91d72061ca051fbfd3a19cadca2d9f0b", "is_reserved": 0, "lon": -77.02306416666667, "is_disabled": 0, "fusion_lat": 0.0, "lat": 38.92726716666667, "bike_id": "91d72061ca051fbfd3a19cadca2d9f0b", "fusion_lon": 0.0}, {"rental_uris": {"ios": "https://dc.lft.to/lastmile_qr_scan", "android": "https://dc.lft.to/lastmile_qr_scan"}, "type": "electric_scooter", "name": "4c3ac7ac2ff6e3c9dd5fa471d9efd567", "is_reserved": 0, "lon": -77.02269283333334, "is_disabled": 0, "fusion_lat": 0.0, "lat": 38.924727833333336, "bike_id": "4c3ac7ac2ff6e3c9dd5fa471d9efd567", "fusion_lon": 0.0}, {"rental_uris": {"ios": "https://dc.lft.to/lastmile_qr_scan", "android": "https://dc.lft.to/lastmile_qr_scan"}, "type": "electric_scooter", "name": "2fcc53c290861e0b645e9ad89a78f4b6", "is_reserved": 0, "lon": -77.015799, "is_disabled": 0, "fusion_lat": 0.0, "lat": 38.87664683333333, "bike_id": "2fcc53c290861e0b645e9ad89a78f4b6", "fusion_lon": 0.0}, {"rental_uris": {"ios": "https://dc.lft.to/lastmile_qr_scan", "android": "https://dc.lft.to/lastmile_qr_scan"}, "type": "electric_scooter", "name": "285ff3715660f29059cbe21320ea6431", "is_reserved": 0, "lon": -76.98085083333334, "is_disabled": 0, "fusion_lat": 0.0, "lat": 38.8895895, "bike_id": "285ff3715660f29059cbe21320ea6431", "fusion_lon": 0.0}, {"rental_uris": {"ios": "https://dc.lft.to/lastmile_qr_scan", "android": "https://dc.lft.to/lastmile_qr_scan"}, "type": "electric_scooter", "name": "31da0b234d85a506cce27622b1cf8c8a", "is_reserved": 0, "lon": -77.03694716666666, "is_disabled": 0, "fusion_lat": 0.0, "lat": 38.926391833333334, "bike_id": "31da0b234d85a506cce27622b1cf8c8a", "fusion_lon": 0.0}, {"rental_uris": {"ios": "https://dc.lft.to/lastmile_qr_scan", "android": "https://dc.lft.to/lastmile_qr_scan"}, "type": "electric_scooter", "name": "d5a3790150be334429edc58686970be4", "is_reserved": 0, "lon": -77.043371, "is_disabled": 0, "fusion_lat": 0.0, "lat": 38.907305666666666, "bike_id": "d5a3790150be334429edc58686970be4", "fusion_lon": 0.0}, {"rental_uris": {"ios": "https://dc.lft.to/lastmile_qr_scan", "android": "https://dc.lft.to/lastmile_qr_scan"}, "type": "electric_scooter", "name": "ceb02f0a688d0fa38077af4adaf63942", "is_reserved": 0, "lon": -77.05743483333333, "is_disabled": 0, "fusion_lat": 0.0, "lat": 38.933967, "bike_id": "ceb02f0a688d0fa38077af4adaf63942", "fusion_lon": 0.0}, {"rental_uris": {"ios": "https://dc.lft.to/lastmile_qr_scan", "android": "https://dc.lft.to/lastmile_qr_scan"}, "type": "electric_scooter", "name": "cf4edef06fd4cd9c5f060dc52f5b509c", "is_reserved": 0, "lon": -77.00738733333333, "is_disabled": 0, "fusion_lat": 0.0, "lat": 38.90952016666667, "bike_id": "cf4edef06fd4cd9c5f060dc52f5b509c", "fusion_lon": 0.0}, {"rental_uris": {"ios": "https://dc.lft.to/lastmile_qr_scan", "android": "https://dc.lft.to/lastmile_qr_scan"}, "type": "electric_scooter", "name": "52888ccd1a7cd33ebdb92ef024eb71b5", "is_reserved": 0, "lon": -76.99273783333334, "is_disabled": 0, "fusion_lat": 0.0, "lat": 38.9022595, "bike_id": "52888ccd1a7cd33ebdb92ef024eb71b5", "fusion_lon": 0.0}, {"rental_uris": {"ios": "https://dc.lft.to/lastmile_qr_scan", "android": "https://dc.lft.to/lastmile_qr_scan"}, "type": "electric_scooter", "name": "19de0a352bf972d9dc285aa11cdda6fc", "is_reserved": 0, "lon": -77.04489, "is_disabled": 0, "fusion_lat": 0.0, "lat": 38.919288333333334, "bike_id": "19de0a352bf972d9dc285aa11cdda6fc", "fusion_lon": 0.0}, {"rental_uris": {"ios": "https://dc.lft.to/lastmile_qr_scan", "android": "https://dc.lft.to/lastmile_qr_scan"}, "type": "electric_scooter", "name": "8fd396bb506a3d1e3136cbb2cfe43a02", "is_reserved": 0, "lon": -77.0417285, "is_disabled": 0, "fusion_lat": 0.0, "lat": 38.9173225, "bike_id": "8fd396bb506a3d1e3136cbb2cfe43a02", "fusion_lon": 0.0}, {"rental_uris": {"ios": "https://dc.lft.to/lastmile_qr_scan", "android": "https://dc.lft.to/lastmile_qr_scan"}, "type": "electric_scooter", "name": "75aaf8eeb4f235b6491a10bb47a828bf", "is_reserved": 0, "lon": -76.98045783333333, "is_disabled": 0, "fusion_lat": 0.0, "lat": 38.90755633333333, "bike_id": "75aaf8eeb4f235b6491a10bb47a828bf", "fusion_lon": 0.0}, {"rental_uris": {"ios": "https://dc.lft.to/lastmile_qr_scan", "android": "https://dc.lft.to/lastmile_qr_scan"}, "type": "electric_scooter", "name": "ac62202993826fd101660b6736df53c3", "is_reserved": 0, "lon": -77.0294955, "is_disabled": 0, "fusion_lat": 0.0, "lat": 38.904022833333336, "bike_id": "ac62202993826fd101660b6736df53c3", "fusion_lon": 0.0}, {"rental_uris": {"ios": "https://dc.lft.to/lastmile_qr_scan", "android": "https://dc.lft.to/lastmile_qr_scan"}, "type": "electric_bike", "name": "4a14f048310e973df79df7290eea1b03", "is_reserved": 0, "lon": -77.005516, "is_disabled": 0, "fusion_lat": 0.0, "lat": 38.9000575, "bike_id": "4a14f048310e973df79df7290eea1b03", "fusion_lon": 0.0}, {"rental_uris": {"ios": "https://dc.lft.to/lastmile_qr_scan", "android": "https://dc.lft.to/lastmile_qr_scan"}, "type": "electric_scooter", "name": "732ae2e413e5057b8813a8f66190ca1c", "is_reserved": 0, "lon": -77.00132616666667, "is_disabled": 0, "fusion_lat": 0.0, "lat": 38.87387716666667, "bike_id": "732ae2e413e5057b8813a8f66190ca1c", "fusion_lon": 0.0}, {"rental_uris": {"ios": "https://dc.lft.to/lastmile_qr_scan", "android": "https://dc.lft.to/lastmile_qr_scan"}, "type": "electric_scooter", "name": "66985e9029585e43828f49276912be76", "is_reserved": 0, "lon": -76.99516783333334, "is_disabled": 0, "fusion_lat": 0.0, "lat": 38.88373433333334, "bike_id": "66985e9029585e43828f49276912be76", "fusion_lon": 0.0}, {"rental_uris": {"ios": "https://dc.lft.to/lastmile_qr_scan", "android": "https://dc.lft.to/lastmile_qr_scan"}, "type": "electric_scooter", "name": "802d0d5f5df1e120d35e2a1717d40015", "is_reserved": 0, "lon": -77.02624716666666, "is_disabled": 0, "fusion_lat": 0.0, "lat": 38.89220016666667, "bike_id": "802d0d5f5df1e120d35e2a1717d40015", "fusion_lon": 0.0}, {"rental_uris": {"ios": "https://dc.lft.to/lastmile_qr_scan", "android": "https://dc.lft.to/lastmile_qr_scan"}, "type": "electric_scooter", "name": "5bec9c9eb6c90be2ce0fab491b36c644", "is_reserved": 0, "lon": -77.0034385, "is_disabled": 0, "fusion_lat": 0.0, "lat": 38.907132, "bike_id": "5bec9c9eb6c90be2ce0fab491b36c644", "fusion_lon": 0.0}, {"rental_uris": {"ios": "https://dc.lft.to/lastmile_qr_scan", "android": "https://dc.lft.to/lastmile_qr_scan"}, "type": "electric_scooter", "name": "29fa2ea4c848c0418184db4c9a34f364", "is_reserved": 0, "lon": -77.04862233333333, "is_disabled": 0, "fusion_lat": 0.0, "lat": 38.904865666666666, "bike_id": "29fa2ea4c848c0418184db4c9a34f364", "fusion_lon": 0.0}, {"rental_uris": {"ios": "https://dc.lft.to/lastmile_qr_scan", "android": "https://dc.lft.to/lastmile_qr_scan"}, "type": "electric_bike", "name": "be5119c44dec182eea93b9ea9c3568ee", "is_reserved": 0, "lon": -77.06695916666666, "is_disabled": 0, "fusion_lat": 0.0, "lat": 38.831700166666664, "bike_id": "be5119c44dec182eea93b9ea9c3568ee", "fusion_lon": 0.0}, {"rental_uris": {"ios": "https://dc.lft.to/lastmile_qr_scan", "android": "https://dc.lft.to/lastmile_qr_scan"}, "type": "electric_scooter", "name": "2c8bbd3eefd7727fd1899e2cdf6c6c60", "is_reserved": 0, "lon": -77.03663566666667, "is_disabled": 0, "fusion_lat": 0.0, "lat": 38.917171833333335, "bike_id": "2c8bbd3eefd7727fd1899e2cdf6c6c60", "fusion_lon": 0.0}, {"rental_uris": {"ios": "https://dc.lft.to/lastmile_qr_scan", "android": "https://dc.lft.to/lastmile_qr_scan"}, "type": "electric_scooter", "name": "4d8e9260dc9bc41dca0b0be64c58ba6a", "is_reserved": 0, "lon": -77.0145625, "is_disabled": 0, "fusion_lat": 0.0, "lat": 38.917645666666665, "bike_id": "4d8e9260dc9bc41dca0b0be64c58ba6a", "fusion_lon": 0.0}, {"rental_uris": {"ios": "https://dc.lft.to/lastmile_qr_scan", "android": "https://dc.lft.to/lastmile_qr_scan"}, "type": "electric_scooter", "name": "90cba8f1db83669959a4364361a3dc5a", "is_reserved": 0, "lon": -77.02596883333334, "is_disabled": 0, "fusion_lat": 0.0, "lat": 38.916912333333336, "bike_id": "90cba8f1db83669959a4364361a3dc5a", "fusion_lon": 0.0}, {"rental_uris": {"ios": "https://dc.lft.to/lastmile_qr_scan", "android": "https://dc.lft.to/lastmile_qr_scan"}, "type": "electric_scooter", "name": "4e4640525855f0b5d668da0f11c08f59", "is_reserved": 0, "lon": -77.02676433333333, "is_disabled": 0, "fusion_lat": 0.0, "lat": 38.90008516666666, "bike_id": "4e4640525855f0b5d668da0f11c08f59", "fusion_lon": 0.0}, {"rental_uris": {"ios": "https://dc.lft.to/lastmile_qr_scan", "android": "https://dc.lft.to/lastmile_qr_scan"}, "type": "electric_scooter", "name": "ed16e911e23e6b3c3a550e86dd9ccb80", "is_reserved": 0, "lon": -77.03405783333334, "is_disabled": 0, "fusion_lat": 0.0, "lat": 38.922661166666664, "bike_id": "ed16e911e23e6b3c3a550e86dd9ccb80", "fusion_lon": 0.0}, {"rental_uris": {"ios": "https://dc.lft.to/lastmile_qr_scan", "android": "https://dc.lft.to/lastmile_qr_scan"}, "type": "electric_scooter", "name": "db7b16f609f63ada7b5d736ac6a4c180", "is_reserved": 0, "lon": -77.03473083333333, "is_disabled": 0, "fusion_lat": 0.0, "lat": 38.9047615, "bike_id": "db7b16f609f63ada7b5d736ac6a4c180", "fusion_lon": 0.0}, {"rental_uris": {"ios": "https://dc.lft.to/lastmile_qr_scan", "android": "https://dc.lft.to/lastmile_qr_scan"}, "type": "electric_scooter", "name": "09a3f0036dc33afbb854d96db75de31b", "is_reserved": 0, "lon": -77.04357283333333, "is_disabled": 0, "fusion_lat": 0.0, "lat": 38.90560116666666, "bike_id": "09a3f0036dc33afbb854d96db75de31b", "fusion_lon": 0.0}, {"rental_uris": {"ios": "https://dc.lft.to/lastmile_qr_scan", "android": "https://dc.lft.to/lastmile_qr_scan"}, "type": "electric_scooter", "name": "2651cde47195e73f3d7c33e0840b28ac", "is_reserved": 0, "lon": -76.98375683333333, "is_disabled": 0, "fusion_lat": 0.0, "lat": 38.866891333333335, "bike_id": "2651cde47195e73f3d7c33e0840b28ac", "fusion_lon": 0.0}, {"rental_uris": {"ios": "https://dc.lft.to/lastmile_qr_scan", "android": "https://dc.lft.to/lastmile_qr_scan"}, "type": "electric_scooter", "name": "21984f48ba10084e26c486b65627c2c8", "is_reserved": 0, "lon": -77.09032633333334, "is_disabled": 0, "fusion_lat": 0.0, "lat": 38.95605483333333, "bike_id": "21984f48ba10084e26c486b65627c2c8", "fusion_lon": 0.0}, {"rental_uris": {"ios": "https://dc.lft.to/lastmile_qr_scan", "android": "https://dc.lft.to/lastmile_qr_scan"}, "type": "electric_scooter", "name": "cfeba6267e87bf369b1c6713cb5ecd1f", "is_reserved": 0, "lon": -77.02478466666666, "is_disabled": 0, "fusion_lat": 0.0, "lat": 38.901092, "bike_id": "cfeba6267e87bf369b1c6713cb5ecd1f", "fusion_lon": 0.0}, {"rental_uris": {"ios": "https://dc.lft.to/lastmile_qr_scan", "android": "https://dc.lft.to/lastmile_qr_scan"}, "type": "electric_scooter", "name": "935192adb0ff455231096a891f9b09bf", "is_reserved": 0, "lon": -77.04362666666667, "is_disabled": 0, "fusion_lat": 0.0, "lat": 38.892193, "bike_id": "935192adb0ff455231096a891f9b09bf", "fusion_lon": 0.0}, {"rental_uris": {"ios": "https://dc.lft.to/lastmile_qr_scan", "android": "https://dc.lft.to/lastmile_qr_scan"}, "type": "electric_scooter", "name": "ddabc0bb6ed521622d4550d096d8bd66", "is_reserved": 0, "lon": -77.01950683333334, "is_disabled": 0, "fusion_lat": 0.0, "lat": 38.92419133333333, "bike_id": "ddabc0bb6ed521622d4550d096d8bd66", "fusion_lon": 0.0}, {"rental_uris": {"ios": "https://dc.lft.to/lastmile_qr_scan", "android": "https://dc.lft.to/lastmile_qr_scan"}, "type": "electric_scooter", "name": "b4ecb61ec89e6fb167e6eb141e8fa3c2", "is_reserved": 0, "lon": -77.0369605, "is_disabled": 0, "fusion_lat": 0.0, "lat": 38.92642383333333, "bike_id": "b4ecb61ec89e6fb167e6eb141e8fa3c2", "fusion_lon": 0.0}, {"rental_uris": {"ios": "https://dc.lft.to/lastmile_qr_scan", "android": "https://dc.lft.to/lastmile_qr_scan"}, "type": "electric_bike", "name": "c08f83c6103ab1721b2547ab5bf9ca37", "is_reserved": 0, "lon": -77.12653533333334, "is_disabled": 0, "fusion_lat": 0.0, "lat": 38.819120166666664, "bike_id": "c08f83c6103ab1721b2547ab5bf9ca37", "fusion_lon": 0.0}, {"rental_uris": {"ios": "https://dc.lft.to/lastmile_qr_scan", "android": "https://dc.lft.to/lastmile_qr_scan"}, "type": "electric_scooter", "name": "83bdbe4168f53b70d2719a889559e589", "is_reserved": 0, "lon": -77.00010433333334, "is_disabled": 0, "fusion_lat": 0.0, "lat": 38.9002405, "bike_id": "83bdbe4168f53b70d2719a889559e589", "fusion_lon": 0.0}, {"rental_uris": {"ios": "https://dc.lft.to/lastmile_qr_scan", "android": "https://dc.lft.to/lastmile_qr_scan"}, "type": "electric_scooter", "name": "cd3d742464f5d8ebbdf45187bef310dd", "is_reserved": 0, "lon": -77.0358605, "is_disabled": 0, "fusion_lat": 0.0, "lat": 38.933066833333335, "bike_id": "cd3d742464f5d8ebbdf45187bef310dd", "fusion_lon": 0.0}, {"rental_uris": {"ios": "https://dc.lft.to/lastmile_qr_scan", "android": "https://dc.lft.to/lastmile_qr_scan"}, "type": "electric_scooter", "name": "8f402ce93a36e99ffc1ea9278a627a9f", "is_reserved": 0, "lon": -77.03152366666667, "is_disabled": 0, "fusion_lat": 0.0, "lat": 38.9279035, "bike_id": "8f402ce93a36e99ffc1ea9278a627a9f", "fusion_lon": 0.0}, {"rental_uris": {"ios": "https://dc.lft.to/lastmile_qr_scan", "android": "https://dc.lft.to/lastmile_qr_scan"}, "type": "electric_scooter", "name": "0cab63e490492b4174fdd2eec4a1d99f", "is_reserved": 0, "lon": -77.03318583333333, "is_disabled": 0, "fusion_lat": 0.0, "lat": 38.898826, "bike_id": "0cab63e490492b4174fdd2eec4a1d99f", "fusion_lon": 0.0}, {"rental_uris": {"ios": "https://dc.lft.to/lastmile_qr_scan", "android": "https://dc.lft.to/lastmile_qr_scan"}, "type": "electric_scooter", "name": "93579b1874256f25b666cf11fd0f9214", "is_reserved": 0, "lon": -77.04111816666666, "is_disabled": 0, "fusion_lat": 0.0, "lat": 38.902578, "bike_id": "93579b1874256f25b666cf11fd0f9214", "fusion_lon": 0.0}, {"rental_uris": {"ios": "https://dc.lft.to/lastmile_qr_scan", "android": "https://dc.lft.to/lastmile_qr_scan"}, "type": "electric_scooter", "name": "9c7b6b04d57be1ea4588859a9afd2289", "is_reserved": 0, "lon": -77.02518283333333, "is_disabled": 0, "fusion_lat": 0.0, "lat": 38.914174333333335, "bike_id": "9c7b6b04d57be1ea4588859a9afd2289", "fusion_lon": 0.0}, {"rental_uris": {"ios": "https://dc.lft.to/lastmile_qr_scan", "android": "https://dc.lft.to/lastmile_qr_scan"}, "type": "electric_scooter", "name": "ca9f04456a498c6b2e6230e4cdfce17d", "is_reserved": 0, "lon": -77.00779516666667, "is_disabled": 0, "fusion_lat": 0.0, "lat": 38.83110966666667, "bike_id": "ca9f04456a498c6b2e6230e4cdfce17d", "fusion_lon": 0.0}, {"rental_uris": {"ios": "https://dc.lft.to/lastmile_qr_scan", "android": "https://dc.lft.to/lastmile_qr_scan"}, "type": "electric_scooter", "name": "7ce916596e7ff66eab514c2d36e7cb11", "is_reserved": 0, "lon": -77.0399875, "is_disabled": 0, "fusion_lat": 0.0, "lat": 38.900113, "bike_id": "7ce916596e7ff66eab514c2d36e7cb11", "fusion_lon": 0.0}, {"rental_uris": {"ios": "https://dc.lft.to/lastmile_qr_scan", "android": "https://dc.lft.to/lastmile_qr_scan"}, "type": "electric_scooter", "name": "b3767aeb12fcf253d08d93fd8f3efdc3", "is_reserved": 0, "lon": -77.02033483333334, "is_disabled": 0, "fusion_lat": 0.0, "lat": 38.92416433333333, "bike_id": "b3767aeb12fcf253d08d93fd8f3efdc3", "fusion_lon": 0.0}, {"rental_uris": {"ios": "https://dc.lft.to/lastmile_qr_scan", "android": "https://dc.lft.to/lastmile_qr_scan"}, "type": "electric_scooter", "name": "a0d904bf5876f01d7bc8641ef5133209", "is_reserved": 0, "lon": -77.03193916666666, "is_disabled": 0, "fusion_lat": 0.0, "lat": 38.90369883333334, "bike_id": "a0d904bf5876f01d7bc8641ef5133209", "fusion_lon": 0.0}, {"rental_uris": {"ios": "https://dc.lft.to/lastmile_qr_scan", "android": "https://dc.lft.to/lastmile_qr_scan"}, "type": "electric_scooter", "name": "76617f2be79f690a88a2af15a7056400", "is_reserved": 0, "lon": -77.04300483333333, "is_disabled": 0, "fusion_lat": 0.0, "lat": 38.9230225, "bike_id": "76617f2be79f690a88a2af15a7056400", "fusion_lon": 0.0}, {"rental_uris": {"ios": "https://dc.lft.to/lastmile_qr_scan", "android": "https://dc.lft.to/lastmile_qr_scan"}, "type": "electric_scooter", "name": "7a518200e683f9152b12d6db0e2d1bc3", "is_reserved": 0, "lon": -77.00197916666667, "is_disabled": 0, "fusion_lat": 0.0, "lat": 38.90240716666667, "bike_id": "7a518200e683f9152b12d6db0e2d1bc3", "fusion_lon": 0.0}, {"rental_uris": {"ios": "https://dc.lft.to/lastmile_qr_scan", "android": "https://dc.lft.to/lastmile_qr_scan"}, "type": "electric_scooter", "name": "9c466d23ebe1f2b0e72683952b927ed4", "is_reserved": 0, "lon": -77.03184833333333, "is_disabled": 0, "fusion_lat": 0.0, "lat": 38.9149395, "bike_id": "9c466d23ebe1f2b0e72683952b927ed4", "fusion_lon": 0.0}, {"rental_uris": {"ios": "https://dc.lft.to/lastmile_qr_scan", "android": "https://dc.lft.to/lastmile_qr_scan"}, "type": "electric_scooter", "name": "126e375192b3866982e4169632d9a270", "is_reserved": 0, "lon": -77.04172666666666, "is_disabled": 0, "fusion_lat": 0.0, "lat": 38.91567033333333, "bike_id": "126e375192b3866982e4169632d9a270", "fusion_lon": 0.0}, {"rental_uris": {"ios": "https://dc.lft.to/lastmile_qr_scan", "android": "https://dc.lft.to/lastmile_qr_scan"}, "type": "electric_scooter", "name": "b6684b24c44d462553ca334eccea694f", "is_reserved": 0, "lon": -76.9943665, "is_disabled": 0, "fusion_lat": 0.0, "lat": 38.94179166666667, "bike_id": "b6684b24c44d462553ca334eccea694f", "fusion_lon": 0.0}, {"rental_uris": {"ios": "https://dc.lft.to/lastmile_qr_scan", "android": "https://dc.lft.to/lastmile_qr_scan"}, "type": "electric_scooter", "name": "723b037dc2b81de32bc0903b7bde1f11", "is_reserved": 0, "lon": -77.02973, "is_disabled": 0, "fusion_lat": 0.0, "lat": 38.92446366666667, "bike_id": "723b037dc2b81de32bc0903b7bde1f11", "fusion_lon": 0.0}, {"rental_uris": {"ios": "https://dc.lft.to/lastmile_qr_scan", "android": "https://dc.lft.to/lastmile_qr_scan"}, "type": "electric_scooter", "name": "7ea4665811dfe11de36f704cf3308603", "is_reserved": 0, "lon": -77.02286333333333, "is_disabled": 0, "fusion_lat": 0.0, "lat": 38.8949985, "bike_id": "7ea4665811dfe11de36f704cf3308603", "fusion_lon": 0.0}, {"rental_uris": {"ios": "https://dc.lft.to/lastmile_qr_scan", "android": "https://dc.lft.to/lastmile_qr_scan"}, "type": "electric_scooter", "name": "d8dd6785bc2997677ca0bdda2f2e01fe", "is_reserved": 0, "lon": -77.039571, "is_disabled": 0, "fusion_lat": 0.0, "lat": 38.902663833333335, "bike_id": "d8dd6785bc2997677ca0bdda2f2e01fe", "fusion_lon": 0.0}, {"rental_uris": {"ios": "https://dc.lft.to/lastmile_qr_scan", "android": "https://dc.lft.to/lastmile_qr_scan"}, "type": "electric_scooter", "name": "ba99060cb42e7bd39e26d136261dde3b", "is_reserved": 0, "lon": -77.0440775, "is_disabled": 0, "fusion_lat": 0.0, "lat": 38.92949766666667, "bike_id": "ba99060cb42e7bd39e26d136261dde3b", "fusion_lon": 0.0}, {"rental_uris": {"ios": "https://dc.lft.to/lastmile_qr_scan", "android": "https://dc.lft.to/lastmile_qr_scan"}, "type": "electric_scooter", "name": "51db84f760c820eae29b0a20f5690f65", "is_reserved": 0, "lon": -76.9370445, "is_disabled": 0, "fusion_lat": 0.0, "lat": 38.8901565, "bike_id": "51db84f760c820eae29b0a20f5690f65", "fusion_lon": 0.0}, {"rental_uris": {"ios": "https://dc.lft.to/lastmile_qr_scan", "android": "https://dc.lft.to/lastmile_qr_scan"}, "type": "electric_scooter", "name": "93ea0fd2e433a067f72c52b7c38ee2ff", "is_reserved": 0, "lon": -76.9699125, "is_disabled": 0, "fusion_lat": 0.0, "lat": 38.873855, "bike_id": "93ea0fd2e433a067f72c52b7c38ee2ff", "fusion_lon": 0.0}, {"rental_uris": {"ios": "https://dc.lft.to/lastmile_qr_scan", "android": "https://dc.lft.to/lastmile_qr_scan"}, "type": "electric_scooter", "name": "a8ab108d98e301c2a07aea9c0233bc09", "is_reserved": 0, "lon": -77.03836283333334, "is_disabled": 0, "fusion_lat": 0.0, "lat": 38.903884833333336, "bike_id": "a8ab108d98e301c2a07aea9c0233bc09", "fusion_lon": 0.0}, {"rental_uris": {"ios": "https://dc.lft.to/lastmile_qr_scan", "android": "https://dc.lft.to/lastmile_qr_scan"}, "type": "electric_bike", "name": "203e378587ea7edb4fd1a69d2c42889c", "is_reserved": 0, "lon": -77.0701455, "is_disabled": 0, "fusion_lat": 0.0, "lat": 38.841098, "bike_id": "203e378587ea7edb4fd1a69d2c42889c", "fusion_lon": 0.0}, {"rental_uris": {"ios": "https://dc.lft.to/lastmile_qr_scan", "android": "https://dc.lft.to/lastmile_qr_scan"}, "type": "electric_scooter", "name": "286115fa8075ad31d9f9d37f2846c3b9", "is_reserved": 0, "lon": -77.04889266666666, "is_disabled": 0, "fusion_lat": 0.0, "lat": 38.898965833333335, "bike_id": "286115fa8075ad31d9f9d37f2846c3b9", "fusion_lon": 0.0}, {"rental_uris": {"ios": "https://dc.lft.to/lastmile_qr_scan", "android": "https://dc.lft.to/lastmile_qr_scan"}, "type": "electric_scooter", "name": "296155eeb2eee7681d33d08b7a758930", "is_reserved": 0, "lon": -76.96505316666666, "is_disabled": 0, "fusion_lat": 0.0, "lat": 38.87645583333333, "bike_id": "296155eeb2eee7681d33d08b7a758930", "fusion_lon": 0.0}, {"rental_uris": {"ios": "https://dc.lft.to/lastmile_qr_scan", "android": "https://dc.lft.to/lastmile_qr_scan"}, "type": "electric_scooter", "name": "8b1e16e2609f001170b0600b2fbf370e", "is_reserved": 0, "lon": -77.04502283333333, "is_disabled": 0, "fusion_lat": 0.0, "lat": 38.89220266666667, "bike_id": "8b1e16e2609f001170b0600b2fbf370e", "fusion_lon": 0.0}, {"rental_uris": {"ios": "https://dc.lft.to/lastmile_qr_scan", "android": "https://dc.lft.to/lastmile_qr_scan"}, "type": "electric_scooter", "name": "d37025f6d506e78d448038d3d4ebfd1a", "is_reserved": 0, "lon": -77.00818333333333, "is_disabled": 0, "fusion_lat": 0.0, "lat": 38.90580933333333, "bike_id": "d37025f6d506e78d448038d3d4ebfd1a", "fusion_lon": 0.0}, {"rental_uris": {"ios": "https://dc.lft.to/lastmile_qr_scan", "android": "https://dc.lft.to/lastmile_qr_scan"}, "type": "electric_scooter", "name": "f8384b3cb7859ed300826e6ec4fc8a43", "is_reserved": 0, "lon": -77.03211133333333, "is_disabled": 0, "fusion_lat": 0.0, "lat": 38.911143833333334, "bike_id": "f8384b3cb7859ed300826e6ec4fc8a43", "fusion_lon": 0.0}, {"rental_uris": {"ios": "https://dc.lft.to/lastmile_qr_scan", "android": "https://dc.lft.to/lastmile_qr_scan"}, "type": "electric_scooter", "name": "54108cad473486087d9a58ed4f8c8f82", "is_reserved": 0, "lon": -77.02303083333334, "is_disabled": 0, "fusion_lat": 0.0, "lat": 38.91354066666667, "bike_id": "54108cad473486087d9a58ed4f8c8f82", "fusion_lon": 0.0}, {"rental_uris": {"ios": "https://dc.lft.to/lastmile_qr_scan", "android": "https://dc.lft.to/lastmile_qr_scan"}, "type": "electric_scooter", "name": "f0fb81152cc7fc6e7eeaf4ec24e63c3e", "is_reserved": 0, "lon": -77.02078266666666, "is_disabled": 0, "fusion_lat": 0.0, "lat": 38.921069, "bike_id": "f0fb81152cc7fc6e7eeaf4ec24e63c3e", "fusion_lon": 0.0}, {"rental_uris": {"ios": "https://dc.lft.to/lastmile_qr_scan", "android": "https://dc.lft.to/lastmile_qr_scan"}, "type": "electric_bike", "name": "c1573a8487bd98f7d496931b3e6ac548", "is_reserved": 0, "lon": -76.95697683333333, "is_disabled": 0, "fusion_lat": 0.0, "lat": 38.8509305, "bike_id": "c1573a8487bd98f7d496931b3e6ac548", "fusion_lon": 0.0}, {"rental_uris": {"ios": "https://dc.lft.to/lastmile_qr_scan", "android": "https://dc.lft.to/lastmile_qr_scan"}, "type": "electric_scooter", "name": "9f833ca7756caff5eed341f14f473539", "is_reserved": 0, "lon": -77.02052216666667, "is_disabled": 0, "fusion_lat": 0.0, "lat": 38.89966916666667, "bike_id": "9f833ca7756caff5eed341f14f473539", "fusion_lon": 0.0}, {"rental_uris": {"ios": "https://dc.lft.to/lastmile_qr_scan", "android": "https://dc.lft.to/lastmile_qr_scan"}, "type": "electric_scooter", "name": "1e0ce0604db3c9d1bc6a8cd38668c398", "is_reserved": 0, "lon": -77.02137533333334, "is_disabled": 0, "fusion_lat": 0.0, "lat": 38.886375, "bike_id": "1e0ce0604db3c9d1bc6a8cd38668c398", "fusion_lon": 0.0}, {"rental_uris": {"ios": "https://dc.lft.to/lastmile_qr_scan", "android": "https://dc.lft.to/lastmile_qr_scan"}, "type": "electric_scooter", "name": "7cefb3388a7a7d0b7e27482172c29a3a", "is_reserved": 0, "lon": -77.03442816666667, "is_disabled": 0, "fusion_lat": 0.0, "lat": 38.91007966666667, "bike_id": "7cefb3388a7a7d0b7e27482172c29a3a", "fusion_lon": 0.0}, {"rental_uris": {"ios": "https://dc.lft.to/lastmile_qr_scan", "android": "https://dc.lft.to/lastmile_qr_scan"}, "type": "electric_scooter", "name": "9064ab7645ea8a05ad5c146eac73f018", "is_reserved": 0, "lon": -77.02530566666667, "is_disabled": 0, "fusion_lat": 0.0, "lat": 38.91813583333333, "bike_id": "9064ab7645ea8a05ad5c146eac73f018", "fusion_lon": 0.0}, {"rental_uris": {"ios": "https://dc.lft.to/lastmile_qr_scan", "android": "https://dc.lft.to/lastmile_qr_scan"}, "type": "electric_bike", "name": "84a3a0d7f066797d74e8792251c402e9", "is_reserved": 0, "lon": -77.00753766666666, "is_disabled": 0, "fusion_lat": 0.0, "lat": 38.98105316666667, "bike_id": "84a3a0d7f066797d74e8792251c402e9", "fusion_lon": 0.0}, {"rental_uris": {"ios": "https://dc.lft.to/lastmile_qr_scan", "android": "https://dc.lft.to/lastmile_qr_scan"}, "type": "electric_scooter", "name": "7183c58cc66639f6de5eecebbf219a39", "is_reserved": 0, "lon": -77.01952983333334, "is_disabled": 0, "fusion_lat": 0.0, "lat": 38.92322883333333, "bike_id": "7183c58cc66639f6de5eecebbf219a39", "fusion_lon": 0.0}, {"rental_uris": {"ios": "https://dc.lft.to/lastmile_qr_scan", "android": "https://dc.lft.to/lastmile_qr_scan"}, "type": "electric_scooter", "name": "d4918ef96937132c7b2819785731ce8c", "is_reserved": 0, "lon": -77.02195266666666, "is_disabled": 0, "fusion_lat": 0.0, "lat": 38.8977025, "bike_id": "d4918ef96937132c7b2819785731ce8c", "fusion_lon": 0.0}, {"rental_uris": {"ios": "https://dc.lft.to/lastmile_qr_scan", "android": "https://dc.lft.to/lastmile_qr_scan"}, "type": "electric_bike", "name": "8c8bc1d2088686a1dea9f0b5af9e0db9", "is_reserved": 0, "lon": -77.09012666666666, "is_disabled": 0, "fusion_lat": 0.0, "lat": 38.9266, "bike_id": "8c8bc1d2088686a1dea9f0b5af9e0db9", "fusion_lon": 0.0}, {"rental_uris": {"ios": "https://dc.lft.to/lastmile_qr_scan", "android": "https://dc.lft.to/lastmile_qr_scan"}, "type": "electric_scooter", "name": "431939231dac9c70bac3953eaa1ed131", "is_reserved": 0, "lon": -77.012917, "is_disabled": 0, "fusion_lat": 0.0, "lat": 38.90051183333333, "bike_id": "431939231dac9c70bac3953eaa1ed131", "fusion_lon": 0.0}, {"rental_uris": {"ios": "https://dc.lft.to/lastmile_qr_scan", "android": "https://dc.lft.to/lastmile_qr_scan"}, "type": "electric_scooter", "name": "b4e8f3c2882c1190e5cb98b61b9fbf83", "is_reserved": 0, "lon": -77.00075033333333, "is_disabled": 0, "fusion_lat": 0.0, "lat": 38.90849883333333, "bike_id": "b4e8f3c2882c1190e5cb98b61b9fbf83", "fusion_lon": 0.0}, {"rental_uris": {"ios": "https://dc.lft.to/lastmile_qr_scan", "android": "https://dc.lft.to/lastmile_qr_scan"}, "type": "electric_scooter", "name": "98ab5d08796fe9b5548765a90846a28b", "is_reserved": 0, "lon": -77.01883216666667, "is_disabled": 0, "fusion_lat": 0.0, "lat": 38.87691066666667, "bike_id": "98ab5d08796fe9b5548765a90846a28b", "fusion_lon": 0.0}, {"rental_uris": {"ios": "https://dc.lft.to/lastmile_qr_scan", "android": "https://dc.lft.to/lastmile_qr_scan"}, "type": "electric_scooter", "name": "1fe71880f929a0ee71bd2beefb31c6b5", "is_reserved": 0, "lon": -77.02155616666667, "is_disabled": 0, "fusion_lat": 0.0, "lat": 38.926065, "bike_id": "1fe71880f929a0ee71bd2beefb31c6b5", "fusion_lon": 0.0}, {"rental_uris": {"ios": "https://dc.lft.to/lastmile_qr_scan", "android": "https://dc.lft.to/lastmile_qr_scan"}, "type": "electric_scooter", "name": "1eb223392860ae29b2a7a4fc56b8c579", "is_reserved": 0, "lon": -77.07071183333333, "is_disabled": 0, "fusion_lat": 0.0, "lat": 38.919365166666665, "bike_id": "1eb223392860ae29b2a7a4fc56b8c579", "fusion_lon": 0.0}, {"rental_uris": {"ios": "https://dc.lft.to/lastmile_qr_scan", "android": "https://dc.lft.to/lastmile_qr_scan"}, "type": "electric_scooter", "name": "33f971bd0b0cbb9f1458dc819b15cf3e", "is_reserved": 0, "lon": -77.02596116666666, "is_disabled": 0, "fusion_lat": 0.0, "lat": 38.916906, "bike_id": "33f971bd0b0cbb9f1458dc819b15cf3e", "fusion_lon": 0.0}, {"rental_uris": {"ios": "https://dc.lft.to/lastmile_qr_scan", "android": "https://dc.lft.to/lastmile_qr_scan"}, "type": "electric_bike", "name": "3724cefdef08f1608d0968c3000faf51", "is_reserved": 0, "lon": -77.07244266666666, "is_disabled": 0, "fusion_lat": 0.0, "lat": 38.813651166666666, "bike_id": "3724cefdef08f1608d0968c3000faf51", "fusion_lon": 0.0}, {"rental_uris": {"ios": "https://dc.lft.to/lastmile_qr_scan", "android": "https://dc.lft.to/lastmile_qr_scan"}, "type": "electric_scooter", "name": "fb68476c799a269d1f99569c4cabdeab", "is_reserved": 0, "lon": -77.00211433333334, "is_disabled": 0, "fusion_lat": 0.0, "lat": 38.894979166666666, "bike_id": "fb68476c799a269d1f99569c4cabdeab", "fusion_lon": 0.0}, {"rental_uris": {"ios": "https://dc.lft.to/lastmile_qr_scan", "android": "https://dc.lft.to/lastmile_qr_scan"}, "type": "electric_scooter", "name": "9108cc823a286090429d7a5521227a10", "is_reserved": 0, "lon": -77.0236775, "is_disabled": 0, "fusion_lat": 0.0, "lat": 38.89220266666667, "bike_id": "9108cc823a286090429d7a5521227a10", "fusion_lon": 0.0}, {"rental_uris": {"ios": "https://dc.lft.to/lastmile_qr_scan", "android": "https://dc.lft.to/lastmile_qr_scan"}, "type": "electric_scooter", "name": "cbfcedece1fca1f07e333d4a937f5958", "is_reserved": 0, "lon": -77.02465266666667, "is_disabled": 0, "fusion_lat": 0.0, "lat": 38.91992366666667, "bike_id": "cbfcedece1fca1f07e333d4a937f5958", "fusion_lon": 0.0}, {"rental_uris": {"ios": "https://dc.lft.to/lastmile_qr_scan", "android": "https://dc.lft.to/lastmile_qr_scan"}, "type": "electric_scooter", "name": "9dae12d9790072f6b494a3bfe8fbacbc", "is_reserved": 0, "lon": -77.02527483333333, "is_disabled": 0, "fusion_lat": 0.0, "lat": 38.929777, "bike_id": "9dae12d9790072f6b494a3bfe8fbacbc", "fusion_lon": 0.0}, {"rental_uris": {"ios": "https://dc.lft.to/lastmile_qr_scan", "android": "https://dc.lft.to/lastmile_qr_scan"}, "type": "electric_scooter", "name": "ae61036153866a9532da9c6560dc895a", "is_reserved": 0, "lon": -77.047379, "is_disabled": 0, "fusion_lat": 0.0, "lat": 38.90173866666667, "bike_id": "ae61036153866a9532da9c6560dc895a", "fusion_lon": 0.0}, {"rental_uris": {"ios": "https://dc.lft.to/lastmile_qr_scan", "android": "https://dc.lft.to/lastmile_qr_scan"}, "type": "electric_scooter", "name": "00d61ca4196faa271d437a64572117ec", "is_reserved": 0, "lon": -76.9432665, "is_disabled": 0, "fusion_lat": 0.0, "lat": 38.87918, "bike_id": "00d61ca4196faa271d437a64572117ec", "fusion_lon": 0.0}, {"rental_uris": {"ios": "https://dc.lft.to/lastmile_qr_scan", "android": "https://dc.lft.to/lastmile_qr_scan"}, "type": "electric_scooter", "name": "44f82c9e4934f26f75dc0bb8a9cd6c88", "is_reserved": 0, "lon": -77.0232075, "is_disabled": 0, "fusion_lat": 0.0, "lat": 38.920931, "bike_id": "44f82c9e4934f26f75dc0bb8a9cd6c88", "fusion_lon": 0.0}, {"rental_uris": {"ios": "https://dc.lft.to/lastmile_qr_scan", "android": "https://dc.lft.to/lastmile_qr_scan"}, "type": "electric_scooter", "name": "6fe405a6404d93cf0bba48d11ab24095", "is_reserved": 0, "lon": -77.03202983333334, "is_disabled": 0, "fusion_lat": 0.0, "lat": 38.903741, "bike_id": "6fe405a6404d93cf0bba48d11ab24095", "fusion_lon": 0.0}, {"rental_uris": {"ios": "https://dc.lft.to/lastmile_qr_scan", "android": "https://dc.lft.to/lastmile_qr_scan"}, "type": "electric_scooter", "name": "6c708155e4175c66f930e91a8369c1ea", "is_reserved": 0, "lon": -76.99606516666667, "is_disabled": 0, "fusion_lat": 0.0, "lat": 38.884832, "bike_id": "6c708155e4175c66f930e91a8369c1ea", "fusion_lon": 0.0}, {"rental_uris": {"ios": "https://dc.lft.to/lastmile_qr_scan", "android": "https://dc.lft.to/lastmile_qr_scan"}, "type": "electric_scooter", "name": "93ef36d41ea00c9d0aa110e82cf74ffc", "is_reserved": 0, "lon": -77.040265, "is_disabled": 0, "fusion_lat": 0.0, "lat": 38.9246575, "bike_id": "93ef36d41ea00c9d0aa110e82cf74ffc", "fusion_lon": 0.0}, {"rental_uris": {"ios": "https://dc.lft.to/lastmile_qr_scan", "android": "https://dc.lft.to/lastmile_qr_scan"}, "type": "electric_scooter", "name": "e0622cdd376bc5a5fe870928b5a965c5", "is_reserved": 0, "lon": -77.022231, "is_disabled": 0, "fusion_lat": 0.0, "lat": 38.91119066666667, "bike_id": "e0622cdd376bc5a5fe870928b5a965c5", "fusion_lon": 0.0}, {"rental_uris": {"ios": "https://dc.lft.to/lastmile_qr_scan", "android": "https://dc.lft.to/lastmile_qr_scan"}, "type": "electric_scooter", "name": "2eb566463d1411d774c233faa58298a4", "is_reserved": 0, "lon": -77.01177916666667, "is_disabled": 0, "fusion_lat": 0.0, "lat": 38.90035783333333, "bike_id": "2eb566463d1411d774c233faa58298a4", "fusion_lon": 0.0}, {"rental_uris": {"ios": "https://dc.lft.to/lastmile_qr_scan", "android": "https://dc.lft.to/lastmile_qr_scan"}, "type": "electric_scooter", "name": "abf72ac73b5dd5ede4b8299884cb8b2b", "is_reserved": 0, "lon": -77.02711783333334, "is_disabled": 0, "fusion_lat": 0.0, "lat": 38.917282166666666, "bike_id": "abf72ac73b5dd5ede4b8299884cb8b2b", "fusion_lon": 0.0}, {"rental_uris": {"ios": "https://dc.lft.to/lastmile_qr_scan", "android": "https://dc.lft.to/lastmile_qr_scan"}, "type": "electric_scooter", "name": "845ab95448ef024831d1c4c12d09a009", "is_reserved": 0, "lon": -77.04186466666667, "is_disabled": 0, "fusion_lat": 0.0, "lat": 38.89922, "bike_id": "845ab95448ef024831d1c4c12d09a009", "fusion_lon": 0.0}, {"rental_uris": {"ios": "https://dc.lft.to/lastmile_qr_scan", "android": "https://dc.lft.to/lastmile_qr_scan"}, "type": "electric_scooter", "name": "789d535dc5f583912d04112b1755c7b7", "is_reserved": 0, "lon": -77.02835833333333, "is_disabled": 0, "fusion_lat": 0.0, "lat": 38.892283666666664, "bike_id": "789d535dc5f583912d04112b1755c7b7", "fusion_lon": 0.0}, {"rental_uris": {"ios": "https://dc.lft.to/lastmile_qr_scan", "android": "https://dc.lft.to/lastmile_qr_scan"}, "type": "electric_scooter", "name": "923fe77932df2221101646f5c3beacf5", "is_reserved": 0, "lon": -77.032991, "is_disabled": 0, "fusion_lat": 0.0, "lat": 38.9205965, "bike_id": "923fe77932df2221101646f5c3beacf5", "fusion_lon": 0.0}, {"rental_uris": {"ios": "https://dc.lft.to/lastmile_qr_scan", "android": "https://dc.lft.to/lastmile_qr_scan"}, "type": "electric_scooter", "name": "915e2c949890dfa6349ee7b28b8753af", "is_reserved": 0, "lon": -77.04645783333333, "is_disabled": 0, "fusion_lat": 0.0, "lat": 38.9071915, "bike_id": "915e2c949890dfa6349ee7b28b8753af", "fusion_lon": 0.0}, {"rental_uris": {"ios": "https://dc.lft.to/lastmile_qr_scan", "android": "https://dc.lft.to/lastmile_qr_scan"}, "type": "electric_bike", "name": "fa9a116b77adc581e73dde9046f4d326", "is_reserved": 0, "lon": -76.9689295, "is_disabled": 0, "fusion_lat": 0.0, "lat": 38.8698285, "bike_id": "fa9a116b77adc581e73dde9046f4d326", "fusion_lon": 0.0}, {"rental_uris": {"ios": "https://dc.lft.to/lastmile_qr_scan", "android": "https://dc.lft.to/lastmile_qr_scan"}, "type": "electric_scooter", "name": "7a54750c91431c49cd0b8505c699926c", "is_reserved": 0, "lon": -76.98559683333333, "is_disabled": 0, "fusion_lat": 0.0, "lat": 38.859941666666664, "bike_id": "7a54750c91431c49cd0b8505c699926c", "fusion_lon": 0.0}, {"rental_uris": {"ios": "https://dc.lft.to/lastmile_qr_scan", "android": "https://dc.lft.to/lastmile_qr_scan"}, "type": "electric_scooter", "name": "d8f1f39a10f58b2206b14e7abf20dfd1", "is_reserved": 0, "lon": -77.0317455, "is_disabled": 0, "fusion_lat": 0.0, "lat": 38.91242733333333, "bike_id": "d8f1f39a10f58b2206b14e7abf20dfd1", "fusion_lon": 0.0}, {"rental_uris": {"ios": "https://dc.lft.to/lastmile_qr_scan", "android": "https://dc.lft.to/lastmile_qr_scan"}, "type": "electric_scooter", "name": "2fd575690a93a5627316e77eacdd7683", "is_reserved": 0, "lon": -77.04452316666666, "is_disabled": 0, "fusion_lat": 0.0, "lat": 38.910134, "bike_id": "2fd575690a93a5627316e77eacdd7683", "fusion_lon": 0.0}, {"rental_uris": {"ios": "https://dc.lft.to/lastmile_qr_scan", "android": "https://dc.lft.to/lastmile_qr_scan"}, "type": "electric_scooter", "name": "7ce5550423ed4dc711692add8dd97fad", "is_reserved": 0, "lon": -77.03200716666667, "is_disabled": 0, "fusion_lat": 0.0, "lat": 38.916302333333334, "bike_id": "7ce5550423ed4dc711692add8dd97fad", "fusion_lon": 0.0}, {"rental_uris": {"ios": "https://dc.lft.to/lastmile_qr_scan", "android": "https://dc.lft.to/lastmile_qr_scan"}, "type": "electric_scooter", "name": "99ffeee2b1f657df67e35d928395b87e", "is_reserved": 0, "lon": -77.03916283333334, "is_disabled": 0, "fusion_lat": 0.0, "lat": 38.901596166666664, "bike_id": "99ffeee2b1f657df67e35d928395b87e", "fusion_lon": 0.0}, {"rental_uris": {"ios": "https://dc.lft.to/lastmile_qr_scan", "android": "https://dc.lft.to/lastmile_qr_scan"}, "type": "electric_scooter", "name": "a2864110c62ee99f2f539f0d05ad734b", "is_reserved": 0, "lon": -77.03810083333333, "is_disabled": 0, "fusion_lat": 0.0, "lat": 38.933264333333334, "bike_id": "a2864110c62ee99f2f539f0d05ad734b", "fusion_lon": 0.0}, {"rental_uris": {"ios": "https://dc.lft.to/lastmile_qr_scan", "android": "https://dc.lft.to/lastmile_qr_scan"}, "type": "electric_scooter", "name": "e1b177d4a8b3680f75bbc4fa28116226", "is_reserved": 0, "lon": -77.04892466666666, "is_disabled": 0, "fusion_lat": 0.0, "lat": 38.899043, "bike_id": "e1b177d4a8b3680f75bbc4fa28116226", "fusion_lon": 0.0}, {"rental_uris": {"ios": "https://dc.lft.to/lastmile_qr_scan", "android": "https://dc.lft.to/lastmile_qr_scan"}, "type": "electric_scooter", "name": "3bb556df1a06ca4889eff7a62a76ba6e", "is_reserved": 0, "lon": -76.99165516666666, "is_disabled": 0, "fusion_lat": 0.0, "lat": 38.8981595, "bike_id": "3bb556df1a06ca4889eff7a62a76ba6e", "fusion_lon": 0.0}, {"rental_uris": {"ios": "https://dc.lft.to/lastmile_qr_scan", "android": "https://dc.lft.to/lastmile_qr_scan"}, "type": "electric_scooter", "name": "a58d09ac234a9b95486f5ed20d09802e", "is_reserved": 0, "lon": -77.03201433333334, "is_disabled": 0, "fusion_lat": 0.0, "lat": 38.915401, "bike_id": "a58d09ac234a9b95486f5ed20d09802e", "fusion_lon": 0.0}, {"rental_uris": {"ios": "https://dc.lft.to/lastmile_qr_scan", "android": "https://dc.lft.to/lastmile_qr_scan"}, "type": "electric_scooter", "name": "bf45dc8b890b2ac7308c0d50024a7f7a", "is_reserved": 0, "lon": -77.05688716666667, "is_disabled": 0, "fusion_lat": 0.0, "lat": 38.93384833333333, "bike_id": "bf45dc8b890b2ac7308c0d50024a7f7a", "fusion_lon": 0.0}, {"rental_uris": {"ios": "https://dc.lft.to/lastmile_qr_scan", "android": "https://dc.lft.to/lastmile_qr_scan"}, "type": "electric_scooter", "name": "9bbbb9337c17656a56927ab1b8101db5", "is_reserved": 0, "lon": -77.02627683333333, "is_disabled": 0, "fusion_lat": 0.0, "lat": 38.892180833333335, "bike_id": "9bbbb9337c17656a56927ab1b8101db5", "fusion_lon": 0.0}, {"rental_uris": {"ios": "https://dc.lft.to/lastmile_qr_scan", "android": "https://dc.lft.to/lastmile_qr_scan"}, "type": "electric_scooter", "name": "dbab24b4fcd544e154532f57340ec0c0", "is_reserved": 0, "lon": -77.0385235, "is_disabled": 0, "fusion_lat": 0.0, "lat": 38.916622833333335, "bike_id": "dbab24b4fcd544e154532f57340ec0c0", "fusion_lon": 0.0}, {"rental_uris": {"ios": "https://dc.lft.to/lastmile_qr_scan", "android": "https://dc.lft.to/lastmile_qr_scan"}, "type": "electric_scooter", "name": "8976926d9e17d09e67e585829d0ad8c3", "is_reserved": 0, "lon": -77.0249545, "is_disabled": 0, "fusion_lat": 0.0, "lat": 38.90177883333333, "bike_id": "8976926d9e17d09e67e585829d0ad8c3", "fusion_lon": 0.0}, {"rental_uris": {"ios": "https://dc.lft.to/lastmile_qr_scan", "android": "https://dc.lft.to/lastmile_qr_scan"}, "type": "electric_scooter", "name": "5c37d1ac42eae32b38eed7551dd709f9", "is_reserved": 0, "lon": -76.99388466666667, "is_disabled": 0, "fusion_lat": 0.0, "lat": 38.910127833333334, "bike_id": "5c37d1ac42eae32b38eed7551dd709f9", "fusion_lon": 0.0}, {"rental_uris": {"ios": "https://dc.lft.to/lastmile_qr_scan", "android": "https://dc.lft.to/lastmile_qr_scan"}, "type": "electric_scooter", "name": "ed352ebb1a22663ee96eb8b2be26c5cd", "is_reserved": 0, "lon": -77.02210866666667, "is_disabled": 0, "fusion_lat": 0.0, "lat": 38.887369, "bike_id": "ed352ebb1a22663ee96eb8b2be26c5cd", "fusion_lon": 0.0}, {"rental_uris": {"ios": "https://dc.lft.to/lastmile_qr_scan", "android": "https://dc.lft.to/lastmile_qr_scan"}, "type": "electric_scooter", "name": "d93446a09b8e4987b6ffd37c4e7db962", "is_reserved": 0, "lon": -77.022901, "is_disabled": 0, "fusion_lat": 0.0, "lat": 38.90873166666667, "bike_id": "d93446a09b8e4987b6ffd37c4e7db962", "fusion_lon": 0.0}, {"rental_uris": {"ios": "https://dc.lft.to/lastmile_qr_scan", "android": "https://dc.lft.to/lastmile_qr_scan"}, "type": "electric_scooter", "name": "c5b007359e4d0ded98253c9261a0ee2b", "is_reserved": 0, "lon": -77.02311383333333, "is_disabled": 0, "fusion_lat": 0.0, "lat": 38.917855333333335, "bike_id": "c5b007359e4d0ded98253c9261a0ee2b", "fusion_lon": 0.0}, {"rental_uris": {"ios": "https://dc.lft.to/lastmile_qr_scan", "android": "https://dc.lft.to/lastmile_qr_scan"}, "type": "electric_scooter", "name": "765671e8a8b56fd25f89ca002c832a4e", "is_reserved": 0, "lon": -77.03185783333333, "is_disabled": 0, "fusion_lat": 0.0, "lat": 38.89763583333333, "bike_id": "765671e8a8b56fd25f89ca002c832a4e", "fusion_lon": 0.0}, {"rental_uris": {"ios": "https://dc.lft.to/lastmile_qr_scan", "android": "https://dc.lft.to/lastmile_qr_scan"}, "type": "electric_scooter", "name": "b11e957e89b891b46a89cd8e6504f7ee", "is_reserved": 0, "lon": -77.03187166666666, "is_disabled": 0, "fusion_lat": 0.0, "lat": 38.90854, "bike_id": "b11e957e89b891b46a89cd8e6504f7ee", "fusion_lon": 0.0}, {"rental_uris": {"ios": "https://dc.lft.to/lastmile_qr_scan", "android": "https://dc.lft.to/lastmile_qr_scan"}, "type": "electric_scooter", "name": "cdc3d06314cef5abd9ffa9e044dbf519", "is_reserved": 0, "lon": -77.039336, "is_disabled": 0, "fusion_lat": 0.0, "lat": 38.9016395, "bike_id": "cdc3d06314cef5abd9ffa9e044dbf519", "fusion_lon": 0.0}, {"rental_uris": {"ios": "https://dc.lft.to/lastmile_qr_scan", "android": "https://dc.lft.to/lastmile_qr_scan"}, "type": "electric_scooter", "name": "33ac2be678c0f9ac435e7d6839b95bf9", "is_reserved": 0, "lon": -77.0258365, "is_disabled": 0, "fusion_lat": 0.0, "lat": 38.927916333333336, "bike_id": "33ac2be678c0f9ac435e7d6839b95bf9", "fusion_lon": 0.0}, {"rental_uris": {"ios": "https://dc.lft.to/lastmile_qr_scan", "android": "https://dc.lft.to/lastmile_qr_scan"}, "type": "electric_scooter", "name": "ac4eef987010b3ec7a943309179cc41e", "is_reserved": 0, "lon": -77.03205533333333, "is_disabled": 0, "fusion_lat": 0.0, "lat": 38.903689, "bike_id": "ac4eef987010b3ec7a943309179cc41e", "fusion_lon": 0.0}, {"rental_uris": {"ios": "https://dc.lft.to/lastmile_qr_scan", "android": "https://dc.lft.to/lastmile_qr_scan"}, "type": "electric_scooter", "name": "c7e50f2a8ac316e934d7b1121a66cd76", "is_reserved": 0, "lon": -77.02403983333333, "is_disabled": 0, "fusion_lat": 0.0, "lat": 38.91758933333333, "bike_id": "c7e50f2a8ac316e934d7b1121a66cd76", "fusion_lon": 0.0}, {"rental_uris": {"ios": "https://dc.lft.to/lastmile_qr_scan", "android": "https://dc.lft.to/lastmile_qr_scan"}, "type": "electric_scooter", "name": "a2f358f24f1a29395d6053c9cd769977", "is_reserved": 0, "lon": -77.03042583333334, "is_disabled": 0, "fusion_lat": 0.0, "lat": 38.8973365, "bike_id": "a2f358f24f1a29395d6053c9cd769977", "fusion_lon": 0.0}, {"rental_uris": {"ios": "https://dc.lft.to/lastmile_qr_scan", "android": "https://dc.lft.to/lastmile_qr_scan"}, "type": "electric_scooter", "name": "bc90d8b6bde598aaa50196cf54ed1303", "is_reserved": 0, "lon": -77.0207085, "is_disabled": 0, "fusion_lat": 0.0, "lat": 38.92292316666666, "bike_id": "bc90d8b6bde598aaa50196cf54ed1303", "fusion_lon": 0.0}, {"rental_uris": {"ios": "https://dc.lft.to/lastmile_qr_scan", "android": "https://dc.lft.to/lastmile_qr_scan"}, "type": "electric_scooter", "name": "8cd841e12d88a19df3c440fdf66abc20", "is_reserved": 0, "lon": -77.01948266666666, "is_disabled": 0, "fusion_lat": 0.0, "lat": 38.924219666666666, "bike_id": "8cd841e12d88a19df3c440fdf66abc20", "fusion_lon": 0.0}, {"rental_uris": {"ios": "https://dc.lft.to/lastmile_qr_scan", "android": "https://dc.lft.to/lastmile_qr_scan"}, "type": "electric_scooter", "name": "28245eb2a908894ffff1714bcf2324fa", "is_reserved": 0, "lon": -77.026073, "is_disabled": 0, "fusion_lat": 0.0, "lat": 38.884328833333335, "bike_id": "28245eb2a908894ffff1714bcf2324fa", "fusion_lon": 0.0}, {"rental_uris": {"ios": "https://dc.lft.to/lastmile_qr_scan", "android": "https://dc.lft.to/lastmile_qr_scan"},