{"data": {"bikes": [{"type": "electric_scooter", "fusion_lon": 0.0, "bike_id": "75e811fec766637e870e0072dd047570", "is_disabled": 0, "lat": 38.938571333333336, "rental_uris": {"ios": "https://dc.lft.to/lastmile_qr_scan", "android": "https://dc.lft.to/lastmile_qr_scan"}, "is_reserved": 0, "lon": -77.03371866666667, "fusion_lat": 0.0, "name": "75e811fec766637e870e0072dd047570"}, {"type": "electric_scooter", "fusion_lon": 0.0, "bike_id": "00c287b9f734020ce98af96e14e0f427", "is_disabled": 0, "lat": 38.903756, "rental_uris": {"ios": "https://dc.lft.to/lastmile_qr_scan", "android": "https://dc.lft.to/lastmile_qr_scan"}, "is_reserved": 0, "lon": -77.01850466666667, "fusion_lat": 0.0, "name": "00c287b9f734020ce98af96e14e0f427"}, {"type": "electric_scooter", "fusion_lon": 0.0, "bike_id": "1b0b57b2b0a586afbdd89e34e996a4f5", "is_disabled": 0, "lat": 38.927926166666666, "rental_uris": {"ios": "https://dc.lft.to/lastmile_qr_scan", "android": "https://dc.lft.to/lastmile_qr_scan"}, "is_reserved": 0, "lon": -77.0238595, "fusion_lat": 0.0, "name": "1b0b57b2b0a586afbdd89e34e996a4f5"}, {"type": "electric_scooter", "fusion_lon": 0.0, "bike_id": "47c2f057839b57af6f509afec7b42f8f", "is_disabled": 0, "lat": 38.918184333333336, "rental_uris": {"ios": "https://dc.lft.to/lastmile_qr_scan", "android": "https://dc.lft.to/lastmile_qr_scan"}, "is_reserved": 0, "lon": -77.0057175, "fusion_lat": 0.0, "name": "47c2f057839b57af6f509afec7b42f8f"}, {"type": "electric_scooter", "fusion_lon": 0.0, "bike_id": "70dadd10f2024e05709c533353cb624a", "is_disabled": 0, "lat": 38.9175675, "rental_uris": {"ios": "https://dc.lft.to/lastmile_qr_scan", "android": "https://dc.lft.to/lastmile_qr_scan"}, "is_reserved": 0, "lon": -77.04061716666666, "fusion_lat": 0.0, "name": "70dadd10f2024e05709c533353cb624a"}, {"type": "electric_scooter", "fusion_lon": 0.0, "bike_id": "fba6c8cc6d729ee4fb0a0daae3700043", "is_disabled": 0, "lat": 38.88515, "rental_uris": {"ios": "https://dc.lft.to/lastmile_qr_scan", "android": "https://dc.lft.to/lastmile_qr_scan"}, "is_reserved": 0, "lon": -77.02822066666667, "fusion_lat": 0.0, "name": "fba6c8cc6d729ee4fb0a0daae3700043"}, {"type": "electric_scooter", "fusion_lon": 0.0, "bike_id": "1e8e37594bcfaf30fa5eef328925d1f1", "is_disabled": 0, "lat": 38.907650333333336, "rental_uris": {"ios": "https://dc.lft.to/lastmile_qr_scan", "android": "https://dc.lft.to/lastmile_qr_scan"}, "is_reserved": 0, "lon": -77.0092515, "fusion_lat": 0.0, "name": "1e8e37594bcfaf30fa5eef328925d1f1"}, {"type": "electric_scooter", "fusion_lon": 0.0, "bike_id": "c17420ca47f930f2fd3c1f25ef957803", "is_disabled": 0, "lat": 38.920606166666666, "rental_uris": {"ios": "https://dc.lft.to/lastmile_qr_scan", "android": "https://dc.lft.to/lastmile_qr_scan"}, "is_reserved": 0, "lon": -77.02947716666667, "fusion_lat": 0.0, "name": "c17420ca47f930f2fd3c1f25ef957803"}, {"type": "electric_scooter", "fusion_lon": 0.0, "bike_id": "7ef13cfa9eef8c21af0237c02821bc80", "is_disabled": 0, "lat": 38.919165166666666, "rental_uris": {"ios": "https://dc.lft.to/lastmile_qr_scan", "android": "https://dc.lft.to/lastmile_qr_scan"}, "is_reserved": 0, "lon": -77.03368216666667, "fusion_lat": 0.0, "name": "7ef13cfa9eef8c21af0237c02821bc80"}, {"type": "electric_scooter", "fusion_lon": 0.0, "bike_id": "c61dffdcf111f3fec4a12730faf4378f", "is_disabled": 0, "lat": 38.892207166666665, "rental_uris": {"ios": "https://dc.lft.to/lastmile_qr_scan", "android": "https://dc.lft.to/lastmile_qr_scan"}, "is_reserved": 0, "lon": -77.02013683333334, "fusion_lat": 0.0, "name": "c61dffdcf111f3fec4a12730faf4378f"}, {"type": "electric_scooter", "fusion_lon": 0.0, "bike_id": "0413cf24a5bc53f14f50ebadc1fe503f", "is_disabled": 0, "lat": 38.92074, "rental_uris": {"ios": "https://dc.lft.to/lastmile_qr_scan", "android": "https://dc.lft.to/lastmile_qr_scan"}, "is_reserved": 0, "lon": -77.0249805, "fusion_lat": 0.0, "name": "0413cf24a5bc53f14f50ebadc1fe503f"}, {"type": "electric_bike", "fusion_lon": 0.0, "bike_id": "a829866b7e8f2d334a0c6d90e31fadb0", "is_disabled": 0, "lat": 38.86329283333333, "rental_uris": {"ios": "https://dc.lft.to/lastmile_qr_scan", "android": "https://dc.lft.to/lastmile_qr_scan"}, "is_reserved": 0, "lon": -76.98723933333333, "fusion_lat": 0.0, "name": "a829866b7e8f2d334a0c6d90e31fadb0"}, {"type": "electric_scooter", "fusion_lon": 0.0, "bike_id": "13568e8f453add6009ee1f0ce34ac415", "is_disabled": 0, "lat": 38.88363183333333, "rental_uris": {"ios": "https://dc.lft.to/lastmile_qr_scan", "android": "https://dc.lft.to/lastmile_qr_scan"}, "is_reserved": 0, "lon": -77.02448383333333, "fusion_lat": 0.0, "name": "13568e8f453add6009ee1f0ce34ac415"}, {"type": "electric_bike", "fusion_lon": 0.0, "bike_id": "fd79b7bd4bc7d4ea87eae77d342198ce", "is_disabled": 0, "lat": 39.01565083333333, "rental_uris": {"ios": "https://dc.lft.to/lastmile_qr_scan", "android": "https://dc.lft.to/lastmile_qr_scan"}, "is_reserved": 0, "lon": -77.044284, "fusion_lat": 0.0, "name": "fd79b7bd4bc7d4ea87eae77d342198ce"}, {"type": "electric_scooter", "fusion_lon": 0.0, "bike_id": "6f036aa337c9930a1f1c8c2e6bf68a48", "is_disabled": 0, "lat": 38.89268383333334, "rental_uris": {"ios": "https://dc.lft.to/lastmile_qr_scan", "android": "https://dc.lft.to/lastmile_qr_scan"}, "is_reserved": 0, "lon": -77.04206933333333, "fusion_lat": 0.0, "name": "6f036aa337c9930a1f1c8c2e6bf68a48"}, {"type": "electric_scooter", "fusion_lon": 0.0, "bike_id": "0177ed2f88ffe900ac6d52cf84ecbed0", "is_disabled": 0, "lat": 38.91566266666667, "rental_uris": {"ios": "https://dc.lft.to/lastmile_qr_scan", "android": "https://dc.lft.to/lastmile_qr_scan"}, "is_reserved": 0, "lon": -77.02006483333334, "fusion_lat": 0.0, "name": "0177ed2f88ffe900ac6d52cf84ecbed0"}, {"type": "electric_scooter", "fusion_lon": 0.0, "bike_id": "60bcb9dea63192b6c6477e660ee594f4", "is_disabled": 0, "lat": 38.9134915, "rental_uris": {"ios": "https://dc.lft.to/lastmile_qr_scan", "android": "https://dc.lft.to/lastmile_qr_scan"}, "is_reserved": 0, "lon": -77.03185783333333, "fusion_lat": 0.0, "name": "60bcb9dea63192b6c6477e660ee594f4"}, {"type": "electric_scooter", "fusion_lon": 0.0, "bike_id": "0f812318f62198380852afbfc9d7ac08", "is_disabled": 0, "lat": 38.883318833333334, "rental_uris": {"ios": "https://dc.lft.to/lastmile_qr_scan", "android": "https://dc.lft.to/lastmile_qr_scan"}, "is_reserved": 0, "lon": -77.0114285, "fusion_lat": 0.0, "name": "0f812318f62198380852afbfc9d7ac08"}, {"type": "electric_scooter", "fusion_lon": 0.0, "bike_id": "0b5f0954a66776c03eb199202bfe9018", "is_disabled": 0, "lat": 38.90358333333333, "rental_uris": {"ios": "https://dc.lft.to/lastmile_qr_scan", "android": "https://dc.lft.to/lastmile_qr_scan"}, "is_reserved": 0, "lon": -77.04344116666667, "fusion_lat": 0.0, "name": "0b5f0954a66776c03eb199202bfe9018"}, {"type": "electric_scooter", "fusion_lon": 0.0, "bike_id": "3c473c6376f13e6dfab0b9869cb2d31b", "is_disabled": 0, "lat": 38.878589833333336, "rental_uris": {"ios": "https://dc.lft.to/lastmile_qr_scan", "android": "https://dc.lft.to/lastmile_qr_scan"}, "is_reserved": 0, "lon": -76.98927533333334, "fusion_lat": 0.0, "name": "3c473c6376f13e6dfab0b9869cb2d31b"}, {"type": "electric_scooter", "fusion_lon": 0.0, "bike_id": "9488efb88b2af581379e20b6dc40ef59", "is_disabled": 0, "lat": 38.9266085, "rental_uris": {"ios": "https://dc.lft.to/lastmile_qr_scan", "android": "https://dc.lft.to/lastmile_qr_scan"}, "is_reserved": 0, "lon": -77.03709266666667, "fusion_lat": 0.0, "name": "9488efb88b2af581379e20b6dc40ef59"}, {"type": "electric_scooter", "fusion_lon": 0.0, "bike_id": "a43e00682ab37e62b5e92f4a42f7fc24", "is_disabled": 0, "lat": 38.943065833333335, "rental_uris": {"ios": "https://dc.lft.to/lastmile_qr_scan", "android": "https://dc.lft.to/lastmile_qr_scan"}, "is_reserved": 0, "lon": -77.06169283333334, "fusion_lat": 0.0, "name": "a43e00682ab37e62b5e92f4a42f7fc24"}, {"type": "electric_scooter", "fusion_lon": 0.0, "bike_id": "6a6ed2aeb3f41e9224fb21152d07530e", "is_disabled": 0, "lat": 38.9239665, "rental_uris": {"ios": "https://dc.lft.to/lastmile_qr_scan", "android": "https://dc.lft.to/lastmile_qr_scan"}, "is_reserved": 0, "lon": -77.02974483333334, "fusion_lat": 0.0, "name": "6a6ed2aeb3f41e9224fb21152d07530e"}, {"type": "electric_scooter", "fusion_lon": 0.0, "bike_id": "fb046bec45a98daba90b0fd64cf05f9d", "is_disabled": 0, "lat": 38.90677616666667, "rental_uris": {"ios": "https://dc.lft.to/lastmile_qr_scan", "android": "https://dc.lft.to/lastmile_qr_scan"}, "is_reserved": 0, "lon": -77.02190933333333, "fusion_lat": 0.0, "name": "fb046bec45a98daba90b0fd64cf05f9d"}, {"type": "electric_scooter", "fusion_lon": 0.0, "bike_id": "424d857348d9ce46c225f7314ee28d6d", "is_disabled": 0, "lat": 38.90795083333333, "rental_uris": {"ios": "https://dc.lft.to/lastmile_qr_scan", "android": "https://dc.lft.to/lastmile_qr_scan"}, "is_reserved": 0, "lon": -77.000501, "fusion_lat": 0.0, "name": "424d857348d9ce46c225f7314ee28d6d"}, {"type": "electric_scooter", "fusion_lon": 0.0, "bike_id": "b99b304123ade84735e9aab544f4deca", "is_disabled": 0, "lat": 38.8922395, "rental_uris": {"ios": "https://dc.lft.to/lastmile_qr_scan", "android": "https://dc.lft.to/lastmile_qr_scan"}, "is_reserved": 0, "lon": -77.04502916666667, "fusion_lat": 0.0, "name": "b99b304123ade84735e9aab544f4deca"}, {"type": "electric_scooter", "fusion_lon": 0.0, "bike_id": "849158baeb22dff50532b826989b8f7f", "is_disabled": 0, "lat": 38.8991195, "rental_uris": {"ios": "https://dc.lft.to/lastmile_qr_scan", "android": "https://dc.lft.to/lastmile_qr_scan"}, "is_reserved": 0, "lon": -77.02799083333333, "fusion_lat": 0.0, "name": "849158baeb22dff50532b826989b8f7f"}, {"type": "electric_scooter", "fusion_lon": 0.0, "bike_id": "e18d7c7809e7a8946ac64a10d41d1b34", "is_disabled": 0, "lat": 38.899385333333335, "rental_uris": {"ios": "https://dc.lft.to/lastmile_qr_scan", "android": "https://dc.lft.to/lastmile_qr_scan"}, "is_reserved": 0, "lon": -77.044792, "fusion_lat": 0.0, "name": "e18d7c7809e7a8946ac64a10d41d1b34"}, {"type": "electric_scooter", "fusion_lon": 0.0, "bike_id": "61b056f8fe3e09eaf5c87e4f54e3fbe7", "is_disabled": 0, "lat": 38.918248166666665, "rental_uris": {"ios": "https://dc.lft.to/lastmile_qr_scan", "android": "https://dc.lft.to/lastmile_qr_scan"}, "is_reserved": 0, "lon": -77.03443733333333, "fusion_lat": 0.0, "name": "61b056f8fe3e09eaf5c87e4f54e3fbe7"}, {"type": "electric_scooter", "fusion_lon": 0.0, "bike_id": "caf57f619037cdac6774256d0377dcf3", "is_disabled": 0, "lat": 38.92031683333333, "rental_uris": {"ios": "https://dc.lft.to/lastmile_qr_scan", "android": "https://dc.lft.to/lastmile_qr_scan"}, "is_reserved": 0, "lon": -77.010326, "fusion_lat": 0.0, "name": "caf57f619037cdac6774256d0377dcf3"}, {"type": "electric_scooter", "fusion_lon": 0.0, "bike_id": "488bc61f6d194734d5bd13444209ed58", "is_disabled": 0, "lat": 38.9372, "rental_uris": {"ios": "https://dc.lft.to/lastmile_qr_scan", "android": "https://dc.lft.to/lastmile_qr_scan"}, "is_reserved": 0, "lon": -77.0191215, "fusion_lat": 0.0, "name": "488bc61f6d194734d5bd13444209ed58"}, {"type": "electric_scooter", "fusion_lon": 0.0, "bike_id": "d285805fca172ae9381acccc0af66f0a", "is_disabled": 0, "lat": 38.920900333333336, "rental_uris": {"ios": "https://dc.lft.to/lastmile_qr_scan", "android": "https://dc.lft.to/lastmile_qr_scan"}, "is_reserved": 0, "lon": -77.042161, "fusion_lat": 0.0, "name": "d285805fca172ae9381acccc0af66f0a"}, {"type": "electric_scooter", "fusion_lon": 0.0, "bike_id": "dcbb6d4fded0ce62a98f036185e1ef97", "is_disabled": 0, "lat": 38.9000845, "rental_uris": {"ios": "https://dc.lft.to/lastmile_qr_scan", "android": "https://dc.lft.to/lastmile_qr_scan"}, "is_reserved": 0, "lon": -77.00573233333333, "fusion_lat": 0.0, "name": "dcbb6d4fded0ce62a98f036185e1ef97"}, {"type": "electric_scooter", "fusion_lon": 0.0, "bike_id": "600d1c9da1e90c17505442f1b76ba30f", "is_disabled": 0, "lat": 38.94094316666666, "rental_uris": {"ios": "https://dc.lft.to/lastmile_qr_scan", "android": "https://dc.lft.to/lastmile_qr_scan"}, "is_reserved": 0, "lon": -77.02647316666666, "fusion_lat": 0.0, "name": "600d1c9da1e90c17505442f1b76ba30f"}, {"type": "electric_scooter", "fusion_lon": 0.0, "bike_id": "6c8c6004c5291cc88e19831b718c7155", "is_disabled": 0, "lat": 38.918689, "rental_uris": {"ios": "https://dc.lft.to/lastmile_qr_scan", "android": "https://dc.lft.to/lastmile_qr_scan"}, "is_reserved": 0, "lon": -77.043807, "fusion_lat": 0.0, "name": "6c8c6004c5291cc88e19831b718c7155"}, {"type": "electric_scooter", "fusion_lon": 0.0, "bike_id": "8ad5a8ed547994fe757192581c7c2e29", "is_disabled": 0, "lat": 38.915483, "rental_uris": {"ios": "https://dc.lft.to/lastmile_qr_scan", "android": "https://dc.lft.to/lastmile_qr_scan"}, "is_reserved": 0, "lon": -77.03844083333334, "fusion_lat": 0.0, "name": "8ad5a8ed547994fe757192581c7c2e29"}, {"type": "electric_scooter", "fusion_lon": 0.0, "bike_id": "8b63b9c7f90fce679adbf5436ce26355", "is_disabled": 0, "lat": 38.89220366666667, "rental_uris": {"ios": "https://dc.lft.to/lastmile_qr_scan", "android": "https://dc.lft.to/lastmile_qr_scan"}, "is_reserved": 0, "lon": -77.0237205, "fusion_lat": 0.0, "name": "8b63b9c7f90fce679adbf5436ce26355"}, {"type": "electric_scooter", "fusion_lon": 0.0, "bike_id": "b3db3234f0bc07350446d30f7de0984e", "is_disabled": 0, "lat": 38.90394366666666, "rental_uris": {"ios": "https://dc.lft.to/lastmile_qr_scan", "android": "https://dc.lft.to/lastmile_qr_scan"}, "is_reserved": 0, "lon": -77.06807833333333, "fusion_lat": 0.0, "name": "b3db3234f0bc07350446d30f7de0984e"}, {"type": "electric_scooter", "fusion_lon": 0.0, "bike_id": "7bffdabfda7c16b6e4b2c134784654f8", "is_disabled": 0, "lat": 38.935347, "rental_uris": {"ios": "https://dc.lft.to/lastmile_qr_scan", "android": "https://dc.lft.to/lastmile_qr_scan"}, "is_reserved": 0, "lon": -77.02357183333334, "fusion_lat": 0.0, "name": "7bffdabfda7c16b6e4b2c134784654f8"}, {"type": "electric_scooter", "fusion_lon": 0.0, "bike_id": "4f3dab1962e66a47b106f656827b8e43", "is_disabled": 0, "lat": 38.935289166666664, "rental_uris": {"ios": "https://dc.lft.to/lastmile_qr_scan", "android": "https://dc.lft.to/lastmile_qr_scan"}, "is_reserved": 0, "lon": -77.03491766666667, "fusion_lat": 0.0, "name": "4f3dab1962e66a47b106f656827b8e43"}, {"type": "electric_scooter", "fusion_lon": 0.0, "bike_id": "647ffaa618dad15a0780014b57524e8a", "is_disabled": 0, "lat": 38.90012616666667, "rental_uris": {"ios": "https://dc.lft.to/lastmile_qr_scan", "android": "https://dc.lft.to/lastmile_qr_scan"}, "is_reserved": 0, "lon": -76.98895833333333, "fusion_lat": 0.0, "name": "647ffaa618dad15a0780014b57524e8a"}, {"type": "electric_scooter", "fusion_lon": 0.0, "bike_id": "589c80e3f1a11bf561fd720b0c7449e4", "is_disabled": 0, "lat": 38.892245, "rental_uris": {"ios": "https://dc.lft.to/lastmile_qr_scan", "android": "https://dc.lft.to/lastmile_qr_scan"}, "is_reserved": 0, "lon": -77.04687866666667, "fusion_lat": 0.0, "name": "589c80e3f1a11bf561fd720b0c7449e4"}, {"type": "electric_scooter", "fusion_lon": 0.0, "bike_id": "6d75b1b6fbfdb0f22505f0fb0b2cfdaf", "is_disabled": 0, "lat": 38.9246305, "rental_uris": {"ios": "https://dc.lft.to/lastmile_qr_scan", "android": "https://dc.lft.to/lastmile_qr_scan"}, "is_reserved": 0, "lon": -77.05233266666667, "fusion_lat": 0.0, "name": "6d75b1b6fbfdb0f22505f0fb0b2cfdaf"}, {"type": "electric_scooter", "fusion_lon": 0.0, "bike_id": "ca68c699135e145624bd2220b59d1240", "is_disabled": 0, "lat": 38.9228595, "rental_uris": {"ios": "https://dc.lft.to/lastmile_qr_scan", "android": "https://dc.lft.to/lastmile_qr_scan"}, "is_reserved": 0, "lon": -77.027133, "fusion_lat": 0.0, "name": "ca68c699135e145624bd2220b59d1240"}, {"type": "electric_scooter", "fusion_lon": 0.0, "bike_id": "20b01460cbc8808764d70cab4c7898db", "is_disabled": 0, "lat": 38.900560166666665, "rental_uris": {"ios": "https://dc.lft.to/lastmile_qr_scan", "android": "https://dc.lft.to/lastmile_qr_scan"}, "is_reserved": 0, "lon": -76.9983335, "fusion_lat": 0.0, "name": "20b01460cbc8808764d70cab4c7898db"}, {"type": "electric_scooter", "fusion_lon": 0.0, "bike_id": "481979dec0ff403cddb83e8a5f3f6334", "is_disabled": 0, "lat": 38.92710433333333, "rental_uris": {"ios": "https://dc.lft.to/lastmile_qr_scan", "android": "https://dc.lft.to/lastmile_qr_scan"}, "is_reserved": 0, "lon": -77.023424, "fusion_lat": 0.0, "name": "481979dec0ff403cddb83e8a5f3f6334"}, {"type": "electric_scooter", "fusion_lon": 0.0, "bike_id": "f9cc18b73b0da217572eb24a805610a4", "is_disabled": 0, "lat": 38.9196385, "rental_uris": {"ios": "https://dc.lft.to/lastmile_qr_scan", "android": "https://dc.lft.to/lastmile_qr_scan"}, "is_reserved": 0, "lon": -77.02710683333333, "fusion_lat": 0.0, "name": "f9cc18b73b0da217572eb24a805610a4"}, {"type": "electric_scooter", "fusion_lon": 0.0, "bike_id": "c9c0209119844589edded2eeddeac591", "is_disabled": 0, "lat": 38.9294605, "rental_uris": {"ios": "https://dc.lft.to/lastmile_qr_scan", "android": "https://dc.lft.to/lastmile_qr_scan"}, "is_reserved": 0, "lon": -77.055109, "fusion_lat": 0.0, "name": "c9c0209119844589edded2eeddeac591"}, {"type": "electric_scooter", "fusion_lon": 0.0, "bike_id": "dc32a6aab210b284f1d52e3b556bc1da", "is_disabled": 0, "lat": 38.917642666666666, "rental_uris": {"ios": "https://dc.lft.to/lastmile_qr_scan", "android": "https://dc.lft.to/lastmile_qr_scan"}, "is_reserved": 0, "lon": -77.02346683333333, "fusion_lat": 0.0, "name": "dc32a6aab210b284f1d52e3b556bc1da"}, {"type": "electric_scooter", "fusion_lon": 0.0, "bike_id": "979064c2e26f58470752b164e35abaa8", "is_disabled": 0, "lat": 38.9110775, "rental_uris": {"ios": "https://dc.lft.to/lastmile_qr_scan", "android": "https://dc.lft.to/lastmile_qr_scan"}, "is_reserved": 0, "lon": -77.03831633333333, "fusion_lat": 0.0, "name": "979064c2e26f58470752b164e35abaa8"}, {"type": "electric_scooter", "fusion_lon": 0.0, "bike_id": "e071849032734d8c385458ba1ff06d30", "is_disabled": 0, "lat": 38.89506383333333, "rental_uris": {"ios": "https://dc.lft.to/lastmile_qr_scan", "android": "https://dc.lft.to/lastmile_qr_scan"}, "is_reserved": 0, "lon": -77.003317, "fusion_lat": 0.0, "name": "e071849032734d8c385458ba1ff06d30"}, {"type": "electric_scooter", "fusion_lon": 0.0, "bike_id": "ba5be3d163d1d1f82b04ad61592c58fb", "is_disabled": 0, "lat": 38.9384325, "rental_uris": {"ios": "https://dc.lft.to/lastmile_qr_scan", "android": "https://dc.lft.to/lastmile_qr_scan"}, "is_reserved": 0, "lon": -77.03388083333333, "fusion_lat": 0.0, "name": "ba5be3d163d1d1f82b04ad61592c58fb"}, {"type": "electric_scooter", "fusion_lon": 0.0, "bike_id": "683bbaf9946a884593c0e856d90bcfef", "is_disabled": 0, "lat": 38.91036616666667, "rental_uris": {"ios": "https://dc.lft.to/lastmile_qr_scan", "android": "https://dc.lft.to/lastmile_qr_scan"}, "is_reserved": 0, "lon": -77.04848, "fusion_lat": 0.0, "name": "683bbaf9946a884593c0e856d90bcfef"}, {"type": "electric_scooter", "fusion_lon": 0.0, "bike_id": "277aa6ec96e974998990e63828dd4d3a", "is_disabled": 0, "lat": 38.89727533333333, "rental_uris": {"ios": "https://dc.lft.to/lastmile_qr_scan", "android": "https://dc.lft.to/lastmile_qr_scan"}, "is_reserved": 0, "lon": -77.04745083333333, "fusion_lat": 0.0, "name": "277aa6ec96e974998990e63828dd4d3a"}, {"type": "electric_scooter", "fusion_lon": 0.0, "bike_id": "09c06537bea7c0ec8abf4396432bcb1d", "is_disabled": 0, "lat": 38.90532066666667, "rental_uris": {"ios": "https://dc.lft.to/lastmile_qr_scan", "android": "https://dc.lft.to/lastmile_qr_scan"}, "is_reserved": 0, "lon": -77.029768, "fusion_lat": 0.0, "name": "09c06537bea7c0ec8abf4396432bcb1d"}, {"type": "electric_scooter", "fusion_lon": 0.0, "bike_id": "3fcc7ad6b10386a525dc2d083796491a", "is_disabled": 0, "lat": 38.90750033333333, "rental_uris": {"ios": "https://dc.lft.to/lastmile_qr_scan", "android": "https://dc.lft.to/lastmile_qr_scan"}, "is_reserved": 0, "lon": -77.00088366666667, "fusion_lat": 0.0, "name": "3fcc7ad6b10386a525dc2d083796491a"}, {"type": "electric_scooter", "fusion_lon": 0.0, "bike_id": "f36b571d44b8ab6f0e12f3d889689e5b", "is_disabled": 0, "lat": 38.92437183333333, "rental_uris": {"ios": "https://dc.lft.to/lastmile_qr_scan", "android": "https://dc.lft.to/lastmile_qr_scan"}, "is_reserved": 0, "lon": -77.0203045, "fusion_lat": 0.0, "name": "f36b571d44b8ab6f0e12f3d889689e5b"}, {"type": "electric_scooter", "fusion_lon": 0.0, "bike_id": "587c137889100602d2b6b46d32dfc4c0", "is_disabled": 0, "lat": 38.91057716666667, "rental_uris": {"ios": "https://dc.lft.to/lastmile_qr_scan", "android": "https://dc.lft.to/lastmile_qr_scan"}, "is_reserved": 0, "lon": -77.02657316666667, "fusion_lat": 0.0, "name": "587c137889100602d2b6b46d32dfc4c0"}, {"type": "electric_scooter", "fusion_lon": 0.0, "bike_id": "cf99941d78c1493124ab6b3873c1b1fe", "is_disabled": 0, "lat": 38.85947083333333, "rental_uris": {"ios": "https://dc.lft.to/lastmile_qr_scan", "android": "https://dc.lft.to/lastmile_qr_scan"}, "is_reserved": 0, "lon": -76.95877916666667, "fusion_lat": 0.0, "name": "cf99941d78c1493124ab6b3873c1b1fe"}, {"type": "electric_scooter", "fusion_lon": 0.0, "bike_id": "8e649a2361f61391e68fc98b21ec6506", "is_disabled": 0, "lat": 38.920849, "rental_uris": {"ios": "https://dc.lft.to/lastmile_qr_scan", "android": "https://dc.lft.to/lastmile_qr_scan"}, "is_reserved": 0, "lon": -77.0230215, "fusion_lat": 0.0, "name": "8e649a2361f61391e68fc98b21ec6506"}, {"type": "electric_scooter", "fusion_lon": 0.0, "bike_id": "3a716e1587d1d6479d08e091c20311b5", "is_disabled": 0, "lat": 38.921099166666664, "rental_uris": {"ios": "https://dc.lft.to/lastmile_qr_scan", "android": "https://dc.lft.to/lastmile_qr_scan"}, "is_reserved": 0, "lon": -77.0483145, "fusion_lat": 0.0, "name": "3a716e1587d1d6479d08e091c20311b5"}, {"type": "electric_scooter", "fusion_lon": 0.0, "bike_id": "040c493d18fbe07aa17977b8472a6c70", "is_disabled": 0, "lat": 38.93223016666666, "rental_uris": {"ios": "https://dc.lft.to/lastmile_qr_scan", "android": "https://dc.lft.to/lastmile_qr_scan"}, "is_reserved": 0, "lon": -77.02384383333333, "fusion_lat": 0.0, "name": "040c493d18fbe07aa17977b8472a6c70"}, {"type": "electric_scooter", "fusion_lon": 0.0, "bike_id": "a3d20645fd76387e7c3ec87c3ff53f38", "is_disabled": 0, "lat": 38.92506683333333, "rental_uris": {"ios": "https://dc.lft.to/lastmile_qr_scan", "android": "https://dc.lft.to/lastmile_qr_scan"}, "is_reserved": 0, "lon": -77.021642, "fusion_lat": 0.0, "name": "a3d20645fd76387e7c3ec87c3ff53f38"}, {"type": "electric_scooter", "fusion_lon": 0.0, "bike_id": "cfcff4b8788ec6ca18e2c8ebda226a70", "is_disabled": 0, "lat": 38.90642716666667, "rental_uris": {"ios": "https://dc.lft.to/lastmile_qr_scan", "android": "https://dc.lft.to/lastmile_qr_scan"}, "is_reserved": 0, "lon": -77.01134516666667, "fusion_lat": 0.0, "name": "cfcff4b8788ec6ca18e2c8ebda226a70"}, {"type": "electric_scooter", "fusion_lon": 0.0, "bike_id": "87bec2df4a98bd91fce6b3a93983cf2a", "is_disabled": 0, "lat": 38.91462666666666, "rental_uris": {"ios": "https://dc.lft.to/lastmile_qr_scan", "android": "https://dc.lft.to/lastmile_qr_scan"}, "is_reserved": 0, "lon": -77.01485483333333, "fusion_lat": 0.0, "name": "87bec2df4a98bd91fce6b3a93983cf2a"}, {"type": "electric_scooter", "fusion_lon": 0.0, "bike_id": "cab36926a707caecea00d024d70e72d8", "is_disabled": 0, "lat": 38.94412416666667, "rental_uris": {"ios": "https://dc.lft.to/lastmile_qr_scan", "android": "https://dc.lft.to/lastmile_qr_scan"}, "is_reserved": 0, "lon": -77.004999, "fusion_lat": 0.0, "name": "cab36926a707caecea00d024d70e72d8"}, {"type": "electric_scooter", "fusion_lon": 0.0, "bike_id": "f0ac8ca50521afe9c36e6807dd3cc893", "is_disabled": 0, "lat": 38.93666066666667, "rental_uris": {"ios": "https://dc.lft.to/lastmile_qr_scan", "android": "https://dc.lft.to/lastmile_qr_scan"}, "is_reserved": 0, "lon": -77.03393833333334, "fusion_lat": 0.0, "name": "f0ac8ca50521afe9c36e6807dd3cc893"}, {"type": "electric_scooter", "fusion_lon": 0.0, "bike_id": "c085dc95c531f8de14b2d11d0ed021dc", "is_disabled": 0, "lat": 38.87756316666667, "rental_uris": {"ios": "https://dc.lft.to/lastmile_qr_scan", "android": "https://dc.lft.to/lastmile_qr_scan"}, "is_reserved": 0, "lon": -77.00750066666667, "fusion_lat": 0.0, "name": "c085dc95c531f8de14b2d11d0ed021dc"}, {"type": "electric_bike", "fusion_lon": 0.0, "bike_id": "ed396a0cc9e9f797ca1ff1f6e1330d05", "is_disabled": 0, "lat": 38.88301466666667, "rental_uris": {"ios": "https://dc.lft.to/lastmile_qr_scan", "android": "https://dc.lft.to/lastmile_qr_scan"}, "is_reserved": 0, "lon": -76.94974716666667, "fusion_lat": 0.0, "name": "ed396a0cc9e9f797ca1ff1f6e1330d05"}, {"type": "electric_bike", "fusion_lon": 0.0, "bike_id": "aa3623f79453327d9a759ac560050716", "is_disabled": 0, "lat": 38.911122666666664, "rental_uris": {"ios": "https://dc.lft.to/lastmile_qr_scan", "android": "https://dc.lft.to/lastmile_qr_scan"}, "is_reserved": 0, "lon": -77.002493, "fusion_lat": 0.0, "name": "aa3623f79453327d9a759ac560050716"}, {"type": "electric_scooter", "fusion_lon": 0.0, "bike_id": "7133c8a44181c6b66884e78db75222b2", "is_disabled": 0, "lat": 38.909757666666664, "rental_uris": {"ios": "https://dc.lft.to/lastmile_qr_scan", "android": "https://dc.lft.to/lastmile_qr_scan"}, "is_reserved": 0, "lon": -77.03871483333333, "fusion_lat": 0.0, "name": "7133c8a44181c6b66884e78db75222b2"}, {"type": "electric_scooter", "fusion_lon": 0.0, "bike_id": "30c61aebf2e4d6393e7b1859f52d6a32", "is_disabled": 0, "lat": 38.941985833333334, "rental_uris": {"ios": "https://dc.lft.to/lastmile_qr_scan", "android": "https://dc.lft.to/lastmile_qr_scan"}, "is_reserved": 0, "lon": -77.0259335, "fusion_lat": 0.0, "name": "30c61aebf2e4d6393e7b1859f52d6a32"}, {"type": "electric_scooter", "fusion_lon": 0.0, "bike_id": "3496fcc0571a574ec687e6d566da09f7", "is_disabled": 0, "lat": 38.900499, "rental_uris": {"ios": "https://dc.lft.to/lastmile_qr_scan", "android": "https://dc.lft.to/lastmile_qr_scan"}, "is_reserved": 0, "lon": -77.04876633333333, "fusion_lat": 0.0, "name": "3496fcc0571a574ec687e6d566da09f7"}, {"type": "electric_scooter", "fusion_lon": 0.0, "bike_id": "8f61dcb087425285315857df63364136", "is_disabled": 0, "lat": 38.89497583333333, "rental_uris": {"ios": "https://dc.lft.to/lastmile_qr_scan", "android": "https://dc.lft.to/lastmile_qr_scan"}, "is_reserved": 0, "lon": -77.00953183333333, "fusion_lat": 0.0, "name": "8f61dcb087425285315857df63364136"}, {"type": "electric_scooter", "fusion_lon": 0.0, "bike_id": "bf4ac73fc3df5e65a58859309a8e6c95", "is_disabled": 0, "lat": 38.925950666666665, "rental_uris": {"ios": "https://dc.lft.to/lastmile_qr_scan", "android": "https://dc.lft.to/lastmile_qr_scan"}, "is_reserved": 0, "lon": -77.02592683333333, "fusion_lat": 0.0, "name": "bf4ac73fc3df5e65a58859309a8e6c95"}, {"type": "electric_scooter", "fusion_lon": 0.0, "bike_id": "f6658b227a9e468b7d12ecec574f9fb5", "is_disabled": 0, "lat": 38.9276695, "rental_uris": {"ios": "https://dc.lft.to/lastmile_qr_scan", "android": "https://dc.lft.to/lastmile_qr_scan"}, "is_reserved": 0, "lon": -77.02828083333333, "fusion_lat": 0.0, "name": "f6658b227a9e468b7d12ecec574f9fb5"}, {"type": "electric_scooter", "fusion_lon": 0.0, "bike_id": "895462a1d44010f9c3236be01239c528", "is_disabled": 0, "lat": 38.920496166666666, "rental_uris": {"ios": "https://dc.lft.to/lastmile_qr_scan", "android": "https://dc.lft.to/lastmile_qr_scan"}, "is_reserved": 0, "lon": -77.04192933333333, "fusion_lat": 0.0, "name": "895462a1d44010f9c3236be01239c528"}, {"type": "electric_scooter", "fusion_lon": 0.0, "bike_id": "e8636777309abbd765927b93f527ed68", "is_disabled": 0, "lat": 38.92191316666667, "rental_uris": {"ios": "https://dc.lft.to/lastmile_qr_scan", "android": "https://dc.lft.to/lastmile_qr_scan"}, "is_reserved": 0, "lon": -77.0470005, "fusion_lat": 0.0, "name": "e8636777309abbd765927b93f527ed68"}, {"type": "electric_scooter", "fusion_lon": 0.0, "bike_id": "9081a022b6db3d8e5a7f07309898a885", "is_disabled": 0, "lat": 38.923064833333335, "rental_uris": {"ios": "https://dc.lft.to/lastmile_qr_scan", "android": "https://dc.lft.to/lastmile_qr_scan"}, "is_reserved": 0, "lon": -77.0426285, "fusion_lat": 0.0, "name": "9081a022b6db3d8e5a7f07309898a885"}, {"type": "electric_scooter", "fusion_lon": 0.0, "bike_id": "6c48e4cc5221d4d7a530c2b202cae5c6", "is_disabled": 0, "lat": 38.9214235, "rental_uris": {"ios": "https://dc.lft.to/lastmile_qr_scan", "android": "https://dc.lft.to/lastmile_qr_scan"}, "is_reserved": 0, "lon": -77.07401233333333, "fusion_lat": 0.0, "name": "6c48e4cc5221d4d7a530c2b202cae5c6"}, {"type": "electric_scooter", "fusion_lon": 0.0, "bike_id": "a0ef8b38a9ac490718a6955f6a12f093", "is_disabled": 0, "lat": 38.90376533333333, "rental_uris": {"ios": "https://dc.lft.to/lastmile_qr_scan", "android": "https://dc.lft.to/lastmile_qr_scan"}, "is_reserved": 0, "lon": -76.995109, "fusion_lat": 0.0, "name": "a0ef8b38a9ac490718a6955f6a12f093"}, {"type": "electric_scooter", "fusion_lon": 0.0, "bike_id": "9baf8d6ec3e5801cc898b9123f411e32", "is_disabled": 0, "lat": 38.87796566666667, "rental_uris": {"ios": "https://dc.lft.to/lastmile_qr_scan", "android": "https://dc.lft.to/lastmile_qr_scan"}, "is_reserved": 0, "lon": -77.007316, "fusion_lat": 0.0, "name": "9baf8d6ec3e5801cc898b9123f411e32"}, {"type": "electric_scooter", "fusion_lon": 0.0, "bike_id": "d160f9930b6a69c4c45586875ae0a8a6", "is_disabled": 0, "lat": 38.919933, "rental_uris": {"ios": "https://dc.lft.to/lastmile_qr_scan", "android": "https://dc.lft.to/lastmile_qr_scan"}, "is_reserved": 0, "lon": -77.017837, "fusion_lat": 0.0, "name": "d160f9930b6a69c4c45586875ae0a8a6"}, {"type": "electric_scooter", "fusion_lon": 0.0, "bike_id": "8a61f78a013873ca6bf43d2e1a7e410f", "is_disabled": 0, "lat": 38.907233166666664, "rental_uris": {"ios": "https://dc.lft.to/lastmile_qr_scan", "android": "https://dc.lft.to/lastmile_qr_scan"}, "is_reserved": 0, "lon": -77.04496616666667, "fusion_lat": 0.0, "name": "8a61f78a013873ca6bf43d2e1a7e410f"}, {"type": "electric_scooter", "fusion_lon": 0.0, "bike_id": "3a48c747d3f806f4b771bc4e799a6f27", "is_disabled": 0, "lat": 38.875455, "rental_uris": {"ios": "https://dc.lft.to/lastmile_qr_scan", "android": "https://dc.lft.to/lastmile_qr_scan"}, "is_reserved": 0, "lon": -77.0053705, "fusion_lat": 0.0, "name": "3a48c747d3f806f4b771bc4e799a6f27"}, {"type": "electric_scooter", "fusion_lon": 0.0, "bike_id": "870e4ceaba13eb18c870c72ac28f60af", "is_disabled": 0, "lat": 38.91488833333333, "rental_uris": {"ios": "https://dc.lft.to/lastmile_qr_scan", "android": "https://dc.lft.to/lastmile_qr_scan"}, "is_reserved": 0, "lon": -77.02584833333333, "fusion_lat": 0.0, "name": "870e4ceaba13eb18c870c72ac28f60af"}, {"type": "electric_scooter", "fusion_lon": 0.0, "bike_id": "9221ca1bd120e274ae34eae2040f27b6", "is_disabled": 0, "lat": 38.9269965, "rental_uris": {"ios": "https://dc.lft.to/lastmile_qr_scan", "android": "https://dc.lft.to/lastmile_qr_scan"}, "is_reserved": 0, "lon": -77.02391783333333, "fusion_lat": 0.0, "name": "9221ca1bd120e274ae34eae2040f27b6"}, {"type": "electric_scooter", "fusion_lon": 0.0, "bike_id": "2275a4c274475f89b4365101f926aa1a", "is_disabled": 0, "lat": 38.88456266666667, "rental_uris": {"ios": "https://dc.lft.to/lastmile_qr_scan", "android": "https://dc.lft.to/lastmile_qr_scan"}, "is_reserved": 0, "lon": -76.9422425, "fusion_lat": 0.0, "name": "2275a4c274475f89b4365101f926aa1a"}, {"type": "electric_scooter", "fusion_lon": 0.0, "bike_id": "7d98aab94afff79ca4f0c4ede7d27378", "is_disabled": 0, "lat": 38.9176015, "rental_uris": {"ios": "https://dc.lft.to/lastmile_qr_scan", "android": "https://dc.lft.to/lastmile_qr_scan"}, "is_reserved": 0, "lon": -77.02280016666667, "fusion_lat": 0.0, "name": "7d98aab94afff79ca4f0c4ede7d27378"}, {"type": "electric_scooter", "fusion_lon": 0.0, "bike_id": "925203f25b08492b2a8d63a23bfb9863", "is_disabled": 0, "lat": 38.93425583333333, "rental_uris": {"ios": "https://dc.lft.to/lastmile_qr_scan", "android": "https://dc.lft.to/lastmile_qr_scan"}, "is_reserved": 0, "lon": -77.04424583333333, "fusion_lat": 0.0, "name": "925203f25b08492b2a8d63a23bfb9863"}, {"type": "electric_scooter", "fusion_lon": 0.0, "bike_id": "20d56b3825187489243ee095846835c8", "is_disabled": 0, "lat": 38.89850583333333, "rental_uris": {"ios": "https://dc.lft.to/lastmile_qr_scan", "android": "https://dc.lft.to/lastmile_qr_scan"}, "is_reserved": 0, "lon": -76.99031266666667, "fusion_lat": 0.0, "name": "20d56b3825187489243ee095846835c8"}, {"type": "electric_scooter", "fusion_lon": 0.0, "bike_id": "f1f8c17bbe566b18d4e7122f69065e00", "is_disabled": 0, "lat": 38.92055916666666, "rental_uris": {"ios": "https://dc.lft.to/lastmile_qr_scan", "android": "https://dc.lft.to/lastmile_qr_scan"}, "is_reserved": 0, "lon": -77.0234995, "fusion_lat": 0.0, "name": "f1f8c17bbe566b18d4e7122f69065e00"}, {"type": "electric_scooter", "fusion_lon": 0.0, "bike_id": "c106552f6338d76d64a90931d6ca2959", "is_disabled": 0, "lat": 38.927522, "rental_uris": {"ios": "https://dc.lft.to/lastmile_qr_scan", "android": "https://dc.lft.to/lastmile_qr_scan"}, "is_reserved": 0, "lon": -77.02534366666667, "fusion_lat": 0.0, "name": "c106552f6338d76d64a90931d6ca2959"}, {"type": "electric_scooter", "fusion_lon": 0.0, "bike_id": "f5449f68e36f8fdc85f7c3a11cb7b600", "is_disabled": 0, "lat": 38.91962783333334, "rental_uris": {"ios": "https://dc.lft.to/lastmile_qr_scan", "android": "https://dc.lft.to/lastmile_qr_scan"}, "is_reserved": 0, "lon": -77.0239735, "fusion_lat": 0.0, "name": "f5449f68e36f8fdc85f7c3a11cb7b600"}, {"type": "electric_scooter", "fusion_lon": 0.0, "bike_id": "794eadb8701a17f2d828e665e0c4a962", "is_disabled": 0, "lat": 38.934500166666666, "rental_uris": {"ios": "https://dc.lft.to/lastmile_qr_scan", "android": "https://dc.lft.to/lastmile_qr_scan"}, "is_reserved": 0, "lon": -77.03241016666666, "fusion_lat": 0.0, "name": "794eadb8701a17f2d828e665e0c4a962"}, {"type": "electric_scooter", "fusion_lon": 0.0, "bike_id": "cb70ad22ca214404966893f6e645a7aa", "is_disabled": 0, "lat": 38.908241333333336, "rental_uris": {"ios": "https://dc.lft.to/lastmile_qr_scan", "android": "https://dc.lft.to/lastmile_qr_scan"}, "is_reserved": 0, "lon": -77.03914483333334, "fusion_lat": 0.0, "name": "cb70ad22ca214404966893f6e645a7aa"}, {"type": "electric_bike", "fusion_lon": 0.0, "bike_id": "7a7cec4151a60745ae70a4351319cdc5", "is_disabled": 0, "lat": 38.85779483333334, "rental_uris": {"ios": "https://dc.lft.to/lastmile_qr_scan", "android": "https://dc.lft.to/lastmile_qr_scan"}, "is_reserved": 0, "lon": -76.97321183333334, "fusion_lat": 0.0, "name": "7a7cec4151a60745ae70a4351319cdc5"}, {"type": "electric_scooter", "fusion_lon": 0.0, "bike_id": "99d893c949109ddcdcd8b10bf7e8af55", "is_disabled": 0, "lat": 38.9144755, "rental_uris": {"ios": "https://dc.lft.to/lastmile_qr_scan", "android": "https://dc.lft.to/lastmile_qr_scan"}, "is_reserved": 0, "lon": -77.041571, "fusion_lat": 0.0, "name": "99d893c949109ddcdcd8b10bf7e8af55"}, {"type": "electric_scooter", "fusion_lon": 0.0, "bike_id": "fe5a5af96174ffbe283636939c65bf6b", "is_disabled": 0, "lat": 38.919711666666664, "rental_uris": {"ios": "https://dc.lft.to/lastmile_qr_scan", "android": "https://dc.lft.to/lastmile_qr_scan"}, "is_reserved": 0, "lon": -77.02205633333334, "fusion_lat": 0.0, "name": "fe5a5af96174ffbe283636939c65bf6b"}, {"type": "electric_scooter", "fusion_lon": 0.0, "bike_id": "a320f7326f45f7e5c72c8b2b161376c8", "is_disabled": 0, "lat": 38.93114416666667, "rental_uris": {"ios": "https://dc.lft.to/lastmile_qr_scan", "android": "https://dc.lft.to/lastmile_qr_scan"}, "is_reserved": 0, "lon": -77.020968, "fusion_lat": 0.0, "name": "a320f7326f45f7e5c72c8b2b161376c8"}, {"type": "electric_scooter", "fusion_lon": 0.0, "bike_id": "292ce3b9b19387b5bd19cee15003f728", "is_disabled": 0, "lat": 38.92364233333333, "rental_uris": {"ios": "https://dc.lft.to/lastmile_qr_scan", "android": "https://dc.lft.to/lastmile_qr_scan"}, "is_reserved": 0, "lon": -77.05189383333334, "fusion_lat": 0.0, "name": "292ce3b9b19387b5bd19cee15003f728"}, {"type": "electric_scooter", "fusion_lon": 0.0, "bike_id": "78af219ad17fb2fd7bc6506825510b2f", "is_disabled": 0, "lat": 38.86267266666667, "rental_uris": {"ios": "https://dc.lft.to/lastmile_qr_scan", "android": "https://dc.lft.to/lastmile_qr_scan"}, "is_reserved": 0, "lon": -76.99570033333333, "fusion_lat": 0.0, "name": "78af219ad17fb2fd7bc6506825510b2f"}, {"type": "electric_bike", "fusion_lon": 0.0, "bike_id": "37d9cad25de7944ac1b371c44afb58c4", "is_disabled": 0, "lat": 38.89558566666667, "rental_uris": {"ios": "https://dc.lft.to/lastmile_qr_scan", "android": "https://dc.lft.to/lastmile_qr_scan"}, "is_reserved": 0, "lon": -77.12747216666666, "fusion_lat": 0.0, "name": "37d9cad25de7944ac1b371c44afb58c4"}, {"type": "electric_scooter", "fusion_lon": 0.0, "bike_id": "a9b581ae4d4ecfe573480c11a3660653", "is_disabled": 0, "lat": 38.9271, "rental_uris": {"ios": "https://dc.lft.to/lastmile_qr_scan", "android": "https://dc.lft.to/lastmile_qr_scan"}, "is_reserved": 0, "lon": -77.02087116666667, "fusion_lat": 0.0, "name": "a9b581ae4d4ecfe573480c11a3660653"}, {"type": "electric_scooter", "fusion_lon": 0.0, "bike_id": "8299d4df3ad71f1be8d23689f15d78cc", "is_disabled": 0, "lat": 38.944488166666666, "rental_uris": {"ios": "https://dc.lft.to/lastmile_qr_scan", "android": "https://dc.lft.to/lastmile_qr_scan"}, "is_reserved": 0, "lon": -77.027959, "fusion_lat": 0.0, "name": "8299d4df3ad71f1be8d23689f15d78cc"}, {"type": "electric_scooter", "fusion_lon": 0.0, "bike_id": "919e38e4741bd467fa7d7233cd8370af", "is_disabled": 0, "lat": 38.89914616666667, "rental_uris": {"ios": "https://dc.lft.to/lastmile_qr_scan", "android": "https://dc.lft.to/lastmile_qr_scan"}, "is_reserved": 0, "lon": -76.93382633333333, "fusion_lat": 0.0, "name": "919e38e4741bd467fa7d7233cd8370af"}, {"type": "electric_scooter", "fusion_lon": 0.0, "bike_id": "490093eedec32bb9b2c254702f26b101", "is_disabled": 0, "lat": 38.924639166666665, "rental_uris": {"ios": "https://dc.lft.to/lastmile_qr_scan", "android": "https://dc.lft.to/lastmile_qr_scan"}, "is_reserved": 0, "lon": -77.03062366666667, "fusion_lat": 0.0, "name": "490093eedec32bb9b2c254702f26b101"}, {"type": "electric_scooter", "fusion_lon": 0.0, "bike_id": "facd6a89a3a1be4cf7a0f036ab6b2bdd", "is_disabled": 0, "lat": 38.9036365, "rental_uris": {"ios": "https://dc.lft.to/lastmile_qr_scan", "android": "https://dc.lft.to/lastmile_qr_scan"}, "is_reserved": 0, "lon": -77.06693216666666, "fusion_lat": 0.0, "name": "facd6a89a3a1be4cf7a0f036ab6b2bdd"}, {"type": "electric_scooter", "fusion_lon": 0.0, "bike_id": "da9255fc644b0807a8be45a5b3511b20", "is_disabled": 0, "lat": 38.887392, "rental_uris": {"ios": "https://dc.lft.to/lastmile_qr_scan", "android": "https://dc.lft.to/lastmile_qr_scan"}, "is_reserved": 0, "lon": -77.01528066666667, "fusion_lat": 0.0, "name": "da9255fc644b0807a8be45a5b3511b20"}, {"type": "electric_scooter", "fusion_lon": 0.0, "bike_id": "c8c9cd5ae6c5ae74fb4d2d5361d32316", "is_disabled": 0, "lat": 38.89535733333334, "rental_uris": {"ios": "https://dc.lft.to/lastmile_qr_scan", "android": "https://dc.lft.to/lastmile_qr_scan"}, "is_reserved": 0, "lon": -77.02794533333334, "fusion_lat": 0.0, "name": "c8c9cd5ae6c5ae74fb4d2d5361d32316"}, {"type": "electric_scooter", "fusion_lon": 0.0, "bike_id": "c7bfb6f42588c728883d460e9fadad08", "is_disabled": 0, "lat": 38.92011133333333, "rental_uris": {"ios": "https://dc.lft.to/lastmile_qr_scan", "android": "https://dc.lft.to/lastmile_qr_scan"}, "is_reserved": 0, "lon": -77.04404533333333, "fusion_lat": 0.0, "name": "c7bfb6f42588c728883d460e9fadad08"}, {"type": "electric_scooter", "fusion_lon": 0.0, "bike_id": "02706d776300ea6ceb07da3ee84b5c10", "is_disabled": 0, "lat": 38.864991333333336, "rental_uris": {"ios": "https://dc.lft.to/lastmile_qr_scan", "android": "https://dc.lft.to/lastmile_qr_scan"}, "is_reserved": 0, "lon": -76.98985466666667, "fusion_lat": 0.0, "name": "02706d776300ea6ceb07da3ee84b5c10"}, {"type": "electric_scooter", "fusion_lon": 0.0, "bike_id": "00292b3953cc530a7a2766c7d55e5013", "is_disabled": 0, "lat": 38.914128166666664, "rental_uris": {"ios": "https://dc.lft.to/lastmile_qr_scan", "android": "https://dc.lft.to/lastmile_qr_scan"}, "is_reserved": 0, "lon": -77.04153216666667, "fusion_lat": 0.0, "name": "00292b3953cc530a7a2766c7d55e5013"}, {"type": "electric_scooter", "fusion_lon": 0.0, "bike_id": "fdcff2a5da5e559b41661039e763e148", "is_disabled": 0, "lat": 38.90013716666667, "rental_uris": {"ios": "https://dc.lft.to/lastmile_qr_scan", "android": "https://dc.lft.to/lastmile_qr_scan"}, "is_reserved": 0, "lon": -76.98896483333333, "fusion_lat": 0.0, "name": "fdcff2a5da5e559b41661039e763e148"}, {"type": "electric_scooter", "fusion_lon": 0.0, "bike_id": "9d7c29b745677a42b874cb464406957e", "is_disabled": 0, "lat": 38.92741133333333, "rental_uris": {"ios": "https://dc.lft.to/lastmile_qr_scan", "android": "https://dc.lft.to/lastmile_qr_scan"}, "is_reserved": 0, "lon": -77.0356245, "fusion_lat": 0.0, "name": "9d7c29b745677a42b874cb464406957e"}, {"type": "electric_bike", "fusion_lon": 0.0, "bike_id": "75510d3518ffd8faa4014de6319b7c94", "is_disabled": 0, "lat": 38.880278, "rental_uris": {"ios": "https://dc.lft.to/lastmile_qr_scan", "android": "https://dc.lft.to/lastmile_qr_scan"}, "is_reserved": 0, "lon": -76.91722916666667, "fusion_lat": 0.0, "name": "75510d3518ffd8faa4014de6319b7c94"}, {"type": "electric_scooter", "fusion_lon": 0.0, "bike_id": "21ea759c7c62978bae70537081e6f79d", "is_disabled": 0, "lat": 38.90554083333333, "rental_uris": {"ios": "https://dc.lft.to/lastmile_qr_scan", "android": "https://dc.lft.to/lastmile_qr_scan"}, "is_reserved": 0, "lon": -77.01406616666667, "fusion_lat": 0.0, "name": "21ea759c7c62978bae70537081e6f79d"}, {"type": "electric_scooter", "fusion_lon": 0.0, "bike_id": "1c47ff4084c00ba07c309779a2e306d5", "is_disabled": 0, "lat": 38.973683666666666, "rental_uris": {"ios": "https://dc.lft.to/lastmile_qr_scan", "android": "https://dc.lft.to/lastmile_qr_scan"}, "is_reserved": 0, "lon": -77.0185775, "fusion_lat": 0.0, "name": "1c47ff4084c00ba07c309779a2e306d5"}, {"type": "electric_scooter", "fusion_lon": 0.0, "bike_id": "aface131467049226af225a1d4cff658", "is_disabled": 0, "lat": 38.92579633333333, "rental_uris": {"ios": "https://dc.lft.to/lastmile_qr_scan", "android": "https://dc.lft.to/lastmile_qr_scan"}, "is_reserved": 0, "lon": -77.03204766666667, "fusion_lat": 0.0, "name": "aface131467049226af225a1d4cff658"}, {"type": "electric_scooter", "fusion_lon": 0.0, "bike_id": "159c7f0dee82af6e965a41f52fde1441", "is_disabled": 0, "lat": 38.9151875, "rental_uris": {"ios": "https://dc.lft.to/lastmile_qr_scan", "android": "https://dc.lft.to/lastmile_qr_scan"}, "is_reserved": 0, "lon": -77.01222433333334, "fusion_lat": 0.0, "name": "159c7f0dee82af6e965a41f52fde1441"}, {"type": "electric_scooter", "fusion_lon": 0.0, "bike_id": "472fc2d9b9f0351334cb3091ceeb94fc", "is_disabled": 0, "lat": 38.92146133333333, "rental_uris": {"ios": "https://dc.lft.to/lastmile_qr_scan", "android": "https://dc.lft.to/lastmile_qr_scan"}, "is_reserved": 0, "lon": -77.03508166666667, "fusion_lat": 0.0, "name": "472fc2d9b9f0351334cb3091ceeb94fc"}, {"type": "electric_scooter", "fusion_lon": 0.0, "bike_id": "8c354b9be53818f4fc53d519d14ebec0", "is_disabled": 0, "lat": 38.905068166666666, "rental_uris": {"ios": "https://dc.lft.to/lastmile_qr_scan", "android": "https://dc.lft.to/lastmile_qr_scan"}, "is_reserved": 0, "lon": -77.06735666666667, "fusion_lat": 0.0, "name": "8c354b9be53818f4fc53d519d14ebec0"}, {"type": "electric_bike", "fusion_lon": 0.0, "bike_id": "10e1c9d9dc83e60a6b7781f0e60819ae", "is_disabled": 0, "lat": 38.881236666666666, "rental_uris": {"ios": "https://dc.lft.to/lastmile_qr_scan", "android": "https://dc.lft.to/lastmile_qr_scan"}, "is_reserved": 0, "lon": -77.01684833333333, "fusion_lat": 0.0, "name": "10e1c9d9dc83e60a6b7781f0e60819ae"}, {"type": "electric_scooter", "fusion_lon": 0.0, "bike_id": "97cc49d9730637957349c42086a4dcaf", "is_disabled": 0, "lat": 38.8923455, "rental_uris": {"ios": "https://dc.lft.to/lastmile_qr_scan", "android": "https://dc.lft.to/lastmile_qr_scan"}, "is_reserved": 0, "lon": -77.00292566666667, "fusion_lat": 0.0, "name": "97cc49d9730637957349c42086a4dcaf"}, {"type": "electric_scooter", "fusion_lon": 0.0, "bike_id": "03c62ac9997c9fe0382afabd61119ab5", "is_disabled": 0, "lat": 38.9041115, "rental_uris": {"ios": "https://dc.lft.to/lastmile_qr_scan", "android": "https://dc.lft.to/lastmile_qr_scan"}, "is_reserved": 0, "lon": -76.97328766666666, "fusion_lat": 0.0, "name": "03c62ac9997c9fe0382afabd61119ab5"}, {"type": "electric_scooter", "fusion_lon": 0.0, "bike_id": "7c258727755029f7db6fe54cea5ad019", "is_disabled": 0, "lat": 38.922235, "rental_uris": {"ios": "https://dc.lft.to/lastmile_qr_scan", "android": "https://dc.lft.to/lastmile_qr_scan"}, "is_reserved": 0, "lon": -77.0471255, "fusion_lat": 0.0, "name": "7c258727755029f7db6fe54cea5ad019"}, {"type": "electric_scooter", "fusion_lon": 0.0, "bike_id": "71f4097e6a3308655d3f847471a52994", "is_disabled": 0, "lat": 38.922574, "rental_uris": {"ios": "https://dc.lft.to/lastmile_qr_scan", "android": "https://dc.lft.to/lastmile_qr_scan"}, "is_reserved": 0, "lon": -77.01827866666666, "fusion_lat": 0.0, "name": "71f4097e6a3308655d3f847471a52994"}, {"type": "electric_scooter", "fusion_lon": 0.0, "bike_id": "066d59371e7ff065c5c22f6f191cbb21", "is_disabled": 0, "lat": 38.883984833333336, "rental_uris": {"ios": "https://dc.lft.to/lastmile_qr_scan", "android": "https://dc.lft.to/lastmile_qr_scan"}, "is_reserved": 0, "lon": -77.02950866666667, "fusion_lat": 0.0, "name": "066d59371e7ff065c5c22f6f191cbb21"}, {"type": "electric_bike", "fusion_lon": 0.0, "bike_id": "aa4551d9042f27c0d91f0bdc35c05055", "is_disabled": 0, "lat": 38.92566016666667, "rental_uris": {"ios": "https://dc.lft.to/lastmile_qr_scan", "android": "https://dc.lft.to/lastmile_qr_scan"}, "is_reserved": 0, "lon": -76.959805, "fusion_lat": 0.0, "name": "aa4551d9042f27c0d91f0bdc35c05055"}, {"type": "electric_scooter", "fusion_lon": 0.0, "bike_id": "0cc0a3d21fedfe295fd1845181e3bd71", "is_disabled": 0, "lat": 38.910297, "rental_uris": {"ios": "https://dc.lft.to/lastmile_qr_scan", "android": "https://dc.lft.to/lastmile_qr_scan"}, "is_reserved": 0, "lon": -77.04654216666667, "fusion_lat": 0.0, "name": "0cc0a3d21fedfe295fd1845181e3bd71"}, {"type": "electric_scooter", "fusion_lon": 0.0, "bike_id": "2ca2fd3bd132d308bec777fa929e0b57", "is_disabled": 0, "lat": 38.88538066666667, "rental_uris": {"ios": "https://dc.lft.to/lastmile_qr_scan", "android": "https://dc.lft.to/lastmile_qr_scan"}, "is_reserved": 0, "lon": -77.0110235, "fusion_lat": 0.0, "name": "2ca2fd3bd132d308bec777fa929e0b57"}, {"type": "electric_scooter", "fusion_lon": 0.0, "bike_id": "178ebaad8398f133ce693c121883d7d4", "is_disabled": 0, "lat": 38.88733333333333, "rental_uris": {"ios": "https://dc.lft.to/lastmile_qr_scan", "android": "https://dc.lft.to/lastmile_qr_scan"}, "is_reserved": 0, "lon": -77.031817, "fusion_lat": 0.0, "name": "178ebaad8398f133ce693c121883d7d4"}, {"type": "electric_scooter", "fusion_lon": 0.0, "bike_id": "d7de71cbc83f2e98e747c65f1c9afe7f", "is_disabled": 0, "lat": 38.92705183333333, "rental_uris": {"ios": "https://dc.lft.to/lastmile_qr_scan", "android": "https://dc.lft.to/lastmile_qr_scan"}, "is_reserved": 0, "lon": -77.037622, "fusion_lat": 0.0, "name": "d7de71cbc83f2e98e747c65f1c9afe7f"}, {"type": "electric_scooter", "fusion_lon": 0.0, "bike_id": "19aefbee3d34a7a05c14cb67f872860a", "is_disabled": 0, "lat": 38.9072995, "rental_uris": {"ios": "https://dc.lft.to/lastmile_qr_scan", "android": "https://dc.lft.to/lastmile_qr_scan"}, "is_reserved": 0, "lon": -77.03216566666667, "fusion_lat": 0.0, "name": "19aefbee3d34a7a05c14cb67f872860a"}, {"type": "electric_scooter", "fusion_lon": 0.0, "bike_id": "63716c54b2d22b4f41234cb857e23d7b", "is_disabled": 0, "lat": 38.91149516666667, "rental_uris": {"ios": "https://dc.lft.to/lastmile_qr_scan", "android": "https://dc.lft.to/lastmile_qr_scan"}, "is_reserved": 0, "lon": -77.00454783333333, "fusion_lat": 0.0, "name": "63716c54b2d22b4f41234cb857e23d7b"}, {"type": "electric_scooter", "fusion_lon": 0.0, "bike_id": "b21251532c338f6c21dbed518b4e2018", "is_disabled": 0, "lat": 38.917825, "rental_uris": {"ios": "https://dc.lft.to/lastmile_qr_scan", "android": "https://dc.lft.to/lastmile_qr_scan"}, "is_reserved": 0, "lon": -77.0320825, "fusion_lat": 0.0, "name": "b21251532c338f6c21dbed518b4e2018"}, {"type": "electric_scooter", "fusion_lon": 0.0, "bike_id": "13f6b0edbe936b0a90a9af4e87b863c0", "is_disabled": 0, "lat": 38.944502666666665, "rental_uris": {"ios": "https://dc.lft.to/lastmile_qr_scan", "android": "https://dc.lft.to/lastmile_qr_scan"}, "is_reserved": 0, "lon": -77.06348316666667, "fusion_lat": 0.0, "name": "13f6b0edbe936b0a90a9af4e87b863c0"}, {"type": "electric_scooter", "fusion_lon": 0.0, "bike_id": "b454ab21cee710eb07494b5bd284d5be", "is_disabled": 0, "lat": 38.933532666666665, "rental_uris": {"ios": "https://dc.lft.to/lastmile_qr_scan", "android": "https://dc.lft.to/lastmile_qr_scan"}, "is_reserved": 0, "lon": -77.036582, "fusion_lat": 0.0, "name": "b454ab21cee710eb07494b5bd284d5be"}, {"type": "electric_scooter", "fusion_lon": 0.0, "bike_id": "f2cbf8b33cb2f090be41f18d843f255c", "is_disabled": 0, "lat": 38.9017075, "rental_uris": {"ios": "https://dc.lft.to/lastmile_qr_scan", "android": "https://dc.lft.to/lastmile_qr_scan"}, "is_reserved": 0, "lon": -76.980594, "fusion_lat": 0.0, "name": "f2cbf8b33cb2f090be41f18d843f255c"}, {"type": "electric_scooter", "fusion_lon": 0.0, "bike_id": "a214effff40b2a898e19af70e410c26c", "is_disabled": 0, "lat": 38.94499916666667, "rental_uris": {"ios": "https://dc.lft.to/lastmile_qr_scan", "android": "https://dc.lft.to/lastmile_qr_scan"}, "is_reserved": 0, "lon": -77.03831683333334, "fusion_lat": 0.0, "name": "a214effff40b2a898e19af70e410c26c"}, {"type": "electric_scooter", "fusion_lon": 0.0, "bike_id": "fab390173dda9cfb62818c9d442bbcba", "is_disabled": 0, "lat": 38.903573333333334, "rental_uris": {"ios": "https://dc.lft.to/lastmile_qr_scan", "android": "https://dc.lft.to/lastmile_qr_scan"}, "is_reserved": 0, "lon": -76.98728966666667, "fusion_lat": 0.0, "name": "fab390173dda9cfb62818c9d442bbcba"}, {"type": "electric_scooter", "fusion_lon": 0.0, "bike_id": "9563422aa6432052f70dc7712945bf97", "is_disabled": 0, "lat": 38.903456166666665, "rental_uris": {"ios": "https://dc.lft.to/lastmile_qr_scan", "android": "https://dc.lft.to/lastmile_qr_scan"}, "is_reserved": 0, "lon": -76.98956366666667, "fusion_lat": 0.0, "name": "9563422aa6432052f70dc7712945bf97"}, {"type": "electric_scooter", "fusion_lon": 0.0, "bike_id": "9c6132ea3b65ab2337eba1a276fad505", "is_disabled": 0, "lat": 38.91117466666667, "rental_uris": {"ios": "https://dc.lft.to/lastmile_qr_scan", "android": "https://dc.lft.to/lastmile_qr_scan"}, "is_reserved": 0, "lon": -77.00753316666666, "fusion_lat": 0.0, "name": "9c6132ea3b65ab2337eba1a276fad505"}, {"type": "electric_scooter", "fusion_lon": 0.0, "bike_id": "10a60d27706b3b001d3e67ad3616a94b", "is_disabled": 0, "lat": 38.9095715, "rental_uris": {"ios": "https://dc.lft.to/lastmile_qr_scan", "android": "https://dc.lft.to/lastmile_qr_scan"}, "is_reserved": 0, "lon": -77.018555, "fusion_lat": 0.0, "name": "10a60d27706b3b001d3e67ad3616a94b"}, {"type": "electric_scooter", "fusion_lon": 0.0, "bike_id": "7a7047d4c2ef49bfaaca2c20a58103e1", "is_disabled": 0, "lat": 38.88723666666667, "rental_uris": {"ios": "https://dc.lft.to/lastmile_qr_scan", "android": "https://dc.lft.to/lastmile_qr_scan"}, "is_reserved": 0, "lon": -77.0282685, "fusion_lat": 0.0, "name": "7a7047d4c2ef49bfaaca2c20a58103e1"}, {"type": "electric_scooter", "fusion_lon": 0.0, "bike_id": "2bbe64d4e018bd64ff9245dadb001b06", "is_disabled": 0, "lat": 38.97350733333333, "rental_uris": {"ios": "https://dc.lft.to/lastmile_qr_scan", "android": "https://dc.lft.to/lastmile_qr_scan"}, "is_reserved": 0, "lon": -77.0278835, "fusion_lat": 0.0, "name": "2bbe64d4e018bd64ff9245dadb001b06"}, {"type": "electric_scooter", "fusion_lon": 0.0, "bike_id": "a2888cfc6fa4dc81311445efdede4c4d", "is_disabled": 0, "lat": 38.91905783333333, "rental_uris": {"ios": "https://dc.lft.to/lastmile_qr_scan", "android": "https://dc.lft.to/lastmile_qr_scan"}, "is_reserved": 0, "lon": -77.01962483333334, "fusion_lat": 0.0, "name": "a2888cfc6fa4dc81311445efdede4c4d"}, {"type": "electric_scooter", "fusion_lon": 0.0, "bike_id": "d73daf0a685820b32a35a741b4e0214e", "is_disabled": 0, "lat": 38.904109166666665, "rental_uris": {"ios": "https://dc.lft.to/lastmile_qr_scan", "android": "https://dc.lft.to/lastmile_qr_scan"}, "is_reserved": 0, "lon": -76.99956283333333, "fusion_lat": 0.0, "name": "d73daf0a685820b32a35a741b4e0214e"}, {"type": "electric_scooter", "fusion_lon": 0.0, "bike_id": "e505d1605418a30aff68a731630c722e", "is_disabled": 0, "lat": 38.90609416666667, "rental_uris": {"ios": "https://dc.lft.to/lastmile_qr_scan", "android": "https://dc.lft.to/lastmile_qr_scan"}, "is_reserved": 0, "lon": -77.05028383333334, "fusion_lat": 0.0, "name": "e505d1605418a30aff68a731630c722e"}, {"type": "electric_scooter", "fusion_lon": 0.0, "bike_id": "89e7b195e7cac978d93c76df94535489", "is_disabled": 0, "lat": 38.903965, "rental_uris": {"ios": "https://dc.lft.to/lastmile_qr_scan", "android": "https://dc.lft.to/lastmile_qr_scan"}, "is_reserved": 0, "lon": -77.0200415, "fusion_lat": 0.0, "name": "89e7b195e7cac978d93c76df94535489"}, {"type": "electric_scooter", "fusion_lon": 0.0, "bike_id": "17f28e08200fd150197b15b1c5a1817e", "is_disabled": 0, "lat": 38.909697, "rental_uris": {"ios": "https://dc.lft.to/lastmile_qr_scan", "android": "https://dc.lft.to/lastmile_qr_scan"}, "is_reserved": 0, "lon": -77.03867216666667, "fusion_lat": 0.0, "name": "17f28e08200fd150197b15b1c5a1817e"}, {"type": "electric_bike", "fusion_lon": 0.0, "bike_id": "2c4699ca53d7cd247e62fab511f9b2c7", "is_disabled": 0, "lat": 38.835234, "rental_uris": {"ios": "https://dc.lft.to/lastmile_qr_scan", "android": "https://dc.lft.to/lastmile_qr_scan"}, "is_reserved": 0, "lon": -76.98708833333333, "fusion_lat": 0.0, "name": "2c4699ca53d7cd247e62fab511f9b2c7"}, {"type": "electric_scooter", "fusion_lon": 0.0, "bike_id": "b53f9336ea21196cfd49cedea539e5d1", "is_disabled": 0, "lat": 38.89001283333333, "rental_uris": {"ios": "https://dc.lft.to/lastmile_qr_scan", "android": "https://dc.lft.to/lastmile_qr_scan"}, "is_reserved": 0, "lon": -76.95435483333333, "fusion_lat": 0.0, "name": "b53f9336ea21196cfd49cedea539e5d1"}, {"type": "electric_scooter", "fusion_lon": 0.0, "bike_id": "beb65ddc620dfd7b3685c53c25171450", "is_disabled": 0, "lat": 38.898838, "rental_uris": {"ios": "https://dc.lft.to/lastmile_qr_scan", "android": "https://dc.lft.to/lastmile_qr_scan"}, "is_reserved": 0, "lon": -77.05357066666667, "fusion_lat": 0.0, "name": "beb65ddc620dfd7b3685c53c25171450"}, {"type": "electric_scooter", "fusion_lon": 0.0, "bike_id": "fe205a309062ccc2925596b0aecafc6e", "is_disabled": 0, "lat": 38.90873833333333, "rental_uris": {"ios": "https://dc.lft.to/lastmile_qr_scan", "android": "https://dc.lft.to/lastmile_qr_scan"}, "is_reserved": 0, "lon": -77.03843, "fusion_lat": 0.0, "name": "fe205a309062ccc2925596b0aecafc6e"}, {"type": "electric_scooter", "fusion_lon": 0.0, "bike_id": "1d0afc38f1ef520ab59be1026af86c01", "is_disabled": 0, "lat": 38.906614833333336, "rental_uris": {"ios": "https://dc.lft.to/lastmile_qr_scan", "android": "https://dc.lft.to/lastmile_qr_scan"}, "is_reserved": 0, "lon": -76.97944233333334, "fusion_lat": 0.0, "name": "1d0afc38f1ef520ab59be1026af86c01"}, {"type": "electric_scooter", "fusion_lon": 0.0, "bike_id": "b0182d27972d9644c63ccd55ae05a1d9", "is_disabled": 0, "lat": 38.9097845, "rental_uris": {"ios": "https://dc.lft.to/lastmile_qr_scan", "android": "https://dc.lft.to/lastmile_qr_scan"}, "is_reserved": 0, "lon": -77.03845933333334, "fusion_lat": 0.0, "name": "b0182d27972d9644c63ccd55ae05a1d9"}, {"type": "electric_scooter", "fusion_lon": 0.0, "bike_id": "aa480dffe3b52d0826465a58523f3bb3", "is_disabled": 0, "lat": 38.905593, "rental_uris": {"ios": "https://dc.lft.to/lastmile_qr_scan", "android": "https://dc.lft.to/lastmile_qr_scan"}, "is_reserved": 0, "lon": -77.00606383333333, "fusion_lat": 0.0, "name": "aa480dffe3b52d0826465a58523f3bb3"}, {"type": "electric_scooter", "fusion_lon": 0.0, "bike_id": "3ce288645d0259e8545ecfa1cc2cad7a", "is_disabled": 0, "lat": 38.90739216666667, "rental_uris": {"ios": "https://dc.lft.to/lastmile_qr_scan", "android": "https://dc.lft.to/lastmile_qr_scan"}, "is_reserved": 0, "lon": -77.00090766666666, "fusion_lat": 0.0, "name": "3ce288645d0259e8545ecfa1cc2cad7a"}, {"type": "electric_scooter", "fusion_lon": 0.0, "bike_id": "d43fc74746b77bb2344a9c8b7bd56603", "is_disabled": 0, "lat": 38.88211316666667, "rental_uris": {"ios": "https://dc.lft.to/lastmile_qr_scan", "android": "https://dc.lft.to/lastmile_qr_scan"}, "is_reserved": 0, "lon": -77.0177035, "fusion_lat": 0.0, "name": "d43fc74746b77bb2344a9c8b7bd56603"}, {"type": "electric_scooter", "fusion_lon": 0.0, "bike_id": "698fe387725cba139bb90f3918dfad41", "is_disabled": 0, "lat": 38.899493, "rental_uris": {"ios": "https://dc.lft.to/lastmile_qr_scan", "android": "https://dc.lft.to/lastmile_qr_scan"}, "is_reserved": 0, "lon": -77.021158, "fusion_lat": 0.0, "name": "698fe387725cba139bb90f3918dfad41"}, {"type": "electric_scooter", "fusion_lon": 0.0, "bike_id": "ca6235b0334d2197190427f10b6a6885", "is_disabled": 0, "lat": 38.92453966666667, "rental_uris": {"ios": "https://dc.lft.to/lastmile_qr_scan", "android": "https://dc.lft.to/lastmile_qr_scan"}, "is_reserved": 0, "lon": -77.04034066666667, "fusion_lat": 0.0, "name": "ca6235b0334d2197190427f10b6a6885"}, {"type": "electric_scooter", "fusion_lon": 0.0, "bike_id": "873712ef2de4c1fceeec8a414c8a8e27", "is_disabled": 0, "lat": 38.924697333333334, "rental_uris": {"ios": "https://dc.lft.to/lastmile_qr_scan", "android": "https://dc.lft.to/lastmile_qr_scan"}, "is_reserved": 0, "lon": -77.02558433333333, "fusion_lat": 0.0, "name": "873712ef2de4c1fceeec8a414c8a8e27"}, {"type": "electric_scooter", "fusion_lon": 0.0, "bike_id": "ab2c5f3ccd380f437eb1657183ddac35", "is_disabled": 0, "lat": 38.92307683333333, "rental_uris": {"ios": "https://dc.lft.to/lastmile_qr_scan", "android": "https://dc.lft.to/lastmile_qr_scan"}, "is_reserved": 0, "lon": -77.03049233333333, "fusion_lat": 0.0, "name": "ab2c5f3ccd380f437eb1657183ddac35"}, {"type": "electric_scooter", "fusion_lon": 0.0, "bike_id": "bdf9d3b93326b60989625a8135b81e90", "is_disabled": 0, "lat": 38.900343, "rental_uris": {"ios": "https://dc.lft.to/lastmile_qr_scan", "android": "https://dc.lft.to/lastmile_qr_scan"}, "is_reserved": 0, "lon": -76.99763916666667, "fusion_lat": 0.0, "name": "bdf9d3b93326b60989625a8135b81e90"}, {"type": "electric_scooter", "fusion_lon": 0.0, "bike_id": "4e8072a45a34f45b2e2a8eb17a9c136f", "is_disabled": 0, "lat": 38.89534116666667, "rental_uris": {"ios": "https://dc.lft.to/lastmile_qr_scan", "android": "https://dc.lft.to/lastmile_qr_scan"}, "is_reserved": 0, "lon": -77.01605316666667, "fusion_lat": 0.0, "name": "4e8072a45a34f45b2e2a8eb17a9c136f"}, {"type": "electric_scooter", "fusion_lon": 0.0, "bike_id": "fa2f1d8d96d653b034a8dc609651673a", "is_disabled": 0, "lat": 38.8920555, "rental_uris": {"ios": "https://dc.lft.to/lastmile_qr_scan", "android": "https://dc.lft.to/lastmile_qr_scan"}, "is_reserved": 0, "lon": -76.95693283333334, "fusion_lat": 0.0, "name": "fa2f1d8d96d653b034a8dc609651673a"}, {"type": "electric_scooter", "fusion_lon": 0.0, "bike_id": "2bc1033da550d2c16c32aa2b7c812595", "is_disabled": 0, "lat": 38.91358283333334, "rental_uris": {"ios": "https://dc.lft.to/lastmile_qr_scan", "android": "https://dc.lft.to/lastmile_qr_scan"}, "is_reserved": 0, "lon": -77.02055933333334, "fusion_lat": 0.0, "name": "2bc1033da550d2c16c32aa2b7c812595"}, {"type": "electric_scooter", "fusion_lon": 0.0, "bike_id": "8b7f8961e7747bee5e49ba3c75b745b8", "is_disabled": 0, "lat": 38.89224866666667, "rental_uris": {"ios": "https://dc.lft.to/lastmile_qr_scan", "android": "https://dc.lft.to/lastmile_qr_scan"}, "is_reserved": 0, "lon": -77.024199, "fusion_lat": 0.0, "name": "8b7f8961e7747bee5e49ba3c75b745b8"}, {"type": "electric_scooter", "fusion_lon": 0.0, "bike_id": "28cf8c199248d171822d6286937f9777", "is_disabled": 0, "lat": 38.92647316666667, "rental_uris": {"ios": "https://dc.lft.to/lastmile_qr_scan", "android": "https://dc.lft.to/lastmile_qr_scan"}, "is_reserved": 0, "lon": -77.03302116666667, "fusion_lat": 0.0, "name": "28cf8c199248d171822d6286937f9777"}, {"type": "electric_scooter", "fusion_lon": 0.0, "bike_id": "3a1fe2fdc7663cd71338d795dcd35856", "is_disabled": 0, "lat": 38.87465016666667, "rental_uris": {"ios": "https://dc.lft.to/lastmile_qr_scan", "android": "https://dc.lft.to/lastmile_qr_scan"}, "is_reserved": 0, "lon": -77.004147, "fusion_lat": 0.0, "name": "3a1fe2fdc7663cd71338d795dcd35856"}, {"type": "electric_scooter", "fusion_lon": 0.0, "bike_id": "f53be0d5e75e659ed4fdc88822184a98", "is_disabled": 0, "lat": 38.9165, "rental_uris": {"ios": "https://dc.lft.to/lastmile_qr_scan", "android": "https://dc.lft.to/lastmile_qr_scan"}, "is_reserved": 0, "lon": -77.0367805, "fusion_lat": 0.0, "name": "f53be0d5e75e659ed4fdc88822184a98"}, {"type": "electric_scooter", "fusion_lon": 0.0, "bike_id": "2355f5474fde6851640f84d3b724430d", "is_disabled": 0, "lat": 38.937129, "rental_uris": {"ios": "https://dc.lft.to/lastmile_qr_scan", "android": "https://dc.lft.to/lastmile_qr_scan"}, "is_reserved": 0, "lon": -77.024626, "fusion_lat": 0.0, "name": "2355f5474fde6851640f84d3b724430d"}, {"type": "electric_scooter", "fusion_lon": 0.0, "bike_id": "03d2d722a3c3798747088bb2fcd061b8", "is_disabled": 0, "lat": 38.91980183333333, "rental_uris": {"ios": "https://dc.lft.to/lastmile_qr_scan", "android": "https://dc.lft.to/lastmile_qr_scan"}, "is_reserved": 0, "lon": -77.02378483333334, "fusion_lat": 0.0, "name": "03d2d722a3c3798747088bb2fcd061b8"}, {"type": "electric_scooter", "fusion_lon": 0.0, "bike_id": "1c208a9e0b7333e3ccd79a0c6ddb9d6f", "is_disabled": 0, "lat": 38.92345566666667, "rental_uris": {"ios": "https://dc.lft.to/lastmile_qr_scan", "android": "https://dc.lft.to/lastmile_qr_scan"}, "is_reserved": 0, "lon": -77.03522166666667, "fusion_lat": 0.0, "name": "1c208a9e0b7333e3ccd79a0c6ddb9d6f"}, {"type": "electric_scooter", "fusion_lon": 0.0, "bike_id": "46009b6ff2af5f97a223bcc2e12f97db", "is_disabled": 0, "lat": 38.926291, "rental_uris": {"ios": "https://dc.lft.to/lastmile_qr_scan", "android": "https://dc.lft.to/lastmile_qr_scan"}, "is_reserved": 0, "lon": -77.022722, "fusion_lat": 0.0, "name": "46009b6ff2af5f97a223bcc2e12f97db"}, {"type": "electric_scooter", "fusion_lon": 0.0, "bike_id": "a643583a7b6b4c921fdacb9d669f42ab", "is_disabled": 0, "lat": 38.909738833333336, "rental_uris": {"ios": "https://dc.lft.to/lastmile_qr_scan", "android": "https://dc.lft.to/lastmile_qr_scan"}, "is_reserved": 0, "lon": -77.0487235, "fusion_lat": 0.0, "name": "a643583a7b6b4c921fdacb9d669f42ab"}, {"type": "electric_scooter", "fusion_lon": 0.0, "bike_id": "5b4e2969f1fd7185fd7dcfb19fc7379d", "is_disabled": 0, "lat": 38.9193105, "rental_uris": {"ios": "https://dc.lft.to/lastmile_qr_scan", "android": "https://dc.lft.to/lastmile_qr_scan"}, "is_reserved": 0, "lon": -77.01787333333333, "fusion_lat": 0.0, "name": "5b4e2969f1fd7185fd7dcfb19fc7379d"}, {"type": "electric_scooter", "fusion_lon": 0.0, "bike_id": "87b34e1e4595e571b1960bbf2eedb0b7", "is_disabled": 0, "lat": 38.904104333333336, "rental_uris": {"ios": "https://dc.lft.to/lastmile_qr_scan", "android": "https://dc.lft.to/lastmile_qr_scan"}, "is_reserved": 0, "lon": -76.97331916666667, "fusion_lat": 0.0, "name": "87b34e1e4595e571b1960bbf2eedb0b7"}, {"type": "electric_scooter", "fusion_lon": 0.0, "bike_id": "2c3b1d1c7fb73d8d0b04eb405a5e8dcd", "is_disabled": 0, "lat": 38.883396166666664, "rental_uris": {"ios": "https://dc.lft.to/lastmile_qr_scan", "android": "https://dc.lft.to/lastmile_qr_scan"}, "is_reserved": 0, "lon": -76.93491633333333, "fusion_lat": 0.0, "name": "2c3b1d1c7fb73d8d0b04eb405a5e8dcd"}, {"type": "electric_scooter", "fusion_lon": 0.0, "bike_id": "a08e08605bf7e52fae8fc313347d2e76", "is_disabled": 0, "lat": 38.90118116666667, "rental_uris": {"ios": "https://dc.lft.to/lastmile_qr_scan", "android": "https://dc.lft.to/lastmile_qr_scan"}, "is_reserved": 0, "lon": -77.04414133333333, "fusion_lat": 0.0, "name": "a08e08605bf7e52fae8fc313347d2e76"}, {"type": "electric_scooter", "fusion_lon": 0.0, "bike_id": "07973a2be4a78e12faac0955f89aeed9", "is_disabled": 0, "lat": 38.9189835, "rental_uris": {"ios": "https://dc.lft.to/lastmile_qr_scan", "android": "https://dc.lft.to/lastmile_qr_scan"}, "is_reserved": 0, "lon": -77.03819766666666, "fusion_lat": 0.0, "name": "07973a2be4a78e12faac0955f89aeed9"}, {"type": "electric_scooter", "fusion_lon": 0.0, "bike_id": "17a26b0ea33b294c729b3731b7a3005c", "is_disabled": 0, "lat": 38.92086533333333, "rental_uris": {"ios": "https://dc.lft.to/lastmile_qr_scan", "android": "https://dc.lft.to/lastmile_qr_scan"}, "is_reserved": 0, "lon": -77.02514466666666, "fusion_lat": 0.0, "name": "17a26b0ea33b294c729b3731b7a3005c"}, {"type": "electric_scooter", "fusion_lon": 0.0, "bike_id": "8c4741d178f2eb838105ba06585555e7", "is_disabled": 0, "lat": 38.89227283333334, "rental_uris": {"ios": "https://dc.lft.to/lastmile_qr_scan", "android": "https://dc.lft.to/lastmile_qr_scan"}, "is_reserved": 0, "lon": -77.050027, "fusion_lat": 0.0, "name": "8c4741d178f2eb838105ba06585555e7"}, {"type": "electric_scooter", "fusion_lon": 0.0, "bike_id": "6daa5cd4037ea78a174cb5afc3adda26", "is_disabled": 0, "lat": 38.92284133333333, "rental_uris": {"ios": "https://dc.lft.to/lastmile_qr_scan", "android": "https://dc.lft.to/lastmile_qr_scan"}, "is_reserved": 0, "lon": -77.036615, "fusion_lat": 0.0, "name": "6daa5cd4037ea78a174cb5afc3adda26"}, {"type": "electric_scooter", "fusion_lon": 0.0, "bike_id": "900710f56488279511787aab515b70b6", "is_disabled": 0, "lat": 38.904259833333334, "rental_uris": {"ios": "https://dc.lft.to/lastmile_qr_scan", "android": "https://dc.lft.to/lastmile_qr_scan"}, "is_reserved": 0, "lon": -77.03427033333334, "fusion_lat": 0.0, "name": "900710f56488279511787aab515b70b6"}, {"type": "electric_scooter", "fusion_lon": 0.0, "bike_id": "3f34ee57297b3db41c6078cf1ac77447", "is_disabled": 0, "lat": 38.905592166666665, "rental_uris": {"ios": "https://dc.lft.to/lastmile_qr_scan", "android": "https://dc.lft.to/lastmile_qr_scan"}, "is_reserved": 0, "lon": -77.02209, "fusion_lat": 0.0, "name": "3f34ee57297b3db41c6078cf1ac77447"}, {"type": "electric_scooter", "fusion_lon": 0.0, "bike_id": "91b620ecc973bee9f85cd517f36ae127", "is_disabled": 0, "lat": 38.9274575, "rental_uris": {"ios": "https://dc.lft.to/lastmile_qr_scan", "android": "https://dc.lft.to/lastmile_qr_scan"}, "is_reserved": 0, "lon": -77.02534016666667, "fusion_lat": 0.0, "name": "91b620ecc973bee9f85cd517f36ae127"}, {"type": "electric_scooter", "fusion_lon": 0.0, "bike_id": "39aa369f4d6a200b83abc64892d3b6bd", "is_disabled": 0, "lat": 38.88413233333333, "rental_uris": {"ios": "https://dc.lft.to/lastmile_qr_scan", "android": "https://dc.lft.to/lastmile_qr_scan"}, "is_reserved": 0, "lon": -77.00446716666667, "fusion_lat": 0.0, "name": "39aa369f4d6a200b83abc64892d3b6bd"}, {"type": "electric_scooter", "fusion_lon": 0.0, "bike_id": "218139e3e55f96947130e3bad950d863", "is_disabled": 0, "lat": 38.9147895, "rental_uris": {"ios": "https://dc.lft.to/lastmile_qr_scan", "android": "https://dc.lft.to/lastmile_qr_scan"}, "is_reserved": 0, "lon": -77.02192516666666, "fusion_lat": 0.0, "name": "218139e3e55f96947130e3bad950d863"}, {"type": "electric_scooter", "fusion_lon": 0.0, "bike_id": "9bccc238057fd88ed02e0d2e6a596889", "is_disabled": 0, "lat": 38.91755883333333, "rental_uris": {"ios": "https://dc.lft.to/lastmile_qr_scan", "android": "https://dc.lft.to/lastmile_qr_scan"}, "is_reserved": 0, "lon": -77.0405945, "fusion_lat": 0.0, "name": "9bccc238057fd88ed02e0d2e6a596889"}, {"type": "electric_bike", "fusion_lon": 0.0, "bike_id": "9ab10278a43bccc6a03ed4945ac59dbe", "is_disabled": 0, "lat": 38.9415285, "rental_uris": {"ios": "https://dc.lft.to/lastmile_qr_scan", "android": "https://dc.lft.to/lastmile_qr_scan"}, "is_reserved": 0, "lon": -77.0019835, "fusion_lat": 0.0, "name": "9ab10278a43bccc6a03ed4945ac59dbe"}, {"type": "electric_scooter", "fusion_lon": 0.0, "bike_id": "d96088abd356f66a08c2b09b821651a2", "is_disabled": 0, "lat": 38.922487333333336, "rental_uris": {"ios": "https://dc.lft.to/lastmile_qr_scan", "android": "https://dc.lft.to/lastmile_qr_scan"}, "is_reserved": 0, "lon": -77.0388825, "fusion_lat": 0.0, "name": "d96088abd356f66a08c2b09b821651a2"}, {"type": "electric_scooter", "fusion_lon": 0.0, "bike_id": "2c881f5bbcba2b2f6082ac9029f158df", "is_disabled": 0, "lat": 38.91916666666667, "rental_uris": {"ios": "https://dc.lft.to/lastmile_qr_scan", "android": "https://dc.lft.to/lastmile_qr_scan"}, "is_reserved": 0, "lon": -77.03265016666667, "fusion_lat": 0.0, "name": "2c881f5bbcba2b2f6082ac9029f158df"}, {"type": "electric_scooter", "fusion_lon": 0.0, "bike_id": "22bfd80b942c01a5bcc185788d7df9b6", "is_disabled": 0, "lat": 38.901952, "rental_uris": {"ios": "https://dc.lft.to/lastmile_qr_scan", "android": "https://dc.lft.to/lastmile_qr_scan"}, "is_reserved": 0, "lon": -76.926378, "fusion_lat": 0.0, "name": "22bfd80b942c01a5bcc185788d7df9b6"}, {"type": "electric_scooter", "fusion_lon": 0.0, "bike_id": "c828acef6f07ac6870a06791d770b697", "is_disabled": 0, "lat": 38.9398575, "rental_uris": {"ios": "https://dc.lft.to/lastmile_qr_scan", "android": "https://dc.lft.to/lastmile_qr_scan"}, "is_reserved": 0, "lon": -77.0255135, "fusion_lat": 0.0, "name": "c828acef6f07ac6870a06791d770b697"}, {"type": "electric_scooter", "fusion_lon": 0.0, "bike_id": "80ab275cd530c17dd6a58a0a82026fe5", "is_disabled": 0, "lat": 38.91623883333333, "rental_uris": {"ios": "https://dc.lft.to/lastmile_qr_scan", "android": "https://dc.lft.to/lastmile_qr_scan"}, "is_reserved": 0, "lon": -77.0426055, "fusion_lat": 0.0, "name": "80ab275cd530c17dd6a58a0a82026fe5"}, {"type": "electric_scooter", "fusion_lon": 0.0, "bike_id": "9d9933f4aeb60c556d7ae1d6fbe2dc4f", "is_disabled": 0, "lat": 38.90392083333333, "rental_uris": {"ios": "https://dc.lft.to/lastmile_qr_scan", "android": "https://dc.lft.to/lastmile_qr_scan"}, "is_reserved": 0, "lon": -76.98496583333333, "fusion_lat": 0.0, "name": "9d9933f4aeb60c556d7ae1d6fbe2dc4f"}, {"type": "electric_scooter", "fusion_lon": 0.0, "bike_id": "331897013c2de6ce706fde500b9e7f17", "is_disabled": 0, "lat": 38.92470083333333, "rental_uris": {"ios": "https://dc.lft.to/lastmile_qr_scan", "android": "https://dc.lft.to/lastmile_qr_scan"}, "is_reserved": 0, "lon": -77.02217716666667, "fusion_lat": 0.0, "name": "331897013c2de6ce706fde500b9e7f17"}, {"type": "electric_bike", "fusion_lon": 0.0, "bike_id": "4cdf031af626f242223e15d35ebfa5e1", "is_disabled": 0, "lat": 38.922815, "rental_uris": {"ios": "https://dc.lft.to/lastmile_qr_scan", "android": "https://dc.lft.to/lastmile_qr_scan"}, "is_reserved": 0, "lon": -76.99772433333334, "fusion_lat": 0.0, "name": "4cdf031af626f242223e15d35ebfa5e1"}, {"type": "electric_scooter", "fusion_lon": 0.0, "bike_id": "0d68b817a5307977d76208fd5a066c0e", "is_disabled": 0, "lat": 38.915526666666665, "rental_uris": {"ios": "https://dc.lft.to/lastmile_qr_scan", "android": "https://dc.lft.to/lastmile_qr_scan"}, "is_reserved": 0, "lon": -77.03247633333334, "fusion_lat": 0.0, "name": "0d68b817a5307977d76208fd5a066c0e"}, {"type": "electric_scooter", "fusion_lon": 0.0, "bike_id": "52817735b4c17c09c61035dd42acf4ed", "is_disabled": 0, "lat": 38.869365333333334, "rental_uris": {"ios": "https://dc.lft.to/lastmile_qr_scan", "android": "https://dc.lft.to/lastmile_qr_scan"}, "is_reserved": 0, "lon": -77.01376733333333, "fusion_lat": 0.0, "name": "52817735b4c17c09c61035dd42acf4ed"}, {"type": "electric_scooter", "fusion_lon": 0.0, "bike_id": "864b4f9e4de6e7f750d8449e61562f44", "is_disabled": 0, "lat": 38.86470833333333, "rental_uris": {"ios": "https://dc.lft.to/lastmile_qr_scan", "android": "https://dc.lft.to/lastmile_qr_scan"}, "is_reserved": 0, "lon": -76.982286, "fusion_lat": 0.0, "name": "864b4f9e4de6e7f750d8449e61562f44"}, {"type": "electric_scooter", "fusion_lon": 0.0, "bike_id": "70285a2b16903273997bf7894593e2a8", "is_disabled": 0, "lat": 38.92111766666667, "rental_uris": {"ios": "https://dc.lft.to/lastmile_qr_scan", "android": "https://dc.lft.to/lastmile_qr_scan"}, "is_reserved": 0, "lon": -77.04688233333333, "fusion_lat": 0.0, "name": "70285a2b16903273997bf7894593e2a8"}, {"type": "electric_scooter", "fusion_lon": 0.0, "bike_id": "84f785391e18cc683cb72fc5947bdda5", "is_disabled": 0, "lat": 38.91838666666666, "rental_uris": {"ios": "https://dc.lft.to/lastmile_qr_scan", "android": "https://dc.lft.to/lastmile_qr_scan"}, "is_reserved": 0, "lon": -77.01788483333333, "fusion_lat": 0.0, "name": "84f785391e18cc683cb72fc5947bdda5"}, {"type": "electric_scooter", "fusion_lon": 0.0, "bike_id": "77ed2fa28693e268530c4e21eb7e3a6b", "is_disabled": 0, "lat": 38.934667166666664, "rental_uris": {"ios": "https://dc.lft.to/lastmile_qr_scan", "android": "https://dc.lft.to/lastmile_qr_scan"}, "is_reserved": 0, "lon": -77.029233, "fusion_lat": 0.0, "name": "77ed2fa28693e268530c4e21eb7e3a6b"}, {"type": "electric_scooter", "fusion_lon": 0.0, "bike_id": "6f2372b4389984fe441d492bc13c5c02", "is_disabled": 0, "lat": 38.917686, "rental_uris": {"ios": "https://dc.lft.to/lastmile_qr_scan", "android": "https://dc.lft.to/lastmile_qr_scan"}, "is_reserved": 0, "lon": -77.02306066666667, "fusion_lat": 0.0, "name": "6f2372b4389984fe441d492bc13c5c02"}, {"type": "electric_scooter", "fusion_lon": 0.0, "bike_id": "fa1ee5d2967978acea5366185b3d3280", "is_disabled": 0, "lat": 38.8961585, "rental_uris": {"ios": "https://dc.lft.to/lastmile_qr_scan", "android": "https://dc.lft.to/lastmile_qr_scan"}, "is_reserved": 0, "lon": -76.9810305, "fusion_lat": 0.0, "name": "fa1ee5d2967978acea5366185b3d3280"}, {"type": "electric_bike", "fusion_lon": 0.0, "bike_id": "ca205137eb917418b0ad11f418dde0b7", "is_disabled": 0, "lat": 38.957554, "rental_uris": {"ios": "https://dc.lft.to/lastmile_qr_scan", "android": "https://dc.lft.to/lastmile_qr_scan"}, "is_reserved": 0, "lon": -76.98019433333333, "fusion_lat": 0.0, "name": "ca205137eb917418b0ad11f418dde0b7"}, {"type": "electric_scooter", "fusion_lon": 0.0, "bike_id": "78c5c435974e6a5edc792cf7f01fc401", "is_disabled": 0, "lat": 38.912737666666665, "rental_uris": {"ios": "https://dc.lft.to/lastmile_qr_scan", "android": "https://dc.lft.to/lastmile_qr_scan"}, "is_reserved": 0, "lon": -77.0221315, "fusion_lat": 0.0, "name": "78c5c435974e6a5edc792cf7f01fc401"}, {"type": "electric_scooter", "fusion_lon": 0.0, "bike_id": "c720e9c5783b2da126fd14dc5394b831", "is_disabled": 0, "lat": 38.905672833333334, "rental_uris": {"ios": "https://dc.lft.to/lastmile_qr_scan", "android": "https://dc.lft.to/lastmile_qr_scan"}, "is_reserved": 0, "lon": -77.00685783333333, "fusion_lat": 0.0, "name": "c720e9c5783b2da126fd14dc5394b831"}, {"type": "electric_scooter", "fusion_lon": 0.0, "bike_id": "4e41f7d177a1fd5eaa99446db593a06f", "is_disabled": 0, "lat": 38.89227533333333, "rental_uris": {"ios": "https://dc.lft.to/lastmile_qr_scan", "android": "https://dc.lft.to/lastmile_qr_scan"}, "is_reserved": 0, "lon": -77.02829066666666, "fusion_lat": 0.0, "name": "4e41f7d177a1fd5eaa99446db593a06f"}, {"type": "electric_scooter", "fusion_lon": 0.0, "bike_id": "828ab629d7c87a86175250455970c646", "is_disabled": 0, "lat": 38.942738166666665, "rental_uris": {"ios": "https://dc.lft.to/lastmile_qr_scan", "android": "https://dc.lft.to/lastmile_qr_scan"}, "is_reserved": 0, "lon": -77.0325975, "fusion_lat": 0.0, "name": "828ab629d7c87a86175250455970c646"}, {"type": "electric_bike", "fusion_lon": 0.0, "bike_id": "94cd23980060191a115f234b8bcf3bfb", "is_disabled": 0, "lat": 38.79984866666667, "rental_uris": {"ios": "https://dc.lft.to/lastmile_qr_scan", "android": "https://dc.lft.to/lastmile_qr_scan"}, "is_reserved": 0, "lon": -77.12978616666666, "fusion_lat": 0.0, "name": "94cd23980060191a115f234b8bcf3bfb"}, {"type": "electric_scooter", "fusion_lon": 0.0, "bike_id": "eae24fb8130daef8ea088d64e7739f42", "is_disabled": 0, "lat": 38.927626, "rental_uris": {"ios": "https://dc.lft.to/lastmile_qr_scan", "android": "https://dc.lft.to/lastmile_qr_scan"}, "is_reserved": 0, "lon": -77.03246366666667, "fusion_lat": 0.0, "name": "eae24fb8130daef8ea088d64e7739f42"}, {"type": "electric_bike", "fusion_lon": 0.0, "bike_id": "4c31b8062cf5fb2c3bd802daa94462c9", "is_disabled": 0, "lat": 38.85547966666667, "rental_uris": {"ios": "https://dc.lft.to/lastmile_qr_scan", "android": "https://dc.lft.to/lastmile_qr_scan"}, "is_reserved": 0, "lon": -76.97339083333334, "fusion_lat": 0.0, "name": "4c31b8062cf5fb2c3bd802daa94462c9"}, {"type": "electric_scooter", "fusion_lon": 0.0, "bike_id": "6a498919fc7caf3cdc9b8fe6ae6027e1", "is_disabled": 0, "lat": 38.87838266666667, "rental_uris": {"ios": "https://dc.lft.to/lastmile_qr_scan", "android": "https://dc.lft.to/lastmile_qr_scan"}, "is_reserved": 0, "lon": -77.01967433333333, "fusion_lat": 0.0, "name": "6a498919fc7caf3cdc9b8fe6ae6027e1"}, {"type": "electric_scooter", "fusion_lon": 0.0, "bike_id": "3a2e8bbf8f2e875736867268f3a7c15d", "is_disabled": 0, "lat": 38.91342233333334, "rental_uris": {"ios": "https://dc.lft.to/lastmile_qr_scan", "android": "https://dc.lft.to/lastmile_qr_scan"}, "is_reserved": 0, "lon": -77.06424466666667, "fusion_lat": 0.0, "name": "3a2e8bbf8f2e875736867268f3a7c15d"}, {"type": "electric_bike", "fusion_lon": 0.0, "bike_id": "880180fd6bd59174242f4044c2d50e19", "is_disabled": 0, "lat": 38.8124625, "rental_uris": {"ios": "https://dc.lft.to/lastmile_qr_scan", "android": "https://dc.lft.to/lastmile_qr_scan"}, "is_reserved": 0, "lon": -77.11764383333333, "fusion_lat": 0.0, "name": "880180fd6bd59174242f4044c2d50e19"}, {"type": "electric_scooter", "fusion_lon": 0.0, "bike_id": "a90df39d0bf42c1a7ff9ee4b83382815", "is_disabled": 0, "lat": 38.92944883333333, "rental_uris": {"ios": "https://dc.lft.to/lastmile_qr_scan", "android": "https://dc.lft.to/lastmile_qr_scan"}, "is_reserved": 0, "lon": -77.03771166666667, "fusion_lat": 0.0, "name": "a90df39d0bf42c1a7ff9ee4b83382815"}, {"type": "electric_scooter", "fusion_lon": 0.0, "bike_id": "2de6b82f7e6cb8ccb343d133d0ef8e9e", "is_disabled": 0, "lat": 38.91750916666667, "rental_uris": {"ios": "https://dc.lft.to/lastmile_qr_scan", "android": "https://dc.lft.to/lastmile_qr_scan"}, "is_reserved": 0, "lon": -77.028126, "fusion_lat": 0.0, "name": "2de6b82f7e6cb8ccb343d133d0ef8e9e"}, {"type": "electric_scooter", "fusion_lon": 0.0, "bike_id": "d2eba62e509b77aa7bdcc95cf6ac2a6f", "is_disabled": 0, "lat": 38.92734933333333, "rental_uris": {"ios": "https://dc.lft.to/lastmile_qr_scan", "android": "https://dc.lft.to/lastmile_qr_scan"}, "is_reserved": 0, "lon": -77.05253316666666, "fusion_lat": 0.0, "name": "d2eba62e509b77aa7bdcc95cf6ac2a6f"}, {"type": "electric_scooter", "fusion_lon": 0.0, "bike_id": "ebb82cdfd43b7d614a717d20da5a172f", "is_disabled": 0, "lat": 38.906321166666665, "rental_uris": {"ios": "https://dc.lft.to/lastmile_qr_scan", "android": "https://dc.lft.to/lastmile_qr_scan"}, "is_reserved": 0, "lon": -77.04642816666667, "fusion_lat": 0.0, "name": "ebb82cdfd43b7d614a717d20da5a172f"}, {"type": "electric_scooter", "fusion_lon": 0.0, "bike_id": "005e8730b237fb2e6676844538f731fd", "is_disabled": 0, "lat": 38.9001095, "rental_uris": {"ios": "https://dc.lft.to/lastmile_qr_scan", "android": "https://dc.lft.to/lastmile_qr_scan"}, "is_reserved": 0, "lon": -77.01266716666666, "fusion_lat": 0.0, "name": "005e8730b237fb2e6676844538f731fd"}, {"type": "electric_scooter", "fusion_lon": 0.0, "bike_id": "7f82c75d2c0c80bf84b6ce22c9609b0b", "is_disabled": 0, "lat": 38.913872166666664, "rental_uris": {"ios": "https://dc.lft.to/lastmile_qr_scan", "android": "https://dc.lft.to/lastmile_qr_scan"}, "is_reserved": 0, "lon": -77.03453416666666, "fusion_lat": 0.0, "name": "7f82c75d2c0c80bf84b6ce22c9609b0b"}, {"type": "electric_scooter", "fusion_lon": 0.0, "bike_id": "1141389fa493902c54c6e3e2d485f68c", "is_disabled": 0, "lat": 38.9276495, "rental_uris": {"ios": "https://dc.lft.to/lastmile_qr_scan", "android": "https://dc.lft.to/lastmile_qr_scan"}, "is_reserved": 0, "lon": -77.0324275, "fusion_lat": 0.0, "name": "1141389fa493902c54c6e3e2d485f68c"}, {"type": "electric_scooter", "fusion_lon": 0.0, "bike_id": "24b4a54394d60133e80438affb6286d9", "is_disabled": 0, "lat": 38.91918583333333, "rental_uris": {"ios": "https://dc.lft.to/lastmile_qr_scan", "android": "https://dc.lft.to/lastmile_qr_scan"}, "is_reserved": 0, "lon": -77.02481516666667, "fusion_lat": 0.0, "name": "24b4a54394d60133e80438affb6286d9"}, {"type": "electric_scooter", "fusion_lon": 0.0, "bike_id": "87552264c06c85196b04b584d1f6ad01", "is_disabled": 0, "lat": 38.927005333333334, "rental_uris": {"ios": "https://dc.lft.to/lastmile_qr_scan", "android": "https://dc.lft.to/lastmile_qr_scan"}, "is_reserved": 0, "lon": -77.02083783333333, "fusion_lat": 0.0, "name": "87552264c06c85196b04b584d1f6ad01"}, {"type": "electric_scooter", "fusion_lon": 0.0, "bike_id": "c0e82554eb195ace0fa81b4f1c327544", "is_disabled": 0, "lat": 38.91342066666667, "rental_uris": {"ios": "https://dc.lft.to/lastmile_qr_scan", "android": "https://dc.lft.to/lastmile_qr_scan"}, "is_reserved": 0, "lon": -77.01507466666666, "fusion_lat": 0.0, "name": "c0e82554eb195ace0fa81b4f1c327544"}, {"type": "electric_scooter", "fusion_lon": 0.0, "bike_id": "0aecf75ea93d1a3ae0ce6332a6a80ffc", "is_disabled": 0, "lat": 38.933528, "rental_uris": {"ios": "https://dc.lft.to/lastmile_qr_scan", "android": "https://dc.lft.to/lastmile_qr_scan"}, "is_reserved": 0, "lon": -77.0730815, "fusion_lat": 0.0, "name": "0aecf75ea93d1a3ae0ce6332a6a80ffc"}, {"type": "electric_scooter", "fusion_lon": 0.0, "bike_id": "5754e53af66151cbcb5d2e1db949cd97", "is_disabled": 0, "lat": 38.8740275, "rental_uris": {"ios": "https://dc.lft.to/lastmile_qr_scan", "android": "https://dc.lft.to/lastmile_qr_scan"}, "is_reserved": 0, "lon": -77.00210083333333, "fusion_lat": 0.0, "name": "5754e53af66151cbcb5d2e1db949cd97"}, {"type": "electric_scooter", "fusion_lon": 0.0, "bike_id": "df2d69c744d75015e4538d9e5e407004", "is_disabled": 0, "lat": 38.885566833333336, "rental_uris": {"ios": "https://dc.lft.to/lastmile_qr_scan", "android": "https://dc.lft.to/lastmile_qr_scan"}, "is_reserved": 0, "lon": -76.99797116666667, "fusion_lat": 0.0, "name": "df2d69c744d75015e4538d9e5e407004"}, {"type": "electric_scooter", "fusion_lon": 0.0, "bike_id": "683443069c067ad31fd89e382a6e4483", "is_disabled": 0, "lat": 38.8997705, "rental_uris": {"ios": "https://dc.lft.to/lastmile_qr_scan", "android": "https://dc.lft.to/lastmile_qr_scan"}, "is_reserved": 0, "lon": -76.99257, "fusion_lat": 0.0, "name": "683443069c067ad31fd89e382a6e4483"}, {"type": "electric_scooter", "fusion_lon": 0.0, "bike_id": "c3e072e94c1452c66dc4b7d2d71891d9", "is_disabled": 0, "lat": 38.8984795, "rental_uris": {"ios": "https://dc.lft.to/lastmile_qr_scan", "android": "https://dc.lft.to/lastmile_qr_scan"}, "is_reserved": 0, "lon": -77.02788116666666, "fusion_lat": 0.0, "name": "c3e072e94c1452c66dc4b7d2d71891d9"}, {"type": "electric_scooter", "fusion_lon": 0.0, "bike_id": "17f8ea11ce120820ad6ea73cb6280cc7", "is_disabled": 0, "lat": 38.89235033333333, "rental_uris": {"ios": "https://dc.lft.to/lastmile_qr_scan", "android": "https://dc.lft.to/lastmile_qr_scan"}, "is_reserved": 0, "lon": -77.04160666666667, "fusion_lat": 0.0, "name": "17f8ea11ce120820ad6ea73cb6280cc7"}, {"type": "electric_bike", "fusion_lon": 0.0, "bike_id": "8fc640ede6d4ee7877b6b076dec6f99d", "is_disabled": 0, "lat": 38.83158866666667, "rental_uris": {"ios": "https://dc.lft.to/lastmile_qr_scan", "android": "https://dc.lft.to/lastmile_qr_scan"}, "is_reserved": 0, "lon": -76.99574966666667, "fusion_lat": 0.0, "name": "8fc640ede6d4ee7877b6b076dec6f99d"}, {"type": "electric_scooter", "fusion_lon": 0.0, "bike_id": "343cb7a044916259af45beaa667bc5b4", "is_disabled": 0, "lat": 38.92710366666667, "rental_uris": {"ios": "https://dc.lft.to/lastmile_qr_scan", "android": "https://dc.lft.to/lastmile_qr_scan"}, "is_reserved": 0, "lon": -77.02095566666667, "fusion_lat": 0.0, "name": "343cb7a044916259af45beaa667bc5b4"}, {"type": "electric_scooter", "fusion_lon": 0.0, "bike_id": "c1d979e97528ea67ca635970273465a3", "is_disabled": 0, "lat": 38.88732266666667, "rental_uris": {"ios": "https://dc.lft.to/lastmile_qr_scan", "android": "https://dc.lft.to/lastmile_qr_scan"}, "is_reserved": 0, "lon": -77.02383166666667, "fusion_lat": 0.0, "name": "c1d979e97528ea67ca635970273465a3"}, {"type": "electric_scooter", "fusion_lon": 0.0, "bike_id": "c73472c3d08c6f86c5679a0624296bc0", "is_disabled": 0, "lat": 38.94193816666667, "rental_uris": {"ios": "https://dc.lft.to/lastmile_qr_scan", "android": "https://dc.lft.to/lastmile_qr_scan"}, "is_reserved": 0, "lon": -77.03843116666667, "fusion_lat": 0.0, "name": "c73472c3d08c6f86c5679a0624296bc0"}, {"type": "electric_scooter", "fusion_lon": 0.0, "bike_id": "9cf8fe291c767859ccee11cd22647e11", "is_disabled": 0, "lat": 38.9069105, "rental_uris": {"ios": "https://dc.lft.to/lastmile_qr_scan", "android": "https://dc.lft.to/lastmile_qr_scan"}, "is_reserved": 0, "lon": -76.98505466666667, "fusion_lat": 0.0, "name": "9cf8fe291c767859ccee11cd22647e11"}, {"type": "electric_scooter", "fusion_lon": 0.0, "bike_id": "892b5985b50231697022d2006caadaa6", "is_disabled": 0, "lat": 38.93543733333333, "rental_uris": {"ios": "https://dc.lft.to/lastmile_qr_scan", "android": "https://dc.lft.to/lastmile_qr_scan"}, "is_reserved": 0, "lon": -77.0342075, "fusion_lat": 0.0, "name": "892b5985b50231697022d2006caadaa6"}, {"type": "electric_scooter", "fusion_lon": 0.0, "bike_id": "a8fe6a84c042150d1322097d65b1aed0", "is_disabled": 0, "lat": 38.911995166666664, "rental_uris": {"ios": "https://dc.lft.to/lastmile_qr_scan", "android": "https://dc.lft.to/lastmile_qr_scan"}, "is_reserved": 0, "lon": -77.0380285, "fusion_lat": 0.0, "name": "a8fe6a84c042150d1322097d65b1aed0"}, {"type": "electric_scooter", "fusion_lon": 0.0, "bike_id": "2427def9fe1567a37bc1394664665626", "is_disabled": 0, "lat": 38.887271, "rental_uris": {"ios": "https://dc.lft.to/lastmile_qr_scan", "android": "https://dc.lft.to/lastmile_qr_scan"}, "is_reserved": 0, "lon": -76.98356883333334, "fusion_lat": 0.0, "name": "2427def9fe1567a37bc1394664665626"}, {"type": "electric_scooter", "fusion_lon": 0.0, "bike_id": "f74299c923746d3588f894c9856a7b72", "is_disabled": 0, "lat": 38.909835, "rental_uris": {"ios": "https://dc.lft.to/lastmile_qr_scan", "android": "https://dc.lft.to/lastmile_qr_scan"}, "is_reserved": 0, "lon": -77.00899716666666, "fusion_lat": 0.0, "name": "f74299c923746d3588f894c9856a7b72"}, {"type": "electric_scooter", "fusion_lon": 0.0, "bike_id": "fbcecdfa8bc6bebcc7abf092bf61d637", "is_disabled": 0, "lat": 38.92655583333333, "rental_uris": {"ios": "https://dc.lft.to/lastmile_qr_scan", "android": "https://dc.lft.to/lastmile_qr_scan"}, "is_reserved": 0, "lon": -77.0243295, "fusion_lat": 0.0, "name": "fbcecdfa8bc6bebcc7abf092bf61d637"}, {"type": "electric_scooter", "fusion_lon": 0.0, "bike_id": "48d22b380fdc3e8c744dc35951da6fa8", "is_disabled": 0, "lat": 38.91948683333333, "rental_uris": {"ios": "https://dc.lft.to/lastmile_qr_scan", "android": "https://dc.lft.to/lastmile_qr_scan"}, "is_reserved": 0, "lon": -77.0416165, "fusion_lat": 0.0, "name": "48d22b380fdc3e8c744dc35951da6fa8"}, {"type": "electric_scooter", "fusion_lon": 0.0, "bike_id": "89c9b0eb0504da058a01d8444543492c", "is_disabled": 0, "lat": 38.935503, "rental_uris": {"ios": "https://dc.lft.to/lastmile_qr_scan", "android": "https://dc.lft.to/lastmile_qr_scan"}, "is_reserved": 0, "lon": -77.05426766666666, "fusion_lat": 0.0, "name": "89c9b0eb0504da058a01d8444543492c"}, {"type": "electric_scooter", "fusion_lon": 0.0, "bike_id": "ecb2e95e2ff855caecb55e6b44c85dfe", "is_disabled": 0, "lat": 38.94974233333333, "rental_uris": {"ios": "https://dc.lft.to/lastmile_qr_scan", "android": "https://dc.lft.to/lastmile_qr_scan"}, "is_reserved": 0, "lon": -77.02446816666667, "fusion_lat": 0.0, "name": "ecb2e95e2ff855caecb55e6b44c85dfe"}, {"type": "electric_bike", "fusion_lon": 0.0, "bike_id": "d2da14cd1c217c4c3de5a9df9c87cdda", "is_disabled": 0, "lat": 38.943375, "rental_uris": {"ios": "https://dc.lft.to/lastmile_qr_scan", "android": "https://dc.lft.to/lastmile_qr_scan"}, "is_reserved": 0, "lon": -77.06062316666667, "fusion_lat": 0.0, "name": "d2da14cd1c217c4c3de5a9df9c87cdda"}, {"type": "electric_scooter", "fusion_lon": 0.0, "bike_id": "12654bf4e86bc612e04cc1a4213f5f72", "is_disabled": 0, "lat": 38.90411666666667, "rental_uris": {"ios": "https://dc.lft.to/lastmile_qr_scan", "android": "https://dc.lft.to/lastmile_qr_scan"}, "is_reserved": 0, "lon": -77.0677725, "fusion_lat": 0.0, "name": "12654bf4e86bc612e04cc1a4213f5f72"}, {"type": "electric_scooter", "fusion_lon": 0.0, "bike_id": "242cbdf4d8d17baa3ad543b160ad24d0", "is_disabled": 0, "lat": 38.922505, "rental_uris": {"ios": "https://dc.lft.to/lastmile_qr_scan", "android": "https://dc.lft.to/lastmile_qr_scan"}, "is_reserved": 0, "lon": -77.03035383333334, "fusion_lat": 0.0, "name": "242cbdf4d8d17baa3ad543b160ad24d0"}, {"type": "electric_scooter", "fusion_lon": 0.0, "bike_id": "4ddff3741743a9ab035d5e330923c457", "is_disabled": 0, "lat": 38.93733966666667, "rental_uris": {"ios": "https://dc.lft.to/lastmile_qr_scan", "android": "https://dc.lft.to/lastmile_qr_scan"}, "is_reserved": 0, "lon": -77.05934583333334, "fusion_lat": 0.0, "name": "4ddff3741743a9ab035d5e330923c457"}, {"type": "electric_scooter", "fusion_lon": 0.0, "bike_id": "2b4617066a8ffa0fb11e3b5a9cd11756", "is_disabled": 0, "lat": 38.876728, "rental_uris": {"ios": "https://dc.lft.to/lastmile_qr_scan", "android": "https://dc.lft.to/lastmile_qr_scan"}, "is_reserved": 0, "lon": -76.93134166666667, "fusion_lat": 0.0, "name": "2b4617066a8ffa0fb11e3b5a9cd11756"}, {"type": "electric_scooter", "fusion_lon": 0.0, "bike_id": "06686d3f9e94de7273f1f56de2b2544d", "is_disabled": 0, "lat": 38.95767033333333, "rental_uris": {"ios": "https://dc.lft.to/lastmile_qr_scan", "android": "https://dc.lft.to/lastmile_qr_scan"}, "is_reserved": 0, "lon": -77.01503516666666, "fusion_lat": 0.0, "name": "06686d3f9e94de7273f1f56de2b2544d"}, {"type": "electric_scooter", "fusion_lon": 0.0, "bike_id": "4a97e6b151fd0e7c67941f5153637b16", "is_disabled": 0, "lat": 38.903212833333335, "rental_uris": {"ios": "https://dc.lft.to/lastmile_qr_scan", "android": "https://dc.lft.to/lastmile_qr_scan"}, "is_reserved": 0, "lon": -77.0163355, "fusion_lat": 0.0, "name": "4a97e6b151fd0e7c67941f5153637b16"}, {"type": "electric_scooter", "fusion_lon": 0.0, "bike_id": "7deff0b671674f2d27467e95249e4641", "is_disabled": 0, "lat": 38.87926916666667, "rental_uris": {"ios": "https://dc.lft.to/lastmile_qr_scan", "android": "https://dc.lft.to/lastmile_qr_scan"}, "is_reserved": 0, "lon": -76.99886166666667, "fusion_lat": 0.0, "name": "7deff0b671674f2d27467e95249e4641"}, {"type": "electric_scooter", "fusion_lon": 0.0, "bike_id": "4df75732d2469f0c80a5fad6dff67a3b", "is_disabled": 0, "lat": 38.93013783333333, "rental_uris": {"ios": "https://dc.lft.to/lastmile_qr_scan", "android": "https://dc.lft.to/lastmile_qr_scan"}, "is_reserved": 0, "lon": -77.02800316666666, "fusion_lat": 0.0, "name": "4df75732d2469f0c80a5fad6dff67a3b"}, {"type": "electric_scooter", "fusion_lon": 0.0, "bike_id": "5660142ee76837acea395a4a1efafd60", "is_disabled": 0, "lat": 38.8922375, "rental_uris": {"ios": "https://dc.lft.to/lastmile_qr_scan", "android": "https://dc.lft.to/lastmile_qr_scan"}, "is_reserved": 0, "lon": -77.04504566666667, "fusion_lat": 0.0, "name": "5660142ee76837acea395a4a1efafd60"}, {"type": "electric_scooter", "fusion_lon": 0.0, "bike_id": "b45f79a4b951eabd7bbe627eea3b9c7b", "is_disabled": 0, "lat": 38.895435166666665, "rental_uris": {"ios": "https://dc.lft.to/lastmile_qr_scan", "android": "https://dc.lft.to/lastmile_qr_scan"}, "is_reserved": 0, "lon": -76.983379, "fusion_lat": 0.0, "name": "b45f79a4b951eabd7bbe627eea3b9c7b"}, {"type": "electric_scooter", "fusion_lon": 0.0, "bike_id": "32f31d16da7bfae96ea74bb6f765952c", "is_disabled": 0, "lat": 38.908659666666665, "rental_uris": {"ios": "https://dc.lft.to/lastmile_qr_scan", "android": "https://dc.lft.to/lastmile_qr_scan"}, "is_reserved": 0, "lon": -77.0188875, "fusion_lat": 0.0, "name": "32f31d16da7bfae96ea74bb6f765952c"}, {"type": "electric_scooter", "fusion_lon": 0.0, "bike_id": "02e21b4a53e78c69e8848833921ae869", "is_disabled": 0, "lat": 38.89217983333333, "rental_uris": {"ios": "https://dc.lft.to/lastmile_qr_scan", "android": "https://dc.lft.to/lastmile_qr_scan"}, "is_reserved": 0, "lon": -77.02627833333334, "fusion_lat": 0.0, "name": "02e21b4a53e78c69e8848833921ae869"}, {"type": "electric_bike", "fusion_lon": 0.0, "bike_id": "4e31e0337f40f815132b75e9ba97524a", "is_disabled": 0, "lat": 38.9725685, "rental_uris": {"ios": "https://dc.lft.to/lastmile_qr_scan", "android": "https://dc.lft.to/lastmile_qr_scan"}, "is_reserved": 0, "lon": -76.99276683333333, "fusion_lat": 0.0, "name": "4e31e0337f40f815132b75e9ba97524a"}, {"type": "electric_scooter", "fusion_lon": 0.0, "bike_id": "5d6a74f38417f54e6fa0bc619e3927a2", "is_disabled": 0, "lat": 38.91255066666667, "rental_uris": {"ios": "https://dc.lft.to/lastmile_qr_scan", "android": "https://dc.lft.to/lastmile_qr_scan"}, "is_reserved": 0, "lon": -77.03825083333334, "fusion_lat": 0.0, "name": "5d6a74f38417f54e6fa0bc619e3927a2"}, {"type": "electric_scooter", "fusion_lon": 0.0, "bike_id": "64786a0132c8cc64f45861dd8a703715", "is_disabled": 0, "lat": 38.87992283333333, "rental_uris": {"ios": "https://dc.lft.to/lastmile_qr_scan", "android": "https://dc.lft.to/lastmile_qr_scan"}, "is_reserved": 0, "lon": -76.98712966666666, "fusion_lat": 0.0, "name": "64786a0132c8cc64f45861dd8a703715"}, {"type": "electric_bike", "fusion_lon": 0.0, "bike_id": "174938109dd552c1f1c9d70821672b75", "is_disabled": 0, "lat": 38.838503333333335, "rental_uris": {"ios": "https://dc.lft.to/lastmile_qr_scan", "android": "https://dc.lft.to/lastmile_qr_scan"}, "is_reserved": 0, "lon": -76.99731866666667, "fusion_lat": 0.0, "name": "174938109dd552c1f1c9d70821672b75"}, {"type": "electric_scooter", "fusion_lon": 0.0, "bike_id": "29d87f024898d15c52db793a99c05888", "is_disabled": 0, "lat": 38.903655, "rental_uris": {"ios": "https://dc.lft.to/lastmile_qr_scan", "android": "https://dc.lft.to/lastmile_qr_scan"}, "is_reserved": 0, "lon": -77.0034815, "fusion_lat": 0.0, "name": "29d87f024898d15c52db793a99c05888"}, {"type": "electric_scooter", "fusion_lon": 0.0, "bike_id": "a762e1952c686ffd45cea957a4d639cf", "is_disabled": 0, "lat": 38.904639, "rental_uris": {"ios": "https://dc.lft.to/lastmile_qr_scan", "android": "https://dc.lft.to/lastmile_qr_scan"}, "is_reserved": 0, "lon": -77.06598416666667, "fusion_lat": 0.0, "name": "a762e1952c686ffd45cea957a4d639cf"}, {"type": "electric_bike", "fusion_lon": 0.0, "bike_id": "7a58cbe9a0417e09da987dab56d4f8c6", "is_disabled": 0, "lat": 38.87133033333333, "rental_uris": {"ios": "https://dc.lft.to/lastmile_qr_scan", "android": "https://dc.lft.to/lastmile_qr_scan"}, "is_reserved": 0, "lon": -76.9372745, "fusion_lat": 0.0, "name": "7a58cbe9a0417e09da987dab56d4f8c6"}, {"type": "electric_scooter", "fusion_lon": 0.0, "bike_id": "8f25ba2c12571bc6b220ac7eae1f237e", "is_disabled": 0, "lat": 38.905106, "rental_uris": {"ios": "https://dc.lft.to/lastmile_qr_scan", "android": "https://dc.lft.to/lastmile_qr_scan"}, "is_reserved": 0, "lon": -76.95207816666667, "fusion_lat": 0.0, "name": "8f25ba2c12571bc6b220ac7eae1f237e"}, {"type": "electric_scooter", "fusion_lon": 0.0, "bike_id": "4559c8b0faa5f54132a1b2f7c4afc266", "is_disabled": 0, "lat": 38.90416466666667, "rental_uris": {"ios": "https://dc.lft.to/lastmile_qr_scan", "android": "https://dc.lft.to/lastmile_qr_scan"}, "is_reserved": 0, "lon": -77.032722, "fusion_lat": 0.0, "name": "4559c8b0faa5f54132a1b2f7c4afc266"}, {"type": "electric_scooter", "fusion_lon": 0.0, "bike_id": "698289afdde8a771af8bf3f3e08f5a1b", "is_disabled": 0, "lat": 38.91889183333333, "rental_uris": {"ios": "https://dc.lft.to/lastmile_qr_scan", "android": "https://dc.lft.to/lastmile_qr_scan"}, "is_reserved": 0, "lon": -77.03826966666666, "fusion_lat": 0.0, "name": "698289afdde8a771af8bf3f3e08f5a1b"}, {"type": "electric_scooter", "fusion_lon": 0.0, "bike_id": "c9871fc3258ac1177cc8136e41e2c3f5", "is_disabled": 0, "lat": 38.891938833333334, "rental_uris": {"ios": "https://dc.lft.to/lastmile_qr_scan", "android": "https://dc.lft.to/lastmile_qr_scan"}, "is_reserved": 0, "lon": -77.00292066666667, "fusion_lat": 0.0, "name": "c9871fc3258ac1177cc8136e41e2c3f5"}, {"type": "electric_scooter", "fusion_lon": 0.0, "bike_id": "5258bb7438d7978c967a6bbc061ce5a3", "is_disabled": 0, "lat": 38.900113166666664, "rental_uris": {"ios": "https://dc.lft.to/lastmile_qr_scan", "android": "https://dc.lft.to/lastmile_qr_scan"}, "is_reserved": 0, "lon": -77.00672316666666, "fusion_lat": 0.0, "name": "5258bb7438d7978c967a6bbc061ce5a3"}, {"type": "electric_scooter", "fusion_lon": 0.0, "bike_id": "856de7e7ae186fda9973ee6ba141a97b", "is_disabled": 0, "lat": 38.8922505, "rental_uris": {"ios": "https://dc.lft.to/lastmile_qr_scan", "android": "https://dc.lft.to/lastmile_qr_scan"}, "is_reserved": 0, "lon": -77.043389, "fusion_lat": 0.0, "name": "856de7e7ae186fda9973ee6ba141a97b"}, {"type": "electric_scooter", "fusion_lon": 0.0, "bike_id": "ef34154b719ad7abe84b7962602fd51b", "is_disabled": 0, "lat": 38.90335966666667, "rental_uris": {"ios": "https://dc.lft.to/lastmile_qr_scan", "android": "https://dc.lft.to/lastmile_qr_scan"}, "is_reserved": 0, "lon": -77.02400066666667, "fusion_lat": 0.0, "name": "ef34154b719ad7abe84b7962602fd51b"}, {"type": "electric_scooter", "fusion_lon": 0.0, "bike_id": "698c912ea8ed48075d320c6f7dbe638d", "is_disabled": 0, "lat": 38.920759333333336, "rental_uris": {"ios": "https://dc.lft.to/lastmile_qr_scan", "android": "https://dc.lft.to/lastmile_qr_scan"}, "is_reserved": 0, "lon": -77.02517733333333, "fusion_lat": 0.0, "name": "698c912ea8ed48075d320c6f7dbe638d"}, {"type": "electric_scooter", "fusion_lon": 0.0, "bike_id": "e973aed834b0f02911b1067d33cb9bf1", "is_disabled": 0, "lat": 38.972135333333334, "rental_uris": {"ios": "https://dc.lft.to/lastmile_qr_scan", "android": "https://dc.lft.to/lastmile_qr_scan"}, "is_reserved": 0, "lon": -77.03338166666667, "fusion_lat": 0.0, "name": "e973aed834b0f02911b1067d33cb9bf1"}, {"type": "electric_scooter", "fusion_lon": 0.0, "bike_id": "fdd2050f7e49e482433298d5a0b2afed", "is_disabled": 0, "lat": 38.90435683333333, "rental_uris": {"ios": "https://dc.lft.to/lastmile_qr_scan", "android": "https://dc.lft.to/lastmile_qr_scan"}, "is_reserved": 0, "lon": -77.04277166666667, "fusion_lat": 0.0, "name": "fdd2050f7e49e482433298d5a0b2afed"}, {"type": "electric_scooter", "fusion_lon": 0.0, "bike_id": "8bd022dce9d8d4ca09675cd1d66a029d", "is_disabled": 0, "lat": 38.91410033333333, "rental_uris": {"ios": "https://dc.lft.to/lastmile_qr_scan", "android": "https://dc.lft.to/lastmile_qr_scan"}, "is_reserved": 0, "lon": -77.0326255, "fusion_lat": 0.0, "name": "8bd022dce9d8d4ca09675cd1d66a029d"}, {"type": "electric_scooter", "fusion_lon": 0.0, "bike_id": "5af995a92fa2f4b4136461c7d349fc26", "is_disabled": 0, "lat": 38.924671833333335, "rental_uris": {"ios": "https://dc.lft.to/lastmile_qr_scan", "android": "https://dc.lft.to/lastmile_qr_scan"}, "is_reserved": 0, "lon": -77.0271685, "fusion_lat": 0.0, "name": "5af995a92fa2f4b4136461c7d349fc26"}, {"type": "electric_scooter", "fusion_lon": 0.0, "bike_id": "a1bb5200d39d3cd6201633510f1f8501", "is_disabled": 0, "lat": 38.91201183333333, "rental_uris": {"ios": "https://dc.lft.to/lastmile_qr_scan", "android": "https://dc.lft.to/lastmile_qr_scan"}, "is_reserved": 0, "lon": -77.04546216666667, "fusion_lat": 0.0, "name": "a1bb5200d39d3cd6201633510f1f8501"}, {"type": "electric_scooter", "fusion_lon": 0.0, "bike_id": "25a4f0e5f849cc7bada0a816aad6e158", "is_disabled": 0, "lat": 38.89755666666667, "rental_uris": {"ios": "https://dc.lft.to/lastmile_qr_scan", "android": "https://dc.lft.to/lastmile_qr_scan"}, "is_reserved": 0, "lon": -76.98649033333334, "fusion_lat": 0.0, "name": "25a4f0e5f849cc7bada0a816aad6e158"},