{"data": {"bikes": [{"lon": -76.99192716666667, "bike_id": "8464fb33ae105d48d44719699b399213", "lat": 38.88270116666666, "fusion_lon": 0.0, "fusion_lat": 0.0, "type": "electric_scooter", "name": "8464fb33ae105d48d44719699b399213", "is_disabled": 0, "rental_uris": {"ios": "https://dc.lft.to/lastmile_qr_scan", "android": "https://dc.lft.to/lastmile_qr_scan"}, "is_reserved": 0}, {"lon": -77.03006983333333, "bike_id": "c297958700627577b33ce633661a3b70", "lat": 38.89384066666667, "fusion_lon": 0.0, "fusion_lat": 0.0, "type": "electric_scooter", "name": "c297958700627577b33ce633661a3b70", "is_disabled": 0, "rental_uris": {"ios": "https://dc.lft.to/lastmile_qr_scan", "android": "https://dc.lft.to/lastmile_qr_scan"}, "is_reserved": 0}, {"lon": -77.03275366666666, "bike_id": "d04c958573c39823b27bb2a1f6849309", "lat": 38.9290925, "fusion_lon": 0.0, "fusion_lat": 0.0, "type": "electric_scooter", "name": "d04c958573c39823b27bb2a1f6849309", "is_disabled": 0, "rental_uris": {"ios": "https://dc.lft.to/lastmile_qr_scan", "android": "https://dc.lft.to/lastmile_qr_scan"}, "is_reserved": 0}, {"lon": -77.044584, "bike_id": "d8d89ff0631013831f3056f06db75c8f", "lat": 38.90833166666667, "fusion_lon": 0.0, "fusion_lat": 0.0, "type": "electric_scooter", "name": "d8d89ff0631013831f3056f06db75c8f", "is_disabled": 0, "rental_uris": {"ios": "https://dc.lft.to/lastmile_qr_scan", "android": "https://dc.lft.to/lastmile_qr_scan"}, "is_reserved": 0}, {"lon": -77.02003916666666, "bike_id": "cca125dd907f7d310ef4ad3284a4d761", "lat": 38.90266733333333, "fusion_lon": 0.0, "fusion_lat": 0.0, "type": "electric_scooter", "name": "cca125dd907f7d310ef4ad3284a4d761", "is_disabled": 0, "rental_uris": {"ios": "https://dc.lft.to/lastmile_qr_scan", "android": "https://dc.lft.to/lastmile_qr_scan"}, "is_reserved": 0}, {"lon": -77.03759283333333, "bike_id": "32f0c2075f0367506fcc9b290f5ae1d8", "lat": 38.92217133333333, "fusion_lon": 0.0, "fusion_lat": 0.0, "type": "electric_scooter", "name": "32f0c2075f0367506fcc9b290f5ae1d8", "is_disabled": 0, "rental_uris": {"ios": "https://dc.lft.to/lastmile_qr_scan", "android": "https://dc.lft.to/lastmile_qr_scan"}, "is_reserved": 0}, {"lon": -77.02551816666667, "bike_id": "9a2a29e2d27982922a27dabacbf3bbfd", "lat": 38.91415283333333, "fusion_lon": 0.0, "fusion_lat": 0.0, "type": "electric_scooter", "name": "9a2a29e2d27982922a27dabacbf3bbfd", "is_disabled": 0, "rental_uris": {"ios": "https://dc.lft.to/lastmile_qr_scan", "android": "https://dc.lft.to/lastmile_qr_scan"}, "is_reserved": 0}, {"lon": -76.98273066666667, "bike_id": "6ea9b35b57053c151d4d7d957d3b03b5", "lat": 38.885323666666665, "fusion_lon": 0.0, "fusion_lat": 0.0, "type": "electric_scooter", "name": "6ea9b35b57053c151d4d7d957d3b03b5", "is_disabled": 0, "rental_uris": {"ios": "https://dc.lft.to/lastmile_qr_scan", "android": "https://dc.lft.to/lastmile_qr_scan"}, "is_reserved": 0}, {"lon": -77.03263116666666, "bike_id": "dbb7ee953d9dc28b16e571050e6e00e9", "lat": 38.93970766666666, "fusion_lon": 0.0, "fusion_lat": 0.0, "type": "electric_scooter", "name": "dbb7ee953d9dc28b16e571050e6e00e9", "is_disabled": 0, "rental_uris": {"ios": "https://dc.lft.to/lastmile_qr_scan", "android": "https://dc.lft.to/lastmile_qr_scan"}, "is_reserved": 0}, {"lon": -77.02185533333333, "bike_id": "86dc94c2025dc3bcf92e3eb9c6fbb0c3", "lat": 38.901045, "fusion_lon": 0.0, "fusion_lat": 0.0, "type": "electric_scooter", "name": "86dc94c2025dc3bcf92e3eb9c6fbb0c3", "is_disabled": 0, "rental_uris": {"ios": "https://dc.lft.to/lastmile_qr_scan", "android": "https://dc.lft.to/lastmile_qr_scan"}, "is_reserved": 0}, {"lon": -77.06075466666667, "bike_id": "682b47d0a29848556410c5bc0798703b", "lat": 38.90530566666666, "fusion_lon": 0.0, "fusion_lat": 0.0, "type": "electric_scooter", "name": "682b47d0a29848556410c5bc0798703b", "is_disabled": 0, "rental_uris": {"ios": "https://dc.lft.to/lastmile_qr_scan", "android": "https://dc.lft.to/lastmile_qr_scan"}, "is_reserved": 0}, {"lon": -77.05889683333334, "bike_id": "8a6992715875a411d6332284b280b243", "lat": 38.936390333333335, "fusion_lon": 0.0, "fusion_lat": 0.0, "type": "electric_scooter", "name": "8a6992715875a411d6332284b280b243", "is_disabled": 0, "rental_uris": {"ios": "https://dc.lft.to/lastmile_qr_scan", "android": "https://dc.lft.to/lastmile_qr_scan"}, "is_reserved": 0}, {"lon": -76.9811115, "bike_id": "14e26b75d3862c1ffdf97e291dc3c03e", "lat": 38.9039475, "fusion_lon": 0.0, "fusion_lat": 0.0, "type": "electric_scooter", "name": "14e26b75d3862c1ffdf97e291dc3c03e", "is_disabled": 0, "rental_uris": {"ios": "https://dc.lft.to/lastmile_qr_scan", "android": "https://dc.lft.to/lastmile_qr_scan"}, "is_reserved": 0}, {"lon": -76.9978145, "bike_id": "72542d8fcfe51c2e6400bdf03ebb3468", "lat": 38.84430566666666, "fusion_lon": 0.0, "fusion_lat": 0.0, "type": "electric_scooter", "name": "72542d8fcfe51c2e6400bdf03ebb3468", "is_disabled": 0, "rental_uris": {"ios": "https://dc.lft.to/lastmile_qr_scan", "android": "https://dc.lft.to/lastmile_qr_scan"}, "is_reserved": 0}, {"lon": -77.02194166666666, "bike_id": "0ad3807f07e1097c8d3b8d418ad9dd17", "lat": 38.90539833333333, "fusion_lon": 0.0, "fusion_lat": 0.0, "type": "electric_scooter", "name": "0ad3807f07e1097c8d3b8d418ad9dd17", "is_disabled": 0, "rental_uris": {"ios": "https://dc.lft.to/lastmile_qr_scan", "android": "https://dc.lft.to/lastmile_qr_scan"}, "is_reserved": 0}, {"lon": -77.0316295, "bike_id": "f8f8cae658ebf397ea42fa2e43e0b77b", "lat": 38.915641, "fusion_lon": 0.0, "fusion_lat": 0.0, "type": "electric_scooter", "name": "f8f8cae658ebf397ea42fa2e43e0b77b", "is_disabled": 0, "rental_uris": {"ios": "https://dc.lft.to/lastmile_qr_scan", "android": "https://dc.lft.to/lastmile_qr_scan"}, "is_reserved": 0}, {"lon": -77.04643016666667, "bike_id": "8b2b88f7cadf3a318834560b0488730a", "lat": 38.915843833333334, "fusion_lon": 0.0, "fusion_lat": 0.0, "type": "electric_scooter", "name": "8b2b88f7cadf3a318834560b0488730a", "is_disabled": 0, "rental_uris": {"ios": "https://dc.lft.to/lastmile_qr_scan", "android": "https://dc.lft.to/lastmile_qr_scan"}, "is_reserved": 0}, {"lon": -77.02529333333334, "bike_id": "e79ff07647e6924fb567a4e1fcbf978f", "lat": 38.93285766666666, "fusion_lon": 0.0, "fusion_lat": 0.0, "type": "electric_scooter", "name": "e79ff07647e6924fb567a4e1fcbf978f", "is_disabled": 0, "rental_uris": {"ios": "https://dc.lft.to/lastmile_qr_scan", "android": "https://dc.lft.to/lastmile_qr_scan"}, "is_reserved": 0}, {"lon": -76.9753105, "bike_id": "141587f9fe22a063412ca0c20e349dfb", "lat": 38.903311333333335, "fusion_lon": 0.0, "fusion_lat": 0.0, "type": "electric_bike", "name": "141587f9fe22a063412ca0c20e349dfb", "is_disabled": 0, "rental_uris": {"ios": "https://dc.lft.to/lastmile_qr_scan", "android": "https://dc.lft.to/lastmile_qr_scan"}, "is_reserved": 0}, {"lon": -77.01973983333333, "bike_id": "f4c4a0244253842b474440e9dcba51db", "lat": 38.9042385, "fusion_lon": 0.0, "fusion_lat": 0.0, "type": "electric_scooter", "name": "f4c4a0244253842b474440e9dcba51db", "is_disabled": 0, "rental_uris": {"ios": "https://dc.lft.to/lastmile_qr_scan", "android": "https://dc.lft.to/lastmile_qr_scan"}, "is_reserved": 0}, {"lon": -77.0513025, "bike_id": "317d824f86b65325e03f94eeb3f00462", "lat": 38.923638833333335, "fusion_lon": 0.0, "fusion_lat": 0.0, "type": "electric_scooter", "name": "317d824f86b65325e03f94eeb3f00462", "is_disabled": 0, "rental_uris": {"ios": "https://dc.lft.to/lastmile_qr_scan", "android": "https://dc.lft.to/lastmile_qr_scan"}, "is_reserved": 0}, {"lon": -76.98569616666667, "bike_id": "c91cd78fbad36f6d000f11b4d37965f7", "lat": 38.900097833333334, "fusion_lon": 0.0, "fusion_lat": 0.0, "type": "electric_scooter", "name": "c91cd78fbad36f6d000f11b4d37965f7", "is_disabled": 0, "rental_uris": {"ios": "https://dc.lft.to/lastmile_qr_scan", "android": "https://dc.lft.to/lastmile_qr_scan"}, "is_reserved": 0}, {"lon": -77.04102316666666, "bike_id": "712d0ac0da695747075128cc8af85706", "lat": 38.918546666666664, "fusion_lon": 0.0, "fusion_lat": 0.0, "type": "electric_scooter", "name": "712d0ac0da695747075128cc8af85706", "is_disabled": 0, "rental_uris": {"ios": "https://dc.lft.to/lastmile_qr_scan", "android": "https://dc.lft.to/lastmile_qr_scan"}, "is_reserved": 0}, {"lon": -77.02704916666667, "bike_id": "fd1fa4120227ee1d1467f11a896d3673", "lat": 38.904528, "fusion_lon": 0.0, "fusion_lat": 0.0, "type": "electric_scooter", "name": "fd1fa4120227ee1d1467f11a896d3673", "is_disabled": 0, "rental_uris": {"ios": "https://dc.lft.to/lastmile_qr_scan", "android": "https://dc.lft.to/lastmile_qr_scan"}, "is_reserved": 0}, {"lon": -76.98095633333334, "bike_id": "fd80620d05601e90c6bd421d64846df7", "lat": 38.8813445, "fusion_lon": 0.0, "fusion_lat": 0.0, "type": "electric_bike", "name": "fd80620d05601e90c6bd421d64846df7", "is_disabled": 0, "rental_uris": {"ios": "https://dc.lft.to/lastmile_qr_scan", "android": "https://dc.lft.to/lastmile_qr_scan"}, "is_reserved": 0}, {"lon": -76.9984475, "bike_id": "f1716734bd65fcf35d70fb06db922b44", "lat": 38.90236083333333, "fusion_lon": 0.0, "fusion_lat": 0.0, "type": "electric_scooter", "name": "f1716734bd65fcf35d70fb06db922b44", "is_disabled": 0, "rental_uris": {"ios": "https://dc.lft.to/lastmile_qr_scan", "android": "https://dc.lft.to/lastmile_qr_scan"}, "is_reserved": 0}, {"lon": -76.933672, "bike_id": "99b0d1b4bd1177852b284f125d272b5d", "lat": 38.899161, "fusion_lon": 0.0, "fusion_lat": 0.0, "type": "electric_scooter", "name": "99b0d1b4bd1177852b284f125d272b5d", "is_disabled": 0, "rental_uris": {"ios": "https://dc.lft.to/lastmile_qr_scan", "android": "https://dc.lft.to/lastmile_qr_scan"}, "is_reserved": 0}, {"lon": -77.0325395, "bike_id": "a43c75f38db8b8629f50848992159d15", "lat": 38.92912416666667, "fusion_lon": 0.0, "fusion_lat": 0.0, "type": "electric_scooter", "name": "a43c75f38db8b8629f50848992159d15", "is_disabled": 0, "rental_uris": {"ios": "https://dc.lft.to/lastmile_qr_scan", "android": "https://dc.lft.to/lastmile_qr_scan"}, "is_reserved": 0}, {"lon": -76.99474716666667, "bike_id": "192676224d02cc331ae52502019758c1", "lat": 38.862171000000004, "fusion_lon": 0.0, "fusion_lat": 0.0, "type": "electric_scooter", "name": "192676224d02cc331ae52502019758c1", "is_disabled": 0, "rental_uris": {"ios": "https://dc.lft.to/lastmile_qr_scan", "android": "https://dc.lft.to/lastmile_qr_scan"}, "is_reserved": 0}, {"lon": -77.0237155, "bike_id": "9f3d3faa995415c3b818f70631d25802", "lat": 38.918405666666665, "fusion_lon": 0.0, "fusion_lat": 0.0, "type": "electric_scooter", "name": "9f3d3faa995415c3b818f70631d25802", "is_disabled": 0, "rental_uris": {"ios": "https://dc.lft.to/lastmile_qr_scan", "android": "https://dc.lft.to/lastmile_qr_scan"}, "is_reserved": 0}, {"lon": -77.03275783333333, "bike_id": "5e6a61930602762111e4d60c18c397b0", "lat": 38.9325395, "fusion_lon": 0.0, "fusion_lat": 0.0, "type": "electric_scooter", "name": "5e6a61930602762111e4d60c18c397b0", "is_disabled": 0, "rental_uris": {"ios": "https://dc.lft.to/lastmile_qr_scan", "android": "https://dc.lft.to/lastmile_qr_scan"}, "is_reserved": 0}, {"lon": -77.02201633333334, "bike_id": "c3a0e9fd41131a4677490a61825fadb2", "lat": 38.89513383333333, "fusion_lon": 0.0, "fusion_lat": 0.0, "type": "electric_scooter", "name": "c3a0e9fd41131a4677490a61825fadb2", "is_disabled": 0, "rental_uris": {"ios": "https://dc.lft.to/lastmile_qr_scan", "android": "https://dc.lft.to/lastmile_qr_scan"}, "is_reserved": 0}, {"lon": -77.04193833333333, "bike_id": "426abeebcd4085819c0b1dc3d57e7e82", "lat": 38.92622516666667, "fusion_lon": 0.0, "fusion_lat": 0.0, "type": "electric_scooter", "name": "426abeebcd4085819c0b1dc3d57e7e82", "is_disabled": 0, "rental_uris": {"ios": "https://dc.lft.to/lastmile_qr_scan", "android": "https://dc.lft.to/lastmile_qr_scan"}, "is_reserved": 0}, {"lon": -77.02383716666667, "bike_id": "dae7bca45de54da0271c8069a1322287", "lat": 38.90951616666667, "fusion_lon": 0.0, "fusion_lat": 0.0, "type": "electric_scooter", "name": "dae7bca45de54da0271c8069a1322287", "is_disabled": 0, "rental_uris": {"ios": "https://dc.lft.to/lastmile_qr_scan", "android": "https://dc.lft.to/lastmile_qr_scan"}, "is_reserved": 0}, {"lon": -77.03672083333333, "bike_id": "c17f9ae395ff9f76fef492671a2757d8", "lat": 38.902877, "fusion_lon": 0.0, "fusion_lat": 0.0, "type": "electric_scooter", "name": "c17f9ae395ff9f76fef492671a2757d8", "is_disabled": 0, "rental_uris": {"ios": "https://dc.lft.to/lastmile_qr_scan", "android": "https://dc.lft.to/lastmile_qr_scan"}, "is_reserved": 0}, {"lon": -77.01726916666667, "bike_id": "be1c623a72e74d648e5530c0e6f57324", "lat": 38.915036666666666, "fusion_lon": 0.0, "fusion_lat": 0.0, "type": "electric_scooter", "name": "be1c623a72e74d648e5530c0e6f57324", "is_disabled": 0, "rental_uris": {"ios": "https://dc.lft.to/lastmile_qr_scan", "android": "https://dc.lft.to/lastmile_qr_scan"}, "is_reserved": 0}, {"lon": -76.949718, "bike_id": "5031f0a25479b23e41b7b915cc149f88", "lat": 38.89442866666667, "fusion_lon": 0.0, "fusion_lat": 0.0, "type": "electric_scooter", "name": "5031f0a25479b23e41b7b915cc149f88", "is_disabled": 0, "rental_uris": {"ios": "https://dc.lft.to/lastmile_qr_scan", "android": "https://dc.lft.to/lastmile_qr_scan"}, "is_reserved": 0}, {"lon": -76.95190366666667, "bike_id": "f810e8e8e9b96bdf2eb9d031107bfcfe", "lat": 38.900048166666664, "fusion_lon": 0.0, "fusion_lat": 0.0, "type": "electric_scooter", "name": "f810e8e8e9b96bdf2eb9d031107bfcfe", "is_disabled": 0, "rental_uris": {"ios": "https://dc.lft.to/lastmile_qr_scan", "android": "https://dc.lft.to/lastmile_qr_scan"}, "is_reserved": 0}, {"lon": -77.0251705, "bike_id": "ad66bbdc28b6751a23b80659c0cf7f22", "lat": 38.917607333333336, "fusion_lon": 0.0, "fusion_lat": 0.0, "type": "electric_scooter", "name": "ad66bbdc28b6751a23b80659c0cf7f22", "is_disabled": 0, "rental_uris": {"ios": "https://dc.lft.to/lastmile_qr_scan", "android": "https://dc.lft.to/lastmile_qr_scan"}, "is_reserved": 0}, {"lon": -77.04724183333333, "bike_id": "d43b732866409e2697ac6f2c58742634", "lat": 38.922313, "fusion_lon": 0.0, "fusion_lat": 0.0, "type": "electric_scooter", "name": "d43b732866409e2697ac6f2c58742634", "is_disabled": 0, "rental_uris": {"ios": "https://dc.lft.to/lastmile_qr_scan", "android": "https://dc.lft.to/lastmile_qr_scan"}, "is_reserved": 0}, {"lon": -76.993739, "bike_id": "0ed80d9da819725630d6df48224e603f", "lat": 38.883382166666664, "fusion_lon": 0.0, "fusion_lat": 0.0, "type": "electric_scooter", "name": "0ed80d9da819725630d6df48224e603f", "is_disabled": 0, "rental_uris": {"ios": "https://dc.lft.to/lastmile_qr_scan", "android": "https://dc.lft.to/lastmile_qr_scan"}, "is_reserved": 0}, {"lon": -77.06104466666666, "bike_id": "4ae26ce2e7c962f5b3cf8ba272d14af0", "lat": 38.94366216666667, "fusion_lon": 0.0, "fusion_lat": 0.0, "type": "electric_scooter", "name": "4ae26ce2e7c962f5b3cf8ba272d14af0", "is_disabled": 0, "rental_uris": {"ios": "https://dc.lft.to/lastmile_qr_scan", "android": "https://dc.lft.to/lastmile_qr_scan"}, "is_reserved": 0}, {"lon": -77.04467266666667, "bike_id": "137af7c9cb65d46bb3181e2856f8eff6", "lat": 38.918750333333335, "fusion_lon": 0.0, "fusion_lat": 0.0, "type": "electric_scooter", "name": "137af7c9cb65d46bb3181e2856f8eff6", "is_disabled": 0, "rental_uris": {"ios": "https://dc.lft.to/lastmile_qr_scan", "android": "https://dc.lft.to/lastmile_qr_scan"}, "is_reserved": 0}, {"lon": -77.01440433333333, "bike_id": "377a323c483e0bd737f93ce1719b9cac", "lat": 38.909562, "fusion_lon": 0.0, "fusion_lat": 0.0, "type": "electric_scooter", "name": "377a323c483e0bd737f93ce1719b9cac", "is_disabled": 0, "rental_uris": {"ios": "https://dc.lft.to/lastmile_qr_scan", "android": "https://dc.lft.to/lastmile_qr_scan"}, "is_reserved": 0}, {"lon": -77.03200366666667, "bike_id": "2e9413cf0d42f8374715bb5b4992bf56", "lat": 38.899682, "fusion_lon": 0.0, "fusion_lat": 0.0, "type": "electric_scooter", "name": "2e9413cf0d42f8374715bb5b4992bf56", "is_disabled": 0, "rental_uris": {"ios": "https://dc.lft.to/lastmile_qr_scan", "android": "https://dc.lft.to/lastmile_qr_scan"}, "is_reserved": 0}, {"lon": -77.02141133333333, "bike_id": "57e4ebc360051b1bd75c0f36dc640ad3", "lat": 38.92459016666667, "fusion_lon": 0.0, "fusion_lat": 0.0, "type": "electric_scooter", "name": "57e4ebc360051b1bd75c0f36dc640ad3", "is_disabled": 0, "rental_uris": {"ios": "https://dc.lft.to/lastmile_qr_scan", "android": "https://dc.lft.to/lastmile_qr_scan"}, "is_reserved": 0}, {"lon": -77.03187966666667, "bike_id": "a4d5b38d077a69117516660e87671220", "lat": 38.936052333333336, "fusion_lon": 0.0, "fusion_lat": 0.0, "type": "electric_scooter", "name": "a4d5b38d077a69117516660e87671220", "is_disabled": 0, "rental_uris": {"ios": "https://dc.lft.to/lastmile_qr_scan", "android": "https://dc.lft.to/lastmile_qr_scan"}, "is_reserved": 0}, {"lon": -76.9857185, "bike_id": "8a87b1c508aac20504dee0fa300f044f", "lat": 38.896192166666665, "fusion_lon": 0.0, "fusion_lat": 0.0, "type": "electric_scooter", "name": "8a87b1c508aac20504dee0fa300f044f", "is_disabled": 0, "rental_uris": {"ios": "https://dc.lft.to/lastmile_qr_scan", "android": "https://dc.lft.to/lastmile_qr_scan"}, "is_reserved": 0}, {"lon": -77.04482866666666, "bike_id": "cbd261fcda250b4dcee03aca3f36415a", "lat": 38.9154655, "fusion_lon": 0.0, "fusion_lat": 0.0, "type": "electric_scooter", "name": "cbd261fcda250b4dcee03aca3f36415a", "is_disabled": 0, "rental_uris": {"ios": "https://dc.lft.to/lastmile_qr_scan", "android": "https://dc.lft.to/lastmile_qr_scan"}, "is_reserved": 0}, {"lon": -77.02675583333334, "bike_id": "bd163929108c3211d182e65e62e344ef", "lat": 38.91806916666667, "fusion_lon": 0.0, "fusion_lat": 0.0, "type": "electric_scooter", "name": "bd163929108c3211d182e65e62e344ef", "is_disabled": 0, "rental_uris": {"ios": "https://dc.lft.to/lastmile_qr_scan", "android": "https://dc.lft.to/lastmile_qr_scan"}, "is_reserved": 0}, {"lon": -77.04506616666667, "bike_id": "55ec1067c28828f08c8ffd03b849f9a9", "lat": 38.9071185, "fusion_lon": 0.0, "fusion_lat": 0.0, "type": "electric_scooter", "name": "55ec1067c28828f08c8ffd03b849f9a9", "is_disabled": 0, "rental_uris": {"ios": "https://dc.lft.to/lastmile_qr_scan", "android": "https://dc.lft.to/lastmile_qr_scan"}, "is_reserved": 0}, {"lon": -77.03439133333333, "bike_id": "9b1622a755777b07532ba95964f48043", "lat": 38.92875566666667, "fusion_lon": 0.0, "fusion_lat": 0.0, "type": "electric_scooter", "name": "9b1622a755777b07532ba95964f48043", "is_disabled": 0, "rental_uris": {"ios": "https://dc.lft.to/lastmile_qr_scan", "android": "https://dc.lft.to/lastmile_qr_scan"}, "is_reserved": 0}, {"lon": -77.028111, "bike_id": "45cca2f1b84b8a98125c2e5aa6c21d5e", "lat": 38.93079566666667, "fusion_lon": 0.0, "fusion_lat": 0.0, "type": "electric_scooter", "name": "45cca2f1b84b8a98125c2e5aa6c21d5e", "is_disabled": 0, "rental_uris": {"ios": "https://dc.lft.to/lastmile_qr_scan", "android": "https://dc.lft.to/lastmile_qr_scan"}, "is_reserved": 0}, {"lon": -77.0949365, "bike_id": "cd35cdf4c38327b4ad9f060cb17b27c3", "lat": 38.872266333333336, "fusion_lon": 0.0, "fusion_lat": 0.0, "type": "electric_bike", "name": "cd35cdf4c38327b4ad9f060cb17b27c3", "is_disabled": 0, "rental_uris": {"ios": "https://dc.lft.to/lastmile_qr_scan", "android": "https://dc.lft.to/lastmile_qr_scan"}, "is_reserved": 0}, {"lon": -76.93001666666666, "bike_id": "3e7536b9a43d8911f37f34f0defd2004", "lat": 38.89331983333334, "fusion_lon": 0.0, "fusion_lat": 0.0, "type": "electric_scooter", "name": "3e7536b9a43d8911f37f34f0defd2004", "is_disabled": 0, "rental_uris": {"ios": "https://dc.lft.to/lastmile_qr_scan", "android": "https://dc.lft.to/lastmile_qr_scan"}, "is_reserved": 0}, {"lon": -76.99949616666666, "bike_id": "66da3d9da0371151572498a32391241d", "lat": 38.8964215, "fusion_lon": 0.0, "fusion_lat": 0.0, "type": "electric_scooter", "name": "66da3d9da0371151572498a32391241d", "is_disabled": 0, "rental_uris": {"ios": "https://dc.lft.to/lastmile_qr_scan", "android": "https://dc.lft.to/lastmile_qr_scan"}, "is_reserved": 0}, {"lon": -77.03241416666667, "bike_id": "b17d6d60d56e17cd4b7d8d9b614efe34", "lat": 38.91710883333333, "fusion_lon": 0.0, "fusion_lat": 0.0, "type": "electric_scooter", "name": "b17d6d60d56e17cd4b7d8d9b614efe34", "is_disabled": 0, "rental_uris": {"ios": "https://dc.lft.to/lastmile_qr_scan", "android": "https://dc.lft.to/lastmile_qr_scan"}, "is_reserved": 0}, {"lon": -77.0236205, "bike_id": "8df241472ecbf964987c980a583960e2", "lat": 38.93096533333333, "fusion_lon": 0.0, "fusion_lat": 0.0, "type": "electric_scooter", "name": "8df241472ecbf964987c980a583960e2", "is_disabled": 0, "rental_uris": {"ios": "https://dc.lft.to/lastmile_qr_scan", "android": "https://dc.lft.to/lastmile_qr_scan"}, "is_reserved": 0}, {"lon": -77.0336355, "bike_id": "60ab56452114f2573a64fbeb834745c4", "lat": 38.90986216666667, "fusion_lon": 0.0, "fusion_lat": 0.0, "type": "electric_scooter", "name": "60ab56452114f2573a64fbeb834745c4", "is_disabled": 0, "rental_uris": {"ios": "https://dc.lft.to/lastmile_qr_scan", "android": "https://dc.lft.to/lastmile_qr_scan"}, "is_reserved": 0}, {"lon": -77.02085466666666, "bike_id": "9255e7ae683ec37909cb196c16498925", "lat": 38.91115383333333, "fusion_lon": 0.0, "fusion_lat": 0.0, "type": "electric_scooter", "name": "9255e7ae683ec37909cb196c16498925", "is_disabled": 0, "rental_uris": {"ios": "https://dc.lft.to/lastmile_qr_scan", "android": "https://dc.lft.to/lastmile_qr_scan"}, "is_reserved": 0}, {"lon": -76.98247916666666, "bike_id": "286dd256c00ec799def95f000c88dfee", "lat": 38.9164525, "fusion_lon": 0.0, "fusion_lat": 0.0, "type": "electric_scooter", "name": "286dd256c00ec799def95f000c88dfee", "is_disabled": 0, "rental_uris": {"ios": "https://dc.lft.to/lastmile_qr_scan", "android": "https://dc.lft.to/lastmile_qr_scan"}, "is_reserved": 0}, {"lon": -77.04317566666667, "bike_id": "20fdf718572e5d8cae78bca9a5ce9b50", "lat": 38.926578, "fusion_lon": 0.0, "fusion_lat": 0.0, "type": "electric_scooter", "name": "20fdf718572e5d8cae78bca9a5ce9b50", "is_disabled": 0, "rental_uris": {"ios": "https://dc.lft.to/lastmile_qr_scan", "android": "https://dc.lft.to/lastmile_qr_scan"}, "is_reserved": 0}, {"lon": -77.02331833333334, "bike_id": "3bd318b2b16b4a97f8efc4908c68228f", "lat": 38.89602283333333, "fusion_lon": 0.0, "fusion_lat": 0.0, "type": "electric_scooter", "name": "3bd318b2b16b4a97f8efc4908c68228f", "is_disabled": 0, "rental_uris": {"ios": "https://dc.lft.to/lastmile_qr_scan", "android": "https://dc.lft.to/lastmile_qr_scan"}, "is_reserved": 0}, {"lon": -77.11708516666667, "bike_id": "3cc7a325d03c8bc74ef46e3d18fe7593", "lat": 38.867458166666665, "fusion_lon": 0.0, "fusion_lat": 0.0, "type": "electric_bike", "name": "3cc7a325d03c8bc74ef46e3d18fe7593", "is_disabled": 0, "rental_uris": {"ios": "https://dc.lft.to/lastmile_qr_scan", "android": "https://dc.lft.to/lastmile_qr_scan"}, "is_reserved": 0}, {"lon": -77.00116483333333, "bike_id": "7e46c67edaa024ef7b392395293e9579", "lat": 38.87485133333333, "fusion_lon": 0.0, "fusion_lat": 0.0, "type": "electric_scooter", "name": "7e46c67edaa024ef7b392395293e9579", "is_disabled": 0, "rental_uris": {"ios": "https://dc.lft.to/lastmile_qr_scan", "android": "https://dc.lft.to/lastmile_qr_scan"}, "is_reserved": 0}, {"lon": -77.061723, "bike_id": "ce157c48b937c64e34defcd2de8a02ef", "lat": 38.902598833333336, "fusion_lon": 0.0, "fusion_lat": 0.0, "type": "electric_scooter", "name": "ce157c48b937c64e34defcd2de8a02ef", "is_disabled": 0, "rental_uris": {"ios": "https://dc.lft.to/lastmile_qr_scan", "android": "https://dc.lft.to/lastmile_qr_scan"}, "is_reserved": 0}, {"lon": -77.038772, "bike_id": "d83ed9f01a123acd8c62656fabb15162", "lat": 38.903644166666666, "fusion_lon": 0.0, "fusion_lat": 0.0, "type": "electric_scooter", "name": "d83ed9f01a123acd8c62656fabb15162", "is_disabled": 0, "rental_uris": {"ios": "https://dc.lft.to/lastmile_qr_scan", "android": "https://dc.lft.to/lastmile_qr_scan"}, "is_reserved": 0}, {"lon": -76.98533216666667, "bike_id": "6e712214578c563a1f6f37e6e4ba5995", "lat": 38.90460933333333, "fusion_lon": 0.0, "fusion_lat": 0.0, "type": "electric_scooter", "name": "6e712214578c563a1f6f37e6e4ba5995", "is_disabled": 0, "rental_uris": {"ios": "https://dc.lft.to/lastmile_qr_scan", "android": "https://dc.lft.to/lastmile_qr_scan"}, "is_reserved": 0}, {"lon": -77.032784, "bike_id": "56b0d56173fc31e2f91791d849a7d074", "lat": 38.928524833333334, "fusion_lon": 0.0, "fusion_lat": 0.0, "type": "electric_scooter", "name": "56b0d56173fc31e2f91791d849a7d074", "is_disabled": 0, "rental_uris": {"ios": "https://dc.lft.to/lastmile_qr_scan", "android": "https://dc.lft.to/lastmile_qr_scan"}, "is_reserved": 0}, {"lon": -77.03268783333333, "bike_id": "5cd9275bd28b4c8ba982bb861b901fc2", "lat": 38.92849316666667, "fusion_lon": 0.0, "fusion_lat": 0.0, "type": "electric_scooter", "name": "5cd9275bd28b4c8ba982bb861b901fc2", "is_disabled": 0, "rental_uris": {"ios": "https://dc.lft.to/lastmile_qr_scan", "android": "https://dc.lft.to/lastmile_qr_scan"}, "is_reserved": 0}, {"lon": -77.02411933333333, "bike_id": "3ae80d6dbedfaa4b1b1710f953b513af", "lat": 38.9204155, "fusion_lon": 0.0, "fusion_lat": 0.0, "type": "electric_scooter", "name": "3ae80d6dbedfaa4b1b1710f953b513af", "is_disabled": 0, "rental_uris": {"ios": "https://dc.lft.to/lastmile_qr_scan", "android": "https://dc.lft.to/lastmile_qr_scan"}, "is_reserved": 0}, {"lon": -77.08985, "bike_id": "1fd54ad11eac086749c82a00274f52b3", "lat": 38.87476016666667, "fusion_lon": 0.0, "fusion_lat": 0.0, "type": "electric_bike", "name": "1fd54ad11eac086749c82a00274f52b3", "is_disabled": 0, "rental_uris": {"ios": "https://dc.lft.to/lastmile_qr_scan", "android": "https://dc.lft.to/lastmile_qr_scan"}, "is_reserved": 0}, {"lon": -77.0619185, "bike_id": "ea029bbc1c63d3cbbdeb1ea93fd5755c", "lat": 38.9431745, "fusion_lon": 0.0, "fusion_lat": 0.0, "type": "electric_scooter", "name": "ea029bbc1c63d3cbbdeb1ea93fd5755c", "is_disabled": 0, "rental_uris": {"ios": "https://dc.lft.to/lastmile_qr_scan", "android": "https://dc.lft.to/lastmile_qr_scan"}, "is_reserved": 0}, {"lon": -77.02980466666666, "bike_id": "006f264fab347aa9ab55fc91c359aaaf", "lat": 38.897059666666664, "fusion_lon": 0.0, "fusion_lat": 0.0, "type": "electric_scooter", "name": "006f264fab347aa9ab55fc91c359aaaf", "is_disabled": 0, "rental_uris": {"ios": "https://dc.lft.to/lastmile_qr_scan", "android": "https://dc.lft.to/lastmile_qr_scan"}, "is_reserved": 0}, {"lon": -77.050444, "bike_id": "ac660879b1b133c74ae50f4456c985a1", "lat": 38.923663833333336, "fusion_lon": 0.0, "fusion_lat": 0.0, "type": "electric_scooter", "name": "ac660879b1b133c74ae50f4456c985a1", "is_disabled": 0, "rental_uris": {"ios": "https://dc.lft.to/lastmile_qr_scan", "android": "https://dc.lft.to/lastmile_qr_scan"}, "is_reserved": 0}, {"lon": -77.00738966666667, "bike_id": "4c1747975484f4e3c4d452cb3128cc5e", "lat": 38.89823833333333, "fusion_lon": 0.0, "fusion_lat": 0.0, "type": "electric_scooter", "name": "4c1747975484f4e3c4d452cb3128cc5e", "is_disabled": 0, "rental_uris": {"ios": "https://dc.lft.to/lastmile_qr_scan", "android": "https://dc.lft.to/lastmile_qr_scan"}, "is_reserved": 0}, {"lon": -77.02027916666667, "bike_id": "c65d2a6cb9aacace0331c54c2c113777", "lat": 38.902074999999996, "fusion_lon": 0.0, "fusion_lat": 0.0, "type": "electric_scooter", "name": "c65d2a6cb9aacace0331c54c2c113777", "is_disabled": 0, "rental_uris": {"ios": "https://dc.lft.to/lastmile_qr_scan", "android": "https://dc.lft.to/lastmile_qr_scan"}, "is_reserved": 0}, {"lon": -77.0272285, "bike_id": "4e02c1396afad8addb682a5d8333fdbb", "lat": 38.906682, "fusion_lon": 0.0, "fusion_lat": 0.0, "type": "electric_scooter", "name": "4e02c1396afad8addb682a5d8333fdbb", "is_disabled": 0, "rental_uris": {"ios": "https://dc.lft.to/lastmile_qr_scan", "android": "https://dc.lft.to/lastmile_qr_scan"}, "is_reserved": 0}, {"lon": -77.02023983333333, "bike_id": "3f865d97eae6b8c1002f1d572af7bb3b", "lat": 38.894478, "fusion_lon": 0.0, "fusion_lat": 0.0, "type": "electric_scooter", "name": "3f865d97eae6b8c1002f1d572af7bb3b", "is_disabled": 0, "rental_uris": {"ios": "https://dc.lft.to/lastmile_qr_scan", "android": "https://dc.lft.to/lastmile_qr_scan"}, "is_reserved": 0}, {"lon": -76.954063, "bike_id": "5a4a216b92e438bb78e6ccf1df114ea2", "lat": 38.884687, "fusion_lon": 0.0, "fusion_lat": 0.0, "type": "electric_scooter", "name": "5a4a216b92e438bb78e6ccf1df114ea2", "is_disabled": 0, "rental_uris": {"ios": "https://dc.lft.to/lastmile_qr_scan", "android": "https://dc.lft.to/lastmile_qr_scan"}, "is_reserved": 0}, {"lon": -77.03358883333334, "bike_id": "d7b2d5a149ead2bc32009f8181289e21", "lat": 38.922375333333335, "fusion_lon": 0.0, "fusion_lat": 0.0, "type": "electric_scooter", "name": "d7b2d5a149ead2bc32009f8181289e21", "is_disabled": 0, "rental_uris": {"ios": "https://dc.lft.to/lastmile_qr_scan", "android": "https://dc.lft.to/lastmile_qr_scan"}, "is_reserved": 0}, {"lon": -77.02208133333333, "bike_id": "d7011e079c0e3838767c5f82a233c2c6", "lat": 38.91134983333333, "fusion_lon": 0.0, "fusion_lat": 0.0, "type": "electric_scooter", "name": "d7011e079c0e3838767c5f82a233c2c6", "is_disabled": 0, "rental_uris": {"ios": "https://dc.lft.to/lastmile_qr_scan", "android": "https://dc.lft.to/lastmile_qr_scan"}, "is_reserved": 0}, {"lon": -77.01970816666666, "bike_id": "5f89d4c2116a488df07174e0650c0f34", "lat": 38.95017983333334, "fusion_lon": 0.0, "fusion_lat": 0.0, "type": "electric_scooter", "name": "5f89d4c2116a488df07174e0650c0f34", "is_disabled": 0, "rental_uris": {"ios": "https://dc.lft.to/lastmile_qr_scan", "android": "https://dc.lft.to/lastmile_qr_scan"}, "is_reserved": 0}, {"lon": -77.0498405, "bike_id": "0bb2605dfd105713469965ba32807794", "lat": 38.90113, "fusion_lon": 0.0, "fusion_lat": 0.0, "type": "electric_scooter", "name": "0bb2605dfd105713469965ba32807794", "is_disabled": 0, "rental_uris": {"ios": "https://dc.lft.to/lastmile_qr_scan", "android": "https://dc.lft.to/lastmile_qr_scan"}, "is_reserved": 0}, {"lon": -77.03016783333334, "bike_id": "ccdd1976489cc8c6e186d3e203436b2d", "lat": 38.89732166666667, "fusion_lon": 0.0, "fusion_lat": 0.0, "type": "electric_scooter", "name": "ccdd1976489cc8c6e186d3e203436b2d", "is_disabled": 0, "rental_uris": {"ios": "https://dc.lft.to/lastmile_qr_scan", "android": "https://dc.lft.to/lastmile_qr_scan"}, "is_reserved": 0}, {"lon": -76.9871805, "bike_id": "4e2a56dec818c4d15a5f5fd6fec18cb2", "lat": 38.86627416666666, "fusion_lon": 0.0, "fusion_lat": 0.0, "type": "electric_scooter", "name": "4e2a56dec818c4d15a5f5fd6fec18cb2", "is_disabled": 0, "rental_uris": {"ios": "https://dc.lft.to/lastmile_qr_scan", "android": "https://dc.lft.to/lastmile_qr_scan"}, "is_reserved": 0}, {"lon": -76.91805533333333, "bike_id": "d09362947524a12182b6068ee17be90f", "lat": 38.999998, "fusion_lon": 0.0, "fusion_lat": 0.0, "type": "electric_bike", "name": "d09362947524a12182b6068ee17be90f", "is_disabled": 0, "rental_uris": {"ios": "https://dc.lft.to/lastmile_qr_scan", "android": "https://dc.lft.to/lastmile_qr_scan"}, "is_reserved": 0}, {"lon": -77.04483716666667, "bike_id": "ff57c5781c0bddf908f2beddb7486056", "lat": 38.90855533333333, "fusion_lon": 0.0, "fusion_lat": 0.0, "type": "electric_scooter", "name": "ff57c5781c0bddf908f2beddb7486056", "is_disabled": 0, "rental_uris": {"ios": "https://dc.lft.to/lastmile_qr_scan", "android": "https://dc.lft.to/lastmile_qr_scan"}, "is_reserved": 0}, {"lon": -77.044871, "bike_id": "61554d402e3676995c542a18f269cf32", "lat": 38.9051535, "fusion_lon": 0.0, "fusion_lat": 0.0, "type": "electric_scooter", "name": "61554d402e3676995c542a18f269cf32", "is_disabled": 0, "rental_uris": {"ios": "https://dc.lft.to/lastmile_qr_scan", "android": "https://dc.lft.to/lastmile_qr_scan"}, "is_reserved": 0}, {"lon": -76.98838, "bike_id": "5781fea75e3e60dacb60cf1a345a2f0a", "lat": 38.89666533333333, "fusion_lon": 0.0, "fusion_lat": 0.0, "type": "electric_scooter", "name": "5781fea75e3e60dacb60cf1a345a2f0a", "is_disabled": 0, "rental_uris": {"ios": "https://dc.lft.to/lastmile_qr_scan", "android": "https://dc.lft.to/lastmile_qr_scan"}, "is_reserved": 0}, {"lon": -76.94688066666667, "bike_id": "bb737b9a69e91d56254a45f09c5eaef0", "lat": 38.886319, "fusion_lon": 0.0, "fusion_lat": 0.0, "type": "electric_scooter", "name": "bb737b9a69e91d56254a45f09c5eaef0", "is_disabled": 0, "rental_uris": {"ios": "https://dc.lft.to/lastmile_qr_scan", "android": "https://dc.lft.to/lastmile_qr_scan"}, "is_reserved": 0}, {"lon": -77.03188633333333, "bike_id": "c9048e6129d0e8a80a8374ea92538250", "lat": 38.915276166666665, "fusion_lon": 0.0, "fusion_lat": 0.0, "type": "electric_scooter", "name": "c9048e6129d0e8a80a8374ea92538250", "is_disabled": 0, "rental_uris": {"ios": "https://dc.lft.to/lastmile_qr_scan", "android": "https://dc.lft.to/lastmile_qr_scan"}, "is_reserved": 0}, {"lon": -77.038053, "bike_id": "f8e1bb768c8963ffc93ab997de9c9b25", "lat": 38.930667, "fusion_lon": 0.0, "fusion_lat": 0.0, "type": "electric_scooter", "name": "f8e1bb768c8963ffc93ab997de9c9b25", "is_disabled": 0, "rental_uris": {"ios": "https://dc.lft.to/lastmile_qr_scan", "android": "https://dc.lft.to/lastmile_qr_scan"}, "is_reserved": 0}, {"lon": -76.99761116666667, "bike_id": "b32451d87cc1e7e5580ed4641b4c1b56", "lat": 38.887702833333336, "fusion_lon": 0.0, "fusion_lat": 0.0, "type": "electric_scooter", "name": "b32451d87cc1e7e5580ed4641b4c1b56", "is_disabled": 0, "rental_uris": {"ios": "https://dc.lft.to/lastmile_qr_scan", "android": "https://dc.lft.to/lastmile_qr_scan"}, "is_reserved": 0}, {"lon": -77.057613, "bike_id": "621cf34ad8b821d84caa6d3c59bc778b", "lat": 38.924981333333335, "fusion_lon": 0.0, "fusion_lat": 0.0, "type": "electric_bike", "name": "621cf34ad8b821d84caa6d3c59bc778b", "is_disabled": 0, "rental_uris": {"ios": "https://dc.lft.to/lastmile_qr_scan", "android": "https://dc.lft.to/lastmile_qr_scan"}, "is_reserved": 0}, {"lon": -77.01808133333333, "bike_id": "e8e38ecfc4599bcebae9c658decbabd2", "lat": 38.876827, "fusion_lon": 0.0, "fusion_lat": 0.0, "type": "electric_scooter", "name": "e8e38ecfc4599bcebae9c658decbabd2", "is_disabled": 0, "rental_uris": {"ios": "https://dc.lft.to/lastmile_qr_scan", "android": "https://dc.lft.to/lastmile_qr_scan"}, "is_reserved": 0}, {"lon": -77.11085083333333, "bike_id": "0f0688a049259ff2dcf3e56e901f458e", "lat": 38.81177533333333, "fusion_lon": 0.0, "fusion_lat": 0.0, "type": "electric_bike", "name": "0f0688a049259ff2dcf3e56e901f458e", "is_disabled": 0, "rental_uris": {"ios": "https://dc.lft.to/lastmile_qr_scan", "android": "https://dc.lft.to/lastmile_qr_scan"}, "is_reserved": 0}, {"lon": -77.06583633333334, "bike_id": "c93b835e38abb1fe61fc12e4ef93a783", "lat": 38.911315, "fusion_lon": 0.0, "fusion_lat": 0.0, "type": "electric_bike", "name": "c93b835e38abb1fe61fc12e4ef93a783", "is_disabled": 0, "rental_uris": {"ios": "https://dc.lft.to/lastmile_qr_scan", "android": "https://dc.lft.to/lastmile_qr_scan"}, "is_reserved": 0}, {"lon": -77.02286783333334, "bike_id": "5bfb4ab35eacdce8037745b6df372a3e", "lat": 38.87843483333333, "fusion_lon": 0.0, "fusion_lat": 0.0, "type": "electric_scooter", "name": "5bfb4ab35eacdce8037745b6df372a3e", "is_disabled": 0, "rental_uris": {"ios": "https://dc.lft.to/lastmile_qr_scan", "android": "https://dc.lft.to/lastmile_qr_scan"}, "is_reserved": 0}, {"lon": -76.98814866666666, "bike_id": "9bd6ee9bd46a4122a2755c438fee7db0", "lat": 38.90015416666667, "fusion_lon": 0.0, "fusion_lat": 0.0, "type": "electric_scooter", "name": "9bd6ee9bd46a4122a2755c438fee7db0", "is_disabled": 0, "rental_uris": {"ios": "https://dc.lft.to/lastmile_qr_scan", "android": "https://dc.lft.to/lastmile_qr_scan"}, "is_reserved": 0}, {"lon": -77.04340233333333, "bike_id": "5d04b4e92b356acecdb7cf77395d10d7", "lat": 38.922197, "fusion_lon": 0.0, "fusion_lat": 0.0, "type": "electric_scooter", "name": "5d04b4e92b356acecdb7cf77395d10d7", "is_disabled": 0, "rental_uris": {"ios": "https://dc.lft.to/lastmile_qr_scan", "android": "https://dc.lft.to/lastmile_qr_scan"}, "is_reserved": 0}, {"lon": -77.03488933333334, "bike_id": "18abb3f3d58e305835363c49ca1b9f41", "lat": 38.91888733333333, "fusion_lon": 0.0, "fusion_lat": 0.0, "type": "electric_scooter", "name": "18abb3f3d58e305835363c49ca1b9f41", "is_disabled": 0, "rental_uris": {"ios": "https://dc.lft.to/lastmile_qr_scan", "android": "https://dc.lft.to/lastmile_qr_scan"}, "is_reserved": 0}, {"lon": -77.04176516666666, "bike_id": "e3a416fe6a49d8948dd47fe55943f6ac", "lat": 38.905272833333335, "fusion_lon": 0.0, "fusion_lat": 0.0, "type": "electric_scooter", "name": "e3a416fe6a49d8948dd47fe55943f6ac", "is_disabled": 0, "rental_uris": {"ios": "https://dc.lft.to/lastmile_qr_scan", "android": "https://dc.lft.to/lastmile_qr_scan"}, "is_reserved": 0}, {"lon": -77.02934733333333, "bike_id": "8d2bc98ecf9456081f2e6524202540b8", "lat": 38.898321333333335, "fusion_lon": 0.0, "fusion_lat": 0.0, "type": "electric_scooter", "name": "8d2bc98ecf9456081f2e6524202540b8", "is_disabled": 0, "rental_uris": {"ios": "https://dc.lft.to/lastmile_qr_scan", "android": "https://dc.lft.to/lastmile_qr_scan"}, "is_reserved": 0}, {"lon": -77.00241633333333, "bike_id": "842d8b81bb6515b919f52a7c9a21c899", "lat": 38.902454, "fusion_lon": 0.0, "fusion_lat": 0.0, "type": "electric_scooter", "name": "842d8b81bb6515b919f52a7c9a21c899", "is_disabled": 0, "rental_uris": {"ios": "https://dc.lft.to/lastmile_qr_scan", "android": "https://dc.lft.to/lastmile_qr_scan"}, "is_reserved": 0}, {"lon": -77.02626366666667, "bike_id": "b2fb0656bd6f4d805f2de61f65e4e475", "lat": 38.9056095, "fusion_lon": 0.0, "fusion_lat": 0.0, "type": "electric_scooter", "name": "b2fb0656bd6f4d805f2de61f65e4e475", "is_disabled": 0, "rental_uris": {"ios": "https://dc.lft.to/lastmile_qr_scan", "android": "https://dc.lft.to/lastmile_qr_scan"}, "is_reserved": 0}, {"lon": -77.02340316666667, "bike_id": "76e87fe4fe2d60e5adf522a1e918c06b", "lat": 38.91781116666667, "fusion_lon": 0.0, "fusion_lat": 0.0, "type": "electric_scooter", "name": "76e87fe4fe2d60e5adf522a1e918c06b", "is_disabled": 0, "rental_uris": {"ios": "https://dc.lft.to/lastmile_qr_scan", "android": "https://dc.lft.to/lastmile_qr_scan"}, "is_reserved": 0}, {"lon": -77.05708883333334, "bike_id": "475284a7b6a9f23fbdd26343f585e716", "lat": 38.90538433333333, "fusion_lon": 0.0, "fusion_lat": 0.0, "type": "electric_scooter", "name": "475284a7b6a9f23fbdd26343f585e716", "is_disabled": 0, "rental_uris": {"ios": "https://dc.lft.to/lastmile_qr_scan", "android": "https://dc.lft.to/lastmile_qr_scan"}, "is_reserved": 0}, {"lon": -76.9780385, "bike_id": "e0f3b308e519f55b8f2f475b3b588e5d", "lat": 38.903142833333334, "fusion_lon": 0.0, "fusion_lat": 0.0, "type": "electric_scooter", "name": "e0f3b308e519f55b8f2f475b3b588e5d", "is_disabled": 0, "rental_uris": {"ios": "https://dc.lft.to/lastmile_qr_scan", "android": "https://dc.lft.to/lastmile_qr_scan"}, "is_reserved": 0}, {"lon": -77.026946, "bike_id": "ac4704dcb288e3ec379e99b2300d5727", "lat": 38.909284166666666, "fusion_lon": 0.0, "fusion_lat": 0.0, "type": "electric_scooter", "name": "ac4704dcb288e3ec379e99b2300d5727", "is_disabled": 0, "rental_uris": {"ios": "https://dc.lft.to/lastmile_qr_scan", "android": "https://dc.lft.to/lastmile_qr_scan"}, "is_reserved": 0}, {"lon": -76.9818565, "bike_id": "b41a432f46e9a434c4e15d60245f50ff", "lat": 38.89580133333333, "fusion_lon": 0.0, "fusion_lat": 0.0, "type": "electric_scooter", "name": "b41a432f46e9a434c4e15d60245f50ff", "is_disabled": 0, "rental_uris": {"ios": "https://dc.lft.to/lastmile_qr_scan", "android": "https://dc.lft.to/lastmile_qr_scan"}, "is_reserved": 0}, {"lon": -77.0449485, "bike_id": "b88af12856f7d167edacbbd09723bbe0", "lat": 38.907338333333335, "fusion_lon": 0.0, "fusion_lat": 0.0, "type": "electric_scooter", "name": "b88af12856f7d167edacbbd09723bbe0", "is_disabled": 0, "rental_uris": {"ios": "https://dc.lft.to/lastmile_qr_scan", "android": "https://dc.lft.to/lastmile_qr_scan"}, "is_reserved": 0}, {"lon": -77.03289483333333, "bike_id": "5564218e1496b72e06c1472308f926f8", "lat": 38.938815, "fusion_lon": 0.0, "fusion_lat": 0.0, "type": "electric_scooter", "name": "5564218e1496b72e06c1472308f926f8", "is_disabled": 0, "rental_uris": {"ios": "https://dc.lft.to/lastmile_qr_scan", "android": "https://dc.lft.to/lastmile_qr_scan"}, "is_reserved": 0}, {"lon": -77.02006533333333, "bike_id": "148d25788691c3b32821820303cef9c2", "lat": 38.90264533333333, "fusion_lon": 0.0, "fusion_lat": 0.0, "type": "electric_scooter", "name": "148d25788691c3b32821820303cef9c2", "is_disabled": 0, "rental_uris": {"ios": "https://dc.lft.to/lastmile_qr_scan", "android": "https://dc.lft.to/lastmile_qr_scan"}, "is_reserved": 0}, {"lon": -76.93364266666667, "bike_id": "c0bacb5607f26807eeb16c6f33aeba54", "lat": 38.89919316666667, "fusion_lon": 0.0, "fusion_lat": 0.0, "type": "electric_scooter", "name": "c0bacb5607f26807eeb16c6f33aeba54", "is_disabled": 0, "rental_uris": {"ios": "https://dc.lft.to/lastmile_qr_scan", "android": "https://dc.lft.to/lastmile_qr_scan"}, "is_reserved": 0}, {"lon": -77.0436265, "bike_id": "1c82fcd02ce5082717ca91cbfaa944cc", "lat": 38.90875883333333, "fusion_lon": 0.0, "fusion_lat": 0.0, "type": "electric_scooter", "name": "1c82fcd02ce5082717ca91cbfaa944cc", "is_disabled": 0, "rental_uris": {"ios": "https://dc.lft.to/lastmile_qr_scan", "android": "https://dc.lft.to/lastmile_qr_scan"}, "is_reserved": 0}, {"lon": -77.02511716666666, "bike_id": "0a676e0234d4b08c0b5c846a45392f50", "lat": 38.90426566666667, "fusion_lon": 0.0, "fusion_lat": 0.0, "type": "electric_scooter", "name": "0a676e0234d4b08c0b5c846a45392f50", "is_disabled": 0, "rental_uris": {"ios": "https://dc.lft.to/lastmile_qr_scan", "android": "https://dc.lft.to/lastmile_qr_scan"}, "is_reserved": 0}, {"lon": -77.032564, "bike_id": "529c4771aa368dd1886f37c10f798311", "lat": 38.9292405, "fusion_lon": 0.0, "fusion_lat": 0.0, "type": "electric_scooter", "name": "529c4771aa368dd1886f37c10f798311", "is_disabled": 0, "rental_uris": {"ios": "https://dc.lft.to/lastmile_qr_scan", "android": "https://dc.lft.to/lastmile_qr_scan"}, "is_reserved": 0}, {"lon": -76.98383333333334, "bike_id": "e75ed2bb9fcc42423442d0ec74b03fd8", "lat": 38.914982333333334, "fusion_lon": 0.0, "fusion_lat": 0.0, "type": "electric_scooter", "name": "e75ed2bb9fcc42423442d0ec74b03fd8", "is_disabled": 0, "rental_uris": {"ios": "https://dc.lft.to/lastmile_qr_scan", "android": "https://dc.lft.to/lastmile_qr_scan"}, "is_reserved": 0}, {"lon": -76.99091366666667, "bike_id": "2204ed32afcb7e3b12f9b1e983ce2dbf", "lat": 38.862376, "fusion_lon": 0.0, "fusion_lat": 0.0, "type": "electric_bike", "name": "2204ed32afcb7e3b12f9b1e983ce2dbf", "is_disabled": 0, "rental_uris": {"ios": "https://dc.lft.to/lastmile_qr_scan", "android": "https://dc.lft.to/lastmile_qr_scan"}, "is_reserved": 0}, {"lon": -77.03309083333333, "bike_id": "8f026af0d9e7f0e3540bab40454a0176", "lat": 38.9564035, "fusion_lon": 0.0, "fusion_lat": 0.0, "type": "electric_scooter", "name": "8f026af0d9e7f0e3540bab40454a0176", "is_disabled": 0, "rental_uris": {"ios": "https://dc.lft.to/lastmile_qr_scan", "android": "https://dc.lft.to/lastmile_qr_scan"}, "is_reserved": 0}, {"lon": -77.03325733333334, "bike_id": "670088c0902309a70352fe9eb6970a59", "lat": 38.91565216666667, "fusion_lon": 0.0, "fusion_lat": 0.0, "type": "electric_scooter", "name": "670088c0902309a70352fe9eb6970a59", "is_disabled": 0, "rental_uris": {"ios": "https://dc.lft.to/lastmile_qr_scan", "android": "https://dc.lft.to/lastmile_qr_scan"}, "is_reserved": 0}, {"lon": -77.0264195, "bike_id": "6dce9be7e80a4d32e774a0fc7b129f4f", "lat": 38.929205, "fusion_lon": 0.0, "fusion_lat": 0.0, "type": "electric_scooter", "name": "6dce9be7e80a4d32e774a0fc7b129f4f", "is_disabled": 0, "rental_uris": {"ios": "https://dc.lft.to/lastmile_qr_scan", "android": "https://dc.lft.to/lastmile_qr_scan"}, "is_reserved": 0}, {"lon": -77.03268583333333, "bike_id": "f1209f539048ac77bc33e7c88b404508", "lat": 38.937208166666665, "fusion_lon": 0.0, "fusion_lat": 0.0, "type": "electric_scooter", "name": "f1209f539048ac77bc33e7c88b404508", "is_disabled": 0, "rental_uris": {"ios": "https://dc.lft.to/lastmile_qr_scan", "android": "https://dc.lft.to/lastmile_qr_scan"}, "is_reserved": 0}, {"lon": -77.02760133333334, "bike_id": "e89cccc587d74c0ed4d4d1a21a5f9290", "lat": 38.954274833333336, "fusion_lon": 0.0, "fusion_lat": 0.0, "type": "electric_scooter", "name": "e89cccc587d74c0ed4d4d1a21a5f9290", "is_disabled": 0, "rental_uris": {"ios": "https://dc.lft.to/lastmile_qr_scan", "android": "https://dc.lft.to/lastmile_qr_scan"}, "is_reserved": 0}, {"lon": -77.04420083333333, "bike_id": "66b6e5b5019c016e2267d4d1f080c1ed", "lat": 38.91959533333333, "fusion_lon": 0.0, "fusion_lat": 0.0, "type": "electric_scooter", "name": "66b6e5b5019c016e2267d4d1f080c1ed", "is_disabled": 0, "rental_uris": {"ios": "https://dc.lft.to/lastmile_qr_scan", "android": "https://dc.lft.to/lastmile_qr_scan"}, "is_reserved": 0}, {"lon": -77.01610116666667, "bike_id": "11a86a694f04a6a61fcf2a35abf7d552", "lat": 38.89508216666667, "fusion_lon": 0.0, "fusion_lat": 0.0, "type": "electric_scooter", "name": "11a86a694f04a6a61fcf2a35abf7d552", "is_disabled": 0, "rental_uris": {"ios": "https://dc.lft.to/lastmile_qr_scan", "android": "https://dc.lft.to/lastmile_qr_scan"}, "is_reserved": 0}, {"lon": -77.0648785, "bike_id": "106f550c50fed14c84562d43f808a53a", "lat": 38.909792833333334, "fusion_lon": 0.0, "fusion_lat": 0.0, "type": "electric_scooter", "name": "106f550c50fed14c84562d43f808a53a", "is_disabled": 0, "rental_uris": {"ios": "https://dc.lft.to/lastmile_qr_scan", "android": "https://dc.lft.to/lastmile_qr_scan"}, "is_reserved": 0}, {"lon": -77.04452083333334, "bike_id": "2ad260f023fed24de3258d492b667c6e", "lat": 38.9057935, "fusion_lon": 0.0, "fusion_lat": 0.0, "type": "electric_scooter", "name": "2ad260f023fed24de3258d492b667c6e", "is_disabled": 0, "rental_uris": {"ios": "https://dc.lft.to/lastmile_qr_scan", "android": "https://dc.lft.to/lastmile_qr_scan"}, "is_reserved": 0}, {"lon": -77.06836116666666, "bike_id": "0b49d19552f08f89c122303b7bfde2a4", "lat": 38.805669333333334, "fusion_lon": 0.0, "fusion_lat": 0.0, "type": "electric_bike", "name": "0b49d19552f08f89c122303b7bfde2a4", "is_disabled": 0, "rental_uris": {"ios": "https://dc.lft.to/lastmile_qr_scan", "android": "https://dc.lft.to/lastmile_qr_scan"}, "is_reserved": 0}, {"lon": -76.98082116666667, "bike_id": "a4a92dbcfe3cb74570a7b930a1190d5f", "lat": 38.9070385, "fusion_lon": 0.0, "fusion_lat": 0.0, "type": "electric_scooter", "name": "a4a92dbcfe3cb74570a7b930a1190d5f", "is_disabled": 0, "rental_uris": {"ios": "https://dc.lft.to/lastmile_qr_scan", "android": "https://dc.lft.to/lastmile_qr_scan"}, "is_reserved": 0}, {"lon": -77.02962533333333, "bike_id": "5d73ad914cba2a745188bde553abefb5", "lat": 38.896273666666666, "fusion_lon": 0.0, "fusion_lat": 0.0, "type": "electric_scooter", "name": "5d73ad914cba2a745188bde553abefb5", "is_disabled": 0, "rental_uris": {"ios": "https://dc.lft.to/lastmile_qr_scan", "android": "https://dc.lft.to/lastmile_qr_scan"}, "is_reserved": 0}, {"lon": -77.03078483333333, "bike_id": "a6fd1b0e40a5a7dc4ef9cb52eca249f0", "lat": 38.91108366666667, "fusion_lon": 0.0, "fusion_lat": 0.0, "type": "electric_scooter", "name": "a6fd1b0e40a5a7dc4ef9cb52eca249f0", "is_disabled": 0, "rental_uris": {"ios": "https://dc.lft.to/lastmile_qr_scan", "android": "https://dc.lft.to/lastmile_qr_scan"}, "is_reserved": 0}, {"lon": -77.02741166666667, "bike_id": "18ec75d613cdfdedf7ceded70cc5b019", "lat": 38.881565333333334, "fusion_lon": 0.0, "fusion_lat": 0.0, "type": "electric_scooter", "name": "18ec75d613cdfdedf7ceded70cc5b019", "is_disabled": 0, "rental_uris": {"ios": "https://dc.lft.to/lastmile_qr_scan", "android": "https://dc.lft.to/lastmile_qr_scan"}, "is_reserved": 0}, {"lon": -77.028098, "bike_id": "40f56eedb9cf26ab119865cb36046123", "lat": 38.93291283333333, "fusion_lon": 0.0, "fusion_lat": 0.0, "type": "electric_scooter", "name": "40f56eedb9cf26ab119865cb36046123", "is_disabled": 0, "rental_uris": {"ios": "https://dc.lft.to/lastmile_qr_scan", "android": "https://dc.lft.to/lastmile_qr_scan"}, "is_reserved": 0}, {"lon": -77.03244833333333, "bike_id": "1871a0b09c93219c4b3f0bfb125056ab", "lat": 38.937655, "fusion_lon": 0.0, "fusion_lat": 0.0, "type": "electric_scooter", "name": "1871a0b09c93219c4b3f0bfb125056ab", "is_disabled": 0, "rental_uris": {"ios": "https://dc.lft.to/lastmile_qr_scan", "android": "https://dc.lft.to/lastmile_qr_scan"}, "is_reserved": 0}, {"lon": -77.021528, "bike_id": "8e4da7c9abd973815aa38cfc7baa1fb7", "lat": 38.912653166666665, "fusion_lon": 0.0, "fusion_lat": 0.0, "type": "electric_scooter", "name": "8e4da7c9abd973815aa38cfc7baa1fb7", "is_disabled": 0, "rental_uris": {"ios": "https://dc.lft.to/lastmile_qr_scan", "android": "https://dc.lft.to/lastmile_qr_scan"}, "is_reserved": 0}, {"lon": -77.03478966666667, "bike_id": "58d868b7788a529e507dfe12a2554e4c", "lat": 38.925405166666664, "fusion_lon": 0.0, "fusion_lat": 0.0, "type": "electric_scooter", "name": "58d868b7788a529e507dfe12a2554e4c", "is_disabled": 0, "rental_uris": {"ios": "https://dc.lft.to/lastmile_qr_scan", "android": "https://dc.lft.to/lastmile_qr_scan"}, "is_reserved": 0}, {"lon": -77.04142633333333, "bike_id": "bca42fe4af3bce16aa1bc8dd37780569", "lat": 38.916837666666666, "fusion_lon": 0.0, "fusion_lat": 0.0, "type": "electric_scooter", "name": "bca42fe4af3bce16aa1bc8dd37780569", "is_disabled": 0, "rental_uris": {"ios": "https://dc.lft.to/lastmile_qr_scan", "android": "https://dc.lft.to/lastmile_qr_scan"}, "is_reserved": 0}, {"lon": -77.0349975, "bike_id": "1e6622ac703cb4de179e9454a331fb35", "lat": 38.91712416666667, "fusion_lon": 0.0, "fusion_lat": 0.0, "type": "electric_scooter", "name": "1e6622ac703cb4de179e9454a331fb35", "is_disabled": 0, "rental_uris": {"ios": "https://dc.lft.to/lastmile_qr_scan", "android": "https://dc.lft.to/lastmile_qr_scan"}, "is_reserved": 0}, {"lon": -77.013363, "bike_id": "af8ccafd2eec0c6fbc9dcc6f3e659d19", "lat": 38.87928766666667, "fusion_lon": 0.0, "fusion_lat": 0.0, "type": "electric_scooter", "name": "af8ccafd2eec0c6fbc9dcc6f3e659d19", "is_disabled": 0, "rental_uris": {"ios": "https://dc.lft.to/lastmile_qr_scan", "android": "https://dc.lft.to/lastmile_qr_scan"}, "is_reserved": 0}, {"lon": -77.02225483333334, "bike_id": "dfae05d5dc252689c2160a5637f1cd17", "lat": 38.935042, "fusion_lon": 0.0, "fusion_lat": 0.0, "type": "electric_bike", "name": "dfae05d5dc252689c2160a5637f1cd17", "is_disabled": 0, "rental_uris": {"ios": "https://dc.lft.to/lastmile_qr_scan", "android": "https://dc.lft.to/lastmile_qr_scan"}, "is_reserved": 0}, {"lon": -77.02415933333333, "bike_id": "492fa2720c174eb98699e682afef6385", "lat": 38.90969066666667, "fusion_lon": 0.0, "fusion_lat": 0.0, "type": "electric_scooter", "name": "492fa2720c174eb98699e682afef6385", "is_disabled": 0, "rental_uris": {"ios": "https://dc.lft.to/lastmile_qr_scan", "android": "https://dc.lft.to/lastmile_qr_scan"}, "is_reserved": 0}, {"lon": -77.08460266666667, "bike_id": "95531e89977379fa3ca537b13f494668", "lat": 38.848197166666665, "fusion_lon": 0.0, "fusion_lat": 0.0, "type": "electric_bike", "name": "95531e89977379fa3ca537b13f494668", "is_disabled": 0, "rental_uris": {"ios": "https://dc.lft.to/lastmile_qr_scan", "android": "https://dc.lft.to/lastmile_qr_scan"}, "is_reserved": 0}, {"lon": -77.18740816666667, "bike_id": "7e976e8e570409a270a3252f679812be", "lat": 38.893548833333334, "fusion_lon": 0.0, "fusion_lat": 0.0, "type": "electric_bike", "name": "7e976e8e570409a270a3252f679812be", "is_disabled": 0, "rental_uris": {"ios": "https://dc.lft.to/lastmile_qr_scan", "android": "https://dc.lft.to/lastmile_qr_scan"}, "is_reserved": 0}, {"lon": -77.05439566666666, "bike_id": "a1d8045364375df191eebbfa29d01e5a", "lat": 38.8959905, "fusion_lon": 0.0, "fusion_lat": 0.0, "type": "electric_scooter", "name": "a1d8045364375df191eebbfa29d01e5a", "is_disabled": 0, "rental_uris": {"ios": "https://dc.lft.to/lastmile_qr_scan", "android": "https://dc.lft.to/lastmile_qr_scan"}, "is_reserved": 0}, {"lon": -77.03417366666666, "bike_id": "d2161784a68c6d368506126d288e56da", "lat": 38.92251816666667, "fusion_lon": 0.0, "fusion_lat": 0.0, "type": "electric_scooter", "name": "d2161784a68c6d368506126d288e56da", "is_disabled": 0, "rental_uris": {"ios": "https://dc.lft.to/lastmile_qr_scan", "android": "https://dc.lft.to/lastmile_qr_scan"}, "is_reserved": 0}, {"lon": -77.02810633333333, "bike_id": "30384f43dd3faeb131d809855e424e3d", "lat": 38.930811, "fusion_lon": 0.0, "fusion_lat": 0.0, "type": "electric_scooter", "name": "30384f43dd3faeb131d809855e424e3d", "is_disabled": 0, "rental_uris": {"ios": "https://dc.lft.to/lastmile_qr_scan", "android": "https://dc.lft.to/lastmile_qr_scan"}, "is_reserved": 0}, {"lon": -77.02586583333333, "bike_id": "28bb0a690b1a1fc56a3c5987686e62a1", "lat": 38.89840566666667, "fusion_lon": 0.0, "fusion_lat": 0.0, "type": "electric_scooter", "name": "28bb0a690b1a1fc56a3c5987686e62a1", "is_disabled": 0, "rental_uris": {"ios": "https://dc.lft.to/lastmile_qr_scan", "android": "https://dc.lft.to/lastmile_qr_scan"}, "is_reserved": 0}, {"lon": -76.98018083333334, "bike_id": "808290457fe5331f7f70cd025fc769ff", "lat": 38.9007975, "fusion_lon": 0.0, "fusion_lat": 0.0, "type": "electric_scooter", "name": "808290457fe5331f7f70cd025fc769ff", "is_disabled": 0, "rental_uris": {"ios": "https://dc.lft.to/lastmile_qr_scan", "android": "https://dc.lft.to/lastmile_qr_scan"}, "is_reserved": 0}, {"lon": -77.028306, "bike_id": "3c62cb6620e9857f59c46def747b9eb0", "lat": 38.90258166666667, "fusion_lon": 0.0, "fusion_lat": 0.0, "type": "electric_scooter", "name": "3c62cb6620e9857f59c46def747b9eb0", "is_disabled": 0, "rental_uris": {"ios": "https://dc.lft.to/lastmile_qr_scan", "android": "https://dc.lft.to/lastmile_qr_scan"}, "is_reserved": 0}, {"lon": -77.02303866666666, "bike_id": "db9b3e8db1d1cfaf240d85bc3f10d8ef", "lat": 38.9283635, "fusion_lon": 0.0, "fusion_lat": 0.0, "type": "electric_scooter", "name": "db9b3e8db1d1cfaf240d85bc3f10d8ef", "is_disabled": 0, "rental_uris": {"ios": "https://dc.lft.to/lastmile_qr_scan", "android": "https://dc.lft.to/lastmile_qr_scan"}, "is_reserved": 0}, {"lon": -77.04480633333333, "bike_id": "e4fdb00926f2be7b7942913c97092ad9", "lat": 38.91547383333333, "fusion_lon": 0.0, "fusion_lat": 0.0, "type": "electric_scooter", "name": "e4fdb00926f2be7b7942913c97092ad9", "is_disabled": 0, "rental_uris": {"ios": "https://dc.lft.to/lastmile_qr_scan", "android": "https://dc.lft.to/lastmile_qr_scan"}, "is_reserved": 0}, {"lon": -77.02489216666666, "bike_id": "00737a9f004dafb8841f2fa5eebb53ac", "lat": 38.939048, "fusion_lon": 0.0, "fusion_lat": 0.0, "type": "electric_scooter", "name": "00737a9f004dafb8841f2fa5eebb53ac", "is_disabled": 0, "rental_uris": {"ios": "https://dc.lft.to/lastmile_qr_scan", "android": "https://dc.lft.to/lastmile_qr_scan"}, "is_reserved": 0}, {"lon": -77.03037033333334, "bike_id": "c1aa2d221d532fc3f9fa0af752650415", "lat": 38.9170605, "fusion_lon": 0.0, "fusion_lat": 0.0, "type": "electric_scooter", "name": "c1aa2d221d532fc3f9fa0af752650415", "is_disabled": 0, "rental_uris": {"ios": "https://dc.lft.to/lastmile_qr_scan", "android": "https://dc.lft.to/lastmile_qr_scan"}, "is_reserved": 0}, {"lon": -76.98066716666666, "bike_id": "a58026ecb8ac6e50e0b769f4bbf705ec", "lat": 38.884917, "fusion_lon": 0.0, "fusion_lat": 0.0, "type": "electric_scooter", "name": "a58026ecb8ac6e50e0b769f4bbf705ec", "is_disabled": 0, "rental_uris": {"ios": "https://dc.lft.to/lastmile_qr_scan", "android": "https://dc.lft.to/lastmile_qr_scan"}, "is_reserved": 0}, {"lon": -77.02790633333333, "bike_id": "3125431c753624071da87ddca7b88148", "lat": 38.91227283333333, "fusion_lon": 0.0, "fusion_lat": 0.0, "type": "electric_scooter", "name": "3125431c753624071da87ddca7b88148", "is_disabled": 0, "rental_uris": {"ios": "https://dc.lft.to/lastmile_qr_scan", "android": "https://dc.lft.to/lastmile_qr_scan"}, "is_reserved": 0}, {"lon": -76.97396683333334, "bike_id": "a83d6a10be08871cee4a6f8a68079653", "lat": 38.9029825, "fusion_lon": 0.0, "fusion_lat": 0.0, "type": "electric_scooter", "name": "a83d6a10be08871cee4a6f8a68079653", "is_disabled": 0, "rental_uris": {"ios": "https://dc.lft.to/lastmile_qr_scan", "android": "https://dc.lft.to/lastmile_qr_scan"}, "is_reserved": 0}, {"lon": -77.090483, "bike_id": "667f1220db2c057f6b961a3f1808795f", "lat": 38.849714666666664, "fusion_lon": 0.0, "fusion_lat": 0.0, "type": "electric_bike", "name": "667f1220db2c057f6b961a3f1808795f", "is_disabled": 0, "rental_uris": {"ios": "https://dc.lft.to/lastmile_qr_scan", "android": "https://dc.lft.to/lastmile_qr_scan"}, "is_reserved": 0}, {"lon": -77.02476833333333, "bike_id": "e6a4a0c985fd9357e904e80761a010c3", "lat": 38.93711883333334, "fusion_lon": 0.0, "fusion_lat": 0.0, "type": "electric_scooter", "name": "e6a4a0c985fd9357e904e80761a010c3", "is_disabled": 0, "rental_uris": {"ios": "https://dc.lft.to/lastmile_qr_scan", "android": "https://dc.lft.to/lastmile_qr_scan"}, "is_reserved": 0}, {"lon": -77.05565816666666, "bike_id": "29c798716eae86cb00620900bd50e19f", "lat": 38.908562833333335, "fusion_lon": 0.0, "fusion_lat": 0.0, "type": "electric_scooter", "name": "29c798716eae86cb00620900bd50e19f", "is_disabled": 0, "rental_uris": {"ios": "https://dc.lft.to/lastmile_qr_scan", "android": "https://dc.lft.to/lastmile_qr_scan"}, "is_reserved": 0}, {"lon": -77.01820683333334, "bike_id": "e6a9dd7651eb95e151cd1642daae3e81", "lat": 38.9304315, "fusion_lon": 0.0, "fusion_lat": 0.0, "type": "electric_scooter", "name": "e6a9dd7651eb95e151cd1642daae3e81", "is_disabled": 0, "rental_uris": {"ios": "https://dc.lft.to/lastmile_qr_scan", "android": "https://dc.lft.to/lastmile_qr_scan"}, "is_reserved": 0}, {"lon": -77.07415133333333, "bike_id": "cc349ab26e0ddfd4737e945cfdbdde10", "lat": 38.92885616666667, "fusion_lon": 0.0, "fusion_lat": 0.0, "type": "electric_scooter", "name": "cc349ab26e0ddfd4737e945cfdbdde10", "is_disabled": 0, "rental_uris": {"ios": "https://dc.lft.to/lastmile_qr_scan", "android": "https://dc.lft.to/lastmile_qr_scan"}, "is_reserved": 0}, {"lon": -77.0005485, "bike_id": "397fddb80038654f8ac1fd05219e0016", "lat": 38.90003083333333, "fusion_lon": 0.0, "fusion_lat": 0.0, "type": "electric_scooter", "name": "397fddb80038654f8ac1fd05219e0016", "is_disabled": 0, "rental_uris": {"ios": "https://dc.lft.to/lastmile_qr_scan", "android": "https://dc.lft.to/lastmile_qr_scan"}, "is_reserved": 0}, {"lon": -76.98912483333334, "bike_id": "e0622ae454980f126e91f947c0be173d", "lat": 38.864933, "fusion_lon": 0.0, "fusion_lat": 0.0, "type": "electric_scooter", "name": "e0622ae454980f126e91f947c0be173d", "is_disabled": 0, "rental_uris": {"ios": "https://dc.lft.to/lastmile_qr_scan", "android": "https://dc.lft.to/lastmile_qr_scan"}, "is_reserved": 0}, {"lon": -77.022654, "bike_id": "75bca9fd3aeb6768d4bbe4666aea4e66", "lat": 38.91634366666667, "fusion_lon": 0.0, "fusion_lat": 0.0, "type": "electric_scooter", "name": "75bca9fd3aeb6768d4bbe4666aea4e66", "is_disabled": 0, "rental_uris": {"ios": "https://dc.lft.to/lastmile_qr_scan", "android": "https://dc.lft.to/lastmile_qr_scan"}, "is_reserved": 0}, {"lon": -77.05527516666666, "bike_id": "0e8d4f27fd889be0de8390d9a8f552f6", "lat": 38.897299833333335, "fusion_lon": 0.0, "fusion_lat": 0.0, "type": "electric_scooter", "name": "0e8d4f27fd889be0de8390d9a8f552f6", "is_disabled": 0, "rental_uris": {"ios": "https://dc.lft.to/lastmile_qr_scan", "android": "https://dc.lft.to/lastmile_qr_scan"}, "is_reserved": 0}, {"lon": -76.9460555, "bike_id": "6af7c7d3c18566f20ddf891fd6109e6f", "lat": 38.90151066666667, "fusion_lon": 0.0, "fusion_lat": 0.0, "type": "electric_scooter", "name": "6af7c7d3c18566f20ddf891fd6109e6f", "is_disabled": 0, "rental_uris": {"ios": "https://dc.lft.to/lastmile_qr_scan", "android": "https://dc.lft.to/lastmile_qr_scan"}, "is_reserved": 0}, {"lon": -76.9348705, "bike_id": "5df5b2dacfc242e69750e4b34f6f4164", "lat": 38.9059055, "fusion_lon": 0.0, "fusion_lat": 0.0, "type": "electric_scooter", "name": "5df5b2dacfc242e69750e4b34f6f4164", "is_disabled": 0, "rental_uris": {"ios": "https://dc.lft.to/lastmile_qr_scan", "android": "https://dc.lft.to/lastmile_qr_scan"}, "is_reserved": 0}, {"lon": -77.04002716666666, "bike_id": "f416ed27138536f6db6edac09a0fbcd8", "lat": 38.93435266666667, "fusion_lon": 0.0, "fusion_lat": 0.0, "type": "electric_scooter", "name": "f416ed27138536f6db6edac09a0fbcd8", "is_disabled": 0, "rental_uris": {"ios": "https://dc.lft.to/lastmile_qr_scan", "android": "https://dc.lft.to/lastmile_qr_scan"}, "is_reserved": 0}, {"lon": -77.01859883333333, "bike_id": "f97aa4706eb953d0fa8cacb132a828da", "lat": 38.914959333333336, "fusion_lon": 0.0, "fusion_lat": 0.0, "type": "electric_scooter", "name": "f97aa4706eb953d0fa8cacb132a828da", "is_disabled": 0, "rental_uris": {"ios": "https://dc.lft.to/lastmile_qr_scan", "android": "https://dc.lft.to/lastmile_qr_scan"}, "is_reserved": 0}, {"lon": -76.99004166666667, "bike_id": "8c17c99cc766185d802f715238ad90ce", "lat": 38.8642975, "fusion_lon": 0.0, "fusion_lat": 0.0, "type": "electric_scooter", "name": "8c17c99cc766185d802f715238ad90ce", "is_disabled": 0, "rental_uris": {"ios": "https://dc.lft.to/lastmile_qr_scan", "android": "https://dc.lft.to/lastmile_qr_scan"}, "is_reserved": 0}, {"lon": -77.03945266666666, "bike_id": "878ecbe94075938d5f7131200aeb4695", "lat": 38.9156465, "fusion_lon": 0.0, "fusion_lat": 0.0, "type": "electric_scooter", "name": "878ecbe94075938d5f7131200aeb4695", "is_disabled": 0, "rental_uris": {"ios": "https://dc.lft.to/lastmile_qr_scan", "android": "https://dc.lft.to/lastmile_qr_scan"}, "is_reserved": 0}, {"lon": -77.0595625, "bike_id": "267cac8a186083be2bc0b021ea1efc89", "lat": 38.900982, "fusion_lon": 0.0, "fusion_lat": 0.0, "type": "electric_scooter", "name": "267cac8a186083be2bc0b021ea1efc89", "is_disabled": 0, "rental_uris": {"ios": "https://dc.lft.to/lastmile_qr_scan", "android": "https://dc.lft.to/lastmile_qr_scan"}, "is_reserved": 0}, {"lon": -77.0465055, "bike_id": "fc724d59d2267ee9389f04fcf26cf49b", "lat": 38.909671333333335, "fusion_lon": 0.0, "fusion_lat": 0.0, "type": "electric_scooter", "name": "fc724d59d2267ee9389f04fcf26cf49b", "is_disabled": 0, "rental_uris": {"ios": "https://dc.lft.to/lastmile_qr_scan", "android": "https://dc.lft.to/lastmile_qr_scan"}, "is_reserved": 0}, {"lon": -77.00753816666666, "bike_id": "96159def376af8fbe71afa787f99f130", "lat": 38.8973195, "fusion_lon": 0.0, "fusion_lat": 0.0, "type": "electric_scooter", "name": "96159def376af8fbe71afa787f99f130", "is_disabled": 0, "rental_uris": {"ios": "https://dc.lft.to/lastmile_qr_scan", "android": "https://dc.lft.to/lastmile_qr_scan"}, "is_reserved": 0}, {"lon": -77.05887283333334, "bike_id": "2000be47f64d1be388cc8cd463139363", "lat": 38.936404833333334, "fusion_lon": 0.0, "fusion_lat": 0.0, "type": "electric_scooter", "name": "2000be47f64d1be388cc8cd463139363", "is_disabled": 0, "rental_uris": {"ios": "https://dc.lft.to/lastmile_qr_scan", "android": "https://dc.lft.to/lastmile_qr_scan"}, "is_reserved": 0}, {"lon": -77.02544933333333, "bike_id": "0a91e3b81f7ee3d0895d464ab9a50b65", "lat": 38.91478, "fusion_lon": 0.0, "fusion_lat": 0.0, "type": "electric_scooter", "name": "0a91e3b81f7ee3d0895d464ab9a50b65", "is_disabled": 0, "rental_uris": {"ios": "https://dc.lft.to/lastmile_qr_scan", "android": "https://dc.lft.to/lastmile_qr_scan"}, "is_reserved": 0}, {"lon": -77.0020825, "bike_id": "09955f933d783c885ec5bbc92ccaaafb", "lat": 38.8954855, "fusion_lon": 0.0, "fusion_lat": 0.0, "type": "electric_scooter", "name": "09955f933d783c885ec5bbc92ccaaafb", "is_disabled": 0, "rental_uris": {"ios": "https://dc.lft.to/lastmile_qr_scan", "android": "https://dc.lft.to/lastmile_qr_scan"}, "is_reserved": 0}, {"lon": -77.02847633333333, "bike_id": "cde98151cf8aa0369f6f24fb96760fed", "lat": 38.887468166666665, "fusion_lon": 0.0, "fusion_lat": 0.0, "type": "electric_scooter", "name": "cde98151cf8aa0369f6f24fb96760fed", "is_disabled": 0, "rental_uris": {"ios": "https://dc.lft.to/lastmile_qr_scan", "android": "https://dc.lft.to/lastmile_qr_scan"}, "is_reserved": 0}, {"lon": -77.021951, "bike_id": "8e7cf03390eed1a701adf568fae1545d", "lat": 38.9130015, "fusion_lon": 0.0, "fusion_lat": 0.0, "type": "electric_scooter", "name": "8e7cf03390eed1a701adf568fae1545d", "is_disabled": 0, "rental_uris": {"ios": "https://dc.lft.to/lastmile_qr_scan", "android": "https://dc.lft.to/lastmile_qr_scan"}, "is_reserved": 0}, {"lon": -76.99629266666666, "bike_id": "c83ade6c40dad5794aba4c1bfb7e01e5", "lat": 38.92191583333334, "fusion_lon": 0.0, "fusion_lat": 0.0, "type": "electric_scooter", "name": "c83ade6c40dad5794aba4c1bfb7e01e5", "is_disabled": 0, "rental_uris": {"ios": "https://dc.lft.to/lastmile_qr_scan", "android": "https://dc.lft.to/lastmile_qr_scan"}, "is_reserved": 0}, {"lon": -77.00294983333333, "bike_id": "e887f37bcacff9782b9896b86ce92412", "lat": 38.894892166666665, "fusion_lon": 0.0, "fusion_lat": 0.0, "type": "electric_scooter", "name": "e887f37bcacff9782b9896b86ce92412", "is_disabled": 0, "rental_uris": {"ios": "https://dc.lft.to/lastmile_qr_scan", "android": "https://dc.lft.to/lastmile_qr_scan"}, "is_reserved": 0}, {"lon": -76.98697316666667, "bike_id": "4421c824b87a65a48b67ec52e06c1180", "lat": 38.86251883333333, "fusion_lon": 0.0, "fusion_lat": 0.0, "type": "electric_scooter", "name": "4421c824b87a65a48b67ec52e06c1180", "is_disabled": 0, "rental_uris": {"ios": "https://dc.lft.to/lastmile_qr_scan", "android": "https://dc.lft.to/lastmile_qr_scan"}, "is_reserved": 0}, {"lon": -77.00528566666667, "bike_id": "a943e9cb3a1873a115a5e656e2f09264", "lat": 38.92977416666667, "fusion_lon": 0.0, "fusion_lat": 0.0, "type": "electric_scooter", "name": "a943e9cb3a1873a115a5e656e2f09264", "is_disabled": 0, "rental_uris": {"ios": "https://dc.lft.to/lastmile_qr_scan", "android": "https://dc.lft.to/lastmile_qr_scan"}, "is_reserved": 0}, {"lon": -77.00106416666667, "bike_id": "36d8e9e30435dacbf2a0948113d57fe5", "lat": 38.900312, "fusion_lon": 0.0, "fusion_lat": 0.0, "type": "electric_scooter", "name": "36d8e9e30435dacbf2a0948113d57fe5", "is_disabled": 0, "rental_uris": {"ios": "https://dc.lft.to/lastmile_qr_scan", "android": "https://dc.lft.to/lastmile_qr_scan"}, "is_reserved": 0}, {"lon": -76.97140283333333, "bike_id": "e5284fa0a583b5c13c38dc92dbda4bc3", "lat": 38.92355666666667, "fusion_lon": 0.0, "fusion_lat": 0.0, "type": "electric_bike", "name": "e5284fa0a583b5c13c38dc92dbda4bc3", "is_disabled": 0, "rental_uris": {"ios": "https://dc.lft.to/lastmile_qr_scan", "android": "https://dc.lft.to/lastmile_qr_scan"}, "is_reserved": 0}, {"lon": -77.11576366666667, "bike_id": "e32fbfff3b178c83b02dc79922cc30ca", "lat": 38.993458, "fusion_lon": 0.0, "fusion_lat": 0.0, "type": "electric_bike", "name": "e32fbfff3b178c83b02dc79922cc30ca", "is_disabled": 0, "rental_uris": {"ios": "https://dc.lft.to/lastmile_qr_scan", "android": "https://dc.lft.to/lastmile_qr_scan"}, "is_reserved": 0}, {"lon": -77.01963633333334, "bike_id": "7a4afb3264fa085d6ba7f1897c91bbd2", "lat": 38.956523, "fusion_lon": 0.0, "fusion_lat": 0.0, "type": "electric_scooter", "name": "7a4afb3264fa085d6ba7f1897c91bbd2", "is_disabled": 0, "rental_uris": {"ios": "https://dc.lft.to/lastmile_qr_scan", "android": "https://dc.lft.to/lastmile_qr_scan"}, "is_reserved": 0}, {"lon": -77.00893583333334, "bike_id": "9ecf2d27a4b293a317b28bf67d75984d", "lat": 38.9681735, "fusion_lon": 0.0, "fusion_lat": 0.0, "type": "electric_scooter", "name": "9ecf2d27a4b293a317b28bf67d75984d", "is_disabled": 0, "rental_uris": {"ios": "https://dc.lft.to/lastmile_qr_scan", "android": "https://dc.lft.to/lastmile_qr_scan"}, "is_reserved": 0}, {"lon": -77.041852, "bike_id": "31d5a25b69e5c4b9addfb4a61e148349", "lat": 38.9140475, "fusion_lon": 0.0, "fusion_lat": 0.0, "type": "electric_scooter", "name": "31d5a25b69e5c4b9addfb4a61e148349", "is_disabled": 0, "rental_uris": {"ios": "https://dc.lft.to/lastmile_qr_scan", "android": "https://dc.lft.to/lastmile_qr_scan"}, "is_reserved": 0}, {"lon": -77.0240585, "bike_id": "e44c2dff6ceb574ec13b8b3ac435e036", "lat": 38.899873666666664, "fusion_lon": 0.0, "fusion_lat": 0.0, "type": "electric_scooter", "name": "e44c2dff6ceb574ec13b8b3ac435e036", "is_disabled": 0, "rental_uris": {"ios": "https://dc.lft.to/lastmile_qr_scan", "android": "https://dc.lft.to/lastmile_qr_scan"}, "is_reserved": 0}, {"lon": -77.03875916666667, "bike_id": "2d028325c76f328c251d18062c329ef3", "lat": 38.931876833333334, "fusion_lon": 0.0, "fusion_lat": 0.0, "type": "electric_scooter", "name": "2d028325c76f328c251d18062c329ef3", "is_disabled": 0, "rental_uris": {"ios": "https://dc.lft.to/lastmile_qr_scan", "android": "https://dc.lft.to/lastmile_qr_scan"}, "is_reserved": 0}, {"lon": -76.980257, "bike_id": "d989384ff7dd0be0aea89784f18594d4", "lat": 38.88865716666667, "fusion_lon": 0.0, "fusion_lat": 0.0, "type": "electric_scooter", "name": "d989384ff7dd0be0aea89784f18594d4", "is_disabled": 0, "rental_uris": {"ios": "https://dc.lft.to/lastmile_qr_scan", "android": "https://dc.lft.to/lastmile_qr_scan"}, "is_reserved": 0}, {"lon": -77.0592345, "bike_id": "ee4e88fbe0662f645dd3c0cd2b75e621", "lat": 38.903879333333336, "fusion_lon": 0.0, "fusion_lat": 0.0, "type": "electric_scooter", "name": "ee4e88fbe0662f645dd3c0cd2b75e621", "is_disabled": 0, "rental_uris": {"ios": "https://dc.lft.to/lastmile_qr_scan", "android": "https://dc.lft.to/lastmile_qr_scan"}, "is_reserved": 0}, {"lon": -77.04416483333334, "bike_id": "9e627f82b8917317ba7074a4561847fd", "lat": 38.9212395, "fusion_lon": 0.0, "fusion_lat": 0.0, "type": "electric_scooter", "name": "9e627f82b8917317ba7074a4561847fd", "is_disabled": 0, "rental_uris": {"ios": "https://dc.lft.to/lastmile_qr_scan", "android": "https://dc.lft.to/lastmile_qr_scan"}, "is_reserved": 0}, {"lon": -77.03461933333334, "bike_id": "07c9d170c77db90dd402273ab1ea6efe", "lat": 38.91691133333333, "fusion_lon": 0.0, "fusion_lat": 0.0, "type": "electric_scooter", "name": "07c9d170c77db90dd402273ab1ea6efe", "is_disabled": 0, "rental_uris": {"ios": "https://dc.lft.to/lastmile_qr_scan", "android": "https://dc.lft.to/lastmile_qr_scan"}, "is_reserved": 0}, {"lon": -77.01294183333333, "bike_id": "3a4e824c401cbb3a21600e07ff195cfc", "lat": 38.894689166666666, "fusion_lon": 0.0, "fusion_lat": 0.0, "type": "electric_scooter", "name": "3a4e824c401cbb3a21600e07ff195cfc", "is_disabled": 0, "rental_uris": {"ios": "https://dc.lft.to/lastmile_qr_scan", "android": "https://dc.lft.to/lastmile_qr_scan"}, "is_reserved": 0}, {"lon": -77.01659833333333, "bike_id": "db7dab50427065abff3d9790f18232d0", "lat": 38.8874415, "fusion_lon": 0.0, "fusion_lat": 0.0, "type": "electric_scooter", "name": "db7dab50427065abff3d9790f18232d0", "is_disabled": 0, "rental_uris": {"ios": "https://dc.lft.to/lastmile_qr_scan", "android": "https://dc.lft.to/lastmile_qr_scan"}, "is_reserved": 0}, {"lon": -77.04174966666666, "bike_id": "c12205bcaa5d83c092d080378c49a599", "lat": 38.9165295, "fusion_lon": 0.0, "fusion_lat": 0.0, "type": "electric_scooter", "name": "c12205bcaa5d83c092d080378c49a599", "is_disabled": 0, "rental_uris": {"ios": "https://dc.lft.to/lastmile_qr_scan", "android": "https://dc.lft.to/lastmile_qr_scan"}, "is_reserved": 0}, {"lon": -76.98616666666666, "bike_id": "7a21e35573c6d9fb63c9fdf866049572", "lat": 38.9382755, "fusion_lon": 0.0, "fusion_lat": 0.0, "type": "electric_scooter", "name": "7a21e35573c6d9fb63c9fdf866049572", "is_disabled": 0, "rental_uris": {"ios": "https://dc.lft.to/lastmile_qr_scan", "android": "https://dc.lft.to/lastmile_qr_scan"}, "is_reserved": 0}, {"lon": -77.02502433333333, "bike_id": "19dd80a31b3b21813e568158deacb562", "lat": 38.906403833333336, "fusion_lon": 0.0, "fusion_lat": 0.0, "type": "electric_scooter", "name": "19dd80a31b3b21813e568158deacb562", "is_disabled": 0, "rental_uris": {"ios": "https://dc.lft.to/lastmile_qr_scan", "android": "https://dc.lft.to/lastmile_qr_scan"}, "is_reserved": 0}, {"lon": -77.36098033333333, "bike_id": "dffa34c491624b02f485e83ccb1cbfd0", "lat": 38.9395525, "fusion_lon": 0.0, "fusion_lat": 0.0, "type": "electric_bike", "name": "dffa34c491624b02f485e83ccb1cbfd0", "is_disabled": 0, "rental_uris": {"ios": "https://dc.lft.to/lastmile_qr_scan", "android": "https://dc.lft.to/lastmile_qr_scan"}, "is_reserved": 0}, {"lon": -77.00534166666667, "bike_id": "43e91b0ab73fe9b2b8ca8311d72093e2", "lat": 38.879616166666665, "fusion_lon": 0.0, "fusion_lat": 0.0, "type": "electric_scooter", "name": "43e91b0ab73fe9b2b8ca8311d72093e2", "is_disabled": 0, "rental_uris": {"ios": "https://dc.lft.to/lastmile_qr_scan", "android": "https://dc.lft.to/lastmile_qr_scan"}, "is_reserved": 0}, {"lon": -77.03285133333333, "bike_id": "4800349a509467c2dc5a1fa6f9c26499", "lat": 38.937679, "fusion_lon": 0.0, "fusion_lat": 0.0, "type": "electric_scooter", "name": "4800349a509467c2dc5a1fa6f9c26499", "is_disabled": 0, "rental_uris": {"ios": "https://dc.lft.to/lastmile_qr_scan", "android": "https://dc.lft.to/lastmile_qr_scan"}, "is_reserved": 0}, {"lon": -77.03425433333334, "bike_id": "63be80b7baf4aeb2e67bcc5dd27ac6d9", "lat": 38.90365666666667, "fusion_lon": 0.0, "fusion_lat": 0.0, "type": "electric_scooter", "name": "63be80b7baf4aeb2e67bcc5dd27ac6d9", "is_disabled": 0, "rental_uris": {"ios": "https://dc.lft.to/lastmile_qr_scan", "android": "https://dc.lft.to/lastmile_qr_scan"}, "is_reserved": 0}, {"lon": -77.003818, "bike_id": "573e7e974d981220ae97241fa3d2a614", "lat": 38.897416166666666, "fusion_lon": 0.0, "fusion_lat": 0.0, "type": "electric_scooter", "name": "573e7e974d981220ae97241fa3d2a614", "is_disabled": 0, "rental_uris": {"ios": "https://dc.lft.to/lastmile_qr_scan", "android": "https://dc.lft.to/lastmile_qr_scan"}, "is_reserved": 0}, {"lon": -76.98028383333333, "bike_id": "7759eae29497ae26c015eaadaa20e547", "lat": 38.900801333333334, "fusion_lon": 0.0, "fusion_lat": 0.0, "type": "electric_bike", "name": "7759eae29497ae26c015eaadaa20e547", "is_disabled": 0, "rental_uris": {"ios": "https://dc.lft.to/lastmile_qr_scan", "android": "https://dc.lft.to/lastmile_qr_scan"}, "is_reserved": 0}, {"lon": -77.02967216666667, "bike_id": "9031c508449ee21ddfcf0708618df5ad", "lat": 38.907793166666664, "fusion_lon": 0.0, "fusion_lat": 0.0, "type": "electric_scooter", "name": "9031c508449ee21ddfcf0708618df5ad", "is_disabled": 0, "rental_uris": {"ios": "https://dc.lft.to/lastmile_qr_scan", "android": "https://dc.lft.to/lastmile_qr_scan"}, "is_reserved": 0}, {"lon": -76.9770545, "bike_id": "cc205061eba8625e0a6e0df14c9ac9f4", "lat": 38.949129166666665, "fusion_lon": 0.0, "fusion_lat": 0.0, "type": "electric_bike", "name": "cc205061eba8625e0a6e0df14c9ac9f4", "is_disabled": 0, "rental_uris": {"ios": "https://dc.lft.to/lastmile_qr_scan", "android": "https://dc.lft.to/lastmile_qr_scan"}, "is_reserved": 0}, {"lon": -77.023989, "bike_id": "605fbe807ffd63f5bf891f2767da11f1", "lat": 38.9141885, "fusion_lon": 0.0, "fusion_lat": 0.0, "type": "electric_scooter", "name": "605fbe807ffd63f5bf891f2767da11f1", "is_disabled": 0, "rental_uris": {"ios": "https://dc.lft.to/lastmile_qr_scan", "android": "https://dc.lft.to/lastmile_qr_scan"}, "is_reserved": 0}, {"lon": -76.906047, "bike_id": "76cc0389d0c7e4c5cbc4773dc58b49b4", "lat": 39.00461333333333, "fusion_lon": 0.0, "fusion_lat": 0.0, "type": "electric_bike", "name": "76cc0389d0c7e4c5cbc4773dc58b49b4", "is_disabled": 0, "rental_uris": {"ios": "https://dc.lft.to/lastmile_qr_scan", "android": "https://dc.lft.to/lastmile_qr_scan"}, "is_reserved": 0}, {"lon": -76.96816333333334, "bike_id": "76797bb82c591f08a9659fa938dcaf7e", "lat": 38.92546166666666, "fusion_lon": 0.0, "fusion_lat": 0.0, "type": "electric_bike", "name": "76797bb82c591f08a9659fa938dcaf7e", "is_disabled": 0, "rental_uris": {"ios": "https://dc.lft.to/lastmile_qr_scan", "android": "https://dc.lft.to/lastmile_qr_scan"}, "is_reserved": 0}, {"lon": -76.97430116666666, "bike_id": "f8655a8ee7b901361940db98da9411e4", "lat": 38.90402866666667, "fusion_lon": 0.0, "fusion_lat": 0.0, "type": "electric_scooter", "name": "f8655a8ee7b901361940db98da9411e4", "is_disabled": 0, "rental_uris": {"ios": "https://dc.lft.to/lastmile_qr_scan", "android": "https://dc.lft.to/lastmile_qr_scan"}, "is_reserved": 0}, {"lon": -76.9438645, "bike_id": "a681ee60bfa2f1b4724044fd4d98402c", "lat": 38.89324383333334, "fusion_lon": 0.0, "fusion_lat": 0.0, "type": "electric_scooter", "name": "a681ee60bfa2f1b4724044fd4d98402c", "is_disabled": 0, "rental_uris": {"ios": "https://dc.lft.to/lastmile_qr_scan", "android": "https://dc.lft.to/lastmile_qr_scan"}, "is_reserved": 0}, {"lon": -77.034678, "bike_id": "14ee74e4ea3c798a0e75141620119bb7", "lat": 38.91871533333333, "fusion_lon": 0.0, "fusion_lat": 0.0, "type": "electric_scooter", "name": "14ee74e4ea3c798a0e75141620119bb7", "is_disabled": 0, "rental_uris": {"ios": "https://dc.lft.to/lastmile_qr_scan", "android": "https://dc.lft.to/lastmile_qr_scan"}, "is_reserved": 0}, {"lon": -77.09065183333334, "bike_id": "ae10814ff0ee09e4ee40c3470f606edc", "lat": 38.8625965, "fusion_lon": 0.0, "fusion_lat": 0.0, "type": "electric_bike", "name": "ae10814ff0ee09e4ee40c3470f606edc", "is_disabled": 0, "rental_uris": {"ios": "https://dc.lft.to/lastmile_qr_scan", "android": "https://dc.lft.to/lastmile_qr_scan"}, "is_reserved": 0}, {"lon": -76.98624766666667, "bike_id": "a05d386e46b453cbabfa58157d636569", "lat": 38.901137, "fusion_lon": 0.0, "fusion_lat": 0.0, "type": "electric_scooter", "name": "a05d386e46b453cbabfa58157d636569", "is_disabled": 0, "rental_uris": {"ios": "https://dc.lft.to/lastmile_qr_scan", "android": "https://dc.lft.to/lastmile_qr_scan"}, "is_reserved": 0}, {"lon": -76.97832816666667, "bike_id": "7d631f82ebb8d2ed4112056dd3d2b5fc", "lat": 38.8436915, "fusion_lon": 0.0, "fusion_lat": 0.0, "type": "electric_bike", "name": "7d631f82ebb8d2ed4112056dd3d2b5fc", "is_disabled": 0, "rental_uris": {"ios": "https://dc.lft.to/lastmile_qr_scan", "android": "https://dc.lft.to/lastmile_qr_scan"}, "is_reserved": 0}, {"lon": -76.99775983333333, "bike_id": "b8686e89f01b19a389cf992c6513ebfc", "lat": 38.84433833333333, "fusion_lon": 0.0, "fusion_lat": 0.0, "type": "electric_scooter", "name": "b8686e89f01b19a389cf992c6513ebfc", "is_disabled": 0, "rental_uris": {"ios": "https://dc.lft.to/lastmile_qr_scan", "android": "https://dc.lft.to/lastmile_qr_scan"}, "is_reserved": 0}, {"lon": -77.0185425, "bike_id": "5675dadd6087cc5c952a4514a29dc138", "lat": 38.954286833333335, "fusion_lon": 0.0, "fusion_lat": 0.0, "type": "electric_scooter", "name": "5675dadd6087cc5c952a4514a29dc138", "is_disabled": 0, "rental_uris": {"ios": "https://dc.lft.to/lastmile_qr_scan", "android": "https://dc.lft.to/lastmile_qr_scan"}, "is_reserved": 0}, {"lon": -77.03232033333333, "bike_id": "60a3c48b9e4980750358e1258f8a1037", "lat": 38.91559616666667, "fusion_lon": 0.0, "fusion_lat": 0.0, "type": "electric_scooter", "name": "60a3c48b9e4980750358e1258f8a1037", "is_disabled": 0, "rental_uris": {"ios": "https://dc.lft.to/lastmile_qr_scan", "android": "https://dc.lft.to/lastmile_qr_scan"}, "is_reserved": 0}, {"lon": -76.99437483333334, "bike_id": "a4e2489e84cda110413cc6abf0b0df0a", "lat": 38.900122, "fusion_lon": 0.0, "fusion_lat": 0.0, "type": "electric_scooter", "name": "a4e2489e84cda110413cc6abf0b0df0a", "is_disabled": 0, "rental_uris": {"ios": "https://dc.lft.to/lastmile_qr_scan", "android": "https://dc.lft.to/lastmile_qr_scan"}, "is_reserved": 0}, {"lon": -77.04014166666667, "bike_id": "35bf157a602d6f86e77dd6e376a128ef", "lat": 38.9156305, "fusion_lon": 0.0, "fusion_lat": 0.0, "type": "electric_scooter", "name": "35bf157a602d6f86e77dd6e376a128ef", "is_disabled": 0, "rental_uris": {"ios": "https://dc.lft.to/lastmile_qr_scan", "android": "https://dc.lft.to/lastmile_qr_scan"}, "is_reserved": 0}, {"lon": -77.03222666666667, "bike_id": "bc2a6781d7d4c587fa54f9267347933d", "lat": 38.91667566666667, "fusion_lon": 0.0, "fusion_lat": 0.0, "type": "electric_scooter", "name": "bc2a6781d7d4c587fa54f9267347933d", "is_disabled": 0, "rental_uris": {"ios": "https://dc.lft.to/lastmile_qr_scan", "android": "https://dc.lft.to/lastmile_qr_scan"}, "is_reserved": 0}, {"lon": -77.045434, "bike_id": "fa20cbc65544203170e06fc5be973d45", "lat": 38.9096345, "fusion_lon": 0.0, "fusion_lat": 0.0, "type": "electric_scooter", "name": "fa20cbc65544203170e06fc5be973d45", "is_disabled": 0, "rental_uris": {"ios": "https://dc.lft.to/lastmile_qr_scan", "android": "https://dc.lft.to/lastmile_qr_scan"}, "is_reserved": 0}, {"lon": -77.01035466666667, "bike_id": "cd49d46013230c468f377c6be387f6a1", "lat": 38.907231, "fusion_lon": 0.0, "fusion_lat": 0.0, "type": "electric_scooter", "name": "cd49d46013230c468f377c6be387f6a1", "is_disabled": 0, "rental_uris": {"ios": "https://dc.lft.to/lastmile_qr_scan", "android": "https://dc.lft.to/lastmile_qr_scan"}, "is_reserved": 0}, {"lon": -77.04149283333334, "bike_id": "7aea38068ca034cf462ff70767f74cd5", "lat": 38.919541333333335, "fusion_lon": 0.0, "fusion_lat": 0.0, "type": "electric_scooter", "name": "7aea38068ca034cf462ff70767f74cd5", "is_disabled": 0, "rental_uris": {"ios": "https://dc.lft.to/lastmile_qr_scan", "android": "https://dc.lft.to/lastmile_qr_scan"}, "is_reserved": 0}, {"lon": -76.9846475, "bike_id": "7585389fdc76c081bbf1850cca1fc6cd", "lat": 38.9001875, "fusion_lon": 0.0, "fusion_lat": 0.0, "type": "electric_scooter", "name": "7585389fdc76c081bbf1850cca1fc6cd", "is_disabled": 0, "rental_uris": {"ios": "https://dc.lft.to/lastmile_qr_scan", "android": "https://dc.lft.to/lastmile_qr_scan"}, "is_reserved": 0}, {"lon": -77.0230135, "bike_id": "1d0e79cd899a6000407331b2ac149497", "lat": 38.928375833333334, "fusion_lon": 0.0, "fusion_lat": 0.0, "type": "electric_scooter", "name": "1d0e79cd899a6000407331b2ac149497", "is_disabled": 0, "rental_uris": {"ios": "https://dc.lft.to/lastmile_qr_scan", "android": "https://dc.lft.to/lastmile_qr_scan"}, "is_reserved": 0}, {"lon": -77.02745966666667, "bike_id": "f471a2bc34bebebbe3cff260d6cb2135", "lat": 38.881525333333336, "fusion_lon": 0.0, "fusion_lat": 0.0, "type": "electric_scooter", "name": "f471a2bc34bebebbe3cff260d6cb2135", "is_disabled": 0, "rental_uris": {"ios": "https://dc.lft.to/lastmile_qr_scan", "android": "https://dc.lft.to/lastmile_qr_scan"}, "is_reserved": 0}, {"lon": -77.02739066666666, "bike_id": "caab60c4d35ec64ec664b5bbe4263a4e", "lat": 38.90561733333333, "fusion_lon": 0.0, "fusion_lat": 0.0, "type": "electric_scooter", "name": "caab60c4d35ec64ec664b5bbe4263a4e", "is_disabled": 0, "rental_uris": {"ios": "https://dc.lft.to/lastmile_qr_scan", "android": "https://dc.lft.to/lastmile_qr_scan"}, "is_reserved": 0}, {"lon": -77.0849205, "bike_id": "b03b8512e0e370f13483cac988d9416b", "lat": 38.959390166666665, "fusion_lon": 0.0, "fusion_lat": 0.0, "type": "electric_scooter", "name": "b03b8512e0e370f13483cac988d9416b", "is_disabled": 0, "rental_uris": {"ios": "https://dc.lft.to/lastmile_qr_scan", "android": "https://dc.lft.to/lastmile_qr_scan"}, "is_reserved": 0}, {"lon": -77.03482616666666, "bike_id": "48ce0b022e89539e93955ccb24fa1d5d", "lat": 38.905822666666666, "fusion_lon": 0.0, "fusion_lat": 0.0, "type": "electric_scooter", "name": "48ce0b022e89539e93955ccb24fa1d5d", "is_disabled": 0, "rental_uris": {"ios": "https://dc.lft.to/lastmile_qr_scan", "android": "https://dc.lft.to/lastmile_qr_scan"}, "is_reserved": 0}, {"lon": -77.0639525, "bike_id": "93c0738b144852478f7038a9147abfc9", "lat": 38.94440083333333, "fusion_lon": 0.0, "fusion_lat": 0.0, "type": "electric_scooter", "name": "93c0738b144852478f7038a9147abfc9", "is_disabled": 0, "rental_uris": {"ios": "https://dc.lft.to/lastmile_qr_scan", "android": "https://dc.lft.to/lastmile_qr_scan"}, "is_reserved": 0}, {"lon": -77.00197316666667, "bike_id": "8ce0e2578eecd250ccb1df42392bae9b", "lat": 38.8867835, "fusion_lon": 0.0, "fusion_lat": 0.0, "type": "electric_scooter", "name": "8ce0e2578eecd250ccb1df42392bae9b", "is_disabled": 0, "rental_uris": {"ios": "https://dc.lft.to/lastmile_qr_scan", "android": "https://dc.lft.to/lastmile_qr_scan"}, "is_reserved": 0}, {"lon": -76.99019683333333, "bike_id": "db03e6344689f5e17e2f8372945ad199", "lat": 38.899653, "fusion_lon": 0.0, "fusion_lat": 0.0, "type": "electric_scooter", "name": "db03e6344689f5e17e2f8372945ad199", "is_disabled": 0, "rental_uris": {"ios": "https://dc.lft.to/lastmile_qr_scan", "android": "https://dc.lft.to/lastmile_qr_scan"}, "is_reserved": 0}, {"lon": -77.0182245, "bike_id": "cb22bf5d17ca24c3ec5c8f9d5d9c2d29", "lat": 38.923653333333334, "fusion_lon": 0.0, "fusion_lat": 0.0, "type": "electric_scooter", "name": "cb22bf5d17ca24c3ec5c8f9d5d9c2d29", "is_disabled": 0, "rental_uris": {"ios": "https://dc.lft.to/lastmile_qr_scan", "android": "https://dc.lft.to/lastmile_qr_scan"}, "is_reserved": 0}, {"lon": -77.01305416666666, "bike_id": "a556d0da6483751c1e6475074b2f5b25", "lat": 38.907367666666666, "fusion_lon": 0.0, "fusion_lat": 0.0, "type": "electric_scooter", "name": "a556d0da6483751c1e6475074b2f5b25", "is_disabled": 0, "rental_uris": {"ios": "https://dc.lft.to/lastmile_qr_scan", "android": "https://dc.lft.to/lastmile_qr_scan"}, "is_reserved": 0}, {"lon": -77.05104066666667, "bike_id": "65108e9f360f96ef3147d3355a018d7d", "lat": 38.9230395, "fusion_lon": 0.0, "fusion_lat": 0.0, "type": "electric_scooter", "name": "65108e9f360f96ef3147d3355a018d7d", "is_disabled": 0, "rental_uris": {"ios": "https://dc.lft.to/lastmile_qr_scan", "android": "https://dc.lft.to/lastmile_qr_scan"}, "is_reserved": 0}, {"lon": -77.02577933333333, "bike_id": "8dc8bccd12b6996b7229d70a9ff55baf", "lat": 38.91403433333333, "fusion_lon": 0.0, "fusion_lat": 0.0, "type": "electric_scooter", "name": "8dc8bccd12b6996b7229d70a9ff55baf", "is_disabled": 0, "rental_uris": {"ios": "https://dc.lft.to/lastmile_qr_scan", "android": "https://dc.lft.to/lastmile_qr_scan"}, "is_reserved": 0}, {"lon": -77.03177316666667, "bike_id": "1dff680e9802801f4b566b89e3a56a13", "lat": 38.91554683333333, "fusion_lon": 0.0, "fusion_lat": 0.0, "type": "electric_scooter", "name": "1dff680e9802801f4b566b89e3a56a13", "is_disabled": 0, "rental_uris": {"ios": "https://dc.lft.to/lastmile_qr_scan", "android": "https://dc.lft.to/lastmile_qr_scan"}, "is_reserved": 0}, {"lon": -77.05934583333334, "bike_id": "b951aec21a4ea0b8fc47b460fe2c9af5", "lat": 38.90531266666667, "fusion_lon": 0.0, "fusion_lat": 0.0, "type": "electric_scooter", "name": "b951aec21a4ea0b8fc47b460fe2c9af5", "is_disabled": 0, "rental_uris": {"ios": "https://dc.lft.to/lastmile_qr_scan", "android": "https://dc.lft.to/lastmile_qr_scan"}, "is_reserved": 0}, {"lon": -77.026862, "bike_id": "31369b54b61462b3489a25858ef57bf4", "lat": 38.907207, "fusion_lon": 0.0, "fusion_lat": 0.0, "type": "electric_scooter", "name": "31369b54b61462b3489a25858ef57bf4", "is_disabled": 0, "rental_uris": {"ios": "https://dc.lft.to/lastmile_qr_scan", "android": "https://dc.lft.to/lastmile_qr_scan"}, "is_reserved": 0}, {"lon": -77.01881316666666, "bike_id": "21268f87136a5cda2416762ce23e1202", "lat": 38.914153666666664, "fusion_lon": 0.0, "fusion_lat": 0.0, "type": "electric_scooter", "name": "21268f87136a5cda2416762ce23e1202", "is_disabled": 0, "rental_uris": {"ios": "https://dc.lft.to/lastmile_qr_scan", "android": "https://dc.lft.to/lastmile_qr_scan"}, "is_reserved": 0}, {"lon": -77.004505, "bike_id": "1e7b310abfa0d7953bbd29ef86adfb5c", "lat": 38.87763866666667, "fusion_lon": 0.0, "fusion_lat": 0.0, "type": "electric_scooter", "name": "1e7b310abfa0d7953bbd29ef86adfb5c", "is_disabled": 0, "rental_uris": {"ios": "https://dc.lft.to/lastmile_qr_scan", "android": "https://dc.lft.to/lastmile_qr_scan"}, "is_reserved": 0}, {"lon": -77.0322135, "bike_id": "943d0711fe42b335d9201dbbb8d84a00", "lat": 38.911259, "fusion_lon": 0.0, "fusion_lat": 0.0, "type": "electric_scooter", "name": "943d0711fe42b335d9201dbbb8d84a00", "is_disabled": 0, "rental_uris": {"ios": "https://dc.lft.to/lastmile_qr_scan", "android": "https://dc.lft.to/lastmile_qr_scan"}, "is_reserved": 0}, {"lon": -77.03425216666666, "bike_id": "8756a3c780346245501a1b0a1e7b2156", "lat": 38.9240975, "fusion_lon": 0.0, "fusion_lat": 0.0, "type": "electric_bike", "name": "8756a3c780346245501a1b0a1e7b2156", "is_disabled": 0, "rental_uris": {"ios": "https://dc.lft.to/lastmile_qr_scan", "android": "https://dc.lft.to/lastmile_qr_scan"}, "is_reserved": 0}, {"lon": -76.970063, "bike_id": "7ced8c96dd04cbe2379cefd9886af30a", "lat": 38.86370816666667, "fusion_lon": 0.0, "fusion_lat": 0.0, "type": "electric_bike", "name": "7ced8c96dd04cbe2379cefd9886af30a", "is_disabled": 0, "rental_uris": {"ios": "https://dc.lft.to/lastmile_qr_scan", "android": "https://dc.lft.to/lastmile_qr_scan"}, "is_reserved": 0}, {"lon": -77.185649, "bike_id": "6543f25b5ca1837f20e49a3363f95078", "lat": 39.0997905, "fusion_lon": 0.0, "fusion_lat": 0.0, "type": "electric_bike", "name": "6543f25b5ca1837f20e49a3363f95078", "is_disabled": 0, "rental_uris": {"ios": "https://dc.lft.to/lastmile_qr_scan", "android": "https://dc.lft.to/lastmile_qr_scan"}, "is_reserved": 0}, {"lon": -77.03204233333334, "bike_id": "a6014d43803e1ac51187ad2a5154401d", "lat": 38.915360166666666, "fusion_lon": 0.0, "fusion_lat": 0.0, "type": "electric_scooter", "name": "a6014d43803e1ac51187ad2a5154401d", "is_disabled": 0, "rental_uris": {"ios": "https://dc.lft.to/lastmile_qr_scan", "android": "https://dc.lft.to/lastmile_qr_scan"}, "is_reserved": 0}, {"lon": -77.03173433333333, "bike_id": "8e47700da66cdca5fc4a4b29630f8ca8", "lat": 38.93605933333333, "fusion_lon": 0.0, "fusion_lat": 0.0, "type": "electric_scooter", "name": "8e47700da66cdca5fc4a4b29630f8ca8", "is_disabled": 0, "rental_uris": {"ios": "https://dc.lft.to/lastmile_qr_scan", "android": "https://dc.lft.to/lastmile_qr_scan"}, "is_reserved": 0}, {"lon": -77.07609666666667, "bike_id": "49462809c281ed506b8409068bbdd3a4", "lat": 38.912200166666665, "fusion_lon": 0.0, "fusion_lat": 0.0, "type": "electric_scooter", "name": "49462809c281ed506b8409068bbdd3a4", "is_disabled": 0, "rental_uris": {"ios": "https://dc.lft.to/lastmile_qr_scan", "android": "https://dc.lft.to/lastmile_qr_scan"}, "is_reserved": 0}, {"lon": -77.034174, "bike_id": "513708d40e03573e0ab6927b8a5095c3", "lat": 38.903991833333336, "fusion_lon": 0.0, "fusion_lat": 0.0, "type": "electric_scooter", "name": "513708d40e03573e0ab6927b8a5095c3", "is_disabled": 0, "rental_uris": {"ios": "https://dc.lft.to/lastmile_qr_scan", "android": "https://dc.lft.to/lastmile_qr_scan"}, "is_reserved": 0}, {"lon": -77.04186683333333, "bike_id": "8f60d06ce96867786d9b9b2ee264cc84", "lat": 38.91936166666667, "fusion_lon": 0.0, "fusion_lat": 0.0, "type": "electric_scooter", "name": "8f60d06ce96867786d9b9b2ee264cc84", "is_disabled": 0, "rental_uris": {"ios": "https://dc.lft.to/lastmile_qr_scan", "android": "https://dc.lft.to/lastmile_qr_scan"}, "is_reserved": 0}, {"lon": -77.024856, "bike_id": "94ffe495527281d2aa65471b1425e905", "lat": 38.91952416666667, "fusion_lon": 0.0, "fusion_lat": 0.0, "type": "electric_scooter", "name": "94ffe495527281d2aa65471b1425e905", "is_disabled": 0, "rental_uris": {"ios": "https://dc.lft.to/lastmile_qr_scan", "android": "https://dc.lft.to/lastmile_qr_scan"}, "is_reserved": 0}, {"lon": -77.04186566666667, "bike_id": "0c260bc340332ec626c3c83782f1c6c4", "lat": 38.91407, "fusion_lon": 0.0, "fusion_lat": 0.0, "type": "electric_scooter", "name": "0c260bc340332ec626c3c83782f1c6c4", "is_disabled": 0, "rental_uris": {"ios": "https://dc.lft.to/lastmile_qr_scan", "android": "https://dc.lft.to/lastmile_qr_scan"}, "is_reserved": 0}, {"lon": -77.04164133333333, "bike_id": "b9d15f6978a768dedcb28420d49331c2", "lat": 38.91487733333334, "fusion_lon": 0.0, "fusion_lat": 0.0, "type": "electric_scooter", "name": "b9d15f6978a768dedcb28420d49331c2", "is_disabled": 0, "rental_uris": {"ios": "https://dc.lft.to/lastmile_qr_scan", "android": "https://dc.lft.to/lastmile_qr_scan"}, "is_reserved": 0}, {"lon": -76.9220775, "bike_id": "992883bb4f13d366a8058c434c9e8bfb", "lat": 38.894993666666664, "fusion_lon": 0.0, "fusion_lat": 0.0, "type": "electric_bike", "name": "992883bb4f13d366a8058c434c9e8bfb", "is_disabled": 0, "rental_uris": {"ios": "https://dc.lft.to/lastmile_qr_scan", "android": "https://dc.lft.to/lastmile_qr_scan"}, "is_reserved": 0}, {"lon": -76.99029016666667, "bike_id": "95b83abf83de86da0d4c3acf13690422", "lat": 38.863767, "fusion_lon": 0.0, "fusion_lat": 0.0, "type": "electric_scooter", "name": "95b83abf83de86da0d4c3acf13690422", "is_disabled": 0, "rental_uris": {"ios": "https://dc.lft.to/lastmile_qr_scan", "android": "https://dc.lft.to/lastmile_qr_scan"}, "is_reserved": 0}, {"lon": -77.0008495, "bike_id": "d4d73084d5e8758de3b599fac2b73dbb", "lat": 38.89477733333333, "fusion_lon": 0.0, "fusion_lat": 0.0, "type": "electric_scooter", "name": "d4d73084d5e8758de3b599fac2b73dbb", "is_disabled": 0, "rental_uris": {"ios": "https://dc.lft.to/lastmile_qr_scan", "android": "https://dc.lft.to/lastmile_qr_scan"}, "is_reserved": 0}, {"lon": -77.03286183333333, "bike_id": "e7a6ee3a3e173a3b44faec5a13e25b91", "lat": 38.9311325, "fusion_lon": 0.0, "fusion_lat": 0.0, "type": "electric_scooter", "name": "e7a6ee3a3e173a3b44faec5a13e25b91", "is_disabled": 0, "rental_uris": {"ios": "https://dc.lft.to/lastmile_qr_scan", "android": "https://dc.lft.to/lastmile_qr_scan"}, "is_reserved": 0}, {"lon": -77.02991366666667, "bike_id": "f9aaf2988a257db8b4f3b44368616183", "lat": 38.931433166666665, "fusion_lon": 0.0, "fusion_lat": 0.0, "type": "electric_scooter", "name": "f9aaf2988a257db8b4f3b44368616183", "is_disabled": 0, "rental_uris": {"ios": "https://dc.lft.to/lastmile_qr_scan", "android": "https://dc.lft.to/lastmile_qr_scan"}, "is_reserved": 0}, {"lon": -77.03438166666666, "bike_id": "fb936efcfacf645fcd804823337f7d8f", "lat": 38.91810983333333, "fusion_lon": 0.0, "fusion_lat": 0.0, "type": "electric_scooter", "name": "fb936efcfacf645fcd804823337f7d8f", "is_disabled": 0, "rental_uris": {"ios": "https://dc.lft.to/lastmile_qr_scan", "android": "https://dc.lft.to/lastmile_qr_scan"}, "is_reserved": 0}, {"lon": -76.99036666666666, "bike_id": "d1e58cd1cedd5341ab7eda8b3a1009a2", "lat": 38.90289533333333, "fusion_lon": 0.0, "fusion_lat": 0.0, "type": "electric_scooter", "name": "d1e58cd1cedd5341ab7eda8b3a1009a2", "is_disabled": 0, "rental_uris": {"ios": "https://dc.lft.to/lastmile_qr_scan", "android": "https://dc.lft.to/lastmile_qr_scan"}, "is_reserved": 0}, {"lon": -77.06401916666667, "bike_id": "a554771c9611c79db27395d743ad126c", "lat": 38.9432565, "fusion_lon": 0.0, "fusion_lat": 0.0, "type": "electric_scooter", "name": "a554771c9611c79db27395d743ad126c", "is_disabled": 0, "rental_uris": {"ios": "https://dc.lft.to/lastmile_qr_scan", "android": "https://dc.lft.to/lastmile_qr_scan"}, "is_reserved": 0}, {"lon": -76.99650816666667, "bike_id": "aee634d69238e6c7b8f69778a7b71943", "lat": 38.98824483333333, "fusion_lon": 0.0, "fusion_lat": 0.0, "type": "electric_bike", "name": "aee634d69238e6c7b8f69778a7b71943", "is_disabled": 0, "rental_uris": {"ios": "https://dc.lft.to/lastmile_qr_scan", "android": "https://dc.lft.to/lastmile_qr_scan"}, "is_reserved": 0}, {"lon": -77.031759, "bike_id": "b24effa5cd31b3a38709ee5d552b873d", "lat": 38.914192, "fusion_lon": 0.0, "fusion_lat": 0.0, "type": "electric_scooter", "name": "b24effa5cd31b3a38709ee5d552b873d", "is_disabled": 0, "rental_uris": {"ios": "https://dc.lft.to/lastmile_qr_scan", "android": "https://dc.lft.to/lastmile_qr_scan"}, "is_reserved": 0}, {"lon": -77.04825833333334, "bike_id": "7c8c83fca3ba3aa10c98e86b65ee3358", "lat": 38.90480133333333, "fusion_lon": 0.0, "fusion_lat": 0.0, "type": "electric_scooter", "name": "7c8c83fca3ba3aa10c98e86b65ee3358", "is_disabled": 0, "rental_uris": {"ios": "https://dc.lft.to/lastmile_qr_scan", "android": "https://dc.lft.to/lastmile_qr_scan"}, "is_reserved": 0}, {"lon": -77.04462716666667, "bike_id": "845a715e6dd5407f7b68c0b1dc57d6f5", "lat": 38.909602666666665, "fusion_lon": 0.0, "fusion_lat": 0.0, "type": "electric_scooter", "name": "845a715e6dd5407f7b68c0b1dc57d6f5", "is_disabled": 0, "rental_uris": {"ios": "https://dc.lft.to/lastmile_qr_scan", "android": "https://dc.lft.to/lastmile_qr_scan"}, "is_reserved": 0}, {"lon": -77.00971783333334, "bike_id": "29354d473fe4b39457d150f037879422", "lat": 38.911849833333335, "fusion_lon": 0.0, "fusion_lat": 0.0, "type": "electric_scooter", "name": "29354d473fe4b39457d150f037879422", "is_disabled": 0, "rental_uris": {"ios": "https://dc.lft.to/lastmile_qr_scan", "android": "https://dc.lft.to/lastmile_qr_scan"}, "is_reserved": 0}, {"lon": -76.99174966666666, "bike_id": "3e6cd94df29e78cbcc44dd7ae52575e4", "lat": 38.88987783333334, "fusion_lon": 0.0, "fusion_lat": 0.0, "type": "electric_scooter", "name": "3e6cd94df29e78cbcc44dd7ae52575e4", "is_disabled": 0, "rental_uris": {"ios": "https://dc.lft.to/lastmile_qr_scan", "android": "https://dc.lft.to/lastmile_qr_scan"}, "is_reserved": 0}, {"lon": -77.03331583333333, "bike_id": "abec4452bf0a2afefb7b88368f6db8bf", "lat": 38.92898683333333, "fusion_lon": 0.0, "fusion_lat": 0.0, "type": "electric_scooter", "name": "abec4452bf0a2afefb7b88368f6db8bf", "is_disabled": 0, "rental_uris": {"ios": "https://dc.lft.to/lastmile_qr_scan", "android": "https://dc.lft.to/lastmile_qr_scan"}, "is_reserved": 0}, {"lon": -77.0193305, "bike_id": "d96640ded27f58867628ff4916f46ba4", "lat": 38.898427, "fusion_lon": 0.0, "fusion_lat": 0.0, "type": "electric_scooter", "name": "d96640ded27f58867628ff4916f46ba4", "is_disabled": 0, "rental_uris": {"ios": "https://dc.lft.to/lastmile_qr_scan", "android": "https://dc.lft.to/lastmile_qr_scan"}, "is_reserved": 0}, {"lon": -77.00758366666666, "bike_id": "806f3ce98375409a0396b6dce7199c48", "lat": 38.90057783333334, "fusion_lon": 0.0, "fusion_lat": 0.0, "type": "electric_scooter", "name": "806f3ce98375409a0396b6dce7199c48", "is_disabled": 0, "rental_uris": {"ios": "https://dc.lft.to/lastmile_qr_scan", "android": "https://dc.lft.to/lastmile_qr_scan"}, "is_reserved": 0}, {"lon": -77.04174466666667, "bike_id": "a99ed584b7edaf163382322bc87f89bd", "lat": 38.916567666666666, "fusion_lon": 0.0, "fusion_lat": 0.0, "type": "electric_scooter", "name": "a99ed584b7edaf163382322bc87f89bd", "is_disabled": 0, "rental_uris": {"ios": "https://dc.lft.to/lastmile_qr_scan", "android": "https://dc.lft.to/lastmile_qr_scan"}, "is_reserved": 0}, {"lon": -77.0217315, "bike_id": "ac1ddaa6c4e05e6c24fbf34e995cd03d", "lat": 38.924974, "fusion_lon": 0.0, "fusion_lat": 0.0, "type": "electric_scooter", "name": "ac1ddaa6c4e05e6c24fbf34e995cd03d", "is_disabled": 0, "rental_uris": {"ios": "https://dc.lft.to/lastmile_qr_scan", "android": "https://dc.lft.to/lastmile_qr_scan"}, "is_reserved": 0}, {"lon": -77.04985466666666, "bike_id": "69a5505b7fe6d012ea25b42bc7dbcdaf", "lat": 38.8960675, "fusion_lon": 0.0, "fusion_lat": 0.0, "type": "electric_scooter", "name": "69a5505b7fe6d012ea25b42bc7dbcdaf", "is_disabled": 0, "rental_uris": {"ios": "https://dc.lft.to/lastmile_qr_scan", "android": "https://dc.lft.to/lastmile_qr_scan"}, "is_reserved": 0}, {"lon": -77.05477083333334, "bike_id": "6abcd7f41d9ab842337249dd3cd6857f", "lat": 38.897877, "fusion_lon": 0.0, "fusion_lat": 0.0, "type": "electric_scooter", "name": "6abcd7f41d9ab842337249dd3cd6857f", "is_disabled": 0, "rental_uris": {"ios": "https://dc.lft.to/lastmile_qr_scan", "android": "https://dc.lft.to/lastmile_qr_scan"}, "is_reserved": 0}, {"lon": -77.00677833333333, "bike_id": "fb3e6981a9d337b22c0651f26c583e59", "lat": 38.90010683333333, "fusion_lon": 0.0, "fusion_lat": 0.0, "type": "electric_scooter", "name": "fb3e6981a9d337b22c0651f26c583e59", "is_disabled": 0, "rental_uris": {"ios": "https://dc.lft.to/lastmile_qr_scan", "android": "https://dc.lft.to/lastmile_qr_scan"}, "is_reserved": 0}, {"lon": -77.0295835, "bike_id": "efd7b9e97c4958cf22094917fc0eeecb", "lat": 38.917758, "fusion_lon": 0.0, "fusion_lat": 0.0, "type": "electric_scooter", "name": "efd7b9e97c4958cf22094917fc0eeecb", "is_disabled": 0, "rental_uris": {"ios": "https://dc.lft.to/lastmile_qr_scan", "android": "https://dc.lft.to/lastmile_qr_scan"}, "is_reserved": 0}, {"lon": -77.11591783333333, "bike_id": "375038cd633d4a46e38e87e62ff3a43e", "lat": 39.074920666666664, "fusion_lon": 0.0, "fusion_lat": 0.0, "type": "electric_bike", "name": "375038cd633d4a46e38e87e62ff3a43e", "is_disabled": 0, "rental_uris": {"ios": "https://dc.lft.to/lastmile_qr_scan", "android": "https://dc.lft.to/lastmile_qr_scan"}, "is_reserved": 0},