{"data": {"bikes": [{"rental_uris": {"ios": "https://dc.lft.to/lastmile_qr_scan", "android": "https://dc.lft.to/lastmile_qr_scan"}, "lon": -77.02532033333334, "type": "electric_scooter", "fusion_lat": 0.0, "lat": 38.94304266666666, "name": "849f8f32abbc46d42cdbd54f738c1a6d", "fusion_lon": 0.0, "bike_id": "849f8f32abbc46d42cdbd54f738c1a6d", "is_disabled": 0, "is_reserved": 0}, {"rental_uris": {"ios": "https://dc.lft.to/lastmile_qr_scan", "android": "https://dc.lft.to/lastmile_qr_scan"}, "lon": -77.03642483333333, "type": "electric_scooter", "fusion_lat": 0.0, "lat": 38.90287266666667, "name": "0fb272f2ee80b5886feb8dcace9c0336", "fusion_lon": 0.0, "bike_id": "0fb272f2ee80b5886feb8dcace9c0336", "is_disabled": 0, "is_reserved": 0}, {"rental_uris": {"ios": "https://dc.lft.to/lastmile_qr_scan", "android": "https://dc.lft.to/lastmile_qr_scan"}, "lon": -77.03820933333333, "type": "electric_scooter", "fusion_lat": 0.0, "lat": 38.89857283333333, "name": "4e45ec5a4af75f08c3172509bae58206", "fusion_lon": 0.0, "bike_id": "4e45ec5a4af75f08c3172509bae58206", "is_disabled": 0, "is_reserved": 0}, {"rental_uris": {"ios": "https://dc.lft.to/lastmile_qr_scan", "android": "https://dc.lft.to/lastmile_qr_scan"}, "lon": -76.97880033333334, "type": "electric_scooter", "fusion_lat": 0.0, "lat": 38.88766066666667, "name": "0e6ee45e79e7fa7172c93218ecfbcfeb", "fusion_lon": 0.0, "bike_id": "0e6ee45e79e7fa7172c93218ecfbcfeb", "is_disabled": 0, "is_reserved": 0}, {"rental_uris": {"ios": "https://dc.lft.to/lastmile_qr_scan", "android": "https://dc.lft.to/lastmile_qr_scan"}, "lon": -76.98972533333334, "type": "electric_scooter", "fusion_lat": 0.0, "lat": 38.85918266666667, "name": "f5412de7cef914015bac6f34a6915a85", "fusion_lon": 0.0, "bike_id": "f5412de7cef914015bac6f34a6915a85", "is_disabled": 0, "is_reserved": 0}, {"rental_uris": {"ios": "https://dc.lft.to/lastmile_qr_scan", "android": "https://dc.lft.to/lastmile_qr_scan"}, "lon": -76.95095116666667, "type": "electric_scooter", "fusion_lat": 0.0, "lat": 38.884486, "name": "84dbec454ea09f7aec966e98e14e56f0", "fusion_lon": 0.0, "bike_id": "84dbec454ea09f7aec966e98e14e56f0", "is_disabled": 0, "is_reserved": 0}, {"rental_uris": {"ios": "https://dc.lft.to/lastmile_qr_scan", "android": "https://dc.lft.to/lastmile_qr_scan"}, "lon": -77.03809083333333, "type": "electric_scooter", "fusion_lat": 0.0, "lat": 38.933923666666665, "name": "93bdd6b3ba5364b253e8f2a74ea28570", "fusion_lon": 0.0, "bike_id": "93bdd6b3ba5364b253e8f2a74ea28570", "is_disabled": 0, "is_reserved": 0}, {"rental_uris": {"ios": "https://dc.lft.to/lastmile_qr_scan", "android": "https://dc.lft.to/lastmile_qr_scan"}, "lon": -77.0048295, "type": "electric_scooter", "fusion_lat": 0.0, "lat": 38.944035166666666, "name": "ddb0b7d6a5c25e2c3db6ca035ec09593", "fusion_lon": 0.0, "bike_id": "ddb0b7d6a5c25e2c3db6ca035ec09593", "is_disabled": 0, "is_reserved": 0}, {"rental_uris": {"ios": "https://dc.lft.to/lastmile_qr_scan", "android": "https://dc.lft.to/lastmile_qr_scan"}, "lon": -77.02169816666667, "type": "electric_scooter", "fusion_lat": 0.0, "lat": 38.94291883333333, "name": "0e5aa769e2893e7190734ef38cd04b0e", "fusion_lon": 0.0, "bike_id": "0e5aa769e2893e7190734ef38cd04b0e", "is_disabled": 0, "is_reserved": 0}, {"rental_uris": {"ios": "https://dc.lft.to/lastmile_qr_scan", "android": "https://dc.lft.to/lastmile_qr_scan"}, "lon": -76.949966, "type": "electric_scooter", "fusion_lat": 0.0, "lat": 38.8937465, "name": "d5c63f6a358a921763c16f8ea351fdc6", "fusion_lon": 0.0, "bike_id": "d5c63f6a358a921763c16f8ea351fdc6", "is_disabled": 0, "is_reserved": 0}, {"rental_uris": {"ios": "https://dc.lft.to/lastmile_qr_scan", "android": "https://dc.lft.to/lastmile_qr_scan"}, "lon": -76.931777, "type": "electric_scooter", "fusion_lat": 0.0, "lat": 38.8988545, "name": "05ab53b1a6488df2f11026b2882c1348", "fusion_lon": 0.0, "bike_id": "05ab53b1a6488df2f11026b2882c1348", "is_disabled": 0, "is_reserved": 0}, {"rental_uris": {"ios": "https://dc.lft.to/lastmile_qr_scan", "android": "https://dc.lft.to/lastmile_qr_scan"}, "lon": -77.03446216666667, "type": "electric_scooter", "fusion_lat": 0.0, "lat": 38.918260333333336, "name": "7de2bca7c1d99883a63a0a73a1f61ff5", "fusion_lon": 0.0, "bike_id": "7de2bca7c1d99883a63a0a73a1f61ff5", "is_disabled": 0, "is_reserved": 0}, {"rental_uris": {"ios": "https://dc.lft.to/lastmile_qr_scan", "android": "https://dc.lft.to/lastmile_qr_scan"}, "lon": -77.0498865, "type": "electric_scooter", "fusion_lat": 0.0, "lat": 38.90121516666667, "name": "ba7ffcb29e5df88ef4ed86cce629aa12", "fusion_lon": 0.0, "bike_id": "ba7ffcb29e5df88ef4ed86cce629aa12", "is_disabled": 0, "is_reserved": 0}, {"rental_uris": {"ios": "https://dc.lft.to/lastmile_qr_scan", "android": "https://dc.lft.to/lastmile_qr_scan"}, "lon": -77.0352095, "type": "electric_scooter", "fusion_lat": 0.0, "lat": 38.923398166666665, "name": "0cc9c1f5ce2861086a721ec9c4338a56", "fusion_lon": 0.0, "bike_id": "0cc9c1f5ce2861086a721ec9c4338a56", "is_disabled": 0, "is_reserved": 0}, {"rental_uris": {"ios": "https://dc.lft.to/lastmile_qr_scan", "android": "https://dc.lft.to/lastmile_qr_scan"}, "lon": -77.3530695, "type": "electric_bike", "fusion_lat": 0.0, "lat": 38.94997583333333, "name": "e6e7ff65e5a6d96022f8633a74d0bda7", "fusion_lon": 0.0, "bike_id": "e6e7ff65e5a6d96022f8633a74d0bda7", "is_disabled": 0, "is_reserved": 0}, {"rental_uris": {"ios": "https://dc.lft.to/lastmile_qr_scan", "android": "https://dc.lft.to/lastmile_qr_scan"}, "lon": -77.03231466666666, "type": "electric_scooter", "fusion_lat": 0.0, "lat": 38.92584883333333, "name": "881ef6494baab0acc2a8b912eac5d2e5", "fusion_lon": 0.0, "bike_id": "881ef6494baab0acc2a8b912eac5d2e5", "is_disabled": 0, "is_reserved": 0}, {"rental_uris": {"ios": "https://dc.lft.to/lastmile_qr_scan", "android": "https://dc.lft.to/lastmile_qr_scan"}, "lon": -76.99504233333333, "type": "electric_scooter", "fusion_lat": 0.0, "lat": 38.899551333333335, "name": "4c3049b4ddd5963ce74eed1b93844485", "fusion_lon": 0.0, "bike_id": "4c3049b4ddd5963ce74eed1b93844485", "is_disabled": 0, "is_reserved": 0}, {"rental_uris": {"ios": "https://dc.lft.to/lastmile_qr_scan", "android": "https://dc.lft.to/lastmile_qr_scan"}, "lon": -76.98726116666667, "type": "electric_scooter", "fusion_lat": 0.0, "lat": 38.88415283333333, "name": "accfc8c19dfbde27542b06ce25335fc1", "fusion_lon": 0.0, "bike_id": "accfc8c19dfbde27542b06ce25335fc1", "is_disabled": 0, "is_reserved": 0}, {"rental_uris": {"ios": "https://dc.lft.to/lastmile_qr_scan", "android": "https://dc.lft.to/lastmile_qr_scan"}, "lon": -77.04524166666667, "type": "electric_scooter", "fusion_lat": 0.0, "lat": 38.903742, "name": "d71c82b778db67d1b1d0a03505219a0d", "fusion_lon": 0.0, "bike_id": "d71c82b778db67d1b1d0a03505219a0d", "is_disabled": 0, "is_reserved": 0}, {"rental_uris": {"ios": "https://dc.lft.to/lastmile_qr_scan", "android": "https://dc.lft.to/lastmile_qr_scan"}, "lon": -77.03962366666667, "type": "electric_scooter", "fusion_lat": 0.0, "lat": 38.90120916666667, "name": "5008c3690cdce40890bb4f15a1a101c5", "fusion_lon": 0.0, "bike_id": "5008c3690cdce40890bb4f15a1a101c5", "is_disabled": 0, "is_reserved": 0}, {"rental_uris": {"ios": "https://dc.lft.to/lastmile_qr_scan", "android": "https://dc.lft.to/lastmile_qr_scan"}, "lon": -77.02225283333334, "type": "electric_scooter", "fusion_lat": 0.0, "lat": 38.91268683333333, "name": "cac5d295b5a52e1d67e85f1cd2b95b31", "fusion_lon": 0.0, "bike_id": "cac5d295b5a52e1d67e85f1cd2b95b31", "is_disabled": 0, "is_reserved": 0}, {"rental_uris": {"ios": "https://dc.lft.to/lastmile_qr_scan", "android": "https://dc.lft.to/lastmile_qr_scan"}, "lon": -76.987947, "type": "electric_bike", "fusion_lat": 0.0, "lat": 38.90419933333333, "name": "ee81b7763c62207d4d6ec160d1ff1965", "fusion_lon": 0.0, "bike_id": "ee81b7763c62207d4d6ec160d1ff1965", "is_disabled": 0, "is_reserved": 0}, {"rental_uris": {"ios": "https://dc.lft.to/lastmile_qr_scan", "android": "https://dc.lft.to/lastmile_qr_scan"}, "lon": -76.95469366666667, "type": "electric_bike", "fusion_lat": 0.0, "lat": 38.886448666666666, "name": "326b25a7196bc934d7da5d24f303aefd", "fusion_lon": 0.0, "bike_id": "326b25a7196bc934d7da5d24f303aefd", "is_disabled": 0, "is_reserved": 0}, {"rental_uris": {"ios": "https://dc.lft.to/lastmile_qr_scan", "android": "https://dc.lft.to/lastmile_qr_scan"}, "lon": -76.99072533333333, "type": "electric_scooter", "fusion_lat": 0.0, "lat": 38.863626333333336, "name": "b6218c249f36c92d52787c4eaea87d42", "fusion_lon": 0.0, "bike_id": "b6218c249f36c92d52787c4eaea87d42", "is_disabled": 0, "is_reserved": 0}, {"rental_uris": {"ios": "https://dc.lft.to/lastmile_qr_scan", "android": "https://dc.lft.to/lastmile_qr_scan"}, "lon": -77.034083, "type": "electric_scooter", "fusion_lat": 0.0, "lat": 38.921488, "name": "c898d72d1b19abeb98c081a4576dede5", "fusion_lon": 0.0, "bike_id": "c898d72d1b19abeb98c081a4576dede5", "is_disabled": 0, "is_reserved": 0}, {"rental_uris": {"ios": "https://dc.lft.to/lastmile_qr_scan", "android": "https://dc.lft.to/lastmile_qr_scan"}, "lon": -77.0271715, "type": "electric_scooter", "fusion_lat": 0.0, "lat": 38.91817833333333, "name": "a608ed76a1a0aab7342e744bc3a95357", "fusion_lon": 0.0, "bike_id": "a608ed76a1a0aab7342e744bc3a95357", "is_disabled": 0, "is_reserved": 0}, {"rental_uris": {"ios": "https://dc.lft.to/lastmile_qr_scan", "android": "https://dc.lft.to/lastmile_qr_scan"}, "lon": -77.11798483333334, "type": "electric_bike", "fusion_lat": 0.0, "lat": 38.898359, "name": "3a1387b62409bf70c308770cf384b385", "fusion_lon": 0.0, "bike_id": "3a1387b62409bf70c308770cf384b385", "is_disabled": 0, "is_reserved": 0}, {"rental_uris": {"ios": "https://dc.lft.to/lastmile_qr_scan", "android": "https://dc.lft.to/lastmile_qr_scan"}, "lon": -77.01222083333333, "type": "electric_scooter", "fusion_lat": 0.0, "lat": 38.9159755, "name": "a5f2a2a3ecde60cdac9294f932ad882c", "fusion_lon": 0.0, "bike_id": "a5f2a2a3ecde60cdac9294f932ad882c", "is_disabled": 0, "is_reserved": 0}, {"rental_uris": {"ios": "https://dc.lft.to/lastmile_qr_scan", "android": "https://dc.lft.to/lastmile_qr_scan"}, "lon": -77.02901933333334, "type": "electric_scooter", "fusion_lat": 0.0, "lat": 38.892252, "name": "481eec4a1c75df79b6c71110ca76c98a", "fusion_lon": 0.0, "bike_id": "481eec4a1c75df79b6c71110ca76c98a", "is_disabled": 0, "is_reserved": 0}, {"rental_uris": {"ios": "https://dc.lft.to/lastmile_qr_scan", "android": "https://dc.lft.to/lastmile_qr_scan"}, "lon": -77.05987616666667, "type": "electric_scooter", "fusion_lat": 0.0, "lat": 38.935502, "name": "0877aafd98571eb50f7fae54aa69e201", "fusion_lon": 0.0, "bike_id": "0877aafd98571eb50f7fae54aa69e201", "is_disabled": 0, "is_reserved": 0}, {"rental_uris": {"ios": "https://dc.lft.to/lastmile_qr_scan", "android": "https://dc.lft.to/lastmile_qr_scan"}, "lon": -77.03221966666666, "type": "electric_scooter", "fusion_lat": 0.0, "lat": 38.900333333333336, "name": "056de89bb6afb8984dfb2bf05a65120f", "fusion_lon": 0.0, "bike_id": "056de89bb6afb8984dfb2bf05a65120f", "is_disabled": 0, "is_reserved": 0}, {"rental_uris": {"ios": "https://dc.lft.to/lastmile_qr_scan", "android": "https://dc.lft.to/lastmile_qr_scan"}, "lon": -77.01211866666667, "type": "electric_scooter", "fusion_lat": 0.0, "lat": 38.91495533333333, "name": "8f9a3735011176f5b772e4ad43b6e71a", "fusion_lon": 0.0, "bike_id": "8f9a3735011176f5b772e4ad43b6e71a", "is_disabled": 0, "is_reserved": 0}, {"rental_uris": {"ios": "https://dc.lft.to/lastmile_qr_scan", "android": "https://dc.lft.to/lastmile_qr_scan"}, "lon": -77.03845883333334, "type": "electric_scooter", "fusion_lat": 0.0, "lat": 38.926414333333334, "name": "cff918cb9b1e9577cdb99ce224f23a2c", "fusion_lon": 0.0, "bike_id": "cff918cb9b1e9577cdb99ce224f23a2c", "is_disabled": 0, "is_reserved": 0}, {"rental_uris": {"ios": "https://dc.lft.to/lastmile_qr_scan", "android": "https://dc.lft.to/lastmile_qr_scan"}, "lon": -77.05199783333333, "type": "electric_scooter", "fusion_lat": 0.0, "lat": 38.898218166666666, "name": "4ed07abae8c39b6cf9ee7b5c56b94b1d", "fusion_lon": 0.0, "bike_id": "4ed07abae8c39b6cf9ee7b5c56b94b1d", "is_disabled": 0, "is_reserved": 0}, {"rental_uris": {"ios": "https://dc.lft.to/lastmile_qr_scan", "android": "https://dc.lft.to/lastmile_qr_scan"}, "lon": -77.015147, "type": "electric_scooter", "fusion_lat": 0.0, "lat": 38.887375, "name": "bfb2b1dbcccce2fbc34993964093c7be", "fusion_lon": 0.0, "bike_id": "bfb2b1dbcccce2fbc34993964093c7be", "is_disabled": 0, "is_reserved": 0}, {"rental_uris": {"ios": "https://dc.lft.to/lastmile_qr_scan", "android": "https://dc.lft.to/lastmile_qr_scan"}, "lon": -77.04628716666667, "type": "electric_scooter", "fusion_lat": 0.0, "lat": 38.918980166666664, "name": "1ee6bd4cc0a7f6cc19666d092dd8ff5d", "fusion_lon": 0.0, "bike_id": "1ee6bd4cc0a7f6cc19666d092dd8ff5d", "is_disabled": 0, "is_reserved": 0}, {"rental_uris": {"ios": "https://dc.lft.to/lastmile_qr_scan", "android": "https://dc.lft.to/lastmile_qr_scan"}, "lon": -77.02964433333334, "type": "electric_scooter", "fusion_lat": 0.0, "lat": 38.925672, "name": "d7576e66da880a66854d0f9729e35e0e", "fusion_lon": 0.0, "bike_id": "d7576e66da880a66854d0f9729e35e0e", "is_disabled": 0, "is_reserved": 0}, {"rental_uris": {"ios": "https://dc.lft.to/lastmile_qr_scan", "android": "https://dc.lft.to/lastmile_qr_scan"}, "lon": -77.00931616666666, "type": "electric_scooter", "fusion_lat": 0.0, "lat": 38.871982, "name": "5845415276cfd936659fd60e25148dd3", "fusion_lon": 0.0, "bike_id": "5845415276cfd936659fd60e25148dd3", "is_disabled": 0, "is_reserved": 0}, {"rental_uris": {"ios": "https://dc.lft.to/lastmile_qr_scan", "android": "https://dc.lft.to/lastmile_qr_scan"}, "lon": -76.974583, "type": "electric_scooter", "fusion_lat": 0.0, "lat": 38.865387166666665, "name": "4f5c39829979b5cde4c8af8a632e12fd", "fusion_lon": 0.0, "bike_id": "4f5c39829979b5cde4c8af8a632e12fd", "is_disabled": 0, "is_reserved": 0}, {"rental_uris": {"ios": "https://dc.lft.to/lastmile_qr_scan", "android": "https://dc.lft.to/lastmile_qr_scan"}, "lon": -76.983622, "type": "electric_scooter", "fusion_lat": 0.0, "lat": 38.9153365, "name": "f538929b35f10b16331d5941462433ef", "fusion_lon": 0.0, "bike_id": "f538929b35f10b16331d5941462433ef", "is_disabled": 0, "is_reserved": 0}, {"rental_uris": {"ios": "https://dc.lft.to/lastmile_qr_scan", "android": "https://dc.lft.to/lastmile_qr_scan"}, "lon": -77.03320383333333, "type": "electric_scooter", "fusion_lat": 0.0, "lat": 38.898050166666664, "name": "8653b0e09ffed866dbab2200268a8d2a", "fusion_lon": 0.0, "bike_id": "8653b0e09ffed866dbab2200268a8d2a", "is_disabled": 0, "is_reserved": 0}, {"rental_uris": {"ios": "https://dc.lft.to/lastmile_qr_scan", "android": "https://dc.lft.to/lastmile_qr_scan"}, "lon": -77.06607183333334, "type": "electric_scooter", "fusion_lat": 0.0, "lat": 38.90528066666667, "name": "ea5d00118aced1d2980130c2f4735ca9", "fusion_lon": 0.0, "bike_id": "ea5d00118aced1d2980130c2f4735ca9", "is_disabled": 0, "is_reserved": 0}, {"rental_uris": {"ios": "https://dc.lft.to/lastmile_qr_scan", "android": "https://dc.lft.to/lastmile_qr_scan"}, "lon": -77.04806933333333, "type": "electric_scooter", "fusion_lat": 0.0, "lat": 38.91621816666667, "name": "96f4784068277d1ec274bef4d6faa418", "fusion_lon": 0.0, "bike_id": "96f4784068277d1ec274bef4d6faa418", "is_disabled": 0, "is_reserved": 0}, {"rental_uris": {"ios": "https://dc.lft.to/lastmile_qr_scan", "android": "https://dc.lft.to/lastmile_qr_scan"}, "lon": -76.99778633333334, "type": "electric_scooter", "fusion_lat": 0.0, "lat": 38.844268, "name": "178f5a2f75cee682ef35a8b10b277c7e", "fusion_lon": 0.0, "bike_id": "178f5a2f75cee682ef35a8b10b277c7e", "is_disabled": 0, "is_reserved": 0}, {"rental_uris": {"ios": "https://dc.lft.to/lastmile_qr_scan", "android": "https://dc.lft.to/lastmile_qr_scan"}, "lon": -77.03027366666667, "type": "electric_scooter", "fusion_lat": 0.0, "lat": 38.92249016666667, "name": "6d8b9d18bb1c6f54f68375f5076e74e9", "fusion_lon": 0.0, "bike_id": "6d8b9d18bb1c6f54f68375f5076e74e9", "is_disabled": 0, "is_reserved": 0}, {"rental_uris": {"ios": "https://dc.lft.to/lastmile_qr_scan", "android": "https://dc.lft.to/lastmile_qr_scan"}, "lon": -77.03254233333334, "type": "electric_scooter", "fusion_lat": 0.0, "lat": 38.94420016666667, "name": "bdf04c8ef498f17aa9d01aaa37f1cbed", "fusion_lon": 0.0, "bike_id": "bdf04c8ef498f17aa9d01aaa37f1cbed", "is_disabled": 0, "is_reserved": 0}, {"rental_uris": {"ios": "https://dc.lft.to/lastmile_qr_scan", "android": "https://dc.lft.to/lastmile_qr_scan"}, "lon": -77.01796116666667, "type": "electric_scooter", "fusion_lat": 0.0, "lat": 38.941164666666666, "name": "21b0c42861715a217b981a3c6dd0cb3f", "fusion_lon": 0.0, "bike_id": "21b0c42861715a217b981a3c6dd0cb3f", "is_disabled": 0, "is_reserved": 0}, {"rental_uris": {"ios": "https://dc.lft.to/lastmile_qr_scan", "android": "https://dc.lft.to/lastmile_qr_scan"}, "lon": -77.01649333333333, "type": "electric_scooter", "fusion_lat": 0.0, "lat": 38.929367, "name": "bba9aae3c20c20c9e3df7a5c362b448f", "fusion_lon": 0.0, "bike_id": "bba9aae3c20c20c9e3df7a5c362b448f", "is_disabled": 0, "is_reserved": 0}, {"rental_uris": {"ios": "https://dc.lft.to/lastmile_qr_scan", "android": "https://dc.lft.to/lastmile_qr_scan"}, "lon": -77.044217, "type": "electric_scooter", "fusion_lat": 0.0, "lat": 38.9113025, "name": "a57aec60fe71d977b5e066a2249dff0c", "fusion_lon": 0.0, "bike_id": "a57aec60fe71d977b5e066a2249dff0c", "is_disabled": 0, "is_reserved": 0}, {"rental_uris": {"ios": "https://dc.lft.to/lastmile_qr_scan", "android": "https://dc.lft.to/lastmile_qr_scan"}, "lon": -77.04893783333333, "type": "electric_scooter", "fusion_lat": 0.0, "lat": 38.90307983333334, "name": "2cbf9b8fe7ba4e1a5bfc447ebfc9072a", "fusion_lon": 0.0, "bike_id": "2cbf9b8fe7ba4e1a5bfc447ebfc9072a", "is_disabled": 0, "is_reserved": 0}, {"rental_uris": {"ios": "https://dc.lft.to/lastmile_qr_scan", "android": "https://dc.lft.to/lastmile_qr_scan"}, "lon": -77.04836016666667, "type": "electric_scooter", "fusion_lat": 0.0, "lat": 38.907258666666664, "name": "0f6b14c58ffe6a0b50b000003f0d7aed", "fusion_lon": 0.0, "bike_id": "0f6b14c58ffe6a0b50b000003f0d7aed", "is_disabled": 0, "is_reserved": 0}, {"rental_uris": {"ios": "https://dc.lft.to/lastmile_qr_scan", "android": "https://dc.lft.to/lastmile_qr_scan"}, "lon": -77.03983666666667, "type": "electric_scooter", "fusion_lat": 0.0, "lat": 38.923194333333335, "name": "7bd2c00614cbbc5c0358a5d2902ebac3", "fusion_lon": 0.0, "bike_id": "7bd2c00614cbbc5c0358a5d2902ebac3", "is_disabled": 0, "is_reserved": 0}, {"rental_uris": {"ios": "https://dc.lft.to/lastmile_qr_scan", "android": "https://dc.lft.to/lastmile_qr_scan"}, "lon": -77.06882666666667, "type": "electric_scooter", "fusion_lat": 0.0, "lat": 38.905119, "name": "c7182e1d37c63e828a31083524bf5b23", "fusion_lon": 0.0, "bike_id": "c7182e1d37c63e828a31083524bf5b23", "is_disabled": 0, "is_reserved": 0}, {"rental_uris": {"ios": "https://dc.lft.to/lastmile_qr_scan", "android": "https://dc.lft.to/lastmile_qr_scan"}, "lon": -77.02447683333334, "type": "electric_scooter", "fusion_lat": 0.0, "lat": 38.956368499999996, "name": "28211ca54f1dc5bbf3f3567b9316fb33", "fusion_lon": 0.0, "bike_id": "28211ca54f1dc5bbf3f3567b9316fb33", "is_disabled": 0, "is_reserved": 0}, {"rental_uris": {"ios": "https://dc.lft.to/lastmile_qr_scan", "android": "https://dc.lft.to/lastmile_qr_scan"}, "lon": -77.01495983333334, "type": "electric_scooter", "fusion_lat": 0.0, "lat": 38.87259866666667, "name": "5c02f23957abd9e59723da47d656bc8f", "fusion_lon": 0.0, "bike_id": "5c02f23957abd9e59723da47d656bc8f", "is_disabled": 0, "is_reserved": 0}, {"rental_uris": {"ios": "https://dc.lft.to/lastmile_qr_scan", "android": "https://dc.lft.to/lastmile_qr_scan"}, "lon": -77.06938316666667, "type": "electric_scooter", "fusion_lat": 0.0, "lat": 38.905018, "name": "62864dadfe7f617ab891b301720c4a6e", "fusion_lon": 0.0, "bike_id": "62864dadfe7f617ab891b301720c4a6e", "is_disabled": 0, "is_reserved": 0}, {"rental_uris": {"ios": "https://dc.lft.to/lastmile_qr_scan", "android": "https://dc.lft.to/lastmile_qr_scan"}, "lon": -76.99483733333334, "type": "electric_scooter", "fusion_lat": 0.0, "lat": 38.9023215, "name": "79602bc539faebb0f941348f841fb31e", "fusion_lon": 0.0, "bike_id": "79602bc539faebb0f941348f841fb31e", "is_disabled": 0, "is_reserved": 0}, {"rental_uris": {"ios": "https://dc.lft.to/lastmile_qr_scan", "android": "https://dc.lft.to/lastmile_qr_scan"}, "lon": -76.99864533333333, "type": "electric_scooter", "fusion_lat": 0.0, "lat": 38.90029466666667, "name": "43d94fc14f36ff88092bd36ee7eb2ad5", "fusion_lon": 0.0, "bike_id": "43d94fc14f36ff88092bd36ee7eb2ad5", "is_disabled": 0, "is_reserved": 0}, {"rental_uris": {"ios": "https://dc.lft.to/lastmile_qr_scan", "android": "https://dc.lft.to/lastmile_qr_scan"}, "lon": -77.04030833333333, "type": "electric_scooter", "fusion_lat": 0.0, "lat": 38.924407, "name": "f7adc3ac3e6a5d5d8ccdba1a62107faa", "fusion_lon": 0.0, "bike_id": "f7adc3ac3e6a5d5d8ccdba1a62107faa", "is_disabled": 0, "is_reserved": 0}, {"rental_uris": {"ios": "https://dc.lft.to/lastmile_qr_scan", "android": "https://dc.lft.to/lastmile_qr_scan"}, "lon": -77.04645333333333, "type": "electric_scooter", "fusion_lat": 0.0, "lat": 38.91523866666667, "name": "112267cbefc922fb5aec0e1b478c0ca6", "fusion_lon": 0.0, "bike_id": "112267cbefc922fb5aec0e1b478c0ca6", "is_disabled": 0, "is_reserved": 0}, {"rental_uris": {"ios": "https://dc.lft.to/lastmile_qr_scan", "android": "https://dc.lft.to/lastmile_qr_scan"}, "lon": -77.0309975, "type": "electric_bike", "fusion_lat": 0.0, "lat": 38.940818166666666, "name": "dfe9a124862641d84f6a87790c2e8f85", "fusion_lon": 0.0, "bike_id": "dfe9a124862641d84f6a87790c2e8f85", "is_disabled": 0, "is_reserved": 0}, {"rental_uris": {"ios": "https://dc.lft.to/lastmile_qr_scan", "android": "https://dc.lft.to/lastmile_qr_scan"}, "lon": -77.00630333333334, "type": "electric_scooter", "fusion_lat": 0.0, "lat": 38.8292405, "name": "53ed6ec93c7f3066c3e78b6f57ef344c", "fusion_lon": 0.0, "bike_id": "53ed6ec93c7f3066c3e78b6f57ef344c", "is_disabled": 0, "is_reserved": 0}, {"rental_uris": {"ios": "https://dc.lft.to/lastmile_qr_scan", "android": "https://dc.lft.to/lastmile_qr_scan"}, "lon": -77.03063166666666, "type": "electric_scooter", "fusion_lat": 0.0, "lat": 38.89463533333333, "name": "3ec40b8101cdb8c2000398570341c83b", "fusion_lon": 0.0, "bike_id": "3ec40b8101cdb8c2000398570341c83b", "is_disabled": 0, "is_reserved": 0}, {"rental_uris": {"ios": "https://dc.lft.to/lastmile_qr_scan", "android": "https://dc.lft.to/lastmile_qr_scan"}, "lon": -77.02800583333334, "type": "electric_scooter", "fusion_lat": 0.0, "lat": 38.93088433333333, "name": "3c9f4f4a9ea6a41106ee02eece660684", "fusion_lon": 0.0, "bike_id": "3c9f4f4a9ea6a41106ee02eece660684", "is_disabled": 0, "is_reserved": 0}, {"rental_uris": {"ios": "https://dc.lft.to/lastmile_qr_scan", "android": "https://dc.lft.to/lastmile_qr_scan"}, "lon": -76.99001933333334, "type": "electric_scooter", "fusion_lat": 0.0, "lat": 38.8650465, "name": "9e13b551a8965477db38079001bb6e09", "fusion_lon": 0.0, "bike_id": "9e13b551a8965477db38079001bb6e09", "is_disabled": 0, "is_reserved": 0}, {"rental_uris": {"ios": "https://dc.lft.to/lastmile_qr_scan", "android": "https://dc.lft.to/lastmile_qr_scan"}, "lon": -77.02369116666667, "type": "electric_scooter", "fusion_lat": 0.0, "lat": 38.90305816666667, "name": "f00800fd71f810f68c7d8d2c1149206b", "fusion_lon": 0.0, "bike_id": "f00800fd71f810f68c7d8d2c1149206b", "is_disabled": 0, "is_reserved": 0}, {"rental_uris": {"ios": "https://dc.lft.to/lastmile_qr_scan", "android": "https://dc.lft.to/lastmile_qr_scan"}, "lon": -77.0110915, "type": "electric_scooter", "fusion_lat": 0.0, "lat": 38.90789766666666, "name": "fb6dc4fa37147a072042d737a84a0c6a", "fusion_lon": 0.0, "bike_id": "fb6dc4fa37147a072042d737a84a0c6a", "is_disabled": 0, "is_reserved": 0}, {"rental_uris": {"ios": "https://dc.lft.to/lastmile_qr_scan", "android": "https://dc.lft.to/lastmile_qr_scan"}, "lon": -77.02362933333333, "type": "electric_scooter", "fusion_lat": 0.0, "lat": 38.9377215, "name": "fa0338d5a7068c4c0ed7a13e27df789c", "fusion_lon": 0.0, "bike_id": "fa0338d5a7068c4c0ed7a13e27df789c", "is_disabled": 0, "is_reserved": 0}, {"rental_uris": {"ios": "https://dc.lft.to/lastmile_qr_scan", "android": "https://dc.lft.to/lastmile_qr_scan"}, "lon": -77.036462, "type": "electric_scooter", "fusion_lat": 0.0, "lat": 38.907938333333334, "name": "cecccb9ab406e117c8bae5fe42b5b10a", "fusion_lon": 0.0, "bike_id": "cecccb9ab406e117c8bae5fe42b5b10a", "is_disabled": 0, "is_reserved": 0}, {"rental_uris": {"ios": "https://dc.lft.to/lastmile_qr_scan", "android": "https://dc.lft.to/lastmile_qr_scan"}, "lon": -77.07127866666667, "type": "electric_scooter", "fusion_lat": 0.0, "lat": 38.914648, "name": "9870a8de93e7cda70f779ce6e73ac5b2", "fusion_lon": 0.0, "bike_id": "9870a8de93e7cda70f779ce6e73ac5b2", "is_disabled": 0, "is_reserved": 0}, {"rental_uris": {"ios": "https://dc.lft.to/lastmile_qr_scan", "android": "https://dc.lft.to/lastmile_qr_scan"}, "lon": -77.04127966666667, "type": "electric_scooter", "fusion_lat": 0.0, "lat": 38.90631533333333, "name": "c569a8baa87103bc9272543ef7ee7a7c", "fusion_lon": 0.0, "bike_id": "c569a8baa87103bc9272543ef7ee7a7c", "is_disabled": 0, "is_reserved": 0}, {"rental_uris": {"ios": "https://dc.lft.to/lastmile_qr_scan", "android": "https://dc.lft.to/lastmile_qr_scan"}, "lon": -77.02316766666667, "type": "electric_scooter", "fusion_lat": 0.0, "lat": 38.927181166666664, "name": "e2506204bc5b29f9a9785849cbd13e03", "fusion_lon": 0.0, "bike_id": "e2506204bc5b29f9a9785849cbd13e03", "is_disabled": 0, "is_reserved": 0}, {"rental_uris": {"ios": "https://dc.lft.to/lastmile_qr_scan", "android": "https://dc.lft.to/lastmile_qr_scan"}, "lon": -77.021826, "type": "electric_scooter", "fusion_lat": 0.0, "lat": 38.905440166666665, "name": "361dbaec6916d3d77a2f4bcd05d77bfd", "fusion_lon": 0.0, "bike_id": "361dbaec6916d3d77a2f4bcd05d77bfd", "is_disabled": 0, "is_reserved": 0}, {"rental_uris": {"ios": "https://dc.lft.to/lastmile_qr_scan", "android": "https://dc.lft.to/lastmile_qr_scan"}, "lon": -76.95415166666666, "type": "electric_scooter", "fusion_lat": 0.0, "lat": 38.88997466666667, "name": "345907888182432484fbacb427c05cef", "fusion_lon": 0.0, "bike_id": "345907888182432484fbacb427c05cef", "is_disabled": 0, "is_reserved": 0}, {"rental_uris": {"ios": "https://dc.lft.to/lastmile_qr_scan", "android": "https://dc.lft.to/lastmile_qr_scan"}, "lon": -77.0244335, "type": "electric_scooter", "fusion_lat": 0.0, "lat": 38.936583, "name": "ce872e158aa5e2d4850ab006bde4deb6", "fusion_lon": 0.0, "bike_id": "ce872e158aa5e2d4850ab006bde4deb6", "is_disabled": 0, "is_reserved": 0}, {"rental_uris": {"ios": "https://dc.lft.to/lastmile_qr_scan", "android": "https://dc.lft.to/lastmile_qr_scan"}, "lon": -77.01672016666667, "type": "electric_bike", "fusion_lat": 0.0, "lat": 38.88110133333333, "name": "8491c2a85a1d5a3b79a92726fef7ebeb", "fusion_lon": 0.0, "bike_id": "8491c2a85a1d5a3b79a92726fef7ebeb", "is_disabled": 0, "is_reserved": 0}, {"rental_uris": {"ios": "https://dc.lft.to/lastmile_qr_scan", "android": "https://dc.lft.to/lastmile_qr_scan"}, "lon": -77.01600933333333, "type": "electric_scooter", "fusion_lat": 0.0, "lat": 38.910063, "name": "2d1bfb3a887b1d34c3092b9d8fe5acf9", "fusion_lon": 0.0, "bike_id": "2d1bfb3a887b1d34c3092b9d8fe5acf9", "is_disabled": 0, "is_reserved": 0}, {"rental_uris": {"ios": "https://dc.lft.to/lastmile_qr_scan", "android": "https://dc.lft.to/lastmile_qr_scan"}, "lon": -77.07594183333333, "type": "electric_scooter", "fusion_lat": 0.0, "lat": 38.9121595, "name": "517f3a8b1ccd86ba274c8ecb0fcff244", "fusion_lon": 0.0, "bike_id": "517f3a8b1ccd86ba274c8ecb0fcff244", "is_disabled": 0, "is_reserved": 0}, {"rental_uris": {"ios": "https://dc.lft.to/lastmile_qr_scan", "android": "https://dc.lft.to/lastmile_qr_scan"}, "lon": -77.04878216666667, "type": "electric_scooter", "fusion_lat": 0.0, "lat": 38.9007695, "name": "36a8beaf858b208bedd48ea2d01afe9a", "fusion_lon": 0.0, "bike_id": "36a8beaf858b208bedd48ea2d01afe9a", "is_disabled": 0, "is_reserved": 0}, {"rental_uris": {"ios": "https://dc.lft.to/lastmile_qr_scan", "android": "https://dc.lft.to/lastmile_qr_scan"}, "lon": -77.1072955, "type": "electric_bike", "fusion_lat": 0.0, "lat": 38.8551205, "name": "85855fd3dff57474d210105f3f7bdb3a", "fusion_lon": 0.0, "bike_id": "85855fd3dff57474d210105f3f7bdb3a", "is_disabled": 0, "is_reserved": 0}, {"rental_uris": {"ios": "https://dc.lft.to/lastmile_qr_scan", "android": "https://dc.lft.to/lastmile_qr_scan"}, "lon": -77.00741933333333, "type": "electric_scooter", "fusion_lat": 0.0, "lat": 38.907258666666664, "name": "990d2127a086132de08fc802e04477e9", "fusion_lon": 0.0, "bike_id": "990d2127a086132de08fc802e04477e9", "is_disabled": 0, "is_reserved": 0}, {"rental_uris": {"ios": "https://dc.lft.to/lastmile_qr_scan", "android": "https://dc.lft.to/lastmile_qr_scan"}, "lon": -77.059267, "type": "electric_scooter", "fusion_lat": 0.0, "lat": 38.90916416666666, "name": "397b5d3df4653cc569484f9c837ca72a", "fusion_lon": 0.0, "bike_id": "397b5d3df4653cc569484f9c837ca72a", "is_disabled": 0, "is_reserved": 0}, {"rental_uris": {"ios": "https://dc.lft.to/lastmile_qr_scan", "android": "https://dc.lft.to/lastmile_qr_scan"}, "lon": -77.01871433333334, "type": "electric_scooter", "fusion_lat": 0.0, "lat": 38.948973333333335, "name": "8a1ae7dbdb36ed67a580127614523227", "fusion_lon": 0.0, "bike_id": "8a1ae7dbdb36ed67a580127614523227", "is_disabled": 0, "is_reserved": 0}, {"rental_uris": {"ios": "https://dc.lft.to/lastmile_qr_scan", "android": "https://dc.lft.to/lastmile_qr_scan"}, "lon": -76.96524316666667, "type": "electric_scooter", "fusion_lat": 0.0, "lat": 38.876285333333335, "name": "24b9847fb7eae881ac85d8cf46ced094", "fusion_lon": 0.0, "bike_id": "24b9847fb7eae881ac85d8cf46ced094", "is_disabled": 0, "is_reserved": 0}, {"rental_uris": {"ios": "https://dc.lft.to/lastmile_qr_scan", "android": "https://dc.lft.to/lastmile_qr_scan"}, "lon": -77.032442, "type": "electric_scooter", "fusion_lat": 0.0, "lat": 38.916944666666666, "name": "31621ff0c012ab2e326463e9f9f178ef", "fusion_lon": 0.0, "bike_id": "31621ff0c012ab2e326463e9f9f178ef", "is_disabled": 0, "is_reserved": 0}, {"rental_uris": {"ios": "https://dc.lft.to/lastmile_qr_scan", "android": "https://dc.lft.to/lastmile_qr_scan"}, "lon": -76.997596, "type": "electric_scooter", "fusion_lat": 0.0, "lat": 38.90944066666667, "name": "81a6d903dcf4e1029b1f64c5e278b19a", "fusion_lon": 0.0, "bike_id": "81a6d903dcf4e1029b1f64c5e278b19a", "is_disabled": 0, "is_reserved": 0}, {"rental_uris": {"ios": "https://dc.lft.to/lastmile_qr_scan", "android": "https://dc.lft.to/lastmile_qr_scan"}, "lon": -77.0414555, "type": "electric_scooter", "fusion_lat": 0.0, "lat": 38.923002, "name": "b39ecd2b68813bdfe5b7fc03b0712346", "fusion_lon": 0.0, "bike_id": "b39ecd2b68813bdfe5b7fc03b0712346", "is_disabled": 0, "is_reserved": 0}, {"rental_uris": {"ios": "https://dc.lft.to/lastmile_qr_scan", "android": "https://dc.lft.to/lastmile_qr_scan"}, "lon": -77.04483083333334, "type": "electric_scooter", "fusion_lat": 0.0, "lat": 38.918755, "name": "bb3a9e84e8b82422500832cc9756eee3", "fusion_lon": 0.0, "bike_id": "bb3a9e84e8b82422500832cc9756eee3", "is_disabled": 0, "is_reserved": 0}, {"rental_uris": {"ios": "https://dc.lft.to/lastmile_qr_scan", "android": "https://dc.lft.to/lastmile_qr_scan"}, "lon": -77.088202, "type": "electric_bike", "fusion_lat": 0.0, "lat": 38.911680833333335, "name": "27e63c91f610bc7ad92940af0c425b1c", "fusion_lon": 0.0, "bike_id": "27e63c91f610bc7ad92940af0c425b1c", "is_disabled": 0, "is_reserved": 0}, {"rental_uris": {"ios": "https://dc.lft.to/lastmile_qr_scan", "android": "https://dc.lft.to/lastmile_qr_scan"}, "lon": -77.04766183333334, "type": "electric_scooter", "fusion_lat": 0.0, "lat": 38.89772083333333, "name": "bc80e8b067a9506e860a442ce40a77b3", "fusion_lon": 0.0, "bike_id": "bc80e8b067a9506e860a442ce40a77b3", "is_disabled": 0, "is_reserved": 0}, {"rental_uris": {"ios": "https://dc.lft.to/lastmile_qr_scan", "android": "https://dc.lft.to/lastmile_qr_scan"}, "lon": -77.06621833333334, "type": "electric_scooter", "fusion_lat": 0.0, "lat": 38.905397, "name": "a1c3dc56e0f09e2de061425b2febc218", "fusion_lon": 0.0, "bike_id": "a1c3dc56e0f09e2de061425b2febc218", "is_disabled": 0, "is_reserved": 0}, {"rental_uris": {"ios": "https://dc.lft.to/lastmile_qr_scan", "android": "https://dc.lft.to/lastmile_qr_scan"}, "lon": -77.03286233333333, "type": "electric_scooter", "fusion_lat": 0.0, "lat": 38.934864166666664, "name": "138aeff2acb75b78c90c043dd2d69a98", "fusion_lon": 0.0, "bike_id": "138aeff2acb75b78c90c043dd2d69a98", "is_disabled": 0, "is_reserved": 0}, {"rental_uris": {"ios": "https://dc.lft.to/lastmile_qr_scan", "android": "https://dc.lft.to/lastmile_qr_scan"}, "lon": -77.0026855, "type": "electric_scooter", "fusion_lat": 0.0, "lat": 38.898959166666664, "name": "be4854c1b1d6455c315305d87d7af5b8", "fusion_lon": 0.0, "bike_id": "be4854c1b1d6455c315305d87d7af5b8", "is_disabled": 0, "is_reserved": 0}, {"rental_uris": {"ios": "https://dc.lft.to/lastmile_qr_scan", "android": "https://dc.lft.to/lastmile_qr_scan"}, "lon": -76.99615066666667, "type": "electric_scooter", "fusion_lat": 0.0, "lat": 38.877337833333335, "name": "60ca90d1aac87df8ba3bf3804bbe614b", "fusion_lon": 0.0, "bike_id": "60ca90d1aac87df8ba3bf3804bbe614b", "is_disabled": 0, "is_reserved": 0}, {"rental_uris": {"ios": "https://dc.lft.to/lastmile_qr_scan", "android": "https://dc.lft.to/lastmile_qr_scan"}, "lon": -77.04827183333333, "type": "electric_scooter", "fusion_lat": 0.0, "lat": 38.90972333333333, "name": "a52827fbbecc6cc467ce424580ef33b6", "fusion_lon": 0.0, "bike_id": "a52827fbbecc6cc467ce424580ef33b6", "is_disabled": 0, "is_reserved": 0}, {"rental_uris": {"ios": "https://dc.lft.to/lastmile_qr_scan", "android": "https://dc.lft.to/lastmile_qr_scan"}, "lon": -77.03390133333333, "type": "electric_scooter", "fusion_lat": 0.0, "lat": 38.906060833333335, "name": "ee1190eb21ba58f5ed9a4c73980006b0", "fusion_lon": 0.0, "bike_id": "ee1190eb21ba58f5ed9a4c73980006b0", "is_disabled": 0, "is_reserved": 0}, {"rental_uris": {"ios": "https://dc.lft.to/lastmile_qr_scan", "android": "https://dc.lft.to/lastmile_qr_scan"}, "lon": -77.0379105, "type": "electric_scooter", "fusion_lat": 0.0, "lat": 38.9263425, "name": "f34784ee90ee8c586d64b602c1367ed6", "fusion_lon": 0.0, "bike_id": "f34784ee90ee8c586d64b602c1367ed6", "is_disabled": 0, "is_reserved": 0}, {"rental_uris": {"ios": "https://dc.lft.to/lastmile_qr_scan", "android": "https://dc.lft.to/lastmile_qr_scan"}, "lon": -77.01075966666667, "type": "electric_bike", "fusion_lat": 0.0, "lat": 38.956524, "name": "a3ed7356a39775f3c3b7beae77be7560", "fusion_lon": 0.0, "bike_id": "a3ed7356a39775f3c3b7beae77be7560", "is_disabled": 0, "is_reserved": 0}, {"rental_uris": {"ios": "https://dc.lft.to/lastmile_qr_scan", "android": "https://dc.lft.to/lastmile_qr_scan"}, "lon": -76.989519, "type": "electric_scooter", "fusion_lat": 0.0, "lat": 38.901378, "name": "aecbbd1f33f42dd1be06ccc50c8bc2a6", "fusion_lon": 0.0, "bike_id": "aecbbd1f33f42dd1be06ccc50c8bc2a6", "is_disabled": 0, "is_reserved": 0}, {"rental_uris": {"ios": "https://dc.lft.to/lastmile_qr_scan", "android": "https://dc.lft.to/lastmile_qr_scan"}, "lon": -77.01282533333334, "type": "electric_scooter", "fusion_lat": 0.0, "lat": 38.906148, "name": "b69a8b4b737dc1feb640ae36bd80c039", "fusion_lon": 0.0, "bike_id": "b69a8b4b737dc1feb640ae36bd80c039", "is_disabled": 0, "is_reserved": 0}, {"rental_uris": {"ios": "https://dc.lft.to/lastmile_qr_scan", "android": "https://dc.lft.to/lastmile_qr_scan"}, "lon": -77.04252333333334, "type": "electric_scooter", "fusion_lat": 0.0, "lat": 38.92201583333333, "name": "7349f71caf23211d267ce6251912d955", "fusion_lon": 0.0, "bike_id": "7349f71caf23211d267ce6251912d955", "is_disabled": 0, "is_reserved": 0}, {"rental_uris": {"ios": "https://dc.lft.to/lastmile_qr_scan", "android": "https://dc.lft.to/lastmile_qr_scan"}, "lon": -77.03201066666666, "type": "electric_scooter", "fusion_lat": 0.0, "lat": 38.90762266666667, "name": "b647889b3901e1524c389676c08b8f6d", "fusion_lon": 0.0, "bike_id": "b647889b3901e1524c389676c08b8f6d", "is_disabled": 0, "is_reserved": 0}, {"rental_uris": {"ios": "https://dc.lft.to/lastmile_qr_scan", "android": "https://dc.lft.to/lastmile_qr_scan"}, "lon": -77.01888066666666, "type": "electric_scooter", "fusion_lat": 0.0, "lat": 38.917433333333335, "name": "900b3b7f78241bb3ead0f3ffd7de383f", "fusion_lon": 0.0, "bike_id": "900b3b7f78241bb3ead0f3ffd7de383f", "is_disabled": 0, "is_reserved": 0}, {"rental_uris": {"ios": "https://dc.lft.to/lastmile_qr_scan", "android": "https://dc.lft.to/lastmile_qr_scan"}, "lon": -77.07784316666667, "type": "electric_scooter", "fusion_lat": 0.0, "lat": 38.945615333333336, "name": "1b7fe10e896466f3a2636b5079276be5", "fusion_lon": 0.0, "bike_id": "1b7fe10e896466f3a2636b5079276be5", "is_disabled": 0, "is_reserved": 0}, {"rental_uris": {"ios": "https://dc.lft.to/lastmile_qr_scan", "android": "https://dc.lft.to/lastmile_qr_scan"}, "lon": -77.00557, "type": "electric_scooter", "fusion_lat": 0.0, "lat": 38.879045, "name": "53e7882db30a3eb470012d189fc6c96c", "fusion_lon": 0.0, "bike_id": "53e7882db30a3eb470012d189fc6c96c", "is_disabled": 0, "is_reserved": 0}, {"rental_uris": {"ios": "https://dc.lft.to/lastmile_qr_scan", "android": "https://dc.lft.to/lastmile_qr_scan"}, "lon": -76.98845283333333, "type": "electric_bike", "fusion_lat": 0.0, "lat": 38.842789, "name": "1b333b2660fcfe5af6e44287eb0dadd5", "fusion_lon": 0.0, "bike_id": "1b333b2660fcfe5af6e44287eb0dadd5", "is_disabled": 0, "is_reserved": 0}, {"rental_uris": {"ios": "https://dc.lft.to/lastmile_qr_scan", "android": "https://dc.lft.to/lastmile_qr_scan"}, "lon": -76.929979, "type": "electric_bike", "fusion_lat": 0.0, "lat": 38.887951, "name": "45537dcc1044db95ebae3351c208c39a", "fusion_lon": 0.0, "bike_id": "45537dcc1044db95ebae3351c208c39a", "is_disabled": 0, "is_reserved": 0}, {"rental_uris": {"ios": "https://dc.lft.to/lastmile_qr_scan", "android": "https://dc.lft.to/lastmile_qr_scan"}, "lon": -77.02715433333333, "type": "electric_scooter", "fusion_lat": 0.0, "lat": 38.90684233333333, "name": "e4165ea7c2157df826cfee15e36516bf", "fusion_lon": 0.0, "bike_id": "e4165ea7c2157df826cfee15e36516bf", "is_disabled": 0, "is_reserved": 0}, {"rental_uris": {"ios": "https://dc.lft.to/lastmile_qr_scan", "android": "https://dc.lft.to/lastmile_qr_scan"}, "lon": -77.07800566666667, "type": "electric_scooter", "fusion_lat": 0.0, "lat": 38.94087666666667, "name": "bf663083d08587c4bb403b9f2fc690da", "fusion_lon": 0.0, "bike_id": "bf663083d08587c4bb403b9f2fc690da", "is_disabled": 0, "is_reserved": 0}, {"rental_uris": {"ios": "https://dc.lft.to/lastmile_qr_scan", "android": "https://dc.lft.to/lastmile_qr_scan"}, "lon": -76.93975566666667, "type": "electric_scooter", "fusion_lat": 0.0, "lat": 38.8941535, "name": "7703ad4ddb456e8f6157c2f405c65bd4", "fusion_lon": 0.0, "bike_id": "7703ad4ddb456e8f6157c2f405c65bd4", "is_disabled": 0, "is_reserved": 0}, {"rental_uris": {"ios": "https://dc.lft.to/lastmile_qr_scan", "android": "https://dc.lft.to/lastmile_qr_scan"}, "lon": -77.01593483333333, "type": "electric_scooter", "fusion_lat": 0.0, "lat": 38.896168333333335, "name": "0c1ce804b89b535c2b7145152503c05f", "fusion_lon": 0.0, "bike_id": "0c1ce804b89b535c2b7145152503c05f", "is_disabled": 0, "is_reserved": 0}, {"rental_uris": {"ios": "https://dc.lft.to/lastmile_qr_scan", "android": "https://dc.lft.to/lastmile_qr_scan"}, "lon": -77.032821, "type": "electric_scooter", "fusion_lat": 0.0, "lat": 38.93770166666667, "name": "5954fdc41c97bd5655fe5ae22813e110", "fusion_lon": 0.0, "bike_id": "5954fdc41c97bd5655fe5ae22813e110", "is_disabled": 0, "is_reserved": 0}, {"rental_uris": {"ios": "https://dc.lft.to/lastmile_qr_scan", "android": "https://dc.lft.to/lastmile_qr_scan"}, "lon": -77.00715566666666, "type": "electric_scooter", "fusion_lat": 0.0, "lat": 38.91344, "name": "e628b1243b560b1d33c260cf9953d1fe", "fusion_lon": 0.0, "bike_id": "e628b1243b560b1d33c260cf9953d1fe", "is_disabled": 0, "is_reserved": 0}, {"rental_uris": {"ios": "https://dc.lft.to/lastmile_qr_scan", "android": "https://dc.lft.to/lastmile_qr_scan"}, "lon": -77.052765, "type": "electric_scooter", "fusion_lat": 0.0, "lat": 38.9102265, "name": "3e8dcefee4e24a7a88e8734d79624783", "fusion_lon": 0.0, "bike_id": "3e8dcefee4e24a7a88e8734d79624783", "is_disabled": 0, "is_reserved": 0}, {"rental_uris": {"ios": "https://dc.lft.to/lastmile_qr_scan", "android": "https://dc.lft.to/lastmile_qr_scan"}, "lon": -77.00604183333333, "type": "electric_scooter", "fusion_lat": 0.0, "lat": 38.905817166666665, "name": "5dc36121dac016405b96d4b6594fd728", "fusion_lon": 0.0, "bike_id": "5dc36121dac016405b96d4b6594fd728", "is_disabled": 0, "is_reserved": 0}, {"rental_uris": {"ios": "https://dc.lft.to/lastmile_qr_scan", "android": "https://dc.lft.to/lastmile_qr_scan"}, "lon": -77.03190466666666, "type": "electric_scooter", "fusion_lat": 0.0, "lat": 38.9180335, "name": "fb57b6d355db9c31c2b301ebcfcf758c", "fusion_lon": 0.0, "bike_id": "fb57b6d355db9c31c2b301ebcfcf758c", "is_disabled": 0, "is_reserved": 0}, {"rental_uris": {"ios": "https://dc.lft.to/lastmile_qr_scan", "android": "https://dc.lft.to/lastmile_qr_scan"}, "lon": -77.04931583333334, "type": "electric_scooter", "fusion_lat": 0.0, "lat": 38.89605666666667, "name": "98c16e7b59ff50ea920859966779fe7a", "fusion_lon": 0.0, "bike_id": "98c16e7b59ff50ea920859966779fe7a", "is_disabled": 0, "is_reserved": 0}, {"rental_uris": {"ios": "https://dc.lft.to/lastmile_qr_scan", "android": "https://dc.lft.to/lastmile_qr_scan"}, "lon": -77.02003566666667, "type": "electric_scooter", "fusion_lat": 0.0, "lat": 38.88580566666667, "name": "cb10e548d0bad5e2dae690e458a77479", "fusion_lon": 0.0, "bike_id": "cb10e548d0bad5e2dae690e458a77479", "is_disabled": 0, "is_reserved": 0}, {"rental_uris": {"ios": "https://dc.lft.to/lastmile_qr_scan", "android": "https://dc.lft.to/lastmile_qr_scan"}, "lon": -77.0005575, "type": "electric_scooter", "fusion_lat": 0.0, "lat": 38.905878333333334, "name": "23d67b0b7fdbc2539da2d009bdb47a96", "fusion_lon": 0.0, "bike_id": "23d67b0b7fdbc2539da2d009bdb47a96", "is_disabled": 0, "is_reserved": 0}, {"rental_uris": {"ios": "https://dc.lft.to/lastmile_qr_scan", "android": "https://dc.lft.to/lastmile_qr_scan"}, "lon": -77.01351216666667, "type": "electric_scooter", "fusion_lat": 0.0, "lat": 38.9193755, "name": "e898217d6cd4e08a5469a67b2496fc3b", "fusion_lon": 0.0, "bike_id": "e898217d6cd4e08a5469a67b2496fc3b", "is_disabled": 0, "is_reserved": 0}, {"rental_uris": {"ios": "https://dc.lft.to/lastmile_qr_scan", "android": "https://dc.lft.to/lastmile_qr_scan"}, "lon": -77.03456166666666, "type": "electric_scooter", "fusion_lat": 0.0, "lat": 38.918274333333336, "name": "fde702bc490bc41af1f13243f202e00e", "fusion_lon": 0.0, "bike_id": "fde702bc490bc41af1f13243f202e00e", "is_disabled": 0, "is_reserved": 0}, {"rental_uris": {"ios": "https://dc.lft.to/lastmile_qr_scan", "android": "https://dc.lft.to/lastmile_qr_scan"}, "lon": -77.12036266666667, "type": "electric_bike", "fusion_lat": 0.0, "lat": 38.85508516666667, "name": "9eb50b7ef3f525c819f2073b054e3872", "fusion_lon": 0.0, "bike_id": "9eb50b7ef3f525c819f2073b054e3872", "is_disabled": 0, "is_reserved": 0}, {"rental_uris": {"ios": "https://dc.lft.to/lastmile_qr_scan", "android": "https://dc.lft.to/lastmile_qr_scan"}, "lon": -77.04442633333333, "type": "electric_scooter", "fusion_lat": 0.0, "lat": 38.910116, "name": "92089cbda24ef6d69fa56822157c4050", "fusion_lon": 0.0, "bike_id": "92089cbda24ef6d69fa56822157c4050", "is_disabled": 0, "is_reserved": 0}, {"rental_uris": {"ios": "https://dc.lft.to/lastmile_qr_scan", "android": "https://dc.lft.to/lastmile_qr_scan"}, "lon": -76.93181133333333, "type": "electric_scooter", "fusion_lat": 0.0, "lat": 38.898876666666666, "name": "7d8f8ddcdf3212ec76a873e90df1ab80", "fusion_lon": 0.0, "bike_id": "7d8f8ddcdf3212ec76a873e90df1ab80", "is_disabled": 0, "is_reserved": 0}, {"rental_uris": {"ios": "https://dc.lft.to/lastmile_qr_scan", "android": "https://dc.lft.to/lastmile_qr_scan"}, "lon": -76.99496666666667, "type": "electric_scooter", "fusion_lat": 0.0, "lat": 38.862428, "name": "8fa70ab31b397e330dd336ac2715f571", "fusion_lon": 0.0, "bike_id": "8fa70ab31b397e330dd336ac2715f571", "is_disabled": 0, "is_reserved": 0}, {"rental_uris": {"ios": "https://dc.lft.to/lastmile_qr_scan", "android": "https://dc.lft.to/lastmile_qr_scan"}, "lon": -77.04731783333334, "type": "electric_bike", "fusion_lat": 0.0, "lat": 38.90565633333333, "name": "1290409ed4545bb82274d2a4da51cc1c", "fusion_lon": 0.0, "bike_id": "1290409ed4545bb82274d2a4da51cc1c", "is_disabled": 0, "is_reserved": 0}, {"rental_uris": {"ios": "https://dc.lft.to/lastmile_qr_scan", "android": "https://dc.lft.to/lastmile_qr_scan"}, "lon": -77.036684, "type": "electric_scooter", "fusion_lat": 0.0, "lat": 38.918165, "name": "efc5c5db5a685738df568ad60f8e42cc", "fusion_lon": 0.0, "bike_id": "efc5c5db5a685738df568ad60f8e42cc", "is_disabled": 0, "is_reserved": 0}, {"rental_uris": {"ios": "https://dc.lft.to/lastmile_qr_scan", "android": "https://dc.lft.to/lastmile_qr_scan"}, "lon": -77.0298115, "type": "electric_scooter", "fusion_lat": 0.0, "lat": 38.94603216666667, "name": "4e90b7bbf0adcb712e9fc4c0412accb8", "fusion_lon": 0.0, "bike_id": "4e90b7bbf0adcb712e9fc4c0412accb8", "is_disabled": 0, "is_reserved": 0}, {"rental_uris": {"ios": "https://dc.lft.to/lastmile_qr_scan", "android": "https://dc.lft.to/lastmile_qr_scan"}, "lon": -76.998701, "type": "electric_scooter", "fusion_lat": 0.0, "lat": 38.900314, "name": "f0541e51a077b8ba00ab8562cfb8fa8b", "fusion_lon": 0.0, "bike_id": "f0541e51a077b8ba00ab8562cfb8fa8b", "is_disabled": 0, "is_reserved": 0}, {"rental_uris": {"ios": "https://dc.lft.to/lastmile_qr_scan", "android": "https://dc.lft.to/lastmile_qr_scan"}, "lon": -77.00117016666667, "type": "electric_scooter", "fusion_lat": 0.0, "lat": 38.873268333333336, "name": "39ce570e02ca23078bf9c0501c63c336", "fusion_lon": 0.0, "bike_id": "39ce570e02ca23078bf9c0501c63c336", "is_disabled": 0, "is_reserved": 0}, {"rental_uris": {"ios": "https://dc.lft.to/lastmile_qr_scan", "android": "https://dc.lft.to/lastmile_qr_scan"}, "lon": -77.03555583333333, "type": "electric_scooter", "fusion_lat": 0.0, "lat": 38.91813766666667, "name": "286d28f05806b065e1feb08c3443841e", "fusion_lon": 0.0, "bike_id": "286d28f05806b065e1feb08c3443841e", "is_disabled": 0, "is_reserved": 0}, {"rental_uris": {"ios": "https://dc.lft.to/lastmile_qr_scan", "android": "https://dc.lft.to/lastmile_qr_scan"}, "lon": -76.93545816666666, "type": "electric_bike", "fusion_lat": 0.0, "lat": 38.95185133333333, "name": "412f242c0b8c404f425e248f5273c55b", "fusion_lon": 0.0, "bike_id": "412f242c0b8c404f425e248f5273c55b", "is_disabled": 0, "is_reserved": 0}, {"rental_uris": {"ios": "https://dc.lft.to/lastmile_qr_scan", "android": "https://dc.lft.to/lastmile_qr_scan"}, "lon": -77.05092983333333, "type": "electric_bike", "fusion_lat": 0.0, "lat": 38.8133445, "name": "8a8e9822ce459e44b1892ba63019fc42", "fusion_lon": 0.0, "bike_id": "8a8e9822ce459e44b1892ba63019fc42", "is_disabled": 0, "is_reserved": 0}, {"rental_uris": {"ios": "https://dc.lft.to/lastmile_qr_scan", "android": "https://dc.lft.to/lastmile_qr_scan"}, "lon": -77.03088733333334, "type": "electric_scooter", "fusion_lat": 0.0, "lat": 38.9225235, "name": "8bf40bdf6895ecf866d88845f27463b5", "fusion_lon": 0.0, "bike_id": "8bf40bdf6895ecf866d88845f27463b5", "is_disabled": 0, "is_reserved": 0}, {"rental_uris": {"ios": "https://dc.lft.to/lastmile_qr_scan", "android": "https://dc.lft.to/lastmile_qr_scan"}, "lon": -76.97328783333333, "type": "electric_scooter", "fusion_lat": 0.0, "lat": 38.90478783333333, "name": "8890b535f19057b0212ab56cec195f00", "fusion_lon": 0.0, "bike_id": "8890b535f19057b0212ab56cec195f00", "is_disabled": 0, "is_reserved": 0}, {"rental_uris": {"ios": "https://dc.lft.to/lastmile_qr_scan", "android": "https://dc.lft.to/lastmile_qr_scan"}, "lon": -77.05817716666667, "type": "electric_scooter", "fusion_lat": 0.0, "lat": 38.902951, "name": "de9454feacd6c62dac42bdc02a0bd87f", "fusion_lon": 0.0, "bike_id": "de9454feacd6c62dac42bdc02a0bd87f", "is_disabled": 0, "is_reserved": 0}, {"rental_uris": {"ios": "https://dc.lft.to/lastmile_qr_scan", "android": "https://dc.lft.to/lastmile_qr_scan"}, "lon": -76.99553216666666, "type": "electric_scooter", "fusion_lat": 0.0, "lat": 38.92315683333333, "name": "2c5bd7ee3ab57b8ccb603458c06d71cf", "fusion_lon": 0.0, "bike_id": "2c5bd7ee3ab57b8ccb603458c06d71cf", "is_disabled": 0, "is_reserved": 0}, {"rental_uris": {"ios": "https://dc.lft.to/lastmile_qr_scan", "android": "https://dc.lft.to/lastmile_qr_scan"}, "lon": -77.00611183333334, "type": "electric_scooter", "fusion_lat": 0.0, "lat": 38.90583866666667, "name": "75e1f55a57c3a7e9a9fd3faf79e6d152", "fusion_lon": 0.0, "bike_id": "75e1f55a57c3a7e9a9fd3faf79e6d152", "is_disabled": 0, "is_reserved": 0}, {"rental_uris": {"ios": "https://dc.lft.to/lastmile_qr_scan", "android": "https://dc.lft.to/lastmile_qr_scan"}, "lon": -77.05689433333333, "type": "electric_scooter", "fusion_lat": 0.0, "lat": 38.93703216666667, "name": "46f6d9f9195e913775fbd2a4ef1416ce", "fusion_lon": 0.0, "bike_id": "46f6d9f9195e913775fbd2a4ef1416ce", "is_disabled": 0, "is_reserved": 0}, {"rental_uris": {"ios": "https://dc.lft.to/lastmile_qr_scan", "android": "https://dc.lft.to/lastmile_qr_scan"}, "lon": -77.04806, "type": "electric_scooter", "fusion_lat": 0.0, "lat": 38.89736033333333, "name": "0e683c8972505277b57957f40b001acb", "fusion_lon": 0.0, "bike_id": "0e683c8972505277b57957f40b001acb", "is_disabled": 0, "is_reserved": 0}, {"rental_uris": {"ios": "https://dc.lft.to/lastmile_qr_scan", "android": "https://dc.lft.to/lastmile_qr_scan"}, "lon": -77.036372, "type": "electric_scooter", "fusion_lat": 0.0, "lat": 38.92421216666666, "name": "0fda54a8755155a65932e84c47bee560", "fusion_lon": 0.0, "bike_id": "0fda54a8755155a65932e84c47bee560", "is_disabled": 0, "is_reserved": 0}, {"rental_uris": {"ios": "https://dc.lft.to/lastmile_qr_scan", "android": "https://dc.lft.to/lastmile_qr_scan"}, "lon": -77.0262315, "type": "electric_scooter", "fusion_lat": 0.0, "lat": 38.915265, "name": "d68b9c26468cb9513e91a2bc658f108c", "fusion_lon": 0.0, "bike_id": "d68b9c26468cb9513e91a2bc658f108c", "is_disabled": 0, "is_reserved": 0}, {"rental_uris": {"ios": "https://dc.lft.to/lastmile_qr_scan", "android": "https://dc.lft.to/lastmile_qr_scan"}, "lon": -76.98126583333334, "type": "electric_scooter", "fusion_lat": 0.0, "lat": 38.85707466666667, "name": "6c00640fdcaf76f98d948ee3a203e346", "fusion_lon": 0.0, "bike_id": "6c00640fdcaf76f98d948ee3a203e346", "is_disabled": 0, "is_reserved": 0}, {"rental_uris": {"ios": "https://dc.lft.to/lastmile_qr_scan", "android": "https://dc.lft.to/lastmile_qr_scan"}, "lon": -77.03840883333334, "type": "electric_scooter", "fusion_lat": 0.0, "lat": 38.9078625, "name": "6218841cfb0dd757661ed6ae2089cefc", "fusion_lon": 0.0, "bike_id": "6218841cfb0dd757661ed6ae2089cefc", "is_disabled": 0, "is_reserved": 0}, {"rental_uris": {"ios": "https://dc.lft.to/lastmile_qr_scan", "android": "https://dc.lft.to/lastmile_qr_scan"}, "lon": -76.93863983333334, "type": "electric_scooter", "fusion_lat": 0.0, "lat": 38.900792333333335, "name": "4be0fde0edcdbad06eb8e9da2ea5af06", "fusion_lon": 0.0, "bike_id": "4be0fde0edcdbad06eb8e9da2ea5af06", "is_disabled": 0, "is_reserved": 0}, {"rental_uris": {"ios": "https://dc.lft.to/lastmile_qr_scan", "android": "https://dc.lft.to/lastmile_qr_scan"}, "lon": -77.05559083333333, "type": "electric_scooter", "fusion_lat": 0.0, "lat": 38.900019, "name": "faf3185e047793f261204792a4ffc96b", "fusion_lon": 0.0, "bike_id": "faf3185e047793f261204792a4ffc96b", "is_disabled": 0, "is_reserved": 0}, {"rental_uris": {"ios": "https://dc.lft.to/lastmile_qr_scan", "android": "https://dc.lft.to/lastmile_qr_scan"}, "lon": -77.0547375, "type": "electric_scooter", "fusion_lat": 0.0, "lat": 38.9106565, "name": "daca441935f08b21ba175cd8a794aba2", "fusion_lon": 0.0, "bike_id": "daca441935f08b21ba175cd8a794aba2", "is_disabled": 0, "is_reserved": 0}, {"rental_uris": {"ios": "https://dc.lft.to/lastmile_qr_scan", "android": "https://dc.lft.to/lastmile_qr_scan"}, "lon": -77.035716, "type": "electric_scooter", "fusion_lat": 0.0, "lat": 38.939817166666664, "name": "0d290358a66f5b72c29ae2fbca4069a3", "fusion_lon": 0.0, "bike_id": "0d290358a66f5b72c29ae2fbca4069a3", "is_disabled": 0, "is_reserved": 0}, {"rental_uris": {"ios": "https://dc.lft.to/lastmile_qr_scan", "android": "https://dc.lft.to/lastmile_qr_scan"}, "lon": -76.9920355, "type": "electric_scooter", "fusion_lat": 0.0, "lat": 38.91955433333333, "name": "551500b2d904f7be3d8aa2df0ff1b2c5", "fusion_lon": 0.0, "bike_id": "551500b2d904f7be3d8aa2df0ff1b2c5", "is_disabled": 0, "is_reserved": 0}, {"rental_uris": {"ios": "https://dc.lft.to/lastmile_qr_scan", "android": "https://dc.lft.to/lastmile_qr_scan"}, "lon": -76.994613, "type": "electric_scooter", "fusion_lat": 0.0, "lat": 38.851638333333334, "name": "2b3fd247120c8892390fba9d3c3ff22c", "fusion_lon": 0.0, "bike_id": "2b3fd247120c8892390fba9d3c3ff22c", "is_disabled": 0, "is_reserved": 0}, {"rental_uris": {"ios": "https://dc.lft.to/lastmile_qr_scan", "android": "https://dc.lft.to/lastmile_qr_scan"}, "lon": -77.0554885, "type": "electric_scooter", "fusion_lat": 0.0, "lat": 38.92528183333334, "name": "6856f012b544ce0557adda05a36dc194", "fusion_lon": 0.0, "bike_id": "6856f012b544ce0557adda05a36dc194", "is_disabled": 0, "is_reserved": 0}, {"rental_uris": {"ios": "https://dc.lft.to/lastmile_qr_scan", "android": "https://dc.lft.to/lastmile_qr_scan"}, "lon": -76.957555, "type": "electric_scooter", "fusion_lat": 0.0, "lat": 38.8842095, "name": "67acad455bdc97a321ce99fa79b66f2b", "fusion_lon": 0.0, "bike_id": "67acad455bdc97a321ce99fa79b66f2b", "is_disabled": 0, "is_reserved": 0}, {"rental_uris": {"ios": "https://dc.lft.to/lastmile_qr_scan", "android": "https://dc.lft.to/lastmile_qr_scan"}, "lon": -77.08050933333334, "type": "electric_bike", "fusion_lat": 0.0, "lat": 38.848433666666665, "name": "e41f380981626b67e561bf6a1af60957", "fusion_lon": 0.0, "bike_id": "e41f380981626b67e561bf6a1af60957", "is_disabled": 0, "is_reserved": 0}, {"rental_uris": {"ios": "https://dc.lft.to/lastmile_qr_scan", "android": "https://dc.lft.to/lastmile_qr_scan"}, "lon": -76.93966533333334, "type": "electric_scooter", "fusion_lat": 0.0, "lat": 38.899678, "name": "a7845b51eecd9de3a45161ee3f15e0fe", "fusion_lon": 0.0, "bike_id": "a7845b51eecd9de3a45161ee3f15e0fe", "is_disabled": 0, "is_reserved": 0}, {"rental_uris": {"ios": "https://dc.lft.to/lastmile_qr_scan", "android": "https://dc.lft.to/lastmile_qr_scan"}, "lon": -76.98610583333334, "type": "electric_scooter", "fusion_lat": 0.0, "lat": 38.87832066666667, "name": "cfd1cd7e5b8efb652bd6cae02647d0ab", "fusion_lon": 0.0, "bike_id": "cfd1cd7e5b8efb652bd6cae02647d0ab", "is_disabled": 0, "is_reserved": 0}, {"rental_uris": {"ios": "https://dc.lft.to/lastmile_qr_scan", "android": "https://dc.lft.to/lastmile_qr_scan"}, "lon": -77.032004, "type": "electric_scooter", "fusion_lat": 0.0, "lat": 38.92000616666667, "name": "50e8de1d7aa2c70ca3effb92027912f1", "fusion_lon": 0.0, "bike_id": "50e8de1d7aa2c70ca3effb92027912f1", "is_disabled": 0, "is_reserved": 0}, {"rental_uris": {"ios": "https://dc.lft.to/lastmile_qr_scan", "android": "https://dc.lft.to/lastmile_qr_scan"}, "lon": -77.00711, "type": "electric_scooter", "fusion_lat": 0.0, "lat": 38.884938, "name": "f00492a7cee9f0d28d407b669d46cb90", "fusion_lon": 0.0, "bike_id": "f00492a7cee9f0d28d407b669d46cb90", "is_disabled": 0, "is_reserved": 0}, {"rental_uris": {"ios": "https://dc.lft.to/lastmile_qr_scan", "android": "https://dc.lft.to/lastmile_qr_scan"}, "lon": -76.98073916666667, "type": "electric_scooter", "fusion_lat": 0.0, "lat": 38.901718833333334, "name": "59cf373b5a6845ebb0e8cb9429e985c0", "fusion_lon": 0.0, "bike_id": "59cf373b5a6845ebb0e8cb9429e985c0", "is_disabled": 0, "is_reserved": 0}, {"rental_uris": {"ios": "https://dc.lft.to/lastmile_qr_scan", "android": "https://dc.lft.to/lastmile_qr_scan"}, "lon": -77.05468083333334, "type": "electric_scooter", "fusion_lat": 0.0, "lat": 38.896682166666665, "name": "0095d40357a819b20b4edecc07326142", "fusion_lon": 0.0, "bike_id": "0095d40357a819b20b4edecc07326142", "is_disabled": 0, "is_reserved": 0}, {"rental_uris": {"ios": "https://dc.lft.to/lastmile_qr_scan", "android": "https://dc.lft.to/lastmile_qr_scan"}, "lon": -77.0296055, "type": "electric_scooter", "fusion_lat": 0.0, "lat": 38.887426, "name": "6b66ba8c347f17372fce4ceb2c34db93", "fusion_lon": 0.0, "bike_id": "6b66ba8c347f17372fce4ceb2c34db93", "is_disabled": 0, "is_reserved": 0}, {"rental_uris": {"ios": "https://dc.lft.to/lastmile_qr_scan", "android": "https://dc.lft.to/lastmile_qr_scan"}, "lon": -76.94627383333334, "type": "electric_bike", "fusion_lat": 0.0, "lat": 38.83234083333333, "name": "a23439c5f7de5653c0b65eb55045d955", "fusion_lon": 0.0, "bike_id": "a23439c5f7de5653c0b65eb55045d955", "is_disabled": 0, "is_reserved": 0}, {"rental_uris": {"ios": "https://dc.lft.to/lastmile_qr_scan", "android": "https://dc.lft.to/lastmile_qr_scan"}, "lon": -77.01660516666666, "type": "electric_bike", "fusion_lat": 0.0, "lat": 38.881279, "name": "c8ca19253d60c1424794092a23c9bf32", "fusion_lon": 0.0, "bike_id": "c8ca19253d60c1424794092a23c9bf32", "is_disabled": 0, "is_reserved": 0}, {"rental_uris": {"ios": "https://dc.lft.to/lastmile_qr_scan", "android": "https://dc.lft.to/lastmile_qr_scan"}, "lon": -77.04376266666667, "type": "electric_scooter", "fusion_lat": 0.0, "lat": 38.93333633333334, "name": "ad9d5776b420307e669104ff85087ef2", "fusion_lon": 0.0, "bike_id": "ad9d5776b420307e669104ff85087ef2", "is_disabled": 0, "is_reserved": 0}, {"rental_uris": {"ios": "https://dc.lft.to/lastmile_qr_scan", "android": "https://dc.lft.to/lastmile_qr_scan"}, "lon": -76.98543483333333, "type": "electric_scooter", "fusion_lat": 0.0, "lat": 38.904208, "name": "5300f005f800e20883d567991266b3b5", "fusion_lon": 0.0, "bike_id": "5300f005f800e20883d567991266b3b5", "is_disabled": 0, "is_reserved": 0}, {"rental_uris": {"ios": "https://dc.lft.to/lastmile_qr_scan", "android": "https://dc.lft.to/lastmile_qr_scan"}, "lon": -77.032331, "type": "electric_scooter", "fusion_lat": 0.0, "lat": 38.927597666666664, "name": "0af68a0a54054ef62510d3ee4bc2fe5d", "fusion_lon": 0.0, "bike_id": "0af68a0a54054ef62510d3ee4bc2fe5d", "is_disabled": 0, "is_reserved": 0}, {"rental_uris": {"ios": "https://dc.lft.to/lastmile_qr_scan", "android": "https://dc.lft.to/lastmile_qr_scan"}, "lon": -76.939268, "type": "electric_scooter", "fusion_lat": 0.0, "lat": 38.89294733333333, "name": "6b948856cd737d8e579d09bb7822bedd", "fusion_lon": 0.0, "bike_id": "6b948856cd737d8e579d09bb7822bedd", "is_disabled": 0, "is_reserved": 0}, {"rental_uris": {"ios": "https://dc.lft.to/lastmile_qr_scan", "android": "https://dc.lft.to/lastmile_qr_scan"}, "lon": -77.01436483333333, "type": "electric_scooter", "fusion_lat": 0.0, "lat": 38.9064385, "name": "97351154aa1878aa4221a7387f4bfd0d", "fusion_lon": 0.0, "bike_id": "97351154aa1878aa4221a7387f4bfd0d", "is_disabled": 0, "is_reserved": 0}, {"rental_uris": {"ios": "https://dc.lft.to/lastmile_qr_scan", "android": "https://dc.lft.to/lastmile_qr_scan"}, "lon": -77.05266383333333, "type": "electric_scooter", "fusion_lat": 0.0, "lat": 38.91024916666667, "name": "0989ce0971cbd89f0993207b8a0f214b", "fusion_lon": 0.0, "bike_id": "0989ce0971cbd89f0993207b8a0f214b", "is_disabled": 0, "is_reserved": 0}, {"rental_uris": {"ios": "https://dc.lft.to/lastmile_qr_scan", "android": "https://dc.lft.to/lastmile_qr_scan"}, "lon": -76.973313, "type": "electric_bike", "fusion_lat": 0.0, "lat": 38.8506545, "name": "9dc7a850f8a4380c4b54d7d41c058a4b", "fusion_lon": 0.0, "bike_id": "9dc7a850f8a4380c4b54d7d41c058a4b", "is_disabled": 0, "is_reserved": 0}, {"rental_uris": {"ios": "https://dc.lft.to/lastmile_qr_scan", "android": "https://dc.lft.to/lastmile_qr_scan"}, "lon": -77.03798083333334, "type": "electric_scooter", "fusion_lat": 0.0, "lat": 38.921938833333336, "name": "e276b322deaf31b5657136ea02f270cf", "fusion_lon": 0.0, "bike_id": "e276b322deaf31b5657136ea02f270cf", "is_disabled": 0, "is_reserved": 0}, {"rental_uris": {"ios": "https://dc.lft.to/lastmile_qr_scan", "android": "https://dc.lft.to/lastmile_qr_scan"}, "lon": -77.0394725, "type": "electric_scooter", "fusion_lat": 0.0, "lat": 38.90289583333333, "name": "4520121af894ff5c79b37156bc3b2cb0", "fusion_lon": 0.0, "bike_id": "4520121af894ff5c79b37156bc3b2cb0", "is_disabled": 0, "is_reserved": 0}, {"rental_uris": {"ios": "https://dc.lft.to/lastmile_qr_scan", "android": "https://dc.lft.to/lastmile_qr_scan"}, "lon": -76.97729133333333, "type": "electric_scooter", "fusion_lat": 0.0, "lat": 38.872459666666664, "name": "605450e4d7ace7fbaf1da35691057303", "fusion_lon": 0.0, "bike_id": "605450e4d7ace7fbaf1da35691057303", "is_disabled": 0, "is_reserved": 0}, {"rental_uris": {"ios": "https://dc.lft.to/lastmile_qr_scan", "android": "https://dc.lft.to/lastmile_qr_scan"}, "lon": -77.036714, "type": "electric_scooter", "fusion_lat": 0.0, "lat": 38.92994433333333, "name": "97fece93dacaeb4cd3914183d02d4c41", "fusion_lon": 0.0, "bike_id": "97fece93dacaeb4cd3914183d02d4c41", "is_disabled": 0, "is_reserved": 0}, {"rental_uris": {"ios": "https://dc.lft.to/lastmile_qr_scan", "android": "https://dc.lft.to/lastmile_qr_scan"}, "lon": -77.04800816666666, "type": "electric_scooter", "fusion_lat": 0.0, "lat": 38.90717, "name": "8e002aa6b848dbd03b4dd6da76c8bb69", "fusion_lon": 0.0, "bike_id": "8e002aa6b848dbd03b4dd6da76c8bb69", "is_disabled": 0, "is_reserved": 0}, {"rental_uris": {"ios": "https://dc.lft.to/lastmile_qr_scan", "android": "https://dc.lft.to/lastmile_qr_scan"}, "lon": -77.0245795, "type": "electric_scooter", "fusion_lat": 0.0, "lat": 38.9793775, "name": "5e0428fb64cae3805b97519b91e84a99", "fusion_lon": 0.0, "bike_id": "5e0428fb64cae3805b97519b91e84a99", "is_disabled": 0, "is_reserved": 0}, {"rental_uris": {"ios": "https://dc.lft.to/lastmile_qr_scan", "android": "https://dc.lft.to/lastmile_qr_scan"}, "lon": -77.02424983333333, "type": "electric_scooter", "fusion_lat": 0.0, "lat": 38.91822883333333, "name": "56ae16ce28ff1ed8e3beb13b4decfc06", "fusion_lon": 0.0, "bike_id": "56ae16ce28ff1ed8e3beb13b4decfc06", "is_disabled": 0, "is_reserved": 0}, {"rental_uris": {"ios": "https://dc.lft.to/lastmile_qr_scan", "android": "https://dc.lft.to/lastmile_qr_scan"}, "lon": -77.0413655, "type": "electric_scooter", "fusion_lat": 0.0, "lat": 38.923483833333336, "name": "0e234be7938f3810b9dbde3bcf8d934d", "fusion_lon": 0.0, "bike_id": "0e234be7938f3810b9dbde3bcf8d934d", "is_disabled": 0, "is_reserved": 0}, {"rental_uris": {"ios": "https://dc.lft.to/lastmile_qr_scan", "android": "https://dc.lft.to/lastmile_qr_scan"}, "lon": -77.02336933333333, "type": "electric_scooter", "fusion_lat": 0.0, "lat": 38.93051233333333, "name": "fd9415a7b2b2739b554133c4f5bc5215", "fusion_lon": 0.0, "bike_id": "fd9415a7b2b2739b554133c4f5bc5215", "is_disabled": 0, "is_reserved": 0}, {"rental_uris": {"ios": "https://dc.lft.to/lastmile_qr_scan", "android": "https://dc.lft.to/lastmile_qr_scan"}, "lon": -77.045843, "type": "electric_scooter", "fusion_lat": 0.0, "lat": 38.90210483333333, "name": "1d39b6cbb79e8be9a9a8dfc0c77ccf7d", "fusion_lon": 0.0, "bike_id": "1d39b6cbb79e8be9a9a8dfc0c77ccf7d", "is_disabled": 0, "is_reserved": 0}, {"rental_uris": {"ios": "https://dc.lft.to/lastmile_qr_scan", "android": "https://dc.lft.to/lastmile_qr_scan"}, "lon": -77.05040416666667, "type": "electric_scooter", "fusion_lat": 0.0, "lat": 38.89656383333333, "name": "eef75befe5eac45dca4fea39f7a20fcb", "fusion_lon": 0.0, "bike_id": "eef75befe5eac45dca4fea39f7a20fcb", "is_disabled": 0, "is_reserved": 0}, {"rental_uris": {"ios": "https://dc.lft.to/lastmile_qr_scan", "android": "https://dc.lft.to/lastmile_qr_scan"}, "lon": -77.01090066666667, "type": "electric_scooter", "fusion_lat": 0.0, "lat": 38.916283166666666, "name": "ef882700cfa2b2c10bf5abcd773ced02", "fusion_lon": 0.0, "bike_id": "ef882700cfa2b2c10bf5abcd773ced02", "is_disabled": 0, "is_reserved": 0}, {"rental_uris": {"ios": "https://dc.lft.to/lastmile_qr_scan", "android": "https://dc.lft.to/lastmile_qr_scan"}, "lon": -77.0181275, "type": "electric_scooter", "fusion_lat": 0.0, "lat": 38.942012, "name": "dbab3295cd2ff3642a09475fd0f2d30e", "fusion_lon": 0.0, "bike_id": "dbab3295cd2ff3642a09475fd0f2d30e", "is_disabled": 0, "is_reserved": 0}, {"rental_uris": {"ios": "https://dc.lft.to/lastmile_qr_scan", "android": "https://dc.lft.to/lastmile_qr_scan"}, "lon": -77.0283985, "type": "electric_scooter", "fusion_lat": 0.0, "lat": 38.93477383333333, "name": "8b4b5d182b1cbd2b5e9f217ea339c32d", "fusion_lon": 0.0, "bike_id": "8b4b5d182b1cbd2b5e9f217ea339c32d", "is_disabled": 0, "is_reserved": 0}, {"rental_uris": {"ios": "https://dc.lft.to/lastmile_qr_scan", "android": "https://dc.lft.to/lastmile_qr_scan"}, "lon": -77.02983966666666, "type": "electric_scooter", "fusion_lat": 0.0, "lat": 38.962296, "name": "142b62fae67cf4c8981367c97b231a89", "fusion_lon": 0.0, "bike_id": "142b62fae67cf4c8981367c97b231a89", "is_disabled": 0, "is_reserved": 0}, {"rental_uris": {"ios": "https://dc.lft.to/lastmile_qr_scan", "android": "https://dc.lft.to/lastmile_qr_scan"}, "lon": -77.02379716666667, "type": "electric_scooter", "fusion_lat": 0.0, "lat": 38.9205535, "name": "40f010ccbef46a91dcc819bd5a094282", "fusion_lon": 0.0, "bike_id": "40f010ccbef46a91dcc819bd5a094282", "is_disabled": 0, "is_reserved": 0}, {"rental_uris": {"ios": "https://dc.lft.to/lastmile_qr_scan", "android": "https://dc.lft.to/lastmile_qr_scan"}, "lon": -77.03268133333333, "type": "electric_scooter", "fusion_lat": 0.0, "lat": 38.938074, "name": "7d050ac5a7ee90c0c0e3790a5a0af84e", "fusion_lon": 0.0, "bike_id": "7d050ac5a7ee90c0c0e3790a5a0af84e", "is_disabled": 0, "is_reserved": 0}, {"rental_uris": {"ios": "https://dc.lft.to/lastmile_qr_scan", "android": "https://dc.lft.to/lastmile_qr_scan"}, "lon": -77.01361183333333, "type": "electric_scooter", "fusion_lat": 0.0, "lat": 38.871182166666664, "name": "33cd8ad80cc8fc9280c60e9637dbb4eb", "fusion_lon": 0.0, "bike_id": "33cd8ad80cc8fc9280c60e9637dbb4eb", "is_disabled": 0, "is_reserved": 0}, {"rental_uris": {"ios": "https://dc.lft.to/lastmile_qr_scan", "android": "https://dc.lft.to/lastmile_qr_scan"}, "lon": -77.14121066666667, "type": "electric_bike", "fusion_lat": 0.0, "lat": 38.816048333333335, "name": "c18651deb4791c582e88a54c60498ef0", "fusion_lon": 0.0, "bike_id": "c18651deb4791c582e88a54c60498ef0", "is_disabled": 0, "is_reserved": 0}, {"rental_uris": {"ios": "https://dc.lft.to/lastmile_qr_scan", "android": "https://dc.lft.to/lastmile_qr_scan"}, "lon": -77.02315866666666, "type": "electric_scooter", "fusion_lat": 0.0, "lat": 38.92758083333333, "name": "031cf3e5df80eca9f338d5b081cc8533", "fusion_lon": 0.0, "bike_id": "031cf3e5df80eca9f338d5b081cc8533", "is_disabled": 0, "is_reserved": 0}, {"rental_uris": {"ios": "https://dc.lft.to/lastmile_qr_scan", "android": "https://dc.lft.to/lastmile_qr_scan"}, "lon": -77.03151583333333, "type": "electric_scooter", "fusion_lat": 0.0, "lat": 38.882972, "name": "106d8046f3a367ccd8ee68720c51d1e1", "fusion_lon": 0.0, "bike_id": "106d8046f3a367ccd8ee68720c51d1e1", "is_disabled": 0, "is_reserved": 0}, {"rental_uris": {"ios": "https://dc.lft.to/lastmile_qr_scan", "android": "https://dc.lft.to/lastmile_qr_scan"}, "lon": -77.0083915, "type": "electric_bike", "fusion_lat": 0.0, "lat": 38.94919383333333, "name": "16ea957508bf8c9d63ce9704a9918261", "fusion_lon": 0.0, "bike_id": "16ea957508bf8c9d63ce9704a9918261", "is_disabled": 0, "is_reserved": 0}, {"rental_uris": {"ios": "https://dc.lft.to/lastmile_qr_scan", "android": "https://dc.lft.to/lastmile_qr_scan"}, "lon": -77.03418933333333, "type": "electric_scooter", "fusion_lat": 0.0, "lat": 38.91925, "name": "7a90417501eb35573b59ca74c28e9e9d", "fusion_lon": 0.0, "bike_id": "7a90417501eb35573b59ca74c28e9e9d", "is_disabled": 0, "is_reserved": 0}, {"rental_uris": {"ios": "https://dc.lft.to/lastmile_qr_scan", "android": "https://dc.lft.to/lastmile_qr_scan"}, "lon": -77.0178515, "type": "electric_bike", "fusion_lat": 0.0, "lat": 38.91487716666666, "name": "a0c8630910f4cd1eeeb9ac3128e3bcf7", "fusion_lon": 0.0, "bike_id": "a0c8630910f4cd1eeeb9ac3128e3bcf7", "is_disabled": 0, "is_reserved": 0}, {"rental_uris": {"ios": "https://dc.lft.to/lastmile_qr_scan", "android": "https://dc.lft.to/lastmile_qr_scan"}, "lon": -76.99520783333334, "type": "electric_scooter", "fusion_lat": 0.0, "lat": 38.86259833333333, "name": "a0fa5fe900ca86959e97a96a6839f1ec", "fusion_lon": 0.0, "bike_id": "a0fa5fe900ca86959e97a96a6839f1ec", "is_disabled": 0, "is_reserved": 0}, {"rental_uris": {"ios": "https://dc.lft.to/lastmile_qr_scan", "android": "https://dc.lft.to/lastmile_qr_scan"}, "lon": -77.04174516666667, "type": "electric_scooter", "fusion_lat": 0.0, "lat": 38.91704466666667, "name": "2d556a2383d12f3559eafb66c040d4e2", "fusion_lon": 0.0, "bike_id": "2d556a2383d12f3559eafb66c040d4e2", "is_disabled": 0, "is_reserved": 0}, {"rental_uris": {"ios": "https://dc.lft.to/lastmile_qr_scan", "android": "https://dc.lft.to/lastmile_qr_scan"}, "lon": -77.03643383333333, "type": "electric_scooter", "fusion_lat": 0.0, "lat": 38.9173255, "name": "b120a30148cca2934c08bb759e402797", "fusion_lon": 0.0, "bike_id": "b120a30148cca2934c08bb759e402797", "is_disabled": 0, "is_reserved": 0}, {"rental_uris": {"ios": "https://dc.lft.to/lastmile_qr_scan", "android": "https://dc.lft.to/lastmile_qr_scan"}, "lon": -77.19914666666666, "type": "electric_bike", "fusion_lat": 0.0, "lat": 38.875310166666665, "name": "8cd3cf3bff52ad5b5f0bd1c2a74232f5", "fusion_lon": 0.0, "bike_id": "8cd3cf3bff52ad5b5f0bd1c2a74232f5", "is_disabled": 0, "is_reserved": 0}, {"rental_uris": {"ios": "https://dc.lft.to/lastmile_qr_scan", "android": "https://dc.lft.to/lastmile_qr_scan"}, "lon": -77.04625633333333, "type": "electric_scooter", "fusion_lat": 0.0, "lat": 38.91908166666666, "name": "417d939d9af57c7ba2f391ae0fefbc81", "fusion_lon": 0.0, "bike_id": "417d939d9af57c7ba2f391ae0fefbc81", "is_disabled": 0, "is_reserved": 0}, {"rental_uris": {"ios": "https://dc.lft.to/lastmile_qr_scan", "android": "https://dc.lft.to/lastmile_qr_scan"}, "lon": -77.00542933333334, "type": "electric_scooter", "fusion_lat": 0.0, "lat": 38.8790185, "name": "49e4bae4ed29b2786f53d7547ceb4736", "fusion_lon": 0.0, "bike_id": "49e4bae4ed29b2786f53d7547ceb4736", "is_disabled": 0, "is_reserved": 0}, {"rental_uris": {"ios": "https://dc.lft.to/lastmile_qr_scan", "android": "https://dc.lft.to/lastmile_qr_scan"}, "lon": -77.03186666666667, "type": "electric_scooter", "fusion_lat": 0.0, "lat": 38.904396, "name": "1f97e56f433ca6e62e3497c830866676", "fusion_lon": 0.0, "bike_id": "1f97e56f433ca6e62e3497c830866676", "is_disabled": 0, "is_reserved": 0}, {"rental_uris": {"ios": "https://dc.lft.to/lastmile_qr_scan", "android": "https://dc.lft.to/lastmile_qr_scan"}, "lon": -77.14998666666666, "type": "electric_bike", "fusion_lat": 0.0, "lat": 39.09459566666666, "name": "a08c8849c72bbba7d7ae30ca044859e8", "fusion_lon": 0.0, "bike_id": "a08c8849c72bbba7d7ae30ca044859e8", "is_disabled": 0, "is_reserved": 0}, {"rental_uris": {"ios": "https://dc.lft.to/lastmile_qr_scan", "android": "https://dc.lft.to/lastmile_qr_scan"}, "lon": -76.9336775, "type": "electric_scooter", "fusion_lat": 0.0, "lat": 38.899179, "name": "3eb5209e7ee8b4f8476dc65709075110", "fusion_lon": 0.0, "bike_id": "3eb5209e7ee8b4f8476dc65709075110", "is_disabled": 0, "is_reserved": 0}, {"rental_uris": {"ios": "https://dc.lft.to/lastmile_qr_scan", "android": "https://dc.lft.to/lastmile_qr_scan"}, "lon": -76.94865633333333, "type": "electric_scooter", "fusion_lat": 0.0, "lat": 38.8959345, "name": "0e5ffbd103cd412c8acec16a2be82263", "fusion_lon": 0.0, "bike_id": "0e5ffbd103cd412c8acec16a2be82263", "is_disabled": 0, "is_reserved": 0}, {"rental_uris": {"ios": "https://dc.lft.to/lastmile_qr_scan", "android": "https://dc.lft.to/lastmile_qr_scan"}, "lon": -77.03304883333334, "type": "electric_scooter", "fusion_lat": 0.0, "lat": 38.9096205, "name": "ae2645a85bb02366e39608d06bc075bc", "fusion_lon": 0.0, "bike_id": "ae2645a85bb02366e39608d06bc075bc", "is_disabled": 0, "is_reserved": 0}, {"rental_uris": {"ios": "https://dc.lft.to/lastmile_qr_scan", "android": "https://dc.lft.to/lastmile_qr_scan"}, "lon": -77.02799783333333, "type": "electric_scooter", "fusion_lat": 0.0, "lat": 38.91068516666667, "name": "9c06737ba75645b88ac0ac01fdddef23", "fusion_lon": 0.0, "bike_id": "9c06737ba75645b88ac0ac01fdddef23", "is_disabled": 0, "is_reserved": 0}, {"rental_uris": {"ios": "https://dc.lft.to/lastmile_qr_scan", "android": "https://dc.lft.to/lastmile_qr_scan"}, "lon": -77.01069683333333, "type": "electric_scooter", "fusion_lat": 0.0, "lat": 38.874759833333336, "name": "719560b14ae3263e2de19f1240b248b4", "fusion_lon": 0.0, "bike_id": "719560b14ae3263e2de19f1240b248b4", "is_disabled": 0, "is_reserved": 0}, {"rental_uris": {"ios": "https://dc.lft.to/lastmile_qr_scan", "android": "https://dc.lft.to/lastmile_qr_scan"}, "lon": -76.91654033333333, "type": "electric_bike", "fusion_lat": 0.0, "lat": 38.868575, "name": "3f41ea0ad9a258dd06f259a0f6b4e3be", "fusion_lon": 0.0, "bike_id": "3f41ea0ad9a258dd06f259a0f6b4e3be", "is_disabled": 0, "is_reserved": 0}, {"rental_uris": {"ios": "https://dc.lft.to/lastmile_qr_scan", "android": "https://dc.lft.to/lastmile_qr_scan"}, "lon": -76.99004066666667, "type": "electric_scooter", "fusion_lat": 0.0, "lat": 38.90393183333333, "name": "fd494f60eb644f983271032b85536f11", "fusion_lon": 0.0, "bike_id": "fd494f60eb644f983271032b85536f11", "is_disabled": 0, "is_reserved": 0}, {"rental_uris": {"ios": "https://dc.lft.to/lastmile_qr_scan", "android": "https://dc.lft.to/lastmile_qr_scan"}, "lon": -77.0184725, "type": "electric_scooter", "fusion_lat": 0.0, "lat": 38.908734833333334, "name": "84e65dcffa30772684fcb9c3fe1cbcf9", "fusion_lon": 0.0, "bike_id": "84e65dcffa30772684fcb9c3fe1cbcf9", "is_disabled": 0, "is_reserved": 0}, {"rental_uris": {"ios": "https://dc.lft.to/lastmile_qr_scan", "android": "https://dc.lft.to/lastmile_qr_scan"}, "lon": -77.12735116666667, "type": "electric_bike", "fusion_lat": 0.0, "lat": 38.895595666666665, "name": "720b83f6f5f956fee89bfa9e333d93a5", "fusion_lon": 0.0, "bike_id": "720b83f6f5f956fee89bfa9e333d93a5", "is_disabled": 0, "is_reserved": 0}, {"rental_uris": {"ios": "https://dc.lft.to/lastmile_qr_scan", "android": "https://dc.lft.to/lastmile_qr_scan"}, "lon": -77.01075533333334, "type": "electric_bike", "fusion_lat": 0.0, "lat": 38.9191045, "name": "372a38272226fdda9330f25878a9d88f", "fusion_lon": 0.0, "bike_id": "372a38272226fdda9330f25878a9d88f", "is_disabled": 0, "is_reserved": 0}, {"rental_uris": {"ios": "https://dc.lft.to/lastmile_qr_scan", "android": "https://dc.lft.to/lastmile_qr_scan"}, "lon": -77.00978033333334, "type": "electric_scooter", "fusion_lat": 0.0, "lat": 38.91417033333333, "name": "a0ce8714c884bec98f86200bb89856cd", "fusion_lon": 0.0, "bike_id": "a0ce8714c884bec98f86200bb89856cd", "is_disabled": 0, "is_reserved": 0}, {"rental_uris": {"ios": "https://dc.lft.to/lastmile_qr_scan", "android": "https://dc.lft.to/lastmile_qr_scan"}, "lon": -76.9900255, "type": "electric_scooter", "fusion_lat": 0.0, "lat": 38.865053833333334, "name": "5f5af75e1bec273dc80560f2d8032b33", "fusion_lon": 0.0, "bike_id": "5f5af75e1bec273dc80560f2d8032b33", "is_disabled": 0, "is_reserved": 0}, {"rental_uris": {"ios": "https://dc.lft.to/lastmile_qr_scan", "android": "https://dc.lft.to/lastmile_qr_scan"}, "lon": -77.02485966666667, "type": "electric_scooter", "fusion_lat": 0.0, "lat": 38.94182683333333, "name": "7f94a9ee19da50082bc870e822ddadc1", "fusion_lon": 0.0, "bike_id": "7f94a9ee19da50082bc870e822ddadc1", "is_disabled": 0, "is_reserved": 0}, {"rental_uris": {"ios": "https://dc.lft.to/lastmile_qr_scan", "android": "https://dc.lft.to/lastmile_qr_scan"}, "lon": -77.0386715, "type": "electric_scooter", "fusion_lat": 0.0, "lat": 38.942013, "name": "b4fb6bc6359f1d587263e92bb8c251bb", "fusion_lon": 0.0, "bike_id": "b4fb6bc6359f1d587263e92bb8c251bb", "is_disabled": 0, "is_reserved": 0}, {"rental_uris": {"ios": "https://dc.lft.to/lastmile_qr_scan", "android": "https://dc.lft.to/lastmile_qr_scan"}, "lon": -77.032268, "type": "electric_scooter", "fusion_lat": 0.0, "lat": 38.9125525, "name": "c8d456732d54547db0c68b43d237b111", "fusion_lon": 0.0, "bike_id": "c8d456732d54547db0c68b43d237b111", "is_disabled": 0, "is_reserved": 0}, {"rental_uris": {"ios": "https://dc.lft.to/lastmile_qr_scan", "android": "https://dc.lft.to/lastmile_qr_scan"}, "lon": -77.0059565, "type": "electric_scooter", "fusion_lat": 0.0, "lat": 38.90583983333333, "name": "53e8bf1bb4ae16eae4a03963fbfe537e", "fusion_lon": 0.0, "bike_id": "53e8bf1bb4ae16eae4a03963fbfe537e", "is_disabled": 0, "is_reserved": 0}, {"rental_uris": {"ios": "https://dc.lft.to/lastmile_qr_scan", "android": "https://dc.lft.to/lastmile_qr_scan"}, "lon": -77.0488465, "type": "electric_scooter", "fusion_lat": 0.0, "lat": 38.90604283333333, "name": "508b36392c431596b5fab50d587a92b8", "fusion_lon": 0.0, "bike_id": "508b36392c431596b5fab50d587a92b8", "is_disabled": 0, "is_reserved": 0}, {"rental_uris": {"ios": "https://dc.lft.to/lastmile_qr_scan", "android": "https://dc.lft.to/lastmile_qr_scan"}, "lon": -77.03873016666667, "type": "electric_scooter", "fusion_lat": 0.0, "lat": 38.91564833333333, "name": "6bba3eb6a50f4a04a0428587043d4df3", "fusion_lon": 0.0, "bike_id": "6bba3eb6a50f4a04a0428587043d4df3", "is_disabled": 0, "is_reserved": 0}, {"rental_uris": {"ios": "https://dc.lft.to/lastmile_qr_scan", "android": "https://dc.lft.to/lastmile_qr_scan"}, "lon": -76.98059883333333, "type": "electric_scooter", "fusion_lat": 0.0, "lat": 38.88532566666667, "name": "7ea35dd1f18eb4c77603fbd3899bd9b0", "fusion_lon": 0.0, "bike_id": "7ea35dd1f18eb4c77603fbd3899bd9b0", "is_disabled": 0, "is_reserved": 0}, {"rental_uris": {"ios": "https://dc.lft.to/lastmile_qr_scan", "android": "https://dc.lft.to/lastmile_qr_scan"}, "lon": -77.04244366666667, "type": "electric_scooter", "fusion_lat": 0.0, "lat": 38.921504, "name": "77ae1d5bfe7a7a36a89f087f4055c913", "fusion_lon": 0.0, "bike_id": "77ae1d5bfe7a7a36a89f087f4055c913", "is_disabled": 0, "is_reserved": 0}, {"rental_uris": {"ios": "https://dc.lft.to/lastmile_qr_scan", "android": "https://dc.lft.to/lastmile_qr_scan"}, "lon": -77.06118533333333, "type": "electric_scooter", "fusion_lat": 0.0, "lat": 38.912959666666666, "name": "c8dec9a3d492448b51a25bab8cf4ee91", "fusion_lon": 0.0, "bike_id": "c8dec9a3d492448b51a25bab8cf4ee91", "is_disabled": 0, "is_reserved": 0}, {"rental_uris": {"ios": "https://dc.lft.to/lastmile_qr_scan", "android": "https://dc.lft.to/lastmile_qr_scan"}, "lon": -77.03668416666666, "type": "electric_scooter", "fusion_lat": 0.0, "lat": 38.917078333333336, "name": "21ba1ac06de181c01d5a867131927fff", "fusion_lon": 0.0, "bike_id": "21ba1ac06de181c01d5a867131927fff", "is_disabled": 0, "is_reserved": 0}, {"rental_uris": {"ios": "https://dc.lft.to/lastmile_qr_scan", "android": "https://dc.lft.to/lastmile_qr_scan"}, "lon": -77.0640525, "type": "electric_bike", "fusion_lat": 0.0, "lat": 38.8434725, "name": "49086e6cf1c5146a218c60895762e9c6", "fusion_lon": 0.0, "bike_id": "49086e6cf1c5146a218c60895762e9c6", "is_disabled": 0, "is_reserved": 0}, {"rental_uris": {"ios": "https://dc.lft.to/lastmile_qr_scan", "android": "https://dc.lft.to/lastmile_qr_scan"}, "lon": -77.05379016666667, "type": "electric_scooter", "fusion_lat": 0.0, "lat": 38.902242333333334, "name": "554652d17d41f9fad362a9acf35e432f", "fusion_lon": 0.0, "bike_id": "554652d17d41f9fad362a9acf35e432f", "is_disabled": 0, "is_reserved": 0}, {"rental_uris": {"ios": "https://dc.lft.to/lastmile_qr_scan", "android": "https://dc.lft.to/lastmile_qr_scan"}, "lon": -76.992767, "type": "electric_scooter", "fusion_lat": 0.0, "lat": 38.9213435, "name": "67210ab2d1104a8fd99c1b39d9f6860b", "fusion_lon": 0.0, "bike_id": "67210ab2d1104a8fd99c1b39d9f6860b", "is_disabled": 0, "is_reserved": 0}, {"rental_uris": {"ios": "https://dc.lft.to/lastmile_qr_scan", "android": "https://dc.lft.to/lastmile_qr_scan"}, "lon": -77.0268305, "type": "electric_scooter", "fusion_lat": 0.0, "lat": 38.9071835, "name": "e2e6ef9b36cd78a2768df873fb8ece53", "fusion_lon": 0.0, "bike_id": "e2e6ef9b36cd78a2768df873fb8ece53", "is_disabled": 0, "is_reserved": 0}, {"rental_uris": {"ios": "https://dc.lft.to/lastmile_qr_scan", "android": "https://dc.lft.to/lastmile_qr_scan"}, "lon": -76.98876233333333, "type": "electric_scooter", "fusion_lat": 0.0, "lat": 38.832415833333336, "name": "2f892807931f4907379f3e22a8356297", "fusion_lon": 0.0, "bike_id": "2f892807931f4907379f3e22a8356297", "is_disabled": 0, "is_reserved": 0}, {"rental_uris": {"ios": "https://dc.lft.to/lastmile_qr_scan", "android": "https://dc.lft.to/lastmile_qr_scan"}, "lon": -77.0177185, "type": "electric_scooter", "fusion_lat": 0.0, "lat": 38.90572133333333, "name": "099152d59f8f98720d1c19a10b6334b2", "fusion_lon": 0.0, "bike_id": "099152d59f8f98720d1c19a10b6334b2", "is_disabled": 0, "is_reserved": 0}, {"rental_uris": {"ios": "https://dc.lft.to/lastmile_qr_scan", "android": "https://dc.lft.to/lastmile_qr_scan"}, "lon": -76.9967775, "type": "electric_scooter", "fusion_lat": 0.0, "lat": 38.90041266666667, "name": "bbb2008edd3d39f42d8d4a02f00fc899", "fusion_lon": 0.0, "bike_id": "bbb2008edd3d39f42d8d4a02f00fc899", "is_disabled": 0, "is_reserved": 0}, {"rental_uris": {"ios": "https://dc.lft.to/lastmile_qr_scan", "android": "https://dc.lft.to/lastmile_qr_scan"}, "lon": -76.98587233333333, "type": "electric_scooter", "fusion_lat": 0.0, "lat": 38.8992275, "name": "e21662d5fa2745aed661760e59919fbe", "fusion_lon": 0.0, "bike_id": "e21662d5fa2745aed661760e59919fbe", "is_disabled": 0, "is_reserved": 0}, {"rental_uris": {"ios": "https://dc.lft.to/lastmile_qr_scan", "android": "https://dc.lft.to/lastmile_qr_scan"}, "lon": -77.0481755, "type": "electric_scooter", "fusion_lat": 0.0, "lat": 38.92036133333333, "name": "7382d0dd103df0fd518b9ef141210490", "fusion_lon": 0.0, "bike_id": "7382d0dd103df0fd518b9ef141210490", "is_disabled": 0, "is_reserved": 0}, {"rental_uris": {"ios": "https://dc.lft.to/lastmile_qr_scan", "android": "https://dc.lft.to/lastmile_qr_scan"}, "lon": -77.00076383333334, "type": "electric_scooter", "fusion_lat": 0.0, "lat": 38.92551533333334, "name": "4c28774373f2fd67dd27a5f91b861a32", "fusion_lon": 0.0, "bike_id": "4c28774373f2fd67dd27a5f91b861a32", "is_disabled": 0, "is_reserved": 0}, {"rental_uris": {"ios": "https://dc.lft.to/lastmile_qr_scan", "android": "https://dc.lft.to/lastmile_qr_scan"}, "lon": -77.005646, "type": "electric_scooter", "fusion_lat": 0.0, "lat": 38.90558516666667, "name": "952eb7a9c2545d0cf01c0dacbe6f6375", "fusion_lon": 0.0, "bike_id": "952eb7a9c2545d0cf01c0dacbe6f6375", "is_disabled": 0, "is_reserved": 0}, {"rental_uris": {"ios": "https://dc.lft.to/lastmile_qr_scan", "android": "https://dc.lft.to/lastmile_qr_scan"}, "lon": -77.02340333333333, "type": "electric_scooter", "fusion_lat": 0.0, "lat": 38.930484166666666, "name": "71216fe97ce4e6f46b03a79b74e7ad2b", "fusion_lon": 0.0, "bike_id": "71216fe97ce4e6f46b03a79b74e7ad2b", "is_disabled": 0, "is_reserved": 0}, {"rental_uris": {"ios": "https://dc.lft.to/lastmile_qr_scan", "android": "https://dc.lft.to/lastmile_qr_scan"}, "lon": -77.04012266666666, "type": "electric_scooter", "fusion_lat": 0.0, "lat": 38.932556166666664, "name": "35458ab5a944a427d7ae95a0d22984d8", "fusion_lon": 0.0, "bike_id": "35458ab5a944a427d7ae95a0d22984d8", "is_disabled": 0, "is_reserved": 0}, {"rental_uris": {"ios": "https://dc.lft.to/lastmile_qr_scan", "android": "https://dc.lft.to/lastmile_qr_scan"}, "lon": -77.03725516666667, "type": "electric_scooter", "fusion_lat": 0.0, "lat": 38.910437333333334, "name": "503b043d9be627ed2df4d32a7e31f4a6", "fusion_lon": 0.0, "bike_id": "503b043d9be627ed2df4d32a7e31f4a6", "is_disabled": 0, "is_reserved": 0}, {"rental_uris": {"ios": "https://dc.lft.to/lastmile_qr_scan", "android": "https://dc.lft.to/lastmile_qr_scan"}, "lon": -77.02117816666667, "type": "electric_scooter", "fusion_lat": 0.0, "lat": 38.914136666666664, "name": "54bc11a1fd8356849e830dc8d8b2af5c", "fusion_lon": 0.0, "bike_id": "54bc11a1fd8356849e830dc8d8b2af5c", "is_disabled": 0, "is_reserved": 0}, {"rental_uris": {"ios": "https://dc.lft.to/lastmile_qr_scan", "android": "https://dc.lft.to/lastmile_qr_scan"}, "lon": -77.02351233333333, "type": "electric_scooter", "fusion_lat": 0.0, "lat": 38.93377233333333, "name": "eff8a6ca2a087bf10e40b1ce71b61fda", "fusion_lon": 0.0, "bike_id": "eff8a6ca2a087bf10e40b1ce71b61fda", "is_disabled": 0, "is_reserved": 0}, {"rental_uris": {"ios": "https://dc.lft.to/lastmile_qr_scan", "android": "https://dc.lft.to/lastmile_qr_scan"}, "lon": -76.9987575, "type": "electric_scooter", "fusion_lat": 0.0, "lat": 38.900322333333335, "name": "cfb851d5491c6d000217727aa9f04313", "fusion_lon": 0.0, "bike_id": "cfb851d5491c6d000217727aa9f04313", "is_disabled": 0, "is_reserved": 0}, {"rental_uris": {"ios": "https://dc.lft.to/lastmile_qr_scan", "android": "https://dc.lft.to/lastmile_qr_scan"}, "lon": -76.98088733333333, "type": "electric_bike", "fusion_lat": 0.0, "lat": 38.9029465, "name": "b5adf48d82e48626cb5c53b8dac9c122", "fusion_lon": 0.0, "bike_id": "b5adf48d82e48626cb5c53b8dac9c122", "is_disabled": 0, "is_reserved": 0}, {"rental_uris": {"ios": "https://dc.lft.to/lastmile_qr_scan", "android": "https://dc.lft.to/lastmile_qr_scan"}, "lon": -77.0034455, "type": "electric_scooter", "fusion_lat": 0.0, "lat": 38.9133785, "name": "600678847ebe87ea6c72a7e3145f562c", "fusion_lon": 0.0, "bike_id": "600678847ebe87ea6c72a7e3145f562c", "is_disabled": 0, "is_reserved": 0}, {"rental_uris": {"ios": "https://dc.lft.to/lastmile_qr_scan", "android": "https://dc.lft.to/lastmile_qr_scan"}, "lon": -77.079001, "type": "electric_bike", "fusion_lat": 0.0, "lat": 38.839341833333336, "name": "ab085920c655b0d39c2ca211dbb02dc3", "fusion_lon": 0.0, "bike_id": "ab085920c655b0d39c2ca211dbb02dc3", "is_disabled": 0, "is_reserved": 0}, {"rental_uris": {"ios": "https://dc.lft.to/lastmile_qr_scan", "android": "https://dc.lft.to/lastmile_qr_scan"}, "lon": -77.006544, "type": "electric_scooter", "fusion_lat": 0.0, "lat": 38.87638533333333, "name": "3b6c93e006e329b84024159b1474c60a", "fusion_lon": 0.0, "bike_id": "3b6c93e006e329b84024159b1474c60a", "is_disabled": 0, "is_reserved": 0}, {"rental_uris": {"ios": "https://dc.lft.to/lastmile_qr_scan", "android": "https://dc.lft.to/lastmile_qr_scan"}, "lon": -77.02479283333334, "type": "electric_scooter", "fusion_lat": 0.0, "lat": 38.9386425, "name": "ad333b9b403445d8c8177eb4b564f30a", "fusion_lon": 0.0, "bike_id": "ad333b9b403445d8c8177eb4b564f30a", "is_disabled": 0, "is_reserved": 0}, {"rental_uris": {"ios": "https://dc.lft.to/lastmile_qr_scan", "android": "https://dc.lft.to/lastmile_qr_scan"}, "lon": -76.93623716666667, "type": "electric_bike", "fusion_lat": 0.0, "lat": 38.970569, "name": "5048adbb8f3a3c523ef6818f68e9cca3", "fusion_lon": 0.0, "bike_id": "5048adbb8f3a3c523ef6818f68e9cca3", "is_disabled": 0, "is_reserved": 0}, {"rental_uris": {"ios": "https://dc.lft.to/lastmile_qr_scan", "android": "https://dc.lft.to/lastmile_qr_scan"}, "lon": -77.0019075, "type": "electric_scooter", "fusion_lat": 0.0, "lat": 38.911954333333334, "name": "912fa8e036520b89d9ae1a45cd1c7fe4", "fusion_lon": 0.0, "bike_id": "912fa8e036520b89d9ae1a45cd1c7fe4", "is_disabled": 0, "is_reserved": 0}, {"rental_uris": {"ios": "https://dc.lft.to/lastmile_qr_scan", "android": "https://dc.lft.to/lastmile_qr_scan"}, "lon": -76.94429633333333, "type": "electric_scooter", "fusion_lat": 0.0, "lat": 38.897959, "name": "4bceae33b2ea7cab2b41c90078883c9a", "fusion_lon": 0.0, "bike_id": "4bceae33b2ea7cab2b41c90078883c9a", "is_disabled": 0, "is_reserved": 0}, {"rental_uris": {"ios": "https://dc.lft.to/lastmile_qr_scan", "android": "https://dc.lft.to/lastmile_qr_scan"}, "lon": -76.98351683333334, "type": "electric_scooter", "fusion_lat": 0.0, "lat": 38.915336333333336, "name": "9750bcd2f6d475b3e7b9a72e3f4a4d23", "fusion_lon": 0.0, "bike_id": "9750bcd2f6d475b3e7b9a72e3f4a4d23", "is_disabled": 0, "is_reserved": 0}, {"rental_uris": {"ios": "https://dc.lft.to/lastmile_qr_scan", "android": "https://dc.lft.to/lastmile_qr_scan"}, "lon": -77.042148, "type": "electric_scooter", "fusion_lat": 0.0, "lat": 38.921168, "name": "300fd5ed38db6dd9ffc0cfddd0b94f67", "fusion_lon": 0.0, "bike_id": "300fd5ed38db6dd9ffc0cfddd0b94f67", "is_disabled": 0, "is_reserved": 0}, {"rental_uris": {"ios": "https://dc.lft.to/lastmile_qr_scan", "android": "https://dc.lft.to/lastmile_qr_scan"}, "lon": -77.06492933333334, "type": "electric_bike", "fusion_lat": 0.0, "lat": 38.964949833333336, "name": "9a6a34c52beaf27cbf9c04c7ad94f04f", "fusion_lon": 0.0, "bike_id": "9a6a34c52beaf27cbf9c04c7ad94f04f", "is_disabled": 0, "is_reserved": 0}, {"rental_uris": {"ios": "https://dc.lft.to/lastmile_qr_scan", "android": "https://dc.lft.to/lastmile_qr_scan"}, "lon": -77.03457366666666, "type": "electric_scooter", "fusion_lat": 0.0, "lat": 38.91875833333334, "name": "096d390f5a736a8835484b86b8831aa5", "fusion_lon": 0.0, "bike_id": "096d390f5a736a8835484b86b8831aa5", "is_disabled": 0, "is_reserved": 0}, {"rental_uris": {"ios": "https://dc.lft.to/lastmile_qr_scan", "android": "https://dc.lft.to/lastmile_qr_scan"}, "lon": -77.02216383333334, "type": "electric_scooter", "fusion_lat": 0.0, "lat": 38.905359, "name": "f9b38fe5b2ac73c64708b3ea056345a6", "fusion_lon": 0.0, "bike_id": "f9b38fe5b2ac73c64708b3ea056345a6", "is_disabled": 0, "is_reserved": 0}, {"rental_uris": {"ios": "https://dc.lft.to/lastmile_qr_scan", "android": "https://dc.lft.to/lastmile_qr_scan"}, "lon": -77.03126783333333, "type": "electric_scooter", "fusion_lat": 0.0, "lat": 38.923742833333336, "name": "2968e4c2f63a6fcb88a231e1d29c30a0", "fusion_lon": 0.0, "bike_id": "2968e4c2f63a6fcb88a231e1d29c30a0", "is_disabled": 0, "is_reserved": 0}, {"rental_uris": {"ios": "https://dc.lft.to/lastmile_qr_scan", "android": "https://dc.lft.to/lastmile_qr_scan"}, "lon": -77.04144766666667, "type": "electric_scooter", "fusion_lat": 0.0, "lat": 38.92297516666667, "name": "c534890d7b3d80c6062000c04f39f07c", "fusion_lon": 0.0, "bike_id": "c534890d7b3d80c6062000c04f39f07c", "is_disabled": 0, "is_reserved": 0}, {"rental_uris": {"ios": "https://dc.lft.to/lastmile_qr_scan", "android": "https://dc.lft.to/lastmile_qr_scan"}, "lon": -77.03229583333334, "type": "electric_scooter", "fusion_lat": 0.0, "lat": 38.92668, "name": "1ac7c967e8820322bffa5dc9202794d3", "fusion_lon": 0.0, "bike_id": "1ac7c967e8820322bffa5dc9202794d3", "is_disabled": 0, "is_reserved": 0}, {"rental_uris": {"ios": "https://dc.lft.to/lastmile_qr_scan", "android": "https://dc.lft.to/lastmile_qr_scan"}, "lon": -76.993824, "type": "electric_scooter", "fusion_lat": 0.0, "lat": 38.88747683333333, "name": "dd0720c17695fb324d4918d193c567f8", "fusion_lon": 0.0, "bike_id": "dd0720c17695fb324d4918d193c567f8", "is_disabled": 0, "is_reserved": 0}, {"rental_uris": {"ios": "https://dc.lft.to/lastmile_qr_scan", "android": "https://dc.lft.to/lastmile_qr_scan"}, "lon": -77.03484533333334, "type": "electric_scooter", "fusion_lat": 0.0, "lat": 38.930394666666665, "name": "91109de9fa8602fce3222dd88f2e2902", "fusion_lon": 0.0, "bike_id": "91109de9fa8602fce3222dd88f2e2902", "is_disabled": 0, "is_reserved": 0}, {"rental_uris": {"ios": "https://dc.lft.to/lastmile_qr_scan", "android": "https://dc.lft.to/lastmile_qr_scan"}, "lon": -77.04531266666666, "type": "electric_scooter", "fusion_lat": 0.0, "lat": 38.90386483333333, "name": "f01a522ec85fbc4f16bd4fc02dc1cb6e", "fusion_lon": 0.0, "bike_id": "f01a522ec85fbc4f16bd4fc02dc1cb6e", "is_disabled": 0, "is_reserved": 0}, {"rental_uris": {"ios": "https://dc.lft.to/lastmile_qr_scan", "android": "https://dc.lft.to/lastmile_qr_scan"}, "lon": -77.00561733333333, "type": "electric_scooter", "fusion_lat": 0.0, "lat": 38.903432, "name": "1fead5b4a2345a73845b689642343de1", "fusion_lon": 0.0, "bike_id": "1fead5b4a2345a73845b689642343de1", "is_disabled": 0, "is_reserved": 0}, {"rental_uris": {"ios": "https://dc.lft.to/lastmile_qr_scan", "android": "https://dc.lft.to/lastmile_qr_scan"}, "lon": -77.02689933333333, "type": "electric_scooter", "fusion_lat": 0.0, "lat": 38.92602616666667, "name": "bea78238297dbe392b3c80fe9f266c1b", "fusion_lon": 0.0, "bike_id": "bea78238297dbe392b3c80fe9f266c1b", "is_disabled": 0, "is_reserved": 0}, {"rental_uris": {"ios": "https://dc.lft.to/lastmile_qr_scan", "android": "https://dc.lft.to/lastmile_qr_scan"}, "lon": -77.028385, "type": "electric_scooter", "fusion_lat": 0.0, "lat": 38.93190516666667, "name": "c62774166eb4a789d1105987becf7fea", "fusion_lon": 0.0, "bike_id": "c62774166eb4a789d1105987becf7fea", "is_disabled": 0, "is_reserved": 0}, {"rental_uris": {"ios": "https://dc.lft.to/lastmile_qr_scan", "android": "https://dc.lft.to/lastmile_qr_scan"}, "lon": -77.024779, "type": "electric_scooter", "fusion_lat": 0.0, "lat": 38.93095316666667, "name": "dae1072b35ebde9d0009b2e623f2e061", "fusion_lon": 0.0, "bike_id": "dae1072b35ebde9d0009b2e623f2e061", "is_disabled": 0, "is_reserved": 0}, {"rental_uris": {"ios": "https://dc.lft.to/lastmile_qr_scan", "android": "https://dc.lft.to/lastmile_qr_scan"}, "lon": -77.01131083333334, "type": "electric_scooter", "fusion_lat": 0.0, "lat": 38.895466166666665, "name": "02690d4fc73a73ad1f8468ea705d4c73", "fusion_lon": 0.0, "bike_id": "02690d4fc73a73ad1f8468ea705d4c73", "is_disabled": 0, "is_reserved": 0}, {"rental_uris": {"ios": "https://dc.lft.to/lastmile_qr_scan", "android": "https://dc.lft.to/lastmile_qr_scan"}, "lon": -77.08195833333333, "type": "electric_scooter", "fusion_lat": 0.0, "lat": 38.94928266666667, "name": "c1361eff8f8bc18dd2cdd89fe2d67107", "fusion_lon": 0.0, "bike_id": "c1361eff8f8bc18dd2cdd89fe2d67107", "is_disabled": 0, "is_reserved": 0}, {"rental_uris": {"ios": "https://dc.lft.to/lastmile_qr_scan", "android": "https://dc.lft.to/lastmile_qr_scan"}, "lon": -76.90816566666666, "type": "electric_bike", "fusion_lat": 0.0, "lat": 38.9945425, "name": "0b782b718069c146f0cf2fcd0c085d01", "fusion_lon": 0.0, "bike_id": "0b782b718069c146f0cf2fcd0c085d01", "is_disabled": 0, "is_reserved": 0}, {"rental_uris": {"ios": "https://dc.lft.to/lastmile_qr_scan", "android": "https://dc.lft.to/lastmile_qr_scan"}, "lon": -76.9893825, "type": "electric_bike", "fusion_lat": 0.0, "lat": 38.928588500000004, "name": "4a9d7aabae9ff463785f46c5cc819265", "fusion_lon": 0.0, "bike_id": "4a9d7aabae9ff463785f46c5cc819265", "is_disabled": 0, "is_reserved": 0}, {"rental_uris": {"ios": "https://dc.lft.to/lastmile_qr_scan", "android": "https://dc.lft.to/lastmile_qr_scan"}, "lon": -76.96057866666666, "type": "electric_bike", "fusion_lat": 0.0, "lat": 38.884039333333334, "name": "37f1dc27b3a4836d24f7a4e64d9b652c", "fusion_lon": 0.0, "bike_id": "37f1dc27b3a4836d24f7a4e64d9b652c", "is_disabled": 0, "is_reserved": 0}, {"rental_uris": {"ios": "https://dc.lft.to/lastmile_qr_scan", "android": "https://dc.lft.to/lastmile_qr_scan"}, "lon": -77.04819666666667, "type": "electric_scooter", "fusion_lat": 0.0, "lat": 38.913348, "name": "b4775917e836bffe7e563d447b949a7e", "fusion_lon": 0.0, "bike_id": "b4775917e836bffe7e563d447b949a7e", "is_disabled": 0, "is_reserved": 0}, {"rental_uris": {"ios": "https://dc.lft.to/lastmile_qr_scan", "android": "https://dc.lft.to/lastmile_qr_scan"}, "lon": -77.01569583333334, "type": "electric_scooter", "fusion_lat": 0.0, "lat": 38.90015233333333, "name": "5e9c2764b4c5d893e42edbf2bbfaa243", "fusion_lon": 0.0, "bike_id": "5e9c2764b4c5d893e42edbf2bbfaa243", "is_disabled": 0, "is_reserved": 0}, {"rental_uris": {"ios": "https://dc.lft.to/lastmile_qr_scan", "android": "https://dc.lft.to/lastmile_qr_scan"}, "lon": -77.0633255, "type": "electric_bike", "fusion_lat": 0.0, "lat": 38.92107816666667, "name": "ee09dd5c5a81688627db77f06521ff60", "fusion_lon": 0.0, "bike_id": "ee09dd5c5a81688627db77f06521ff60", "is_disabled": 0, "is_reserved": 0}, {"rental_uris": {"ios": "https://dc.lft.to/lastmile_qr_scan", "android": "https://dc.lft.to/lastmile_qr_scan"}, "lon": -77.032221, "type": "electric_scooter", "fusion_lat": 0.0, "lat": 38.916925, "name": "200fa59911c26a31ce8c6db3ef993bcc", "fusion_lon": 0.0, "bike_id": "200fa59911c26a31ce8c6db3ef993bcc", "is_disabled": 0, "is_reserved": 0}, {"rental_uris": {"ios": "https://dc.lft.to/lastmile_qr_scan", "android": "https://dc.lft.to/lastmile_qr_scan"}, "lon": -77.04825166666667, "type": "electric_scooter", "fusion_lat": 0.0, "lat": 38.907902666666665, "name": "48b149748a43fa147ebb8382d521560f", "fusion_lon": 0.0, "bike_id": "48b149748a43fa147ebb8382d521560f", "is_disabled": 0, "is_reserved": 0}, {"rental_uris": {"ios": "https://dc.lft.to/lastmile_qr_scan", "android": "https://dc.lft.to/lastmile_qr_scan"}, "lon": -77.02173716666667, "type": "electric_scooter", "fusion_lat": 0.0, "lat": 38.9429375, "name": "b51f3cab798f970eaf23723138198eaf", "fusion_lon": 0.0, "bike_id": "b51f3cab798f970eaf23723138198eaf", "is_disabled": 0, "is_reserved": 0}, {"rental_uris": {"ios": "https://dc.lft.to/lastmile_qr_scan", "android": "https://dc.lft.to/lastmile_qr_scan"}, "lon": -76.9463435, "type": "electric_scooter", "fusion_lat": 0.0, "lat": 38.89842216666667, "name": "dc5a7cb9f402210e396f899f4ec86120", "fusion_lon": 0.0, "bike_id": "dc5a7cb9f402210e396f899f4ec86120", "is_disabled": 0, "is_reserved": 0}, {"rental_uris": {"ios": "https://dc.lft.to/lastmile_qr_scan", "android": "https://dc.lft.to/lastmile_qr_scan"}, "lon": -77.01371633333333, "type": "electric_scooter", "fusion_lat": 0.0, "lat": 38.863705, "name": "924b1f655ee462fba9f0819cc1e9b407", "fusion_lon": 0.0, "bike_id": "924b1f655ee462fba9f0819cc1e9b407", "is_disabled": 0, "is_reserved": 0}, {"rental_uris": {"ios": "https://dc.lft.to/lastmile_qr_scan", "android": "https://dc.lft.to/lastmile_qr_scan"}, "lon": -77.05863116666667, "type": "electric_scooter", "fusion_lat": 0.0, "lat": 38.93604916666666, "name": "8ad22c35c0042495ec7b433e750f05b3", "fusion_lon": 0.0, "bike_id": "8ad22c35c0042495ec7b433e750f05b3", "is_disabled": 0, "is_reserved": 0}, {"rental_uris": {"ios": "https://dc.lft.to/lastmile_qr_scan", "android": "https://dc.lft.to/lastmile_qr_scan"}, "lon": -77.0604595, "type": "electric_scooter", "fusion_lat": 0.0, "lat": 38.93912516666666, "name": "eef210bf3b884ca2098652ff48c047e4", "fusion_lon": 0.0, "bike_id": "eef210bf3b884ca2098652ff48c047e4", "is_disabled": 0, "is_reserved": 0}, {"rental_uris": {"ios": "https://dc.lft.to/lastmile_qr_scan", "android": "https://dc.lft.to/lastmile_qr_scan"}, "lon": -77.03589483333333, "type": "electric_scooter", "fusion_lat": 0.0, "lat": 38.93235516666667, "name": "88be1896ff36639f2c67456c3595a8e0", "fusion_lon": 0.0, "bike_id": "88be1896ff36639f2c67456c3595a8e0", "is_disabled": 0, "is_reserved": 0}, {"rental_uris": {"ios": "https://dc.lft.to/lastmile_qr_scan", "android": "https://dc.lft.to/lastmile_qr_scan"}, "lon": -77.013433, "type": "electric_bike", "fusion_lat": 0.0, "lat": 38.99996266666667, "name": "85f36cb063ef5a961d9d6a1fa5d93dea", "fusion_lon": 0.0, "bike_id": "85f36cb063ef5a961d9d6a1fa5d93dea", "is_disabled": 0, "is_reserved": 0}, {"rental_uris": {"ios": "https://dc.lft.to/lastmile_qr_scan", "android": "https://dc.lft.to/lastmile_qr_scan"}, "lon": -77.03464916666667, "type": "electric_scooter", "fusion_lat": 0.0, "lat": 38.921546166666666, "name": "cd156c78ca252e651355d61baf23e8a2", "fusion_lon": 0.0, "bike_id": "cd156c78ca252e651355d61baf23e8a2", "is_disabled": 0, "is_reserved": 0}, {"rental_uris": {"ios": "https://dc.lft.to/lastmile_qr_scan", "android": "https://dc.lft.to/lastmile_qr_scan"}, "lon": -77.02879083333333, "type": "electric_scooter", "fusion_lat": 0.0, "lat": 38.904344333333334, "name": "dc1ac24f93db14fb240de9640e390e4f", "fusion_lon": 0.0, "bike_id": "dc1ac24f93db14fb240de9640e390e4f", "is_disabled": 0, "is_reserved": 0}, {"rental_uris": {"ios": "https://dc.lft.to/lastmile_qr_scan", "android": "https://dc.lft.to/lastmile_qr_scan"},