{"data": {"bikes": [{"bike_id": "5223c13bf52bad76526fb89f3a303f22", "type": "electric_scooter", "is_disabled": 0, "lat": 38.919754, "rental_uris": {"ios": "https://dc.lft.to/lastmile_qr_scan", "android": "https://dc.lft.to/lastmile_qr_scan"}, "is_reserved": 0, "fusion_lon": 0.0, "fusion_lat": 0.0, "lon": -77.03188516666667, "name": "5223c13bf52bad76526fb89f3a303f22"}, {"bike_id": "3c485dddaa73c38143e7c20e5ffd956c", "type": "electric_scooter", "is_disabled": 0, "lat": 38.92322716666666, "rental_uris": {"ios": "https://dc.lft.to/lastmile_qr_scan", "android": "https://dc.lft.to/lastmile_qr_scan"}, "is_reserved": 0, "fusion_lon": 0.0, "fusion_lat": 0.0, "lon": -77.021323, "name": "3c485dddaa73c38143e7c20e5ffd956c"}, {"bike_id": "7837158ae3fbcfa481a506e7211d18ce", "type": "electric_scooter", "is_disabled": 0, "lat": 38.92170216666667, "rental_uris": {"ios": "https://dc.lft.to/lastmile_qr_scan", "android": "https://dc.lft.to/lastmile_qr_scan"}, "is_reserved": 0, "fusion_lon": 0.0, "fusion_lat": 0.0, "lon": -77.01914383333333, "name": "7837158ae3fbcfa481a506e7211d18ce"}, {"bike_id": "2c7823b1031d8394109f5510da89ff60", "type": "electric_scooter", "is_disabled": 0, "lat": 38.89046283333333, "rental_uris": {"ios": "https://dc.lft.to/lastmile_qr_scan", "android": "https://dc.lft.to/lastmile_qr_scan"}, "is_reserved": 0, "fusion_lon": 0.0, "fusion_lat": 0.0, "lon": -77.01510066666667, "name": "2c7823b1031d8394109f5510da89ff60"}, {"bike_id": "8671e95cc39e4b54a696e58ad5deb985", "type": "electric_scooter", "is_disabled": 0, "lat": 38.95735483333333, "rental_uris": {"ios": "https://dc.lft.to/lastmile_qr_scan", "android": "https://dc.lft.to/lastmile_qr_scan"}, "is_reserved": 0, "fusion_lon": 0.0, "fusion_lat": 0.0, "lon": -77.024044, "name": "8671e95cc39e4b54a696e58ad5deb985"}, {"bike_id": "fc1490827a92333794e78ec538548394", "type": "electric_scooter", "is_disabled": 0, "lat": 38.905116166666666, "rental_uris": {"ios": "https://dc.lft.to/lastmile_qr_scan", "android": "https://dc.lft.to/lastmile_qr_scan"}, "is_reserved": 0, "fusion_lon": 0.0, "fusion_lat": 0.0, "lon": -77.025155, "name": "fc1490827a92333794e78ec538548394"}, {"bike_id": "d9d1a876cdf71791d6a5a6ef4ed26cd6", "type": "electric_scooter", "is_disabled": 0, "lat": 38.864535000000004, "rental_uris": {"ios": "https://dc.lft.to/lastmile_qr_scan", "android": "https://dc.lft.to/lastmile_qr_scan"}, "is_reserved": 0, "fusion_lon": 0.0, "fusion_lat": 0.0, "lon": -77.01266516666666, "name": "d9d1a876cdf71791d6a5a6ef4ed26cd6"}, {"bike_id": "5ec7a3011cf9d711d985da403eee973f", "type": "electric_scooter", "is_disabled": 0, "lat": 38.91818933333333, "rental_uris": {"ios": "https://dc.lft.to/lastmile_qr_scan", "android": "https://dc.lft.to/lastmile_qr_scan"}, "is_reserved": 0, "fusion_lon": 0.0, "fusion_lat": 0.0, "lon": -77.03130233333333, "name": "5ec7a3011cf9d711d985da403eee973f"}, {"bike_id": "77a168519363bb46317e7fda3a85a103", "type": "electric_scooter", "is_disabled": 0, "lat": 38.90410933333333, "rental_uris": {"ios": "https://dc.lft.to/lastmile_qr_scan", "android": "https://dc.lft.to/lastmile_qr_scan"}, "is_reserved": 0, "fusion_lon": 0.0, "fusion_lat": 0.0, "lon": -76.97329566666667, "name": "77a168519363bb46317e7fda3a85a103"}, {"bike_id": "ad140afff2e6302885c707f7c1661bc8", "type": "electric_scooter", "is_disabled": 0, "lat": 38.923714, "rental_uris": {"ios": "https://dc.lft.to/lastmile_qr_scan", "android": "https://dc.lft.to/lastmile_qr_scan"}, "is_reserved": 0, "fusion_lon": 0.0, "fusion_lat": 0.0, "lon": -77.02534983333334, "name": "ad140afff2e6302885c707f7c1661bc8"}, {"bike_id": "6583283cd9bf44ba528953aba379007c", "type": "electric_scooter", "is_disabled": 0, "lat": 38.92263033333333, "rental_uris": {"ios": "https://dc.lft.to/lastmile_qr_scan", "android": "https://dc.lft.to/lastmile_qr_scan"}, "is_reserved": 0, "fusion_lon": 0.0, "fusion_lat": 0.0, "lon": -76.99456766666667, "name": "6583283cd9bf44ba528953aba379007c"}, {"bike_id": "c1781af6ac9673281c5fffe185cbc0b9", "type": "electric_scooter", "is_disabled": 0, "lat": 38.9515125, "rental_uris": {"ios": "https://dc.lft.to/lastmile_qr_scan", "android": "https://dc.lft.to/lastmile_qr_scan"}, "is_reserved": 0, "fusion_lon": 0.0, "fusion_lat": 0.0, "lon": -77.01876033333333, "name": "c1781af6ac9673281c5fffe185cbc0b9"}, {"bike_id": "5c2a053e241ac78125bc7c399e97d596", "type": "electric_scooter", "is_disabled": 0, "lat": 38.917070833333334, "rental_uris": {"ios": "https://dc.lft.to/lastmile_qr_scan", "android": "https://dc.lft.to/lastmile_qr_scan"}, "is_reserved": 0, "fusion_lon": 0.0, "fusion_lat": 0.0, "lon": -77.09580916666667, "name": "5c2a053e241ac78125bc7c399e97d596"}, {"bike_id": "f32b8777178a2235fc16d85aefb2fd49", "type": "electric_scooter", "is_disabled": 0, "lat": 38.920612, "rental_uris": {"ios": "https://dc.lft.to/lastmile_qr_scan", "android": "https://dc.lft.to/lastmile_qr_scan"}, "is_reserved": 0, "fusion_lon": 0.0, "fusion_lat": 0.0, "lon": -77.02516516666667, "name": "f32b8777178a2235fc16d85aefb2fd49"}, {"bike_id": "c12bf8e9dcb748e8ee54f8c7657f423e", "type": "electric_scooter", "is_disabled": 0, "lat": 38.914029166666666, "rental_uris": {"ios": "https://dc.lft.to/lastmile_qr_scan", "android": "https://dc.lft.to/lastmile_qr_scan"}, "is_reserved": 0, "fusion_lon": 0.0, "fusion_lat": 0.0, "lon": -77.0322315, "name": "c12bf8e9dcb748e8ee54f8c7657f423e"}, {"bike_id": "94add21063b47e17acaba3e684b7effe", "type": "electric_bike", "is_disabled": 0, "lat": 38.96202533333334, "rental_uris": {"ios": "https://dc.lft.to/lastmile_qr_scan", "android": "https://dc.lft.to/lastmile_qr_scan"}, "is_reserved": 0, "fusion_lon": 0.0, "fusion_lat": 0.0, "lon": -77.02781733333333, "name": "94add21063b47e17acaba3e684b7effe"}, {"bike_id": "40c3d01369ae9bf80979108b5de652a8", "type": "electric_scooter", "is_disabled": 0, "lat": 38.93325466666667, "rental_uris": {"ios": "https://dc.lft.to/lastmile_qr_scan", "android": "https://dc.lft.to/lastmile_qr_scan"}, "is_reserved": 0, "fusion_lon": 0.0, "fusion_lat": 0.0, "lon": -77.03258816666667, "name": "40c3d01369ae9bf80979108b5de652a8"}, {"bike_id": "8be874e6bdbe59fb23fff776bb039692", "type": "electric_scooter", "is_disabled": 0, "lat": 38.90649716666667, "rental_uris": {"ios": "https://dc.lft.to/lastmile_qr_scan", "android": "https://dc.lft.to/lastmile_qr_scan"}, "is_reserved": 0, "fusion_lon": 0.0, "fusion_lat": 0.0, "lon": -77.02496066666667, "name": "8be874e6bdbe59fb23fff776bb039692"}, {"bike_id": "37fd4de589fe7daebe50c52d6876ff9f", "type": "electric_scooter", "is_disabled": 0, "lat": 38.907885666666665, "rental_uris": {"ios": "https://dc.lft.to/lastmile_qr_scan", "android": "https://dc.lft.to/lastmile_qr_scan"}, "is_reserved": 0, "fusion_lon": 0.0, "fusion_lat": 0.0, "lon": -77.03813866666667, "name": "37fd4de589fe7daebe50c52d6876ff9f"}, {"bike_id": "6d5c143051d34be2a51dd1fefdfc903f", "type": "electric_scooter", "is_disabled": 0, "lat": 38.918674333333335, "rental_uris": {"ios": "https://dc.lft.to/lastmile_qr_scan", "android": "https://dc.lft.to/lastmile_qr_scan"}, "is_reserved": 0, "fusion_lon": 0.0, "fusion_lat": 0.0, "lon": -77.07040083333334, "name": "6d5c143051d34be2a51dd1fefdfc903f"}, {"bike_id": "76825883b858d5dc927baaae64f26e5d", "type": "electric_scooter", "is_disabled": 0, "lat": 38.90265316666667, "rental_uris": {"ios": "https://dc.lft.to/lastmile_qr_scan", "android": "https://dc.lft.to/lastmile_qr_scan"}, "is_reserved": 0, "fusion_lon": 0.0, "fusion_lat": 0.0, "lon": -77.00217866666667, "name": "76825883b858d5dc927baaae64f26e5d"}, {"bike_id": "93515a509dc879e967419fb4895cc481", "type": "electric_scooter", "is_disabled": 0, "lat": 38.90032266666667, "rental_uris": {"ios": "https://dc.lft.to/lastmile_qr_scan", "android": "https://dc.lft.to/lastmile_qr_scan"}, "is_reserved": 0, "fusion_lon": 0.0, "fusion_lat": 0.0, "lon": -77.01285966666667, "name": "93515a509dc879e967419fb4895cc481"}, {"bike_id": "2a36568546156cdc3d4812565c601285", "type": "electric_scooter", "is_disabled": 0, "lat": 38.906269333333334, "rental_uris": {"ios": "https://dc.lft.to/lastmile_qr_scan", "android": "https://dc.lft.to/lastmile_qr_scan"}, "is_reserved": 0, "fusion_lon": 0.0, "fusion_lat": 0.0, "lon": -77.0555595, "name": "2a36568546156cdc3d4812565c601285"}, {"bike_id": "4585ef5379d5db3f24037c84414d4691", "type": "electric_bike", "is_disabled": 0, "lat": 38.901426666666666, "rental_uris": {"ios": "https://dc.lft.to/lastmile_qr_scan", "android": "https://dc.lft.to/lastmile_qr_scan"}, "is_reserved": 0, "fusion_lon": 0.0, "fusion_lat": 0.0, "lon": -76.97412733333333, "name": "4585ef5379d5db3f24037c84414d4691"}, {"bike_id": "f9e7bd04725e177360b15c21b04856f4", "type": "electric_scooter", "is_disabled": 0, "lat": 38.92371416666667, "rental_uris": {"ios": "https://dc.lft.to/lastmile_qr_scan", "android": "https://dc.lft.to/lastmile_qr_scan"}, "is_reserved": 0, "fusion_lon": 0.0, "fusion_lat": 0.0, "lon": -77.0412645, "name": "f9e7bd04725e177360b15c21b04856f4"}, {"bike_id": "f459b80b90ba9e81298b276fa6d88a05", "type": "electric_scooter", "is_disabled": 0, "lat": 38.94415266666667, "rental_uris": {"ios": "https://dc.lft.to/lastmile_qr_scan", "android": "https://dc.lft.to/lastmile_qr_scan"}, "is_reserved": 0, "fusion_lon": 0.0, "fusion_lat": 0.0, "lon": -77.0632465, "name": "f459b80b90ba9e81298b276fa6d88a05"}, {"bike_id": "c167e38d1dcff3134f0846c3241fbb83", "type": "electric_scooter", "is_disabled": 0, "lat": 38.9185035, "rental_uris": {"ios": "https://dc.lft.to/lastmile_qr_scan", "android": "https://dc.lft.to/lastmile_qr_scan"}, "is_reserved": 0, "fusion_lon": 0.0, "fusion_lat": 0.0, "lon": -77.038798, "name": "c167e38d1dcff3134f0846c3241fbb83"}, {"bike_id": "2c6c4f2bcaa0e688a022a8a75148d971", "type": "electric_scooter", "is_disabled": 0, "lat": 38.89222616666667, "rental_uris": {"ios": "https://dc.lft.to/lastmile_qr_scan", "android": "https://dc.lft.to/lastmile_qr_scan"}, "is_reserved": 0, "fusion_lon": 0.0, "fusion_lat": 0.0, "lon": -77.02581133333334, "name": "2c6c4f2bcaa0e688a022a8a75148d971"}, {"bike_id": "1b7ddf11f1b04cc70866ad4dce338a59", "type": "electric_scooter", "is_disabled": 0, "lat": 38.91357033333333, "rental_uris": {"ios": "https://dc.lft.to/lastmile_qr_scan", "android": "https://dc.lft.to/lastmile_qr_scan"}, "is_reserved": 0, "fusion_lon": 0.0, "fusion_lat": 0.0, "lon": -77.04497566666667, "name": "1b7ddf11f1b04cc70866ad4dce338a59"}, {"bike_id": "6490468d02d257a8f097dff0e4fd0fda", "type": "electric_bike", "is_disabled": 0, "lat": 39.06295583333333, "rental_uris": {"ios": "https://dc.lft.to/lastmile_qr_scan", "android": "https://dc.lft.to/lastmile_qr_scan"}, "is_reserved": 0, "fusion_lon": 0.0, "fusion_lat": 0.0, "lon": -77.0497965, "name": "6490468d02d257a8f097dff0e4fd0fda"}, {"bike_id": "2b1025d43adb59b3705fb0c4c746685e", "type": "electric_scooter", "is_disabled": 0, "lat": 38.902547, "rental_uris": {"ios": "https://dc.lft.to/lastmile_qr_scan", "android": "https://dc.lft.to/lastmile_qr_scan"}, "is_reserved": 0, "fusion_lon": 0.0, "fusion_lat": 0.0, "lon": -77.03851, "name": "2b1025d43adb59b3705fb0c4c746685e"}, {"bike_id": "38df791e5a413c0ede2b786b67a54ddd", "type": "electric_scooter", "is_disabled": 0, "lat": 38.876763833333335, "rental_uris": {"ios": "https://dc.lft.to/lastmile_qr_scan", "android": "https://dc.lft.to/lastmile_qr_scan"}, "is_reserved": 0, "fusion_lon": 0.0, "fusion_lat": 0.0, "lon": -77.0055655, "name": "38df791e5a413c0ede2b786b67a54ddd"}, {"bike_id": "611ed933e4ccfda82a541f7f25560397", "type": "electric_scooter", "is_disabled": 0, "lat": 38.90152616666666, "rental_uris": {"ios": "https://dc.lft.to/lastmile_qr_scan", "android": "https://dc.lft.to/lastmile_qr_scan"}, "is_reserved": 0, "fusion_lon": 0.0, "fusion_lat": 0.0, "lon": -76.93062016666667, "name": "611ed933e4ccfda82a541f7f25560397"}, {"bike_id": "ed774020c2d56113e50a3e5ea90d838a", "type": "electric_scooter", "is_disabled": 0, "lat": 38.938889, "rental_uris": {"ios": "https://dc.lft.to/lastmile_qr_scan", "android": "https://dc.lft.to/lastmile_qr_scan"}, "is_reserved": 0, "fusion_lon": 0.0, "fusion_lat": 0.0, "lon": -77.02498383333334, "name": "ed774020c2d56113e50a3e5ea90d838a"}, {"bike_id": "d42939b4a8dd5f35292fceaed268aba4", "type": "electric_scooter", "is_disabled": 0, "lat": 38.90491633333333, "rental_uris": {"ios": "https://dc.lft.to/lastmile_qr_scan", "android": "https://dc.lft.to/lastmile_qr_scan"}, "is_reserved": 0, "fusion_lon": 0.0, "fusion_lat": 0.0, "lon": -77.02586816666667, "name": "d42939b4a8dd5f35292fceaed268aba4"}, {"bike_id": "5a88e074ac6cb65d0ec216eca31ad5c0", "type": "electric_scooter", "is_disabled": 0, "lat": 38.90572183333333, "rental_uris": {"ios": "https://dc.lft.to/lastmile_qr_scan", "android": "https://dc.lft.to/lastmile_qr_scan"}, "is_reserved": 0, "fusion_lon": 0.0, "fusion_lat": 0.0, "lon": -77.01649516666667, "name": "5a88e074ac6cb65d0ec216eca31ad5c0"}, {"bike_id": "9ce5571ec8a98bd5295267edd551a9b3", "type": "electric_scooter", "is_disabled": 0, "lat": 38.88390616666667, "rental_uris": {"ios": "https://dc.lft.to/lastmile_qr_scan", "android": "https://dc.lft.to/lastmile_qr_scan"}, "is_reserved": 0, "fusion_lon": 0.0, "fusion_lat": 0.0, "lon": -76.95452183333333, "name": "9ce5571ec8a98bd5295267edd551a9b3"}, {"bike_id": "eebc8b135cab933c1c6db82d96ff1358", "type": "electric_scooter", "is_disabled": 0, "lat": 38.900068166666664, "rental_uris": {"ios": "https://dc.lft.to/lastmile_qr_scan", "android": "https://dc.lft.to/lastmile_qr_scan"}, "is_reserved": 0, "fusion_lon": 0.0, "fusion_lat": 0.0, "lon": -77.01205166666666, "name": "eebc8b135cab933c1c6db82d96ff1358"}, {"bike_id": "894b9c180b7c9389daafd55a36a827e5", "type": "electric_scooter", "is_disabled": 0, "lat": 38.9036405, "rental_uris": {"ios": "https://dc.lft.to/lastmile_qr_scan", "android": "https://dc.lft.to/lastmile_qr_scan"}, "is_reserved": 0, "fusion_lon": 0.0, "fusion_lat": 0.0, "lon": -77.02684383333333, "name": "894b9c180b7c9389daafd55a36a827e5"}, {"bike_id": "6656e41cd1a31d3852039eccd1965dd3", "type": "electric_bike", "is_disabled": 0, "lat": 38.79606783333333, "rental_uris": {"ios": "https://dc.lft.to/lastmile_qr_scan", "android": "https://dc.lft.to/lastmile_qr_scan"}, "is_reserved": 0, "fusion_lon": 0.0, "fusion_lat": 0.0, "lon": -76.99741733333333, "name": "6656e41cd1a31d3852039eccd1965dd3"}, {"bike_id": "300547eae0a783f6e4039559035182a3", "type": "electric_scooter", "is_disabled": 0, "lat": 38.9245325, "rental_uris": {"ios": "https://dc.lft.to/lastmile_qr_scan", "android": "https://dc.lft.to/lastmile_qr_scan"}, "is_reserved": 0, "fusion_lon": 0.0, "fusion_lat": 0.0, "lon": -77.033432, "name": "300547eae0a783f6e4039559035182a3"}, {"bike_id": "99b6cc6e93042f5ceef07b0932c69344", "type": "electric_scooter", "is_disabled": 0, "lat": 38.88677766666667, "rental_uris": {"ios": "https://dc.lft.to/lastmile_qr_scan", "android": "https://dc.lft.to/lastmile_qr_scan"}, "is_reserved": 0, "fusion_lon": 0.0, "fusion_lat": 0.0, "lon": -76.99146416666666, "name": "99b6cc6e93042f5ceef07b0932c69344"}, {"bike_id": "0e4537a9a107ecd05713a55b85cbf407", "type": "electric_scooter", "is_disabled": 0, "lat": 38.88882133333333, "rental_uris": {"ios": "https://dc.lft.to/lastmile_qr_scan", "android": "https://dc.lft.to/lastmile_qr_scan"}, "is_reserved": 0, "fusion_lon": 0.0, "fusion_lat": 0.0, "lon": -76.94786133333334, "name": "0e4537a9a107ecd05713a55b85cbf407"}, {"bike_id": "fd3beb0179371de18480c95a19b6a07f", "type": "electric_scooter", "is_disabled": 0, "lat": 38.927624333333334, "rental_uris": {"ios": "https://dc.lft.to/lastmile_qr_scan", "android": "https://dc.lft.to/lastmile_qr_scan"}, "is_reserved": 0, "fusion_lon": 0.0, "fusion_lat": 0.0, "lon": -77.0327365, "name": "fd3beb0179371de18480c95a19b6a07f"}, {"bike_id": "0497773441a38ae45527461494e97d08", "type": "electric_scooter", "is_disabled": 0, "lat": 38.885088, "rental_uris": {"ios": "https://dc.lft.to/lastmile_qr_scan", "android": "https://dc.lft.to/lastmile_qr_scan"}, "is_reserved": 0, "fusion_lon": 0.0, "fusion_lat": 0.0, "lon": -77.01718466666667, "name": "0497773441a38ae45527461494e97d08"}, {"bike_id": "527653ddc8fab98daf92749ef1034ac4", "type": "electric_scooter", "is_disabled": 0, "lat": 38.923958999999996, "rental_uris": {"ios": "https://dc.lft.to/lastmile_qr_scan", "android": "https://dc.lft.to/lastmile_qr_scan"}, "is_reserved": 0, "fusion_lon": 0.0, "fusion_lat": 0.0, "lon": -77.02493533333333, "name": "527653ddc8fab98daf92749ef1034ac4"}, {"bike_id": "9481b329459c711dd289bf1e3847b842", "type": "electric_scooter", "is_disabled": 0, "lat": 38.8313565, "rental_uris": {"ios": "https://dc.lft.to/lastmile_qr_scan", "android": "https://dc.lft.to/lastmile_qr_scan"}, "is_reserved": 0, "fusion_lon": 0.0, "fusion_lat": 0.0, "lon": -77.0511925, "name": "9481b329459c711dd289bf1e3847b842"}, {"bike_id": "6df5d83b4aa25528a0a476527a6c3150", "type": "electric_scooter", "is_disabled": 0, "lat": 38.907363833333335, "rental_uris": {"ios": "https://dc.lft.to/lastmile_qr_scan", "android": "https://dc.lft.to/lastmile_qr_scan"}, "is_reserved": 0, "fusion_lon": 0.0, "fusion_lat": 0.0, "lon": -76.97970966666666, "name": "6df5d83b4aa25528a0a476527a6c3150"}, {"bike_id": "10eb2c962652d100873f3443b004512c", "type": "electric_scooter", "is_disabled": 0, "lat": 38.917898666666666, "rental_uris": {"ios": "https://dc.lft.to/lastmile_qr_scan", "android": "https://dc.lft.to/lastmile_qr_scan"}, "is_reserved": 0, "fusion_lon": 0.0, "fusion_lat": 0.0, "lon": -77.02308516666666, "name": "10eb2c962652d100873f3443b004512c"}, {"bike_id": "71912fe9152b841db68c32799f7c9d66", "type": "electric_scooter", "is_disabled": 0, "lat": 38.90762566666667, "rental_uris": {"ios": "https://dc.lft.to/lastmile_qr_scan", "android": "https://dc.lft.to/lastmile_qr_scan"}, "is_reserved": 0, "fusion_lon": 0.0, "fusion_lat": 0.0, "lon": -77.03186683333334, "name": "71912fe9152b841db68c32799f7c9d66"}, {"bike_id": "60db90d147bb02be27ccf2f16f9d7a72", "type": "electric_bike", "is_disabled": 0, "lat": 38.8012445, "rental_uris": {"ios": "https://dc.lft.to/lastmile_qr_scan", "android": "https://dc.lft.to/lastmile_qr_scan"}, "is_reserved": 0, "fusion_lon": 0.0, "fusion_lat": 0.0, "lon": -77.07043283333333, "name": "60db90d147bb02be27ccf2f16f9d7a72"}, {"bike_id": "3078c7e7493476700554db70c59ed6e1", "type": "electric_scooter", "is_disabled": 0, "lat": 38.90700433333333, "rental_uris": {"ios": "https://dc.lft.to/lastmile_qr_scan", "android": "https://dc.lft.to/lastmile_qr_scan"}, "is_reserved": 0, "fusion_lon": 0.0, "fusion_lat": 0.0, "lon": -77.03446766666667, "name": "3078c7e7493476700554db70c59ed6e1"}, {"bike_id": "9d8d264abe01bab88a8640428ef306ac", "type": "electric_scooter", "is_disabled": 0, "lat": 38.917693166666666, "rental_uris": {"ios": "https://dc.lft.to/lastmile_qr_scan", "android": "https://dc.lft.to/lastmile_qr_scan"}, "is_reserved": 0, "fusion_lon": 0.0, "fusion_lat": 0.0, "lon": -77.03419133333334, "name": "9d8d264abe01bab88a8640428ef306ac"}, {"bike_id": "5a63db7ae3f9b04dd98d84b626361ba6", "type": "electric_scooter", "is_disabled": 0, "lat": 38.8673355, "rental_uris": {"ios": "https://dc.lft.to/lastmile_qr_scan", "android": "https://dc.lft.to/lastmile_qr_scan"}, "is_reserved": 0, "fusion_lon": 0.0, "fusion_lat": 0.0, "lon": -76.97865783333333, "name": "5a63db7ae3f9b04dd98d84b626361ba6"}, {"bike_id": "0bf9d81a94e5cf928c3e6da240c31b25", "type": "electric_scooter", "is_disabled": 0, "lat": 38.93216983333333, "rental_uris": {"ios": "https://dc.lft.to/lastmile_qr_scan", "android": "https://dc.lft.to/lastmile_qr_scan"}, "is_reserved": 0, "fusion_lon": 0.0, "fusion_lat": 0.0, "lon": -77.03516166666667, "name": "0bf9d81a94e5cf928c3e6da240c31b25"}, {"bike_id": "7979c72d9696ad976c42c69f85271dde", "type": "electric_scooter", "is_disabled": 0, "lat": 38.92322016666667, "rental_uris": {"ios": "https://dc.lft.to/lastmile_qr_scan", "android": "https://dc.lft.to/lastmile_qr_scan"}, "is_reserved": 0, "fusion_lon": 0.0, "fusion_lat": 0.0, "lon": -77.02141683333333, "name": "7979c72d9696ad976c42c69f85271dde"}, {"bike_id": "09e155591d71be23a8fef2a0267c9c3d", "type": "electric_scooter", "is_disabled": 0, "lat": 38.900836, "rental_uris": {"ios": "https://dc.lft.to/lastmile_qr_scan", "android": "https://dc.lft.to/lastmile_qr_scan"}, "is_reserved": 0, "fusion_lon": 0.0, "fusion_lat": 0.0, "lon": -77.04692766666666, "name": "09e155591d71be23a8fef2a0267c9c3d"}, {"bike_id": "d2348788845cd431b8f6128d7748bf6e", "type": "electric_scooter", "is_disabled": 0, "lat": 38.95001966666667, "rental_uris": {"ios": "https://dc.lft.to/lastmile_qr_scan", "android": "https://dc.lft.to/lastmile_qr_scan"}, "is_reserved": 0, "fusion_lon": 0.0, "fusion_lat": 0.0, "lon": -77.008735, "name": "d2348788845cd431b8f6128d7748bf6e"}, {"bike_id": "357ef227f1dca34e12f917040b67424b", "type": "electric_bike", "is_disabled": 0, "lat": 38.84526233333333, "rental_uris": {"ios": "https://dc.lft.to/lastmile_qr_scan", "android": "https://dc.lft.to/lastmile_qr_scan"}, "is_reserved": 0, "fusion_lon": 0.0, "fusion_lat": 0.0, "lon": -76.973964, "name": "357ef227f1dca34e12f917040b67424b"}, {"bike_id": "81106487cbae4317fd864bda1353c10e", "type": "electric_scooter", "is_disabled": 0, "lat": 38.92362933333333, "rental_uris": {"ios": "https://dc.lft.to/lastmile_qr_scan", "android": "https://dc.lft.to/lastmile_qr_scan"}, "is_reserved": 0, "fusion_lon": 0.0, "fusion_lat": 0.0, "lon": -77.05131, "name": "81106487cbae4317fd864bda1353c10e"}, {"bike_id": "383ddb6c14d8780fe5cb0fe9428aaa11", "type": "electric_scooter", "is_disabled": 0, "lat": 38.93244833333333, "rental_uris": {"ios": "https://dc.lft.to/lastmile_qr_scan", "android": "https://dc.lft.to/lastmile_qr_scan"}, "is_reserved": 0, "fusion_lon": 0.0, "fusion_lat": 0.0, "lon": -77.03638933333333, "name": "383ddb6c14d8780fe5cb0fe9428aaa11"}, {"bike_id": "ef1504bb04eb243d93974292197ecedd", "type": "electric_scooter", "is_disabled": 0, "lat": 38.8876435, "rental_uris": {"ios": "https://dc.lft.to/lastmile_qr_scan", "android": "https://dc.lft.to/lastmile_qr_scan"}, "is_reserved": 0, "fusion_lon": 0.0, "fusion_lat": 0.0, "lon": -76.956065, "name": "ef1504bb04eb243d93974292197ecedd"}, {"bike_id": "cea0990b204570f0b6e9e277d619324b", "type": "electric_scooter", "is_disabled": 0, "lat": 38.905657, "rental_uris": {"ios": "https://dc.lft.to/lastmile_qr_scan", "android": "https://dc.lft.to/lastmile_qr_scan"}, "is_reserved": 0, "fusion_lon": 0.0, "fusion_lat": 0.0, "lon": -77.00586416666667, "name": "cea0990b204570f0b6e9e277d619324b"}, {"bike_id": "c3d58e74f8d3fa62644b613a815ea070", "type": "electric_scooter", "is_disabled": 0, "lat": 38.912764333333335, "rental_uris": {"ios": "https://dc.lft.to/lastmile_qr_scan", "android": "https://dc.lft.to/lastmile_qr_scan"}, "is_reserved": 0, "fusion_lon": 0.0, "fusion_lat": 0.0, "lon": -77.02716666666667, "name": "c3d58e74f8d3fa62644b613a815ea070"}, {"bike_id": "efa4319ac71c48d35a1d44bc4db02119", "type": "electric_scooter", "is_disabled": 0, "lat": 38.91150833333333, "rental_uris": {"ios": "https://dc.lft.to/lastmile_qr_scan", "android": "https://dc.lft.to/lastmile_qr_scan"}, "is_reserved": 0, "fusion_lon": 0.0, "fusion_lat": 0.0, "lon": -77.04425566666667, "name": "efa4319ac71c48d35a1d44bc4db02119"}, {"bike_id": "0548bb5ba9b0ef12fd9d8e55d014daef", "type": "electric_scooter", "is_disabled": 0, "lat": 38.90956216666667, "rental_uris": {"ios": "https://dc.lft.to/lastmile_qr_scan", "android": "https://dc.lft.to/lastmile_qr_scan"}, "is_reserved": 0, "fusion_lon": 0.0, "fusion_lat": 0.0, "lon": -77.02314166666666, "name": "0548bb5ba9b0ef12fd9d8e55d014daef"}, {"bike_id": "b39fc322c57654ee1230897a738c05a4", "type": "electric_scooter", "is_disabled": 0, "lat": 38.90912733333333, "rental_uris": {"ios": "https://dc.lft.to/lastmile_qr_scan", "android": "https://dc.lft.to/lastmile_qr_scan"}, "is_reserved": 0, "fusion_lon": 0.0, "fusion_lat": 0.0, "lon": -76.9842485, "name": "b39fc322c57654ee1230897a738c05a4"}, {"bike_id": "d0c918552a84da287088185a5a341377", "type": "electric_scooter", "is_disabled": 0, "lat": 38.924815, "rental_uris": {"ios": "https://dc.lft.to/lastmile_qr_scan", "android": "https://dc.lft.to/lastmile_qr_scan"}, "is_reserved": 0, "fusion_lon": 0.0, "fusion_lat": 0.0, "lon": -77.05756366666667, "name": "d0c918552a84da287088185a5a341377"}, {"bike_id": "0abc74e3fbce9bd98f7bf08fff590502", "type": "electric_scooter", "is_disabled": 0, "lat": 38.93321533333334, "rental_uris": {"ios": "https://dc.lft.to/lastmile_qr_scan", "android": "https://dc.lft.to/lastmile_qr_scan"}, "is_reserved": 0, "fusion_lon": 0.0, "fusion_lat": 0.0, "lon": -77.03254766666667, "name": "0abc74e3fbce9bd98f7bf08fff590502"}, {"bike_id": "7a91f5032b57bd4ec734d75f83498137", "type": "electric_scooter", "is_disabled": 0, "lat": 38.916298833333336, "rental_uris": {"ios": "https://dc.lft.to/lastmile_qr_scan", "android": "https://dc.lft.to/lastmile_qr_scan"}, "is_reserved": 0, "fusion_lon": 0.0, "fusion_lat": 0.0, "lon": -77.0480285, "name": "7a91f5032b57bd4ec734d75f83498137"}, {"bike_id": "a9f67cb517c09edb34ea4ef0f509706d", "type": "electric_scooter", "is_disabled": 0, "lat": 38.89309316666667, "rental_uris": {"ios": "https://dc.lft.to/lastmile_qr_scan", "android": "https://dc.lft.to/lastmile_qr_scan"}, "is_reserved": 0, "fusion_lon": 0.0, "fusion_lat": 0.0, "lon": -76.93973, "name": "a9f67cb517c09edb34ea4ef0f509706d"}, {"bike_id": "36d5abb147afa1dc8e5b8928d8fd9ee5", "type": "electric_scooter", "is_disabled": 0, "lat": 38.8796635, "rental_uris": {"ios": "https://dc.lft.to/lastmile_qr_scan", "android": "https://dc.lft.to/lastmile_qr_scan"}, "is_reserved": 0, "fusion_lon": 0.0, "fusion_lat": 0.0, "lon": -76.98548, "name": "36d5abb147afa1dc8e5b8928d8fd9ee5"}, {"bike_id": "8f8633172b16e391f9ab20c846400691", "type": "electric_scooter", "is_disabled": 0, "lat": 38.915894, "rental_uris": {"ios": "https://dc.lft.to/lastmile_qr_scan", "android": "https://dc.lft.to/lastmile_qr_scan"}, "is_reserved": 0, "fusion_lon": 0.0, "fusion_lat": 0.0, "lon": -77.0452545, "name": "8f8633172b16e391f9ab20c846400691"}, {"bike_id": "4d1950e9e4ad964adebb18509bd3be47", "type": "electric_scooter", "is_disabled": 0, "lat": 38.920411333333334, "rental_uris": {"ios": "https://dc.lft.to/lastmile_qr_scan", "android": "https://dc.lft.to/lastmile_qr_scan"}, "is_reserved": 0, "fusion_lon": 0.0, "fusion_lat": 0.0, "lon": -77.01731033333333, "name": "4d1950e9e4ad964adebb18509bd3be47"}, {"bike_id": "a68e880798124dcefdece3a8cc5f41ec", "type": "electric_scooter", "is_disabled": 0, "lat": 38.8771815, "rental_uris": {"ios": "https://dc.lft.to/lastmile_qr_scan", "android": "https://dc.lft.to/lastmile_qr_scan"}, "is_reserved": 0, "fusion_lon": 0.0, "fusion_lat": 0.0, "lon": -77.01795616666666, "name": "a68e880798124dcefdece3a8cc5f41ec"}, {"bike_id": "c8bc890c0f667abcbe750f4571ec3e4f", "type": "electric_scooter", "is_disabled": 0, "lat": 38.92384716666667, "rental_uris": {"ios": "https://dc.lft.to/lastmile_qr_scan", "android": "https://dc.lft.to/lastmile_qr_scan"}, "is_reserved": 0, "fusion_lon": 0.0, "fusion_lat": 0.0, "lon": -77.02687933333333, "name": "c8bc890c0f667abcbe750f4571ec3e4f"}, {"bike_id": "fb5961f968f1da38628848c9f3b260ea", "type": "electric_scooter", "is_disabled": 0, "lat": 38.914736, "rental_uris": {"ios": "https://dc.lft.to/lastmile_qr_scan", "android": "https://dc.lft.to/lastmile_qr_scan"}, "is_reserved": 0, "fusion_lon": 0.0, "fusion_lat": 0.0, "lon": -77.00914816666666, "name": "fb5961f968f1da38628848c9f3b260ea"}, {"bike_id": "6d8107f31e08e67781eecd6ade5f763c", "type": "electric_scooter", "is_disabled": 0, "lat": 38.935354, "rental_uris": {"ios": "https://dc.lft.to/lastmile_qr_scan", "android": "https://dc.lft.to/lastmile_qr_scan"}, "is_reserved": 0, "fusion_lon": 0.0, "fusion_lat": 0.0, "lon": -77.0235315, "name": "6d8107f31e08e67781eecd6ade5f763c"}, {"bike_id": "ec8697e40d3bb36cf71df8d970ff9ac6", "type": "electric_bike", "is_disabled": 0, "lat": 38.97878583333333, "rental_uris": {"ios": "https://dc.lft.to/lastmile_qr_scan", "android": "https://dc.lft.to/lastmile_qr_scan"}, "is_reserved": 0, "fusion_lon": 0.0, "fusion_lat": 0.0, "lon": -77.06030516666667, "name": "ec8697e40d3bb36cf71df8d970ff9ac6"}, {"bike_id": "71ee77b206b40c4aa49c4c84acd378a8", "type": "electric_scooter", "is_disabled": 0, "lat": 38.91615483333333, "rental_uris": {"ios": "https://dc.lft.to/lastmile_qr_scan", "android": "https://dc.lft.to/lastmile_qr_scan"}, "is_reserved": 0, "fusion_lon": 0.0, "fusion_lat": 0.0, "lon": -77.04517016666667, "name": "71ee77b206b40c4aa49c4c84acd378a8"}, {"bike_id": "e12722ece7114d263d5335e51e507b9d", "type": "electric_scooter", "is_disabled": 0, "lat": 38.944945833333335, "rental_uris": {"ios": "https://dc.lft.to/lastmile_qr_scan", "android": "https://dc.lft.to/lastmile_qr_scan"}, "is_reserved": 0, "fusion_lon": 0.0, "fusion_lat": 0.0, "lon": -77.02621766666667, "name": "e12722ece7114d263d5335e51e507b9d"}, {"bike_id": "2869bab2cd0338e8e4b4abd81b65fcdb", "type": "electric_scooter", "is_disabled": 0, "lat": 38.916286166666666, "rental_uris": {"ios": "https://dc.lft.to/lastmile_qr_scan", "android": "https://dc.lft.to/lastmile_qr_scan"}, "is_reserved": 0, "fusion_lon": 0.0, "fusion_lat": 0.0, "lon": -77.03728716666667, "name": "2869bab2cd0338e8e4b4abd81b65fcdb"}, {"bike_id": "4cfce8b154ee9c836cd265ad078faa25", "type": "electric_scooter", "is_disabled": 0, "lat": 38.905032166666665, "rental_uris": {"ios": "https://dc.lft.to/lastmile_qr_scan", "android": "https://dc.lft.to/lastmile_qr_scan"}, "is_reserved": 0, "fusion_lon": 0.0, "fusion_lat": 0.0, "lon": -77.0612055, "name": "4cfce8b154ee9c836cd265ad078faa25"}, {"bike_id": "4a36288c45e6db87d1f3be79fea65cef", "type": "electric_scooter", "is_disabled": 0, "lat": 38.91564833333333, "rental_uris": {"ios": "https://dc.lft.to/lastmile_qr_scan", "android": "https://dc.lft.to/lastmile_qr_scan"}, "is_reserved": 0, "fusion_lon": 0.0, "fusion_lat": 0.0, "lon": -77.03870016666667, "name": "4a36288c45e6db87d1f3be79fea65cef"}, {"bike_id": "7574671b429cf966bbdb7167695dee57", "type": "electric_scooter", "is_disabled": 0, "lat": 38.902623166666665, "rental_uris": {"ios": "https://dc.lft.to/lastmile_qr_scan", "android": "https://dc.lft.to/lastmile_qr_scan"}, "is_reserved": 0, "fusion_lon": 0.0, "fusion_lat": 0.0, "lon": -77.00331116666666, "name": "7574671b429cf966bbdb7167695dee57"}, {"bike_id": "f98dc03a966444f501610e261e30eb51", "type": "electric_scooter", "is_disabled": 0, "lat": 38.92490216666667, "rental_uris": {"ios": "https://dc.lft.to/lastmile_qr_scan", "android": "https://dc.lft.to/lastmile_qr_scan"}, "is_reserved": 0, "fusion_lon": 0.0, "fusion_lat": 0.0, "lon": -77.02203333333334, "name": "f98dc03a966444f501610e261e30eb51"}, {"bike_id": "ea0072f71fd0e82a3039b6f4df575c97", "type": "electric_scooter", "is_disabled": 0, "lat": 38.947149, "rental_uris": {"ios": "https://dc.lft.to/lastmile_qr_scan", "android": "https://dc.lft.to/lastmile_qr_scan"}, "is_reserved": 0, "fusion_lon": 0.0, "fusion_lat": 0.0, "lon": -77.0277885, "name": "ea0072f71fd0e82a3039b6f4df575c97"}, {"bike_id": "d44aa88f62715cd212f617d091643441", "type": "electric_scooter", "is_disabled": 0, "lat": 38.90798133333333, "rental_uris": {"ios": "https://dc.lft.to/lastmile_qr_scan", "android": "https://dc.lft.to/lastmile_qr_scan"}, "is_reserved": 0, "fusion_lon": 0.0, "fusion_lat": 0.0, "lon": -77.03474133333333, "name": "d44aa88f62715cd212f617d091643441"}, {"bike_id": "64d743475b35b3088e4b3a7c3e121c89", "type": "electric_scooter", "is_disabled": 0, "lat": 38.9134, "rental_uris": {"ios": "https://dc.lft.to/lastmile_qr_scan", "android": "https://dc.lft.to/lastmile_qr_scan"}, "is_reserved": 0, "fusion_lon": 0.0, "fusion_lat": 0.0, "lon": -77.03169766666667, "name": "64d743475b35b3088e4b3a7c3e121c89"}, {"bike_id": "4070587632de5edd92996a511e0c5c3d", "type": "electric_scooter", "is_disabled": 0, "lat": 38.866771166666666, "rental_uris": {"ios": "https://dc.lft.to/lastmile_qr_scan", "android": "https://dc.lft.to/lastmile_qr_scan"}, "is_reserved": 0, "fusion_lon": 0.0, "fusion_lat": 0.0, "lon": -76.98538966666666, "name": "4070587632de5edd92996a511e0c5c3d"}, {"bike_id": "d2f9053684a50a13ae6f5e454df3c619", "type": "electric_bike", "is_disabled": 0, "lat": 38.89293133333334, "rental_uris": {"ios": "https://dc.lft.to/lastmile_qr_scan", "android": "https://dc.lft.to/lastmile_qr_scan"}, "is_reserved": 0, "fusion_lon": 0.0, "fusion_lat": 0.0, "lon": -76.976204, "name": "d2f9053684a50a13ae6f5e454df3c619"}, {"bike_id": "5eca04725da9a41b69f337fc603864a0", "type": "electric_scooter", "is_disabled": 0, "lat": 38.92364833333333, "rental_uris": {"ios": "https://dc.lft.to/lastmile_qr_scan", "android": "https://dc.lft.to/lastmile_qr_scan"}, "is_reserved": 0, "fusion_lon": 0.0, "fusion_lat": 0.0, "lon": -77.05129383333333, "name": "5eca04725da9a41b69f337fc603864a0"}, {"bike_id": "85f9bbcb341b8bd2f755202c0166b903", "type": "electric_scooter", "is_disabled": 0, "lat": 38.9393385, "rental_uris": {"ios": "https://dc.lft.to/lastmile_qr_scan", "android": "https://dc.lft.to/lastmile_qr_scan"}, "is_reserved": 0, "fusion_lon": 0.0, "fusion_lat": 0.0, "lon": -77.03688733333334, "name": "85f9bbcb341b8bd2f755202c0166b903"}, {"bike_id": "54e0c34c8199899189f94ee9a290a41a", "type": "electric_scooter", "is_disabled": 0, "lat": 38.8826315, "rental_uris": {"ios": "https://dc.lft.to/lastmile_qr_scan", "android": "https://dc.lft.to/lastmile_qr_scan"}, "is_reserved": 0, "fusion_lon": 0.0, "fusion_lat": 0.0, "lon": -76.9951085, "name": "54e0c34c8199899189f94ee9a290a41a"}, {"bike_id": "56ba1ea02cd8fe6e55abb1d84d08d6dc", "type": "electric_scooter", "is_disabled": 0, "lat": 38.918277833333335, "rental_uris": {"ios": "https://dc.lft.to/lastmile_qr_scan", "android": "https://dc.lft.to/lastmile_qr_scan"}, "is_reserved": 0, "fusion_lon": 0.0, "fusion_lat": 0.0, "lon": -77.04564683333334, "name": "56ba1ea02cd8fe6e55abb1d84d08d6dc"}, {"bike_id": "cd05812ae050dc1da5d47edd66598b68", "type": "electric_scooter", "is_disabled": 0, "lat": 38.92019483333333, "rental_uris": {"ios": "https://dc.lft.to/lastmile_qr_scan", "android": "https://dc.lft.to/lastmile_qr_scan"}, "is_reserved": 0, "fusion_lon": 0.0, "fusion_lat": 0.0, "lon": -77.0311945, "name": "cd05812ae050dc1da5d47edd66598b68"}, {"bike_id": "607e044b3b07bfdb9e35d6fbc3bde17c", "type": "electric_scooter", "is_disabled": 0, "lat": 38.9277905, "rental_uris": {"ios": "https://dc.lft.to/lastmile_qr_scan", "android": "https://dc.lft.to/lastmile_qr_scan"}, "is_reserved": 0, "fusion_lon": 0.0, "fusion_lat": 0.0, "lon": -77.05416116666666, "name": "607e044b3b07bfdb9e35d6fbc3bde17c"}, {"bike_id": "3f529f0a8ccf573d5b4b4e3ccdbe36c9", "type": "electric_scooter", "is_disabled": 0, "lat": 38.9085355, "rental_uris": {"ios": "https://dc.lft.to/lastmile_qr_scan", "android": "https://dc.lft.to/lastmile_qr_scan"}, "is_reserved": 0, "fusion_lon": 0.0, "fusion_lat": 0.0, "lon": -77.04334316666667, "name": "3f529f0a8ccf573d5b4b4e3ccdbe36c9"}, {"bike_id": "7fb35d3147a0e36b00524a6b52482be4", "type": "electric_scooter", "is_disabled": 0, "lat": 38.862054666666666, "rental_uris": {"ios": "https://dc.lft.to/lastmile_qr_scan", "android": "https://dc.lft.to/lastmile_qr_scan"}, "is_reserved": 0, "fusion_lon": 0.0, "fusion_lat": 0.0, "lon": -76.99466933333333, "name": "7fb35d3147a0e36b00524a6b52482be4"}, {"bike_id": "f736b88b2410371a74089516dc8ab16d", "type": "electric_scooter", "is_disabled": 0, "lat": 38.94351066666667, "rental_uris": {"ios": "https://dc.lft.to/lastmile_qr_scan", "android": "https://dc.lft.to/lastmile_qr_scan"}, "is_reserved": 0, "fusion_lon": 0.0, "fusion_lat": 0.0, "lon": -77.0614935, "name": "f736b88b2410371a74089516dc8ab16d"}, {"bike_id": "0a818ea478ec4294e9b6cc9ba2fab9b6", "type": "electric_scooter", "is_disabled": 0, "lat": 38.926343833333334, "rental_uris": {"ios": "https://dc.lft.to/lastmile_qr_scan", "android": "https://dc.lft.to/lastmile_qr_scan"}, "is_reserved": 0, "fusion_lon": 0.0, "fusion_lat": 0.0, "lon": -77.02163766666666, "name": "0a818ea478ec4294e9b6cc9ba2fab9b6"}, {"bike_id": "624cabd1d89851c4169ce66078c5fc34", "type": "electric_bike", "is_disabled": 0, "lat": 38.8295125, "rental_uris": {"ios": "https://dc.lft.to/lastmile_qr_scan", "android": "https://dc.lft.to/lastmile_qr_scan"}, "is_reserved": 0, "fusion_lon": 0.0, "fusion_lat": 0.0, "lon": -77.12357866666666, "name": "624cabd1d89851c4169ce66078c5fc34"}, {"bike_id": "4ed8a66f7fcb9d833549b02bc5a7415d", "type": "electric_scooter", "is_disabled": 0, "lat": 38.90727033333334, "rental_uris": {"ios": "https://dc.lft.to/lastmile_qr_scan", "android": "https://dc.lft.to/lastmile_qr_scan"}, "is_reserved": 0, "fusion_lon": 0.0, "fusion_lat": 0.0, "lon": -77.00976216666666, "name": "4ed8a66f7fcb9d833549b02bc5a7415d"}, {"bike_id": "235e55957fd8c93f7582bab88c29dacd", "type": "electric_scooter", "is_disabled": 0, "lat": 38.927878166666666, "rental_uris": {"ios": "https://dc.lft.to/lastmile_qr_scan", "android": "https://dc.lft.to/lastmile_qr_scan"}, "is_reserved": 0, "fusion_lon": 0.0, "fusion_lat": 0.0, "lon": -77.052576, "name": "235e55957fd8c93f7582bab88c29dacd"}, {"bike_id": "3ab0c616a28a8773455a439e239be743", "type": "electric_scooter", "is_disabled": 0, "lat": 38.9168725, "rental_uris": {"ios": "https://dc.lft.to/lastmile_qr_scan", "android": "https://dc.lft.to/lastmile_qr_scan"}, "is_reserved": 0, "fusion_lon": 0.0, "fusion_lat": 0.0, "lon": -77.02296966666667, "name": "3ab0c616a28a8773455a439e239be743"}, {"bike_id": "1113666ff584e9119ca4c60f5cbfa762", "type": "electric_scooter", "is_disabled": 0, "lat": 38.9110015, "rental_uris": {"ios": "https://dc.lft.to/lastmile_qr_scan", "android": "https://dc.lft.to/lastmile_qr_scan"}, "is_reserved": 0, "fusion_lon": 0.0, "fusion_lat": 0.0, "lon": -77.01165666666667, "name": "1113666ff584e9119ca4c60f5cbfa762"}, {"bike_id": "2542787709d0816c0535990ef94d5f10", "type": "electric_scooter", "is_disabled": 0, "lat": 38.90682, "rental_uris": {"ios": "https://dc.lft.to/lastmile_qr_scan", "android": "https://dc.lft.to/lastmile_qr_scan"}, "is_reserved": 0, "fusion_lon": 0.0, "fusion_lat": 0.0, "lon": -77.06338233333334, "name": "2542787709d0816c0535990ef94d5f10"}, {"bike_id": "c260dc083d51a9e60db499afe4a0e7a9", "type": "electric_scooter", "is_disabled": 0, "lat": 38.94214, "rental_uris": {"ios": "https://dc.lft.to/lastmile_qr_scan", "android": "https://dc.lft.to/lastmile_qr_scan"}, "is_reserved": 0, "fusion_lon": 0.0, "fusion_lat": 0.0, "lon": -77.025868, "name": "c260dc083d51a9e60db499afe4a0e7a9"}, {"bike_id": "ca20a8cfaac1015e77e04188b21e76d0", "type": "electric_scooter", "is_disabled": 0, "lat": 38.931854666666666, "rental_uris": {"ios": "https://dc.lft.to/lastmile_qr_scan", "android": "https://dc.lft.to/lastmile_qr_scan"}, "is_reserved": 0, "fusion_lon": 0.0, "fusion_lat": 0.0, "lon": -77.03657583333333, "name": "ca20a8cfaac1015e77e04188b21e76d0"}, {"bike_id": "5b572eae454cfdb1478bf00f7ee0df76", "type": "electric_scooter", "is_disabled": 0, "lat": 38.92979233333333, "rental_uris": {"ios": "https://dc.lft.to/lastmile_qr_scan", "android": "https://dc.lft.to/lastmile_qr_scan"}, "is_reserved": 0, "fusion_lon": 0.0, "fusion_lat": 0.0, "lon": -77.03947266666667, "name": "5b572eae454cfdb1478bf00f7ee0df76"}, {"bike_id": "9e5ed25af25faa5802eaea71eb5107b5", "type": "electric_scooter", "is_disabled": 0, "lat": 38.923478333333335, "rental_uris": {"ios": "https://dc.lft.to/lastmile_qr_scan", "android": "https://dc.lft.to/lastmile_qr_scan"}, "is_reserved": 0, "fusion_lon": 0.0, "fusion_lat": 0.0, "lon": -77.04030116666667, "name": "9e5ed25af25faa5802eaea71eb5107b5"}, {"bike_id": "f2714a37e9da15e2ca34ca00658133c7", "type": "electric_scooter", "is_disabled": 0, "lat": 38.9103585, "rental_uris": {"ios": "https://dc.lft.to/lastmile_qr_scan", "android": "https://dc.lft.to/lastmile_qr_scan"}, "is_reserved": 0, "fusion_lon": 0.0, "fusion_lat": 0.0, "lon": -77.0412105, "name": "f2714a37e9da15e2ca34ca00658133c7"}, {"bike_id": "2ec3d0ca5bb634220a0d91897cefdbca", "type": "electric_scooter", "is_disabled": 0, "lat": 38.934540166666665, "rental_uris": {"ios": "https://dc.lft.to/lastmile_qr_scan", "android": "https://dc.lft.to/lastmile_qr_scan"}, "is_reserved": 0, "fusion_lon": 0.0, "fusion_lat": 0.0, "lon": -77.0722765, "name": "2ec3d0ca5bb634220a0d91897cefdbca"}, {"bike_id": "606a5703d903433d05cffb65f8772a7a", "type": "electric_scooter", "is_disabled": 0, "lat": 38.92463133333333, "rental_uris": {"ios": "https://dc.lft.to/lastmile_qr_scan", "android": "https://dc.lft.to/lastmile_qr_scan"}, "is_reserved": 0, "fusion_lon": 0.0, "fusion_lat": 0.0, "lon": -77.05230666666667, "name": "606a5703d903433d05cffb65f8772a7a"}, {"bike_id": "5739aea86a3c225ea8ebf3e6860d457c", "type": "electric_bike", "is_disabled": 0, "lat": 39.056308, "rental_uris": {"ios": "https://dc.lft.to/lastmile_qr_scan", "android": "https://dc.lft.to/lastmile_qr_scan"}, "is_reserved": 0, "fusion_lon": 0.0, "fusion_lat": 0.0, "lon": -77.1252755, "name": "5739aea86a3c225ea8ebf3e6860d457c"}, {"bike_id": "db51b46a95e2592c08203b7bf6963219", "type": "electric_scooter", "is_disabled": 0, "lat": 38.892487, "rental_uris": {"ios": "https://dc.lft.to/lastmile_qr_scan", "android": "https://dc.lft.to/lastmile_qr_scan"}, "is_reserved": 0, "fusion_lon": 0.0, "fusion_lat": 0.0, "lon": -77.039561, "name": "db51b46a95e2592c08203b7bf6963219"}, {"bike_id": "5d8c98255c7bb836cf895fa495e8a58e", "type": "electric_scooter", "is_disabled": 0, "lat": 38.907290333333336, "rental_uris": {"ios": "https://dc.lft.to/lastmile_qr_scan", "android": "https://dc.lft.to/lastmile_qr_scan"}, "is_reserved": 0, "fusion_lon": 0.0, "fusion_lat": 0.0, "lon": -77.0149015, "name": "5d8c98255c7bb836cf895fa495e8a58e"}, {"bike_id": "c2f4d411cceb8ee83050909766c5a887", "type": "electric_scooter", "is_disabled": 0, "lat": 38.898688166666666, "rental_uris": {"ios": "https://dc.lft.to/lastmile_qr_scan", "android": "https://dc.lft.to/lastmile_qr_scan"}, "is_reserved": 0, "fusion_lon": 0.0, "fusion_lat": 0.0, "lon": -77.01973033333333, "name": "c2f4d411cceb8ee83050909766c5a887"}, {"bike_id": "4105d1af7ca5380b130501feef09e612", "type": "electric_scooter", "is_disabled": 0, "lat": 38.9298585, "rental_uris": {"ios": "https://dc.lft.to/lastmile_qr_scan", "android": "https://dc.lft.to/lastmile_qr_scan"}, "is_reserved": 0, "fusion_lon": 0.0, "fusion_lat": 0.0, "lon": -77.03474983333334, "name": "4105d1af7ca5380b130501feef09e612"}, {"bike_id": "d21acd30ef48b3bb26efeb2db48fb6a3", "type": "electric_scooter", "is_disabled": 0, "lat": 38.90678033333333, "rental_uris": {"ios": "https://dc.lft.to/lastmile_qr_scan", "android": "https://dc.lft.to/lastmile_qr_scan"}, "is_reserved": 0, "fusion_lon": 0.0, "fusion_lat": 0.0, "lon": -77.07165466666666, "name": "d21acd30ef48b3bb26efeb2db48fb6a3"}, {"bike_id": "29e8293b47484dadb42a67d57d2e7289", "type": "electric_scooter", "is_disabled": 0, "lat": 38.900316833333335, "rental_uris": {"ios": "https://dc.lft.to/lastmile_qr_scan", "android": "https://dc.lft.to/lastmile_qr_scan"}, "is_reserved": 0, "fusion_lon": 0.0, "fusion_lat": 0.0, "lon": -76.98809466666667, "name": "29e8293b47484dadb42a67d57d2e7289"}, {"bike_id": "b4698de15d2e2dba78c40d80a3338644", "type": "electric_scooter", "is_disabled": 0, "lat": 38.93968266666667, "rental_uris": {"ios": "https://dc.lft.to/lastmile_qr_scan", "android": "https://dc.lft.to/lastmile_qr_scan"}, "is_reserved": 0, "fusion_lon": 0.0, "fusion_lat": 0.0, "lon": -77.02490083333333, "name": "b4698de15d2e2dba78c40d80a3338644"}, {"bike_id": "3cc68f61459267ba303d4c8c8ccd0b64", "type": "electric_scooter", "is_disabled": 0, "lat": 38.923395, "rental_uris": {"ios": "https://dc.lft.to/lastmile_qr_scan", "android": "https://dc.lft.to/lastmile_qr_scan"}, "is_reserved": 0, "fusion_lon": 0.0, "fusion_lat": 0.0, "lon": -77.05051516666667, "name": "3cc68f61459267ba303d4c8c8ccd0b64"}, {"bike_id": "433312e7a50de946c77cb5eb6a9feb36", "type": "electric_scooter", "is_disabled": 0, "lat": 38.9095015, "rental_uris": {"ios": "https://dc.lft.to/lastmile_qr_scan", "android": "https://dc.lft.to/lastmile_qr_scan"}, "is_reserved": 0, "fusion_lon": 0.0, "fusion_lat": 0.0, "lon": -77.02691683333333, "name": "433312e7a50de946c77cb5eb6a9feb36"}, {"bike_id": "9276fbd5e4a13513aeac3d7846d45d6c", "type": "electric_scooter", "is_disabled": 0, "lat": 38.91616916666667, "rental_uris": {"ios": "https://dc.lft.to/lastmile_qr_scan", "android": "https://dc.lft.to/lastmile_qr_scan"}, "is_reserved": 0, "fusion_lon": 0.0, "fusion_lat": 0.0, "lon": -77.03646266666667, "name": "9276fbd5e4a13513aeac3d7846d45d6c"}, {"bike_id": "5b54ffaff822a4764342c8380c9ecf31", "type": "electric_scooter", "is_disabled": 0, "lat": 38.92541033333333, "rental_uris": {"ios": "https://dc.lft.to/lastmile_qr_scan", "android": "https://dc.lft.to/lastmile_qr_scan"}, "is_reserved": 0, "fusion_lon": 0.0, "fusion_lat": 0.0, "lon": -77.02280083333333, "name": "5b54ffaff822a4764342c8380c9ecf31"}, {"bike_id": "2bff0e91a60cd5d0a09e335ad8aeabe9", "type": "electric_scooter", "is_disabled": 0, "lat": 38.909003166666665, "rental_uris": {"ios": "https://dc.lft.to/lastmile_qr_scan", "android": "https://dc.lft.to/lastmile_qr_scan"}, "is_reserved": 0, "fusion_lon": 0.0, "fusion_lat": 0.0, "lon": -77.0862565, "name": "2bff0e91a60cd5d0a09e335ad8aeabe9"}, {"bike_id": "cd189bb9df95846cf1151a20d73f9a83", "type": "electric_scooter", "is_disabled": 0, "lat": 38.95908716666667, "rental_uris": {"ios": "https://dc.lft.to/lastmile_qr_scan", "android": "https://dc.lft.to/lastmile_qr_scan"}, "is_reserved": 0, "fusion_lon": 0.0, "fusion_lat": 0.0, "lon": -77.08605116666666, "name": "cd189bb9df95846cf1151a20d73f9a83"}, {"bike_id": "22f2238ce4af3ab1a250432877a13813", "type": "electric_scooter", "is_disabled": 0, "lat": 38.87078266666666, "rental_uris": {"ios": "https://dc.lft.to/lastmile_qr_scan", "android": "https://dc.lft.to/lastmile_qr_scan"}, "is_reserved": 0, "fusion_lon": 0.0, "fusion_lat": 0.0, "lon": -77.0118935, "name": "22f2238ce4af3ab1a250432877a13813"}, {"bike_id": "549ca2cac949c13cafa7bd10ed75c425", "type": "electric_scooter", "is_disabled": 0, "lat": 38.87115766666667, "rental_uris": {"ios": "https://dc.lft.to/lastmile_qr_scan", "android": "https://dc.lft.to/lastmile_qr_scan"}, "is_reserved": 0, "fusion_lon": 0.0, "fusion_lat": 0.0, "lon": -77.0075565, "name": "549ca2cac949c13cafa7bd10ed75c425"}, {"bike_id": "3a825a34e184fcdd4741a0962af89536", "type": "electric_scooter", "is_disabled": 0, "lat": 38.93193633333333, "rental_uris": {"ios": "https://dc.lft.to/lastmile_qr_scan", "android": "https://dc.lft.to/lastmile_qr_scan"}, "is_reserved": 0, "fusion_lon": 0.0, "fusion_lat": 0.0, "lon": -77.01961966666667, "name": "3a825a34e184fcdd4741a0962af89536"}, {"bike_id": "83a01424478538e78a24d19810becd17", "type": "electric_scooter", "is_disabled": 0, "lat": 38.9163615, "rental_uris": {"ios": "https://dc.lft.to/lastmile_qr_scan", "android": "https://dc.lft.to/lastmile_qr_scan"}, "is_reserved": 0, "fusion_lon": 0.0, "fusion_lat": 0.0, "lon": -77.0005175, "name": "83a01424478538e78a24d19810becd17"}, {"bike_id": "665a4501347898ca7dafc5a2dbc19f5a", "type": "electric_scooter", "is_disabled": 0, "lat": 38.920829499999996, "rental_uris": {"ios": "https://dc.lft.to/lastmile_qr_scan", "android": "https://dc.lft.to/lastmile_qr_scan"}, "is_reserved": 0, "fusion_lon": 0.0, "fusion_lat": 0.0, "lon": -77.024022, "name": "665a4501347898ca7dafc5a2dbc19f5a"}, {"bike_id": "b33316b85f4bd9d694b50327c460e9c7", "type": "electric_scooter", "is_disabled": 0, "lat": 38.914822, "rental_uris": {"ios": "https://dc.lft.to/lastmile_qr_scan", "android": "https://dc.lft.to/lastmile_qr_scan"}, "is_reserved": 0, "fusion_lon": 0.0, "fusion_lat": 0.0, "lon": -77.02193983333333, "name": "b33316b85f4bd9d694b50327c460e9c7"}, {"bike_id": "86be43e6615bf851559e390fc20ccb5c", "type": "electric_scooter", "is_disabled": 0, "lat": 38.89323566666667, "rental_uris": {"ios": "https://dc.lft.to/lastmile_qr_scan", "android": "https://dc.lft.to/lastmile_qr_scan"}, "is_reserved": 0, "fusion_lon": 0.0, "fusion_lat": 0.0, "lon": -77.0487665, "name": "86be43e6615bf851559e390fc20ccb5c"}, {"bike_id": "66cdd0ed6d99bfe3ad14797a34dd2e2d", "type": "electric_bike", "is_disabled": 0, "lat": 38.79983383333333, "rental_uris": {"ios": "https://dc.lft.to/lastmile_qr_scan", "android": "https://dc.lft.to/lastmile_qr_scan"}, "is_reserved": 0, "fusion_lon": 0.0, "fusion_lat": 0.0, "lon": -77.129806, "name": "66cdd0ed6d99bfe3ad14797a34dd2e2d"}, {"bike_id": "24897d3bf7092285fd972aa7b6bc297a", "type": "electric_scooter", "is_disabled": 0, "lat": 38.904848333333334, "rental_uris": {"ios": "https://dc.lft.to/lastmile_qr_scan", "android": "https://dc.lft.to/lastmile_qr_scan"}, "is_reserved": 0, "fusion_lon": 0.0, "fusion_lat": 0.0, "lon": -77.035613, "name": "24897d3bf7092285fd972aa7b6bc297a"}, {"bike_id": "53a5cc4b943fc43fb703945d61401dab", "type": "electric_scooter", "is_disabled": 0, "lat": 38.8623495, "rental_uris": {"ios": "https://dc.lft.to/lastmile_qr_scan", "android": "https://dc.lft.to/lastmile_qr_scan"}, "is_reserved": 0, "fusion_lon": 0.0, "fusion_lat": 0.0, "lon": -76.99518533333334, "name": "53a5cc4b943fc43fb703945d61401dab"}, {"bike_id": "a22421e8561ab392e3e1ded2f746189b", "type": "electric_scooter", "is_disabled": 0, "lat": 38.915697333333334, "rental_uris": {"ios": "https://dc.lft.to/lastmile_qr_scan", "android": "https://dc.lft.to/lastmile_qr_scan"}, "is_reserved": 0, "fusion_lon": 0.0, "fusion_lat": 0.0, "lon": -77.03463983333333, "name": "a22421e8561ab392e3e1ded2f746189b"}, {"bike_id": "6a97a96e73a1f0f051b69f8f70edc7e7", "type": "electric_scooter", "is_disabled": 0, "lat": 38.901192, "rental_uris": {"ios": "https://dc.lft.to/lastmile_qr_scan", "android": "https://dc.lft.to/lastmile_qr_scan"}, "is_reserved": 0, "fusion_lon": 0.0, "fusion_lat": 0.0, "lon": -77.0497305, "name": "6a97a96e73a1f0f051b69f8f70edc7e7"}, {"bike_id": "19757cae6dc4d7dee816fcee1fa2ee23", "type": "electric_scooter", "is_disabled": 0, "lat": 38.918169, "rental_uris": {"ios": "https://dc.lft.to/lastmile_qr_scan", "android": "https://dc.lft.to/lastmile_qr_scan"}, "is_reserved": 0, "fusion_lon": 0.0, "fusion_lat": 0.0, "lon": -77.01016316666667, "name": "19757cae6dc4d7dee816fcee1fa2ee23"}, {"bike_id": "d2b14f5d5031f243255559bbaae436f9", "type": "electric_scooter", "is_disabled": 0, "lat": 38.927603166666664, "rental_uris": {"ios": "https://dc.lft.to/lastmile_qr_scan", "android": "https://dc.lft.to/lastmile_qr_scan"}, "is_reserved": 0, "fusion_lon": 0.0, "fusion_lat": 0.0, "lon": -77.032733, "name": "d2b14f5d5031f243255559bbaae436f9"}, {"bike_id": "65551e1662d23507a9ff9f0fd98f7355", "type": "electric_scooter", "is_disabled": 0, "lat": 38.907500666666664, "rental_uris": {"ios": "https://dc.lft.to/lastmile_qr_scan", "android": "https://dc.lft.to/lastmile_qr_scan"}, "is_reserved": 0, "fusion_lon": 0.0, "fusion_lat": 0.0, "lon": -77.03184933333333, "name": "65551e1662d23507a9ff9f0fd98f7355"}, {"bike_id": "9c53f8ec0d77b93edce8f3fa6c596e31", "type": "electric_scooter", "is_disabled": 0, "lat": 38.8802985, "rental_uris": {"ios": "https://dc.lft.to/lastmile_qr_scan", "android": "https://dc.lft.to/lastmile_qr_scan"}, "is_reserved": 0, "fusion_lon": 0.0, "fusion_lat": 0.0, "lon": -77.02506933333333, "name": "9c53f8ec0d77b93edce8f3fa6c596e31"}, {"bike_id": "b1f4c76165971475950f33b6e3025f6a", "type": "electric_scooter", "is_disabled": 0, "lat": 38.915819, "rental_uris": {"ios": "https://dc.lft.to/lastmile_qr_scan", "android": "https://dc.lft.to/lastmile_qr_scan"}, "is_reserved": 0, "fusion_lon": 0.0, "fusion_lat": 0.0, "lon": -77.04496966666666, "name": "b1f4c76165971475950f33b6e3025f6a"}, {"bike_id": "887b96cf2fb1266beee64fd96c82e83b", "type": "electric_scooter", "is_disabled": 0, "lat": 38.9336015, "rental_uris": {"ios": "https://dc.lft.to/lastmile_qr_scan", "android": "https://dc.lft.to/lastmile_qr_scan"}, "is_reserved": 0, "fusion_lon": 0.0, "fusion_lat": 0.0, "lon": -77.08857933333333, "name": "887b96cf2fb1266beee64fd96c82e83b"}, {"bike_id": "39909b01d7b83cd570fb451cf9054b02", "type": "electric_scooter", "is_disabled": 0, "lat": 38.905968, "rental_uris": {"ios": "https://dc.lft.to/lastmile_qr_scan", "android": "https://dc.lft.to/lastmile_qr_scan"}, "is_reserved": 0, "fusion_lon": 0.0, "fusion_lat": 0.0, "lon": -77.05123966666666, "name": "39909b01d7b83cd570fb451cf9054b02"}, {"bike_id": "222649ca91df35f9380a279e17c53616", "type": "electric_bike", "is_disabled": 0, "lat": 38.876694666666666, "rental_uris": {"ios": "https://dc.lft.to/lastmile_qr_scan", "android": "https://dc.lft.to/lastmile_qr_scan"}, "is_reserved": 0, "fusion_lon": 0.0, "fusion_lat": 0.0, "lon": -77.01437933333334, "name": "222649ca91df35f9380a279e17c53616"}, {"bike_id": "2aed34da7d66bf2b86879b85527f8100", "type": "electric_scooter", "is_disabled": 0, "lat": 38.92362216666667, "rental_uris": {"ios": "https://dc.lft.to/lastmile_qr_scan", "android": "https://dc.lft.to/lastmile_qr_scan"}, "is_reserved": 0, "fusion_lon": 0.0, "fusion_lat": 0.0, "lon": -77.01964083333333, "name": "2aed34da7d66bf2b86879b85527f8100"}, {"bike_id": "65df164671904caaf119c4eb03422c49", "type": "electric_scooter", "is_disabled": 0, "lat": 38.90384183333333, "rental_uris": {"ios": "https://dc.lft.to/lastmile_qr_scan", "android": "https://dc.lft.to/lastmile_qr_scan"}, "is_reserved": 0, "fusion_lon": 0.0, "fusion_lat": 0.0, "lon": -77.02404016666667, "name": "65df164671904caaf119c4eb03422c49"}, {"bike_id": "199211575844e088a721b3eb222989af", "type": "electric_scooter", "is_disabled": 0, "lat": 38.91667983333333, "rental_uris": {"ios": "https://dc.lft.to/lastmile_qr_scan", "android": "https://dc.lft.to/lastmile_qr_scan"}, "is_reserved": 0, "fusion_lon": 0.0, "fusion_lat": 0.0, "lon": -77.03198466666667, "name": "199211575844e088a721b3eb222989af"}, {"bike_id": "0d0c2d80721609f9c6977132334c3cae", "type": "electric_scooter", "is_disabled": 0, "lat": 38.926603666666665, "rental_uris": {"ios": "https://dc.lft.to/lastmile_qr_scan", "android": "https://dc.lft.to/lastmile_qr_scan"}, "is_reserved": 0, "fusion_lon": 0.0, "fusion_lat": 0.0, "lon": -77.0373415, "name": "0d0c2d80721609f9c6977132334c3cae"}, {"bike_id": "16faa9ea98f97693c1207a672fd4a39e", "type": "electric_scooter", "is_disabled": 0, "lat": 38.890159, "rental_uris": {"ios": "https://dc.lft.to/lastmile_qr_scan", "android": "https://dc.lft.to/lastmile_qr_scan"}, "is_reserved": 0, "fusion_lon": 0.0, "fusion_lat": 0.0, "lon": -77.03328366666666, "name": "16faa9ea98f97693c1207a672fd4a39e"}, {"bike_id": "683f3019048d8360c770a5d115d8d35c", "type": "electric_scooter", "is_disabled": 0, "lat": 38.910298, "rental_uris": {"ios": "https://dc.lft.to/lastmile_qr_scan", "android": "https://dc.lft.to/lastmile_qr_scan"}, "is_reserved": 0, "fusion_lon": 0.0, "fusion_lat": 0.0, "lon": -76.98668183333334, "name": "683f3019048d8360c770a5d115d8d35c"}, {"bike_id": "ce2e0b5133bc7190489eb0395e96fe5b", "type": "electric_scooter", "is_disabled": 0, "lat": 38.90812116666667, "rental_uris": {"ios": "https://dc.lft.to/lastmile_qr_scan", "android": "https://dc.lft.to/lastmile_qr_scan"}, "is_reserved": 0, "fusion_lon": 0.0, "fusion_lat": 0.0, "lon": -77.04970416666667, "name": "ce2e0b5133bc7190489eb0395e96fe5b"}, {"bike_id": "93e7381525a68477936a8caccb3e4224", "type": "electric_scooter", "is_disabled": 0, "lat": 38.93006866666666, "rental_uris": {"ios": "https://dc.lft.to/lastmile_qr_scan", "android": "https://dc.lft.to/lastmile_qr_scan"}, "is_reserved": 0, "fusion_lon": 0.0, "fusion_lat": 0.0, "lon": -77.03773566666666, "name": "93e7381525a68477936a8caccb3e4224"}, {"bike_id": "caf568b1352fd7fcb3c175ed9a82b21d", "type": "electric_scooter", "is_disabled": 0, "lat": 38.95184016666666, "rental_uris": {"ios": "https://dc.lft.to/lastmile_qr_scan", "android": "https://dc.lft.to/lastmile_qr_scan"}, "is_reserved": 0, "fusion_lon": 0.0, "fusion_lat": 0.0, "lon": -77.02614133333333, "name": "caf568b1352fd7fcb3c175ed9a82b21d"}, {"bike_id": "134c575e2fa327df98930005c6a1b0d9", "type": "electric_bike", "is_disabled": 0, "lat": 38.94470583333333, "rental_uris": {"ios": "https://dc.lft.to/lastmile_qr_scan", "android": "https://dc.lft.to/lastmile_qr_scan"}, "is_reserved": 0, "fusion_lon": 0.0, "fusion_lat": 0.0, "lon": -76.986865, "name": "134c575e2fa327df98930005c6a1b0d9"}, {"bike_id": "19de67aca564f12fdfce0f200d5679a1", "type": "electric_scooter", "is_disabled": 0, "lat": 38.902692, "rental_uris": {"ios": "https://dc.lft.to/lastmile_qr_scan", "android": "https://dc.lft.to/lastmile_qr_scan"}, "is_reserved": 0, "fusion_lon": 0.0, "fusion_lat": 0.0, "lon": -77.0197235, "name": "19de67aca564f12fdfce0f200d5679a1"}, {"bike_id": "49e949eedb21d0b37b2f732b038f79f3", "type": "electric_scooter", "is_disabled": 0, "lat": 38.92384, "rental_uris": {"ios": "https://dc.lft.to/lastmile_qr_scan", "android": "https://dc.lft.to/lastmile_qr_scan"}, "is_reserved": 0, "fusion_lon": 0.0, "fusion_lat": 0.0, "lon": -77.0365805, "name": "49e949eedb21d0b37b2f732b038f79f3"}, {"bike_id": "c2c773b92abc92ca4f726c2129ea3994", "type": "electric_scooter", "is_disabled": 0, "lat": 38.866611666666664, "rental_uris": {"ios": "https://dc.lft.to/lastmile_qr_scan", "android": "https://dc.lft.to/lastmile_qr_scan"}, "is_reserved": 0, "fusion_lon": 0.0, "fusion_lat": 0.0, "lon": -76.98884733333334, "name": "c2c773b92abc92ca4f726c2129ea3994"}, {"bike_id": "a32d64da520fd26f1b1700b6dab6c37a", "type": "electric_scooter", "is_disabled": 0, "lat": 38.92906933333333, "rental_uris": {"ios": "https://dc.lft.to/lastmile_qr_scan", "android": "https://dc.lft.to/lastmile_qr_scan"}, "is_reserved": 0, "fusion_lon": 0.0, "fusion_lat": 0.0, "lon": -77.02268383333333, "name": "a32d64da520fd26f1b1700b6dab6c37a"}, {"bike_id": "0984cafaa1bc2099acd9b63fd881eba9", "type": "electric_scooter", "is_disabled": 0, "lat": 38.904086666666664, "rental_uris": {"ios": "https://dc.lft.to/lastmile_qr_scan", "android": "https://dc.lft.to/lastmile_qr_scan"}, "is_reserved": 0, "fusion_lon": 0.0, "fusion_lat": 0.0, "lon": -76.97332066666667, "name": "0984cafaa1bc2099acd9b63fd881eba9"}, {"bike_id": "c38a137c03b740a7c385c78563e468a2", "type": "electric_scooter", "is_disabled": 0, "lat": 38.907248, "rental_uris": {"ios": "https://dc.lft.to/lastmile_qr_scan", "android": "https://dc.lft.to/lastmile_qr_scan"}, "is_reserved": 0, "fusion_lon": 0.0, "fusion_lat": 0.0, "lon": -76.998211, "name": "c38a137c03b740a7c385c78563e468a2"}, {"bike_id": "e00df54757fdec1692d443a3fe9c18a6", "type": "electric_scooter", "is_disabled": 0, "lat": 38.904114, "rental_uris": {"ios": "https://dc.lft.to/lastmile_qr_scan", "android": "https://dc.lft.to/lastmile_qr_scan"}, "is_reserved": 0, "fusion_lon": 0.0, "fusion_lat": 0.0, "lon": -77.06872216666666, "name": "e00df54757fdec1692d443a3fe9c18a6"}, {"bike_id": "c6c7d0d17929d0398c54101b2a5e87ca", "type": "electric_scooter", "is_disabled": 0, "lat": 38.925463, "rental_uris": {"ios": "https://dc.lft.to/lastmile_qr_scan", "android": "https://dc.lft.to/lastmile_qr_scan"}, "is_reserved": 0, "fusion_lon": 0.0, "fusion_lat": 0.0, "lon": -77.02973883333334, "name": "c6c7d0d17929d0398c54101b2a5e87ca"}, {"bike_id": "80d0131fdb209c28cb5de19107e2a2e2", "type": "electric_scooter", "is_disabled": 0, "lat": 38.925355, "rental_uris": {"ios": "https://dc.lft.to/lastmile_qr_scan", "android": "https://dc.lft.to/lastmile_qr_scan"}, "is_reserved": 0, "fusion_lon": 0.0, "fusion_lat": 0.0, "lon": -77.0413705, "name": "80d0131fdb209c28cb5de19107e2a2e2"}, {"bike_id": "74b3cf978ec818f5970d379845775890", "type": "electric_scooter", "is_disabled": 0, "lat": 38.917139, "rental_uris": {"ios": "https://dc.lft.to/lastmile_qr_scan", "android": "https://dc.lft.to/lastmile_qr_scan"}, "is_reserved": 0, "fusion_lon": 0.0, "fusion_lat": 0.0, "lon": -77.0365835, "name": "74b3cf978ec818f5970d379845775890"}, {"bike_id": "dfe4c0021a52e8a42178bf663b5fca57", "type": "electric_scooter", "is_disabled": 0, "lat": 38.9098125, "rental_uris": {"ios": "https://dc.lft.to/lastmile_qr_scan", "android": "https://dc.lft.to/lastmile_qr_scan"}, "is_reserved": 0, "fusion_lon": 0.0, "fusion_lat": 0.0, "lon": -77.0318655, "name": "dfe4c0021a52e8a42178bf663b5fca57"}, {"bike_id": "83b8c0c93c3bba144969c480fe0c6e39", "type": "electric_scooter", "is_disabled": 0, "lat": 38.923521666666666, "rental_uris": {"ios": "https://dc.lft.to/lastmile_qr_scan", "android": "https://dc.lft.to/lastmile_qr_scan"}, "is_reserved": 0, "fusion_lon": 0.0, "fusion_lat": 0.0, "lon": -77.02436033333333, "name": "83b8c0c93c3bba144969c480fe0c6e39"}, {"bike_id": "4d5c7086c249a60d11adcf7b3437df03", "type": "electric_scooter", "is_disabled": 0, "lat": 38.88920733333333, "rental_uris": {"ios": "https://dc.lft.to/lastmile_qr_scan", "android": "https://dc.lft.to/lastmile_qr_scan"}, "is_reserved": 0, "fusion_lon": 0.0, "fusion_lat": 0.0, "lon": -76.991305, "name": "4d5c7086c249a60d11adcf7b3437df03"}, {"bike_id": "7454b477eb41c774266ecb85c494dca5", "type": "electric_scooter", "is_disabled": 0, "lat": 38.928689, "rental_uris": {"ios": "https://dc.lft.to/lastmile_qr_scan", "android": "https://dc.lft.to/lastmile_qr_scan"}, "is_reserved": 0, "fusion_lon": 0.0, "fusion_lat": 0.0, "lon": -77.03215716666666, "name": "7454b477eb41c774266ecb85c494dca5"}, {"bike_id": "46948ae05e00f56ff49d289f00722000", "type": "electric_bike", "is_disabled": 0, "lat": 38.835489333333335, "rental_uris": {"ios": "https://dc.lft.to/lastmile_qr_scan", "android": "https://dc.lft.to/lastmile_qr_scan"}, "is_reserved": 0, "fusion_lon": 0.0, "fusion_lat": 0.0, "lon": -76.987322, "name": "46948ae05e00f56ff49d289f00722000"}, {"bike_id": "5b916039cace56aa6179741d35a52c97", "type": "electric_scooter", "is_disabled": 0, "lat": 38.906005666666665, "rental_uris": {"ios": "https://dc.lft.to/lastmile_qr_scan", "android": "https://dc.lft.to/lastmile_qr_scan"}, "is_reserved": 0, "fusion_lon": 0.0, "fusion_lat": 0.0, "lon": -77.02110233333333, "name": "5b916039cace56aa6179741d35a52c97"}, {"bike_id": "de02ca723cdbf1e789c661176d9434f5", "type": "electric_bike", "is_disabled": 0, "lat": 38.95346, "rental_uris": {"ios": "https://dc.lft.to/lastmile_qr_scan", "android": "https://dc.lft.to/lastmile_qr_scan"}, "is_reserved": 0, "fusion_lon": 0.0, "fusion_lat": 0.0, "lon": -76.98082816666667, "name": "de02ca723cdbf1e789c661176d9434f5"}, {"bike_id": "1f79d8938dd3e9cdcd3d8aa5c8a30fe9", "type": "electric_scooter", "is_disabled": 0, "lat": 38.89881166666667, "rental_uris": {"ios": "https://dc.lft.to/lastmile_qr_scan", "android": "https://dc.lft.to/lastmile_qr_scan"}, "is_reserved": 0, "fusion_lon": 0.0, "fusion_lat": 0.0, "lon": -76.97698933333334, "name": "1f79d8938dd3e9cdcd3d8aa5c8a30fe9"}, {"bike_id": "a88b70befb89c9997eeee4232987755b", "type": "electric_scooter", "is_disabled": 0, "lat": 38.91337216666667, "rental_uris": {"ios": "https://dc.lft.to/lastmile_qr_scan", "android": "https://dc.lft.to/lastmile_qr_scan"}, "is_reserved": 0, "fusion_lon": 0.0, "fusion_lat": 0.0, "lon": -77.03169633333333, "name": "a88b70befb89c9997eeee4232987755b"}, {"bike_id": "8dddd0ef92129b33857d811ecf57a4c0", "type": "electric_scooter", "is_disabled": 0, "lat": 38.9088655, "rental_uris": {"ios": "https://dc.lft.to/lastmile_qr_scan", "android": "https://dc.lft.to/lastmile_qr_scan"}, "is_reserved": 0, "fusion_lon": 0.0, "fusion_lat": 0.0, "lon": -77.04398183333333, "name": "8dddd0ef92129b33857d811ecf57a4c0"}, {"bike_id": "597c435a0dd94988d9081c9f2ae3cc7f", "type": "electric_scooter", "is_disabled": 0, "lat": 38.9325395, "rental_uris": {"ios": "https://dc.lft.to/lastmile_qr_scan", "android": "https://dc.lft.to/lastmile_qr_scan"}, "is_reserved": 0, "fusion_lon": 0.0, "fusion_lat": 0.0, "lon": -77.03854, "name": "597c435a0dd94988d9081c9f2ae3cc7f"}, {"bike_id": "ff9295408131ca40834b78eebd641c28", "type": "electric_scooter", "is_disabled": 0, "lat": 38.9349135, "rental_uris": {"ios": "https://dc.lft.to/lastmile_qr_scan", "android": "https://dc.lft.to/lastmile_qr_scan"}, "is_reserved": 0, "fusion_lon": 0.0, "fusion_lat": 0.0, "lon": -77.0350655, "name": "ff9295408131ca40834b78eebd641c28"}, {"bike_id": "bf84c49649f1d7bc1cf347eb763de49e", "type": "electric_scooter", "is_disabled": 0, "lat": 38.905762333333335, "rental_uris": {"ios": "https://dc.lft.to/lastmile_qr_scan", "android": "https://dc.lft.to/lastmile_qr_scan"}, "is_reserved": 0, "fusion_lon": 0.0, "fusion_lat": 0.0, "lon": -77.02598983333333, "name": "bf84c49649f1d7bc1cf347eb763de49e"}, {"bike_id": "f90a4dd60aecfc70ab1738c79208bec1", "type": "electric_scooter", "is_disabled": 0, "lat": 38.9147775, "rental_uris": {"ios": "https://dc.lft.to/lastmile_qr_scan", "android": "https://dc.lft.to/lastmile_qr_scan"}, "is_reserved": 0, "fusion_lon": 0.0, "fusion_lat": 0.0, "lon": -77.031888, "name": "f90a4dd60aecfc70ab1738c79208bec1"}, {"bike_id": "2165dd15ea5258086c11250e5d9eef6b", "type": "electric_scooter", "is_disabled": 0, "lat": 38.91568566666667, "rental_uris": {"ios": "https://dc.lft.to/lastmile_qr_scan", "android": "https://dc.lft.to/lastmile_qr_scan"}, "is_reserved": 0, "fusion_lon": 0.0, "fusion_lat": 0.0, "lon": -77.022934, "name": "2165dd15ea5258086c11250e5d9eef6b"}, {"bike_id": "03ae0b03e639197cfc8c7d075c8ce64f", "type": "electric_scooter", "is_disabled": 0, "lat": 38.91709633333333, "rental_uris": {"ios": "https://dc.lft.to/lastmile_qr_scan", "android": "https://dc.lft.to/lastmile_qr_scan"}, "is_reserved": 0, "fusion_lon": 0.0, "fusion_lat": 0.0, "lon": -77.03864833333333, "name": "03ae0b03e639197cfc8c7d075c8ce64f"}, {"bike_id": "8822a93c5485fb8af8a23707e09b42ab", "type": "electric_scooter", "is_disabled": 0, "lat": 38.902679166666665, "rental_uris": {"ios": "https://dc.lft.to/lastmile_qr_scan", "android": "https://dc.lft.to/lastmile_qr_scan"}, "is_reserved": 0, "fusion_lon": 0.0, "fusion_lat": 0.0, "lon": -77.019661, "name": "8822a93c5485fb8af8a23707e09b42ab"}, {"bike_id": "9159099e7b88836e0a4ef079818c4ba1", "type": "electric_scooter", "is_disabled": 0, "lat": 38.916832166666666, "rental_uris": {"ios": "https://dc.lft.to/lastmile_qr_scan", "android": "https://dc.lft.to/lastmile_qr_scan"}, "is_reserved": 0, "fusion_lon": 0.0, "fusion_lat": 0.0, "lon": -77.02947883333333, "name": "9159099e7b88836e0a4ef079818c4ba1"}, {"bike_id": "03397d2b983593a9b1910fad3b6f87e9", "type": "electric_scooter", "is_disabled": 0, "lat": 38.95682133333333, "rental_uris": {"ios": "https://dc.lft.to/lastmile_qr_scan", "android": "https://dc.lft.to/lastmile_qr_scan"}, "is_reserved": 0, "fusion_lon": 0.0, "fusion_lat": 0.0, "lon": -77.024048, "name": "03397d2b983593a9b1910fad3b6f87e9"}, {"bike_id": "49bdbbc021029839d8ff5c0c9c34e298", "type": "electric_scooter", "is_disabled": 0, "lat": 38.92054016666667, "rental_uris": {"ios": "https://dc.lft.to/lastmile_qr_scan", "android": "https://dc.lft.to/lastmile_qr_scan"}, "is_reserved": 0, "fusion_lon": 0.0, "fusion_lat": 0.0, "lon": -77.0347305, "name": "49bdbbc021029839d8ff5c0c9c34e298"}, {"bike_id": "c5e091e07aa0ad6cf45ced6d9f1e859b", "type": "electric_scooter", "is_disabled": 0, "lat": 38.907312, "rental_uris": {"ios": "https://dc.lft.to/lastmile_qr_scan", "android": "https://dc.lft.to/lastmile_qr_scan"}, "is_reserved": 0, "fusion_lon": 0.0, "fusion_lat": 0.0, "lon": -77.05329966666666, "name": "c5e091e07aa0ad6cf45ced6d9f1e859b"}, {"bike_id": "28c9ac67e50f7eb1de7e20e25c5b0331", "type": "electric_scooter", "is_disabled": 0, "lat": 38.884913166666664, "rental_uris": {"ios": "https://dc.lft.to/lastmile_qr_scan", "android": "https://dc.lft.to/lastmile_qr_scan"}, "is_reserved": 0, "fusion_lon": 0.0, "fusion_lat": 0.0, "lon": -77.015053, "name": "28c9ac67e50f7eb1de7e20e25c5b0331"}, {"bike_id": "11947be0549a81d35dea3474d83b284a", "type": "electric_scooter", "is_disabled": 0, "lat": 38.91099916666667, "rental_uris": {"ios": "https://dc.lft.to/lastmile_qr_scan", "android": "https://dc.lft.to/lastmile_qr_scan"}, "is_reserved": 0, "fusion_lon": 0.0, "fusion_lat": 0.0, "lon": -77.04489116666667, "name": "11947be0549a81d35dea3474d83b284a"}, {"bike_id": "80a077e0c5cb36e7ae243dd68fd21e49", "type": "electric_scooter", "is_disabled": 0, "lat": 38.92789883333333, "rental_uris": {"ios": "https://dc.lft.to/lastmile_qr_scan", "android": "https://dc.lft.to/lastmile_qr_scan"}, "is_reserved": 0, "fusion_lon": 0.0, "fusion_lat": 0.0, "lon": -77.02138366666667, "name": "80a077e0c5cb36e7ae243dd68fd21e49"}, {"bike_id": "ba0a0a91de3f9d011cf13e87ee2cb8d3", "type": "electric_scooter", "is_disabled": 0, "lat": 38.9312255, "rental_uris": {"ios": "https://dc.lft.to/lastmile_qr_scan", "android": "https://dc.lft.to/lastmile_qr_scan"}, "is_reserved": 0, "fusion_lon": 0.0, "fusion_lat": 0.0, "lon": -77.02072983333333, "name": "ba0a0a91de3f9d011cf13e87ee2cb8d3"}, {"bike_id": "cf5fe534fd9a17df484e61b2c0cb5541", "type": "electric_scooter", "is_disabled": 0, "lat": 38.90596333333333, "rental_uris": {"ios": "https://dc.lft.to/lastmile_qr_scan", "android": "https://dc.lft.to/lastmile_qr_scan"}, "is_reserved": 0, "fusion_lon": 0.0, "fusion_lat": 0.0, "lon": -77.021822, "name": "cf5fe534fd9a17df484e61b2c0cb5541"}, {"bike_id": "67b15731e7799d5892983b1520c17aaa", "type": "electric_scooter", "is_disabled": 0, "lat": 38.862157333333336, "rental_uris": {"ios": "https://dc.lft.to/lastmile_qr_scan", "android": "https://dc.lft.to/lastmile_qr_scan"}, "is_reserved": 0, "fusion_lon": 0.0, "fusion_lat": 0.0, "lon": -76.99486416666667, "name": "67b15731e7799d5892983b1520c17aaa"}, {"bike_id": "4310ea2d43a10c50c74ab47442c782f4", "type": "electric_scooter", "is_disabled": 0, "lat": 38.917813, "rental_uris": {"ios": "https://dc.lft.to/lastmile_qr_scan", "android": "https://dc.lft.to/lastmile_qr_scan"}, "is_reserved": 0, "fusion_lon": 0.0, "fusion_lat": 0.0, "lon": -77.02310716666666, "name": "4310ea2d43a10c50c74ab47442c782f4"}, {"bike_id": "19d7a928c4b8f1701e1e5f14f09d8df7", "type": "electric_bike", "is_disabled": 0, "lat": 38.83604166666667, "rental_uris": {"ios": "https://dc.lft.to/lastmile_qr_scan", "android": "https://dc.lft.to/lastmile_qr_scan"}, "is_reserved": 0, "fusion_lon": 0.0, "fusion_lat": 0.0, "lon": -77.00383733333334, "name": "19d7a928c4b8f1701e1e5f14f09d8df7"}, {"bike_id": "953ee52cf7b91a7276f648b708b5f677", "type": "electric_bike", "is_disabled": 0, "lat": 38.871348833333336, "rental_uris": {"ios": "https://dc.lft.to/lastmile_qr_scan", "android": "https://dc.lft.to/lastmile_qr_scan"}, "is_reserved": 0, "fusion_lon": 0.0, "fusion_lat": 0.0, "lon": -77.10030766666667, "name": "953ee52cf7b91a7276f648b708b5f677"}, {"bike_id": "5f3ac3b1293e60f7afb850c0d3c3a3f4", "type": "electric_scooter", "is_disabled": 0, "lat": 38.90959683333333, "rental_uris": {"ios": "https://dc.lft.to/lastmile_qr_scan", "android": "https://dc.lft.to/lastmile_qr_scan"}, "is_reserved": 0, "fusion_lon": 0.0, "fusion_lat": 0.0, "lon": -77.02388266666667, "name": "5f3ac3b1293e60f7afb850c0d3c3a3f4"}, {"bike_id": "c78e175fd1d7dba4337147c075bd0e0e", "type": "electric_scooter", "is_disabled": 0, "lat": 38.90263516666667, "rental_uris": {"ios": "https://dc.lft.to/lastmile_qr_scan", "android": "https://dc.lft.to/lastmile_qr_scan"}, "is_reserved": 0, "fusion_lon": 0.0, "fusion_lat": 0.0, "lon": -77.01840766666666, "name": "c78e175fd1d7dba4337147c075bd0e0e"}, {"bike_id": "1603ebd73f23c36ce9ea2b7cbe557f13", "type": "electric_scooter", "is_disabled": 0, "lat": 38.91617766666667, "rental_uris": {"ios": "https://dc.lft.to/lastmile_qr_scan", "android": "https://dc.lft.to/lastmile_qr_scan"}, "is_reserved": 0, "fusion_lon": 0.0, "fusion_lat": 0.0, "lon": -77.048764, "name": "1603ebd73f23c36ce9ea2b7cbe557f13"}, {"bike_id": "ba4dd27c129daa491a540fc8abd139ce", "type": "electric_scooter", "is_disabled": 0, "lat": 38.91862366666667, "rental_uris": {"ios": "https://dc.lft.to/lastmile_qr_scan", "android": "https://dc.lft.to/lastmile_qr_scan"}, "is_reserved": 0, "fusion_lon": 0.0, "fusion_lat": 0.0, "lon": -77.02807466666667, "name": "ba4dd27c129daa491a540fc8abd139ce"}, {"bike_id": "ba2bfe26cabb163751be1bbb427be369", "type": "electric_scooter", "is_disabled": 0, "lat": 38.892552333333335, "rental_uris": {"ios": "https://dc.lft.to/lastmile_qr_scan", "android": "https://dc.lft.to/lastmile_qr_scan"}, "is_reserved": 0, "fusion_lon": 0.0, "fusion_lat": 0.0, "lon": -77.03344316666667, "name": "ba2bfe26cabb163751be1bbb427be369"}, {"bike_id": "be727435d03b7563fc7ec35fc0b843b4", "type": "electric_scooter", "is_disabled": 0, "lat": 38.896197666666666, "rental_uris": {"ios": "https://dc.lft.to/lastmile_qr_scan", "android": "https://dc.lft.to/lastmile_qr_scan"}, "is_reserved": 0, "fusion_lon": 0.0, "fusion_lat": 0.0, "lon": -77.000234, "name": "be727435d03b7563fc7ec35fc0b843b4"}, {"bike_id": "a09a8f24fb0f525dd0261903362192a1", "type": "electric_scooter", "is_disabled": 0, "lat": 38.89225866666666, "rental_uris": {"ios": "https://dc.lft.to/lastmile_qr_scan", "android": "https://dc.lft.to/lastmile_qr_scan"}, "is_reserved": 0, "fusion_lon": 0.0, "fusion_lat": 0.0, "lon": -77.0465715, "name": "a09a8f24fb0f525dd0261903362192a1"}, {"bike_id": "689993e1883141e2f3d1dcc3ce65588d", "type": "electric_scooter", "is_disabled": 0, "lat": 38.9084965, "rental_uris": {"ios": "https://dc.lft.to/lastmile_qr_scan", "android": "https://dc.lft.to/lastmile_qr_scan"}, "is_reserved": 0, "fusion_lon": 0.0, "fusion_lat": 0.0, "lon": -77.04341933333333, "name": "689993e1883141e2f3d1dcc3ce65588d"}, {"bike_id": "e8143619e05b321949fabef10aa02543", "type": "electric_scooter", "is_disabled": 0, "lat": 38.930274, "rental_uris": {"ios": "https://dc.lft.to/lastmile_qr_scan", "android": "https://dc.lft.to/lastmile_qr_scan"}, "is_reserved": 0, "fusion_lon": 0.0, "fusion_lat": 0.0, "lon": -77.0380135, "name": "e8143619e05b321949fabef10aa02543"}, {"bike_id": "324d5ac6b38086c02428eb2fed4cd19f", "type": "electric_scooter", "is_disabled": 0, "lat": 38.86247983333333, "rental_uris": {"ios": "https://dc.lft.to/lastmile_qr_scan", "android": "https://dc.lft.to/lastmile_qr_scan"}, "is_reserved": 0, "fusion_lon": 0.0, "fusion_lat": 0.0, "lon": -76.9950285, "name": "324d5ac6b38086c02428eb2fed4cd19f"}, {"bike_id": "2345646db0d0a715fcc9e34f9a2db818", "type": "electric_scooter", "is_disabled": 0, "lat": 38.91707066666667, "rental_uris": {"ios": "https://dc.lft.to/lastmile_qr_scan", "android": "https://dc.lft.to/lastmile_qr_scan"}, "is_reserved": 0, "fusion_lon": 0.0, "fusion_lat": 0.0, "lon": -77.01079733333333, "name": "2345646db0d0a715fcc9e34f9a2db818"}, {"bike_id": "168df0ebee91f23ffb5d859de2628831", "type": "electric_scooter", "is_disabled": 0, "lat": 38.88074733333333, "rental_uris": {"ios": "https://dc.lft.to/lastmile_qr_scan", "android": "https://dc.lft.to/lastmile_qr_scan"}, "is_reserved": 0, "fusion_lon": 0.0, "fusion_lat": 0.0, "lon": -76.93211483333333, "name": "168df0ebee91f23ffb5d859de2628831"}, {"bike_id": "187decc9ce0c00f49af3b6ae46350bef", "type": "electric_scooter", "is_disabled": 0, "lat": 38.92196416666667, "rental_uris": {"ios": "https://dc.lft.to/lastmile_qr_scan", "android": "https://dc.lft.to/lastmile_qr_scan"}, "is_reserved": 0, "fusion_lon": 0.0, "fusion_lat": 0.0, "lon": -77.03517066666667, "name": "187decc9ce0c00f49af3b6ae46350bef"}, {"bike_id": "811db26bd36c351edd20e1137cf0c93a", "type": "electric_scooter", "is_disabled": 0, "lat": 38.95404033333333, "rental_uris": {"ios": "https://dc.lft.to/lastmile_qr_scan", "android": "https://dc.lft.to/lastmile_qr_scan"}, "is_reserved": 0, "fusion_lon": 0.0, "fusion_lat": 0.0, "lon": -76.99852016666667, "name": "811db26bd36c351edd20e1137cf0c93a"}, {"bike_id": "8beed92c132803c30a80bb1743da0f77", "type": "electric_scooter", "is_disabled": 0, "lat": 38.926601833333336, "rental_uris": {"ios": "https://dc.lft.to/lastmile_qr_scan", "android": "https://dc.lft.to/lastmile_qr_scan"}, "is_reserved": 0, "fusion_lon": 0.0, "fusion_lat": 0.0, "lon": -77.03735666666667, "name": "8beed92c132803c30a80bb1743da0f77"}, {"bike_id": "289b68ff0bafe6181c799fc061408afa", "type": "electric_scooter", "is_disabled": 0, "lat": 38.933321, "rental_uris": {"ios": "https://dc.lft.to/lastmile_qr_scan", "android": "https://dc.lft.to/lastmile_qr_scan"}, "is_reserved": 0, "fusion_lon": 0.0, "fusion_lat": 0.0, "lon": -77.038813, "name": "289b68ff0bafe6181c799fc061408afa"}, {"bike_id": "a8bc6622b65a9c52457763244ae4af87", "type": "electric_scooter", "is_disabled": 0, "lat": 38.915638666666666, "rental_uris": {"ios": "https://dc.lft.to/lastmile_qr_scan", "android": "https://dc.lft.to/lastmile_qr_scan"}, "is_reserved": 0, "fusion_lon": 0.0, "fusion_lat": 0.0, "lon": -77.031403, "name": "a8bc6622b65a9c52457763244ae4af87"}, {"bike_id": "73b86f4cc5626b3b901b2fa8dd9cc6a9", "type": "electric_scooter", "is_disabled": 0, "lat": 38.92849016666667, "rental_uris": {"ios": "https://dc.lft.to/lastmile_qr_scan", "android": "https://dc.lft.to/lastmile_qr_scan"}, "is_reserved": 0, "fusion_lon": 0.0, "fusion_lat": 0.0, "lon": -77.027408, "name": "73b86f4cc5626b3b901b2fa8dd9cc6a9"}, {"bike_id": "d645fd6dd26fb1af417409426f4b198b", "type": "electric_scooter", "is_disabled": 0, "lat": 38.933730833333335, "rental_uris": {"ios": "https://dc.lft.to/lastmile_qr_scan", "android": "https://dc.lft.to/lastmile_qr_scan"}, "is_reserved": 0, "fusion_lon": 0.0, "fusion_lat": 0.0, "lon": -77.0398755, "name": "d645fd6dd26fb1af417409426f4b198b"}, {"bike_id": "968c58992c4343ceba5f932dc5f9dd02", "type": "electric_scooter", "is_disabled": 0, "lat": 38.90675, "rental_uris": {"ios": "https://dc.lft.to/lastmile_qr_scan", "android": "https://dc.lft.to/lastmile_qr_scan"}, "is_reserved": 0, "fusion_lon": 0.0, "fusion_lat": 0.0, "lon": -77.0716365, "name": "968c58992c4343ceba5f932dc5f9dd02"}, {"bike_id": "3227097f9a613400c30612f537083ba7", "type": "electric_scooter", "is_disabled": 0, "lat": 38.91117883333333, "rental_uris": {"ios": "https://dc.lft.to/lastmile_qr_scan", "android": "https://dc.lft.to/lastmile_qr_scan"}, "is_reserved": 0, "fusion_lon": 0.0, "fusion_lat": 0.0, "lon": -77.02245166666667, "name": "3227097f9a613400c30612f537083ba7"}, {"bike_id": "4cb4968f741cd8347e7ac6f673863980", "type": "electric_scooter", "is_disabled": 0, "lat": 38.9056, "rental_uris": {"ios": "https://dc.lft.to/lastmile_qr_scan", "android": "https://dc.lft.to/lastmile_qr_scan"}, "is_reserved": 0, "fusion_lon": 0.0, "fusion_lat": 0.0, "lon": -76.98856549999999, "name": "4cb4968f741cd8347e7ac6f673863980"}, {"bike_id": "97758066bd6ca2738d7c06355852edaa", "type": "electric_scooter", "is_disabled": 0, "lat": 38.92341016666666, "rental_uris": {"ios": "https://dc.lft.to/lastmile_qr_scan", "android": "https://dc.lft.to/lastmile_qr_scan"}, "is_reserved": 0, "fusion_lon": 0.0, "fusion_lat": 0.0, "lon": -77.01986316666667, "name": "97758066bd6ca2738d7c06355852edaa"}, {"bike_id": "05fbd06f4a5c37089b7a62d70f71bf8e", "type": "electric_scooter", "is_disabled": 0, "lat": 38.90285266666667, "rental_uris": {"ios": "https://dc.lft.to/lastmile_qr_scan", "android": "https://dc.lft.to/lastmile_qr_scan"}, "is_reserved": 0, "fusion_lon": 0.0, "fusion_lat": 0.0, "lon": -77.00329066666667, "name": "05fbd06f4a5c37089b7a62d70f71bf8e"}, {"bike_id": "5d42c02b0229de3234a884ebc5e9209a", "type": "electric_scooter", "is_disabled": 0, "lat": 38.901448333333335, "rental_uris": {"ios": "https://dc.lft.to/lastmile_qr_scan", "android": "https://dc.lft.to/lastmile_qr_scan"}, "is_reserved": 0, "fusion_lon": 0.0, "fusion_lat": 0.0, "lon": -77.0151295, "name": "5d42c02b0229de3234a884ebc5e9209a"}, {"bike_id": "3de0cffab9f477f115fad07b311d934d", "type": "electric_bike", "is_disabled": 0, "lat": 38.83430416666667, "rental_uris": {"ios": "https://dc.lft.to/lastmile_qr_scan", "android": "https://dc.lft.to/lastmile_qr_scan"}, "is_reserved": 0, "fusion_lon": 0.0, "fusion_lat": 0.0, "lon": -77.103574, "name": "3de0cffab9f477f115fad07b311d934d"}, {"bike_id": "e0c076b37eb9c21f8a362960541db203", "type": "electric_scooter", "is_disabled": 0, "lat": 38.92150316666667, "rental_uris": {"ios": "https://dc.lft.to/lastmile_qr_scan", "android": "https://dc.lft.to/lastmile_qr_scan"}, "is_reserved": 0, "fusion_lon": 0.0, "fusion_lat": 0.0, "lon": -77.035323, "name": "e0c076b37eb9c21f8a362960541db203"}, {"bike_id": "e48ad28b413686dbb379bd840333df65", "type": "electric_scooter", "is_disabled": 0, "lat": 38.92853383333333, "rental_uris": {"ios": "https://dc.lft.to/lastmile_qr_scan", "android": "https://dc.lft.to/lastmile_qr_scan"}, "is_reserved": 0, "fusion_lon": 0.0, "fusion_lat": 0.0, "lon": -77.01950283333333, "name": "e48ad28b413686dbb379bd840333df65"}, {"bike_id": "3a752fc39cde9b1a0857e8d9e7c663f0", "type": "electric_scooter", "is_disabled": 0, "lat": 38.920916166666665, "rental_uris": {"ios": "https://dc.lft.to/lastmile_qr_scan", "android": "https://dc.lft.to/lastmile_qr_scan"}, "is_reserved": 0, "fusion_lon": 0.0, "fusion_lat": 0.0, "lon": -77.025418, "name": "3a752fc39cde9b1a0857e8d9e7c663f0"}, {"bike_id": "5598070ff85d6ef85d347d3062a98466", "type": "electric_scooter", "is_disabled": 0, "lat": 38.90685933333334, "rental_uris": {"ios": "https://dc.lft.to/lastmile_qr_scan", "android": "https://dc.lft.to/lastmile_qr_scan"}, "is_reserved": 0, "fusion_lon": 0.0, "fusion_lat": 0.0, "lon": -77.053261, "name": "5598070ff85d6ef85d347d3062a98466"}, {"bike_id": "3ba47a4895745fc07b6d784878774af8", "type": "electric_scooter", "is_disabled": 0, "lat": 38.95663916666667, "rental_uris": {"ios": "https://dc.lft.to/lastmile_qr_scan", "android": "https://dc.lft.to/lastmile_qr_scan"}, "is_reserved": 0, "fusion_lon": 0.0, "fusion_lat": 0.0, "lon": -77.010398, "name": "3ba47a4895745fc07b6d784878774af8"}, {"bike_id": "1ae76885e1ff8754b406d5c0de3d0289", "type": "electric_scooter", "is_disabled": 0, "lat": 38.871517833333336, "rental_uris": {"ios": "https://dc.lft.to/lastmile_qr_scan", "android": "https://dc.lft.to/lastmile_qr_scan"}, "is_reserved": 0, "fusion_lon": 0.0, "fusion_lat": 0.0, "lon": -76.97732866666666, "name": "1ae76885e1ff8754b406d5c0de3d0289"}, {"bike_id": "0c5ea26598fd063ed0993a65cc4efc76", "type": "electric_scooter", "is_disabled": 0, "lat": 38.902911333333336, "rental_uris": {"ios": "https://dc.lft.to/lastmile_qr_scan", "android": "https://dc.lft.to/lastmile_qr_scan"}, "is_reserved": 0, "fusion_lon": 0.0, "fusion_lat": 0.0, "lon": -77.04395433333333, "name": "0c5ea26598fd063ed0993a65cc4efc76"}, {"bike_id": "0a164f573235b45d5346840f76c2b2a3", "type": "electric_bike", "is_disabled": 0, "lat": 38.951753333333336, "rental_uris": {"ios": "https://dc.lft.to/lastmile_qr_scan", "android": "https://dc.lft.to/lastmile_qr_scan"}, "is_reserved": 0, "fusion_lon": 0.0, "fusion_lat": 0.0, "lon": -76.977294, "name": "0a164f573235b45d5346840f76c2b2a3"}, {"bike_id": "9e3e4b0ccfd4c354e7b632c0e23642fc", "type": "electric_scooter", "is_disabled": 0, "lat": 38.94110083333333, "rental_uris": {"ios": "https://dc.lft.to/lastmile_qr_scan", "android": "https://dc.lft.to/lastmile_qr_scan"}, "is_reserved": 0, "fusion_lon": 0.0, "fusion_lat": 0.0, "lon": -77.02544083333333, "name": "9e3e4b0ccfd4c354e7b632c0e23642fc"}, {"bike_id": "6e9a45aa00842c8520a729a7a05c7cd9", "type": "electric_scooter", "is_disabled": 0, "lat": 38.9049525, "rental_uris": {"ios": "https://dc.lft.to/lastmile_qr_scan", "android": "https://dc.lft.to/lastmile_qr_scan"}, "is_reserved": 0, "fusion_lon": 0.0, "fusion_lat": 0.0, "lon": -77.04105016666666, "name": "6e9a45aa00842c8520a729a7a05c7cd9"}, {"bike_id": "722750ef25247345b32ec3f86f9969f3", "type": "electric_scooter", "is_disabled": 0, "lat": 38.910351666666664, "rental_uris": {"ios": "https://dc.lft.to/lastmile_qr_scan", "android": "https://dc.lft.to/lastmile_qr_scan"}, "is_reserved": 0, "fusion_lon": 0.0, "fusion_lat": 0.0, "lon": -77.01287833333333, "name": "722750ef25247345b32ec3f86f9969f3"}, {"bike_id": "877bc681b6ef6fe254796333f22e35b8", "type": "electric_scooter", "is_disabled": 0, "lat": 38.9360615, "rental_uris": {"ios": "https://dc.lft.to/lastmile_qr_scan", "android": "https://dc.lft.to/lastmile_qr_scan"}, "is_reserved": 0, "fusion_lon": 0.0, "fusion_lat": 0.0, "lon": -77.03794433333333, "name": "877bc681b6ef6fe254796333f22e35b8"}, {"bike_id": "f3ac023ae63f1da127cf7c7a4c26f1e8", "type": "electric_scooter", "is_disabled": 0, "lat": 38.922617833333334, "rental_uris": {"ios": "https://dc.lft.to/lastmile_qr_scan", "android": "https://dc.lft.to/lastmile_qr_scan"}, "is_reserved": 0, "fusion_lon": 0.0, "fusion_lat": 0.0, "lon": -77.04292166666667, "name": "f3ac023ae63f1da127cf7c7a4c26f1e8"}, {"bike_id": "8072f932edb9d62dbf951424562da629", "type": "electric_scooter", "is_disabled": 0, "lat": 38.9048695, "rental_uris": {"ios": "https://dc.lft.to/lastmile_qr_scan", "android": "https://dc.lft.to/lastmile_qr_scan"}, "is_reserved": 0, "fusion_lon": 0.0, "fusion_lat": 0.0, "lon": -76.949652, "name": "8072f932edb9d62dbf951424562da629"}, {"bike_id": "5c846190becf9730870c38293e400cd5", "type": "electric_scooter", "is_disabled": 0, "lat": 38.928500166666666, "rental_uris": {"ios": "https://dc.lft.to/lastmile_qr_scan", "android": "https://dc.lft.to/lastmile_qr_scan"}, "is_reserved": 0, "fusion_lon": 0.0, "fusion_lat": 0.0, "lon": -77.0195085, "name": "5c846190becf9730870c38293e400cd5"}, {"bike_id": "496fa88175f491ed4f7901f259ab43ff", "type": "electric_scooter", "is_disabled": 0, "lat": 38.928559166666666, "rental_uris": {"ios": "https://dc.lft.to/lastmile_qr_scan", "android": "https://dc.lft.to/lastmile_qr_scan"}, "is_reserved": 0, "fusion_lon": 0.0, "fusion_lat": 0.0, "lon": -77.01389466666667, "name": "496fa88175f491ed4f7901f259ab43ff"}, {"bike_id": "9c5e8aa573ad058628d61fa403b0d51a", "type": "electric_scooter", "is_disabled": 0, "lat": 38.92596833333333, "rental_uris": {"ios": "https://dc.lft.to/lastmile_qr_scan", "android": "https://dc.lft.to/lastmile_qr_scan"}, "is_reserved": 0, "fusion_lon": 0.0, "fusion_lat": 0.0, "lon": -77.00847366666666, "name": "9c5e8aa573ad058628d61fa403b0d51a"}, {"bike_id": "75bf87a0ae8c0172d8cf7a2eef2847ce", "type": "electric_scooter", "is_disabled": 0, "lat": 38.91924983333333, "rental_uris": {"ios": "https://dc.lft.to/lastmile_qr_scan", "android": "https://dc.lft.to/lastmile_qr_scan"}, "is_reserved": 0, "fusion_lon": 0.0, "fusion_lat": 0.0, "lon": -77.0249095, "name": "75bf87a0ae8c0172d8cf7a2eef2847ce"}, {"bike_id": "032b6d62abae58f6c514cd0a21100ebd", "type": "electric_scooter", "is_disabled": 0, "lat": 38.909618333333334, "rental_uris": {"ios": "https://dc.lft.to/lastmile_qr_scan", "android": "https://dc.lft.to/lastmile_qr_scan"}, "is_reserved": 0, "fusion_lon": 0.0, "fusion_lat": 0.0, "lon": -77.04051833333334, "name": "032b6d62abae58f6c514cd0a21100ebd"}, {"bike_id": "4a5825d5d5db8d319eeccc0514ec755d", "type": "electric_scooter", "is_disabled": 0, "lat": 38.920496666666665, "rental_uris": {"ios": "https://dc.lft.to/lastmile_qr_scan", "android": "https://dc.lft.to/lastmile_qr_scan"}, "is_reserved": 0, "fusion_lon": 0.0, "fusion_lat": 0.0, "lon": -77.03451, "name": "4a5825d5d5db8d319eeccc0514ec755d"}, {"bike_id": "c7d6dc16749ceda94edd476828075945", "type": "electric_scooter", "is_disabled": 0, "lat": 38.931779666666664, "rental_uris": {"ios": "https://dc.lft.to/lastmile_qr_scan", "android": "https://dc.lft.to/lastmile_qr_scan"}, "is_reserved": 0, "fusion_lon": 0.0, "fusion_lat": 0.0, "lon": -77.0429775, "name": "c7d6dc16749ceda94edd476828075945"}, {"bike_id": "4fe33f9019a5848691b2db63b201f888", "type": "electric_scooter", "is_disabled": 0, "lat": 38.844380666666666, "rental_uris": {"ios": "https://dc.lft.to/lastmile_qr_scan", "android": "https://dc.lft.to/lastmile_qr_scan"}, "is_reserved": 0, "fusion_lon": 0.0, "fusion_lat": 0.0, "lon": -76.99783933333333, "name": "4fe33f9019a5848691b2db63b201f888"}, {"bike_id": "574fa5710ff896f41b9d143a5b449c6d", "type": "electric_scooter", "is_disabled": 0, "lat": 38.90269683333333, "rental_uris": {"ios": "https://dc.lft.to/lastmile_qr_scan", "android": "https://dc.lft.to/lastmile_qr_scan"}, "is_reserved": 0, "fusion_lon": 0.0, "fusion_lat": 0.0, "lon": -77.019025, "name": "574fa5710ff896f41b9d143a5b449c6d"}, {"bike_id": "3f4cbd4ee743e706d11a269d27ff199c", "type": "electric_scooter", "is_disabled": 0, "lat": 38.8857855, "rental_uris": {"ios": "https://dc.lft.to/lastmile_qr_scan", "android": "https://dc.lft.to/lastmile_qr_scan"}, "is_reserved": 0, "fusion_lon": 0.0, "fusion_lat": 0.0, "lon": -77.02845733333334, "name": "3f4cbd4ee743e706d11a269d27ff199c"}, {"bike_id": "4be66c47c07ca07021cc1cb94ed08fce", "type": "electric_scooter", "is_disabled": 0, "lat": 38.902365333333336, "rental_uris": {"ios": "https://dc.lft.to/lastmile_qr_scan", "android": "https://dc.lft.to/lastmile_qr_scan"}, "is_reserved": 0, "fusion_lon": 0.0, "fusion_lat": 0.0, "lon": -76.9742205, "name": "4be66c47c07ca07021cc1cb94ed08fce"}, {"bike_id": "31588581bc8ab45dfe2f7ffd41639083", "type": "electric_scooter", "is_disabled": 0, "lat": 38.914683, "rental_uris": {"ios": "https://dc.lft.to/lastmile_qr_scan", "android": "https://dc.lft.to/lastmile_qr_scan"}, "is_reserved": 0, "fusion_lon": 0.0, "fusion_lat": 0.0, "lon": -76.9856915, "name": "31588581bc8ab45dfe2f7ffd41639083"}, {"bike_id": "b5722c22afbe63a3ca671a5251207928", "type": "electric_scooter", "is_disabled": 0, "lat": 38.907399166666664, "rental_uris": {"ios": "https://dc.lft.to/lastmile_qr_scan", "android": "https://dc.lft.to/lastmile_qr_scan"}, "is_reserved": 0, "fusion_lon": 0.0, "fusion_lat": 0.0, "lon": -77.06329416666667, "name": "b5722c22afbe63a3ca671a5251207928"}, {"bike_id": "1f28db182f9beb0953ffad3d8c49a5f6", "type": "electric_scooter", "is_disabled": 0, "lat": 38.90034716666667, "rental_uris": {"ios": "https://dc.lft.to/lastmile_qr_scan", "android": "https://dc.lft.to/lastmile_qr_scan"}, "is_reserved": 0, "fusion_lon": 0.0, "fusion_lat": 0.0, "lon": -76.98058433333334, "name": "1f28db182f9beb0953ffad3d8c49a5f6"}, {"bike_id": "504ab5cf7ce558061737f07557f3fdc7", "type": "electric_scooter", "is_disabled": 0, "lat": 38.92462666666667, "rental_uris": {"ios": "https://dc.lft.to/lastmile_qr_scan", "android": "https://dc.lft.to/lastmile_qr_scan"}, "is_reserved": 0, "fusion_lon": 0.0, "fusion_lat": 0.0, "lon": -77.03784916666666, "name": "504ab5cf7ce558061737f07557f3fdc7"}, {"bike_id": "feabd808f36b226881163a73859323c0", "type": "electric_scooter", "is_disabled": 0, "lat": 38.931894166666666, "rental_uris": {"ios": "https://dc.lft.to/lastmile_qr_scan", "android": "https://dc.lft.to/lastmile_qr_scan"}, "is_reserved": 0, "fusion_lon": 0.0, "fusion_lat": 0.0, "lon": -77.0239355, "name": "feabd808f36b226881163a73859323c0"}, {"bike_id": "a4a4abda988d267c31fbed2096013c41", "type": "electric_scooter", "is_disabled": 0, "lat": 38.9345505, "rental_uris": {"ios": "https://dc.lft.to/lastmile_qr_scan", "android": "https://dc.lft.to/lastmile_qr_scan"}, "is_reserved": 0, "fusion_lon": 0.0, "fusion_lat": 0.0, "lon": -77.02797316666667, "name": "a4a4abda988d267c31fbed2096013c41"}, {"bike_id": "9537f834b468172e7f68b2c393915d10", "type": "electric_scooter", "is_disabled": 0, "lat": 38.90031883333333, "rental_uris": {"ios": "https://dc.lft.to/lastmile_qr_scan", "android": "https://dc.lft.to/lastmile_qr_scan"}, "is_reserved": 0, "fusion_lon": 0.0, "fusion_lat": 0.0, "lon": -76.99862833333333, "name": "9537f834b468172e7f68b2c393915d10"}, {"bike_id": "1b69eb3605accef3ae1ebbc257f59bbf", "type": "electric_scooter", "is_disabled": 0, "lat": 38.93552116666667, "rental_uris": {"ios": "https://dc.lft.to/lastmile_qr_scan", "android": "https://dc.lft.to/lastmile_qr_scan"}, "is_reserved": 0, "fusion_lon": 0.0, "fusion_lat": 0.0, "lon": -77.0368065, "name": "1b69eb3605accef3ae1ebbc257f59bbf"}, {"bike_id": "8bc54252d93066b954c418b00d23db82", "type": "electric_scooter", "is_disabled": 0, "lat": 38.92252216666667, "rental_uris": {"ios": "https://dc.lft.to/lastmile_qr_scan", "android": "https://dc.lft.to/lastmile_qr_scan"}, "is_reserved": 0, "fusion_lon": 0.0, "fusion_lat": 0.0, "lon": -77.04222766666666, "name": "8bc54252d93066b954c418b00d23db82"}, {"bike_id": "0b6b8a77d5569ff3b0abb10a61b15654", "type": "electric_bike", "is_disabled": 0, "lat": 38.882448833333335, "rental_uris": {"ios": "https://dc.lft.to/lastmile_qr_scan", "android": "https://dc.lft.to/lastmile_qr_scan"}, "is_reserved": 0, "fusion_lon": 0.0, "fusion_lat": 0.0, "lon": -76.9625815, "name": "0b6b8a77d5569ff3b0abb10a61b15654"}, {"bike_id": "4aac46033878ed72eb341e3c5193d072", "type": "electric_scooter", "is_disabled": 0, "lat": 38.913282, "rental_uris": {"ios": "https://dc.lft.to/lastmile_qr_scan", "android": "https://dc.lft.to/lastmile_qr_scan"}, "is_reserved": 0, "fusion_lon": 0.0, "fusion_lat": 0.0, "lon": -77.03262666666667, "name": "4aac46033878ed72eb341e3c5193d072"}, {"bike_id": "04efc87567c62dfdc5166220362f793f", "type": "electric_scooter", "is_disabled": 0, "lat": 38.934110833333335, "rental_uris": {"ios": "https://dc.lft.to/lastmile_qr_scan", "android": "https://dc.lft.to/lastmile_qr_scan"}, "is_reserved": 0, "fusion_lon": 0.0, "fusion_lat": 0.0, "lon": -77.041528, "name": "04efc87567c62dfdc5166220362f793f"}, {"bike_id": "3a6a231ec01b282e5fa7c44cff396cfd", "type": "electric_scooter", "is_disabled": 0, "lat": 38.93218933333333, "rental_uris": {"ios": "https://dc.lft.to/lastmile_qr_scan", "android": "https://dc.lft.to/lastmile_qr_scan"}, "is_reserved": 0, "fusion_lon": 0.0, "fusion_lat": 0.0, "lon": -77.03365533333333, "name": "3a6a231ec01b282e5fa7c44cff396cfd"}, {"bike_id": "1e2b33b9996cae3aadaa8f122add4036", "type": "electric_scooter", "is_disabled": 0, "lat": 38.90469383333333, "rental_uris": {"ios": "https://dc.lft.to/lastmile_qr_scan", "android": "https://dc.lft.to/lastmile_qr_scan"}, "is_reserved": 0, "fusion_lon": 0.0, "fusion_lat": 0.0, "lon": -76.97610583333334, "name": "1e2b33b9996cae3aadaa8f122add4036"}, {"bike_id": "acf7544d54a4b2b950f249b02f86cdf2", "type": "electric_scooter", "is_disabled": 0, "lat": 38.90676933333334, "rental_uris": {"ios": "https://dc.lft.to/lastmile_qr_scan", "android": "https://dc.lft.to/lastmile_qr_scan"}, "is_reserved": 0, "fusion_lon": 0.0, "fusion_lat": 0.0, "lon": -77.0626125, "name": "acf7544d54a4b2b950f249b02f86cdf2"}, {"bike_id": "473203defb96e85c0f5db81fb1e9843a", "type": "electric_bike", "is_disabled": 0, "lat": 38.93224166666667, "rental_uris": {"ios": "https://dc.lft.to/lastmile_qr_scan", "android": "https://dc.lft.to/lastmile_qr_scan"}, "is_reserved": 0, "fusion_lon": 0.0, "fusion_lat": 0.0, "lon": -77.181225, "name": "473203defb96e85c0f5db81fb1e9843a"}, {"bike_id": "644c7fa49a69560d253640a12bde8062", "type": "electric_bike", "is_disabled": 0, "lat": 38.9344775, "rental_uris": {"ios": "https://dc.lft.to/lastmile_qr_scan", "android": "https://dc.lft.to/lastmile_qr_scan"}, "is_reserved": 0, "fusion_lon": 0.0, "fusion_lat": 0.0, "lon": -77.04126216666667, "name": "644c7fa49a69560d253640a12bde8062"}, {"bike_id": "1b4ba0c5eaf29bb86e6bafb6fb37ef70", "type": "electric_scooter", "is_disabled": 0, "lat": 38.92951583333333, "rental_uris": {"ios": "https://dc.lft.to/lastmile_qr_scan", "android": "https://dc.lft.to/lastmile_qr_scan"}, "is_reserved": 0, "fusion_lon": 0.0, "fusion_lat": 0.0, "lon": -77.04404466666666, "name": "1b4ba0c5eaf29bb86e6bafb6fb37ef70"}, {"bike_id": "98508a2a47669e3a3052e050adcb69b2", "type": "electric_scooter", "is_disabled": 0, "lat": 38.912764333333335, "rental_uris": {"ios": "https://dc.lft.to/lastmile_qr_scan", "android": "https://dc.lft.to/lastmile_qr_scan"}, "is_reserved": 0, "fusion_lon": 0.0, "fusion_lat": 0.0, "lon": -77.047397, "name": "98508a2a47669e3a3052e050adcb69b2"}, {"bike_id": "6a6abc6c7dca621081ad2c8ea5a91039", "type": "electric_scooter", "is_disabled": 0, "lat": 38.85702766666667, "rental_uris": {"ios": "https://dc.lft.to/lastmile_qr_scan", "android": "https://dc.lft.to/lastmile_qr_scan"}, "is_reserved": 0, "fusion_lon": 0.0, "fusion_lat": 0.0, "lon": -76.98977633333334, "name": "6a6abc6c7dca621081ad2c8ea5a91039"}, {"bike_id": "91702cf7e9912ef3cbee8b2b167af1c9", "type": "electric_scooter", "is_disabled": 0, "lat": 38.90061216666667, "rental_uris": {"ios": "https://dc.lft.to/lastmile_qr_scan", "android": "https://dc.lft.to/lastmile_qr_scan"}, "is_reserved": 0, "fusion_lon": 0.0, "fusion_lat": 0.0, "lon": -76.934733, "name": "91702cf7e9912ef3cbee8b2b167af1c9"}, {"bike_id": "b8e926bd8c86df7153df2f8e354eeb3e", "type": "electric_scooter", "is_disabled": 0, "lat": 38.93008366666667, "rental_uris": {"ios": "https://dc.lft.to/lastmile_qr_scan", "android": "https://dc.lft.to/lastmile_qr_scan"}, "is_reserved": 0, "fusion_lon": 0.0, "fusion_lat": 0.0, "lon": -77.014331, "name": "b8e926bd8c86df7153df2f8e354eeb3e"}, {"bike_id": "5d94c6044b89de5dd89997318403977f", "type": "electric_scooter", "is_disabled": 0, "lat": 38.935322, "rental_uris": {"ios": "https://dc.lft.to/lastmile_qr_scan", "android": "https://dc.lft.to/lastmile_qr_scan"}, "is_reserved": 0, "fusion_lon": 0.0, "fusion_lat": 0.0, "lon": -77.02349466666666, "name": "5d94c6044b89de5dd89997318403977f"}, {"bike_id": "08d631c42c934ea635c93447a3b1c0d5", "type": "electric_bike", "is_disabled": 0, "lat": 38.853163, "rental_uris": {"ios": "https://dc.lft.to/lastmile_qr_scan", "android": "https://dc.lft.to/lastmile_qr_scan"}, "is_reserved": 0, "fusion_lon": 0.0, "fusion_lat": 0.0, "lon": -76.9800785, "name": "08d631c42c934ea635c93447a3b1c0d5"}, {"bike_id": "c1d1705b6a64ddb1e13423f238be0a79", "type": "electric_scooter", "is_disabled": 0, "lat": 38.852050166666665, "rental_uris": {"ios": "https://dc.lft.to/lastmile_qr_scan", "android": "https://dc.lft.to/lastmile_qr_scan"}, "is_reserved": 0, "fusion_lon": 0.0, "fusion_lat": 0.0, "lon": -76.98560483333333, "name": "c1d1705b6a64ddb1e13423f238be0a79"}, {"bike_id": "9c7c4024d9b5cbfedb3cb58a14b66ab9", "type": "electric_scooter", "is_disabled": 0, "lat": 38.9035585, "rental_uris": {"ios": "https://dc.lft.to/lastmile_qr_scan", "android": "https://dc.lft.to/lastmile_qr_scan"}, "is_reserved": 0, "fusion_lon": 0.0, "fusion_lat": 0.0, "lon": -76.99376166666667, "name": "9c7c4024d9b5cbfedb3cb58a14b66ab9"}, {"bike_id": "ddecf62d19c9290897ae0ebd8196afd6", "type": "electric_bike", "is_disabled": 0, "lat": 39.05786166666667, "rental_uris": {"ios": "https://dc.lft.to/lastmile_qr_scan", "android": "https://dc.lft.to/lastmile_qr_scan"}, "is_reserved": 0, "fusion_lon": 0.0, "fusion_lat": 0.0, "lon": -77.150233, "name": "ddecf62d19c9290897ae0ebd8196afd6"}, {"bike_id": "68fa6b6604aaea0219a01cd90d9c4a58", "type": "electric_scooter", "is_disabled": 0, "lat": 38.934446, "rental_uris": {"ios": "https://dc.lft.to/lastmile_qr_scan", "android": "https://dc.lft.to/lastmile_qr_scan"}, "is_reserved": 0, "fusion_lon": 0.0, "fusion_lat": 0.0, "lon": -77.02981583333333, "name": "68fa6b6604aaea0219a01cd90d9c4a58"}, {"bike_id": "ca7c7cfb6f0c3c3ce6f9e97358599bbb", "type": "electric_bike", "is_disabled": 0, "lat": 38.897394166666665, "rental_uris": {"ios": "https://dc.lft.to/lastmile_qr_scan", "android": "https://dc.lft.to/lastmile_qr_scan"}, "is_reserved": 0, "fusion_lon": 0.0, "fusion_lat": 0.0, "lon": -76.94248216666666, "name": "ca7c7cfb6f0c3c3ce6f9e97358599bbb"}, {"bike_id": "5727226ff438af6b901907355ce4c017", "type": "electric_scooter", "is_disabled": 0, "lat": 38.921897666666666, "rental_uris": {"ios": "https://dc.lft.to/lastmile_qr_scan", "android": "https://dc.lft.to/lastmile_qr_scan"}, "is_reserved": 0, "fusion_lon": 0.0, "fusion_lat": 0.0, "lon": -76.993635, "name": "5727226ff438af6b901907355ce4c017"}, {"bike_id": "0eb3d16cf8b1cb37f90049a9d20c9aff", "type": "electric_bike", "is_disabled": 0, "lat": 38.94019983333333, "rental_uris": {"ios": "https://dc.lft.to/lastmile_qr_scan", "android": "https://dc.lft.to/lastmile_qr_scan"}, "is_reserved": 0, "fusion_lon": 0.0, "fusion_lat": 0.0, "lon": -76.976084, "name": "0eb3d16cf8b1cb37f90049a9d20c9aff"}, {"bike_id": "09cc01f256780a8e0d852727a205ec9c", "type": "electric_bike", "is_disabled": 0, "lat": 38.95611816666667, "rental_uris": {"ios": "https://dc.lft.to/lastmile_qr_scan", "android": "https://dc.lft.to/lastmile_qr_scan"}, "is_reserved": 0, "fusion_lon": 0.0, "fusion_lat": 0.0, "lon": -76.93868916666666, "name": "09cc01f256780a8e0d852727a205ec9c"}, {"bike_id": "c8c6f56a78bf403bc94cdbc8e7a26fb4", "type": "electric_scooter", "is_disabled": 0, "lat": 38.884172, "rental_uris": {"ios": "https://dc.lft.to/lastmile_qr_scan", "android": "https://dc.lft.to/lastmile_qr_scan"}, "is_reserved": 0, "fusion_lon": 0.0, "fusion_lat": 0.0, "lon": -77.00742833333334, "name": "c8c6f56a78bf403bc94cdbc8e7a26fb4"},