{"data": {"bikes": [{"is_disabled": 0, "fusion_lon": 0.0, "fusion_lat": 0.0, "lat": 39.1056675, "type": "electric_bike", "lon": -77.1526785, "bike_id": "e1435749aeece70bdf7ad70b5011ebd4", "rental_uris": {"android": "https://dc.lft.to/lastmile_qr_scan", "ios": "https://dc.lft.to/lastmile_qr_scan"}, "name": "e1435749aeece70bdf7ad70b5011ebd4", "is_reserved": 0}, {"is_disabled": 0, "fusion_lon": 0.0, "fusion_lat": 0.0, "lat": 38.89372, "type": "electric_scooter", "lon": -76.949985, "bike_id": "8d4ad88eb410e080fb565a4df3fc6c0d", "rental_uris": {"android": "https://dc.lft.to/lastmile_qr_scan", "ios": "https://dc.lft.to/lastmile_qr_scan"}, "name": "8d4ad88eb410e080fb565a4df3fc6c0d", "is_reserved": 0}, {"is_disabled": 0, "fusion_lon": 0.0, "fusion_lat": 0.0, "lat": 38.919805, "type": "electric_scooter", "lon": -77.000181, "bike_id": "79b78e54a267e37c8f88c7307d1d7fd4", "rental_uris": {"android": "https://dc.lft.to/lastmile_qr_scan", "ios": "https://dc.lft.to/lastmile_qr_scan"}, "name": "79b78e54a267e37c8f88c7307d1d7fd4", "is_reserved": 0}, {"is_disabled": 0, "fusion_lon": 0.0, "fusion_lat": 0.0, "lat": 38.9295335, "type": "electric_scooter", "lon": -77.03274166666667, "bike_id": "49741077377d47f2ef860b981d6c2610", "rental_uris": {"android": "https://dc.lft.to/lastmile_qr_scan", "ios": "https://dc.lft.to/lastmile_qr_scan"}, "name": "49741077377d47f2ef860b981d6c2610", "is_reserved": 0}, {"is_disabled": 0, "fusion_lon": 0.0, "fusion_lat": 0.0, "lat": 38.8874705, "type": "electric_bike", "lon": -76.9008585, "bike_id": "909b3007401917f6bc3a2b60bcd616bc", "rental_uris": {"android": "https://dc.lft.to/lastmile_qr_scan", "ios": "https://dc.lft.to/lastmile_qr_scan"}, "name": "909b3007401917f6bc3a2b60bcd616bc", "is_reserved": 0}, {"is_disabled": 0, "fusion_lon": 0.0, "fusion_lat": 0.0, "lat": 38.92087516666667, "type": "electric_scooter", "lon": -76.9940765, "bike_id": "eed698ab3eb66848c143f817c658ba1c", "rental_uris": {"android": "https://dc.lft.to/lastmile_qr_scan", "ios": "https://dc.lft.to/lastmile_qr_scan"}, "name": "eed698ab3eb66848c143f817c658ba1c", "is_reserved": 0}, {"is_disabled": 0, "fusion_lon": 0.0, "fusion_lat": 0.0, "lat": 38.9133815, "type": "electric_scooter", "lon": -77.03035766666666, "bike_id": "24f807f30a72b4a4f8d5cc6fd5ea7f32", "rental_uris": {"android": "https://dc.lft.to/lastmile_qr_scan", "ios": "https://dc.lft.to/lastmile_qr_scan"}, "name": "24f807f30a72b4a4f8d5cc6fd5ea7f32", "is_reserved": 0}, {"is_disabled": 0, "fusion_lon": 0.0, "fusion_lat": 0.0, "lat": 38.937527833333334, "type": "electric_bike", "lon": -77.03234616666667, "bike_id": "2d240667aaaa89499f11c80b487f63f7", "rental_uris": {"android": "https://dc.lft.to/lastmile_qr_scan", "ios": "https://dc.lft.to/lastmile_qr_scan"}, "name": "2d240667aaaa89499f11c80b487f63f7", "is_reserved": 0}, {"is_disabled": 0, "fusion_lon": 0.0, "fusion_lat": 0.0, "lat": 38.928665333333335, "type": "electric_scooter", "lon": -77.03276633333333, "bike_id": "a999f997fd44dfb70d43e918e987cefd", "rental_uris": {"android": "https://dc.lft.to/lastmile_qr_scan", "ios": "https://dc.lft.to/lastmile_qr_scan"}, "name": "a999f997fd44dfb70d43e918e987cefd", "is_reserved": 0}, {"is_disabled": 0, "fusion_lon": 0.0, "fusion_lat": 0.0, "lat": 38.924475, "type": "electric_bike", "lon": -76.968333, "bike_id": "e58d9117aa19197127bbab308e9ca1b8", "rental_uris": {"android": "https://dc.lft.to/lastmile_qr_scan", "ios": "https://dc.lft.to/lastmile_qr_scan"}, "name": "e58d9117aa19197127bbab308e9ca1b8", "is_reserved": 0}, {"is_disabled": 0, "fusion_lon": 0.0, "fusion_lat": 0.0, "lat": 38.902856666666665, "type": "electric_scooter", "lon": -77.04267716666666, "bike_id": "711092a8f5dcdcd3381b7b4561ba0d23", "rental_uris": {"android": "https://dc.lft.to/lastmile_qr_scan", "ios": "https://dc.lft.to/lastmile_qr_scan"}, "name": "711092a8f5dcdcd3381b7b4561ba0d23", "is_reserved": 0}, {"is_disabled": 0, "fusion_lon": 0.0, "fusion_lat": 0.0, "lat": 38.9156675, "type": "electric_scooter", "lon": -77.0402785, "bike_id": "b38c4ab3b1f3bdad2b11327108528bab", "rental_uris": {"android": "https://dc.lft.to/lastmile_qr_scan", "ios": "https://dc.lft.to/lastmile_qr_scan"}, "name": "b38c4ab3b1f3bdad2b11327108528bab", "is_reserved": 0}, {"is_disabled": 0, "fusion_lon": 0.0, "fusion_lat": 0.0, "lat": 38.929749666666666, "type": "electric_scooter", "lon": -77.0279705, "bike_id": "281d03274fa6b2497cb52e9e7f6b1e0f", "rental_uris": {"android": "https://dc.lft.to/lastmile_qr_scan", "ios": "https://dc.lft.to/lastmile_qr_scan"}, "name": "281d03274fa6b2497cb52e9e7f6b1e0f", "is_reserved": 0}, {"is_disabled": 0, "fusion_lon": 0.0, "fusion_lat": 0.0, "lat": 38.902866, "type": "electric_scooter", "lon": -77.03656916666667, "bike_id": "733cf522afbf2eabd1bfcea90546a5b9", "rental_uris": {"android": "https://dc.lft.to/lastmile_qr_scan", "ios": "https://dc.lft.to/lastmile_qr_scan"}, "name": "733cf522afbf2eabd1bfcea90546a5b9", "is_reserved": 0}, {"is_disabled": 0, "fusion_lon": 0.0, "fusion_lat": 0.0, "lat": 38.924705833333334, "type": "electric_scooter", "lon": -77.07861383333334, "bike_id": "77bda0b0209e23305e933548935d1066", "rental_uris": {"android": "https://dc.lft.to/lastmile_qr_scan", "ios": "https://dc.lft.to/lastmile_qr_scan"}, "name": "77bda0b0209e23305e933548935d1066", "is_reserved": 0}, {"is_disabled": 0, "fusion_lon": 0.0, "fusion_lat": 0.0, "lat": 38.909492, "type": "electric_scooter", "lon": -77.04865733333334, "bike_id": "196b6b63f6ba5633e2ad96a43fe67b81", "rental_uris": {"android": "https://dc.lft.to/lastmile_qr_scan", "ios": "https://dc.lft.to/lastmile_qr_scan"}, "name": "196b6b63f6ba5633e2ad96a43fe67b81", "is_reserved": 0}, {"is_disabled": 0, "fusion_lon": 0.0, "fusion_lat": 0.0, "lat": 38.930499833333336, "type": "electric_scooter", "lon": -77.03230733333334, "bike_id": "ae7a8bb67841f2c6f58a8b14e440fd0b", "rental_uris": {"android": "https://dc.lft.to/lastmile_qr_scan", "ios": "https://dc.lft.to/lastmile_qr_scan"}, "name": "ae7a8bb67841f2c6f58a8b14e440fd0b", "is_reserved": 0}, {"is_disabled": 0, "fusion_lon": 0.0, "fusion_lat": 0.0, "lat": 38.91461666666667, "type": "electric_scooter", "lon": -76.9844395, "bike_id": "04cd36ad1c4b9449028fb466a8d8aa67", "rental_uris": {"android": "https://dc.lft.to/lastmile_qr_scan", "ios": "https://dc.lft.to/lastmile_qr_scan"}, "name": "04cd36ad1c4b9449028fb466a8d8aa67", "is_reserved": 0}, {"is_disabled": 0, "fusion_lon": 0.0, "fusion_lat": 0.0, "lat": 38.925688, "type": "electric_scooter", "lon": -77.08062666666666, "bike_id": "8b919aaceddde89aa90b58338c135614", "rental_uris": {"android": "https://dc.lft.to/lastmile_qr_scan", "ios": "https://dc.lft.to/lastmile_qr_scan"}, "name": "8b919aaceddde89aa90b58338c135614", "is_reserved": 0}, {"is_disabled": 0, "fusion_lon": 0.0, "fusion_lat": 0.0, "lat": 38.8953505, "type": "electric_scooter", "lon": -77.04845833333333, "bike_id": "026d5a805179047ddbc6662acbe9ae39", "rental_uris": {"android": "https://dc.lft.to/lastmile_qr_scan", "ios": "https://dc.lft.to/lastmile_qr_scan"}, "name": "026d5a805179047ddbc6662acbe9ae39", "is_reserved": 0}, {"is_disabled": 0, "fusion_lon": 0.0, "fusion_lat": 0.0, "lat": 38.8775275, "type": "electric_bike", "lon": -76.97996716666667, "bike_id": "6e082f29cb5ac9f4e7529589cccb3ee2", "rental_uris": {"android": "https://dc.lft.to/lastmile_qr_scan", "ios": "https://dc.lft.to/lastmile_qr_scan"}, "name": "6e082f29cb5ac9f4e7529589cccb3ee2", "is_reserved": 0}, {"is_disabled": 0, "fusion_lon": 0.0, "fusion_lat": 0.0, "lat": 38.92087083333333, "type": "electric_scooter", "lon": -77.018022, "bike_id": "c1262a65f3c93181886bb476ed52234f", "rental_uris": {"android": "https://dc.lft.to/lastmile_qr_scan", "ios": "https://dc.lft.to/lastmile_qr_scan"}, "name": "c1262a65f3c93181886bb476ed52234f", "is_reserved": 0}, {"is_disabled": 0, "fusion_lon": 0.0, "fusion_lat": 0.0, "lat": 38.939693166666665, "type": "electric_bike", "lon": -77.36090183333333, "bike_id": "1ab34d6137da35e1ce992d8002314d15", "rental_uris": {"android": "https://dc.lft.to/lastmile_qr_scan", "ios": "https://dc.lft.to/lastmile_qr_scan"}, "name": "1ab34d6137da35e1ce992d8002314d15", "is_reserved": 0}, {"is_disabled": 0, "fusion_lon": 0.0, "fusion_lat": 0.0, "lat": 38.89655666666667, "type": "electric_scooter", "lon": -77.02747516666666, "bike_id": "0f34e57f75b737d67361248718623bb9", "rental_uris": {"android": "https://dc.lft.to/lastmile_qr_scan", "ios": "https://dc.lft.to/lastmile_qr_scan"}, "name": "0f34e57f75b737d67361248718623bb9", "is_reserved": 0}, {"is_disabled": 0, "fusion_lon": 0.0, "fusion_lat": 0.0, "lat": 38.9047665, "type": "electric_scooter", "lon": -77.06215516666667, "bike_id": "5970edfa839decd97906438de3cd7059", "rental_uris": {"android": "https://dc.lft.to/lastmile_qr_scan", "ios": "https://dc.lft.to/lastmile_qr_scan"}, "name": "5970edfa839decd97906438de3cd7059", "is_reserved": 0}, {"is_disabled": 0, "fusion_lon": 0.0, "fusion_lat": 0.0, "lat": 38.9170215, "type": "electric_scooter", "lon": -77.0329465, "bike_id": "a594e40408423ba1bbe74c9c311c2072", "rental_uris": {"android": "https://dc.lft.to/lastmile_qr_scan", "ios": "https://dc.lft.to/lastmile_qr_scan"}, "name": "a594e40408423ba1bbe74c9c311c2072", "is_reserved": 0}, {"is_disabled": 0, "fusion_lon": 0.0, "fusion_lat": 0.0, "lat": 38.936314333333335, "type": "electric_scooter", "lon": -77.02694416666667, "bike_id": "dee334b76c9000d7d94957985ce50ecd", "rental_uris": {"android": "https://dc.lft.to/lastmile_qr_scan", "ios": "https://dc.lft.to/lastmile_qr_scan"}, "name": "dee334b76c9000d7d94957985ce50ecd", "is_reserved": 0}, {"is_disabled": 0, "fusion_lon": 0.0, "fusion_lat": 0.0, "lat": 38.916946833333334, "type": "electric_scooter", "lon": -77.041146, "bike_id": "53f2181bdde8b60486030ab668cdb0a7", "rental_uris": {"android": "https://dc.lft.to/lastmile_qr_scan", "ios": "https://dc.lft.to/lastmile_qr_scan"}, "name": "53f2181bdde8b60486030ab668cdb0a7", "is_reserved": 0}, {"is_disabled": 0, "fusion_lon": 0.0, "fusion_lat": 0.0, "lat": 38.89215166666666, "type": "electric_scooter", "lon": -77.03188216666666, "bike_id": "6ea29abf5eee793296af803b86334e8c", "rental_uris": {"android": "https://dc.lft.to/lastmile_qr_scan", "ios": "https://dc.lft.to/lastmile_qr_scan"}, "name": "6ea29abf5eee793296af803b86334e8c", "is_reserved": 0}, {"is_disabled": 0, "fusion_lon": 0.0, "fusion_lat": 0.0, "lat": 38.8980605, "type": "electric_scooter", "lon": -77.02788783333334, "bike_id": "d2b7461ec6c2d3db269b0bd57932a4b0", "rental_uris": {"android": "https://dc.lft.to/lastmile_qr_scan", "ios": "https://dc.lft.to/lastmile_qr_scan"}, "name": "d2b7461ec6c2d3db269b0bd57932a4b0", "is_reserved": 0}, {"is_disabled": 0, "fusion_lon": 0.0, "fusion_lat": 0.0, "lat": 38.93522766666667, "type": "electric_scooter", "lon": -77.06637233333333, "bike_id": "330974646efa6dedf54a0c3716a6e07e", "rental_uris": {"android": "https://dc.lft.to/lastmile_qr_scan", "ios": "https://dc.lft.to/lastmile_qr_scan"}, "name": "330974646efa6dedf54a0c3716a6e07e", "is_reserved": 0}, {"is_disabled": 0, "fusion_lon": 0.0, "fusion_lat": 0.0, "lat": 38.86589216666667, "type": "electric_scooter", "lon": -77.01071683333333, "bike_id": "44314876252c3ac924465fdc4180dc35", "rental_uris": {"android": "https://dc.lft.to/lastmile_qr_scan", "ios": "https://dc.lft.to/lastmile_qr_scan"}, "name": "44314876252c3ac924465fdc4180dc35", "is_reserved": 0}, {"is_disabled": 0, "fusion_lon": 0.0, "fusion_lat": 0.0, "lat": 38.91181266666667, "type": "electric_scooter", "lon": -77.00464883333333, "bike_id": "06ea21a881e3106c84f718de841f6c9b", "rental_uris": {"android": "https://dc.lft.to/lastmile_qr_scan", "ios": "https://dc.lft.to/lastmile_qr_scan"}, "name": "06ea21a881e3106c84f718de841f6c9b", "is_reserved": 0}, {"is_disabled": 0, "fusion_lon": 0.0, "fusion_lat": 0.0, "lat": 38.930914, "type": "electric_scooter", "lon": -77.036197, "bike_id": "2a4eac6653eeeb1a70843c0757a12f56", "rental_uris": {"android": "https://dc.lft.to/lastmile_qr_scan", "ios": "https://dc.lft.to/lastmile_qr_scan"}, "name": "2a4eac6653eeeb1a70843c0757a12f56", "is_reserved": 0}, {"is_disabled": 0, "fusion_lon": 0.0, "fusion_lat": 0.0, "lat": 38.90851466666667, "type": "electric_scooter", "lon": -77.06082266666667, "bike_id": "e707b2739823383fc21eaad598311177", "rental_uris": {"android": "https://dc.lft.to/lastmile_qr_scan", "ios": "https://dc.lft.to/lastmile_qr_scan"}, "name": "e707b2739823383fc21eaad598311177", "is_reserved": 0}, {"is_disabled": 0, "fusion_lon": 0.0, "fusion_lat": 0.0, "lat": 38.90054683333334, "type": "electric_scooter", "lon": -77.00190533333334, "bike_id": "9385525f7c9b579b75a256c7ee94af68", "rental_uris": {"android": "https://dc.lft.to/lastmile_qr_scan", "ios": "https://dc.lft.to/lastmile_qr_scan"}, "name": "9385525f7c9b579b75a256c7ee94af68", "is_reserved": 0}, {"is_disabled": 0, "fusion_lon": 0.0, "fusion_lat": 0.0, "lat": 38.88537516666667, "type": "electric_scooter", "lon": -76.92696533333333, "bike_id": "d69858249b7cc7141fa84525d6b1157f", "rental_uris": {"android": "https://dc.lft.to/lastmile_qr_scan", "ios": "https://dc.lft.to/lastmile_qr_scan"}, "name": "d69858249b7cc7141fa84525d6b1157f", "is_reserved": 0}, {"is_disabled": 0, "fusion_lon": 0.0, "fusion_lat": 0.0, "lat": 38.92149533333333, "type": "electric_scooter", "lon": -77.0296305, "bike_id": "9bae2eddeffca34b8a68501359e008a3", "rental_uris": {"android": "https://dc.lft.to/lastmile_qr_scan", "ios": "https://dc.lft.to/lastmile_qr_scan"}, "name": "9bae2eddeffca34b8a68501359e008a3", "is_reserved": 0}, {"is_disabled": 0, "fusion_lon": 0.0, "fusion_lat": 0.0, "lat": 38.933412833333335, "type": "electric_scooter", "lon": -77.04133516666667, "bike_id": "89fd5facfc263812a5727c6f6b5dba1e", "rental_uris": {"android": "https://dc.lft.to/lastmile_qr_scan", "ios": "https://dc.lft.to/lastmile_qr_scan"}, "name": "89fd5facfc263812a5727c6f6b5dba1e", "is_reserved": 0}, {"is_disabled": 0, "fusion_lon": 0.0, "fusion_lat": 0.0, "lat": 38.934157166666665, "type": "electric_scooter", "lon": -77.0244535, "bike_id": "edd41571b9c4a2304ff0556e4648c19c", "rental_uris": {"android": "https://dc.lft.to/lastmile_qr_scan", "ios": "https://dc.lft.to/lastmile_qr_scan"}, "name": "edd41571b9c4a2304ff0556e4648c19c", "is_reserved": 0}, {"is_disabled": 0, "fusion_lon": 0.0, "fusion_lat": 0.0, "lat": 38.86734083333333, "type": "electric_scooter", "lon": -76.97941483333334, "bike_id": "f768265f545f5d7987a60da26476a502", "rental_uris": {"android": "https://dc.lft.to/lastmile_qr_scan", "ios": "https://dc.lft.to/lastmile_qr_scan"}, "name": "f768265f545f5d7987a60da26476a502", "is_reserved": 0}, {"is_disabled": 0, "fusion_lon": 0.0, "fusion_lat": 0.0, "lat": 38.93413133333333, "type": "electric_bike", "lon": -77.025058, "bike_id": "b5631c56284cd4c640888cce6ad765d4", "rental_uris": {"android": "https://dc.lft.to/lastmile_qr_scan", "ios": "https://dc.lft.to/lastmile_qr_scan"}, "name": "b5631c56284cd4c640888cce6ad765d4", "is_reserved": 0}, {"is_disabled": 0, "fusion_lon": 0.0, "fusion_lat": 0.0, "lat": 38.92318816666667, "type": "electric_scooter", "lon": -77.046212, "bike_id": "e00cc67aa3437eac7db2947f7cf84aae", "rental_uris": {"android": "https://dc.lft.to/lastmile_qr_scan", "ios": "https://dc.lft.to/lastmile_qr_scan"}, "name": "e00cc67aa3437eac7db2947f7cf84aae", "is_reserved": 0}, {"is_disabled": 0, "fusion_lon": 0.0, "fusion_lat": 0.0, "lat": 38.92433033333333, "type": "electric_scooter", "lon": -77.0354045, "bike_id": "373f865ba55fbc26dd99bb4a352a1030", "rental_uris": {"android": "https://dc.lft.to/lastmile_qr_scan", "ios": "https://dc.lft.to/lastmile_qr_scan"}, "name": "373f865ba55fbc26dd99bb4a352a1030", "is_reserved": 0}, {"is_disabled": 0, "fusion_lon": 0.0, "fusion_lat": 0.0, "lat": 38.91115933333333, "type": "electric_scooter", "lon": -77.03735683333333, "bike_id": "f56a9041ba1b7f6e86cd0b0d8a9d3305", "rental_uris": {"android": "https://dc.lft.to/lastmile_qr_scan", "ios": "https://dc.lft.to/lastmile_qr_scan"}, "name": "f56a9041ba1b7f6e86cd0b0d8a9d3305", "is_reserved": 0}, {"is_disabled": 0, "fusion_lon": 0.0, "fusion_lat": 0.0, "lat": 38.89724733333333, "type": "electric_scooter", "lon": -77.048097, "bike_id": "ccd5dfd3d38cf508b1a7d91231a38f96", "rental_uris": {"android": "https://dc.lft.to/lastmile_qr_scan", "ios": "https://dc.lft.to/lastmile_qr_scan"}, "name": "ccd5dfd3d38cf508b1a7d91231a38f96", "is_reserved": 0}, {"is_disabled": 0, "fusion_lon": 0.0, "fusion_lat": 0.0, "lat": 38.949984666666666, "type": "electric_bike", "lon": -77.35307666666667, "bike_id": "6cbfb12f160315dab3b2bce152b0543c", "rental_uris": {"android": "https://dc.lft.to/lastmile_qr_scan", "ios": "https://dc.lft.to/lastmile_qr_scan"}, "name": "6cbfb12f160315dab3b2bce152b0543c", "is_reserved": 0}, {"is_disabled": 0, "fusion_lon": 0.0, "fusion_lat": 0.0, "lat": 38.8767085, "type": "electric_scooter", "lon": -76.9319845, "bike_id": "1a0da942aadf2ff21accea7369903c3d", "rental_uris": {"android": "https://dc.lft.to/lastmile_qr_scan", "ios": "https://dc.lft.to/lastmile_qr_scan"}, "name": "1a0da942aadf2ff21accea7369903c3d", "is_reserved": 0}, {"is_disabled": 0, "fusion_lon": 0.0, "fusion_lat": 0.0, "lat": 38.92814466666667, "type": "electric_scooter", "lon": -77.02347616666667, "bike_id": "b60aa6e56eab5983eed659821e822551", "rental_uris": {"android": "https://dc.lft.to/lastmile_qr_scan", "ios": "https://dc.lft.to/lastmile_qr_scan"}, "name": "b60aa6e56eab5983eed659821e822551", "is_reserved": 0}, {"is_disabled": 0, "fusion_lon": 0.0, "fusion_lat": 0.0, "lat": 38.9012425, "type": "electric_scooter", "lon": -77.0032175, "bike_id": "8fd80afc94cde97fd66003b592b75162", "rental_uris": {"android": "https://dc.lft.to/lastmile_qr_scan", "ios": "https://dc.lft.to/lastmile_qr_scan"}, "name": "8fd80afc94cde97fd66003b592b75162", "is_reserved": 0}, {"is_disabled": 0, "fusion_lon": 0.0, "fusion_lat": 0.0, "lat": 38.8768215, "type": "electric_bike", "lon": -77.01459166666666, "bike_id": "6020cd9601fc9356b4f2fbf0446fad83", "rental_uris": {"android": "https://dc.lft.to/lastmile_qr_scan", "ios": "https://dc.lft.to/lastmile_qr_scan"}, "name": "6020cd9601fc9356b4f2fbf0446fad83", "is_reserved": 0}, {"is_disabled": 0, "fusion_lon": 0.0, "fusion_lat": 0.0, "lat": 38.89844866666667, "type": "electric_scooter", "lon": -77.029244, "bike_id": "43fdda9a73f23823d0248869b1ae2b3d", "rental_uris": {"android": "https://dc.lft.to/lastmile_qr_scan", "ios": "https://dc.lft.to/lastmile_qr_scan"}, "name": "43fdda9a73f23823d0248869b1ae2b3d", "is_reserved": 0}, {"is_disabled": 0, "fusion_lon": 0.0, "fusion_lat": 0.0, "lat": 38.90473766666667, "type": "electric_scooter", "lon": -77.04860783333334, "bike_id": "bb2c432c47456172286a758b8a0868eb", "rental_uris": {"android": "https://dc.lft.to/lastmile_qr_scan", "ios": "https://dc.lft.to/lastmile_qr_scan"}, "name": "bb2c432c47456172286a758b8a0868eb", "is_reserved": 0}, {"is_disabled": 0, "fusion_lon": 0.0, "fusion_lat": 0.0, "lat": 38.91407383333333, "type": "electric_scooter", "lon": -77.037598, "bike_id": "433192e209a9972f03800420d480d5c9", "rental_uris": {"android": "https://dc.lft.to/lastmile_qr_scan", "ios": "https://dc.lft.to/lastmile_qr_scan"}, "name": "433192e209a9972f03800420d480d5c9", "is_reserved": 0}, {"is_disabled": 0, "fusion_lon": 0.0, "fusion_lat": 0.0, "lat": 38.912201833333334, "type": "electric_scooter", "lon": -77.03841, "bike_id": "079af9f1dec96b81f04e08e42297353f", "rental_uris": {"android": "https://dc.lft.to/lastmile_qr_scan", "ios": "https://dc.lft.to/lastmile_qr_scan"}, "name": "079af9f1dec96b81f04e08e42297353f", "is_reserved": 0}, {"is_disabled": 0, "fusion_lon": 0.0, "fusion_lat": 0.0, "lat": 39.058157333333334, "type": "electric_bike", "lon": -77.1262575, "bike_id": "c3d1cd096e96c91d1753c17567aee935", "rental_uris": {"android": "https://dc.lft.to/lastmile_qr_scan", "ios": "https://dc.lft.to/lastmile_qr_scan"}, "name": "c3d1cd096e96c91d1753c17567aee935", "is_reserved": 0}, {"is_disabled": 0, "fusion_lon": 0.0, "fusion_lat": 0.0, "lat": 38.903535833333336, "type": "electric_scooter", "lon": -77.02609433333333, "bike_id": "b67be49322bc27e322626445ee4af93a", "rental_uris": {"android": "https://dc.lft.to/lastmile_qr_scan", "ios": "https://dc.lft.to/lastmile_qr_scan"}, "name": "b67be49322bc27e322626445ee4af93a", "is_reserved": 0}, {"is_disabled": 0, "fusion_lon": 0.0, "fusion_lat": 0.0, "lat": 38.92968316666666, "type": "electric_scooter", "lon": -77.00535916666666, "bike_id": "424b0484c17e5f773f14c55634e1b3ae", "rental_uris": {"android": "https://dc.lft.to/lastmile_qr_scan", "ios": "https://dc.lft.to/lastmile_qr_scan"}, "name": "424b0484c17e5f773f14c55634e1b3ae", "is_reserved": 0}, {"is_disabled": 0, "fusion_lon": 0.0, "fusion_lat": 0.0, "lat": 38.94159333333333, "type": "electric_bike", "lon": -77.00193066666667, "bike_id": "b9ba764efd9b7db4f6c5f5784c492eda", "rental_uris": {"android": "https://dc.lft.to/lastmile_qr_scan", "ios": "https://dc.lft.to/lastmile_qr_scan"}, "name": "b9ba764efd9b7db4f6c5f5784c492eda", "is_reserved": 0}, {"is_disabled": 0, "fusion_lon": 0.0, "fusion_lat": 0.0, "lat": 38.89694433333333, "type": "electric_scooter", "lon": -77.00493883333333, "bike_id": "f4bbdeaa0746c80fd7fddb5281965779", "rental_uris": {"android": "https://dc.lft.to/lastmile_qr_scan", "ios": "https://dc.lft.to/lastmile_qr_scan"}, "name": "f4bbdeaa0746c80fd7fddb5281965779", "is_reserved": 0}, {"is_disabled": 0, "fusion_lon": 0.0, "fusion_lat": 0.0, "lat": 38.84515583333334, "type": "electric_bike", "lon": -76.972116, "bike_id": "5a1ae14f439900b63e7c69331b0fae36", "rental_uris": {"android": "https://dc.lft.to/lastmile_qr_scan", "ios": "https://dc.lft.to/lastmile_qr_scan"}, "name": "5a1ae14f439900b63e7c69331b0fae36", "is_reserved": 0}, {"is_disabled": 0, "fusion_lon": 0.0, "fusion_lat": 0.0, "lat": 38.90907466666667, "type": "electric_scooter", "lon": -77.02711783333334, "bike_id": "b9649286863c8bd7532721bf23774ad5", "rental_uris": {"android": "https://dc.lft.to/lastmile_qr_scan", "ios": "https://dc.lft.to/lastmile_qr_scan"}, "name": "b9649286863c8bd7532721bf23774ad5", "is_reserved": 0}, {"is_disabled": 0, "fusion_lon": 0.0, "fusion_lat": 0.0, "lat": 38.91984583333333, "type": "electric_scooter", "lon": -77.04176783333334, "bike_id": "0f67e20e42433dd91e7785332f98012a", "rental_uris": {"android": "https://dc.lft.to/lastmile_qr_scan", "ios": "https://dc.lft.to/lastmile_qr_scan"}, "name": "0f67e20e42433dd91e7785332f98012a", "is_reserved": 0}, {"is_disabled": 0, "fusion_lon": 0.0, "fusion_lat": 0.0, "lat": 38.91644983333333, "type": "electric_scooter", "lon": -77.0280885, "bike_id": "59f32ffce2187fc9787a3ca13f89b8e7", "rental_uris": {"android": "https://dc.lft.to/lastmile_qr_scan", "ios": "https://dc.lft.to/lastmile_qr_scan"}, "name": "59f32ffce2187fc9787a3ca13f89b8e7", "is_reserved": 0}, {"is_disabled": 0, "fusion_lon": 0.0, "fusion_lat": 0.0, "lat": 38.92408233333333, "type": "electric_bike", "lon": -77.04257383333334, "bike_id": "9be044c9ac4fc3aea2fc4faec9827b1b", "rental_uris": {"android": "https://dc.lft.to/lastmile_qr_scan", "ios": "https://dc.lft.to/lastmile_qr_scan"}, "name": "9be044c9ac4fc3aea2fc4faec9827b1b", "is_reserved": 0}, {"is_disabled": 0, "fusion_lon": 0.0, "fusion_lat": 0.0, "lat": 38.9988235, "type": "electric_bike", "lon": -77.0288555, "bike_id": "2c2c5d99acada227235deae86b607eb0", "rental_uris": {"android": "https://dc.lft.to/lastmile_qr_scan", "ios": "https://dc.lft.to/lastmile_qr_scan"}, "name": "2c2c5d99acada227235deae86b607eb0", "is_reserved": 0}, {"is_disabled": 0, "fusion_lon": 0.0, "fusion_lat": 0.0, "lat": 38.90015866666667, "type": "electric_scooter", "lon": -77.04165533333334, "bike_id": "ba052f30c50700df745488b2cc3cd49d", "rental_uris": {"android": "https://dc.lft.to/lastmile_qr_scan", "ios": "https://dc.lft.to/lastmile_qr_scan"}, "name": "ba052f30c50700df745488b2cc3cd49d", "is_reserved": 0}, {"is_disabled": 0, "fusion_lon": 0.0, "fusion_lat": 0.0, "lat": 38.951276166666666, "type": "electric_scooter", "lon": -77.01401433333334, "bike_id": "850809e4a2fec55999f9426f8705d59e", "rental_uris": {"android": "https://dc.lft.to/lastmile_qr_scan", "ios": "https://dc.lft.to/lastmile_qr_scan"}, "name": "850809e4a2fec55999f9426f8705d59e", "is_reserved": 0}, {"is_disabled": 0, "fusion_lon": 0.0, "fusion_lat": 0.0, "lat": 38.91399216666667, "type": "electric_scooter", "lon": -77.03767, "bike_id": "6f89b13ddc9f6c16abf2ac846287bb19", "rental_uris": {"android": "https://dc.lft.to/lastmile_qr_scan", "ios": "https://dc.lft.to/lastmile_qr_scan"}, "name": "6f89b13ddc9f6c16abf2ac846287bb19", "is_reserved": 0}, {"is_disabled": 0, "fusion_lon": 0.0, "fusion_lat": 0.0, "lat": 38.908667, "type": "electric_scooter", "lon": -77.0270385, "bike_id": "9f0a5a9efb3a831f9c43a7f1a84d6e9f", "rental_uris": {"android": "https://dc.lft.to/lastmile_qr_scan", "ios": "https://dc.lft.to/lastmile_qr_scan"}, "name": "9f0a5a9efb3a831f9c43a7f1a84d6e9f", "is_reserved": 0}, {"is_disabled": 0, "fusion_lon": 0.0, "fusion_lat": 0.0, "lat": 38.907143, "type": "electric_scooter", "lon": -77.02715116666667, "bike_id": "5fd97df3c7effd476e043ee43f565d93", "rental_uris": {"android": "https://dc.lft.to/lastmile_qr_scan", "ios": "https://dc.lft.to/lastmile_qr_scan"}, "name": "5fd97df3c7effd476e043ee43f565d93", "is_reserved": 0}, {"is_disabled": 0, "fusion_lon": 0.0, "fusion_lat": 0.0, "lat": 38.91810566666667, "type": "electric_scooter", "lon": -77.04016316666667, "bike_id": "df5af507bc4b2d5475e24519944f8f09", "rental_uris": {"android": "https://dc.lft.to/lastmile_qr_scan", "ios": "https://dc.lft.to/lastmile_qr_scan"}, "name": "df5af507bc4b2d5475e24519944f8f09", "is_reserved": 0}, {"is_disabled": 0, "fusion_lon": 0.0, "fusion_lat": 0.0, "lat": 38.91706116666667, "type": "electric_scooter", "lon": -77.02842966666667, "bike_id": "c1983327363baa479c404b9f3003bb0c", "rental_uris": {"android": "https://dc.lft.to/lastmile_qr_scan", "ios": "https://dc.lft.to/lastmile_qr_scan"}, "name": "c1983327363baa479c404b9f3003bb0c", "is_reserved": 0}, {"is_disabled": 0, "fusion_lon": 0.0, "fusion_lat": 0.0, "lat": 38.9156325, "type": "electric_scooter", "lon": -77.03236366666667, "bike_id": "9a8009043f7b4480da6734b597d5c9f1", "rental_uris": {"android": "https://dc.lft.to/lastmile_qr_scan", "ios": "https://dc.lft.to/lastmile_qr_scan"}, "name": "9a8009043f7b4480da6734b597d5c9f1", "is_reserved": 0}, {"is_disabled": 0, "fusion_lon": 0.0, "fusion_lat": 0.0, "lat": 38.828704, "type": "electric_bike", "lon": -77.112243, "bike_id": "416e051b37217f28062150aec372510c", "rental_uris": {"android": "https://dc.lft.to/lastmile_qr_scan", "ios": "https://dc.lft.to/lastmile_qr_scan"}, "name": "416e051b37217f28062150aec372510c", "is_reserved": 0}, {"is_disabled": 0, "fusion_lon": 0.0, "fusion_lat": 0.0, "lat": 38.902665666666664, "type": "electric_scooter", "lon": -77.0608855, "bike_id": "9d8a1d8826016073ca70f3e75a3d9bf8", "rental_uris": {"android": "https://dc.lft.to/lastmile_qr_scan", "ios": "https://dc.lft.to/lastmile_qr_scan"}, "name": "9d8a1d8826016073ca70f3e75a3d9bf8", "is_reserved": 0}, {"is_disabled": 0, "fusion_lon": 0.0, "fusion_lat": 0.0, "lat": 38.92551983333333, "type": "electric_scooter", "lon": -77.05294033333334, "bike_id": "1c8f3944c538ab5243bc20a04a376d5e", "rental_uris": {"android": "https://dc.lft.to/lastmile_qr_scan", "ios": "https://dc.lft.to/lastmile_qr_scan"}, "name": "1c8f3944c538ab5243bc20a04a376d5e", "is_reserved": 0}, {"is_disabled": 0, "fusion_lon": 0.0, "fusion_lat": 0.0, "lat": 38.9212525, "type": "electric_scooter", "lon": -77.02175883333334, "bike_id": "7031dac57449f4dc2773c19e6c383f4e", "rental_uris": {"android": "https://dc.lft.to/lastmile_qr_scan", "ios": "https://dc.lft.to/lastmile_qr_scan"}, "name": "7031dac57449f4dc2773c19e6c383f4e", "is_reserved": 0}, {"is_disabled": 0, "fusion_lon": 0.0, "fusion_lat": 0.0, "lat": 39.00016883333333, "type": "electric_bike", "lon": -76.87284233333334, "bike_id": "f742abdc8be627f6237fd5480877bc3f", "rental_uris": {"android": "https://dc.lft.to/lastmile_qr_scan", "ios": "https://dc.lft.to/lastmile_qr_scan"}, "name": "f742abdc8be627f6237fd5480877bc3f", "is_reserved": 0}, {"is_disabled": 0, "fusion_lon": 0.0, "fusion_lat": 0.0, "lat": 38.900404, "type": "electric_scooter", "lon": -77.04326766666667, "bike_id": "99f76e876e4cb2cb91f1e712fe9002fc", "rental_uris": {"android": "https://dc.lft.to/lastmile_qr_scan", "ios": "https://dc.lft.to/lastmile_qr_scan"}, "name": "99f76e876e4cb2cb91f1e712fe9002fc", "is_reserved": 0}, {"is_disabled": 0, "fusion_lon": 0.0, "fusion_lat": 0.0, "lat": 38.91338483333333, "type": "electric_scooter", "lon": -77.0325905, "bike_id": "f8e352970e28c26ecbd8bfee24f33c2f", "rental_uris": {"android": "https://dc.lft.to/lastmile_qr_scan", "ios": "https://dc.lft.to/lastmile_qr_scan"}, "name": "f8e352970e28c26ecbd8bfee24f33c2f", "is_reserved": 0}, {"is_disabled": 0, "fusion_lon": 0.0, "fusion_lat": 0.0, "lat": 38.88410066666667, "type": "electric_scooter", "lon": -76.95405833333334, "bike_id": "b732eb518473430cf6b9613a6a77b3a9", "rental_uris": {"android": "https://dc.lft.to/lastmile_qr_scan", "ios": "https://dc.lft.to/lastmile_qr_scan"}, "name": "b732eb518473430cf6b9613a6a77b3a9", "is_reserved": 0}, {"is_disabled": 0, "fusion_lon": 0.0, "fusion_lat": 0.0, "lat": 38.91800966666667, "type": "electric_scooter", "lon": -77.0345065, "bike_id": "69b3a4e9d97bce915fb09994cca9bb3a", "rental_uris": {"android": "https://dc.lft.to/lastmile_qr_scan", "ios": "https://dc.lft.to/lastmile_qr_scan"}, "name": "69b3a4e9d97bce915fb09994cca9bb3a", "is_reserved": 0}, {"is_disabled": 0, "fusion_lon": 0.0, "fusion_lat": 0.0, "lat": 38.90651916666667, "type": "electric_scooter", "lon": -77.0487025, "bike_id": "2c7929249b7cad33f56804168a6756c4", "rental_uris": {"android": "https://dc.lft.to/lastmile_qr_scan", "ios": "https://dc.lft.to/lastmile_qr_scan"}, "name": "2c7929249b7cad33f56804168a6756c4", "is_reserved": 0}, {"is_disabled": 0, "fusion_lon": 0.0, "fusion_lat": 0.0, "lat": 38.91483483333333, "type": "electric_scooter", "lon": -77.0346605, "bike_id": "46f24902af6fb1f37815103c35ca0807", "rental_uris": {"android": "https://dc.lft.to/lastmile_qr_scan", "ios": "https://dc.lft.to/lastmile_qr_scan"}, "name": "46f24902af6fb1f37815103c35ca0807", "is_reserved": 0}, {"is_disabled": 0, "fusion_lon": 0.0, "fusion_lat": 0.0, "lat": 39.08840683333333, "type": "electric_bike", "lon": -77.1780335, "bike_id": "65f519c03ddff3b73670369d8e0a712c", "rental_uris": {"android": "https://dc.lft.to/lastmile_qr_scan", "ios": "https://dc.lft.to/lastmile_qr_scan"}, "name": "65f519c03ddff3b73670369d8e0a712c", "is_reserved": 0}, {"is_disabled": 0, "fusion_lon": 0.0, "fusion_lat": 0.0, "lat": 38.89206316666667, "type": "electric_scooter", "lon": -76.988086, "bike_id": "6125ccc41476058e66f173955d7e69ea", "rental_uris": {"android": "https://dc.lft.to/lastmile_qr_scan", "ios": "https://dc.lft.to/lastmile_qr_scan"}, "name": "6125ccc41476058e66f173955d7e69ea", "is_reserved": 0}, {"is_disabled": 0, "fusion_lon": 0.0, "fusion_lat": 0.0, "lat": 38.92278016666667, "type": "electric_scooter", "lon": -77.029738, "bike_id": "8cd7b17fdc2806132563ddb8bfb29df9", "rental_uris": {"android": "https://dc.lft.to/lastmile_qr_scan", "ios": "https://dc.lft.to/lastmile_qr_scan"}, "name": "8cd7b17fdc2806132563ddb8bfb29df9", "is_reserved": 0}, {"is_disabled": 0, "fusion_lon": 0.0, "fusion_lat": 0.0, "lat": 38.9313265, "type": "electric_scooter", "lon": -77.057257, "bike_id": "9486d3fff0cd976c998db5ac37c6b406", "rental_uris": {"android": "https://dc.lft.to/lastmile_qr_scan", "ios": "https://dc.lft.to/lastmile_qr_scan"}, "name": "9486d3fff0cd976c998db5ac37c6b406", "is_reserved": 0}, {"is_disabled": 0, "fusion_lon": 0.0, "fusion_lat": 0.0, "lat": 38.893642166666666, "type": "electric_scooter", "lon": -77.03963133333333, "bike_id": "10545be29a5cb4989602efa86750854c", "rental_uris": {"android": "https://dc.lft.to/lastmile_qr_scan", "ios": "https://dc.lft.to/lastmile_qr_scan"}, "name": "10545be29a5cb4989602efa86750854c", "is_reserved": 0}, {"is_disabled": 0, "fusion_lon": 0.0, "fusion_lat": 0.0, "lat": 38.87896633333333, "type": "electric_scooter", "lon": -76.935245, "bike_id": "a303812a94e095ab307a08bb578555a2", "rental_uris": {"android": "https://dc.lft.to/lastmile_qr_scan", "ios": "https://dc.lft.to/lastmile_qr_scan"}, "name": "a303812a94e095ab307a08bb578555a2", "is_reserved": 0}, {"is_disabled": 0, "fusion_lon": 0.0, "fusion_lat": 0.0, "lat": 38.97405666666667, "type": "electric_bike", "lon": -77.02496233333333, "bike_id": "5575d1fc42b1a7d41881ff3ccf1eaf89", "rental_uris": {"android": "https://dc.lft.to/lastmile_qr_scan", "ios": "https://dc.lft.to/lastmile_qr_scan"}, "name": "5575d1fc42b1a7d41881ff3ccf1eaf89", "is_reserved": 0}, {"is_disabled": 0, "fusion_lon": 0.0, "fusion_lat": 0.0, "lat": 38.900657833333334, "type": "electric_scooter", "lon": -76.93385666666667, "bike_id": "1b179a373ddaa856fcf1ef6a7b4416ed", "rental_uris": {"android": "https://dc.lft.to/lastmile_qr_scan", "ios": "https://dc.lft.to/lastmile_qr_scan"}, "name": "1b179a373ddaa856fcf1ef6a7b4416ed", "is_reserved": 0}, {"is_disabled": 0, "fusion_lon": 0.0, "fusion_lat": 0.0, "lat": 38.898539666666665, "type": "electric_scooter", "lon": -77.02223966666666, "bike_id": "8a3896f96386d4c6270a1e27c4068692", "rental_uris": {"android": "https://dc.lft.to/lastmile_qr_scan", "ios": "https://dc.lft.to/lastmile_qr_scan"}, "name": "8a3896f96386d4c6270a1e27c4068692", "is_reserved": 0}, {"is_disabled": 0, "fusion_lon": 0.0, "fusion_lat": 0.0, "lat": 38.9478605, "type": "electric_scooter", "lon": -77.09278933333333, "bike_id": "5d6a89d23a9304c6a184eae5939086e0", "rental_uris": {"android": "https://dc.lft.to/lastmile_qr_scan", "ios": "https://dc.lft.to/lastmile_qr_scan"}, "name": "5d6a89d23a9304c6a184eae5939086e0", "is_reserved": 0}, {"is_disabled": 0, "fusion_lon": 0.0, "fusion_lat": 0.0, "lat": 38.905337833333334, "type": "electric_scooter", "lon": -77.02970433333333, "bike_id": "e1f5986538ef9d4a65b8b1bdca7a88d9", "rental_uris": {"android": "https://dc.lft.to/lastmile_qr_scan", "ios": "https://dc.lft.to/lastmile_qr_scan"}, "name": "e1f5986538ef9d4a65b8b1bdca7a88d9", "is_reserved": 0}, {"is_disabled": 0, "fusion_lon": 0.0, "fusion_lat": 0.0, "lat": 38.899600166666666, "type": "electric_scooter", "lon": -77.046188, "bike_id": "7d89204d791ed4324af2aba69ded0249", "rental_uris": {"android": "https://dc.lft.to/lastmile_qr_scan", "ios": "https://dc.lft.to/lastmile_qr_scan"}, "name": "7d89204d791ed4324af2aba69ded0249", "is_reserved": 0}, {"is_disabled": 0, "fusion_lon": 0.0, "fusion_lat": 0.0, "lat": 38.89618733333333, "type": "electric_scooter", "lon": -76.99638083333333, "bike_id": "70aafff68ccc13a594ab2a5658cdcf36", "rental_uris": {"android": "https://dc.lft.to/lastmile_qr_scan", "ios": "https://dc.lft.to/lastmile_qr_scan"}, "name": "70aafff68ccc13a594ab2a5658cdcf36", "is_reserved": 0}, {"is_disabled": 0, "fusion_lon": 0.0, "fusion_lat": 0.0, "lat": 38.9157185, "type": "electric_scooter", "lon": -77.03271116666667, "bike_id": "7b9574ac6709c2bb26afae9cfdbeb60e", "rental_uris": {"android": "https://dc.lft.to/lastmile_qr_scan", "ios": "https://dc.lft.to/lastmile_qr_scan"}, "name": "7b9574ac6709c2bb26afae9cfdbeb60e", "is_reserved": 0}, {"is_disabled": 0, "fusion_lon": 0.0, "fusion_lat": 0.0, "lat": 38.91257216666666, "type": "electric_scooter", "lon": -77.0326975, "bike_id": "630497bff51b595107c340d9852fccc2", "rental_uris": {"android": "https://dc.lft.to/lastmile_qr_scan", "ios": "https://dc.lft.to/lastmile_qr_scan"}, "name": "630497bff51b595107c340d9852fccc2", "is_reserved": 0}, {"is_disabled": 0, "fusion_lon": 0.0, "fusion_lat": 0.0, "lat": 38.90976416666667, "type": "electric_scooter", "lon": -77.03179283333333, "bike_id": "568d2dbb9deb0fe73d4dbb392343c274", "rental_uris": {"android": "https://dc.lft.to/lastmile_qr_scan", "ios": "https://dc.lft.to/lastmile_qr_scan"}, "name": "568d2dbb9deb0fe73d4dbb392343c274", "is_reserved": 0}, {"is_disabled": 0, "fusion_lon": 0.0, "fusion_lat": 0.0, "lat": 38.917108166666665, "type": "electric_scooter", "lon": -77.03234383333333, "bike_id": "b1bd7ca7f1031bad091fc83c171b42db", "rental_uris": {"android": "https://dc.lft.to/lastmile_qr_scan", "ios": "https://dc.lft.to/lastmile_qr_scan"}, "name": "b1bd7ca7f1031bad091fc83c171b42db", "is_reserved": 0}, {"is_disabled": 0, "fusion_lon": 0.0, "fusion_lat": 0.0, "lat": 38.918720666666665, "type": "electric_bike", "lon": -76.96124716666667, "bike_id": "74233733f54e3d88f16539e92f03ad43", "rental_uris": {"android": "https://dc.lft.to/lastmile_qr_scan", "ios": "https://dc.lft.to/lastmile_qr_scan"}, "name": "74233733f54e3d88f16539e92f03ad43", "is_reserved": 0}, {"is_disabled": 0, "fusion_lon": 0.0, "fusion_lat": 0.0, "lat": 38.90548783333333, "type": "electric_scooter", "lon": -77.02969, "bike_id": "28591d99cb6a01f3c2858fb87e18d53d", "rental_uris": {"android": "https://dc.lft.to/lastmile_qr_scan", "ios": "https://dc.lft.to/lastmile_qr_scan"}, "name": "28591d99cb6a01f3c2858fb87e18d53d", "is_reserved": 0}, {"is_disabled": 0, "fusion_lon": 0.0, "fusion_lat": 0.0, "lat": 38.90182933333333, "type": "electric_scooter", "lon": -76.92823733333333, "bike_id": "e14ab7b8b6f9973a6b58038f947898e9", "rental_uris": {"android": "https://dc.lft.to/lastmile_qr_scan", "ios": "https://dc.lft.to/lastmile_qr_scan"}, "name": "e14ab7b8b6f9973a6b58038f947898e9", "is_reserved": 0}, {"is_disabled": 0, "fusion_lon": 0.0, "fusion_lat": 0.0, "lat": 38.931939166666666, "type": "electric_scooter", "lon": -77.0283925, "bike_id": "b267e7919937ed6c25dc2c51aaaf2888", "rental_uris": {"android": "https://dc.lft.to/lastmile_qr_scan", "ios": "https://dc.lft.to/lastmile_qr_scan"}, "name": "b267e7919937ed6c25dc2c51aaaf2888", "is_reserved": 0}, {"is_disabled": 0, "fusion_lon": 0.0, "fusion_lat": 0.0, "lat": 38.86112383333333, "type": "electric_scooter", "lon": -76.98373266666667, "bike_id": "f5211c2161bb92015e567ca223a812ea", "rental_uris": {"android": "https://dc.lft.to/lastmile_qr_scan", "ios": "https://dc.lft.to/lastmile_qr_scan"}, "name": "f5211c2161bb92015e567ca223a812ea", "is_reserved": 0}, {"is_disabled": 0, "fusion_lon": 0.0, "fusion_lat": 0.0, "lat": 38.91881083333333, "type": "electric_scooter", "lon": -77.04727666666666, "bike_id": "7e0b729e234cc176a9c5c2ad2cea7e96", "rental_uris": {"android": "https://dc.lft.to/lastmile_qr_scan", "ios": "https://dc.lft.to/lastmile_qr_scan"}, "name": "7e0b729e234cc176a9c5c2ad2cea7e96", "is_reserved": 0}, {"is_disabled": 0, "fusion_lon": 0.0, "fusion_lat": 0.0, "lat": 38.88392016666667, "type": "electric_bike", "lon": -77.03081383333334, "bike_id": "e65cdb002ac59acb7144c7f8754d531e", "rental_uris": {"android": "https://dc.lft.to/lastmile_qr_scan", "ios": "https://dc.lft.to/lastmile_qr_scan"}, "name": "e65cdb002ac59acb7144c7f8754d531e", "is_reserved": 0}, {"is_disabled": 0, "fusion_lon": 0.0, "fusion_lat": 0.0, "lat": 38.932528, "type": "electric_scooter", "lon": -77.03269666666667, "bike_id": "b4cda48149e09c7d38df065ca5c7a7eb", "rental_uris": {"android": "https://dc.lft.to/lastmile_qr_scan", "ios": "https://dc.lft.to/lastmile_qr_scan"}, "name": "b4cda48149e09c7d38df065ca5c7a7eb", "is_reserved": 0}, {"is_disabled": 0, "fusion_lon": 0.0, "fusion_lat": 0.0, "lat": 38.887419666666666, "type": "electric_scooter", "lon": -77.01533316666666, "bike_id": "43698c01ac7292a7de7258d4f6a9fe20", "rental_uris": {"android": "https://dc.lft.to/lastmile_qr_scan", "ios": "https://dc.lft.to/lastmile_qr_scan"}, "name": "43698c01ac7292a7de7258d4f6a9fe20", "is_reserved": 0}, {"is_disabled": 0, "fusion_lon": 0.0, "fusion_lat": 0.0, "lat": 38.95628816666667, "type": "electric_scooter", "lon": -77.02983616666667, "bike_id": "cb2dbff74acac21e1455e0ecc0044ba3", "rental_uris": {"android": "https://dc.lft.to/lastmile_qr_scan", "ios": "https://dc.lft.to/lastmile_qr_scan"}, "name": "cb2dbff74acac21e1455e0ecc0044ba3", "is_reserved": 0}, {"is_disabled": 0, "fusion_lon": 0.0, "fusion_lat": 0.0, "lat": 38.84599266666667, "type": "electric_bike", "lon": -76.96879183333333, "bike_id": "d8b2b089bc813594a74b725ce8d3643d", "rental_uris": {"android": "https://dc.lft.to/lastmile_qr_scan", "ios": "https://dc.lft.to/lastmile_qr_scan"}, "name": "d8b2b089bc813594a74b725ce8d3643d", "is_reserved": 0}, {"is_disabled": 0, "fusion_lon": 0.0, "fusion_lat": 0.0, "lat": 38.927521666666664, "type": "electric_scooter", "lon": -77.07595233333333, "bike_id": "ad0b69d05833d09f2a1253bb4446642b", "rental_uris": {"android": "https://dc.lft.to/lastmile_qr_scan", "ios": "https://dc.lft.to/lastmile_qr_scan"}, "name": "ad0b69d05833d09f2a1253bb4446642b", "is_reserved": 0}, {"is_disabled": 0, "fusion_lon": 0.0, "fusion_lat": 0.0, "lat": 38.9108835, "type": "electric_scooter", "lon": -76.98473983333334, "bike_id": "dd034fff81c824c9d3e115def45c9c73", "rental_uris": {"android": "https://dc.lft.to/lastmile_qr_scan", "ios": "https://dc.lft.to/lastmile_qr_scan"}, "name": "dd034fff81c824c9d3e115def45c9c73", "is_reserved": 0}, {"is_disabled": 0, "fusion_lon": 0.0, "fusion_lat": 0.0, "lat": 38.917921166666666, "type": "electric_scooter", "lon": -77.03660266666667, "bike_id": "5e9c3481cad76f037fb2dcc93c7b7d51", "rental_uris": {"android": "https://dc.lft.to/lastmile_qr_scan", "ios": "https://dc.lft.to/lastmile_qr_scan"}, "name": "5e9c3481cad76f037fb2dcc93c7b7d51", "is_reserved": 0}, {"is_disabled": 0, "fusion_lon": 0.0, "fusion_lat": 0.0, "lat": 38.89913766666667, "type": "electric_scooter", "lon": -76.93388416666667, "bike_id": "98c852a9fd0ed5121d82c9ea7d13dea8", "rental_uris": {"android": "https://dc.lft.to/lastmile_qr_scan", "ios": "https://dc.lft.to/lastmile_qr_scan"}, "name": "98c852a9fd0ed5121d82c9ea7d13dea8", "is_reserved": 0}, {"is_disabled": 0, "fusion_lon": 0.0, "fusion_lat": 0.0, "lat": 38.887578500000004, "type": "electric_scooter", "lon": -76.99616016666667, "bike_id": "325119b0382cb00ac0154d1587d299a5", "rental_uris": {"android": "https://dc.lft.to/lastmile_qr_scan", "ios": "https://dc.lft.to/lastmile_qr_scan"}, "name": "325119b0382cb00ac0154d1587d299a5", "is_reserved": 0}, {"is_disabled": 0, "fusion_lon": 0.0, "fusion_lat": 0.0, "lat": 38.87146966666667, "type": "electric_scooter", "lon": -76.97894516666666, "bike_id": "1f4c5e66369d69de62ae1fd1b2ef7a4c", "rental_uris": {"android": "https://dc.lft.to/lastmile_qr_scan", "ios": "https://dc.lft.to/lastmile_qr_scan"}, "name": "1f4c5e66369d69de62ae1fd1b2ef7a4c", "is_reserved": 0}, {"is_disabled": 0, "fusion_lon": 0.0, "fusion_lat": 0.0, "lat": 38.88739016666667, "type": "electric_scooter", "lon": -77.01529083333334, "bike_id": "a4737130ae9b9c2e9dd4b4cad7be2fd2", "rental_uris": {"android": "https://dc.lft.to/lastmile_qr_scan", "ios": "https://dc.lft.to/lastmile_qr_scan"}, "name": "a4737130ae9b9c2e9dd4b4cad7be2fd2", "is_reserved": 0}, {"is_disabled": 0, "fusion_lon": 0.0, "fusion_lat": 0.0, "lat": 38.900503666666665, "type": "electric_scooter", "lon": -77.00070583333333, "bike_id": "e41ca965577c236d352b36e9d7f2e478", "rental_uris": {"android": "https://dc.lft.to/lastmile_qr_scan", "ios": "https://dc.lft.to/lastmile_qr_scan"}, "name": "e41ca965577c236d352b36e9d7f2e478", "is_reserved": 0}, {"is_disabled": 0, "fusion_lon": 0.0, "fusion_lat": 0.0, "lat": 38.935604833333336, "type": "electric_scooter", "lon": -77.0296025, "bike_id": "1c9ed85ae00036966cb2d04459843c8f", "rental_uris": {"android": "https://dc.lft.to/lastmile_qr_scan", "ios": "https://dc.lft.to/lastmile_qr_scan"}, "name": "1c9ed85ae00036966cb2d04459843c8f", "is_reserved": 0}, {"is_disabled": 0, "fusion_lon": 0.0, "fusion_lat": 0.0, "lat": 38.92414816666667, "type": "electric_scooter", "lon": -77.05633666666667, "bike_id": "e1d5dce25888ae3b825dab4af94c5d9d", "rental_uris": {"android": "https://dc.lft.to/lastmile_qr_scan", "ios": "https://dc.lft.to/lastmile_qr_scan"}, "name": "e1d5dce25888ae3b825dab4af94c5d9d", "is_reserved": 0}, {"is_disabled": 0, "fusion_lon": 0.0, "fusion_lat": 0.0, "lat": 38.9074475, "type": "electric_scooter", "lon": -77.034544, "bike_id": "4aac4c98ef25a22cbc1e10893f97c4f0", "rental_uris": {"android": "https://dc.lft.to/lastmile_qr_scan", "ios": "https://dc.lft.to/lastmile_qr_scan"}, "name": "4aac4c98ef25a22cbc1e10893f97c4f0", "is_reserved": 0}, {"is_disabled": 0, "fusion_lon": 0.0, "fusion_lat": 0.0, "lat": 38.969261333333336, "type": "electric_bike", "lon": -77.02621466666666, "bike_id": "d1e466fd0d57e37992fae3fa01cb3ec7", "rental_uris": {"android": "https://dc.lft.to/lastmile_qr_scan", "ios": "https://dc.lft.to/lastmile_qr_scan"}, "name": "d1e466fd0d57e37992fae3fa01cb3ec7", "is_reserved": 0}, {"is_disabled": 0, "fusion_lon": 0.0, "fusion_lat": 0.0, "lat": 38.89203966666667, "type": "electric_scooter", "lon": -76.98803316666667, "bike_id": "fd80e382c58ce40849ea12d990e95864", "rental_uris": {"android": "https://dc.lft.to/lastmile_qr_scan", "ios": "https://dc.lft.to/lastmile_qr_scan"}, "name": "fd80e382c58ce40849ea12d990e95864", "is_reserved": 0}, {"is_disabled": 0, "fusion_lon": 0.0, "fusion_lat": 0.0, "lat": 38.916964666666665, "type": "electric_scooter", "lon": -77.03216416666666, "bike_id": "32c1cba535845d2f41decfffaf6aaa3f", "rental_uris": {"android": "https://dc.lft.to/lastmile_qr_scan", "ios": "https://dc.lft.to/lastmile_qr_scan"}, "name": "32c1cba535845d2f41decfffaf6aaa3f", "is_reserved": 0}, {"is_disabled": 0, "fusion_lon": 0.0, "fusion_lat": 0.0, "lat": 38.91474, "type": "electric_scooter", "lon": -77.04397416666667, "bike_id": "61b3f10a691e6bc8b636da2412049366", "rental_uris": {"android": "https://dc.lft.to/lastmile_qr_scan", "ios": "https://dc.lft.to/lastmile_qr_scan"}, "name": "61b3f10a691e6bc8b636da2412049366", "is_reserved": 0}, {"is_disabled": 0, "fusion_lon": 0.0, "fusion_lat": 0.0, "lat": 38.91863033333333, "type": "electric_bike", "lon": -76.96176616666666, "bike_id": "43e39cec6a082b0828ba65968a9a2684", "rental_uris": {"android": "https://dc.lft.to/lastmile_qr_scan", "ios": "https://dc.lft.to/lastmile_qr_scan"}, "name": "43e39cec6a082b0828ba65968a9a2684", "is_reserved": 0}, {"is_disabled": 0, "fusion_lon": 0.0, "fusion_lat": 0.0, "lat": 38.93277466666667, "type": "electric_scooter", "lon": -76.99687466666667, "bike_id": "9cd7beeac7c48763340259db8ccbdcaa", "rental_uris": {"android": "https://dc.lft.to/lastmile_qr_scan", "ios": "https://dc.lft.to/lastmile_qr_scan"}, "name": "9cd7beeac7c48763340259db8ccbdcaa", "is_reserved": 0}, {"is_disabled": 0, "fusion_lon": 0.0, "fusion_lat": 0.0, "lat": 38.8996505, "type": "electric_scooter", "lon": -77.02690166666666, "bike_id": "b92a11781fec33994b82029f2b0961a3", "rental_uris": {"android": "https://dc.lft.to/lastmile_qr_scan", "ios": "https://dc.lft.to/lastmile_qr_scan"}, "name": "b92a11781fec33994b82029f2b0961a3", "is_reserved": 0}, {"is_disabled": 0, "fusion_lon": 0.0, "fusion_lat": 0.0, "lat": 38.91496516666667, "type": "electric_scooter", "lon": -77.019814, "bike_id": "ac4fc33728ab9d125c6f0b34ab18f65b", "rental_uris": {"android": "https://dc.lft.to/lastmile_qr_scan", "ios": "https://dc.lft.to/lastmile_qr_scan"}, "name": "ac4fc33728ab9d125c6f0b34ab18f65b", "is_reserved": 0}, {"is_disabled": 0, "fusion_lon": 0.0, "fusion_lat": 0.0, "lat": 38.961172833333336, "type": "electric_bike", "lon": -77.06899183333333, "bike_id": "6297aa28cde3352f2fe2a626134cdd10", "rental_uris": {"android": "https://dc.lft.to/lastmile_qr_scan", "ios": "https://dc.lft.to/lastmile_qr_scan"}, "name": "6297aa28cde3352f2fe2a626134cdd10", "is_reserved": 0}, {"is_disabled": 0, "fusion_lon": 0.0, "fusion_lat": 0.0, "lat": 38.9267655, "type": "electric_scooter", "lon": -77.0321575, "bike_id": "244fd249a49fa53b2b73ed1480906d84", "rental_uris": {"android": "https://dc.lft.to/lastmile_qr_scan", "ios": "https://dc.lft.to/lastmile_qr_scan"}, "name": "244fd249a49fa53b2b73ed1480906d84", "is_reserved": 0}, {"is_disabled": 0, "fusion_lon": 0.0, "fusion_lat": 0.0, "lat": 38.863509666666666, "type": "electric_scooter", "lon": -76.9906145, "bike_id": "faa4904747018992e0b051a6835e770c", "rental_uris": {"android": "https://dc.lft.to/lastmile_qr_scan", "ios": "https://dc.lft.to/lastmile_qr_scan"}, "name": "faa4904747018992e0b051a6835e770c", "is_reserved": 0}, {"is_disabled": 0, "fusion_lon": 0.0, "fusion_lat": 0.0, "lat": 38.940301833333336, "type": "electric_scooter", "lon": -77.06035433333334, "bike_id": "43bb20ad422ed25773f16a7a61a32662", "rental_uris": {"android": "https://dc.lft.to/lastmile_qr_scan", "ios": "https://dc.lft.to/lastmile_qr_scan"}, "name": "43bb20ad422ed25773f16a7a61a32662", "is_reserved": 0}, {"is_disabled": 0, "fusion_lon": 0.0, "fusion_lat": 0.0, "lat": 38.865575666666665, "type": "electric_bike", "lon": -76.97329016666667, "bike_id": "1c6d474d13a04464957ac1b3555f6ee9", "rental_uris": {"android": "https://dc.lft.to/lastmile_qr_scan", "ios": "https://dc.lft.to/lastmile_qr_scan"}, "name": "1c6d474d13a04464957ac1b3555f6ee9", "is_reserved": 0}, {"is_disabled": 0, "fusion_lon": 0.0, "fusion_lat": 0.0, "lat": 38.92032566666666, "type": "electric_scooter", "lon": -77.01142466666667, "bike_id": "a2c00a3cefb37a7bb1c0f89d4af5eb79", "rental_uris": {"android": "https://dc.lft.to/lastmile_qr_scan", "ios": "https://dc.lft.to/lastmile_qr_scan"}, "name": "a2c00a3cefb37a7bb1c0f89d4af5eb79", "is_reserved": 0}, {"is_disabled": 0, "fusion_lon": 0.0, "fusion_lat": 0.0, "lat": 38.904389, "type": "electric_scooter", "lon": -77.04370283333333, "bike_id": "eec75b07876bd31763888d15f8513f76", "rental_uris": {"android": "https://dc.lft.to/lastmile_qr_scan", "ios": "https://dc.lft.to/lastmile_qr_scan"}, "name": "eec75b07876bd31763888d15f8513f76", "is_reserved": 0}, {"is_disabled": 0, "fusion_lon": 0.0, "fusion_lat": 0.0, "lat": 38.91037083333333, "type": "electric_scooter", "lon": -77.0147495, "bike_id": "30758eb0813042616ed8bb7a75f349d4", "rental_uris": {"android": "https://dc.lft.to/lastmile_qr_scan", "ios": "https://dc.lft.to/lastmile_qr_scan"}, "name": "30758eb0813042616ed8bb7a75f349d4", "is_reserved": 0}, {"is_disabled": 0, "fusion_lon": 0.0, "fusion_lat": 0.0, "lat": 38.895904, "type": "electric_scooter", "lon": -77.0230555, "bike_id": "021bebe88172ecd1c440b6640e8cc0f4", "rental_uris": {"android": "https://dc.lft.to/lastmile_qr_scan", "ios": "https://dc.lft.to/lastmile_qr_scan"}, "name": "021bebe88172ecd1c440b6640e8cc0f4", "is_reserved": 0}, {"is_disabled": 0, "fusion_lon": 0.0, "fusion_lat": 0.0, "lat": 38.887479166666665, "type": "electric_scooter", "lon": -76.9962805, "bike_id": "f646d98419f365625eeef7ac785e7083", "rental_uris": {"android": "https://dc.lft.to/lastmile_qr_scan", "ios": "https://dc.lft.to/lastmile_qr_scan"}, "name": "f646d98419f365625eeef7ac785e7083", "is_reserved": 0}, {"is_disabled": 0, "fusion_lon": 0.0, "fusion_lat": 0.0, "lat": 38.93769066666667, "type": "electric_scooter", "lon": -77.03284466666666, "bike_id": "fb1293b229055eef219ff204ba685b3a", "rental_uris": {"android": "https://dc.lft.to/lastmile_qr_scan", "ios": "https://dc.lft.to/lastmile_qr_scan"}, "name": "fb1293b229055eef219ff204ba685b3a", "is_reserved": 0}, {"is_disabled": 0, "fusion_lon": 0.0, "fusion_lat": 0.0, "lat": 38.90247083333333, "type": "electric_scooter", "lon": -77.01206233333333, "bike_id": "668a3c4bf14cfd9005a9f93e2af586c8", "rental_uris": {"android": "https://dc.lft.to/lastmile_qr_scan", "ios": "https://dc.lft.to/lastmile_qr_scan"}, "name": "668a3c4bf14cfd9005a9f93e2af586c8", "is_reserved": 0}, {"is_disabled": 0, "fusion_lon": 0.0, "fusion_lat": 0.0, "lat": 38.917982333333335, "type": "electric_scooter", "lon": -77.0239515, "bike_id": "8a86d2edd0f48f28c4286ac38d4079f5", "rental_uris": {"android": "https://dc.lft.to/lastmile_qr_scan", "ios": "https://dc.lft.to/lastmile_qr_scan"}, "name": "8a86d2edd0f48f28c4286ac38d4079f5", "is_reserved": 0}, {"is_disabled": 0, "fusion_lon": 0.0, "fusion_lat": 0.0, "lat": 38.902249166666664, "type": "electric_scooter", "lon": -77.06169183333333, "bike_id": "7e338e92e56811faf9d63f614f88b8eb", "rental_uris": {"android": "https://dc.lft.to/lastmile_qr_scan", "ios": "https://dc.lft.to/lastmile_qr_scan"}, "name": "7e338e92e56811faf9d63f614f88b8eb", "is_reserved": 0}, {"is_disabled": 0, "fusion_lon": 0.0, "fusion_lat": 0.0, "lat": 38.900822833333336, "type": "electric_scooter", "lon": -77.01817383333334, "bike_id": "46f16871d7596b171910fc1ece6bcb4e", "rental_uris": {"android": "https://dc.lft.to/lastmile_qr_scan", "ios": "https://dc.lft.to/lastmile_qr_scan"}, "name": "46f16871d7596b171910fc1ece6bcb4e", "is_reserved": 0}, {"is_disabled": 0, "fusion_lon": 0.0, "fusion_lat": 0.0, "lat": 38.929733166666665, "type": "electric_scooter", "lon": -77.02073133333333, "bike_id": "f2abb669f5cf8394cbdf038123cda641", "rental_uris": {"android": "https://dc.lft.to/lastmile_qr_scan", "ios": "https://dc.lft.to/lastmile_qr_scan"}, "name": "f2abb669f5cf8394cbdf038123cda641", "is_reserved": 0}, {"is_disabled": 0, "fusion_lon": 0.0, "fusion_lat": 0.0, "lat": 38.90706133333333, "type": "electric_scooter", "lon": -77.00756066666666, "bike_id": "5872a7aa47b4432f905392327d1d197e", "rental_uris": {"android": "https://dc.lft.to/lastmile_qr_scan", "ios": "https://dc.lft.to/lastmile_qr_scan"}, "name": "5872a7aa47b4432f905392327d1d197e", "is_reserved": 0}, {"is_disabled": 0, "fusion_lon": 0.0, "fusion_lat": 0.0, "lat": 38.927489666666666, "type": "electric_scooter", "lon": -77.01616833333334, "bike_id": "e5b94c09c3e2844d8e0dae1d12d19d50", "rental_uris": {"android": "https://dc.lft.to/lastmile_qr_scan", "ios": "https://dc.lft.to/lastmile_qr_scan"}, "name": "e5b94c09c3e2844d8e0dae1d12d19d50", "is_reserved": 0}, {"is_disabled": 0, "fusion_lon": 0.0, "fusion_lat": 0.0, "lat": 38.94201733333333, "type": "electric_scooter", "lon": -77.0259395, "bike_id": "abc5037ba9e1b1ba50bb71cc0b1a6edb", "rental_uris": {"android": "https://dc.lft.to/lastmile_qr_scan", "ios": "https://dc.lft.to/lastmile_qr_scan"}, "name": "abc5037ba9e1b1ba50bb71cc0b1a6edb", "is_reserved": 0}, {"is_disabled": 0, "fusion_lon": 0.0, "fusion_lat": 0.0, "lat": 38.96417866666667, "type": "electric_scooter", "lon": -77.07529133333334, "bike_id": "dacd985587c399a3f03c5a2d28676fa0", "rental_uris": {"android": "https://dc.lft.to/lastmile_qr_scan", "ios": "https://dc.lft.to/lastmile_qr_scan"}, "name": "dacd985587c399a3f03c5a2d28676fa0", "is_reserved": 0}, {"is_disabled": 0, "fusion_lon": 0.0, "fusion_lat": 0.0, "lat": 38.92197566666667, "type": "electric_scooter", "lon": -76.99696616666667, "bike_id": "905623e30789a77d5d22e4ed2e9cbaae", "rental_uris": {"android": "https://dc.lft.to/lastmile_qr_scan", "ios": "https://dc.lft.to/lastmile_qr_scan"}, "name": "905623e30789a77d5d22e4ed2e9cbaae", "is_reserved": 0}, {"is_disabled": 0, "fusion_lon": 0.0, "fusion_lat": 0.0, "lat": 38.91780283333333, "type": "electric_scooter", "lon": -77.034356, "bike_id": "8b740e397c4a0317bb3593e267262967", "rental_uris": {"android": "https://dc.lft.to/lastmile_qr_scan", "ios": "https://dc.lft.to/lastmile_qr_scan"}, "name": "8b740e397c4a0317bb3593e267262967", "is_reserved": 0}, {"is_disabled": 0, "fusion_lon": 0.0, "fusion_lat": 0.0, "lat": 38.90683033333333, "type": "electric_scooter", "lon": -76.98002366666667, "bike_id": "87a71ae30e35d0bf17626a745de4fef3", "rental_uris": {"android": "https://dc.lft.to/lastmile_qr_scan", "ios": "https://dc.lft.to/lastmile_qr_scan"}, "name": "87a71ae30e35d0bf17626a745de4fef3", "is_reserved": 0}, {"is_disabled": 0, "fusion_lon": 0.0, "fusion_lat": 0.0, "lat": 38.9103635, "type": "electric_scooter", "lon": -77.04009633333334, "bike_id": "ea8efdf290563a59f3b0c3c62f95dc45", "rental_uris": {"android": "https://dc.lft.to/lastmile_qr_scan", "ios": "https://dc.lft.to/lastmile_qr_scan"}, "name": "ea8efdf290563a59f3b0c3c62f95dc45", "is_reserved": 0}, {"is_disabled": 0, "fusion_lon": 0.0, "fusion_lat": 0.0, "lat": 38.8580855, "type": "electric_scooter", "lon": -76.98654716666667, "bike_id": "5723864ec2e2ba0194868816911361f9", "rental_uris": {"android": "https://dc.lft.to/lastmile_qr_scan", "ios": "https://dc.lft.to/lastmile_qr_scan"}, "name": "5723864ec2e2ba0194868816911361f9", "is_reserved": 0}, {"is_disabled": 0, "fusion_lon": 0.0, "fusion_lat": 0.0, "lat": 38.93697433333333, "type": "electric_scooter", "lon": -77.05599, "bike_id": "5a5b0c38b419b59710c32c11c3b9bb10", "rental_uris": {"android": "https://dc.lft.to/lastmile_qr_scan", "ios": "https://dc.lft.to/lastmile_qr_scan"}, "name": "5a5b0c38b419b59710c32c11c3b9bb10", "is_reserved": 0}, {"is_disabled": 0, "fusion_lon": 0.0, "fusion_lat": 0.0, "lat": 38.897318166666665, "type": "electric_scooter", "lon": -77.02273466666666, "bike_id": "0b47c9bdfbed4e23a7cd0568c8f81c10", "rental_uris": {"android": "https://dc.lft.to/lastmile_qr_scan", "ios": "https://dc.lft.to/lastmile_qr_scan"}, "name": "0b47c9bdfbed4e23a7cd0568c8f81c10", "is_reserved": 0}, {"is_disabled": 0, "fusion_lon": 0.0, "fusion_lat": 0.0, "lat": 38.912329166666666, "type": "electric_scooter", "lon": -77.0448455, "bike_id": "6a509576e4b3e32195b8baed30f6f53f", "rental_uris": {"android": "https://dc.lft.to/lastmile_qr_scan", "ios": "https://dc.lft.to/lastmile_qr_scan"}, "name": "6a509576e4b3e32195b8baed30f6f53f", "is_reserved": 0}, {"is_disabled": 0, "fusion_lon": 0.0, "fusion_lat": 0.0, "lat": 38.8868825, "type": "electric_scooter", "lon": -76.98796716666666, "bike_id": "4e4f165defe47ca698d9e85bf9350742", "rental_uris": {"android": "https://dc.lft.to/lastmile_qr_scan", "ios": "https://dc.lft.to/lastmile_qr_scan"}, "name": "4e4f165defe47ca698d9e85bf9350742", "is_reserved": 0}, {"is_disabled": 0, "fusion_lon": 0.0, "fusion_lat": 0.0, "lat": 38.88615166666666, "type": "electric_scooter", "lon": -77.00575233333333, "bike_id": "ae1bc890e10553cf9870ca6bfb257c29", "rental_uris": {"android": "https://dc.lft.to/lastmile_qr_scan", "ios": "https://dc.lft.to/lastmile_qr_scan"}, "name": "ae1bc890e10553cf9870ca6bfb257c29", "is_reserved": 0}, {"is_disabled": 0, "fusion_lon": 0.0, "fusion_lat": 0.0, "lat": 38.956403, "type": "electric_scooter", "lon": -77.09100316666667, "bike_id": "6296c23a0159761a6d5dbbf6fe74e648", "rental_uris": {"android": "https://dc.lft.to/lastmile_qr_scan", "ios": "https://dc.lft.to/lastmile_qr_scan"}, "name": "6296c23a0159761a6d5dbbf6fe74e648", "is_reserved": 0}, {"is_disabled": 0, "fusion_lon": 0.0, "fusion_lat": 0.0, "lat": 38.894855, "type": "electric_scooter", "lon": -76.94871316666666, "bike_id": "2feab710a9bc7655ef55d652ce4f7285", "rental_uris": {"android": "https://dc.lft.to/lastmile_qr_scan", "ios": "https://dc.lft.to/lastmile_qr_scan"}, "name": "2feab710a9bc7655ef55d652ce4f7285", "is_reserved": 0}, {"is_disabled": 0, "fusion_lon": 0.0, "fusion_lat": 0.0, "lat": 38.905517, "type": "electric_scooter", "lon": -77.032483, "bike_id": "11db74096949fcef148221c2cd437f6e", "rental_uris": {"android": "https://dc.lft.to/lastmile_qr_scan", "ios": "https://dc.lft.to/lastmile_qr_scan"}, "name": "11db74096949fcef148221c2cd437f6e", "is_reserved": 0}, {"is_disabled": 0, "fusion_lon": 0.0, "fusion_lat": 0.0, "lat": 38.84932416666667, "type": "electric_bike", "lon": -77.10016333333333, "bike_id": "d0616d79c8d0a528a91c9dd4c5a0df27", "rental_uris": {"android": "https://dc.lft.to/lastmile_qr_scan", "ios": "https://dc.lft.to/lastmile_qr_scan"}, "name": "d0616d79c8d0a528a91c9dd4c5a0df27", "is_reserved": 0}, {"is_disabled": 0, "fusion_lon": 0.0, "fusion_lat": 0.0, "lat": 38.85650666666667, "type": "electric_bike", "lon": -77.08525383333334, "bike_id": "0a0b81152bd0006c01847990c49b3437", "rental_uris": {"android": "https://dc.lft.to/lastmile_qr_scan", "ios": "https://dc.lft.to/lastmile_qr_scan"}, "name": "0a0b81152bd0006c01847990c49b3437", "is_reserved": 0}, {"is_disabled": 0, "fusion_lon": 0.0, "fusion_lat": 0.0, "lat": 38.9119845, "type": "electric_scooter", "lon": -77.04157883333333, "bike_id": "30f068de3aee4ddcfff324739865d4ba", "rental_uris": {"android": "https://dc.lft.to/lastmile_qr_scan", "ios": "https://dc.lft.to/lastmile_qr_scan"}, "name": "30f068de3aee4ddcfff324739865d4ba", "is_reserved": 0}, {"is_disabled": 0, "fusion_lon": 0.0, "fusion_lat": 0.0, "lat": 38.866066833333335, "type": "electric_scooter", "lon": -77.01081033333334, "bike_id": "dbc13c761ec9b1b200842cf02a5d3d05", "rental_uris": {"android": "https://dc.lft.to/lastmile_qr_scan", "ios": "https://dc.lft.to/lastmile_qr_scan"}, "name": "dbc13c761ec9b1b200842cf02a5d3d05", "is_reserved": 0}, {"is_disabled": 0, "fusion_lon": 0.0, "fusion_lat": 0.0, "lat": 38.912003, "type": "electric_scooter", "lon": -77.00431766666667, "bike_id": "19529065ae8bc4b00022f6855f87715a", "rental_uris": {"android": "https://dc.lft.to/lastmile_qr_scan", "ios": "https://dc.lft.to/lastmile_qr_scan"}, "name": "19529065ae8bc4b00022f6855f87715a", "is_reserved": 0}, {"is_disabled": 0, "fusion_lon": 0.0, "fusion_lat": 0.0, "lat": 38.9140705, "type": "electric_scooter", "lon": -77.01308233333333, "bike_id": "094067c262fdc16e5bf01f6f031332f9", "rental_uris": {"android": "https://dc.lft.to/lastmile_qr_scan", "ios": "https://dc.lft.to/lastmile_qr_scan"}, "name": "094067c262fdc16e5bf01f6f031332f9", "is_reserved": 0}, {"is_disabled": 0, "fusion_lon": 0.0, "fusion_lat": 0.0, "lat": 38.89739733333333, "type": "electric_scooter", "lon": -77.04721866666667, "bike_id": "8507ddce25a8911df7fad9e67b8d1430", "rental_uris": {"android": "https://dc.lft.to/lastmile_qr_scan", "ios": "https://dc.lft.to/lastmile_qr_scan"}, "name": "8507ddce25a8911df7fad9e67b8d1430", "is_reserved": 0}, {"is_disabled": 0, "fusion_lon": 0.0, "fusion_lat": 0.0, "lat": 38.91552433333333, "type": "electric_scooter", "lon": -77.0236955, "bike_id": "3e5812b4f48314fe2eb4cf678c6803ca", "rental_uris": {"android": "https://dc.lft.to/lastmile_qr_scan", "ios": "https://dc.lft.to/lastmile_qr_scan"}, "name": "3e5812b4f48314fe2eb4cf678c6803ca", "is_reserved": 0}, {"is_disabled": 0, "fusion_lon": 0.0, "fusion_lat": 0.0, "lat": 38.892536166666666, "type": "electric_scooter", "lon": -76.99848433333334, "bike_id": "c1b7df9db4c84f6877b93c70cb5ee5ae", "rental_uris": {"android": "https://dc.lft.to/lastmile_qr_scan", "ios": "https://dc.lft.to/lastmile_qr_scan"}, "name": "c1b7df9db4c84f6877b93c70cb5ee5ae", "is_reserved": 0}, {"is_disabled": 0, "fusion_lon": 0.0, "fusion_lat": 0.0, "lat": 38.8521365, "type": "electric_bike", "lon": -77.1275745, "bike_id": "63157c1f94c2abb35cac70f9c73641eb", "rental_uris": {"android": "https://dc.lft.to/lastmile_qr_scan", "ios": "https://dc.lft.to/lastmile_qr_scan"}, "name": "63157c1f94c2abb35cac70f9c73641eb", "is_reserved": 0}, {"is_disabled": 0, "fusion_lon": 0.0, "fusion_lat": 0.0, "lat": 38.94499316666667, "type": "electric_bike", "lon": -77.00684333333334, "bike_id": "4e0965adc9314dc0865d6c30e067f982", "rental_uris": {"android": "https://dc.lft.to/lastmile_qr_scan", "ios": "https://dc.lft.to/lastmile_qr_scan"}, "name": "4e0965adc9314dc0865d6c30e067f982", "is_reserved": 0}, {"is_disabled": 0, "fusion_lon": 0.0, "fusion_lat": 0.0, "lat": 38.8659725, "type": "electric_bike", "lon": -76.93231583333333, "bike_id": "3e98b567144ab7eeab4297d8f7cdf9ce", "rental_uris": {"android": "https://dc.lft.to/lastmile_qr_scan", "ios": "https://dc.lft.to/lastmile_qr_scan"}, "name": "3e98b567144ab7eeab4297d8f7cdf9ce", "is_reserved": 0}, {"is_disabled": 0, "fusion_lon": 0.0, "fusion_lat": 0.0, "lat": 38.91560883333333, "type": "electric_scooter", "lon": -77.03875166666667, "bike_id": "2156107d9616aacfe991231dfb028a6d", "rental_uris": {"android": "https://dc.lft.to/lastmile_qr_scan", "ios": "https://dc.lft.to/lastmile_qr_scan"}, "name": "2156107d9616aacfe991231dfb028a6d", "is_reserved": 0}, {"is_disabled": 0, "fusion_lon": 0.0, "fusion_lat": 0.0, "lat": 38.9317435, "type": "electric_scooter", "lon": -77.0281565, "bike_id": "28a9d86ce8ee419db9745437eb37c991", "rental_uris": {"android": "https://dc.lft.to/lastmile_qr_scan", "ios": "https://dc.lft.to/lastmile_qr_scan"}, "name": "28a9d86ce8ee419db9745437eb37c991", "is_reserved": 0}, {"is_disabled": 0, "fusion_lon": 0.0, "fusion_lat": 0.0, "lat": 38.91766833333333, "type": "electric_scooter", "lon": -77.03211583333334, "bike_id": "7c89c9e050efdc278d0b0986216fce85", "rental_uris": {"android": "https://dc.lft.to/lastmile_qr_scan", "ios": "https://dc.lft.to/lastmile_qr_scan"}, "name": "7c89c9e050efdc278d0b0986216fce85", "is_reserved": 0}, {"is_disabled": 0, "fusion_lon": 0.0, "fusion_lat": 0.0, "lat": 38.897513333333336, "type": "electric_scooter", "lon": -77.05146016666667, "bike_id": "e87d35530fb69141f4d65706c4cbed74", "rental_uris": {"android": "https://dc.lft.to/lastmile_qr_scan", "ios": "https://dc.lft.to/lastmile_qr_scan"}, "name": "e87d35530fb69141f4d65706c4cbed74", "is_reserved": 0}, {"is_disabled": 0, "fusion_lon": 0.0, "fusion_lat": 0.0, "lat": 38.907881333333336, "type": "electric_scooter", "lon": -77.0441385, "bike_id": "2515a974d7f4239e694aaa957c3cf154", "rental_uris": {"android": "https://dc.lft.to/lastmile_qr_scan", "ios": "https://dc.lft.to/lastmile_qr_scan"}, "name": "2515a974d7f4239e694aaa957c3cf154", "is_reserved": 0}, {"is_disabled": 0, "fusion_lon": 0.0, "fusion_lat": 0.0, "lat": 38.932357, "type": "electric_bike", "lon": -76.99527533333334, "bike_id": "6faa827bc6328741c753077f44cb1937", "rental_uris": {"android": "https://dc.lft.to/lastmile_qr_scan", "ios": "https://dc.lft.to/lastmile_qr_scan"}, "name": "6faa827bc6328741c753077f44cb1937", "is_reserved": 0}, {"is_disabled": 0, "fusion_lon": 0.0, "fusion_lat": 0.0, "lat": 38.8996525, "type": "electric_scooter", "lon": -76.98712733333333, "bike_id": "09832eaab880b511573a0e24bbd21d3f", "rental_uris": {"android": "https://dc.lft.to/lastmile_qr_scan", "ios": "https://dc.lft.to/lastmile_qr_scan"}, "name": "09832eaab880b511573a0e24bbd21d3f", "is_reserved": 0}, {"is_disabled": 0, "fusion_lon": 0.0, "fusion_lat": 0.0, "lat": 38.92590283333333, "type": "electric_scooter", "lon": -77.02287916666667, "bike_id": "185ff1032959e8415986667e2a80adc7", "rental_uris": {"android": "https://dc.lft.to/lastmile_qr_scan", "ios": "https://dc.lft.to/lastmile_qr_scan"}, "name": "185ff1032959e8415986667e2a80adc7", "is_reserved": 0}, {"is_disabled": 0, "fusion_lon": 0.0, "fusion_lat": 0.0, "lat": 38.91818266666667, "type": "electric_scooter", "lon": -77.040031, "bike_id": "285f07873a8e43906ec1fd3a3b5c6d48", "rental_uris": {"android": "https://dc.lft.to/lastmile_qr_scan", "ios": "https://dc.lft.to/lastmile_qr_scan"}, "name": "285f07873a8e43906ec1fd3a3b5c6d48", "is_reserved": 0}, {"is_disabled": 0, "fusion_lon": 0.0, "fusion_lat": 0.0, "lat": 38.918176, "type": "electric_scooter", "lon": -77.027208, "bike_id": "5890059268b0774d80d401a4dd6be276", "rental_uris": {"android": "https://dc.lft.to/lastmile_qr_scan", "ios": "https://dc.lft.to/lastmile_qr_scan"}, "name": "5890059268b0774d80d401a4dd6be276", "is_reserved": 0}, {"is_disabled": 0, "fusion_lon": 0.0, "fusion_lat": 0.0, "lat": 38.9417805, "type": "electric_scooter", "lon": -77.03655683333334, "bike_id": "86cb5b8a105ec08dc5555d5b5dae3840", "rental_uris": {"android": "https://dc.lft.to/lastmile_qr_scan", "ios": "https://dc.lft.to/lastmile_qr_scan"}, "name": "86cb5b8a105ec08dc5555d5b5dae3840", "is_reserved": 0}, {"is_disabled": 0, "fusion_lon": 0.0, "fusion_lat": 0.0, "lat": 38.897834333333336, "type": "electric_scooter", "lon": -77.0246795, "bike_id": "a5b705f051f9f3fd3bd06472cab8162d", "rental_uris": {"android": "https://dc.lft.to/lastmile_qr_scan", "ios": "https://dc.lft.to/lastmile_qr_scan"}, "name": "a5b705f051f9f3fd3bd06472cab8162d", "is_reserved": 0}, {"is_disabled": 0, "fusion_lon": 0.0, "fusion_lat": 0.0, "lat": 38.90166116666666, "type": "electric_scooter", "lon": -77.04813883333334, "bike_id": "cf02a10401c06b67a9f59420fa6fd987", "rental_uris": {"android": "https://dc.lft.to/lastmile_qr_scan", "ios": "https://dc.lft.to/lastmile_qr_scan"}, "name": "cf02a10401c06b67a9f59420fa6fd987", "is_reserved": 0}, {"is_disabled": 0, "fusion_lon": 0.0, "fusion_lat": 0.0, "lat": 38.921629333333335, "type": "electric_scooter", "lon": -77.03370933333333, "bike_id": "3e6750ed26bc39ba40d926493090a552", "rental_uris": {"android": "https://dc.lft.to/lastmile_qr_scan", "ios": "https://dc.lft.to/lastmile_qr_scan"}, "name": "3e6750ed26bc39ba40d926493090a552", "is_reserved": 0}, {"is_disabled": 0, "fusion_lon": 0.0, "fusion_lat": 0.0, "lat": 38.89487183333333, "type": "electric_scooter", "lon": -77.00212066666667, "bike_id": "27539b8d5978ecf5f82353cc94a8c973", "rental_uris": {"android": "https://dc.lft.to/lastmile_qr_scan", "ios": "https://dc.lft.to/lastmile_qr_scan"}, "name": "27539b8d5978ecf5f82353cc94a8c973", "is_reserved": 0}, {"is_disabled": 0, "fusion_lon": 0.0, "fusion_lat": 0.0, "lat": 38.956515833333334, "type": "electric_scooter", "lon": -77.01496916666666, "bike_id": "c18412076cf9d259c921932bdc61dab5", "rental_uris": {"android": "https://dc.lft.to/lastmile_qr_scan", "ios": "https://dc.lft.to/lastmile_qr_scan"}, "name": "c18412076cf9d259c921932bdc61dab5", "is_reserved": 0}, {"is_disabled": 0, "fusion_lon": 0.0, "fusion_lat": 0.0, "lat": 38.91683716666667, "type": "electric_scooter", "lon": -77.023076, "bike_id": "2c1422c74dfb285609e44825f024d94e", "rental_uris": {"android": "https://dc.lft.to/lastmile_qr_scan", "ios": "https://dc.lft.to/lastmile_qr_scan"}, "name": "2c1422c74dfb285609e44825f024d94e", "is_reserved": 0}, {"is_disabled": 0, "fusion_lon": 0.0, "fusion_lat": 0.0, "lat": 38.898560333333336, "type": "electric_scooter", "lon": -76.99031766666667, "bike_id": "25e9774849ade23db0a7b45caa63b0d4", "rental_uris": {"android": "https://dc.lft.to/lastmile_qr_scan", "ios": "https://dc.lft.to/lastmile_qr_scan"}, "name": "25e9774849ade23db0a7b45caa63b0d4", "is_reserved": 0}, {"is_disabled": 0, "fusion_lon": 0.0, "fusion_lat": 0.0, "lat": 38.94509883333333, "type": "electric_bike", "lon": -77.00666583333333, "bike_id": "d6bf91f30612a27b32cfd80f98c9b48a", "rental_uris": {"android": "https://dc.lft.to/lastmile_qr_scan", "ios": "https://dc.lft.to/lastmile_qr_scan"}, "name": "d6bf91f30612a27b32cfd80f98c9b48a", "is_reserved": 0}, {"is_disabled": 0, "fusion_lon": 0.0, "fusion_lat": 0.0, "lat": 38.896110166666666, "type": "electric_scooter", "lon": -77.009201, "bike_id": "808b82b942b8676e6e287d662a00a450", "rental_uris": {"android": "https://dc.lft.to/lastmile_qr_scan", "ios": "https://dc.lft.to/lastmile_qr_scan"}, "name": "808b82b942b8676e6e287d662a00a450", "is_reserved": 0}, {"is_disabled": 0, "fusion_lon": 0.0, "fusion_lat": 0.0, "lat": 38.9037905, "type": "electric_bike", "lon": -76.9955175, "bike_id": "55a49a55af10e2f452afb73457fa3f97", "rental_uris": {"android": "https://dc.lft.to/lastmile_qr_scan", "ios": "https://dc.lft.to/lastmile_qr_scan"}, "name": "55a49a55af10e2f452afb73457fa3f97", "is_reserved": 0}, {"is_disabled": 0, "fusion_lon": 0.0, "fusion_lat": 0.0, "lat": 38.915177166666666, "type": "electric_scooter", "lon": -77.01986516666666, "bike_id": "5be13d5cfb86e8a3359b3b8291db25d0", "rental_uris": {"android": "https://dc.lft.to/lastmile_qr_scan", "ios": "https://dc.lft.to/lastmile_qr_scan"}, "name": "5be13d5cfb86e8a3359b3b8291db25d0", "is_reserved": 0}, {"is_disabled": 0, "fusion_lon": 0.0, "fusion_lat": 0.0, "lat": 38.933461333333334, "type": "electric_scooter", "lon": -77.07256983333333, "bike_id": "b8978653b558c9aee1097f5ebf5a40ba", "rental_uris": {"android": "https://dc.lft.to/lastmile_qr_scan", "ios": "https://dc.lft.to/lastmile_qr_scan"}, "name": "b8978653b558c9aee1097f5ebf5a40ba", "is_reserved": 0}, {"is_disabled": 0, "fusion_lon": 0.0, "fusion_lat": 0.0, "lat": 38.913836833333335, "type": "electric_scooter", "lon": -77.017071, "bike_id": "188b84a8075ca53dae7f16d5e65ff730", "rental_uris": {"android": "https://dc.lft.to/lastmile_qr_scan", "ios": "https://dc.lft.to/lastmile_qr_scan"}, "name": "188b84a8075ca53dae7f16d5e65ff730", "is_reserved": 0}, {"is_disabled": 0, "fusion_lon": 0.0, "fusion_lat": 0.0, "lat": 38.90004016666666, "type": "electric_scooter", "lon": -77.0332735, "bike_id": "8bfe54acb535ad160c9ff6cdc17c6d02", "rental_uris": {"android": "https://dc.lft.to/lastmile_qr_scan", "ios": "https://dc.lft.to/lastmile_qr_scan"}, "name": "8bfe54acb535ad160c9ff6cdc17c6d02", "is_reserved": 0}, {"is_disabled": 0, "fusion_lon": 0.0, "fusion_lat": 0.0, "lat": 38.910371166666664, "type": "electric_scooter", "lon": -77.01377916666667, "bike_id": "690fdc98da6030d123e0c1158901e3d0", "rental_uris": {"android": "https://dc.lft.to/lastmile_qr_scan", "ios": "https://dc.lft.to/lastmile_qr_scan"}, "name": "690fdc98da6030d123e0c1158901e3d0", "is_reserved": 0}, {"is_disabled": 0, "fusion_lon": 0.0, "fusion_lat": 0.0, "lat": 38.91648683333333, "type": "electric_scooter", "lon": -77.021824, "bike_id": "230f01405c01150df5b804a64292c07b", "rental_uris": {"android": "https://dc.lft.to/lastmile_qr_scan", "ios": "https://dc.lft.to/lastmile_qr_scan"}, "name": "230f01405c01150df5b804a64292c07b", "is_reserved": 0}, {"is_disabled": 0, "fusion_lon": 0.0, "fusion_lat": 0.0, "lat": 38.895070833333335, "type": "electric_scooter", "lon": -77.01081183333334, "bike_id": "05193653878d6c8fe3d7546b2145f700", "rental_uris": {"android": "https://dc.lft.to/lastmile_qr_scan", "ios": "https://dc.lft.to/lastmile_qr_scan"}, "name": "05193653878d6c8fe3d7546b2145f700", "is_reserved": 0}, {"is_disabled": 0, "fusion_lon": 0.0, "fusion_lat": 0.0, "lat": 38.91922783333333, "type": "electric_scooter", "lon": -77.0302575, "bike_id": "424cf506a1efc8fb860a07eeb2d902ca", "rental_uris": {"android": "https://dc.lft.to/lastmile_qr_scan", "ios": "https://dc.lft.to/lastmile_qr_scan"}, "name": "424cf506a1efc8fb860a07eeb2d902ca", "is_reserved": 0}, {"is_disabled": 0, "fusion_lon": 0.0, "fusion_lat": 0.0, "lat": 38.949845833333335, "type": "electric_scooter", "lon": -77.02703933333333, "bike_id": "0da60e6909146004cce401c71b65b0d1", "rental_uris": {"android": "https://dc.lft.to/lastmile_qr_scan", "ios": "https://dc.lft.to/lastmile_qr_scan"}, "name": "0da60e6909146004cce401c71b65b0d1", "is_reserved": 0}, {"is_disabled": 0, "fusion_lon": 0.0, "fusion_lat": 0.0, "lat": 38.90927116666667, "type": "electric_scooter", "lon": -77.03203383333333, "bike_id": "ee1222594b62174a5e8410a6a90c92c4", "rental_uris": {"android": "https://dc.lft.to/lastmile_qr_scan", "ios": "https://dc.lft.to/lastmile_qr_scan"}, "name": "ee1222594b62174a5e8410a6a90c92c4", "is_reserved": 0}, {"is_disabled": 0, "fusion_lon": 0.0, "fusion_lat": 0.0, "lat": 38.89166216666667, "type": "electric_scooter", "lon": -77.01543816666667, "bike_id": "055d07fd680c678f7d34580c093551ae", "rental_uris": {"android": "https://dc.lft.to/lastmile_qr_scan", "ios": "https://dc.lft.to/lastmile_qr_scan"}, "name": "055d07fd680c678f7d34580c093551ae", "is_reserved": 0}, {"is_disabled": 0, "fusion_lon": 0.0, "fusion_lat": 0.0, "lat": 38.892206333333334, "type": "electric_scooter", "lon": -77.02262, "bike_id": "09f24b8a4dc46ca5092c6fb9d12fcc04", "rental_uris": {"android": "https://dc.lft.to/lastmile_qr_scan", "ios": "https://dc.lft.to/lastmile_qr_scan"}, "name": "09f24b8a4dc46ca5092c6fb9d12fcc04", "is_reserved": 0}, {"is_disabled": 0, "fusion_lon": 0.0, "fusion_lat": 0.0, "lat": 38.9531375, "type": "electric_scooter", "lon": -77.03599516666667, "bike_id": "ac23bbc28a7da28507b2226f3f5f4235", "rental_uris": {"android": "https://dc.lft.to/lastmile_qr_scan", "ios": "https://dc.lft.to/lastmile_qr_scan"}, "name": "ac23bbc28a7da28507b2226f3f5f4235", "is_reserved": 0}, {"is_disabled": 0, "fusion_lon": 0.0, "fusion_lat": 0.0, "lat": 38.882316333333335, "type": "electric_bike", "lon": -77.11281583333333, "bike_id": "bb06cfcfda88e490c003e7ba8645a85e", "rental_uris": {"android": "https://dc.lft.to/lastmile_qr_scan", "ios": "https://dc.lft.to/lastmile_qr_scan"}, "name": "bb06cfcfda88e490c003e7ba8645a85e", "is_reserved": 0}, {"is_disabled": 0, "fusion_lon": 0.0, "fusion_lat": 0.0, "lat": 38.910906, "type": "electric_scooter", "lon": -77.03854416666667, "bike_id": "63e8c2c6d89efb10ba129f964d6086ad", "rental_uris": {"android": "https://dc.lft.to/lastmile_qr_scan", "ios": "https://dc.lft.to/lastmile_qr_scan"}, "name": "63e8c2c6d89efb10ba129f964d6086ad", "is_reserved": 0}, {"is_disabled": 0, "fusion_lon": 0.0, "fusion_lat": 0.0, "lat": 38.89309316666667, "type": "electric_scooter", "lon": -77.01234116666667, "bike_id": "81ea2694c6667d7f88ea75e86cf0798b", "rental_uris": {"android": "https://dc.lft.to/lastmile_qr_scan", "ios": "https://dc.lft.to/lastmile_qr_scan"}, "name": "81ea2694c6667d7f88ea75e86cf0798b", "is_reserved": 0}, {"is_disabled": 0, "fusion_lon": 0.0, "fusion_lat": 0.0, "lat": 38.90316816666667, "type": "electric_scooter", "lon": -77.0188785, "bike_id": "e17f49bff46f02b09770264e59dc2ddd", "rental_uris": {"android": "https://dc.lft.to/lastmile_qr_scan", "ios": "https://dc.lft.to/lastmile_qr_scan"}, "name": "e17f49bff46f02b09770264e59dc2ddd", "is_reserved": 0}, {"is_disabled": 0, "fusion_lon": 0.0, "fusion_lat": 0.0, "lat": 38.92100466666667, "type": "electric_scooter", "lon": -77.03050933333333, "bike_id": "9d81b51b4021e2c615d604e5187652b3", "rental_uris": {"android": "https://dc.lft.to/lastmile_qr_scan", "ios": "https://dc.lft.to/lastmile_qr_scan"}, "name": "9d81b51b4021e2c615d604e5187652b3", "is_reserved": 0}, {"is_disabled": 0, "fusion_lon": 0.0, "fusion_lat": 0.0, "lat": 38.90828966666667, "type": "electric_scooter", "lon": -77.04167833333334, "bike_id": "24069b37ecb181dd362afcc9389981a0", "rental_uris": {"android": "https://dc.lft.to/lastmile_qr_scan", "ios": "https://dc.lft.to/lastmile_qr_scan"}, "name": "24069b37ecb181dd362afcc9389981a0", "is_reserved": 0}, {"is_disabled": 0, "fusion_lon": 0.0, "fusion_lat": 0.0, "lat": 38.8766175, "type": "electric_scooter", "lon": -77.01569883333333, "bike_id": "fbdfbeda43f459aa8378eb0c934e9fc8", "rental_uris": {"android": "https://dc.lft.to/lastmile_qr_scan", "ios": "https://dc.lft.to/lastmile_qr_scan"}, "name": "fbdfbeda43f459aa8378eb0c934e9fc8", "is_reserved": 0}, {"is_disabled": 0, "fusion_lon": 0.0, "fusion_lat": 0.0, "lat": 38.90972033333333, "type": "electric_scooter", "lon": -77.08072766666666, "bike_id": "e0686c3aa7aec83a3f49f89b2308d1a0", "rental_uris": {"android": "https://dc.lft.to/lastmile_qr_scan", "ios": "https://dc.lft.to/lastmile_qr_scan"}, "name": "e0686c3aa7aec83a3f49f89b2308d1a0", "is_reserved": 0}, {"is_disabled": 0, "fusion_lon": 0.0, "fusion_lat": 0.0, "lat": 38.89975833333333, "type": "electric_scooter", "lon": -77.04613133333334, "bike_id": "5996725d13ff7dfc569316768c036eb7", "rental_uris": {"android": "https://dc.lft.to/lastmile_qr_scan", "ios": "https://dc.lft.to/lastmile_qr_scan"}, "name": "5996725d13ff7dfc569316768c036eb7", "is_reserved": 0}, {"is_disabled": 0, "fusion_lon": 0.0, "fusion_lat": 0.0, "lat": 38.93156783333333, "type": "electric_scooter", "lon": -77.03456966666667, "bike_id": "d281924773d6287b3889ace41ba16204", "rental_uris": {"android": "https://dc.lft.to/lastmile_qr_scan", "ios": "https://dc.lft.to/lastmile_qr_scan"}, "name": "d281924773d6287b3889ace41ba16204", "is_reserved": 0}, {"is_disabled": 0, "fusion_lon": 0.0, "fusion_lat": 0.0, "lat": 38.9309235, "type": "electric_scooter", "lon": -77.0251205, "bike_id": "e54ae6c84a04f3d150e124dcf44036ea", "rental_uris": {"android": "https://dc.lft.to/lastmile_qr_scan", "ios": "https://dc.lft.to/lastmile_qr_scan"}, "name": "e54ae6c84a04f3d150e124dcf44036ea", "is_reserved": 0}, {"is_disabled": 0, "fusion_lon": 0.0, "fusion_lat": 0.0, "lat": 38.898267833333335, "type": "electric_scooter", "lon": -76.9465315, "bike_id": "2d644440b71c4c5c241e59d9ad62c261", "rental_uris": {"android": "https://dc.lft.to/lastmile_qr_scan", "ios": "https://dc.lft.to/lastmile_qr_scan"}, "name": "2d644440b71c4c5c241e59d9ad62c261", "is_reserved": 0}, {"is_disabled": 0, "fusion_lon": 0.0, "fusion_lat": 0.0, "lat": 38.90050183333334, "type": "electric_scooter", "lon": -77.00067683333333, "bike_id": "6c7c261d180d1e97bbb07f0ee7628f60", "rental_uris": {"android": "https://dc.lft.to/lastmile_qr_scan", "ios": "https://dc.lft.to/lastmile_qr_scan"}, "name": "6c7c261d180d1e97bbb07f0ee7628f60", "is_reserved": 0}, {"is_disabled": 0, "fusion_lon": 0.0, "fusion_lat": 0.0, "lat": 38.917641, "type": "electric_scooter", "lon": -77.0281595, "bike_id": "e552f3bbcace689a3086ddda70c544b6", "rental_uris": {"android": "https://dc.lft.to/lastmile_qr_scan", "ios": "https://dc.lft.to/lastmile_qr_scan"}, "name": "e552f3bbcace689a3086ddda70c544b6", "is_reserved": 0}, {"is_disabled": 0, "fusion_lon": 0.0, "fusion_lat": 0.0, "lat": 38.8393315, "type": "electric_bike", "lon": -77.0790225, "bike_id": "4242b739979fc7ee9bc7b8b68a1acc76", "rental_uris": {"android": "https://dc.lft.to/lastmile_qr_scan", "ios": "https://dc.lft.to/lastmile_qr_scan"}, "name": "4242b739979fc7ee9bc7b8b68a1acc76", "is_reserved": 0}, {"is_disabled": 0, "fusion_lon": 0.0, "fusion_lat": 0.0, "lat": 38.812685, "type": "electric_bike", "lon": -77.06173233333334, "bike_id": "be470e037d6a558a6ad4aba74aca640b", "rental_uris": {"android": "https://dc.lft.to/lastmile_qr_scan", "ios": "https://dc.lft.to/lastmile_qr_scan"}, "name": "be470e037d6a558a6ad4aba74aca640b", "is_reserved": 0}, {"is_disabled": 0, "fusion_lon": 0.0, "fusion_lat": 0.0, "lat": 38.934697666666665, "type": "electric_scooter", "lon": -77.06875933333333, "bike_id": "408a3f929db85e95d617d6f7c97b8e4f", "rental_uris": {"android": "https://dc.lft.to/lastmile_qr_scan", "ios": "https://dc.lft.to/lastmile_qr_scan"}, "name": "408a3f929db85e95d617d6f7c97b8e4f", "is_reserved": 0}, {"is_disabled": 0, "fusion_lon": 0.0, "fusion_lat": 0.0, "lat": 38.897322333333335, "type": "electric_scooter", "lon": -77.0100935, "bike_id": "cb0f4889c4d8b60730971994a4063690", "rental_uris": {"android": "https://dc.lft.to/lastmile_qr_scan", "ios": "https://dc.lft.to/lastmile_qr_scan"}, "name": "cb0f4889c4d8b60730971994a4063690", "is_reserved": 0}, {"is_disabled": 0, "fusion_lon": 0.0, "fusion_lat": 0.0, "lat": 38.917992166666664, "type": "electric_scooter", "lon": -77.03434866666667, "bike_id": "f1f8c022f6c368c1aa679b97bf605503", "rental_uris": {"android": "https://dc.lft.to/lastmile_qr_scan", "ios": "https://dc.lft.to/lastmile_qr_scan"}, "name": "f1f8c022f6c368c1aa679b97bf605503", "is_reserved": 0}, {"is_disabled": 0, "fusion_lon": 0.0, "fusion_lat": 0.0, "lat": 38.932316666666665, "type": "electric_scooter", "lon": -76.99486733333333, "bike_id": "f302d0e1df5adc8bcdcbce4c4d64b586", "rental_uris": {"android": "https://dc.lft.to/lastmile_qr_scan", "ios": "https://dc.lft.to/lastmile_qr_scan"}, "name": "f302d0e1df5adc8bcdcbce4c4d64b586", "is_reserved": 0}, {"is_disabled": 0, "fusion_lon": 0.0, "fusion_lat": 0.0, "lat": 38.9725905, "type": "electric_bike", "lon": -76.99171833333334, "bike_id": "67ec46a6f9e031c45487bbec455aec06", "rental_uris": {"android": "https://dc.lft.to/lastmile_qr_scan", "ios": "https://dc.lft.to/lastmile_qr_scan"}, "name": "67ec46a6f9e031c45487bbec455aec06", "is_reserved": 0}, {"is_disabled": 0, "fusion_lon": 0.0, "fusion_lat": 0.0, "lat": 38.90412833333333, "type": "electric_scooter", "lon": -77.0405785, "bike_id": "ed2f4c60d5f241675d105ade656f00ab", "rental_uris": {"android": "https://dc.lft.to/lastmile_qr_scan", "ios": "https://dc.lft.to/lastmile_qr_scan"}, "name": "ed2f4c60d5f241675d105ade656f00ab", "is_reserved": 0}, {"is_disabled": 0, "fusion_lon": 0.0, "fusion_lat": 0.0, "lat": 38.90534483333333, "type": "electric_scooter", "lon": -77.0456475, "bike_id": "4fa3501e6d8a29e67a6a1d667f66896d", "rental_uris": {"android": "https://dc.lft.to/lastmile_qr_scan", "ios": "https://dc.lft.to/lastmile_qr_scan"}, "name": "4fa3501e6d8a29e67a6a1d667f66896d", "is_reserved": 0}, {"is_disabled": 0, "fusion_lon": 0.0, "fusion_lat": 0.0, "lat": 38.91346866666667, "type": "electric_scooter", "lon": -77.03193416666667, "bike_id": "52ccec99896670c29766c5fcd279fa81", "rental_uris": {"android": "https://dc.lft.to/lastmile_qr_scan", "ios": "https://dc.lft.to/lastmile_qr_scan"}, "name": "52ccec99896670c29766c5fcd279fa81", "is_reserved": 0}, {"is_disabled": 0, "fusion_lon": 0.0, "fusion_lat": 0.0, "lat": 38.909364833333335, "type": "electric_scooter", "lon": -76.99220733333334, "bike_id": "5f5184a595f0ad2e07583ed2d0b1b1fc", "rental_uris": {"android": "https://dc.lft.to/lastmile_qr_scan", "ios": "https://dc.lft.to/lastmile_qr_scan"}, "name": "5f5184a595f0ad2e07583ed2d0b1b1fc", "is_reserved": 0}, {"is_disabled": 0, "fusion_lon": 0.0, "fusion_lat": 0.0, "lat": 38.905539166666664, "type": "electric_scooter", "lon": -77.02975033333334, "bike_id": "e69daeeadfcbfb02a77803c6a83e0896", "rental_uris": {"android": "https://dc.lft.to/lastmile_qr_scan", "ios": "https://dc.lft.to/lastmile_qr_scan"}, "name": "e69daeeadfcbfb02a77803c6a83e0896", "is_reserved": 0}, {"is_disabled": 0, "fusion_lon": 0.0, "fusion_lat": 0.0, "lat": 38.89487166666667, "type": "electric_scooter", "lon": -77.02309833333334, "bike_id": "f3cc14e1e5b3674256ae999b6b2b037c", "rental_uris": {"android": "https://dc.lft.to/lastmile_qr_scan", "ios": "https://dc.lft.to/lastmile_qr_scan"}, "name": "f3cc14e1e5b3674256ae999b6b2b037c", "is_reserved": 0}, {"is_disabled": 0, "fusion_lon": 0.0, "fusion_lat": 0.0, "lat": 38.89468683333333, "type": "electric_scooter", "lon": -76.9771775, "bike_id": "84c65a575b2f78b6299536fc43fd26de", "rental_uris": {"android": "https://dc.lft.to/lastmile_qr_scan", "ios": "https://dc.lft.to/lastmile_qr_scan"}, "name": "84c65a575b2f78b6299536fc43fd26de", "is_reserved": 0}, {"is_disabled": 0, "fusion_lon": 0.0, "fusion_lat": 0.0, "lat": 38.91154066666667, "type": "electric_scooter", "lon": -76.98502133333334, "bike_id": "0b80350c4301fa534244ba5580331310", "rental_uris": {"android": "https://dc.lft.to/lastmile_qr_scan", "ios": "https://dc.lft.to/lastmile_qr_scan"}, "name": "0b80350c4301fa534244ba5580331310", "is_reserved": 0}, {"is_disabled": 0, "fusion_lon": 0.0, "fusion_lat": 0.0, "lat": 38.944504, "type": "electric_scooter", "lon": -77.06045583333334, "bike_id": "df6b4fe69c3d668ad0674fd7cd2c6411", "rental_uris": {"android": "https://dc.lft.to/lastmile_qr_scan", "ios": "https://dc.lft.to/lastmile_qr_scan"}, "name": "df6b4fe69c3d668ad0674fd7cd2c6411", "is_reserved": 0}, {"is_disabled": 0, "fusion_lon": 0.0, "fusion_lat": 0.0, "lat": 38.91637983333333, "type": "electric_scooter", "lon": -77.05060916666666, "bike_id": "bc6ccd42864b9c2295ca2ef0ef99efd6", "rental_uris": {"android": "https://dc.lft.to/lastmile_qr_scan", "ios": "https://dc.lft.to/lastmile_qr_scan"}, "name": "bc6ccd42864b9c2295ca2ef0ef99efd6", "is_reserved": 0}, {"is_disabled": 0, "fusion_lon": 0.0, "fusion_lat": 0.0, "lat": 38.92250716666667, "type": "electric_scooter", "lon": -77.03072516666667, "bike_id": "b5a266ed83d479e9ba826a534a773b93", "rental_uris": {"android": "https://dc.lft.to/lastmile_qr_scan", "ios": "https://dc.lft.to/lastmile_qr_scan"}, "name": "b5a266ed83d479e9ba826a534a773b93", "is_reserved": 0}, {"is_disabled": 0, "fusion_lon": 0.0, "fusion_lat": 0.0, "lat": 38.963085, "type": "electric_bike", "lon": -77.05760616666667, "bike_id": "6d0d8bca8d8a1de6556f23692c12d5a4", "rental_uris": {"android": "https://dc.lft.to/lastmile_qr_scan", "ios": "https://dc.lft.to/lastmile_qr_scan"}, "name": "6d0d8bca8d8a1de6556f23692c12d5a4", "is_reserved": 0}, {"is_disabled": 0, "fusion_lon": 0.0, "fusion_lat": 0.0, "lat": 38.904765, "type": "electric_scooter", "lon": -77.03833183333333, "bike_id": "9cce56a7738a78f6eddfbf289647f041", "rental_uris": {"android": "https://dc.lft.to/lastmile_qr_scan", "ios": "https://dc.lft.to/lastmile_qr_scan"}, "name": "9cce56a7738a78f6eddfbf289647f041", "is_reserved": 0}, {"is_disabled": 0, "fusion_lon": 0.0, "fusion_lat": 0.0, "lat": 38.868445666666666, "type": "electric_bike", "lon": -77.0973315, "bike_id": "71e59c083a7f4c14948000c235bdab7e", "rental_uris": {"android": "https://dc.lft.to/lastmile_qr_scan", "ios": "https://dc.lft.to/lastmile_qr_scan"}, "name": "71e59c083a7f4c14948000c235bdab7e", "is_reserved": 0}, {"is_disabled": 0, "fusion_lon": 0.0, "fusion_lat": 0.0, "lat": 38.945515666666665, "type": "electric_scooter", "lon": -77.04240483333334, "bike_id": "384f9dd10b6b4650512e8385734b1a9c", "rental_uris": {"android": "https://dc.lft.to/lastmile_qr_scan", "ios": "https://dc.lft.to/lastmile_qr_scan"}, "name": "384f9dd10b6b4650512e8385734b1a9c", "is_reserved": 0}, {"is_disabled": 0, "fusion_lon": 0.0, "fusion_lat": 0.0, "lat": 38.879231, "type": "electric_scooter", "lon": -77.00050166666666, "bike_id": "332e47dc0f09ca97afb97ce0201d85cd", "rental_uris": {"android": "https://dc.lft.to/lastmile_qr_scan", "ios": "https://dc.lft.to/lastmile_qr_scan"}, "name": "332e47dc0f09ca97afb97ce0201d85cd", "is_reserved": 0}, {"is_disabled": 0, "fusion_lon": 0.0, "fusion_lat": 0.0, "lat": 38.833518, "type": "electric_bike", "lon": -76.96557016666667, "bike_id": "6c5705f1e982e5833f1fb5342f418a50", "rental_uris": {"android": "https://dc.lft.to/lastmile_qr_scan", "ios": "https://dc.lft.to/lastmile_qr_scan"}, "name": "6c5705f1e982e5833f1fb5342f418a50", "is_reserved": 0}, {"is_disabled": 0, "fusion_lon": 0.0, "fusion_lat": 0.0, "lat": 38.8923555, "type": "electric_scooter", "lon": -77.03179016666667, "bike_id": "56469b34e7f05695a3d148336c44f005", "rental_uris": {"android": "https://dc.lft.to/lastmile_qr_scan", "ios": "https://dc.lft.to/lastmile_qr_scan"}, "name": "56469b34e7f05695a3d148336c44f005", "is_reserved": 0}, {"is_disabled": 0, "fusion_lon": 0.0, "fusion_lat": 0.0, "lat": 38.9185475, "type": "electric_bike", "lon": -76.960899, "bike_id": "4c74f0141dfd9be49bf9ec9a9879adef", "rental_uris": {"android": "https://dc.lft.to/lastmile_qr_scan", "ios": "https://dc.lft.to/lastmile_qr_scan"}, "name": "4c74f0141dfd9be49bf9ec9a9879adef", "is_reserved": 0}, {"is_disabled": 0, "fusion_lon": 0.0, "fusion_lat": 0.0, "lat": 38.9506045, "type": "electric_bike", "lon": -76.96737166666666, "bike_id": "a8d6e47c1d0d3091d96af567c371b001", "rental_uris": {"android": "https://dc.lft.to/lastmile_qr_scan", "ios": "https://dc.lft.to/lastmile_qr_scan"}, "name": "a8d6e47c1d0d3091d96af567c371b001", "is_reserved": 0}, {"is_disabled": 0, "fusion_lon": 0.0, "fusion_lat": 0.0, "lat": 38.882461666666664, "type": "electric_scooter", "lon": -77.00351, "bike_id": "1d11bd93d0ca32a0d6098a8e01d3ae95", "rental_uris": {"android": "https://dc.lft.to/lastmile_qr_scan", "ios": "https://dc.lft.to/lastmile_qr_scan"}, "name": "1d11bd93d0ca32a0d6098a8e01d3ae95", "is_reserved": 0}, {"is_disabled": 0, "fusion_lon": 0.0, "fusion_lat": 0.0, "lat": 38.87658833333333, "type": "electric_scooter", "lon": -77.00444866666666, "bike_id": "1666b906ec1dcee04e0f4e8bf66d26e4", "rental_uris": {"android": "https://dc.lft.to/lastmile_qr_scan", "ios": "https://dc.lft.to/lastmile_qr_scan"}, "name": "1666b906ec1dcee04e0f4e8bf66d26e4", "is_reserved": 0}, {"is_disabled": 0, "fusion_lon": 0.0, "fusion_lat": 0.0, "lat": 38.90133566666667, "type": "electric_scooter", "lon": -77.0304535, "bike_id": "70e14c5a11d670a077a0e7647e0c6cd9", "rental_uris": {"android": "https://dc.lft.to/lastmile_qr_scan", "ios": "https://dc.lft.to/lastmile_qr_scan"}, "name": "70e14c5a11d670a077a0e7647e0c6cd9", "is_reserved": 0}, {"is_disabled": 0, "fusion_lon": 0.0, "fusion_lat": 0.0, "lat": 38.92034966666667, "type": "electric_scooter", "lon": -77.01907216666666, "bike_id": "1bd7682472a1b9f26966c694773b027c", "rental_uris": {"android": "https://dc.lft.to/lastmile_qr_scan", "ios": "https://dc.lft.to/lastmile_qr_scan"}, "name": "1bd7682472a1b9f26966c694773b027c", "is_reserved": 0}, {"is_disabled": 0, "fusion_lon": 0.0, "fusion_lat": 0.0, "lat": 38.934870833333335, "type": "electric_scooter", "lon": -77.02400833333333, "bike_id": "3e021be58c668223f7db5ac208e973c5", "rental_uris": {"android": "https://dc.lft.to/lastmile_qr_scan", "ios": "https://dc.lft.to/lastmile_qr_scan"}, "name": "3e021be58c668223f7db5ac208e973c5", "is_reserved": 0}, {"is_disabled": 0, "fusion_lon": 0.0, "fusion_lat": 0.0, "lat": 38.88744483333333, "type": "electric_scooter", "lon": -77.01537933333333, "bike_id": "2e8b05c31f019feca7834c86148bac84", "rental_uris": {"android": "https://dc.lft.to/lastmile_qr_scan", "ios": "https://dc.lft.to/lastmile_qr_scan"}, "name": "2e8b05c31f019feca7834c86148bac84", "is_reserved": 0}, {"is_disabled": 0, "fusion_lon": 0.0, "fusion_lat": 0.0, "lat": 38.802993666666666, "type": "electric_bike", "lon": -77.03986033333334, "bike_id": "9e4b65149851d76a56584ee37455e286", "rental_uris": {"android": "https://dc.lft.to/lastmile_qr_scan", "ios": "https://dc.lft.to/lastmile_qr_scan"}, "name": "9e4b65149851d76a56584ee37455e286", "is_reserved": 0}, {"is_disabled": 0, "fusion_lon": 0.0, "fusion_lat": 0.0, "lat": 38.922608833333335, "type": "electric_scooter", "lon": -77.03297783333333, "bike_id": "6466fa9588b10ccd2bdc62c9f34e91a4", "rental_uris": {"android": "https://dc.lft.to/lastmile_qr_scan", "ios": "https://dc.lft.to/lastmile_qr_scan"}, "name": "6466fa9588b10ccd2bdc62c9f34e91a4", "is_reserved": 0}, {"is_disabled": 0, "fusion_lon": 0.0, "fusion_lat": 0.0, "lat": 38.919548, "type": "electric_scooter", "lon": -77.01390833333333, "bike_id": "9a6b6ccba783261ceb63bff2321a1c5d", "rental_uris": {"android": "https://dc.lft.to/lastmile_qr_scan", "ios": "https://dc.lft.to/lastmile_qr_scan"}, "name": "9a6b6ccba783261ceb63bff2321a1c5d", "is_reserved": 0}, {"is_disabled": 0, "fusion_lon": 0.0, "fusion_lat": 0.0, "lat": 38.917069833333336, "type": "electric_scooter", "lon": -77.02883916666667, "bike_id": "cfff65448b53f342e26083768bca542f", "rental_uris": {"android": "https://dc.lft.to/lastmile_qr_scan", "ios": "https://dc.lft.to/lastmile_qr_scan"}, "name": "cfff65448b53f342e26083768bca542f", "is_reserved": 0}, {"is_disabled": 0, "fusion_lon": 0.0, "fusion_lat": 0.0, "lat": 38.9172945, "type": "electric_scooter", "lon": -77.00046766666667, "bike_id": "6cc23d2a836a45cf684c79298f1310cf", "rental_uris": {"android": "https://dc.lft.to/lastmile_qr_scan", "ios": "https://dc.lft.to/lastmile_qr_scan"}, "name": "6cc23d2a836a45cf684c79298f1310cf", "is_reserved": 0}, {"is_disabled": 0, "fusion_lon": 0.0, "fusion_lat": 0.0, "lat": 38.93600566666667, "type": "electric_scooter", "lon": -77.0559585, "bike_id": "c3cf6a2fcb8cc4abafc366c27becfe53", "rental_uris": {"android": "https://dc.lft.to/lastmile_qr_scan", "ios": "https://dc.lft.to/lastmile_qr_scan"}, "name": "c3cf6a2fcb8cc4abafc366c27becfe53", "is_reserved": 0}, {"is_disabled": 0, "fusion_lon": 0.0, "fusion_lat": 0.0, "lat": 38.912227, "type": "electric_scooter", "lon": -77.03193616666667, "bike_id": "9b304b1ab164ad71e9da146fe479dd3d", "rental_uris": {"android": "https://dc.lft.to/lastmile_qr_scan", "ios": "https://dc.lft.to/lastmile_qr_scan"}, "name": "9b304b1ab164ad71e9da146fe479dd3d", "is_reserved": 0}, {"is_disabled": 0, "fusion_lon": 0.0, "fusion_lat": 0.0, "lat": 38.90200983333333, "type": "electric_scooter", "lon": -77.06116383333334, "bike_id": "fd468b314f966526711121cb810f0ce0", "rental_uris": {"android": "https://dc.lft.to/lastmile_qr_scan", "ios": "https://dc.lft.to/lastmile_qr_scan"}, "name": "fd468b314f966526711121cb810f0ce0", "is_reserved": 0}, {"is_disabled": 0, "fusion_lon": 0.0, "fusion_lat": 0.0, "lat": 38.913242833333335, "type": "electric_scooter", "lon": -77.03247583333334, "bike_id": "8a9c1345404b3513c91a7fbb3146a7f0", "rental_uris": {"android": "https://dc.lft.to/lastmile_qr_scan", "ios": "https://dc.lft.to/lastmile_qr_scan"}, "name": "8a9c1345404b3513c91a7fbb3146a7f0", "is_reserved": 0}, {"is_disabled": 0, "fusion_lon": 0.0, "fusion_lat": 0.0, "lat": 38.86038416666667, "type": "electric_bike", "lon": -77.05629933333333, "bike_id": "b00939729fdd2deee5cd9f778d84636a", "rental_uris": {"android": "https://dc.lft.to/lastmile_qr_scan", "ios": "https://dc.lft.to/lastmile_qr_scan"}, "name": "b00939729fdd2deee5cd9f778d84636a", "is_reserved": 0}, {"is_disabled": 0, "fusion_lon": 0.0, "fusion_lat": 0.0, "lat": 38.93492233333333, "type": "electric_scooter", "lon": -77.02417166666666, "bike_id": "0fe0be4eec3fb63ffad21f24e18ba213", "rental_uris": {"android": "https://dc.lft.to/lastmile_qr_scan", "ios": "https://dc.lft.to/lastmile_qr_scan"}, "name": "0fe0be4eec3fb63ffad21f24e18ba213", "is_reserved": 0}, {"is_disabled": 0, "fusion_lon": 0.0, "fusion_lat": 0.0, "lat": 38.891934, "type": "electric_scooter", "lon": -76.98830716666667, "bike_id": "57532fc5112fb4bc33d6ce7ebc5441c7", "rental_uris": {"android": "https://dc.lft.to/lastmile_qr_scan", "ios": "https://dc.lft.to/lastmile_qr_scan"}, "name": "57532fc5112fb4bc33d6ce7ebc5441c7", "is_reserved": 0}, {"is_disabled": 0, "fusion_lon": 0.0, "fusion_lat": 0.0, "lat": 38.901369333333335, "type": "electric_scooter", "lon": -77.041662, "bike_id": "e6684c05e5a1e78a5fc38c84a0d5ebe4", "rental_uris": {"android": "https://dc.lft.to/lastmile_qr_scan", "ios": "https://dc.lft.to/lastmile_qr_scan"}, "name": "e6684c05e5a1e78a5fc38c84a0d5ebe4", "is_reserved": 0}, {"is_disabled": 0, "fusion_lon": 0.0, "fusion_lat": 0.0, "lat": 38.92157266666667, "type": "electric_scooter", "lon": -77.03438516666667, "bike_id": "c93b6dd77350edc7fb8a36c515a8af73", "rental_uris": {"android": "https://dc.lft.to/lastmile_qr_scan", "ios": "https://dc.lft.to/lastmile_qr_scan"}, "name": "c93b6dd77350edc7fb8a36c515a8af73", "is_reserved": 0}, {"is_disabled": 0, "fusion_lon": 0.0, "fusion_lat": 0.0, "lat": 38.91605533333333, "type": "electric_scooter", "lon": -77.02292116666666, "bike_id": "c78a847a8c5ad954721fc2a4350794b0", "rental_uris": {"android": "https://dc.lft.to/lastmile_qr_scan", "ios": "https://dc.lft.to/lastmile_qr_scan"}, "name": "c78a847a8c5ad954721fc2a4350794b0", "is_reserved": 0}, {"is_disabled": 0, "fusion_lon": 0.0, "fusion_lat": 0.0, "lat": 38.865286, "type": "electric_bike", "lon": -77.12820866666667, "bike_id": "1ab7b685c6caf63152cee99947908714", "rental_uris": {"android": "https://dc.lft.to/lastmile_qr_scan", "ios": "https://dc.lft.to/lastmile_qr_scan"}, "name": "1ab7b685c6caf63152cee99947908714", "is_reserved": 0}, {"is_disabled": 0, "fusion_lon": 0.0, "fusion_lat": 0.0, "lat": 38.9227735, "type": "electric_scooter", "lon": -77.04471266666667, "bike_id": "93ab60f20a4a13ae377e7920203d63ed", "rental_uris": {"android": "https://dc.lft.to/lastmile_qr_scan", "ios": "https://dc.lft.to/lastmile_qr_scan"}, "name": "93ab60f20a4a13ae377e7920203d63ed", "is_reserved": 0}, {"is_disabled": 0, "fusion_lon": 0.0, "fusion_lat": 0.0, "lat": 38.92256166666667, "type": "electric_scooter", "lon": -77.04209366666667, "bike_id": "2fe9dbe19a6e57a0d722e8ade5878b79", "rental_uris": {"android": "https://dc.lft.to/lastmile_qr_scan", "ios": "https://dc.lft.to/lastmile_qr_scan"}, "name": "2fe9dbe19a6e57a0d722e8ade5878b79", "is_reserved": 0}, {"is_disabled": 0, "fusion_lon": 0.0, "fusion_lat": 0.0, "lat": 38.905216, "type": "electric_scooter", "lon": -77.06783883333334, "bike_id": "8bb7ce11530408f0d81939087c637aa8", "rental_uris": {"android": "https://dc.lft.to/lastmile_qr_scan", "ios": "https://dc.lft.to/lastmile_qr_scan"}, "name": "8bb7ce11530408f0d81939087c637aa8", "is_reserved": 0}, {"is_disabled": 0, "fusion_lon": 0.0, "fusion_lat": 0.0, "lat": 38.9143185, "type": "electric_scooter", "lon": -77.0321285, "bike_id": "11cfb6d5c02a930818bd58351f80bcfc", "rental_uris": {"android": "https://dc.lft.to/lastmile_qr_scan", "ios": "https://dc.lft.to/lastmile_qr_scan"}, "name": "11cfb6d5c02a930818bd58351f80bcfc", "is_reserved": 0}, {"is_disabled": 0, "fusion_lon": 0.0, "fusion_lat": 0.0, "lat": 38.827806833333334, "type": "electric_bike", "lon": -77.110801, "bike_id": "d886ec521078c3e338e7ec6aa9a7a968", "rental_uris": {"android": "https://dc.lft.to/lastmile_qr_scan", "ios": "https://dc.lft.to/lastmile_qr_scan"}, "name": "d886ec521078c3e338e7ec6aa9a7a968", "is_reserved": 0}, {"is_disabled": 0, "fusion_lon": 0.0, "fusion_lat": 0.0, "lat": 38.899683333333336, "type": "electric_scooter", "lon": -76.939802, "bike_id": "99828e7d379b8a4afa7f8a87c9d9d08a", "rental_uris": {"android": "https://dc.lft.to/lastmile_qr_scan", "ios": "https://dc.lft.to/lastmile_qr_scan"}, "name": "99828e7d379b8a4afa7f8a87c9d9d08a", "is_reserved": 0}, {"is_disabled": 0, "fusion_lon": 0.0, "fusion_lat": 0.0, "lat": 38.920511166666664, "type": "electric_scooter", "lon": -77.03288183333333, "bike_id": "d0d17320f44dcb1095bf3e7812388fdf", "rental_uris": {"android": "https://dc.lft.to/lastmile_qr_scan", "ios": "https://dc.lft.to/lastmile_qr_scan"}, "name": "d0d17320f44dcb1095bf3e7812388fdf", "is_reserved": 0}, {"is_disabled": 0, "fusion_lon": 0.0, "fusion_lat": 0.0, "lat": 38.96259833333333, "type": "electric_scooter", "lon": -77.02905833333334, "bike_id": "a6029ca585cbd4f16d081bbf9503dc39", "rental_uris": {"android": "https://dc.lft.to/lastmile_qr_scan", "ios": "https://dc.lft.to/lastmile_qr_scan"}, "name": "a6029ca585cbd4f16d081bbf9503dc39", "is_reserved": 0},