{"data": {"bikes": [{"rental_uris": {"android": "https://dc.lft.to/lastmile_qr_scan", "ios": "https://dc.lft.to/lastmile_qr_scan"}, "lon": -77.02349333333333, "name": "b8c4b7d310ac671efbcc84609190e06c", "lat": 38.9353665, "is_reserved": 0, "fusion_lat": 0.0, "bike_id": "b8c4b7d310ac671efbcc84609190e06c", "type": "electric_scooter", "is_disabled": 0, "fusion_lon": 0.0}, {"rental_uris": {"android": "https://dc.lft.to/lastmile_qr_scan", "ios": "https://dc.lft.to/lastmile_qr_scan"}, "lon": -77.02563466666666, "name": "710fa125d2bdf0e47d22b71e0ba3d9ab", "lat": 38.95124116666667, "is_reserved": 0, "fusion_lat": 0.0, "bike_id": "710fa125d2bdf0e47d22b71e0ba3d9ab", "type": "electric_scooter", "is_disabled": 0, "fusion_lon": 0.0}, {"rental_uris": {"android": "https://dc.lft.to/lastmile_qr_scan", "ios": "https://dc.lft.to/lastmile_qr_scan"}, "lon": -76.920449, "name": "f6c6dc6a8aca1031a09d1b004deb6b83", "lat": 38.897383833333336, "is_reserved": 0, "fusion_lat": 0.0, "bike_id": "f6c6dc6a8aca1031a09d1b004deb6b83", "type": "electric_bike", "is_disabled": 0, "fusion_lon": 0.0}, {"rental_uris": {"android": "https://dc.lft.to/lastmile_qr_scan", "ios": "https://dc.lft.to/lastmile_qr_scan"}, "lon": -77.02071916666667, "name": "80c40c289a3c6d57b5e87b291ed9e2dc", "lat": 38.8948015, "is_reserved": 0, "fusion_lat": 0.0, "bike_id": "80c40c289a3c6d57b5e87b291ed9e2dc", "type": "electric_scooter", "is_disabled": 0, "fusion_lon": 0.0}, {"rental_uris": {"android": "https://dc.lft.to/lastmile_qr_scan", "ios": "https://dc.lft.to/lastmile_qr_scan"}, "lon": -77.01227183333333, "name": "941760cfeccc118c618037398ca5d3a6", "lat": 38.91404333333333, "is_reserved": 0, "fusion_lat": 0.0, "bike_id": "941760cfeccc118c618037398ca5d3a6", "type": "electric_scooter", "is_disabled": 0, "fusion_lon": 0.0}, {"rental_uris": {"android": "https://dc.lft.to/lastmile_qr_scan", "ios": "https://dc.lft.to/lastmile_qr_scan"}, "lon": -77.03214816666667, "name": "961fbd3ae4407e59f7254a6ff35a2f8f", "lat": 38.916934166666664, "is_reserved": 0, "fusion_lat": 0.0, "bike_id": "961fbd3ae4407e59f7254a6ff35a2f8f", "type": "electric_scooter", "is_disabled": 0, "fusion_lon": 0.0}, {"rental_uris": {"android": "https://dc.lft.to/lastmile_qr_scan", "ios": "https://dc.lft.to/lastmile_qr_scan"}, "lon": -77.01211166666667, "name": "9abd90fa02e5961fb5fe8075c5abd595", "lat": 38.918240833333336, "is_reserved": 0, "fusion_lat": 0.0, "bike_id": "9abd90fa02e5961fb5fe8075c5abd595", "type": "electric_scooter", "is_disabled": 0, "fusion_lon": 0.0}, {"rental_uris": {"android": "https://dc.lft.to/lastmile_qr_scan", "ios": "https://dc.lft.to/lastmile_qr_scan"}, "lon": -77.04196066666667, "name": "0f0f2602e3d44da2593679c7406e1b52", "lat": 38.92109633333333, "is_reserved": 0, "fusion_lat": 0.0, "bike_id": "0f0f2602e3d44da2593679c7406e1b52", "type": "electric_scooter", "is_disabled": 0, "fusion_lon": 0.0}, {"rental_uris": {"android": "https://dc.lft.to/lastmile_qr_scan", "ios": "https://dc.lft.to/lastmile_qr_scan"}, "lon": -76.9302235, "name": "46fa52c22ef1b997cf15e475199cbfd5", "lat": 38.90170966666667, "is_reserved": 0, "fusion_lat": 0.0, "bike_id": "46fa52c22ef1b997cf15e475199cbfd5", "type": "electric_scooter", "is_disabled": 0, "fusion_lon": 0.0}, {"rental_uris": {"android": "https://dc.lft.to/lastmile_qr_scan", "ios": "https://dc.lft.to/lastmile_qr_scan"}, "lon": -77.00563033333333, "name": "7ca9a0749f7b29ad13978912379403e4", "lat": 38.87470833333333, "is_reserved": 0, "fusion_lat": 0.0, "bike_id": "7ca9a0749f7b29ad13978912379403e4", "type": "electric_scooter", "is_disabled": 0, "fusion_lon": 0.0}, {"rental_uris": {"android": "https://dc.lft.to/lastmile_qr_scan", "ios": "https://dc.lft.to/lastmile_qr_scan"}, "lon": -77.03142, "name": "8af5843bc5e7357248972395c0e8abeb", "lat": 38.929631, "is_reserved": 0, "fusion_lat": 0.0, "bike_id": "8af5843bc5e7357248972395c0e8abeb", "type": "electric_scooter", "is_disabled": 0, "fusion_lon": 0.0}, {"rental_uris": {"android": "https://dc.lft.to/lastmile_qr_scan", "ios": "https://dc.lft.to/lastmile_qr_scan"}, "lon": -76.99950433333333, "name": "fcffa57ea1c5bb8afa5ccaa3b41d8d32", "lat": 38.87865466666667, "is_reserved": 0, "fusion_lat": 0.0, "bike_id": "fcffa57ea1c5bb8afa5ccaa3b41d8d32", "type": "electric_scooter", "is_disabled": 0, "fusion_lon": 0.0}, {"rental_uris": {"android": "https://dc.lft.to/lastmile_qr_scan", "ios": "https://dc.lft.to/lastmile_qr_scan"}, "lon": -77.03930833333334, "name": "8a308077e5204da9a0d159891123144e", "lat": 38.91626133333333, "is_reserved": 0, "fusion_lat": 0.0, "bike_id": "8a308077e5204da9a0d159891123144e", "type": "electric_scooter", "is_disabled": 0, "fusion_lon": 0.0}, {"rental_uris": {"android": "https://dc.lft.to/lastmile_qr_scan", "ios": "https://dc.lft.to/lastmile_qr_scan"}, "lon": -77.020477, "name": "46afc50f56704f52179f83cf9575f94e", "lat": 38.91559316666667, "is_reserved": 0, "fusion_lat": 0.0, "bike_id": "46afc50f56704f52179f83cf9575f94e", "type": "electric_scooter", "is_disabled": 0, "fusion_lon": 0.0}, {"rental_uris": {"android": "https://dc.lft.to/lastmile_qr_scan", "ios": "https://dc.lft.to/lastmile_qr_scan"}, "lon": -76.97665183333334, "name": "00982d4c69a9d1ec8531798b33918a53", "lat": 38.84057633333333, "is_reserved": 0, "fusion_lat": 0.0, "bike_id": "00982d4c69a9d1ec8531798b33918a53", "type": "electric_scooter", "is_disabled": 0, "fusion_lon": 0.0}, {"rental_uris": {"android": "https://dc.lft.to/lastmile_qr_scan", "ios": "https://dc.lft.to/lastmile_qr_scan"}, "lon": -77.01417366666666, "name": "807d28953ef545d99333bf557f2c413f", "lat": 38.92845033333333, "is_reserved": 0, "fusion_lat": 0.0, "bike_id": "807d28953ef545d99333bf557f2c413f", "type": "electric_scooter", "is_disabled": 0, "fusion_lon": 0.0}, {"rental_uris": {"android": "https://dc.lft.to/lastmile_qr_scan", "ios": "https://dc.lft.to/lastmile_qr_scan"}, "lon": -77.03968166666667, "name": "937b0de8b5d6fbfe90297020b285261e", "lat": 38.919844166666664, "is_reserved": 0, "fusion_lat": 0.0, "bike_id": "937b0de8b5d6fbfe90297020b285261e", "type": "electric_scooter", "is_disabled": 0, "fusion_lon": 0.0}, {"rental_uris": {"android": "https://dc.lft.to/lastmile_qr_scan", "ios": "https://dc.lft.to/lastmile_qr_scan"}, "lon": -77.00531933333333, "name": "85327eaa2f67389f21c59b6961bc6635", "lat": 38.846487833333335, "is_reserved": 0, "fusion_lat": 0.0, "bike_id": "85327eaa2f67389f21c59b6961bc6635", "type": "electric_scooter", "is_disabled": 0, "fusion_lon": 0.0}, {"rental_uris": {"android": "https://dc.lft.to/lastmile_qr_scan", "ios": "https://dc.lft.to/lastmile_qr_scan"}, "lon": -76.93181616666666, "name": "a29112ba93efe64523f7d9680c19023e", "lat": 38.898321333333335, "is_reserved": 0, "fusion_lat": 0.0, "bike_id": "a29112ba93efe64523f7d9680c19023e", "type": "electric_scooter", "is_disabled": 0, "fusion_lon": 0.0}, {"rental_uris": {"android": "https://dc.lft.to/lastmile_qr_scan", "ios": "https://dc.lft.to/lastmile_qr_scan"}, "lon": -77.0412475, "name": "d742a5e2b65671d1efa26aa462bc5230", "lat": 38.90376283333333, "is_reserved": 0, "fusion_lat": 0.0, "bike_id": "d742a5e2b65671d1efa26aa462bc5230", "type": "electric_scooter", "is_disabled": 0, "fusion_lon": 0.0}, {"rental_uris": {"android": "https://dc.lft.to/lastmile_qr_scan", "ios": "https://dc.lft.to/lastmile_qr_scan"}, "lon": -77.03184366666666, "name": "df2ea5963a36b4ae4f4789dd6468b334", "lat": 38.913533, "is_reserved": 0, "fusion_lat": 0.0, "bike_id": "df2ea5963a36b4ae4f4789dd6468b334", "type": "electric_scooter", "is_disabled": 0, "fusion_lon": 0.0}, {"rental_uris": {"android": "https://dc.lft.to/lastmile_qr_scan", "ios": "https://dc.lft.to/lastmile_qr_scan"}, "lon": -77.00259933333334, "name": "5de74e40f5376c8278b29b64d5c3b761", "lat": 38.89487, "is_reserved": 0, "fusion_lat": 0.0, "bike_id": "5de74e40f5376c8278b29b64d5c3b761", "type": "electric_scooter", "is_disabled": 0, "fusion_lon": 0.0}, {"rental_uris": {"android": "https://dc.lft.to/lastmile_qr_scan", "ios": "https://dc.lft.to/lastmile_qr_scan"}, "lon": -77.04621916666666, "name": "a6118333f3906ce16a6fb1a15d315fe7", "lat": 38.897368, "is_reserved": 0, "fusion_lat": 0.0, "bike_id": "a6118333f3906ce16a6fb1a15d315fe7", "type": "electric_scooter", "is_disabled": 0, "fusion_lon": 0.0}, {"rental_uris": {"android": "https://dc.lft.to/lastmile_qr_scan", "ios": "https://dc.lft.to/lastmile_qr_scan"}, "lon": -77.02168416666666, "name": "24e90b24214216e0fa73ad3b2a84d4a6", "lat": 38.91991016666667, "is_reserved": 0, "fusion_lat": 0.0, "bike_id": "24e90b24214216e0fa73ad3b2a84d4a6", "type": "electric_scooter", "is_disabled": 0, "fusion_lon": 0.0}, {"rental_uris": {"android": "https://dc.lft.to/lastmile_qr_scan", "ios": "https://dc.lft.to/lastmile_qr_scan"}, "lon": -77.03260866666666, "name": "5c2fe536f6142993e0712e3f8f62bdcd", "lat": 38.93982, "is_reserved": 0, "fusion_lat": 0.0, "bike_id": "5c2fe536f6142993e0712e3f8f62bdcd", "type": "electric_scooter", "is_disabled": 0, "fusion_lon": 0.0}, {"rental_uris": {"android": "https://dc.lft.to/lastmile_qr_scan", "ios": "https://dc.lft.to/lastmile_qr_scan"}, "lon": -77.01976033333334, "name": "bfc8f53a2ddeab67599499ba11565494", "lat": 38.96384616666667, "is_reserved": 0, "fusion_lat": 0.0, "bike_id": "bfc8f53a2ddeab67599499ba11565494", "type": "electric_bike", "is_disabled": 0, "fusion_lon": 0.0}, {"rental_uris": {"android": "https://dc.lft.to/lastmile_qr_scan", "ios": "https://dc.lft.to/lastmile_qr_scan"}, "lon": -77.016161, "name": "e0514697dfcfae29ebf567c7a580084e", "lat": 38.95643866666666, "is_reserved": 0, "fusion_lat": 0.0, "bike_id": "e0514697dfcfae29ebf567c7a580084e", "type": "electric_scooter", "is_disabled": 0, "fusion_lon": 0.0}, {"rental_uris": {"android": "https://dc.lft.to/lastmile_qr_scan", "ios": "https://dc.lft.to/lastmile_qr_scan"}, "lon": -77.036889, "name": "53596432a31149e1e62ade11a70324af", "lat": 38.922853833333335, "is_reserved": 0, "fusion_lat": 0.0, "bike_id": "53596432a31149e1e62ade11a70324af", "type": "electric_scooter", "is_disabled": 0, "fusion_lon": 0.0}, {"rental_uris": {"android": "https://dc.lft.to/lastmile_qr_scan", "ios": "https://dc.lft.to/lastmile_qr_scan"}, "lon": -77.04476266666667, "name": "9e2486fce164bbf83b4e7b194cfa8b35", "lat": 38.916134666666665, "is_reserved": 0, "fusion_lat": 0.0, "bike_id": "9e2486fce164bbf83b4e7b194cfa8b35", "type": "electric_scooter", "is_disabled": 0, "fusion_lon": 0.0}, {"rental_uris": {"android": "https://dc.lft.to/lastmile_qr_scan", "ios": "https://dc.lft.to/lastmile_qr_scan"}, "lon": -77.0220055, "name": "4586e583d450add28b82795ae23d4ea8", "lat": 38.905663, "is_reserved": 0, "fusion_lat": 0.0, "bike_id": "4586e583d450add28b82795ae23d4ea8", "type": "electric_scooter", "is_disabled": 0, "fusion_lon": 0.0}, {"rental_uris": {"android": "https://dc.lft.to/lastmile_qr_scan", "ios": "https://dc.lft.to/lastmile_qr_scan"}, "lon": -77.027559, "name": "123848417aad46344051779775d417eb", "lat": 38.90268116666667, "is_reserved": 0, "fusion_lat": 0.0, "bike_id": "123848417aad46344051779775d417eb", "type": "electric_scooter", "is_disabled": 0, "fusion_lon": 0.0}, {"rental_uris": {"android": "https://dc.lft.to/lastmile_qr_scan", "ios": "https://dc.lft.to/lastmile_qr_scan"}, "lon": -77.02748883333334, "name": "1a0c52a2d2b0b82849338f85750ad7f3", "lat": 38.899804, "is_reserved": 0, "fusion_lat": 0.0, "bike_id": "1a0c52a2d2b0b82849338f85750ad7f3", "type": "electric_scooter", "is_disabled": 0, "fusion_lon": 0.0}, {"rental_uris": {"android": "https://dc.lft.to/lastmile_qr_scan", "ios": "https://dc.lft.to/lastmile_qr_scan"}, "lon": -77.02534766666666, "name": "02aa8974d3459d4f1b922de5e1bc1de4", "lat": 38.920588, "is_reserved": 0, "fusion_lat": 0.0, "bike_id": "02aa8974d3459d4f1b922de5e1bc1de4", "type": "electric_scooter", "is_disabled": 0, "fusion_lon": 0.0}, {"rental_uris": {"android": "https://dc.lft.to/lastmile_qr_scan", "ios": "https://dc.lft.to/lastmile_qr_scan"}, "lon": -77.01845833333333, "name": "a9f652f4743db351bba1ea054091127d", "lat": 38.9310085, "is_reserved": 0, "fusion_lat": 0.0, "bike_id": "a9f652f4743db351bba1ea054091127d", "type": "electric_bike", "is_disabled": 0, "fusion_lon": 0.0}, {"rental_uris": {"android": "https://dc.lft.to/lastmile_qr_scan", "ios": "https://dc.lft.to/lastmile_qr_scan"}, "lon": -77.027259, "name": "fcacbbaa51acca02e8a5f52de6ab99fb", "lat": 38.92673, "is_reserved": 0, "fusion_lat": 0.0, "bike_id": "fcacbbaa51acca02e8a5f52de6ab99fb", "type": "electric_scooter", "is_disabled": 0, "fusion_lon": 0.0}, {"rental_uris": {"android": "https://dc.lft.to/lastmile_qr_scan", "ios": "https://dc.lft.to/lastmile_qr_scan"}, "lon": -77.047352, "name": "53da2bbf61bcad282441444b71fa45ef", "lat": 38.908602, "is_reserved": 0, "fusion_lat": 0.0, "bike_id": "53da2bbf61bcad282441444b71fa45ef", "type": "electric_scooter", "is_disabled": 0, "fusion_lon": 0.0}, {"rental_uris": {"android": "https://dc.lft.to/lastmile_qr_scan", "ios": "https://dc.lft.to/lastmile_qr_scan"}, "lon": -77.02832416666666, "name": "0ab741050641d9c2c2eb87e3d84aab8e", "lat": 38.89381783333333, "is_reserved": 0, "fusion_lat": 0.0, "bike_id": "0ab741050641d9c2c2eb87e3d84aab8e", "type": "electric_scooter", "is_disabled": 0, "fusion_lon": 0.0}, {"rental_uris": {"android": "https://dc.lft.to/lastmile_qr_scan", "ios": "https://dc.lft.to/lastmile_qr_scan"}, "lon": -77.03836933333334, "name": "9db346a656baf484492c9573e29e06d4", "lat": 38.94191416666666, "is_reserved": 0, "fusion_lat": 0.0, "bike_id": "9db346a656baf484492c9573e29e06d4", "type": "electric_scooter", "is_disabled": 0, "fusion_lon": 0.0}, {"rental_uris": {"android": "https://dc.lft.to/lastmile_qr_scan", "ios": "https://dc.lft.to/lastmile_qr_scan"}, "lon": -77.0081545, "name": "4a889ef422edd131c3b80857a592490f", "lat": 38.90262366666666, "is_reserved": 0, "fusion_lat": 0.0, "bike_id": "4a889ef422edd131c3b80857a592490f", "type": "electric_scooter", "is_disabled": 0, "fusion_lon": 0.0}, {"rental_uris": {"android": "https://dc.lft.to/lastmile_qr_scan", "ios": "https://dc.lft.to/lastmile_qr_scan"}, "lon": -77.046974, "name": "e6bb76e8239b7c9162a1411d67979b64", "lat": 38.921860333333335, "is_reserved": 0, "fusion_lat": 0.0, "bike_id": "e6bb76e8239b7c9162a1411d67979b64", "type": "electric_scooter", "is_disabled": 0, "fusion_lon": 0.0}, {"rental_uris": {"android": "https://dc.lft.to/lastmile_qr_scan", "ios": "https://dc.lft.to/lastmile_qr_scan"}, "lon": -77.02192966666667, "name": "f0cdbaf05e4339fb51b1fee7e28b033e", "lat": 38.92831533333333, "is_reserved": 0, "fusion_lat": 0.0, "bike_id": "f0cdbaf05e4339fb51b1fee7e28b033e", "type": "electric_scooter", "is_disabled": 0, "fusion_lon": 0.0}, {"rental_uris": {"android": "https://dc.lft.to/lastmile_qr_scan", "ios": "https://dc.lft.to/lastmile_qr_scan"}, "lon": -77.00056583333334, "name": "c3255c6a5ddc9fcbc36185d1f3e98e3e", "lat": 38.8768865, "is_reserved": 0, "fusion_lat": 0.0, "bike_id": "c3255c6a5ddc9fcbc36185d1f3e98e3e", "type": "electric_scooter", "is_disabled": 0, "fusion_lon": 0.0}, {"rental_uris": {"android": "https://dc.lft.to/lastmile_qr_scan", "ios": "https://dc.lft.to/lastmile_qr_scan"}, "lon": -77.02270166666666, "name": "3c4c8d29ba75843c03e792c17913563e", "lat": 38.8947765, "is_reserved": 0, "fusion_lat": 0.0, "bike_id": "3c4c8d29ba75843c03e792c17913563e", "type": "electric_scooter", "is_disabled": 0, "fusion_lon": 0.0}, {"rental_uris": {"android": "https://dc.lft.to/lastmile_qr_scan", "ios": "https://dc.lft.to/lastmile_qr_scan"}, "lon": -77.07430983333333, "name": "ea427562c4b67f1398ede096dbfeb0ce", "lat": 38.936021333333336, "is_reserved": 0, "fusion_lat": 0.0, "bike_id": "ea427562c4b67f1398ede096dbfeb0ce", "type": "electric_scooter", "is_disabled": 0, "fusion_lon": 0.0}, {"rental_uris": {"android": "https://dc.lft.to/lastmile_qr_scan", "ios": "https://dc.lft.to/lastmile_qr_scan"}, "lon": -76.98509583333333, "name": "46e6054a035936e7f1e3cd160d948191", "lat": 38.906789833333335, "is_reserved": 0, "fusion_lat": 0.0, "bike_id": "46e6054a035936e7f1e3cd160d948191", "type": "electric_bike", "is_disabled": 0, "fusion_lon": 0.0}, {"rental_uris": {"android": "https://dc.lft.to/lastmile_qr_scan", "ios": "https://dc.lft.to/lastmile_qr_scan"}, "lon": -77.04005716666667, "name": "b95d0f5aca93c4548f4e50957130b6f0", "lat": 38.996324333333334, "is_reserved": 0, "fusion_lat": 0.0, "bike_id": "b95d0f5aca93c4548f4e50957130b6f0", "type": "electric_bike", "is_disabled": 0, "fusion_lon": 0.0}, {"rental_uris": {"android": "https://dc.lft.to/lastmile_qr_scan", "ios": "https://dc.lft.to/lastmile_qr_scan"}, "lon": -77.02647783333333, "name": "e42320c9c96091910f8720de91c9cd15", "lat": 38.938667, "is_reserved": 0, "fusion_lat": 0.0, "bike_id": "e42320c9c96091910f8720de91c9cd15", "type": "electric_scooter", "is_disabled": 0, "fusion_lon": 0.0}, {"rental_uris": {"android": "https://dc.lft.to/lastmile_qr_scan", "ios": "https://dc.lft.to/lastmile_qr_scan"}, "lon": -76.99843666666666, "name": "a81cefc135f3ccf0f2c7c34e21ccf042", "lat": 38.900354666666665, "is_reserved": 0, "fusion_lat": 0.0, "bike_id": "a81cefc135f3ccf0f2c7c34e21ccf042", "type": "electric_scooter", "is_disabled": 0, "fusion_lon": 0.0}, {"rental_uris": {"android": "https://dc.lft.to/lastmile_qr_scan", "ios": "https://dc.lft.to/lastmile_qr_scan"}, "lon": -77.03124983333333, "name": "8482366ba289edb511b03f006e340521", "lat": 38.915558, "is_reserved": 0, "fusion_lat": 0.0, "bike_id": "8482366ba289edb511b03f006e340521", "type": "electric_scooter", "is_disabled": 0, "fusion_lon": 0.0}, {"rental_uris": {"android": "https://dc.lft.to/lastmile_qr_scan", "ios": "https://dc.lft.to/lastmile_qr_scan"}, "lon": -77.03706066666666, "name": "2e2291bba9082e6f808005282725bd32", "lat": 38.9365125, "is_reserved": 0, "fusion_lat": 0.0, "bike_id": "2e2291bba9082e6f808005282725bd32", "type": "electric_scooter", "is_disabled": 0, "fusion_lon": 0.0}, {"rental_uris": {"android": "https://dc.lft.to/lastmile_qr_scan", "ios": "https://dc.lft.to/lastmile_qr_scan"}, "lon": -76.9796355, "name": "c9895baabd6213ced3e49ad78fc0016f", "lat": 38.892309, "is_reserved": 0, "fusion_lat": 0.0, "bike_id": "c9895baabd6213ced3e49ad78fc0016f", "type": "electric_scooter", "is_disabled": 0, "fusion_lon": 0.0}, {"rental_uris": {"android": "https://dc.lft.to/lastmile_qr_scan", "ios": "https://dc.lft.to/lastmile_qr_scan"}, "lon": -77.01195433333334, "name": "cc0f14da7d5d9758f03fd95c96db09ef", "lat": 38.915771666666664, "is_reserved": 0, "fusion_lat": 0.0, "bike_id": "cc0f14da7d5d9758f03fd95c96db09ef", "type": "electric_scooter", "is_disabled": 0, "fusion_lon": 0.0}, {"rental_uris": {"android": "https://dc.lft.to/lastmile_qr_scan", "ios": "https://dc.lft.to/lastmile_qr_scan"}, "lon": -77.030637, "name": "c5b50d331a8b7439117361e195613edb", "lat": 38.93091233333333, "is_reserved": 0, "fusion_lat": 0.0, "bike_id": "c5b50d331a8b7439117361e195613edb", "type": "electric_scooter", "is_disabled": 0, "fusion_lon": 0.0}, {"rental_uris": {"android": "https://dc.lft.to/lastmile_qr_scan", "ios": "https://dc.lft.to/lastmile_qr_scan"}, "lon": -77.035514, "name": "f5580d5b6b3628287846e755b894acab", "lat": 38.9249515, "is_reserved": 0, "fusion_lat": 0.0, "bike_id": "f5580d5b6b3628287846e755b894acab", "type": "electric_scooter", "is_disabled": 0, "fusion_lon": 0.0}, {"rental_uris": {"android": "https://dc.lft.to/lastmile_qr_scan", "ios": "https://dc.lft.to/lastmile_qr_scan"}, "lon": -77.02247216666666, "name": "f09e00d551c386c0e96765dc6f429cf1", "lat": 38.92468733333333, "is_reserved": 0, "fusion_lat": 0.0, "bike_id": "f09e00d551c386c0e96765dc6f429cf1", "type": "electric_scooter", "is_disabled": 0, "fusion_lon": 0.0}, {"rental_uris": {"android": "https://dc.lft.to/lastmile_qr_scan", "ios": "https://dc.lft.to/lastmile_qr_scan"}, "lon": -77.02756466666666, "name": "cd42df861b1811480d0803436652a883", "lat": 38.916931166666664, "is_reserved": 0, "fusion_lat": 0.0, "bike_id": "cd42df861b1811480d0803436652a883", "type": "electric_scooter", "is_disabled": 0, "fusion_lon": 0.0}, {"rental_uris": {"android": "https://dc.lft.to/lastmile_qr_scan", "ios": "https://dc.lft.to/lastmile_qr_scan"}, "lon": -77.032055, "name": "273b491dd6f2d6caca64f7c38b72461b", "lat": 38.901387, "is_reserved": 0, "fusion_lat": 0.0, "bike_id": "273b491dd6f2d6caca64f7c38b72461b", "type": "electric_scooter", "is_disabled": 0, "fusion_lon": 0.0}, {"rental_uris": {"android": "https://dc.lft.to/lastmile_qr_scan", "ios": "https://dc.lft.to/lastmile_qr_scan"}, "lon": -77.04538166666667, "name": "7796154e89c9b15e4d5ab9ca56618dbe", "lat": 38.91331366666667, "is_reserved": 0, "fusion_lat": 0.0, "bike_id": "7796154e89c9b15e4d5ab9ca56618dbe", "type": "electric_scooter", "is_disabled": 0, "fusion_lon": 0.0}, {"rental_uris": {"android": "https://dc.lft.to/lastmile_qr_scan", "ios": "https://dc.lft.to/lastmile_qr_scan"}, "lon": -77.02802666666666, "name": "505fe5668d334446e243ae615ebe1a74", "lat": 38.916463666666665, "is_reserved": 0, "fusion_lat": 0.0, "bike_id": "505fe5668d334446e243ae615ebe1a74", "type": "electric_scooter", "is_disabled": 0, "fusion_lon": 0.0}, {"rental_uris": {"android": "https://dc.lft.to/lastmile_qr_scan", "ios": "https://dc.lft.to/lastmile_qr_scan"}, "lon": -76.96554583333334, "name": "0c5d15eb60dcb965c42078f41f5710f6", "lat": 38.9184735, "is_reserved": 0, "fusion_lat": 0.0, "bike_id": "0c5d15eb60dcb965c42078f41f5710f6", "type": "electric_scooter", "is_disabled": 0, "fusion_lon": 0.0}, {"rental_uris": {"android": "https://dc.lft.to/lastmile_qr_scan", "ios": "https://dc.lft.to/lastmile_qr_scan"}, "lon": -77.00047183333334, "name": "1bea99fab171229b768963b41e321157", "lat": 38.894408166666665, "is_reserved": 0, "fusion_lat": 0.0, "bike_id": "1bea99fab171229b768963b41e321157", "type": "electric_scooter", "is_disabled": 0, "fusion_lon": 0.0}, {"rental_uris": {"android": "https://dc.lft.to/lastmile_qr_scan", "ios": "https://dc.lft.to/lastmile_qr_scan"}, "lon": -77.02493333333334, "name": "a4a1e5629e8db14ae4d190011dae1b03", "lat": 38.94185866666667, "is_reserved": 0, "fusion_lat": 0.0, "bike_id": "a4a1e5629e8db14ae4d190011dae1b03", "type": "electric_bike", "is_disabled": 0, "fusion_lon": 0.0}, {"rental_uris": {"android": "https://dc.lft.to/lastmile_qr_scan", "ios": "https://dc.lft.to/lastmile_qr_scan"}, "lon": -76.99376333333333, "name": "750987314e8af187e632dc25ee73d904", "lat": 38.99096933333333, "is_reserved": 0, "fusion_lat": 0.0, "bike_id": "750987314e8af187e632dc25ee73d904", "type": "electric_bike", "is_disabled": 0, "fusion_lon": 0.0}, {"rental_uris": {"android": "https://dc.lft.to/lastmile_qr_scan", "ios": "https://dc.lft.to/lastmile_qr_scan"}, "lon": -76.985633, "name": "fa7d7149b5db73ce65f6bf47e7f16ae7", "lat": 38.866826833333334, "is_reserved": 0, "fusion_lat": 0.0, "bike_id": "fa7d7149b5db73ce65f6bf47e7f16ae7", "type": "electric_scooter", "is_disabled": 0, "fusion_lon": 0.0}, {"rental_uris": {"android": "https://dc.lft.to/lastmile_qr_scan", "ios": "https://dc.lft.to/lastmile_qr_scan"}, "lon": -77.02483833333334, "name": "4748a2f7f27a2bfd349562ecd149f4e1", "lat": 38.938880166666664, "is_reserved": 0, "fusion_lat": 0.0, "bike_id": "4748a2f7f27a2bfd349562ecd149f4e1", "type": "electric_scooter", "is_disabled": 0, "fusion_lon": 0.0}, {"rental_uris": {"android": "https://dc.lft.to/lastmile_qr_scan", "ios": "https://dc.lft.to/lastmile_qr_scan"}, "lon": -76.98056716666666, "name": "ea9ecbd722a923c2ead5567944006578", "lat": 38.88531666666667, "is_reserved": 0, "fusion_lat": 0.0, "bike_id": "ea9ecbd722a923c2ead5567944006578", "type": "electric_scooter", "is_disabled": 0, "fusion_lon": 0.0}, {"rental_uris": {"android": "https://dc.lft.to/lastmile_qr_scan", "ios": "https://dc.lft.to/lastmile_qr_scan"}, "lon": -77.036459, "name": "76b0e0d4fb3f4ec0edfc2241d4200262", "lat": 38.93285266666667, "is_reserved": 0, "fusion_lat": 0.0, "bike_id": "76b0e0d4fb3f4ec0edfc2241d4200262", "type": "electric_bike", "is_disabled": 0, "fusion_lon": 0.0}, {"rental_uris": {"android": "https://dc.lft.to/lastmile_qr_scan", "ios": "https://dc.lft.to/lastmile_qr_scan"}, "lon": -77.01878116666667, "name": "31c6ab92c1330efa8f10308862ba0eff", "lat": 38.900736, "is_reserved": 0, "fusion_lat": 0.0, "bike_id": "31c6ab92c1330efa8f10308862ba0eff", "type": "electric_scooter", "is_disabled": 0, "fusion_lon": 0.0}, {"rental_uris": {"android": "https://dc.lft.to/lastmile_qr_scan", "ios": "https://dc.lft.to/lastmile_qr_scan"}, "lon": -77.0042365, "name": "4e797a8314259586c3b89e828d18d869", "lat": 38.87713733333333, "is_reserved": 0, "fusion_lat": 0.0, "bike_id": "4e797a8314259586c3b89e828d18d869", "type": "electric_scooter", "is_disabled": 0, "fusion_lon": 0.0}, {"rental_uris": {"android": "https://dc.lft.to/lastmile_qr_scan", "ios": "https://dc.lft.to/lastmile_qr_scan"}, "lon": -77.0220625, "name": "ab17623cd8009fc0c65ce944c00eaf78", "lat": 38.89232066666667, "is_reserved": 0, "fusion_lat": 0.0, "bike_id": "ab17623cd8009fc0c65ce944c00eaf78", "type": "electric_scooter", "is_disabled": 0, "fusion_lon": 0.0}, {"rental_uris": {"android": "https://dc.lft.to/lastmile_qr_scan", "ios": "https://dc.lft.to/lastmile_qr_scan"}, "lon": -77.0265965, "name": "81a4fe4ffc14f52d85eba3ba43f3c163", "lat": 38.931018333333334, "is_reserved": 0, "fusion_lat": 0.0, "bike_id": "81a4fe4ffc14f52d85eba3ba43f3c163", "type": "electric_scooter", "is_disabled": 0, "fusion_lon": 0.0}, {"rental_uris": {"android": "https://dc.lft.to/lastmile_qr_scan", "ios": "https://dc.lft.to/lastmile_qr_scan"}, "lon": -77.02783966666667, "name": "ef37064b6467f999f50f6393acbd66a5", "lat": 38.938624, "is_reserved": 0, "fusion_lat": 0.0, "bike_id": "ef37064b6467f999f50f6393acbd66a5", "type": "electric_scooter", "is_disabled": 0, "fusion_lon": 0.0}, {"rental_uris": {"android": "https://dc.lft.to/lastmile_qr_scan", "ios": "https://dc.lft.to/lastmile_qr_scan"}, "lon": -77.01452766666667, "name": "ba37fed5d4b6a0c9491b96b13249d7fc", "lat": 38.975120833333335, "is_reserved": 0, "fusion_lat": 0.0, "bike_id": "ba37fed5d4b6a0c9491b96b13249d7fc", "type": "electric_scooter", "is_disabled": 0, "fusion_lon": 0.0}, {"rental_uris": {"android": "https://dc.lft.to/lastmile_qr_scan", "ios": "https://dc.lft.to/lastmile_qr_scan"}, "lon": -76.98191516666667, "name": "a579f5f1e3fd071ac51a89b07830496f", "lat": 38.920617666666665, "is_reserved": 0, "fusion_lat": 0.0, "bike_id": "a579f5f1e3fd071ac51a89b07830496f", "type": "electric_scooter", "is_disabled": 0, "fusion_lon": 0.0}, {"rental_uris": {"android": "https://dc.lft.to/lastmile_qr_scan", "ios": "https://dc.lft.to/lastmile_qr_scan"}, "lon": -77.01713633333334, "name": "330db67991dc2d899d3270a93acbc24e", "lat": 38.900699, "is_reserved": 0, "fusion_lat": 0.0, "bike_id": "330db67991dc2d899d3270a93acbc24e", "type": "electric_scooter", "is_disabled": 0, "fusion_lon": 0.0}, {"rental_uris": {"android": "https://dc.lft.to/lastmile_qr_scan", "ios": "https://dc.lft.to/lastmile_qr_scan"}, "lon": -77.021973, "name": "65f9798368e68b318fba1b3ec2cb665e", "lat": 38.896259, "is_reserved": 0, "fusion_lat": 0.0, "bike_id": "65f9798368e68b318fba1b3ec2cb665e", "type": "electric_scooter", "is_disabled": 0, "fusion_lon": 0.0}, {"rental_uris": {"android": "https://dc.lft.to/lastmile_qr_scan", "ios": "https://dc.lft.to/lastmile_qr_scan"}, "lon": -76.98891816666666, "name": "be4b9c715966cc00c949af6a8fa07228", "lat": 38.86670083333333, "is_reserved": 0, "fusion_lat": 0.0, "bike_id": "be4b9c715966cc00c949af6a8fa07228", "type": "electric_scooter", "is_disabled": 0, "fusion_lon": 0.0}, {"rental_uris": {"android": "https://dc.lft.to/lastmile_qr_scan", "ios": "https://dc.lft.to/lastmile_qr_scan"}, "lon": -77.01110966666667, "name": "f096a13bd7013aac8eb31d9a09e64850", "lat": 38.9078265, "is_reserved": 0, "fusion_lat": 0.0, "bike_id": "f096a13bd7013aac8eb31d9a09e64850", "type": "electric_scooter", "is_disabled": 0, "fusion_lon": 0.0}, {"rental_uris": {"android": "https://dc.lft.to/lastmile_qr_scan", "ios": "https://dc.lft.to/lastmile_qr_scan"}, "lon": -77.02122516666667, "name": "169836622c08750ff65da3f6a7e6b08c", "lat": 38.887491833333335, "is_reserved": 0, "fusion_lat": 0.0, "bike_id": "169836622c08750ff65da3f6a7e6b08c", "type": "electric_scooter", "is_disabled": 0, "fusion_lon": 0.0}, {"rental_uris": {"android": "https://dc.lft.to/lastmile_qr_scan", "ios": "https://dc.lft.to/lastmile_qr_scan"}, "lon": -77.00389716666666, "name": "be83e43b3d70a602446242f707d8ff87", "lat": 38.90569716666667, "is_reserved": 0, "fusion_lat": 0.0, "bike_id": "be83e43b3d70a602446242f707d8ff87", "type": "electric_scooter", "is_disabled": 0, "fusion_lon": 0.0}, {"rental_uris": {"android": "https://dc.lft.to/lastmile_qr_scan", "ios": "https://dc.lft.to/lastmile_qr_scan"}, "lon": -76.95419, "name": "924c2663739bd207f2283e43db9b9e89", "lat": 38.88412366666667, "is_reserved": 0, "fusion_lat": 0.0, "bike_id": "924c2663739bd207f2283e43db9b9e89", "type": "electric_bike", "is_disabled": 0, "fusion_lon": 0.0}, {"rental_uris": {"android": "https://dc.lft.to/lastmile_qr_scan", "ios": "https://dc.lft.to/lastmile_qr_scan"}, "lon": -77.03450316666667, "name": "8b12a0f1b9f01ef7a0281bda60dd8e15", "lat": 38.92082816666667, "is_reserved": 0, "fusion_lat": 0.0, "bike_id": "8b12a0f1b9f01ef7a0281bda60dd8e15", "type": "electric_scooter", "is_disabled": 0, "fusion_lon": 0.0}, {"rental_uris": {"android": "https://dc.lft.to/lastmile_qr_scan", "ios": "https://dc.lft.to/lastmile_qr_scan"}, "lon": -77.04633316666667, "name": "5e654a367b96f3258f4a4e583fba9fda", "lat": 38.914508166666664, "is_reserved": 0, "fusion_lat": 0.0, "bike_id": "5e654a367b96f3258f4a4e583fba9fda", "type": "electric_scooter", "is_disabled": 0, "fusion_lon": 0.0}, {"rental_uris": {"android": "https://dc.lft.to/lastmile_qr_scan", "ios": "https://dc.lft.to/lastmile_qr_scan"}, "lon": -77.013412, "name": "16276c066183f7e0ed55a1559821eef1", "lat": 38.926441, "is_reserved": 0, "fusion_lat": 0.0, "bike_id": "16276c066183f7e0ed55a1559821eef1", "type": "electric_scooter", "is_disabled": 0, "fusion_lon": 0.0}, {"rental_uris": {"android": "https://dc.lft.to/lastmile_qr_scan", "ios": "https://dc.lft.to/lastmile_qr_scan"}, "lon": -77.07072666666667, "name": "13ceb0fa4e7f867486089b6c6224a747", "lat": 38.91465816666667, "is_reserved": 0, "fusion_lat": 0.0, "bike_id": "13ceb0fa4e7f867486089b6c6224a747", "type": "electric_scooter", "is_disabled": 0, "fusion_lon": 0.0}, {"rental_uris": {"android": "https://dc.lft.to/lastmile_qr_scan", "ios": "https://dc.lft.to/lastmile_qr_scan"}, "lon": -77.02099383333334, "name": "cffd6658c430725197752ba519bffb60", "lat": 38.88496516666667, "is_reserved": 0, "fusion_lat": 0.0, "bike_id": "cffd6658c430725197752ba519bffb60", "type": "electric_scooter", "is_disabled": 0, "fusion_lon": 0.0}, {"rental_uris": {"android": "https://dc.lft.to/lastmile_qr_scan", "ios": "https://dc.lft.to/lastmile_qr_scan"}, "lon": -77.02282733333334, "name": "61501ff0f3b3d9a8ea00572cf72f7247", "lat": 38.91261433333333, "is_reserved": 0, "fusion_lat": 0.0, "bike_id": "61501ff0f3b3d9a8ea00572cf72f7247", "type": "electric_scooter", "is_disabled": 0, "fusion_lon": 0.0}, {"rental_uris": {"android": "https://dc.lft.to/lastmile_qr_scan", "ios": "https://dc.lft.to/lastmile_qr_scan"}, "lon": -77.04994283333333, "name": "9a87a6f6d1ce4c106dd531685b3af1bd", "lat": 38.89914, "is_reserved": 0, "fusion_lat": 0.0, "bike_id": "9a87a6f6d1ce4c106dd531685b3af1bd", "type": "electric_scooter", "is_disabled": 0, "fusion_lon": 0.0}, {"rental_uris": {"android": "https://dc.lft.to/lastmile_qr_scan", "ios": "https://dc.lft.to/lastmile_qr_scan"}, "lon": -77.03699483333334, "name": "e217cae094f3d3924ff1f910b2276cc2", "lat": 38.9364465, "is_reserved": 0, "fusion_lat": 0.0, "bike_id": "e217cae094f3d3924ff1f910b2276cc2", "type": "electric_bike", "is_disabled": 0, "fusion_lon": 0.0}, {"rental_uris": {"android": "https://dc.lft.to/lastmile_qr_scan", "ios": "https://dc.lft.to/lastmile_qr_scan"}, "lon": -77.03372216666666, "name": "34069915ed22579c97fca80a260cc293", "lat": 38.903809, "is_reserved": 0, "fusion_lat": 0.0, "bike_id": "34069915ed22579c97fca80a260cc293", "type": "electric_scooter", "is_disabled": 0, "fusion_lon": 0.0}, {"rental_uris": {"android": "https://dc.lft.to/lastmile_qr_scan", "ios": "https://dc.lft.to/lastmile_qr_scan"}, "lon": -77.0306085, "name": "f825cd4fb2d378c0e7838be0aa50b169", "lat": 38.92254966666667, "is_reserved": 0, "fusion_lat": 0.0, "bike_id": "f825cd4fb2d378c0e7838be0aa50b169", "type": "electric_scooter", "is_disabled": 0, "fusion_lon": 0.0}, {"rental_uris": {"android": "https://dc.lft.to/lastmile_qr_scan", "ios": "https://dc.lft.to/lastmile_qr_scan"}, "lon": -77.02389416666666, "name": "b7de3cfd8d456d95ee1cd493d7b42ab5", "lat": 38.926612666666664, "is_reserved": 0, "fusion_lat": 0.0, "bike_id": "b7de3cfd8d456d95ee1cd493d7b42ab5", "type": "electric_scooter", "is_disabled": 0, "fusion_lon": 0.0}, {"rental_uris": {"android": "https://dc.lft.to/lastmile_qr_scan", "ios": "https://dc.lft.to/lastmile_qr_scan"}, "lon": -77.0130435, "name": "0c72384fe2085ea7a406dc2c4fa63bfb", "lat": 38.90185783333333, "is_reserved": 0, "fusion_lat": 0.0, "bike_id": "0c72384fe2085ea7a406dc2c4fa63bfb", "type": "electric_scooter", "is_disabled": 0, "fusion_lon": 0.0}, {"rental_uris": {"android": "https://dc.lft.to/lastmile_qr_scan", "ios": "https://dc.lft.to/lastmile_qr_scan"}, "lon": -77.02293916666666, "name": "1998b50a37ef572e669d44030d55e4ab", "lat": 38.91439883333334, "is_reserved": 0, "fusion_lat": 0.0, "bike_id": "1998b50a37ef572e669d44030d55e4ab", "type": "electric_scooter", "is_disabled": 0, "fusion_lon": 0.0}, {"rental_uris": {"android": "https://dc.lft.to/lastmile_qr_scan", "ios": "https://dc.lft.to/lastmile_qr_scan"}, "lon": -77.04603883333333, "name": "2946d4f15a76702053322f115cdabd64", "lat": 38.91463383333333, "is_reserved": 0, "fusion_lat": 0.0, "bike_id": "2946d4f15a76702053322f115cdabd64", "type": "electric_bike", "is_disabled": 0, "fusion_lon": 0.0}, {"rental_uris": {"android": "https://dc.lft.to/lastmile_qr_scan", "ios": "https://dc.lft.to/lastmile_qr_scan"}, "lon": -77.0423465, "name": "1df26279fd472a917857e16ab0d2591a", "lat": 38.90274616666667, "is_reserved": 0, "fusion_lat": 0.0, "bike_id": "1df26279fd472a917857e16ab0d2591a", "type": "electric_scooter", "is_disabled": 0, "fusion_lon": 0.0}, {"rental_uris": {"android": "https://dc.lft.to/lastmile_qr_scan", "ios": "https://dc.lft.to/lastmile_qr_scan"}, "lon": -77.0386915, "name": "8e800e4c503f362ec86eaae39ebfacd2", "lat": 38.99056516666667, "is_reserved": 0, "fusion_lat": 0.0, "bike_id": "8e800e4c503f362ec86eaae39ebfacd2", "type": "electric_bike", "is_disabled": 0, "fusion_lon": 0.0}, {"rental_uris": {"android": "https://dc.lft.to/lastmile_qr_scan", "ios": "https://dc.lft.to/lastmile_qr_scan"}, "lon": -77.04195883333334, "name": "82eceea3f28d6d6cd85d6366e9b534ef", "lat": 38.89222383333333, "is_reserved": 0, "fusion_lat": 0.0, "bike_id": "82eceea3f28d6d6cd85d6366e9b534ef", "type": "electric_scooter", "is_disabled": 0, "fusion_lon": 0.0}, {"rental_uris": {"android": "https://dc.lft.to/lastmile_qr_scan", "ios": "https://dc.lft.to/lastmile_qr_scan"}, "lon": -76.965608, "name": "f43f3b106b3ce9a540e212e0f40dfef2", "lat": 38.918431, "is_reserved": 0, "fusion_lat": 0.0, "bike_id": "f43f3b106b3ce9a540e212e0f40dfef2", "type": "electric_scooter", "is_disabled": 0, "fusion_lon": 0.0}, {"rental_uris": {"android": "https://dc.lft.to/lastmile_qr_scan", "ios": "https://dc.lft.to/lastmile_qr_scan"}, "lon": -76.98728033333333, "name": "18d5294e811dd7b50c876e8a7e4d7659", "lat": 38.835493, "is_reserved": 0, "fusion_lat": 0.0, "bike_id": "18d5294e811dd7b50c876e8a7e4d7659", "type": "electric_bike", "is_disabled": 0, "fusion_lon": 0.0}, {"rental_uris": {"android": "https://dc.lft.to/lastmile_qr_scan", "ios": "https://dc.lft.to/lastmile_qr_scan"}, "lon": -77.01233683333334, "name": "147819080edfa1ab7e645664898a40c4", "lat": 38.91684733333334, "is_reserved": 0, "fusion_lat": 0.0, "bike_id": "147819080edfa1ab7e645664898a40c4", "type": "electric_scooter", "is_disabled": 0, "fusion_lon": 0.0}, {"rental_uris": {"android": "https://dc.lft.to/lastmile_qr_scan", "ios": "https://dc.lft.to/lastmile_qr_scan"}, "lon": -77.027013, "name": "2cd9127a3c2f98f1719c0ee6ced6bfab", "lat": 38.9498175, "is_reserved": 0, "fusion_lat": 0.0, "bike_id": "2cd9127a3c2f98f1719c0ee6ced6bfab", "type": "electric_scooter", "is_disabled": 0, "fusion_lon": 0.0}, {"rental_uris": {"android": "https://dc.lft.to/lastmile_qr_scan", "ios": "https://dc.lft.to/lastmile_qr_scan"}, "lon": -76.9955, "name": "6a1ce9a9ec6d7870a18db57c23f52ee0", "lat": 38.843426666666666, "is_reserved": 0, "fusion_lat": 0.0, "bike_id": "6a1ce9a9ec6d7870a18db57c23f52ee0", "type": "electric_scooter", "is_disabled": 0, "fusion_lon": 0.0}, {"rental_uris": {"android": "https://dc.lft.to/lastmile_qr_scan", "ios": "https://dc.lft.to/lastmile_qr_scan"}, "lon": -77.00209416666667, "name": "236f5fa7d739cf75f48b6e24ff556b92", "lat": 38.90788216666667, "is_reserved": 0, "fusion_lat": 0.0, "bike_id": "236f5fa7d739cf75f48b6e24ff556b92", "type": "electric_scooter", "is_disabled": 0, "fusion_lon": 0.0}, {"rental_uris": {"android": "https://dc.lft.to/lastmile_qr_scan", "ios": "https://dc.lft.to/lastmile_qr_scan"}, "lon": -77.01777133333333, "name": "f78bc3271e29ce926f79b5b1f4d2d4be", "lat": 38.88715583333333, "is_reserved": 0, "fusion_lat": 0.0, "bike_id": "f78bc3271e29ce926f79b5b1f4d2d4be", "type": "electric_scooter", "is_disabled": 0, "fusion_lon": 0.0}, {"rental_uris": {"android": "https://dc.lft.to/lastmile_qr_scan", "ios": "https://dc.lft.to/lastmile_qr_scan"}, "lon": -77.02382533333333, "name": "4821beaea96d727977fb3653a50cca6c", "lat": 38.89228933333333, "is_reserved": 0, "fusion_lat": 0.0, "bike_id": "4821beaea96d727977fb3653a50cca6c", "type": "electric_scooter", "is_disabled": 0, "fusion_lon": 0.0}, {"rental_uris": {"android": "https://dc.lft.to/lastmile_qr_scan", "ios": "https://dc.lft.to/lastmile_qr_scan"}, "lon": -77.039076, "name": "8f1ae50812db34e62cfd28b11b0941a0", "lat": 38.91408583333333, "is_reserved": 0, "fusion_lat": 0.0, "bike_id": "8f1ae50812db34e62cfd28b11b0941a0", "type": "electric_scooter", "is_disabled": 0, "fusion_lon": 0.0}, {"rental_uris": {"android": "https://dc.lft.to/lastmile_qr_scan", "ios": "https://dc.lft.to/lastmile_qr_scan"}, "lon": -77.01364983333333, "name": "6b63e9f17f63da8cd50e48f058f46ce2", "lat": 38.91916466666667, "is_reserved": 0, "fusion_lat": 0.0, "bike_id": "6b63e9f17f63da8cd50e48f058f46ce2", "type": "electric_scooter", "is_disabled": 0, "fusion_lon": 0.0}, {"rental_uris": {"android": "https://dc.lft.to/lastmile_qr_scan", "ios": "https://dc.lft.to/lastmile_qr_scan"}, "lon": -77.00592333333333, "name": "29a68f1a8010101d4b5765a2d044a89a", "lat": 38.884841, "is_reserved": 0, "fusion_lat": 0.0, "bike_id": "29a68f1a8010101d4b5765a2d044a89a", "type": "electric_scooter", "is_disabled": 0, "fusion_lon": 0.0}, {"rental_uris": {"android": "https://dc.lft.to/lastmile_qr_scan", "ios": "https://dc.lft.to/lastmile_qr_scan"}, "lon": -77.02124566666667, "name": "9ddbc7fe869d5acd01bfb759b8dc29fb", "lat": 38.931143666666664, "is_reserved": 0, "fusion_lat": 0.0, "bike_id": "9ddbc7fe869d5acd01bfb759b8dc29fb", "type": "electric_scooter", "is_disabled": 0, "fusion_lon": 0.0}, {"rental_uris": {"android": "https://dc.lft.to/lastmile_qr_scan", "ios": "https://dc.lft.to/lastmile_qr_scan"}, "lon": -77.02447066666667, "name": "3a3db10aa72a965dfd3bd9973d384c12", "lat": 38.920430833333334, "is_reserved": 0, "fusion_lat": 0.0, "bike_id": "3a3db10aa72a965dfd3bd9973d384c12", "type": "electric_scooter", "is_disabled": 0, "fusion_lon": 0.0}, {"rental_uris": {"android": "https://dc.lft.to/lastmile_qr_scan", "ios": "https://dc.lft.to/lastmile_qr_scan"}, "lon": -76.98481133333334, "name": "dd34a442fb21878d4797c9e4b6618141", "lat": 38.913182666666664, "is_reserved": 0, "fusion_lat": 0.0, "bike_id": "dd34a442fb21878d4797c9e4b6618141", "type": "electric_scooter", "is_disabled": 0, "fusion_lon": 0.0}, {"rental_uris": {"android": "https://dc.lft.to/lastmile_qr_scan", "ios": "https://dc.lft.to/lastmile_qr_scan"}, "lon": -76.96559616666667, "name": "24cd6c3d52a55daca90ab119e73284b8", "lat": 38.91855316666667, "is_reserved": 0, "fusion_lat": 0.0, "bike_id": "24cd6c3d52a55daca90ab119e73284b8", "type": "electric_scooter", "is_disabled": 0, "fusion_lon": 0.0}, {"rental_uris": {"android": "https://dc.lft.to/lastmile_qr_scan", "ios": "https://dc.lft.to/lastmile_qr_scan"}, "lon": -77.053401, "name": "dc00d266778cd1e34957f54768dfa0f6", "lat": 38.90241483333333, "is_reserved": 0, "fusion_lat": 0.0, "bike_id": "dc00d266778cd1e34957f54768dfa0f6", "type": "electric_scooter", "is_disabled": 0, "fusion_lon": 0.0}, {"rental_uris": {"android": "https://dc.lft.to/lastmile_qr_scan", "ios": "https://dc.lft.to/lastmile_qr_scan"}, "lon": -76.99942983333334, "name": "7525e4083d84897fe2a1ed530e1ce16c", "lat": 38.90127233333333, "is_reserved": 0, "fusion_lat": 0.0, "bike_id": "7525e4083d84897fe2a1ed530e1ce16c", "type": "electric_scooter", "is_disabled": 0, "fusion_lon": 0.0}, {"rental_uris": {"android": "https://dc.lft.to/lastmile_qr_scan", "ios": "https://dc.lft.to/lastmile_qr_scan"}, "lon": -77.02653416666666, "name": "dfffee89d86f0fde2e30361090fcffac", "lat": 38.984398, "is_reserved": 0, "fusion_lat": 0.0, "bike_id": "dfffee89d86f0fde2e30361090fcffac", "type": "electric_scooter", "is_disabled": 0, "fusion_lon": 0.0}, {"rental_uris": {"android": "https://dc.lft.to/lastmile_qr_scan", "ios": "https://dc.lft.to/lastmile_qr_scan"}, "lon": -76.9971125, "name": "daaec6a02068509c7044d8f77623830a", "lat": 38.932316166666666, "is_reserved": 0, "fusion_lat": 0.0, "bike_id": "daaec6a02068509c7044d8f77623830a", "type": "electric_scooter", "is_disabled": 0, "fusion_lon": 0.0}, {"rental_uris": {"android": "https://dc.lft.to/lastmile_qr_scan", "ios": "https://dc.lft.to/lastmile_qr_scan"}, "lon": -76.98700016666666, "name": "8fa7e25e7a151b65a738862ed22d617b", "lat": 38.919106166666666, "is_reserved": 0, "fusion_lat": 0.0, "bike_id": "8fa7e25e7a151b65a738862ed22d617b", "type": "electric_scooter", "is_disabled": 0, "fusion_lon": 0.0}, {"rental_uris": {"android": "https://dc.lft.to/lastmile_qr_scan", "ios": "https://dc.lft.to/lastmile_qr_scan"}, "lon": -76.973319, "name": "d6d5bf06f983d71ca432c3dfaec045db", "lat": 38.90408766666667, "is_reserved": 0, "fusion_lat": 0.0, "bike_id": "d6d5bf06f983d71ca432c3dfaec045db", "type": "electric_scooter", "is_disabled": 0, "fusion_lon": 0.0}, {"rental_uris": {"android": "https://dc.lft.to/lastmile_qr_scan", "ios": "https://dc.lft.to/lastmile_qr_scan"}, "lon": -76.98822716666666, "name": "8cb37b1b6f325b2587dc20c3a92cf2e2", "lat": 38.900386, "is_reserved": 0, "fusion_lat": 0.0, "bike_id": "8cb37b1b6f325b2587dc20c3a92cf2e2", "type": "electric_scooter", "is_disabled": 0, "fusion_lon": 0.0}, {"rental_uris": {"android": "https://dc.lft.to/lastmile_qr_scan", "ios": "https://dc.lft.to/lastmile_qr_scan"}, "lon": -77.0270705, "name": "9e77d7af29646c3cf9d3e87eb5714a22", "lat": 38.92885533333333, "is_reserved": 0, "fusion_lat": 0.0, "bike_id": "9e77d7af29646c3cf9d3e87eb5714a22", "type": "electric_scooter", "is_disabled": 0, "fusion_lon": 0.0}, {"rental_uris": {"android": "https://dc.lft.to/lastmile_qr_scan", "ios": "https://dc.lft.to/lastmile_qr_scan"}, "lon": -76.97436833333333, "name": "6f6cd7255a0cfdcebca29bc5eaa83754", "lat": 38.8642335, "is_reserved": 0, "fusion_lat": 0.0, "bike_id": "6f6cd7255a0cfdcebca29bc5eaa83754", "type": "electric_scooter", "is_disabled": 0, "fusion_lon": 0.0}, {"rental_uris": {"android": "https://dc.lft.to/lastmile_qr_scan", "ios": "https://dc.lft.to/lastmile_qr_scan"}, "lon": -77.02149733333333, "name": "97abb3b218e9a528ba0e5904c2cb8229", "lat": 38.924692666666665, "is_reserved": 0, "fusion_lat": 0.0, "bike_id": "97abb3b218e9a528ba0e5904c2cb8229", "type": "electric_scooter", "is_disabled": 0, "fusion_lon": 0.0}, {"rental_uris": {"android": "https://dc.lft.to/lastmile_qr_scan", "ios": "https://dc.lft.to/lastmile_qr_scan"}, "lon": -77.02913416666667, "name": "6fd059aca8f6ac9a4237bf5460aaa226", "lat": 38.898340833333336, "is_reserved": 0, "fusion_lat": 0.0, "bike_id": "6fd059aca8f6ac9a4237bf5460aaa226", "type": "electric_scooter", "is_disabled": 0, "fusion_lon": 0.0}, {"rental_uris": {"android": "https://dc.lft.to/lastmile_qr_scan", "ios": "https://dc.lft.to/lastmile_qr_scan"}, "lon": -77.03933566666667, "name": "f58e0587b9d198c8da31c5dfd1f868b2", "lat": 38.912575833333335, "is_reserved": 0, "fusion_lat": 0.0, "bike_id": "f58e0587b9d198c8da31c5dfd1f868b2", "type": "electric_scooter", "is_disabled": 0, "fusion_lon": 0.0}, {"rental_uris": {"android": "https://dc.lft.to/lastmile_qr_scan", "ios": "https://dc.lft.to/lastmile_qr_scan"}, "lon": -76.9495945, "name": "b74ca1a6bbeecf5a55300bdd17048569", "lat": 38.89464233333333, "is_reserved": 0, "fusion_lat": 0.0, "bike_id": "b74ca1a6bbeecf5a55300bdd17048569", "type": "electric_scooter", "is_disabled": 0, "fusion_lon": 0.0}, {"rental_uris": {"android": "https://dc.lft.to/lastmile_qr_scan", "ios": "https://dc.lft.to/lastmile_qr_scan"}, "lon": -77.03659533333334, "name": "c08223a7f4f769d477d2c53d53297b9c", "lat": 38.93167033333334, "is_reserved": 0, "fusion_lat": 0.0, "bike_id": "c08223a7f4f769d477d2c53d53297b9c", "type": "electric_scooter", "is_disabled": 0, "fusion_lon": 0.0}, {"rental_uris": {"android": "https://dc.lft.to/lastmile_qr_scan", "ios": "https://dc.lft.to/lastmile_qr_scan"}, "lon": -76.9982, "name": "2d3cd721863669ed0111039f91da13f5", "lat": 38.819969, "is_reserved": 0, "fusion_lat": 0.0, "bike_id": "2d3cd721863669ed0111039f91da13f5", "type": "electric_bike", "is_disabled": 0, "fusion_lon": 0.0}, {"rental_uris": {"android": "https://dc.lft.to/lastmile_qr_scan", "ios": "https://dc.lft.to/lastmile_qr_scan"}, "lon": -77.037888, "name": "5fc96e6fcaff4379817a7e3a340195d6", "lat": 38.92512416666667, "is_reserved": 0, "fusion_lat": 0.0, "bike_id": "5fc96e6fcaff4379817a7e3a340195d6", "type": "electric_scooter", "is_disabled": 0, "fusion_lon": 0.0}, {"rental_uris": {"android": "https://dc.lft.to/lastmile_qr_scan", "ios": "https://dc.lft.to/lastmile_qr_scan"}, "lon": -76.9871975, "name": "54860a2899a74781ca20148754a0329b", "lat": 38.866250666666666, "is_reserved": 0, "fusion_lat": 0.0, "bike_id": "54860a2899a74781ca20148754a0329b", "type": "electric_scooter", "is_disabled": 0, "fusion_lon": 0.0}, {"rental_uris": {"android": "https://dc.lft.to/lastmile_qr_scan", "ios": "https://dc.lft.to/lastmile_qr_scan"}, "lon": -76.9999835, "name": "d95937ca127e3a1bc14b42ff4ab27dd6", "lat": 38.833276, "is_reserved": 0, "fusion_lat": 0.0, "bike_id": "d95937ca127e3a1bc14b42ff4ab27dd6", "type": "electric_bike", "is_disabled": 0, "fusion_lon": 0.0}, {"rental_uris": {"android": "https://dc.lft.to/lastmile_qr_scan", "ios": "https://dc.lft.to/lastmile_qr_scan"}, "lon": -77.00212083333334, "name": "b6c3c0c15f7de40b476c166d08599c09", "lat": 38.902427, "is_reserved": 0, "fusion_lat": 0.0, "bike_id": "b6c3c0c15f7de40b476c166d08599c09", "type": "electric_scooter", "is_disabled": 0, "fusion_lon": 0.0}, {"rental_uris": {"android": "https://dc.lft.to/lastmile_qr_scan", "ios": "https://dc.lft.to/lastmile_qr_scan"}, "lon": -77.02035683333334, "name": "4ff61c3ae33b3f9859182bf4494bdbd4", "lat": 38.913044666666664, "is_reserved": 0, "fusion_lat": 0.0, "bike_id": "4ff61c3ae33b3f9859182bf4494bdbd4", "type": "electric_scooter", "is_disabled": 0, "fusion_lon": 0.0}, {"rental_uris": {"android": "https://dc.lft.to/lastmile_qr_scan", "ios": "https://dc.lft.to/lastmile_qr_scan"}, "lon": -77.0400385, "name": "b1a02da5c5f79b405ed12ec168c6362e", "lat": 38.9343505, "is_reserved": 0, "fusion_lat": 0.0, "bike_id": "b1a02da5c5f79b405ed12ec168c6362e", "type": "electric_scooter", "is_disabled": 0, "fusion_lon": 0.0}, {"rental_uris": {"android": "https://dc.lft.to/lastmile_qr_scan", "ios": "https://dc.lft.to/lastmile_qr_scan"}, "lon": -77.18435066666666, "name": "073677aae578e6634259c559f6407822", "lat": 38.89067433333334, "is_reserved": 0, "fusion_lat": 0.0, "bike_id": "073677aae578e6634259c559f6407822", "type": "electric_bike", "is_disabled": 0, "fusion_lon": 0.0}, {"rental_uris": {"android": "https://dc.lft.to/lastmile_qr_scan", "ios": "https://dc.lft.to/lastmile_qr_scan"}, "lon": -77.00892966666666, "name": "d8c397de4d5c26baae0c099ecb755d5a", "lat": 38.88504183333333, "is_reserved": 0, "fusion_lat": 0.0, "bike_id": "d8c397de4d5c26baae0c099ecb755d5a", "type": "electric_scooter", "is_disabled": 0, "fusion_lon": 0.0}, {"rental_uris": {"android": "https://dc.lft.to/lastmile_qr_scan", "ios": "https://dc.lft.to/lastmile_qr_scan"}, "lon": -77.02466133333333, "name": "11236ab01333d772792f3cd84051d8b7", "lat": 38.9085215, "is_reserved": 0, "fusion_lat": 0.0, "bike_id": "11236ab01333d772792f3cd84051d8b7", "type": "electric_scooter", "is_disabled": 0, "fusion_lon": 0.0}, {"rental_uris": {"android": "https://dc.lft.to/lastmile_qr_scan", "ios": "https://dc.lft.to/lastmile_qr_scan"}, "lon": -77.00794683333334, "name": "ba3c6c2219badd6c97df25f777246376", "lat": 38.91268866666667, "is_reserved": 0, "fusion_lat": 0.0, "bike_id": "ba3c6c2219badd6c97df25f777246376", "type": "electric_scooter", "is_disabled": 0, "fusion_lon": 0.0}, {"rental_uris": {"android": "https://dc.lft.to/lastmile_qr_scan", "ios": "https://dc.lft.to/lastmile_qr_scan"}, "lon": -76.92578633333333, "name": "b26fd0b10fb17d75248106ed17f231c6", "lat": 38.893593333333335, "is_reserved": 0, "fusion_lat": 0.0, "bike_id": "b26fd0b10fb17d75248106ed17f231c6", "type": "electric_scooter", "is_disabled": 0, "fusion_lon": 0.0}, {"rental_uris": {"android": "https://dc.lft.to/lastmile_qr_scan", "ios": "https://dc.lft.to/lastmile_qr_scan"}, "lon": -77.02832283333333, "name": "3622d2ffe64f9b5fc07c5148a2dabcf6", "lat": 38.906271333333336, "is_reserved": 0, "fusion_lat": 0.0, "bike_id": "3622d2ffe64f9b5fc07c5148a2dabcf6", "type": "electric_scooter", "is_disabled": 0, "fusion_lon": 0.0}, {"rental_uris": {"android": "https://dc.lft.to/lastmile_qr_scan", "ios": "https://dc.lft.to/lastmile_qr_scan"}, "lon": -77.02795716666667, "name": "278846349d5b9484ae76996a55bcdf80", "lat": 38.96050833333334, "is_reserved": 0, "fusion_lat": 0.0, "bike_id": "278846349d5b9484ae76996a55bcdf80", "type": "electric_scooter", "is_disabled": 0, "fusion_lon": 0.0}, {"rental_uris": {"android": "https://dc.lft.to/lastmile_qr_scan", "ios": "https://dc.lft.to/lastmile_qr_scan"}, "lon": -77.00185166666667, "name": "32e6cc4816fc60a87974800e1d62a6eb", "lat": 38.9069225, "is_reserved": 0, "fusion_lat": 0.0, "bike_id": "32e6cc4816fc60a87974800e1d62a6eb", "type": "electric_scooter", "is_disabled": 0, "fusion_lon": 0.0}, {"rental_uris": {"android": "https://dc.lft.to/lastmile_qr_scan", "ios": "https://dc.lft.to/lastmile_qr_scan"}, "lon": -77.12939116666666, "name": "42a746060c7a0849bebd72bf155d916e", "lat": 38.8651715, "is_reserved": 0, "fusion_lat": 0.0, "bike_id": "42a746060c7a0849bebd72bf155d916e", "type": "electric_bike", "is_disabled": 0, "fusion_lon": 0.0}, {"rental_uris": {"android": "https://dc.lft.to/lastmile_qr_scan", "ios": "https://dc.lft.to/lastmile_qr_scan"}, "lon": -77.0370925, "name": "40c5e35994d1d554e9ce3446178fb4af", "lat": 38.92639533333333, "is_reserved": 0, "fusion_lat": 0.0, "bike_id": "40c5e35994d1d554e9ce3446178fb4af", "type": "electric_scooter", "is_disabled": 0, "fusion_lon": 0.0}, {"rental_uris": {"android": "https://dc.lft.to/lastmile_qr_scan", "ios": "https://dc.lft.to/lastmile_qr_scan"}, "lon": -77.0306875, "name": "016866f307b4bbede7a65b67ef45aedf", "lat": 38.92487083333333, "is_reserved": 0, "fusion_lat": 0.0, "bike_id": "016866f307b4bbede7a65b67ef45aedf", "type": "electric_scooter", "is_disabled": 0, "fusion_lon": 0.0}, {"rental_uris": {"android": "https://dc.lft.to/lastmile_qr_scan", "ios": "https://dc.lft.to/lastmile_qr_scan"}, "lon": -77.06344516666667, "name": "1e0201c2ded4f2de66bea3ec32ece0a6", "lat": 38.944574333333335, "is_reserved": 0, "fusion_lat": 0.0, "bike_id": "1e0201c2ded4f2de66bea3ec32ece0a6", "type": "electric_scooter", "is_disabled": 0, "fusion_lon": 0.0}, {"rental_uris": {"android": "https://dc.lft.to/lastmile_qr_scan", "ios": "https://dc.lft.to/lastmile_qr_scan"}, "lon": -77.03157066666667, "name": "d4ea911ca26ee057651850a54b49f80b", "lat": 38.89542, "is_reserved": 0, "fusion_lat": 0.0, "bike_id": "d4ea911ca26ee057651850a54b49f80b", "type": "electric_scooter", "is_disabled": 0, "fusion_lon": 0.0}, {"rental_uris": {"android": "https://dc.lft.to/lastmile_qr_scan", "ios": "https://dc.lft.to/lastmile_qr_scan"}, "lon": -77.0483845, "name": "51422a0df792acf6e703d91e2061bf62", "lat": 38.9126755, "is_reserved": 0, "fusion_lat": 0.0, "bike_id": "51422a0df792acf6e703d91e2061bf62", "type": "electric_scooter", "is_disabled": 0, "fusion_lon": 0.0}, {"rental_uris": {"android": "https://dc.lft.to/lastmile_qr_scan", "ios": "https://dc.lft.to/lastmile_qr_scan"}, "lon": -77.04833633333334, "name": "5c7098c3c5d04eca3f544e12a339831b", "lat": 38.91492866666667, "is_reserved": 0, "fusion_lat": 0.0, "bike_id": "5c7098c3c5d04eca3f544e12a339831b", "type": "electric_scooter", "is_disabled": 0, "fusion_lon": 0.0}, {"rental_uris": {"android": "https://dc.lft.to/lastmile_qr_scan", "ios": "https://dc.lft.to/lastmile_qr_scan"}, "lon": -77.03699166666667, "name": "c48f1f7f6cd044fbf63b3c5b2b2bd964", "lat": 38.93555933333333, "is_reserved": 0, "fusion_lat": 0.0, "bike_id": "c48f1f7f6cd044fbf63b3c5b2b2bd964", "type": "electric_bike", "is_disabled": 0, "fusion_lon": 0.0}, {"rental_uris": {"android": "https://dc.lft.to/lastmile_qr_scan", "ios": "https://dc.lft.to/lastmile_qr_scan"}, "lon": -76.98334783333334, "name": "f35a700584ac08086c644cef34b8f71a", "lat": 38.865636, "is_reserved": 0, "fusion_lat": 0.0, "bike_id": "f35a700584ac08086c644cef34b8f71a", "type": "electric_scooter", "is_disabled": 0, "fusion_lon": 0.0}, {"rental_uris": {"android": "https://dc.lft.to/lastmile_qr_scan", "ios": "https://dc.lft.to/lastmile_qr_scan"}, "lon": -77.03860966666667, "name": "af11f87f6602c5b965f9ffeead71975b", "lat": 38.907848, "is_reserved": 0, "fusion_lat": 0.0, "bike_id": "af11f87f6602c5b965f9ffeead71975b", "type": "electric_scooter", "is_disabled": 0, "fusion_lon": 0.0}, {"rental_uris": {"android": "https://dc.lft.to/lastmile_qr_scan", "ios": "https://dc.lft.to/lastmile_qr_scan"}, "lon": -77.0263785, "name": "ab72c61a03e9d3c85d97c284f4112102", "lat": 38.89221666666667, "is_reserved": 0, "fusion_lat": 0.0, "bike_id": "ab72c61a03e9d3c85d97c284f4112102", "type": "electric_scooter", "is_disabled": 0, "fusion_lon": 0.0}, {"rental_uris": {"android": "https://dc.lft.to/lastmile_qr_scan", "ios": "https://dc.lft.to/lastmile_qr_scan"}, "lon": -77.03836916666667, "name": "3342b0dd29099ea48e6bca7c0aa627fb", "lat": 38.90282083333334, "is_reserved": 0, "fusion_lat": 0.0, "bike_id": "3342b0dd29099ea48e6bca7c0aa627fb", "type": "electric_scooter", "is_disabled": 0, "fusion_lon": 0.0}, {"rental_uris": {"android": "https://dc.lft.to/lastmile_qr_scan", "ios": "https://dc.lft.to/lastmile_qr_scan"}, "lon": -77.046613, "name": "e32b9ea41b53ec1955dd56ad5134aa9f", "lat": 38.90093016666667, "is_reserved": 0, "fusion_lat": 0.0, "bike_id": "e32b9ea41b53ec1955dd56ad5134aa9f", "type": "electric_scooter", "is_disabled": 0, "fusion_lon": 0.0}, {"rental_uris": {"android": "https://dc.lft.to/lastmile_qr_scan", "ios": "https://dc.lft.to/lastmile_qr_scan"}, "lon": -77.04065516666667, "name": "a422efbfccfd315c41160dea8cdfec33", "lat": 38.931382166666666, "is_reserved": 0, "fusion_lat": 0.0, "bike_id": "a422efbfccfd315c41160dea8cdfec33", "type": "electric_scooter", "is_disabled": 0, "fusion_lon": 0.0}, {"rental_uris": {"android": "https://dc.lft.to/lastmile_qr_scan", "ios": "https://dc.lft.to/lastmile_qr_scan"}, "lon": -77.022446, "name": "7de7f4cb740eabff2869fc0fee4a4500", "lat": 38.92466566666667, "is_reserved": 0, "fusion_lat": 0.0, "bike_id": "7de7f4cb740eabff2869fc0fee4a4500", "type": "electric_scooter", "is_disabled": 0, "fusion_lon": 0.0}, {"rental_uris": {"android": "https://dc.lft.to/lastmile_qr_scan", "ios": "https://dc.lft.to/lastmile_qr_scan"}, "lon": -77.02199783333333, "name": "8f19616e0be2874be9e31ed58e8b8e58", "lat": 38.91593816666666, "is_reserved": 0, "fusion_lat": 0.0, "bike_id": "8f19616e0be2874be9e31ed58e8b8e58", "type": "electric_scooter", "is_disabled": 0, "fusion_lon": 0.0}, {"rental_uris": {"android": "https://dc.lft.to/lastmile_qr_scan", "ios": "https://dc.lft.to/lastmile_qr_scan"}, "lon": -77.02169083333334, "name": "f2299a884d4d3734490eddaf2aa1042a", "lat": 38.942936, "is_reserved": 0, "fusion_lat": 0.0, "bike_id": "f2299a884d4d3734490eddaf2aa1042a", "type": "electric_scooter", "is_disabled": 0, "fusion_lon": 0.0}, {"rental_uris": {"android": "https://dc.lft.to/lastmile_qr_scan", "ios": "https://dc.lft.to/lastmile_qr_scan"}, "lon": -77.01748883333333, "name": "f05f0cedc7fa8993f5c2dd9e3dfc3087", "lat": 38.9144875, "is_reserved": 0, "fusion_lat": 0.0, "bike_id": "f05f0cedc7fa8993f5c2dd9e3dfc3087", "type": "electric_scooter", "is_disabled": 0, "fusion_lon": 0.0}, {"rental_uris": {"android": "https://dc.lft.to/lastmile_qr_scan", "ios": "https://dc.lft.to/lastmile_qr_scan"}, "lon": -77.0257035, "name": "5eebd9a459ef7143f6eae25a6f75afe8", "lat": 38.925755833333334, "is_reserved": 0, "fusion_lat": 0.0, "bike_id": "5eebd9a459ef7143f6eae25a6f75afe8", "type": "electric_scooter", "is_disabled": 0, "fusion_lon": 0.0}, {"rental_uris": {"android": "https://dc.lft.to/lastmile_qr_scan", "ios": "https://dc.lft.to/lastmile_qr_scan"}, "lon": -77.01437983333334, "name": "ee6fa59d8af93d3c2903f3f0b458313c", "lat": 38.91964566666667, "is_reserved": 0, "fusion_lat": 0.0, "bike_id": "ee6fa59d8af93d3c2903f3f0b458313c", "type": "electric_scooter", "is_disabled": 0, "fusion_lon": 0.0}, {"rental_uris": {"android": "https://dc.lft.to/lastmile_qr_scan", "ios": "https://dc.lft.to/lastmile_qr_scan"}, "lon": -77.04514433333334, "name": "e20bb27e8f4bd9df6b93be12d9fa8777", "lat": 38.892224166666665, "is_reserved": 0, "fusion_lat": 0.0, "bike_id": "e20bb27e8f4bd9df6b93be12d9fa8777", "type": "electric_scooter", "is_disabled": 0, "fusion_lon": 0.0}, {"rental_uris": {"android": "https://dc.lft.to/lastmile_qr_scan", "ios": "https://dc.lft.to/lastmile_qr_scan"}, "lon": -77.0058395, "name": "a5dc0be31e464b363683da9ae5d9fa7a", "lat": 38.905677833333336, "is_reserved": 0, "fusion_lat": 0.0, "bike_id": "a5dc0be31e464b363683da9ae5d9fa7a", "type": "electric_scooter", "is_disabled": 0, "fusion_lon": 0.0}, {"rental_uris": {"android": "https://dc.lft.to/lastmile_qr_scan", "ios": "https://dc.lft.to/lastmile_qr_scan"}, "lon": -77.046084, "name": "df65ae111caf3c4dc0113a37c5dd8e08", "lat": 38.91677583333333, "is_reserved": 0, "fusion_lat": 0.0, "bike_id": "df65ae111caf3c4dc0113a37c5dd8e08", "type": "electric_scooter", "is_disabled": 0, "fusion_lon": 0.0}, {"rental_uris": {"android": "https://dc.lft.to/lastmile_qr_scan", "ios": "https://dc.lft.to/lastmile_qr_scan"}, "lon": -77.00530333333333, "name": "0626d54fac1e6edc29a049c01bb804ba", "lat": 38.9179805, "is_reserved": 0, "fusion_lat": 0.0, "bike_id": "0626d54fac1e6edc29a049c01bb804ba", "type": "electric_scooter", "is_disabled": 0, "fusion_lon": 0.0}, {"rental_uris": {"android": "https://dc.lft.to/lastmile_qr_scan", "ios": "https://dc.lft.to/lastmile_qr_scan"}, "lon": -77.04497833333333, "name": "9af8a419844d5812b79898343918c354", "lat": 38.91521066666667, "is_reserved": 0, "fusion_lat": 0.0, "bike_id": "9af8a419844d5812b79898343918c354", "type": "electric_scooter", "is_disabled": 0, "fusion_lon": 0.0}, {"rental_uris": {"android": "https://dc.lft.to/lastmile_qr_scan", "ios": "https://dc.lft.to/lastmile_qr_scan"}, "lon": -77.047099, "name": "a0efe69994106f5be5781886305c29e3", "lat": 38.920539, "is_reserved": 0, "fusion_lat": 0.0, "bike_id": "a0efe69994106f5be5781886305c29e3", "type": "electric_scooter", "is_disabled": 0, "fusion_lon": 0.0}, {"rental_uris": {"android": "https://dc.lft.to/lastmile_qr_scan", "ios": "https://dc.lft.to/lastmile_qr_scan"}, "lon": -77.0261565, "name": "692ab089aea2e24dc78ea58103eec6d5", "lat": 38.8965405, "is_reserved": 0, "fusion_lat": 0.0, "bike_id": "692ab089aea2e24dc78ea58103eec6d5", "type": "electric_scooter", "is_disabled": 0, "fusion_lon": 0.0}, {"rental_uris": {"android": "https://dc.lft.to/lastmile_qr_scan", "ios": "https://dc.lft.to/lastmile_qr_scan"}, "lon": -77.0384355, "name": "0d2d461774c5fcca336fbcc8a185f47a", "lat": 38.91474183333333, "is_reserved": 0, "fusion_lat": 0.0, "bike_id": "0d2d461774c5fcca336fbcc8a185f47a", "type": "electric_scooter", "is_disabled": 0, "fusion_lon": 0.0}, {"rental_uris": {"android": "https://dc.lft.to/lastmile_qr_scan", "ios": "https://dc.lft.to/lastmile_qr_scan"}, "lon": -77.03661383333333, "name": "52b62804cf429186e604ba9ab239a92c", "lat": 38.9362565, "is_reserved": 0, "fusion_lat": 0.0, "bike_id": "52b62804cf429186e604ba9ab239a92c", "type": "electric_bike", "is_disabled": 0, "fusion_lon": 0.0}, {"rental_uris": {"android": "https://dc.lft.to/lastmile_qr_scan", "ios": "https://dc.lft.to/lastmile_qr_scan"}, "lon": -77.03621283333334, "name": "4325fc6ee9e5acadb55cb01b8e7f5705", "lat": 38.939118666666666, "is_reserved": 0, "fusion_lat": 0.0, "bike_id": "4325fc6ee9e5acadb55cb01b8e7f5705", "type": "electric_scooter", "is_disabled": 0, "fusion_lon": 0.0}, {"rental_uris": {"android": "https://dc.lft.to/lastmile_qr_scan", "ios": "https://dc.lft.to/lastmile_qr_scan"}, "lon": -77.08063933333334, "name": "456af01d6661c576f0a30b6ae7bfa456", "lat": 39.0525605, "is_reserved": 0, "fusion_lat": 0.0, "bike_id": "456af01d6661c576f0a30b6ae7bfa456", "type": "electric_bike", "is_disabled": 0, "fusion_lon": 0.0}, {"rental_uris": {"android": "https://dc.lft.to/lastmile_qr_scan", "ios": "https://dc.lft.to/lastmile_qr_scan"}, "lon": -77.00484566666667, "name": "fbf161abfbc4aee1a950f88aa3c36f47", "lat": 38.8746045, "is_reserved": 0, "fusion_lat": 0.0, "bike_id": "fbf161abfbc4aee1a950f88aa3c36f47", "type": "electric_scooter", "is_disabled": 0, "fusion_lon": 0.0}, {"rental_uris": {"android": "https://dc.lft.to/lastmile_qr_scan", "ios": "https://dc.lft.to/lastmile_qr_scan"}, "lon": -76.97030983333333, "name": "e2ba7e042f2dd6f8a5d254ff3f9249df", "lat": 38.87360783333333, "is_reserved": 0, "fusion_lat": 0.0, "bike_id": "e2ba7e042f2dd6f8a5d254ff3f9249df", "type": "electric_scooter", "is_disabled": 0, "fusion_lon": 0.0}, {"rental_uris": {"android": "https://dc.lft.to/lastmile_qr_scan", "ios": "https://dc.lft.to/lastmile_qr_scan"}, "lon": -77.02962966666666, "name": "f940d1a26abb74e587123ef39c361342", "lat": 38.902873, "is_reserved": 0, "fusion_lat": 0.0, "bike_id": "f940d1a26abb74e587123ef39c361342", "type": "electric_scooter", "is_disabled": 0, "fusion_lon": 0.0}, {"rental_uris": {"android": "https://dc.lft.to/lastmile_qr_scan", "ios": "https://dc.lft.to/lastmile_qr_scan"}, "lon": -77.02351383333334, "name": "dffc5edea13b95d321e6d343ff8e0fa5", "lat": 38.9317505, "is_reserved": 0, "fusion_lat": 0.0, "bike_id": "dffc5edea13b95d321e6d343ff8e0fa5", "type": "electric_scooter", "is_disabled": 0, "fusion_lon": 0.0}, {"rental_uris": {"android": "https://dc.lft.to/lastmile_qr_scan", "ios": "https://dc.lft.to/lastmile_qr_scan"}, "lon": -77.03394633333333, "name": "73285746b3c501256d90645051976a1a", "lat": 38.9255215, "is_reserved": 0, "fusion_lat": 0.0, "bike_id": "73285746b3c501256d90645051976a1a", "type": "electric_scooter", "is_disabled": 0, "fusion_lon": 0.0}, {"rental_uris": {"android": "https://dc.lft.to/lastmile_qr_scan", "ios": "https://dc.lft.to/lastmile_qr_scan"}, "lon": -77.05119533333334, "name": "36ba73230a6cdb97d4a04efb2ac0bda4", "lat": 38.813318833333334, "is_reserved": 0, "fusion_lat": 0.0, "bike_id": "36ba73230a6cdb97d4a04efb2ac0bda4", "type": "electric_bike", "is_disabled": 0, "fusion_lon": 0.0}, {"rental_uris": {"android": "https://dc.lft.to/lastmile_qr_scan", "ios": "https://dc.lft.to/lastmile_qr_scan"}, "lon": -77.00929016666667, "name": "471c7a8abffa4d834b7b2ac0ff6d7f1e", "lat": 38.8762765, "is_reserved": 0, "fusion_lat": 0.0, "bike_id": "471c7a8abffa4d834b7b2ac0ff6d7f1e", "type": "electric_scooter", "is_disabled": 0, "fusion_lon": 0.0}, {"rental_uris": {"android": "https://dc.lft.to/lastmile_qr_scan", "ios": "https://dc.lft.to/lastmile_qr_scan"}, "lon": -77.01461883333333, "name": "2091c41092984efde883bf27b9dd1610", "lat": 38.879369833333335, "is_reserved": 0, "fusion_lat": 0.0, "bike_id": "2091c41092984efde883bf27b9dd1610", "type": "electric_scooter", "is_disabled": 0, "fusion_lon": 0.0}, {"rental_uris": {"android": "https://dc.lft.to/lastmile_qr_scan", "ios": "https://dc.lft.to/lastmile_qr_scan"}, "lon": -77.02277316666667, "name": "89446f09190e6420d7779c3b23626460", "lat": 38.916594833333335, "is_reserved": 0, "fusion_lat": 0.0, "bike_id": "89446f09190e6420d7779c3b23626460", "type": "electric_scooter", "is_disabled": 0, "fusion_lon": 0.0}, {"rental_uris": {"android": "https://dc.lft.to/lastmile_qr_scan", "ios": "https://dc.lft.to/lastmile_qr_scan"}, "lon": -77.04442616666667, "name": "26245fa046ffcd631d69df1aff27657a", "lat": 38.912582, "is_reserved": 0, "fusion_lat": 0.0, "bike_id": "26245fa046ffcd631d69df1aff27657a", "type": "electric_scooter", "is_disabled": 0, "fusion_lon": 0.0}, {"rental_uris": {"android": "https://dc.lft.to/lastmile_qr_scan", "ios": "https://dc.lft.to/lastmile_qr_scan"}, "lon": -77.0231675, "name": "0db96630c1bd76c522dfaf3a77574490", "lat": 38.91703533333333, "is_reserved": 0, "fusion_lat": 0.0, "bike_id": "0db96630c1bd76c522dfaf3a77574490", "type": "electric_scooter", "is_disabled": 0, "fusion_lon": 0.0}, {"rental_uris": {"android": "https://dc.lft.to/lastmile_qr_scan", "ios": "https://dc.lft.to/lastmile_qr_scan"}, "lon": -77.02279433333334, "name": "e29a6661400e816b35572d4398fab6cb", "lat": 38.89524766666667, "is_reserved": 0, "fusion_lat": 0.0, "bike_id": "e29a6661400e816b35572d4398fab6cb", "type": "electric_scooter", "is_disabled": 0, "fusion_lon": 0.0}, {"rental_uris": {"android": "https://dc.lft.to/lastmile_qr_scan", "ios": "https://dc.lft.to/lastmile_qr_scan"}, "lon": -76.96902616666667, "name": "ea4ce3cddf0422dd559d72f4120fc2c7", "lat": 38.8731235, "is_reserved": 0, "fusion_lat": 0.0, "bike_id": "ea4ce3cddf0422dd559d72f4120fc2c7", "type": "electric_scooter", "is_disabled": 0, "fusion_lon": 0.0}, {"rental_uris": {"android": "https://dc.lft.to/lastmile_qr_scan", "ios": "https://dc.lft.to/lastmile_qr_scan"}, "lon": -77.02525483333334, "name": "db2e69358e19a4246e6aa17810ed7068", "lat": 38.9208915, "is_reserved": 0, "fusion_lat": 0.0, "bike_id": "db2e69358e19a4246e6aa17810ed7068", "type": "electric_scooter", "is_disabled": 0, "fusion_lon": 0.0}, {"rental_uris": {"android": "https://dc.lft.to/lastmile_qr_scan", "ios": "https://dc.lft.to/lastmile_qr_scan"}, "lon": -77.01858266666666, "name": "70ae5e0b961e7be41ea206bdcabfffc8", "lat": 38.89888416666667, "is_reserved": 0, "fusion_lat": 0.0, "bike_id": "70ae5e0b961e7be41ea206bdcabfffc8", "type": "electric_scooter", "is_disabled": 0, "fusion_lon": 0.0}, {"rental_uris": {"android": "https://dc.lft.to/lastmile_qr_scan", "ios": "https://dc.lft.to/lastmile_qr_scan"}, "lon": -76.976314, "name": "ca35d0c9ef059fe20bf17907866e20ad", "lat": 38.90159, "is_reserved": 0, "fusion_lat": 0.0, "bike_id": "ca35d0c9ef059fe20bf17907866e20ad", "type": "electric_scooter", "is_disabled": 0, "fusion_lon": 0.0}, {"rental_uris": {"android": "https://dc.lft.to/lastmile_qr_scan", "ios": "https://dc.lft.to/lastmile_qr_scan"}, "lon": -77.02276383333333, "name": "b207c475650c7db814d91edaf408cb15", "lat": 38.9166195, "is_reserved": 0, "fusion_lat": 0.0, "bike_id": "b207c475650c7db814d91edaf408cb15", "type": "electric_scooter", "is_disabled": 0, "fusion_lon": 0.0}, {"rental_uris": {"android": "https://dc.lft.to/lastmile_qr_scan", "ios": "https://dc.lft.to/lastmile_qr_scan"}, "lon": -77.04671983333333, "name": "ff5028c603dfea77e0c114a6bba094a8", "lat": 38.90299366666667, "is_reserved": 0, "fusion_lat": 0.0, "bike_id": "ff5028c603dfea77e0c114a6bba094a8", "type": "electric_scooter", "is_disabled": 0, "fusion_lon": 0.0}, {"rental_uris": {"android": "https://dc.lft.to/lastmile_qr_scan", "ios": "https://dc.lft.to/lastmile_qr_scan"}, "lon": -77.01215883333333, "name": "175226dd025e4e218b308a20346ad420", "lat": 38.91349983333333, "is_reserved": 0, "fusion_lat": 0.0, "bike_id": "175226dd025e4e218b308a20346ad420", "type": "electric_scooter", "is_disabled": 0, "fusion_lon": 0.0}, {"rental_uris": {"android": "https://dc.lft.to/lastmile_qr_scan", "ios": "https://dc.lft.to/lastmile_qr_scan"}, "lon": -77.0034855, "name": "83a40332119614b9829a208e7ea6f011", "lat": 38.87724816666667, "is_reserved": 0, "fusion_lat": 0.0, "bike_id": "83a40332119614b9829a208e7ea6f011", "type": "electric_scooter", "is_disabled": 0, "fusion_lon": 0.0}, {"rental_uris": {"android": "https://dc.lft.to/lastmile_qr_scan", "ios": "https://dc.lft.to/lastmile_qr_scan"}, "lon": -76.9625965, "name": "6e58e0977d4f655f5f5e21ea538ceafc", "lat": 38.8824675, "is_reserved": 0, "fusion_lat": 0.0, "bike_id": "6e58e0977d4f655f5f5e21ea538ceafc", "type": "electric_bike", "is_disabled": 0, "fusion_lon": 0.0}, {"rental_uris": {"android": "https://dc.lft.to/lastmile_qr_scan", "ios": "https://dc.lft.to/lastmile_qr_scan"}, "lon": -77.04478066666667, "name": "c6203b1c41e6d28e7707401c7bce1292", "lat": 38.91881566666667, "is_reserved": 0, "fusion_lat": 0.0, "bike_id": "c6203b1c41e6d28e7707401c7bce1292", "type": "electric_scooter", "is_disabled": 0, "fusion_lon": 0.0}, {"rental_uris": {"android": "https://dc.lft.to/lastmile_qr_scan", "ios": "https://dc.lft.to/lastmile_qr_scan"}, "lon": -77.04316966666667, "name": "32d6f44ea32c7093cab11693b100e9fc", "lat": 38.914077666666664, "is_reserved": 0, "fusion_lat": 0.0, "bike_id": "32d6f44ea32c7093cab11693b100e9fc", "type": "electric_scooter", "is_disabled": 0, "fusion_lon": 0.0}, {"rental_uris": {"android": "https://dc.lft.to/lastmile_qr_scan", "ios": "https://dc.lft.to/lastmile_qr_scan"}, "lon": -77.02384766666667, "name": "8da34a6fe24b2b071c9535d9ff519212", "lat": 38.89231366666667, "is_reserved": 0, "fusion_lat": 0.0, "bike_id": "8da34a6fe24b2b071c9535d9ff519212", "type": "electric_scooter", "is_disabled": 0, "fusion_lon": 0.0}, {"rental_uris": {"android": "https://dc.lft.to/lastmile_qr_scan", "ios": "https://dc.lft.to/lastmile_qr_scan"}, "lon": -77.02375766666667, "name": "b0861b71c518ddf7987283ff1856b2d5", "lat": 38.89199333333333, "is_reserved": 0, "fusion_lat": 0.0, "bike_id": "b0861b71c518ddf7987283ff1856b2d5", "type": "electric_scooter", "is_disabled": 0, "fusion_lon": 0.0}, {"rental_uris": {"android": "https://dc.lft.to/lastmile_qr_scan", "ios": "https://dc.lft.to/lastmile_qr_scan"}, "lon": -77.021103, "name": "bdf9673cad7decc05ac1096bd5934bd2", "lat": 38.927557166666666, "is_reserved": 0, "fusion_lat": 0.0, "bike_id": "bdf9673cad7decc05ac1096bd5934bd2", "type": "electric_scooter", "is_disabled": 0, "fusion_lon": 0.0}, {"rental_uris": {"android": "https://dc.lft.to/lastmile_qr_scan", "ios": "https://dc.lft.to/lastmile_qr_scan"}, "lon": -77.02222516666667, "name": "5aa0a57416be06bec4c82ba46ec4de89", "lat": 38.956912333333335, "is_reserved": 0, "fusion_lat": 0.0, "bike_id": "5aa0a57416be06bec4c82ba46ec4de89", "type": "electric_bike", "is_disabled": 0, "fusion_lon": 0.0}, {"rental_uris": {"android": "https://dc.lft.to/lastmile_qr_scan", "ios": "https://dc.lft.to/lastmile_qr_scan"}, "lon": -77.00882283333333, "name": "5efa6dcf4d7a34040300efe05502cb27", "lat": 38.91468416666667, "is_reserved": 0, "fusion_lat": 0.0, "bike_id": "5efa6dcf4d7a34040300efe05502cb27", "type": "electric_scooter", "is_disabled": 0, "fusion_lon": 0.0}, {"rental_uris": {"android": "https://dc.lft.to/lastmile_qr_scan", "ios": "https://dc.lft.to/lastmile_qr_scan"}, "lon": -77.02383133333333, "name": "4847622dd6e6be965f264ad73c47c155", "lat": 38.90686183333333, "is_reserved": 0, "fusion_lat": 0.0, "bike_id": "4847622dd6e6be965f264ad73c47c155", "type": "electric_scooter", "is_disabled": 0, "fusion_lon": 0.0}, {"rental_uris": {"android": "https://dc.lft.to/lastmile_qr_scan", "ios": "https://dc.lft.to/lastmile_qr_scan"}, "lon": -76.9289765, "name": "a1f46fd4b6d5eafb3f1a5e1e29ffaf25", "lat": 38.90188333333333, "is_reserved": 0, "fusion_lat": 0.0, "bike_id": "a1f46fd4b6d5eafb3f1a5e1e29ffaf25", "type": "electric_scooter", "is_disabled": 0, "fusion_lon": 0.0}, {"rental_uris": {"android": "https://dc.lft.to/lastmile_qr_scan", "ios": "https://dc.lft.to/lastmile_qr_scan"}, "lon": -77.04269016666667, "name": "bfe98fa8007d30de5aa2c0252dbd986b", "lat": 38.831005833333336, "is_reserved": 0, "fusion_lat": 0.0, "bike_id": "bfe98fa8007d30de5aa2c0252dbd986b", "type": "electric_bike", "is_disabled": 0, "fusion_lon": 0.0}, {"rental_uris": {"android": "https://dc.lft.to/lastmile_qr_scan", "ios": "https://dc.lft.to/lastmile_qr_scan"}, "lon": -77.00342433333333, "name": "2f7519e5448537f60dbc1837af9dfb8d", "lat": 38.8870885, "is_reserved": 0, "fusion_lat": 0.0, "bike_id": "2f7519e5448537f60dbc1837af9dfb8d", "type": "electric_scooter", "is_disabled": 0, "fusion_lon": 0.0}, {"rental_uris": {"android": "https://dc.lft.to/lastmile_qr_scan", "ios": "https://dc.lft.to/lastmile_qr_scan"}, "lon": -77.041303, "name": "0a741e11f56d13d4da436e5508943fd8", "lat": 38.92183766666667, "is_reserved": 0, "fusion_lat": 0.0, "bike_id": "0a741e11f56d13d4da436e5508943fd8", "type": "electric_scooter", "is_disabled": 0, "fusion_lon": 0.0}, {"rental_uris": {"android": "https://dc.lft.to/lastmile_qr_scan", "ios": "https://dc.lft.to/lastmile_qr_scan"}, "lon": -77.02654633333333, "name": "260af94d7a72efe127e4796355192a4a", "lat": 38.89756766666667, "is_reserved": 0, "fusion_lat": 0.0, "bike_id": "260af94d7a72efe127e4796355192a4a", "type": "electric_scooter", "is_disabled": 0, "fusion_lon": 0.0}, {"rental_uris": {"android": "https://dc.lft.to/lastmile_qr_scan", "ios": "https://dc.lft.to/lastmile_qr_scan"}, "lon": -77.03617266666667, "name": "235d621d49f38a903d51ea8c56b00e82", "lat": 38.937542666666666, "is_reserved": 0, "fusion_lat": 0.0, "bike_id": "235d621d49f38a903d51ea8c56b00e82", "type": "electric_scooter", "is_disabled": 0, "fusion_lon": 0.0}, {"rental_uris": {"android": "https://dc.lft.to/lastmile_qr_scan", "ios": "https://dc.lft.to/lastmile_qr_scan"}, "lon": -77.03215616666667, "name": "e82bbaadc81540d7a46f2f7deee8bf85", "lat": 38.92792583333333, "is_reserved": 0, "fusion_lat": 0.0, "bike_id": "e82bbaadc81540d7a46f2f7deee8bf85", "type": "electric_scooter", "is_disabled": 0, "fusion_lon": 0.0}, {"rental_uris": {"android": "https://dc.lft.to/lastmile_qr_scan", "ios": "https://dc.lft.to/lastmile_qr_scan"}, "lon": -77.0269095, "name": "622fd7d48bfc2c3f186f2a54655acc6f", "lat": 38.906882833333334, "is_reserved": 0, "fusion_lat": 0.0, "bike_id": "622fd7d48bfc2c3f186f2a54655acc6f", "type": "electric_scooter", "is_disabled": 0, "fusion_lon": 0.0}, {"rental_uris": {"android": "https://dc.lft.to/lastmile_qr_scan", "ios": "https://dc.lft.to/lastmile_qr_scan"}, "lon": -76.989027, "name": "e6433ff0ef52cbc1127ce34a575263b5", "lat": 38.9003055, "is_reserved": 0, "fusion_lat": 0.0, "bike_id": "e6433ff0ef52cbc1127ce34a575263b5", "type": "electric_scooter", "is_disabled": 0, "fusion_lon": 0.0}, {"rental_uris": {"android": "https://dc.lft.to/lastmile_qr_scan", "ios": "https://dc.lft.to/lastmile_qr_scan"}, "lon": -77.05127433333334, "name": "95cca5a1283f1e4755503c1de13cecf0", "lat": 38.92518316666666, "is_reserved": 0, "fusion_lat": 0.0, "bike_id": "95cca5a1283f1e4755503c1de13cecf0", "type": "electric_scooter", "is_disabled": 0, "fusion_lon": 0.0}, {"rental_uris": {"android": "https://dc.lft.to/lastmile_qr_scan", "ios": "https://dc.lft.to/lastmile_qr_scan"}, "lon": -77.0118315, "name": "89585e87ce8cb144fa64bbcc0326fc95", "lat": 38.90029, "is_reserved": 0, "fusion_lat": 0.0, "bike_id": "89585e87ce8cb144fa64bbcc0326fc95", "type": "electric_scooter", "is_disabled": 0, "fusion_lon": 0.0}, {"rental_uris": {"android": "https://dc.lft.to/lastmile_qr_scan", "ios": "https://dc.lft.to/lastmile_qr_scan"}, "lon": -77.02813333333333, "name": "e268e4a29b4d98e50af018fd1c6da9e0", "lat": 38.909443833333334, "is_reserved": 0, "fusion_lat": 0.0, "bike_id": "e268e4a29b4d98e50af018fd1c6da9e0", "type": "electric_scooter", "is_disabled": 0, "fusion_lon": 0.0}, {"rental_uris": {"android": "https://dc.lft.to/lastmile_qr_scan", "ios": "https://dc.lft.to/lastmile_qr_scan"}, "lon": -76.96556866666667, "name": "9482859bc56bd23db865d5fa87343e93", "lat": 38.918493, "is_reserved": 0, "fusion_lat": 0.0, "bike_id": "9482859bc56bd23db865d5fa87343e93", "type": "electric_scooter", "is_disabled": 0, "fusion_lon": 0.0}, {"rental_uris": {"android": "https://dc.lft.to/lastmile_qr_scan", "ios": "https://dc.lft.to/lastmile_qr_scan"}, "lon": -77.00226116666667, "name": "a540ae544337d3db419672e0e82b15bd", "lat": 38.91205033333333, "is_reserved": 0, "fusion_lat": 0.0, "bike_id": "a540ae544337d3db419672e0e82b15bd", "type": "electric_scooter", "is_disabled": 0, "fusion_lon": 0.0}, {"rental_uris": {"android": "https://dc.lft.to/lastmile_qr_scan", "ios": "https://dc.lft.to/lastmile_qr_scan"}, "lon": -77.01178933333334, "name": "26adb1292fcf35e962969878033f9caa", "lat": 38.9003415, "is_reserved": 0, "fusion_lat": 0.0, "bike_id": "26adb1292fcf35e962969878033f9caa", "type": "electric_scooter", "is_disabled": 0, "fusion_lon": 0.0}, {"rental_uris": {"android": "https://dc.lft.to/lastmile_qr_scan", "ios": "https://dc.lft.to/lastmile_qr_scan"}, "lon": -77.0318515, "name": "57d518636d04403372d1259c66899fb1", "lat": 38.91960566666667, "is_reserved": 0, "fusion_lat": 0.0, "bike_id": "57d518636d04403372d1259c66899fb1", "type": "electric_scooter", "is_disabled": 0, "fusion_lon": 0.0}, {"rental_uris": {"android": "https://dc.lft.to/lastmile_qr_scan", "ios": "https://dc.lft.to/lastmile_qr_scan"}, "lon": -76.99909083333333, "name": "fb8244aae5aa10722c1305fed9053e55", "lat": 38.924564, "is_reserved": 0, "fusion_lat": 0.0, "bike_id": "fb8244aae5aa10722c1305fed9053e55", "type": "electric_scooter", "is_disabled": 0, "fusion_lon": 0.0}, {"rental_uris": {"android": "https://dc.lft.to/lastmile_qr_scan", "ios": "https://dc.lft.to/lastmile_qr_scan"}, "lon": -77.03950816666666, "name": "bb1efb5ffb623e7d9186421581efc4a2", "lat": 38.9246525, "is_reserved": 0, "fusion_lat": 0.0, "bike_id": "bb1efb5ffb623e7d9186421581efc4a2", "type": "electric_scooter", "is_disabled": 0, "fusion_lon": 0.0}, {"rental_uris": {"android": "https://dc.lft.to/lastmile_qr_scan", "ios": "https://dc.lft.to/lastmile_qr_scan"}, "lon": -77.03263333333334, "name": "c095e1180747f41caa3df1f00b2c15f2", "lat": 38.938814666666666, "is_reserved": 0, "fusion_lat": 0.0, "bike_id": "c095e1180747f41caa3df1f00b2c15f2", "type": "electric_scooter", "is_disabled": 0, "fusion_lon": 0.0}, {"rental_uris": {"android": "https://dc.lft.to/lastmile_qr_scan", "ios": "https://dc.lft.to/lastmile_qr_scan"}, "lon": -77.0295425, "name": "e12731f74c86ca1b95bcd5ac51fe43df", "lat": 38.916876, "is_reserved": 0, "fusion_lat": 0.0, "bike_id": "e12731f74c86ca1b95bcd5ac51fe43df", "type": "electric_scooter", "is_disabled": 0, "fusion_lon": 0.0}, {"rental_uris": {"android": "https://dc.lft.to/lastmile_qr_scan", "ios": "https://dc.lft.to/lastmile_qr_scan"}, "lon": -77.01266933333333, "name": "bd3df06d81f0818c28886b7186151519", "lat": 38.8646965, "is_reserved": 0, "fusion_lat": 0.0, "bike_id": "bd3df06d81f0818c28886b7186151519", "type": "electric_bike", "is_disabled": 0, "fusion_lon": 0.0}, {"rental_uris": {"android": "https://dc.lft.to/lastmile_qr_scan", "ios": "https://dc.lft.to/lastmile_qr_scan"}, "lon": -77.034484, "name": "234f614ebcc4002eaad94c4e0b98d54c", "lat": 38.909476, "is_reserved": 0, "fusion_lat": 0.0, "bike_id": "234f614ebcc4002eaad94c4e0b98d54c", "type": "electric_scooter", "is_disabled": 0, "fusion_lon": 0.0}, {"rental_uris": {"android": "https://dc.lft.to/lastmile_qr_scan", "ios": "https://dc.lft.to/lastmile_qr_scan"}, "lon": -77.03636416666667, "name": "d5c2d0a7bcc406b905aa5f5f851ded1e", "lat": 38.91619216666667, "is_reserved": 0, "fusion_lat": 0.0, "bike_id": "d5c2d0a7bcc406b905aa5f5f851ded1e", "type": "electric_scooter", "is_disabled": 0, "fusion_lon": 0.0}, {"rental_uris": {"android": "https://dc.lft.to/lastmile_qr_scan", "ios": "https://dc.lft.to/lastmile_qr_scan"}, "lon": -77.02150166666667, "name": "d9aa402575458eb8e3a9f32c4a6f6192", "lat": 38.941349833333334, "is_reserved": 0, "fusion_lat": 0.0, "bike_id": "d9aa402575458eb8e3a9f32c4a6f6192", "type": "electric_scooter", "is_disabled": 0, "fusion_lon": 0.0}, {"rental_uris": {"android": "https://dc.lft.to/lastmile_qr_scan", "ios": "https://dc.lft.to/lastmile_qr_scan"}, "lon": -77.06839933333333, "name": "fabc45dbf5db5f584b915d112415bddf", "lat": 38.91730416666667, "is_reserved": 0, "fusion_lat": 0.0, "bike_id": "fabc45dbf5db5f584b915d112415bddf", "type": "electric_scooter", "is_disabled": 0, "fusion_lon": 0.0}, {"rental_uris": {"android": "https://dc.lft.to/lastmile_qr_scan", "ios": "https://dc.lft.to/lastmile_qr_scan"}, "lon": -77.007569, "name": "183b339acc50503f7c18ba715e754460", "lat": 38.99792333333333, "is_reserved": 0, "fusion_lat": 0.0, "bike_id": "183b339acc50503f7c18ba715e754460", "type": "electric_bike", "is_disabled": 0, "fusion_lon": 0.0}, {"rental_uris": {"android": "https://dc.lft.to/lastmile_qr_scan", "ios": "https://dc.lft.to/lastmile_qr_scan"}, "lon": -77.02706783333333, "name": "b90932aca8a9381ca95348c47eff0f9e", "lat": 38.91835533333333, "is_reserved": 0, "fusion_lat": 0.0, "bike_id": "b90932aca8a9381ca95348c47eff0f9e", "type": "electric_scooter", "is_disabled": 0, "fusion_lon": 0.0}, {"rental_uris": {"android": "https://dc.lft.to/lastmile_qr_scan", "ios": "https://dc.lft.to/lastmile_qr_scan"}, "lon": -76.98388366666667, "name": "4069b19adb4d2706aa1dcb186248af48", "lat": 38.91508733333333, "is_reserved": 0, "fusion_lat": 0.0, "bike_id": "4069b19adb4d2706aa1dcb186248af48", "type": "electric_scooter", "is_disabled": 0, "fusion_lon": 0.0}, {"rental_uris": {"android": "https://dc.lft.to/lastmile_qr_scan", "ios": "https://dc.lft.to/lastmile_qr_scan"}, "lon": -77.00589666666667, "name": "9ffadcfc042ad143747a24a8d96cf8ee", "lat": 38.8757355, "is_reserved": 0, "fusion_lat": 0.0, "bike_id": "9ffadcfc042ad143747a24a8d96cf8ee", "type": "electric_scooter", "is_disabled": 0, "fusion_lon": 0.0}, {"rental_uris": {"android": "https://dc.lft.to/lastmile_qr_scan", "ios": "https://dc.lft.to/lastmile_qr_scan"}, "lon": -77.01476833333334, "name": "4fb099fae0fa4d9dae6dc6e2127798ef", "lat": 38.914154833333335, "is_reserved": 0, "fusion_lat": 0.0, "bike_id": "4fb099fae0fa4d9dae6dc6e2127798ef", "type": "electric_scooter", "is_disabled": 0, "fusion_lon": 0.0}, {"rental_uris": {"android": "https://dc.lft.to/lastmile_qr_scan", "ios": "https://dc.lft.to/lastmile_qr_scan"}, "lon": -77.00069683333334, "name": "dd4fd93f28201fe3296f7e275bc44b74", "lat": 38.92553266666667, "is_reserved": 0, "fusion_lat": 0.0, "bike_id": "dd4fd93f28201fe3296f7e275bc44b74", "type": "electric_scooter", "is_disabled": 0, "fusion_lon": 0.0}, {"rental_uris": {"android": "https://dc.lft.to/lastmile_qr_scan", "ios": "https://dc.lft.to/lastmile_qr_scan"}, "lon": -76.97253833333333, "name": "35f9ac17ca98b3274432bf94568c7954", "lat": 38.95747333333333, "is_reserved": 0, "fusion_lat": 0.0, "bike_id": "35f9ac17ca98b3274432bf94568c7954", "type": "electric_bike", "is_disabled": 0, "fusion_lon": 0.0}, {"rental_uris": {"android": "https://dc.lft.to/lastmile_qr_scan", "ios": "https://dc.lft.to/lastmile_qr_scan"}, "lon": -76.97255866666667, "name": "a170b41ef1dd0e8a3363af69c171f252", "lat": 38.957443, "is_reserved": 0, "fusion_lat": 0.0, "bike_id": "a170b41ef1dd0e8a3363af69c171f252", "type": "electric_bike", "is_disabled": 0, "fusion_lon": 0.0}, {"rental_uris": {"android": "https://dc.lft.to/lastmile_qr_scan", "ios": "https://dc.lft.to/lastmile_qr_scan"}, "lon": -77.00800483333333, "name": "03e2b8e9eb4cc8b56f6188f6839492ab", "lat": 38.9492385, "is_reserved": 0, "fusion_lat": 0.0, "bike_id": "03e2b8e9eb4cc8b56f6188f6839492ab", "type": "electric_bike", "is_disabled": 0, "fusion_lon": 0.0}, {"rental_uris": {"android": "https://dc.lft.to/lastmile_qr_scan", "ios": "https://dc.lft.to/lastmile_qr_scan"}, "lon": -77.03194433333333, "name": "9ade7e4ce40494cf12230c4c3db6c92b", "lat": 38.924754166666666, "is_reserved": 0, "fusion_lat": 0.0, "bike_id": "9ade7e4ce40494cf12230c4c3db6c92b", "type": "electric_scooter", "is_disabled": 0, "fusion_lon": 0.0}, {"rental_uris": {"android": "https://dc.lft.to/lastmile_qr_scan", "ios": "https://dc.lft.to/lastmile_qr_scan"}, "lon": -77.01074683333333, "name": "4f8f77428f6bbd4faeef42b6f5c66295", "lat": 38.90959483333334, "is_reserved": 0, "fusion_lat": 0.0, "bike_id": "4f8f77428f6bbd4faeef42b6f5c66295", "type": "electric_scooter", "is_disabled": 0, "fusion_lon": 0.0}, {"rental_uris": {"android": "https://dc.lft.to/lastmile_qr_scan", "ios": "https://dc.lft.to/lastmile_qr_scan"}, "lon": -76.999574, "name": "f118bb9c270685cb02512e9bbcd29b61", "lat": 38.8740915, "is_reserved": 0, "fusion_lat": 0.0, "bike_id": "f118bb9c270685cb02512e9bbcd29b61", "type": "electric_scooter", "is_disabled": 0, "fusion_lon": 0.0}, {"rental_uris": {"android": "https://dc.lft.to/lastmile_qr_scan", "ios": "https://dc.lft.to/lastmile_qr_scan"}, "lon": -77.08188466666667, "name": "37edd4e2d19a21adadc4b4e93216c7e4", "lat": 38.93350733333333, "is_reserved": 0, "fusion_lat": 0.0, "bike_id": "37edd4e2d19a21adadc4b4e93216c7e4", "type": "electric_scooter", "is_disabled": 0, "fusion_lon": 0.0}, {"rental_uris": {"android": "https://dc.lft.to/lastmile_qr_scan", "ios": "https://dc.lft.to/lastmile_qr_scan"}, "lon": -77.026305, "name": "f5d96108a7a61376a1cc5b9beec448bc", "lat": 38.89440783333333, "is_reserved": 0, "fusion_lat": 0.0, "bike_id": "f5d96108a7a61376a1cc5b9beec448bc", "type": "electric_scooter", "is_disabled": 0, "fusion_lon": 0.0}, {"rental_uris": {"android": "https://dc.lft.to/lastmile_qr_scan", "ios": "https://dc.lft.to/lastmile_qr_scan"}, "lon": -77.03855616666667, "name": "bdba8c65b2d3f5369dd359a3ae18e521", "lat": 38.91776866666667, "is_reserved": 0, "fusion_lat": 0.0, "bike_id": "bdba8c65b2d3f5369dd359a3ae18e521", "type": "electric_scooter", "is_disabled": 0, "fusion_lon": 0.0}, {"rental_uris": {"android": "https://dc.lft.to/lastmile_qr_scan", "ios": "https://dc.lft.to/lastmile_qr_scan"}, "lon": -77.03189083333334, "name": "6e9b05a4f40370d4b2b8ce2cf79e2c62", "lat": 38.920495833333334, "is_reserved": 0, "fusion_lat": 0.0, "bike_id": "6e9b05a4f40370d4b2b8ce2cf79e2c62", "type": "electric_scooter", "is_disabled": 0, "fusion_lon": 0.0}, {"rental_uris": {"android": "https://dc.lft.to/lastmile_qr_scan", "ios": "https://dc.lft.to/lastmile_qr_scan"}, "lon": -76.998285, "name": "b55f44851fa40d1da60f06e8ea355b64", "lat": 38.90379933333333, "is_reserved": 0, "fusion_lat": 0.0, "bike_id": "b55f44851fa40d1da60f06e8ea355b64", "type": "electric_scooter", "is_disabled": 0, "fusion_lon": 0.0}, {"rental_uris": {"android": "https://dc.lft.to/lastmile_qr_scan", "ios": "https://dc.lft.to/lastmile_qr_scan"}, "lon": -77.00062033333333, "name": "08033f2f5333ab6ebc1915386046ed75", "lat": 38.92558666666667, "is_reserved": 0, "fusion_lat": 0.0, "bike_id": "08033f2f5333ab6ebc1915386046ed75", "type": "electric_scooter", "is_disabled": 0, "fusion_lon": 0.0}, {"rental_uris": {"android": "https://dc.lft.to/lastmile_qr_scan", "ios": "https://dc.lft.to/lastmile_qr_scan"}, "lon": -76.999467, "name": "2610d72773348d077974fc4165d6a05e", "lat": 38.842946, "is_reserved": 0, "fusion_lat": 0.0, "bike_id": "2610d72773348d077974fc4165d6a05e", "type": "electric_scooter", "is_disabled": 0, "fusion_lon": 0.0}, {"rental_uris": {"android": "https://dc.lft.to/lastmile_qr_scan", "ios": "https://dc.lft.to/lastmile_qr_scan"}, "lon": -77.01208533333333, "name": "3e75b24bf1dffd6c50a30cea3cc4ca1c", "lat": 38.919169, "is_reserved": 0, "fusion_lat": 0.0, "bike_id": "3e75b24bf1dffd6c50a30cea3cc4ca1c", "type": "electric_scooter", "is_disabled": 0, "fusion_lon": 0.0}, {"rental_uris": {"android": "https://dc.lft.to/lastmile_qr_scan", "ios": "https://dc.lft.to/lastmile_qr_scan"}, "lon": -77.04904783333333, "name": "52c4736c6c15cb86b8d712e15a8f048c", "lat": 38.8969675, "is_reserved": 0, "fusion_lat": 0.0, "bike_id": "52c4736c6c15cb86b8d712e15a8f048c", "type": "electric_scooter", "is_disabled": 0, "fusion_lon": 0.0}, {"rental_uris": {"android": "https://dc.lft.to/lastmile_qr_scan", "ios": "https://dc.lft.to/lastmile_qr_scan"}, "lon": -77.04474833333333, "name": "5e5dcb4636f83e9fd8321112c38c80f2", "lat": 38.9188585, "is_reserved": 0, "fusion_lat": 0.0, "bike_id": "5e5dcb4636f83e9fd8321112c38c80f2", "type": "electric_scooter", "is_disabled": 0, "fusion_lon": 0.0}, {"rental_uris": {"android": "https://dc.lft.to/lastmile_qr_scan", "ios": "https://dc.lft.to/lastmile_qr_scan"}, "lon": -77.00201633333333, "name": "966dbb1b0bd379a580c1caf84b9fb382", "lat": 38.90029833333333, "is_reserved": 0, "fusion_lat": 0.0, "bike_id": "966dbb1b0bd379a580c1caf84b9fb382", "type": "electric_scooter", "is_disabled": 0, "fusion_lon": 0.0}, {"rental_uris": {"android": "https://dc.lft.to/lastmile_qr_scan", "ios": "https://dc.lft.to/lastmile_qr_scan"}, "lon": -77.0688445, "name": "a8233c33a643c8001f1b9de78185538b", "lat": 38.9050105, "is_reserved": 0, "fusion_lat": 0.0, "bike_id": "a8233c33a643c8001f1b9de78185538b", "type": "electric_scooter", "is_disabled": 0, "fusion_lon": 0.0}, {"rental_uris": {"android": "https://dc.lft.to/lastmile_qr_scan", "ios": "https://dc.lft.to/lastmile_qr_scan"}, "lon": -77.05782316666667, "name": "fb20113a7fe299f742c2ecf8bc9aaafa", "lat": 38.90098966666667, "is_reserved": 0, "fusion_lat": 0.0, "bike_id": "fb20113a7fe299f742c2ecf8bc9aaafa", "type": "electric_scooter", "is_disabled": 0, "fusion_lon": 0.0}, {"rental_uris": {"android": "https://dc.lft.to/lastmile_qr_scan", "ios": "https://dc.lft.to/lastmile_qr_scan"}, "lon": -77.02471833333334, "name": "7729c4e12636c94961d0de76e129a914", "lat": 38.937097, "is_reserved": 0, "fusion_lat": 0.0, "bike_id": "7729c4e12636c94961d0de76e129a914", "type": "electric_scooter", "is_disabled": 0, "fusion_lon": 0.0}, {"rental_uris": {"android": "https://dc.lft.to/lastmile_qr_scan", "ios": "https://dc.lft.to/lastmile_qr_scan"}, "lon": -77.0386565, "name": "7e8b8a88a0757b1b3003647b04586b89", "lat": 38.915604333333334, "is_reserved": 0, "fusion_lat": 0.0, "bike_id": "7e8b8a88a0757b1b3003647b04586b89", "type": "electric_scooter", "is_disabled": 0, "fusion_lon": 0.0}, {"rental_uris": {"android": "https://dc.lft.to/lastmile_qr_scan", "ios": "https://dc.lft.to/lastmile_qr_scan"}, "lon": -77.0425565, "name": "3f21da353aa1f91e8ab8db258b4f7710", "lat": 38.9086935, "is_reserved": 0, "fusion_lat": 0.0, "bike_id": "3f21da353aa1f91e8ab8db258b4f7710", "type": "electric_scooter", "is_disabled": 0, "fusion_lon": 0.0}, {"rental_uris": {"android": "https://dc.lft.to/lastmile_qr_scan", "ios": "https://dc.lft.to/lastmile_qr_scan"}, "lon": -77.00115783333334, "name": "65cac44245313c92912b4a3ff3833e31", "lat": 38.877944666666664, "is_reserved": 0, "fusion_lat": 0.0, "bike_id": "65cac44245313c92912b4a3ff3833e31", "type": "electric_scooter", "is_disabled": 0, "fusion_lon": 0.0}, {"rental_uris": {"android": "https://dc.lft.to/lastmile_qr_scan", "ios": "https://dc.lft.to/lastmile_qr_scan"}, "lon": -77.01104483333333, "name": "0bfaf186a65899f6499630f58d2268c1", "lat": 38.895516666666666, "is_reserved": 0, "fusion_lat": 0.0, "bike_id": "0bfaf186a65899f6499630f58d2268c1", "type": "electric_scooter", "is_disabled": 0, "fusion_lon": 0.0}, {"rental_uris": {"android": "https://dc.lft.to/lastmile_qr_scan", "ios": "https://dc.lft.to/lastmile_qr_scan"}, "lon": -77.07274733333334, "name": "5984b2a895197edefad3272d1c58c3be", "lat": 38.90912183333333, "is_reserved": 0, "fusion_lat": 0.0, "bike_id": "5984b2a895197edefad3272d1c58c3be", "type": "electric_scooter", "is_disabled": 0, "fusion_lon": 0.0}, {"rental_uris": {"android": "https://dc.lft.to/lastmile_qr_scan", "ios": "https://dc.lft.to/lastmile_qr_scan"}, "lon": -77.02195883333333, "name": "cad70e3c9a27ad66f6a579e6ff0000a6", "lat": 38.930685, "is_reserved": 0, "fusion_lat": 0.0, "bike_id": "cad70e3c9a27ad66f6a579e6ff0000a6", "type": "electric_scooter", "is_disabled": 0, "fusion_lon": 0.0}, {"rental_uris": {"android": "https://dc.lft.to/lastmile_qr_scan", "ios": "https://dc.lft.to/lastmile_qr_scan"}, "lon": -77.0357315, "name": "57eedcb0bdf8a1f735204e80a8fb3dce", "lat": 38.9013415, "is_reserved": 0, "fusion_lat": 0.0, "bike_id": "57eedcb0bdf8a1f735204e80a8fb3dce", "type": "electric_scooter", "is_disabled": 0, "fusion_lon": 0.0}, {"rental_uris": {"android": "https://dc.lft.to/lastmile_qr_scan", "ios": "https://dc.lft.to/lastmile_qr_scan"}, "lon": -77.02193266666667, "name": "71bb5ad983ec5395bdc31cd493b83f4a", "lat": 38.90971116666667, "is_reserved": 0, "fusion_lat": 0.0, "bike_id": "71bb5ad983ec5395bdc31cd493b83f4a", "type": "electric_scooter", "is_disabled": 0, "fusion_lon": 0.0}, {"rental_uris": {"android": "https://dc.lft.to/lastmile_qr_scan", "ios": "https://dc.lft.to/lastmile_qr_scan"}, "lon": -77.07137216666666, "name": "244709b2e1e8b1cfe877d6b1dea94e81", "lat": 38.930039, "is_reserved": 0, "fusion_lat": 0.0, "bike_id": "244709b2e1e8b1cfe877d6b1dea94e81", "type": "electric_bike", "is_disabled": 0, "fusion_lon": 0.0}, {"rental_uris": {"android": "https://dc.lft.to/lastmile_qr_scan", "ios": "https://dc.lft.to/lastmile_qr_scan"}, "lon": -77.04735233333334, "name": "890448eca4b80eb79a03ea4b4ad0b14c", "lat": 38.89732566666667, "is_reserved": 0, "fusion_lat": 0.0, "bike_id": "890448eca4b80eb79a03ea4b4ad0b14c", "type": "electric_scooter", "is_disabled": 0, "fusion_lon": 0.0}, {"rental_uris": {"android": "https://dc.lft.to/lastmile_qr_scan", "ios": "https://dc.lft.to/lastmile_qr_scan"}, "lon": -77.08019733333333, "name": "69e5fd63fa44858f842ffcdcdc3152d0", "lat": 38.94788916666667, "is_reserved": 0, "fusion_lat": 0.0, "bike_id": "69e5fd63fa44858f842ffcdcdc3152d0", "type": "electric_scooter", "is_disabled": 0, "fusion_lon": 0.0}, {"rental_uris": {"android": "https://dc.lft.to/lastmile_qr_scan", "ios": "https://dc.lft.to/lastmile_qr_scan"}, "lon": -77.03883383333333, "name": "e80b64ea5ef93c5004e61f26939f6b12", "lat": 38.918506666666666, "is_reserved": 0, "fusion_lat": 0.0, "bike_id": "e80b64ea5ef93c5004e61f26939f6b12", "type": "electric_scooter", "is_disabled": 0, "fusion_lon": 0.0}, {"rental_uris": {"android": "https://dc.lft.to/lastmile_qr_scan", "ios": "https://dc.lft.to/lastmile_qr_scan"}, "lon": -77.02204766666667, "name": "d77e71ae417daedb4915b345cdf82963", "lat": 38.89233266666667, "is_reserved": 0, "fusion_lat": 0.0, "bike_id": "d77e71ae417daedb4915b345cdf82963", "type": "electric_scooter", "is_disabled": 0, "fusion_lon": 0.0}, {"rental_uris": {"android": "https://dc.lft.to/lastmile_qr_scan", "ios": "https://dc.lft.to/lastmile_qr_scan"}, "lon": -77.0416545, "name": "5ea5a6e2e20a74e726c888a918b0309f", "lat": 38.901373666666665, "is_reserved": 0, "fusion_lat": 0.0, "bike_id": "5ea5a6e2e20a74e726c888a918b0309f", "type": "electric_scooter", "is_disabled": 0, "fusion_lon": 0.0}, {"rental_uris": {"android": "https://dc.lft.to/lastmile_qr_scan", "ios": "https://dc.lft.to/lastmile_qr_scan"}, "lon": -77.0240405, "name": "829a0c9c8cd5beeb98e5f8434910e390", "lat": 38.94185083333333, "is_reserved": 0, "fusion_lat": 0.0, "bike_id": "829a0c9c8cd5beeb98e5f8434910e390", "type": "electric_scooter", "is_disabled": 0, "fusion_lon": 0.0}, {"rental_uris": {"android": "https://dc.lft.to/lastmile_qr_scan", "ios": "https://dc.lft.to/lastmile_qr_scan"}, "lon": -77.03864833333333, "name": "4e1992fde6ef9b26d2f889cd8563370d", "lat": 38.932656333333334, "is_reserved": 0, "fusion_lat": 0.0, "bike_id": "4e1992fde6ef9b26d2f889cd8563370d", "type": "electric_scooter", "is_disabled": 0, "fusion_lon": 0.0}, {"rental_uris": {"android": "https://dc.lft.to/lastmile_qr_scan", "ios": "https://dc.lft.to/lastmile_qr_scan"}, "lon": -76.99834866666667, "name": "6b6d19168b59419fe7a0d4f2f6421fa1", "lat": 38.90243316666667, "is_reserved": 0, "fusion_lat": 0.0, "bike_id": "6b6d19168b59419fe7a0d4f2f6421fa1", "type": "electric_scooter", "is_disabled": 0, "fusion_lon": 0.0}, {"rental_uris": {"android": "https://dc.lft.to/lastmile_qr_scan", "ios": "https://dc.lft.to/lastmile_qr_scan"}, "lon": -76.99001216666667, "name": "b41ee4634366a145dde8983999b0b4a8", "lat": 38.86504816666667, "is_reserved": 0, "fusion_lat": 0.0, "bike_id": "b41ee4634366a145dde8983999b0b4a8", "type": "electric_scooter", "is_disabled": 0, "fusion_lon": 0.0}, {"rental_uris": {"android": "https://dc.lft.to/lastmile_qr_scan", "ios": "https://dc.lft.to/lastmile_qr_scan"}, "lon": -77.03278483333334, "name": "f944c90b4bd4a013b7fd2dab4aaad20b", "lat": 38.8987205, "is_reserved": 0, "fusion_lat": 0.0, "bike_id": "f944c90b4bd4a013b7fd2dab4aaad20b", "type": "electric_scooter", "is_disabled": 0, "fusion_lon": 0.0}, {"rental_uris": {"android": "https://dc.lft.to/lastmile_qr_scan", "ios": "https://dc.lft.to/lastmile_qr_scan"}, "lon": -77.04868683333333, "name": "5d2cbc6d08e47e8291365091241eb89d", "lat": 38.913077, "is_reserved": 0, "fusion_lat": 0.0, "bike_id": "5d2cbc6d08e47e8291365091241eb89d", "type": "electric_scooter", "is_disabled": 0, "fusion_lon": 0.0}, {"rental_uris": {"android": "https://dc.lft.to/lastmile_qr_scan", "ios": "https://dc.lft.to/lastmile_qr_scan"}, "lon": -77.01562383333334, "name": "4c8422a98709354ed86d2e9a0310be19", "lat": 38.9140355, "is_reserved": 0, "fusion_lat": 0.0, "bike_id": "4c8422a98709354ed86d2e9a0310be19", "type": "electric_scooter", "is_disabled": 0, "fusion_lon": 0.0}, {"rental_uris": {"android": "https://dc.lft.to/lastmile_qr_scan", "ios": "https://dc.lft.to/lastmile_qr_scan"}, "lon": -77.0759835, "name": "91e8e0be784afb02ef0bf9d889c89538", "lat": 38.941076, "is_reserved": 0, "fusion_lat": 0.0, "bike_id": "91e8e0be784afb02ef0bf9d889c89538", "type": "electric_scooter", "is_disabled": 0, "fusion_lon": 0.0}, {"rental_uris": {"android": "https://dc.lft.to/lastmile_qr_scan", "ios": "https://dc.lft.to/lastmile_qr_scan"}, "lon": -77.04668716666667, "name": "7cb482abd92e4888dc6b7529dd7d16e6", "lat": 38.9078135, "is_reserved": 0, "fusion_lat": 0.0, "bike_id": "7cb482abd92e4888dc6b7529dd7d16e6", "type": "electric_scooter", "is_disabled": 0, "fusion_lon": 0.0}, {"rental_uris": {"android": "https://dc.lft.to/lastmile_qr_scan", "ios": "https://dc.lft.to/lastmile_qr_scan"}, "lon": -77.03750816666667, "name": "f8a5c10f6970e89105cfb944e81f64fb", "lat": 38.90769916666667, "is_reserved": 0, "fusion_lat": 0.0, "bike_id": "f8a5c10f6970e89105cfb944e81f64fb", "type": "electric_scooter", "is_disabled": 0, "fusion_lon": 0.0}, {"rental_uris": {"android": "https://dc.lft.to/lastmile_qr_scan", "ios": "https://dc.lft.to/lastmile_qr_scan"}, "lon": -77.039515, "name": "319449bf111945008176cb22efc12fff", "lat": 38.9261235, "is_reserved": 0, "fusion_lat": 0.0, "bike_id": "319449bf111945008176cb22efc12fff", "type": "electric_scooter", "is_disabled": 0, "fusion_lon": 0.0}, {"rental_uris": {"android": "https://dc.lft.to/lastmile_qr_scan", "ios": "https://dc.lft.to/lastmile_qr_scan"}, "lon": -76.98820366666666, "name": "67b7c87e48c5560ba8d412ac989e77b0", "lat": 38.89083266666667, "is_reserved": 0, "fusion_lat": 0.0, "bike_id": "67b7c87e48c5560ba8d412ac989e77b0", "type": "electric_scooter", "is_disabled": 0, "fusion_lon": 0.0}, {"rental_uris": {"android": "https://dc.lft.to/lastmile_qr_scan", "ios": "https://dc.lft.to/lastmile_qr_scan"}, "lon": -77.04302083333333, "name": "800411c93781775ce1127196c26a7bf8", "lat": 38.93176016666666, "is_reserved": 0, "fusion_lat": 0.0, "bike_id": "800411c93781775ce1127196c26a7bf8", "type": "electric_scooter", "is_disabled": 0, "fusion_lon": 0.0}, {"rental_uris": {"android": "https://dc.lft.to/lastmile_qr_scan", "ios": "https://dc.lft.to/lastmile_qr_scan"}, "lon": -77.0154125, "name": "70271ad99738e72de853bc4eac81b82f", "lat": 38.9412905, "is_reserved": 0, "fusion_lat": 0.0, "bike_id": "70271ad99738e72de853bc4eac81b82f", "type": "electric_scooter", "is_disabled": 0, "fusion_lon": 0.0}, {"rental_uris": {"android": "https://dc.lft.to/lastmile_qr_scan", "ios": "https://dc.lft.to/lastmile_qr_scan"}, "lon": -76.9820705, "name": "ed562c4ed37f40fbe2bd89af90330c03", "lat": 38.9020025, "is_reserved": 0, "fusion_lat": 0.0, "bike_id": "ed562c4ed37f40fbe2bd89af90330c03", "type": "electric_scooter", "is_disabled": 0, "fusion_lon": 0.0}, {"rental_uris": {"android": "https://dc.lft.to/lastmile_qr_scan", "ios": "https://dc.lft.to/lastmile_qr_scan"},