{"data": {"bikes": [{"rental_uris": {"ios": "https://dc.lft.to/lastmile_qr_scan", "android": "https://dc.lft.to/lastmile_qr_scan"}, "type": "electric_scooter", "name": "12913903784365f366992f0d3081e88a", "is_reserved": 0, "lon": -77.04043716666666, "is_disabled": 0, "fusion_lat": 0.0, "lat": 38.93011666666666, "bike_id": "12913903784365f366992f0d3081e88a", "fusion_lon": 0.0}, {"rental_uris": {"ios": "https://dc.lft.to/lastmile_qr_scan", "android": "https://dc.lft.to/lastmile_qr_scan"}, "type": "electric_scooter", "name": "3b363c09166973fa7aa18c10607e9e2e", "is_reserved": 0, "lon": -77.00432716666667, "is_disabled": 0, "fusion_lat": 0.0, "lat": 38.885114333333334, "bike_id": "3b363c09166973fa7aa18c10607e9e2e", "fusion_lon": 0.0}, {"rental_uris": {"ios": "https://dc.lft.to/lastmile_qr_scan", "android": "https://dc.lft.to/lastmile_qr_scan"}, "type": "electric_scooter", "name": "4d4507a12be21e7fd2e5b4a80e75b401", "is_reserved": 0, "lon": -77.0227975, "is_disabled": 0, "fusion_lat": 0.0, "lat": 38.924751, "bike_id": "4d4507a12be21e7fd2e5b4a80e75b401", "fusion_lon": 0.0}, {"rental_uris": {"ios": "https://dc.lft.to/lastmile_qr_scan", "android": "https://dc.lft.to/lastmile_qr_scan"}, "type": "electric_scooter", "name": "93b108133d4bde915fed7764a45121c8", "is_reserved": 0, "lon": -77.037817, "is_disabled": 0, "fusion_lat": 0.0, "lat": 38.915676833333336, "bike_id": "93b108133d4bde915fed7764a45121c8", "fusion_lon": 0.0}, {"rental_uris": {"ios": "https://dc.lft.to/lastmile_qr_scan", "android": "https://dc.lft.to/lastmile_qr_scan"}, "type": "electric_scooter", "name": "d49c1e006a52e5f7f767eae749045966", "is_reserved": 0, "lon": -77.02306033333333, "is_disabled": 0, "fusion_lat": 0.0, "lat": 38.96125966666666, "bike_id": "d49c1e006a52e5f7f767eae749045966", "fusion_lon": 0.0}, {"rental_uris": {"ios": "https://dc.lft.to/lastmile_qr_scan", "android": "https://dc.lft.to/lastmile_qr_scan"}, "type": "electric_scooter", "name": "e8af493c792094dadf168b9fcca0dff2", "is_reserved": 0, "lon": -77.04420066666667, "is_disabled": 0, "fusion_lat": 0.0, "lat": 38.89741633333333, "bike_id": "e8af493c792094dadf168b9fcca0dff2", "fusion_lon": 0.0}, {"rental_uris": {"ios": "https://dc.lft.to/lastmile_qr_scan", "android": "https://dc.lft.to/lastmile_qr_scan"}, "type": "electric_scooter", "name": "a9c5e2c33428f37da11a91e47102b60f", "is_reserved": 0, "lon": -77.01868366666666, "is_disabled": 0, "fusion_lat": 0.0, "lat": 38.9514715, "bike_id": "a9c5e2c33428f37da11a91e47102b60f", "fusion_lon": 0.0}, {"rental_uris": {"ios": "https://dc.lft.to/lastmile_qr_scan", "android": "https://dc.lft.to/lastmile_qr_scan"}, "type": "electric_scooter", "name": "8fd2eaebb15cc67fc92971444b3cef3d", "is_reserved": 0, "lon": -76.994415, "is_disabled": 0, "fusion_lat": 0.0, "lat": 38.95923533333333, "bike_id": "8fd2eaebb15cc67fc92971444b3cef3d", "fusion_lon": 0.0}, {"rental_uris": {"ios": "https://dc.lft.to/lastmile_qr_scan", "android": "https://dc.lft.to/lastmile_qr_scan"}, "type": "electric_scooter", "name": "2090c228cfe257218218ccdd7952d8f3", "is_reserved": 0, "lon": -76.97204533333333, "is_disabled": 0, "fusion_lat": 0.0, "lat": 38.92456116666666, "bike_id": "2090c228cfe257218218ccdd7952d8f3", "fusion_lon": 0.0}, {"rental_uris": {"ios": "https://dc.lft.to/lastmile_qr_scan", "android": "https://dc.lft.to/lastmile_qr_scan"}, "type": "electric_scooter", "name": "3db3f658dddbba897d7435e1a99e2156", "is_reserved": 0, "lon": -77.01974216666666, "is_disabled": 0, "fusion_lat": 0.0, "lat": 38.90158516666666, "bike_id": "3db3f658dddbba897d7435e1a99e2156", "fusion_lon": 0.0}, {"rental_uris": {"ios": "https://dc.lft.to/lastmile_qr_scan", "android": "https://dc.lft.to/lastmile_qr_scan"}, "type": "electric_scooter", "name": "adc52e5bb8ec8ca22f46ede06bb77640", "is_reserved": 0, "lon": -77.02587, "is_disabled": 0, "fusion_lat": 0.0, "lat": 38.9204125, "bike_id": "adc52e5bb8ec8ca22f46ede06bb77640", "fusion_lon": 0.0}, {"rental_uris": {"ios": "https://dc.lft.to/lastmile_qr_scan", "android": "https://dc.lft.to/lastmile_qr_scan"}, "type": "electric_scooter", "name": "7c4e3f10d61b637b59534d1fbf453075", "is_reserved": 0, "lon": -77.06546683333333, "is_disabled": 0, "fusion_lat": 0.0, "lat": 38.9050305, "bike_id": "7c4e3f10d61b637b59534d1fbf453075", "fusion_lon": 0.0}, {"rental_uris": {"ios": "https://dc.lft.to/lastmile_qr_scan", "android": "https://dc.lft.to/lastmile_qr_scan"}, "type": "electric_scooter", "name": "304ab0ded7ee3c5857f7d9082a58fa6f", "is_reserved": 0, "lon": -77.0502065, "is_disabled": 0, "fusion_lat": 0.0, "lat": 38.910548666666664, "bike_id": "304ab0ded7ee3c5857f7d9082a58fa6f", "fusion_lon": 0.0}, {"rental_uris": {"ios": "https://dc.lft.to/lastmile_qr_scan", "android": "https://dc.lft.to/lastmile_qr_scan"}, "type": "electric_scooter", "name": "e53862a272b5673610f0aa4438099a86", "is_reserved": 0, "lon": -77.01748383333333, "is_disabled": 0, "fusion_lat": 0.0, "lat": 38.88323033333333, "bike_id": "e53862a272b5673610f0aa4438099a86", "fusion_lon": 0.0}, {"rental_uris": {"ios": "https://dc.lft.to/lastmile_qr_scan", "android": "https://dc.lft.to/lastmile_qr_scan"}, "type": "electric_scooter", "name": "83c1fa69c628747289a0d0da3312694a", "is_reserved": 0, "lon": -76.92651466666666, "is_disabled": 0, "fusion_lat": 0.0, "lat": 38.883826166666665, "bike_id": "83c1fa69c628747289a0d0da3312694a", "fusion_lon": 0.0}, {"rental_uris": {"ios": "https://dc.lft.to/lastmile_qr_scan", "android": "https://dc.lft.to/lastmile_qr_scan"}, "type": "electric_scooter", "name": "72c1a26281c54821cbc08ba406605958", "is_reserved": 0, "lon": -77.01976666666667, "is_disabled": 0, "fusion_lat": 0.0, "lat": 38.95205133333333, "bike_id": "72c1a26281c54821cbc08ba406605958", "fusion_lon": 0.0}, {"rental_uris": {"ios": "https://dc.lft.to/lastmile_qr_scan", "android": "https://dc.lft.to/lastmile_qr_scan"}, "type": "electric_scooter", "name": "285e1d5150f3d0e7829a1144b3637f8d", "is_reserved": 0, "lon": -77.04672416666666, "is_disabled": 0, "fusion_lat": 0.0, "lat": 38.892333, "bike_id": "285e1d5150f3d0e7829a1144b3637f8d", "fusion_lon": 0.0}, {"rental_uris": {"ios": "https://dc.lft.to/lastmile_qr_scan", "android": "https://dc.lft.to/lastmile_qr_scan"}, "type": "electric_scooter", "name": "692f972e45dd61c33ed40f0af27bdec5", "is_reserved": 0, "lon": -77.01996733333333, "is_disabled": 0, "fusion_lat": 0.0, "lat": 38.90046433333333, "bike_id": "692f972e45dd61c33ed40f0af27bdec5", "fusion_lon": 0.0}, {"rental_uris": {"ios": "https://dc.lft.to/lastmile_qr_scan", "android": "https://dc.lft.to/lastmile_qr_scan"}, "type": "electric_scooter", "name": "b5cede339aead1ffa7686dc3f0f4bd3f", "is_reserved": 0, "lon": -77.0160615, "is_disabled": 0, "fusion_lat": 0.0, "lat": 38.89958083333333, "bike_id": "b5cede339aead1ffa7686dc3f0f4bd3f", "fusion_lon": 0.0}, {"rental_uris": {"ios": "https://dc.lft.to/lastmile_qr_scan", "android": "https://dc.lft.to/lastmile_qr_scan"}, "type": "electric_scooter", "name": "05dc12574448f5d61e178219bd989083", "is_reserved": 0, "lon": -76.9803165, "is_disabled": 0, "fusion_lat": 0.0, "lat": 38.916832166666666, "bike_id": "05dc12574448f5d61e178219bd989083", "fusion_lon": 0.0}, {"rental_uris": {"ios": "https://dc.lft.to/lastmile_qr_scan", "android": "https://dc.lft.to/lastmile_qr_scan"}, "type": "electric_scooter", "name": "03c16cd51fefa4b21d708524f7e08b46", "is_reserved": 0, "lon": -77.04873716666667, "is_disabled": 0, "fusion_lat": 0.0, "lat": 38.9133315, "bike_id": "03c16cd51fefa4b21d708524f7e08b46", "fusion_lon": 0.0}, {"rental_uris": {"ios": "https://dc.lft.to/lastmile_qr_scan", "android": "https://dc.lft.to/lastmile_qr_scan"}, "type": "electric_scooter", "name": "0d529a487e1331292453a9c178856f47", "is_reserved": 0, "lon": -77.046068, "is_disabled": 0, "fusion_lat": 0.0, "lat": 38.914914, "bike_id": "0d529a487e1331292453a9c178856f47", "fusion_lon": 0.0}, {"rental_uris": {"ios": "https://dc.lft.to/lastmile_qr_scan", "android": "https://dc.lft.to/lastmile_qr_scan"}, "type": "electric_scooter", "name": "37535e6672b0016772b32e09786b4541", "is_reserved": 0, "lon": -77.00316866666667, "is_disabled": 0, "fusion_lat": 0.0, "lat": 38.918999, "bike_id": "37535e6672b0016772b32e09786b4541", "fusion_lon": 0.0}, {"rental_uris": {"ios": "https://dc.lft.to/lastmile_qr_scan", "android": "https://dc.lft.to/lastmile_qr_scan"}, "type": "electric_scooter", "name": "9dccc1a1ead8ecf7444d14833b2bd912", "is_reserved": 0, "lon": -77.02722066666666, "is_disabled": 0, "fusion_lat": 0.0, "lat": 38.89716633333333, "bike_id": "9dccc1a1ead8ecf7444d14833b2bd912", "fusion_lon": 0.0}, {"rental_uris": {"ios": "https://dc.lft.to/lastmile_qr_scan", "android": "https://dc.lft.to/lastmile_qr_scan"}, "type": "electric_bike", "name": "2f8016d4a7e8747dc573011494e5a03c", "is_reserved": 0, "lon": -76.94162883333334, "is_disabled": 0, "fusion_lat": 0.0, "lat": 38.865527, "bike_id": "2f8016d4a7e8747dc573011494e5a03c", "fusion_lon": 0.0}, {"rental_uris": {"ios": "https://dc.lft.to/lastmile_qr_scan", "android": "https://dc.lft.to/lastmile_qr_scan"}, "type": "electric_scooter", "name": "bf2db3f9f614187c93b90157739db1a1", "is_reserved": 0, "lon": -77.00216483333334, "is_disabled": 0, "fusion_lat": 0.0, "lat": 38.90035783333333, "bike_id": "bf2db3f9f614187c93b90157739db1a1", "fusion_lon": 0.0}, {"rental_uris": {"ios": "https://dc.lft.to/lastmile_qr_scan", "android": "https://dc.lft.to/lastmile_qr_scan"}, "type": "electric_scooter", "name": "b477cb29777baf3e688e5a7b2ae32103", "is_reserved": 0, "lon": -77.0395685, "is_disabled": 0, "fusion_lat": 0.0, "lat": 38.892509, "bike_id": "b477cb29777baf3e688e5a7b2ae32103", "fusion_lon": 0.0}, {"rental_uris": {"ios": "https://dc.lft.to/lastmile_qr_scan", "android": "https://dc.lft.to/lastmile_qr_scan"}, "type": "electric_scooter", "name": "4307f50b6d8020a9f596a905ee7de68a", "is_reserved": 0, "lon": -77.04965816666666, "is_disabled": 0, "fusion_lat": 0.0, "lat": 38.9132505, "bike_id": "4307f50b6d8020a9f596a905ee7de68a", "fusion_lon": 0.0}, {"rental_uris": {"ios": "https://dc.lft.to/lastmile_qr_scan", "android": "https://dc.lft.to/lastmile_qr_scan"}, "type": "electric_scooter", "name": "83999d0a49f699d9cf7f59baa3d31390", "is_reserved": 0, "lon": -77.04113983333333, "is_disabled": 0, "fusion_lat": 0.0, "lat": 38.9346735, "bike_id": "83999d0a49f699d9cf7f59baa3d31390", "fusion_lon": 0.0}, {"rental_uris": {"ios": "https://dc.lft.to/lastmile_qr_scan", "android": "https://dc.lft.to/lastmile_qr_scan"}, "type": "electric_scooter", "name": "08373094049d7c24113a789eae1f21e6", "is_reserved": 0, "lon": -77.043568, "is_disabled": 0, "fusion_lat": 0.0, "lat": 38.926730166666665, "bike_id": "08373094049d7c24113a789eae1f21e6", "fusion_lon": 0.0}, {"rental_uris": {"ios": "https://dc.lft.to/lastmile_qr_scan", "android": "https://dc.lft.to/lastmile_qr_scan"}, "type": "electric_bike", "name": "ed0d5ebe8215cc03f888a701d267a9ea", "is_reserved": 0, "lon": -76.917227, "is_disabled": 0, "fusion_lat": 0.0, "lat": 38.8802535, "bike_id": "ed0d5ebe8215cc03f888a701d267a9ea", "fusion_lon": 0.0}, {"rental_uris": {"ios": "https://dc.lft.to/lastmile_qr_scan", "android": "https://dc.lft.to/lastmile_qr_scan"}, "type": "electric_scooter", "name": "f9cf465064f5e476fff406bb79311863", "is_reserved": 0, "lon": -77.0072395, "is_disabled": 0, "fusion_lat": 0.0, "lat": 38.9050805, "bike_id": "f9cf465064f5e476fff406bb79311863", "fusion_lon": 0.0}, {"rental_uris": {"ios": "https://dc.lft.to/lastmile_qr_scan", "android": "https://dc.lft.to/lastmile_qr_scan"}, "type": "electric_scooter", "name": "cd7a5115b206064b8f626a3896d32a9b", "is_reserved": 0, "lon": -76.9806555, "is_disabled": 0, "fusion_lat": 0.0, "lat": 38.90182566666667, "bike_id": "cd7a5115b206064b8f626a3896d32a9b", "fusion_lon": 0.0}, {"rental_uris": {"ios": "https://dc.lft.to/lastmile_qr_scan", "android": "https://dc.lft.to/lastmile_qr_scan"}, "type": "electric_scooter", "name": "29ec842cc08ac15cdfa9263cf8efc796", "is_reserved": 0, "lon": -77.02373116666666, "is_disabled": 0, "fusion_lat": 0.0, "lat": 38.91678233333333, "bike_id": "29ec842cc08ac15cdfa9263cf8efc796", "fusion_lon": 0.0}, {"rental_uris": {"ios": "https://dc.lft.to/lastmile_qr_scan", "android": "https://dc.lft.to/lastmile_qr_scan"}, "type": "electric_scooter", "name": "c9242bd29eb4bf58e95bdeb3a8dc23c9", "is_reserved": 0, "lon": -77.03254066666666, "is_disabled": 0, "fusion_lat": 0.0, "lat": 38.9199085, "bike_id": "c9242bd29eb4bf58e95bdeb3a8dc23c9", "fusion_lon": 0.0}, {"rental_uris": {"ios": "https://dc.lft.to/lastmile_qr_scan", "android": "https://dc.lft.to/lastmile_qr_scan"}, "type": "electric_scooter", "name": "d585698d1371de0a56adfae545613b49", "is_reserved": 0, "lon": -77.04123416666667, "is_disabled": 0, "fusion_lat": 0.0, "lat": 38.933578, "bike_id": "d585698d1371de0a56adfae545613b49", "fusion_lon": 0.0}, {"rental_uris": {"ios": "https://dc.lft.to/lastmile_qr_scan", "android": "https://dc.lft.to/lastmile_qr_scan"}, "type": "electric_scooter", "name": "5e841c267808c903235165ea02e1f68b", "is_reserved": 0, "lon": -77.03862883333333, "is_disabled": 0, "fusion_lat": 0.0, "lat": 38.91180766666667, "bike_id": "5e841c267808c903235165ea02e1f68b", "fusion_lon": 0.0}, {"rental_uris": {"ios": "https://dc.lft.to/lastmile_qr_scan", "android": "https://dc.lft.to/lastmile_qr_scan"}, "type": "electric_scooter", "name": "57089068747010b5a2223c435863a3e1", "is_reserved": 0, "lon": -77.02083583333334, "is_disabled": 0, "fusion_lat": 0.0, "lat": 38.92703766666666, "bike_id": "57089068747010b5a2223c435863a3e1", "fusion_lon": 0.0}, {"rental_uris": {"ios": "https://dc.lft.to/lastmile_qr_scan", "android": "https://dc.lft.to/lastmile_qr_scan"}, "type": "electric_scooter", "name": "9796448cd22e3e34809a5e323e365d54", "is_reserved": 0, "lon": -76.94073, "is_disabled": 0, "fusion_lat": 0.0, "lat": 38.88582133333333, "bike_id": "9796448cd22e3e34809a5e323e365d54", "fusion_lon": 0.0}, {"rental_uris": {"ios": "https://dc.lft.to/lastmile_qr_scan", "android": "https://dc.lft.to/lastmile_qr_scan"}, "type": "electric_scooter", "name": "564064a80db6608ac9c07fd32c81bc56", "is_reserved": 0, "lon": -77.032619, "is_disabled": 0, "fusion_lat": 0.0, "lat": 38.932375, "bike_id": "564064a80db6608ac9c07fd32c81bc56", "fusion_lon": 0.0}, {"rental_uris": {"ios": "https://dc.lft.to/lastmile_qr_scan", "android": "https://dc.lft.to/lastmile_qr_scan"}, "type": "electric_scooter", "name": "02a8a7a86353a913832d3eaa22fb0c89", "is_reserved": 0, "lon": -77.025472, "is_disabled": 0, "fusion_lat": 0.0, "lat": 38.9516765, "bike_id": "02a8a7a86353a913832d3eaa22fb0c89", "fusion_lon": 0.0}, {"rental_uris": {"ios": "https://dc.lft.to/lastmile_qr_scan", "android": "https://dc.lft.to/lastmile_qr_scan"}, "type": "electric_scooter", "name": "45a7abaec8e814a658a83b7611d0a4eb", "is_reserved": 0, "lon": -76.95295083333333, "is_disabled": 0, "fusion_lat": 0.0, "lat": 38.88516933333333, "bike_id": "45a7abaec8e814a658a83b7611d0a4eb", "fusion_lon": 0.0}, {"rental_uris": {"ios": "https://dc.lft.to/lastmile_qr_scan", "android": "https://dc.lft.to/lastmile_qr_scan"}, "type": "electric_scooter", "name": "1934336442df67a5300ace246bc6d7ea", "is_reserved": 0, "lon": -77.01946683333334, "is_disabled": 0, "fusion_lat": 0.0, "lat": 38.92417833333333, "bike_id": "1934336442df67a5300ace246bc6d7ea", "fusion_lon": 0.0}, {"rental_uris": {"ios": "https://dc.lft.to/lastmile_qr_scan", "android": "https://dc.lft.to/lastmile_qr_scan"}, "type": "electric_scooter", "name": "d4ec50f8bfa02ed7ef119543c64aa6a0", "is_reserved": 0, "lon": -76.99508733333333, "is_disabled": 0, "fusion_lat": 0.0, "lat": 38.90977683333333, "bike_id": "d4ec50f8bfa02ed7ef119543c64aa6a0", "fusion_lon": 0.0}, {"rental_uris": {"ios": "https://dc.lft.to/lastmile_qr_scan", "android": "https://dc.lft.to/lastmile_qr_scan"}, "type": "electric_scooter", "name": "12b2ac4a139ad6d71e79281e654cdda6", "is_reserved": 0, "lon": -77.01749633333333, "is_disabled": 0, "fusion_lat": 0.0, "lat": 38.9026865, "bike_id": "12b2ac4a139ad6d71e79281e654cdda6", "fusion_lon": 0.0}, {"rental_uris": {"ios": "https://dc.lft.to/lastmile_qr_scan", "android": "https://dc.lft.to/lastmile_qr_scan"}, "type": "electric_scooter", "name": "9ec160743723c10d4400c77a9c089c16", "is_reserved": 0, "lon": -77.00594633333333, "is_disabled": 0, "fusion_lat": 0.0, "lat": 38.87964733333333, "bike_id": "9ec160743723c10d4400c77a9c089c16", "fusion_lon": 0.0}, {"rental_uris": {"ios": "https://dc.lft.to/lastmile_qr_scan", "android": "https://dc.lft.to/lastmile_qr_scan"}, "type": "electric_scooter", "name": "2cfa461ba6fdd69e6f098212ec35fbd9", "is_reserved": 0, "lon": -77.04443033333334, "is_disabled": 0, "fusion_lat": 0.0, "lat": 38.9185815, "bike_id": "2cfa461ba6fdd69e6f098212ec35fbd9", "fusion_lon": 0.0}, {"rental_uris": {"ios": "https://dc.lft.to/lastmile_qr_scan", "android": "https://dc.lft.to/lastmile_qr_scan"}, "type": "electric_bike", "name": "22e4de7bb80f4df03c6300b383944fb0", "is_reserved": 0, "lon": -77.020567, "is_disabled": 0, "fusion_lat": 0.0, "lat": 38.9283345, "bike_id": "22e4de7bb80f4df03c6300b383944fb0", "fusion_lon": 0.0}, {"rental_uris": {"ios": "https://dc.lft.to/lastmile_qr_scan", "android": "https://dc.lft.to/lastmile_qr_scan"}, "type": "electric_scooter", "name": "8a30b4a06ed932746cd7366f08918e84", "is_reserved": 0, "lon": -77.03246633333333, "is_disabled": 0, "fusion_lat": 0.0, "lat": 38.91994233333333, "bike_id": "8a30b4a06ed932746cd7366f08918e84", "fusion_lon": 0.0}, {"rental_uris": {"ios": "https://dc.lft.to/lastmile_qr_scan", "android": "https://dc.lft.to/lastmile_qr_scan"}, "type": "electric_scooter", "name": "49a31612ee169b52beb526d67a32ea32", "is_reserved": 0, "lon": -77.0403965, "is_disabled": 0, "fusion_lat": 0.0, "lat": 38.93004916666667, "bike_id": "49a31612ee169b52beb526d67a32ea32", "fusion_lon": 0.0}, {"rental_uris": {"ios": "https://dc.lft.to/lastmile_qr_scan", "android": "https://dc.lft.to/lastmile_qr_scan"}, "type": "electric_scooter", "name": "abe75cab3d8e59fed8663e32839f651e", "is_reserved": 0, "lon": -76.9950705, "is_disabled": 0, "fusion_lat": 0.0, "lat": 38.90328266666667, "bike_id": "abe75cab3d8e59fed8663e32839f651e", "fusion_lon": 0.0}, {"rental_uris": {"ios": "https://dc.lft.to/lastmile_qr_scan", "android": "https://dc.lft.to/lastmile_qr_scan"}, "type": "electric_scooter", "name": "ee34c263e969dccfd8979e87540b4d95", "is_reserved": 0, "lon": -77.04502516666666, "is_disabled": 0, "fusion_lat": 0.0, "lat": 38.914114833333336, "bike_id": "ee34c263e969dccfd8979e87540b4d95", "fusion_lon": 0.0}, {"rental_uris": {"ios": "https://dc.lft.to/lastmile_qr_scan", "android": "https://dc.lft.to/lastmile_qr_scan"}, "type": "electric_scooter", "name": "8d34233f60070c58d6febaa7486a63ee", "is_reserved": 0, "lon": -77.05324583333334, "is_disabled": 0, "fusion_lat": 0.0, "lat": 38.90456066666667, "bike_id": "8d34233f60070c58d6febaa7486a63ee", "fusion_lon": 0.0}, {"rental_uris": {"ios": "https://dc.lft.to/lastmile_qr_scan", "android": "https://dc.lft.to/lastmile_qr_scan"}, "type": "electric_scooter", "name": "d3f99873213cf86925f189fec03379d6", "is_reserved": 0, "lon": -77.041475, "is_disabled": 0, "fusion_lat": 0.0, "lat": 38.90550783333333, "bike_id": "d3f99873213cf86925f189fec03379d6", "fusion_lon": 0.0}, {"rental_uris": {"ios": "https://dc.lft.to/lastmile_qr_scan", "android": "https://dc.lft.to/lastmile_qr_scan"}, "type": "electric_scooter", "name": "5e89658bd731bf2328f764783174932c", "is_reserved": 0, "lon": -77.025461, "is_disabled": 0, "fusion_lat": 0.0, "lat": 38.95168, "bike_id": "5e89658bd731bf2328f764783174932c", "fusion_lon": 0.0}, {"rental_uris": {"ios": "https://dc.lft.to/lastmile_qr_scan", "android": "https://dc.lft.to/lastmile_qr_scan"}, "type": "electric_scooter", "name": "f67ef7dffb8992cdb64586fff589ebae", "is_reserved": 0, "lon": -77.0144245, "is_disabled": 0, "fusion_lat": 0.0, "lat": 38.912518666666664, "bike_id": "f67ef7dffb8992cdb64586fff589ebae", "fusion_lon": 0.0}, {"rental_uris": {"ios": "https://dc.lft.to/lastmile_qr_scan", "android": "https://dc.lft.to/lastmile_qr_scan"}, "type": "electric_scooter", "name": "324aa57bdad7d94ba94569e5915b1459", "is_reserved": 0, "lon": -77.0346125, "is_disabled": 0, "fusion_lat": 0.0, "lat": 38.907185166666665, "bike_id": "324aa57bdad7d94ba94569e5915b1459", "fusion_lon": 0.0}, {"rental_uris": {"ios": "https://dc.lft.to/lastmile_qr_scan", "android": "https://dc.lft.to/lastmile_qr_scan"}, "type": "electric_scooter", "name": "b4e85ab85a55fcce717c49d258ee0552", "is_reserved": 0, "lon": -77.0486995, "is_disabled": 0, "fusion_lat": 0.0, "lat": 38.910231333333336, "bike_id": "b4e85ab85a55fcce717c49d258ee0552", "fusion_lon": 0.0}, {"rental_uris": {"ios": "https://dc.lft.to/lastmile_qr_scan", "android": "https://dc.lft.to/lastmile_qr_scan"}, "type": "electric_scooter", "name": "0d141b72975d41eb7c12ae1884769f60", "is_reserved": 0, "lon": -77.0228475, "is_disabled": 0, "fusion_lat": 0.0, "lat": 38.91686516666667, "bike_id": "0d141b72975d41eb7c12ae1884769f60", "fusion_lon": 0.0}, {"rental_uris": {"ios": "https://dc.lft.to/lastmile_qr_scan", "android": "https://dc.lft.to/lastmile_qr_scan"}, "type": "electric_scooter", "name": "a019ff810cf7e3f656fa4c0d4771f602", "is_reserved": 0, "lon": -77.02218116666667, "is_disabled": 0, "fusion_lat": 0.0, "lat": 38.9247125, "bike_id": "a019ff810cf7e3f656fa4c0d4771f602", "fusion_lon": 0.0}, {"rental_uris": {"ios": "https://dc.lft.to/lastmile_qr_scan", "android": "https://dc.lft.to/lastmile_qr_scan"}, "type": "electric_scooter", "name": "417533b3a0f2efa7720f42546ccc3126", "is_reserved": 0, "lon": -76.997918, "is_disabled": 0, "fusion_lat": 0.0, "lat": 38.876293, "bike_id": "417533b3a0f2efa7720f42546ccc3126", "fusion_lon": 0.0}, {"rental_uris": {"ios": "https://dc.lft.to/lastmile_qr_scan", "android": "https://dc.lft.to/lastmile_qr_scan"}, "type": "electric_scooter", "name": "409e0f31ce7ab3cfc40746a3f32d678c", "is_reserved": 0, "lon": -77.02505066666667, "is_disabled": 0, "fusion_lat": 0.0, "lat": 38.92072316666667, "bike_id": "409e0f31ce7ab3cfc40746a3f32d678c", "fusion_lon": 0.0}, {"rental_uris": {"ios": "https://dc.lft.to/lastmile_qr_scan", "android": "https://dc.lft.to/lastmile_qr_scan"}, "type": "electric_bike", "name": "18e4dd74db438f07aaa8df557de825f3", "is_reserved": 0, "lon": -76.95792266666666, "is_disabled": 0, "fusion_lat": 0.0, "lat": 38.98049433333333, "bike_id": "18e4dd74db438f07aaa8df557de825f3", "fusion_lon": 0.0}, {"rental_uris": {"ios": "https://dc.lft.to/lastmile_qr_scan", "android": "https://dc.lft.to/lastmile_qr_scan"}, "type": "electric_scooter", "name": "a30597e0943e7ec85a4b06ba3f73923f", "is_reserved": 0, "lon": -77.03210333333334, "is_disabled": 0, "fusion_lat": 0.0, "lat": 38.9086535, "bike_id": "a30597e0943e7ec85a4b06ba3f73923f", "fusion_lon": 0.0}, {"rental_uris": {"ios": "https://dc.lft.to/lastmile_qr_scan", "android": "https://dc.lft.to/lastmile_qr_scan"}, "type": "electric_scooter", "name": "0bef0944d605aa6dc9df9231470c5c95", "is_reserved": 0, "lon": -77.077698, "is_disabled": 0, "fusion_lat": 0.0, "lat": 38.92560233333333, "bike_id": "0bef0944d605aa6dc9df9231470c5c95", "fusion_lon": 0.0}, {"rental_uris": {"ios": "https://dc.lft.to/lastmile_qr_scan", "android": "https://dc.lft.to/lastmile_qr_scan"}, "type": "electric_scooter", "name": "e8d3a002e7eb802067f66915774722d9", "is_reserved": 0, "lon": -77.026008, "is_disabled": 0, "fusion_lat": 0.0, "lat": 38.903004333333335, "bike_id": "e8d3a002e7eb802067f66915774722d9", "fusion_lon": 0.0}, {"rental_uris": {"ios": "https://dc.lft.to/lastmile_qr_scan", "android": "https://dc.lft.to/lastmile_qr_scan"}, "type": "electric_scooter", "name": "a5f641b31f37f8cdeff944257ec66e93", "is_reserved": 0, "lon": -77.04181033333333, "is_disabled": 0, "fusion_lat": 0.0, "lat": 38.920534, "bike_id": "a5f641b31f37f8cdeff944257ec66e93", "fusion_lon": 0.0}, {"rental_uris": {"ios": "https://dc.lft.to/lastmile_qr_scan", "android": "https://dc.lft.to/lastmile_qr_scan"}, "type": "electric_scooter", "name": "8d944136b8d329b8c28738f20fd61034", "is_reserved": 0, "lon": -76.97568266666667, "is_disabled": 0, "fusion_lat": 0.0, "lat": 38.9442375, "bike_id": "8d944136b8d329b8c28738f20fd61034", "fusion_lon": 0.0}, {"rental_uris": {"ios": "https://dc.lft.to/lastmile_qr_scan", "android": "https://dc.lft.to/lastmile_qr_scan"}, "type": "electric_bike", "name": "39b3f096d5c44556053978366479f159", "is_reserved": 0, "lon": -77.00133666666666, "is_disabled": 0, "fusion_lat": 0.0, "lat": 38.99496033333333, "bike_id": "39b3f096d5c44556053978366479f159", "fusion_lon": 0.0}, {"rental_uris": {"ios": "https://dc.lft.to/lastmile_qr_scan", "android": "https://dc.lft.to/lastmile_qr_scan"}, "type": "electric_scooter", "name": "64be7d9b5dca561b7e129d3531974413", "is_reserved": 0, "lon": -77.0481545, "is_disabled": 0, "fusion_lat": 0.0, "lat": 38.90957266666667, "bike_id": "64be7d9b5dca561b7e129d3531974413", "fusion_lon": 0.0}, {"rental_uris": {"ios": "https://dc.lft.to/lastmile_qr_scan", "android": "https://dc.lft.to/lastmile_qr_scan"}, "type": "electric_scooter", "name": "86d7cb8565afb94a932595bb72e91429", "is_reserved": 0, "lon": -77.016446, "is_disabled": 0, "fusion_lat": 0.0, "lat": 38.902242666666666, "bike_id": "86d7cb8565afb94a932595bb72e91429", "fusion_lon": 0.0}, {"rental_uris": {"ios": "https://dc.lft.to/lastmile_qr_scan", "android": "https://dc.lft.to/lastmile_qr_scan"}, "type": "electric_scooter", "name": "be00e3a4e0fcb790fb40991968fac725", "is_reserved": 0, "lon": -77.02815466666667, "is_disabled": 0, "fusion_lat": 0.0, "lat": 38.91100216666667, "bike_id": "be00e3a4e0fcb790fb40991968fac725", "fusion_lon": 0.0}, {"rental_uris": {"ios": "https://dc.lft.to/lastmile_qr_scan", "android": "https://dc.lft.to/lastmile_qr_scan"}, "type": "electric_scooter", "name": "6719992e518331656e17559178326a3e", "is_reserved": 0, "lon": -77.04739583333334, "is_disabled": 0, "fusion_lat": 0.0, "lat": 38.901604166666665, "bike_id": "6719992e518331656e17559178326a3e", "fusion_lon": 0.0}, {"rental_uris": {"ios": "https://dc.lft.to/lastmile_qr_scan", "android": "https://dc.lft.to/lastmile_qr_scan"}, "type": "electric_bike", "name": "3f65e63a9db0bc432b63ef20f3ef7525", "is_reserved": 0, "lon": -77.072428, "is_disabled": 0, "fusion_lat": 0.0, "lat": 38.813613, "bike_id": "3f65e63a9db0bc432b63ef20f3ef7525", "fusion_lon": 0.0}, {"rental_uris": {"ios": "https://dc.lft.to/lastmile_qr_scan", "android": "https://dc.lft.to/lastmile_qr_scan"}, "type": "electric_scooter", "name": "9cc1c323c4937b421a99b64cfe502967", "is_reserved": 0, "lon": -76.94322833333334, "is_disabled": 0, "fusion_lat": 0.0, "lat": 38.879182666666665, "bike_id": "9cc1c323c4937b421a99b64cfe502967", "fusion_lon": 0.0}, {"rental_uris": {"ios": "https://dc.lft.to/lastmile_qr_scan", "android": "https://dc.lft.to/lastmile_qr_scan"}, "type": "electric_scooter", "name": "69cdc174b8f4c5c45f2c1cbae780caa5", "is_reserved": 0, "lon": -77.02760183333334, "is_disabled": 0, "fusion_lat": 0.0, "lat": 38.91343966666667, "bike_id": "69cdc174b8f4c5c45f2c1cbae780caa5", "fusion_lon": 0.0}, {"rental_uris": {"ios": "https://dc.lft.to/lastmile_qr_scan", "android": "https://dc.lft.to/lastmile_qr_scan"}, "type": "electric_scooter", "name": "5476137b66b0d4c3626ef03d87624d4f", "is_reserved": 0, "lon": -77.02037233333333, "is_disabled": 0, "fusion_lat": 0.0, "lat": 38.9110915, "bike_id": "5476137b66b0d4c3626ef03d87624d4f", "fusion_lon": 0.0}, {"rental_uris": {"ios": "https://dc.lft.to/lastmile_qr_scan", "android": "https://dc.lft.to/lastmile_qr_scan"}, "type": "electric_scooter", "name": "23714d0fe8aef25837ab60e7b21597e3", "is_reserved": 0, "lon": -76.985666, "is_disabled": 0, "fusion_lat": 0.0, "lat": 38.896101, "bike_id": "23714d0fe8aef25837ab60e7b21597e3", "fusion_lon": 0.0}, {"rental_uris": {"ios": "https://dc.lft.to/lastmile_qr_scan", "android": "https://dc.lft.to/lastmile_qr_scan"}, "type": "electric_scooter", "name": "09956889d5099ebc7c8ec379807b4ee5", "is_reserved": 0, "lon": -77.0403465, "is_disabled": 0, "fusion_lat": 0.0, "lat": 38.92460366666667, "bike_id": "09956889d5099ebc7c8ec379807b4ee5", "fusion_lon": 0.0}, {"rental_uris": {"ios": "https://dc.lft.to/lastmile_qr_scan", "android": "https://dc.lft.to/lastmile_qr_scan"}, "type": "electric_scooter", "name": "11d54fce399531e055dec23b56bf87bc", "is_reserved": 0, "lon": -77.043386, "is_disabled": 0, "fusion_lat": 0.0, "lat": 38.907252666666665, "bike_id": "11d54fce399531e055dec23b56bf87bc", "fusion_lon": 0.0}, {"rental_uris": {"ios": "https://dc.lft.to/lastmile_qr_scan", "android": "https://dc.lft.to/lastmile_qr_scan"}, "type": "electric_scooter", "name": "adbc5e6c63317d0039e74724f9e9565f", "is_reserved": 0, "lon": -77.04401133333333, "is_disabled": 0, "fusion_lat": 0.0, "lat": 38.92587066666667, "bike_id": "adbc5e6c63317d0039e74724f9e9565f", "fusion_lon": 0.0}, {"rental_uris": {"ios": "https://dc.lft.to/lastmile_qr_scan", "android": "https://dc.lft.to/lastmile_qr_scan"}, "type": "electric_scooter", "name": "bd63c5cdad6e4f4df8dacdff5e216ec2", "is_reserved": 0, "lon": -77.0327885, "is_disabled": 0, "fusion_lat": 0.0, "lat": 38.9042345, "bike_id": "bd63c5cdad6e4f4df8dacdff5e216ec2", "fusion_lon": 0.0}, {"rental_uris": {"ios": "https://dc.lft.to/lastmile_qr_scan", "android": "https://dc.lft.to/lastmile_qr_scan"}, "type": "electric_scooter", "name": "885bbcbcb523e296b3fb5acd2fde6f9c", "is_reserved": 0, "lon": -77.04408, "is_disabled": 0, "fusion_lat": 0.0, "lat": 38.929523, "bike_id": "885bbcbcb523e296b3fb5acd2fde6f9c", "fusion_lon": 0.0}, {"rental_uris": {"ios": "https://dc.lft.to/lastmile_qr_scan", "android": "https://dc.lft.to/lastmile_qr_scan"}, "type": "electric_scooter", "name": "c5fae508b3a04e19a43cc1fb5019d4a9", "is_reserved": 0, "lon": -77.00780266666666, "is_disabled": 0, "fusion_lat": 0.0, "lat": 38.897336, "bike_id": "c5fae508b3a04e19a43cc1fb5019d4a9", "fusion_lon": 0.0}, {"rental_uris": {"ios": "https://dc.lft.to/lastmile_qr_scan", "android": "https://dc.lft.to/lastmile_qr_scan"}, "type": "electric_scooter", "name": "b2207d12cbc80ab13513a1224c89fe13", "is_reserved": 0, "lon": -77.0135405, "is_disabled": 0, "fusion_lat": 0.0, "lat": 38.8958345, "bike_id": "b2207d12cbc80ab13513a1224c89fe13", "fusion_lon": 0.0}, {"rental_uris": {"ios": "https://dc.lft.to/lastmile_qr_scan", "android": "https://dc.lft.to/lastmile_qr_scan"}, "type": "electric_scooter", "name": "d33a9b3e31ca19a99b63acdca598aa11", "is_reserved": 0, "lon": -77.03215083333333, "is_disabled": 0, "fusion_lat": 0.0, "lat": 38.92049166666666, "bike_id": "d33a9b3e31ca19a99b63acdca598aa11", "fusion_lon": 0.0}, {"rental_uris": {"ios": "https://dc.lft.to/lastmile_qr_scan", "android": "https://dc.lft.to/lastmile_qr_scan"}, "type": "electric_scooter", "name": "486e47847a3b8b0dbe2036452b84008d", "is_reserved": 0, "lon": -77.04246916666666, "is_disabled": 0, "fusion_lat": 0.0, "lat": 38.90413216666666, "bike_id": "486e47847a3b8b0dbe2036452b84008d", "fusion_lon": 0.0}, {"rental_uris": {"ios": "https://dc.lft.to/lastmile_qr_scan", "android": "https://dc.lft.to/lastmile_qr_scan"}, "type": "electric_scooter", "name": "2d3bb384c3750e2f58caa266a3e1bffa", "is_reserved": 0, "lon": -77.03057916666667, "is_disabled": 0, "fusion_lat": 0.0, "lat": 38.92467933333333, "bike_id": "2d3bb384c3750e2f58caa266a3e1bffa", "fusion_lon": 0.0}, {"rental_uris": {"ios": "https://dc.lft.to/lastmile_qr_scan", "android": "https://dc.lft.to/lastmile_qr_scan"}, "type": "electric_scooter", "name": "d1f9ecf023801b829ca9fef64c7796cc", "is_reserved": 0, "lon": -77.01784316666667, "is_disabled": 0, "fusion_lat": 0.0, "lat": 38.919888666666665, "bike_id": "d1f9ecf023801b829ca9fef64c7796cc", "fusion_lon": 0.0}, {"rental_uris": {"ios": "https://dc.lft.to/lastmile_qr_scan", "android": "https://dc.lft.to/lastmile_qr_scan"}, "type": "electric_scooter", "name": "2fcc0e85461e2e9846c07c4ab92474e9", "is_reserved": 0, "lon": -77.05558116666667, "is_disabled": 0, "fusion_lat": 0.0, "lat": 38.89995533333333, "bike_id": "2fcc0e85461e2e9846c07c4ab92474e9", "fusion_lon": 0.0}, {"rental_uris": {"ios": "https://dc.lft.to/lastmile_qr_scan", "android": "https://dc.lft.to/lastmile_qr_scan"}, "type": "electric_bike", "name": "ba3c7bbf1db416860354c05ff180f498", "is_reserved": 0, "lon": -76.9374505, "is_disabled": 0, "fusion_lat": 0.0, "lat": 38.871413, "bike_id": "ba3c7bbf1db416860354c05ff180f498", "fusion_lon": 0.0}, {"rental_uris": {"ios": "https://dc.lft.to/lastmile_qr_scan", "android": "https://dc.lft.to/lastmile_qr_scan"}, "type": "electric_scooter", "name": "6c3ca8c9df96db44072b1a4112a41246", "is_reserved": 0, "lon": -76.95203416666666, "is_disabled": 0, "fusion_lat": 0.0, "lat": 38.90517333333333, "bike_id": "6c3ca8c9df96db44072b1a4112a41246", "fusion_lon": 0.0}, {"rental_uris": {"ios": "https://dc.lft.to/lastmile_qr_scan", "android": "https://dc.lft.to/lastmile_qr_scan"}, "type": "electric_scooter", "name": "37b66402fca228242c0327062a83ee00", "is_reserved": 0, "lon": -76.999306, "is_disabled": 0, "fusion_lat": 0.0, "lat": 38.95757033333334, "bike_id": "37b66402fca228242c0327062a83ee00", "fusion_lon": 0.0}, {"rental_uris": {"ios": "https://dc.lft.to/lastmile_qr_scan", "android": "https://dc.lft.to/lastmile_qr_scan"}, "type": "electric_scooter", "name": "18280270496319453a938382f3a118b5", "is_reserved": 0, "lon": -77.0456805, "is_disabled": 0, "fusion_lat": 0.0, "lat": 38.91691933333333, "bike_id": "18280270496319453a938382f3a118b5", "fusion_lon": 0.0}, {"rental_uris": {"ios": "https://dc.lft.to/lastmile_qr_scan", "android": "https://dc.lft.to/lastmile_qr_scan"}, "type": "electric_scooter", "name": "33d5a205cb37558dffd5074d572055fc", "is_reserved": 0, "lon": -77.0136005, "is_disabled": 0, "fusion_lat": 0.0, "lat": 38.91925333333333, "bike_id": "33d5a205cb37558dffd5074d572055fc", "fusion_lon": 0.0}, {"rental_uris": {"ios": "https://dc.lft.to/lastmile_qr_scan", "android": "https://dc.lft.to/lastmile_qr_scan"}, "type": "electric_scooter", "name": "b5b4a4464bed609fc9873af1618fa763", "is_reserved": 0, "lon": -77.024762, "is_disabled": 0, "fusion_lat": 0.0, "lat": 38.918126666666666, "bike_id": "b5b4a4464bed609fc9873af1618fa763", "fusion_lon": 0.0}, {"rental_uris": {"ios": "https://dc.lft.to/lastmile_qr_scan", "android": "https://dc.lft.to/lastmile_qr_scan"}, "type": "electric_scooter", "name": "f76f302f2219cc22a58a957b0f87f603", "is_reserved": 0, "lon": -77.02984383333333, "is_disabled": 0, "fusion_lat": 0.0, "lat": 38.904693, "bike_id": "f76f302f2219cc22a58a957b0f87f603", "fusion_lon": 0.0}, {"rental_uris": {"ios": "https://dc.lft.to/lastmile_qr_scan", "android": "https://dc.lft.to/lastmile_qr_scan"}, "type": "electric_scooter", "name": "1d1e956d6c2b3b418bf60be4d79cdef3", "is_reserved": 0, "lon": -77.04406916666667, "is_disabled": 0, "fusion_lat": 0.0, "lat": 38.901178, "bike_id": "1d1e956d6c2b3b418bf60be4d79cdef3", "fusion_lon": 0.0}, {"rental_uris": {"ios": "https://dc.lft.to/lastmile_qr_scan", "android": "https://dc.lft.to/lastmile_qr_scan"}, "type": "electric_scooter", "name": "d1d5eb9fd7aada532ce638a7d9da6637", "is_reserved": 0, "lon": -76.98210533333334, "is_disabled": 0, "fusion_lat": 0.0, "lat": 38.88655816666667, "bike_id": "d1d5eb9fd7aada532ce638a7d9da6637", "fusion_lon": 0.0}, {"rental_uris": {"ios": "https://dc.lft.to/lastmile_qr_scan", "android": "https://dc.lft.to/lastmile_qr_scan"}, "type": "electric_scooter", "name": "d945daf0de5188f6ea5b34440d223c6c", "is_reserved": 0, "lon": -77.0176455, "is_disabled": 0, "fusion_lat": 0.0, "lat": 38.92103566666667, "bike_id": "d945daf0de5188f6ea5b34440d223c6c", "fusion_lon": 0.0}, {"rental_uris": {"ios": "https://dc.lft.to/lastmile_qr_scan", "android": "https://dc.lft.to/lastmile_qr_scan"}, "type": "electric_scooter", "name": "aa4f80a7f5d8c56d6a0c878c815fcd4e", "is_reserved": 0, "lon": -77.0674715, "is_disabled": 0, "fusion_lat": 0.0, "lat": 38.9050835, "bike_id": "aa4f80a7f5d8c56d6a0c878c815fcd4e", "fusion_lon": 0.0}, {"rental_uris": {"ios": "https://dc.lft.to/lastmile_qr_scan", "android": "https://dc.lft.to/lastmile_qr_scan"}, "type": "electric_scooter", "name": "d8a645bd10c02867f7f50273f0910947", "is_reserved": 0, "lon": -76.99967916666667, "is_disabled": 0, "fusion_lat": 0.0, "lat": 38.886592666666665, "bike_id": "d8a645bd10c02867f7f50273f0910947", "fusion_lon": 0.0}, {"rental_uris": {"ios": "https://dc.lft.to/lastmile_qr_scan", "android": "https://dc.lft.to/lastmile_qr_scan"}, "type": "electric_scooter", "name": "6bfb55ee6414d3d8a3ad157f13a81891", "is_reserved": 0, "lon": -77.037146, "is_disabled": 0, "fusion_lat": 0.0, "lat": 38.900209333333336, "bike_id": "6bfb55ee6414d3d8a3ad157f13a81891", "fusion_lon": 0.0}, {"rental_uris": {"ios": "https://dc.lft.to/lastmile_qr_scan", "android": "https://dc.lft.to/lastmile_qr_scan"}, "type": "electric_scooter", "name": "8fc1d667ce1b5c490dcf3d1edb2fba73", "is_reserved": 0, "lon": -77.03954166666666, "is_disabled": 0, "fusion_lat": 0.0, "lat": 38.924598833333334, "bike_id": "8fc1d667ce1b5c490dcf3d1edb2fba73", "fusion_lon": 0.0}, {"rental_uris": {"ios": "https://dc.lft.to/lastmile_qr_scan", "android": "https://dc.lft.to/lastmile_qr_scan"}, "type": "electric_scooter", "name": "7d201e202dc732f763ab2cd2b184759e", "is_reserved": 0, "lon": -76.9837095, "is_disabled": 0, "fusion_lat": 0.0, "lat": 38.86666116666667, "bike_id": "7d201e202dc732f763ab2cd2b184759e", "fusion_lon": 0.0}, {"rental_uris": {"ios": "https://dc.lft.to/lastmile_qr_scan", "android": "https://dc.lft.to/lastmile_qr_scan"}, "type": "electric_scooter", "name": "aee3781fdcdf28f87c1f66d93503fb7a", "is_reserved": 0, "lon": -77.0559535, "is_disabled": 0, "fusion_lat": 0.0, "lat": 38.936985, "bike_id": "aee3781fdcdf28f87c1f66d93503fb7a", "fusion_lon": 0.0}, {"rental_uris": {"ios": "https://dc.lft.to/lastmile_qr_scan", "android": "https://dc.lft.to/lastmile_qr_scan"}, "type": "electric_scooter", "name": "4196ec6d968b03c15f9db5575a600c15", "is_reserved": 0, "lon": -77.03181566666666, "is_disabled": 0, "fusion_lat": 0.0, "lat": 38.892157, "bike_id": "4196ec6d968b03c15f9db5575a600c15", "fusion_lon": 0.0}, {"rental_uris": {"ios": "https://dc.lft.to/lastmile_qr_scan", "android": "https://dc.lft.to/lastmile_qr_scan"}, "type": "electric_scooter", "name": "b26b06fc23d6ae1260362ecfa9dce22d", "is_reserved": 0, "lon": -77.02669433333334, "is_disabled": 0, "fusion_lat": 0.0, "lat": 38.9842985, "bike_id": "b26b06fc23d6ae1260362ecfa9dce22d", "fusion_lon": 0.0}, {"rental_uris": {"ios": "https://dc.lft.to/lastmile_qr_scan", "android": "https://dc.lft.to/lastmile_qr_scan"}, "type": "electric_scooter", "name": "19cde74969a826146feb2792bbd397f2", "is_reserved": 0, "lon": -77.06750333333333, "is_disabled": 0, "fusion_lat": 0.0, "lat": 38.91562183333333, "bike_id": "19cde74969a826146feb2792bbd397f2", "fusion_lon": 0.0}, {"rental_uris": {"ios": "https://dc.lft.to/lastmile_qr_scan", "android": "https://dc.lft.to/lastmile_qr_scan"}, "type": "electric_scooter", "name": "69a2ce954a44a9911b4ff33181faa818", "is_reserved": 0, "lon": -77.04043516666667, "is_disabled": 0, "fusion_lat": 0.0, "lat": 38.923072, "bike_id": "69a2ce954a44a9911b4ff33181faa818", "fusion_lon": 0.0}, {"rental_uris": {"ios": "https://dc.lft.to/lastmile_qr_scan", "android": "https://dc.lft.to/lastmile_qr_scan"}, "type": "electric_scooter", "name": "1ef6ac1753c36f9e0d6832724d0922a4", "is_reserved": 0, "lon": -77.03948233333334, "is_disabled": 0, "fusion_lat": 0.0, "lat": 38.892496, "bike_id": "1ef6ac1753c36f9e0d6832724d0922a4", "fusion_lon": 0.0}, {"rental_uris": {"ios": "https://dc.lft.to/lastmile_qr_scan", "android": "https://dc.lft.to/lastmile_qr_scan"}, "type": "electric_scooter", "name": "2380fd4dc1a1e9ce12e0ad849c9efdf3", "is_reserved": 0, "lon": -76.94719816666667, "is_disabled": 0, "fusion_lat": 0.0, "lat": 38.89081133333333, "bike_id": "2380fd4dc1a1e9ce12e0ad849c9efdf3", "fusion_lon": 0.0}, {"rental_uris": {"ios": "https://dc.lft.to/lastmile_qr_scan", "android": "https://dc.lft.to/lastmile_qr_scan"}, "type": "electric_scooter", "name": "3b5ba6b6599559bced9c9f72ef380788", "is_reserved": 0, "lon": -77.06775916666666, "is_disabled": 0, "fusion_lat": 0.0, "lat": 38.908774, "bike_id": "3b5ba6b6599559bced9c9f72ef380788", "fusion_lon": 0.0}, {"rental_uris": {"ios": "https://dc.lft.to/lastmile_qr_scan", "android": "https://dc.lft.to/lastmile_qr_scan"}, "type": "electric_scooter", "name": "5935d72d1d4257bef8bccbb52ce4d83d", "is_reserved": 0, "lon": -77.0297875, "is_disabled": 0, "fusion_lat": 0.0, "lat": 38.92370833333333, "bike_id": "5935d72d1d4257bef8bccbb52ce4d83d", "fusion_lon": 0.0}, {"rental_uris": {"ios": "https://dc.lft.to/lastmile_qr_scan", "android": "https://dc.lft.to/lastmile_qr_scan"}, "type": "electric_scooter", "name": "70cb8849ddc91e3cdc6773b805e4320b", "is_reserved": 0, "lon": -77.0374605, "is_disabled": 0, "fusion_lat": 0.0, "lat": 38.9321235, "bike_id": "70cb8849ddc91e3cdc6773b805e4320b", "fusion_lon": 0.0}, {"rental_uris": {"ios": "https://dc.lft.to/lastmile_qr_scan", "android": "https://dc.lft.to/lastmile_qr_scan"}, "type": "electric_scooter", "name": "c81c7f91b9926ed7473780e648aaac59", "is_reserved": 0, "lon": -77.04220216666667, "is_disabled": 0, "fusion_lat": 0.0, "lat": 38.91115116666667, "bike_id": "c81c7f91b9926ed7473780e648aaac59", "fusion_lon": 0.0}, {"rental_uris": {"ios": "https://dc.lft.to/lastmile_qr_scan", "android": "https://dc.lft.to/lastmile_qr_scan"}, "type": "electric_scooter", "name": "125339eb3029023eb34aed84feab2612", "is_reserved": 0, "lon": -77.0438485, "is_disabled": 0, "fusion_lat": 0.0, "lat": 38.917061333333336, "bike_id": "125339eb3029023eb34aed84feab2612", "fusion_lon": 0.0}, {"rental_uris": {"ios": "https://dc.lft.to/lastmile_qr_scan", "android": "https://dc.lft.to/lastmile_qr_scan"}, "type": "electric_scooter", "name": "eb289fe3543a8dd67fd7e3c6d9c3a276", "is_reserved": 0, "lon": -77.03866933333333, "is_disabled": 0, "fusion_lat": 0.0, "lat": 38.911076666666666, "bike_id": "eb289fe3543a8dd67fd7e3c6d9c3a276", "fusion_lon": 0.0}, {"rental_uris": {"ios": "https://dc.lft.to/lastmile_qr_scan", "android": "https://dc.lft.to/lastmile_qr_scan"}, "type": "electric_scooter", "name": "1d1fc525761b5cf62b216c75ff501935", "is_reserved": 0, "lon": -77.03340416666667, "is_disabled": 0, "fusion_lat": 0.0, "lat": 38.897292, "bike_id": "1d1fc525761b5cf62b216c75ff501935", "fusion_lon": 0.0}, {"rental_uris": {"ios": "https://dc.lft.to/lastmile_qr_scan", "android": "https://dc.lft.to/lastmile_qr_scan"}, "type": "electric_scooter", "name": "564f34d7faf2cfa0556df940eb37204f", "is_reserved": 0, "lon": -77.02791516666667, "is_disabled": 0, "fusion_lat": 0.0, "lat": 38.92762033333333, "bike_id": "564f34d7faf2cfa0556df940eb37204f", "fusion_lon": 0.0}, {"rental_uris": {"ios": "https://dc.lft.to/lastmile_qr_scan", "android": "https://dc.lft.to/lastmile_qr_scan"}, "type": "electric_bike", "name": "61a806473b7b1ac475c12c577401fd5e", "is_reserved": 0, "lon": -76.95742066666666, "is_disabled": 0, "fusion_lat": 0.0, "lat": 38.888528666666666, "bike_id": "61a806473b7b1ac475c12c577401fd5e", "fusion_lon": 0.0}, {"rental_uris": {"ios": "https://dc.lft.to/lastmile_qr_scan", "android": "https://dc.lft.to/lastmile_qr_scan"}, "type": "electric_scooter", "name": "bc198729405459446f698d0f672fd6ed", "is_reserved": 0, "lon": -77.031332, "is_disabled": 0, "fusion_lat": 0.0, "lat": 38.918000666666664, "bike_id": "bc198729405459446f698d0f672fd6ed", "fusion_lon": 0.0}, {"rental_uris": {"ios": "https://dc.lft.to/lastmile_qr_scan", "android": "https://dc.lft.to/lastmile_qr_scan"}, "type": "electric_scooter", "name": "839b99cb46fa2be1a83c5fede2089c2f", "is_reserved": 0, "lon": -77.045493, "is_disabled": 0, "fusion_lat": 0.0, "lat": 38.909446333333335, "bike_id": "839b99cb46fa2be1a83c5fede2089c2f", "fusion_lon": 0.0}, {"rental_uris": {"ios": "https://dc.lft.to/lastmile_qr_scan", "android": "https://dc.lft.to/lastmile_qr_scan"}, "type": "electric_scooter", "name": "9785a4acbbb5e1258d0eacc61c7cc125", "is_reserved": 0, "lon": -77.03221433333333, "is_disabled": 0, "fusion_lat": 0.0, "lat": 38.899282666666664, "bike_id": "9785a4acbbb5e1258d0eacc61c7cc125", "fusion_lon": 0.0}, {"rental_uris": {"ios": "https://dc.lft.to/lastmile_qr_scan", "android": "https://dc.lft.to/lastmile_qr_scan"}, "type": "electric_scooter", "name": "35d416d61974b751143369ff1013a27f", "is_reserved": 0, "lon": -77.05789566666667, "is_disabled": 0, "fusion_lat": 0.0, "lat": 38.934793, "bike_id": "35d416d61974b751143369ff1013a27f", "fusion_lon": 0.0}, {"rental_uris": {"ios": "https://dc.lft.to/lastmile_qr_scan", "android": "https://dc.lft.to/lastmile_qr_scan"}, "type": "electric_bike", "name": "a728e85c71beefc32d72e795400b6aba", "is_reserved": 0, "lon": -76.907394, "is_disabled": 0, "fusion_lat": 0.0, "lat": 38.89616983333333, "bike_id": "a728e85c71beefc32d72e795400b6aba", "fusion_lon": 0.0}, {"rental_uris": {"ios": "https://dc.lft.to/lastmile_qr_scan", "android": "https://dc.lft.to/lastmile_qr_scan"}, "type": "electric_scooter", "name": "bd34323233eddeea865af2a1f18dc636", "is_reserved": 0, "lon": -77.04572083333333, "is_disabled": 0, "fusion_lat": 0.0, "lat": 38.91405616666667, "bike_id": "bd34323233eddeea865af2a1f18dc636", "fusion_lon": 0.0}, {"rental_uris": {"ios": "https://dc.lft.to/lastmile_qr_scan", "android": "https://dc.lft.to/lastmile_qr_scan"}, "type": "electric_scooter", "name": "d572b62042c7b07835ae5a3590251f4c", "is_reserved": 0, "lon": -77.02703033333333, "is_disabled": 0, "fusion_lat": 0.0, "lat": 38.935763333333334, "bike_id": "d572b62042c7b07835ae5a3590251f4c", "fusion_lon": 0.0}, {"rental_uris": {"ios": "https://dc.lft.to/lastmile_qr_scan", "android": "https://dc.lft.to/lastmile_qr_scan"}, "type": "electric_scooter", "name": "de987be946a6a04397404e359a95856d", "is_reserved": 0, "lon": -77.02274283333334, "is_disabled": 0, "fusion_lat": 0.0, "lat": 38.92421133333333, "bike_id": "de987be946a6a04397404e359a95856d", "fusion_lon": 0.0}, {"rental_uris": {"ios": "https://dc.lft.to/lastmile_qr_scan", "android": "https://dc.lft.to/lastmile_qr_scan"}, "type": "electric_scooter", "name": "26ee992723e6289d7c7195b39dd5e341", "is_reserved": 0, "lon": -77.01628433333333, "is_disabled": 0, "fusion_lat": 0.0, "lat": 38.906598, "bike_id": "26ee992723e6289d7c7195b39dd5e341", "fusion_lon": 0.0}, {"rental_uris": {"ios": "https://dc.lft.to/lastmile_qr_scan", "android": "https://dc.lft.to/lastmile_qr_scan"}, "type": "electric_bike", "name": "47891e4c51afc7dade5a3febac0be35e", "is_reserved": 0, "lon": -76.994969, "is_disabled": 0, "fusion_lat": 0.0, "lat": 38.862179833333336, "bike_id": "47891e4c51afc7dade5a3febac0be35e", "fusion_lon": 0.0}, {"rental_uris": {"ios": "https://dc.lft.to/lastmile_qr_scan", "android": "https://dc.lft.to/lastmile_qr_scan"}, "type": "electric_scooter", "name": "e61fd3cdc5a7cc75fb293668b2dcff3b", "is_reserved": 0, "lon": -77.04335016666667, "is_disabled": 0, "fusion_lat": 0.0, "lat": 38.8922375, "bike_id": "e61fd3cdc5a7cc75fb293668b2dcff3b", "fusion_lon": 0.0}, {"rental_uris": {"ios": "https://dc.lft.to/lastmile_qr_scan", "android": "https://dc.lft.to/lastmile_qr_scan"}, "type": "electric_scooter", "name": "099098b57940b91e9f9a5884a757c335", "is_reserved": 0, "lon": -77.0242915, "is_disabled": 0, "fusion_lat": 0.0, "lat": 38.923364, "bike_id": "099098b57940b91e9f9a5884a757c335", "fusion_lon": 0.0}, {"rental_uris": {"ios": "https://dc.lft.to/lastmile_qr_scan", "android": "https://dc.lft.to/lastmile_qr_scan"}, "type": "electric_scooter", "name": "5253076726f4212d1cd671aba3028c1c", "is_reserved": 0, "lon": -77.03180833333333, "is_disabled": 0, "fusion_lat": 0.0, "lat": 38.90947083333333, "bike_id": "5253076726f4212d1cd671aba3028c1c", "fusion_lon": 0.0}, {"rental_uris": {"ios": "https://dc.lft.to/lastmile_qr_scan", "android": "https://dc.lft.to/lastmile_qr_scan"}, "type": "electric_scooter", "name": "1c4ae0448a99eab48fb8c4ced032614f", "is_reserved": 0, "lon": -76.97978416666666, "is_disabled": 0, "fusion_lat": 0.0, "lat": 38.897320666666666, "bike_id": "1c4ae0448a99eab48fb8c4ced032614f", "fusion_lon": 0.0}, {"rental_uris": {"ios": "https://dc.lft.to/lastmile_qr_scan", "android": "https://dc.lft.to/lastmile_qr_scan"}, "type": "electric_scooter", "name": "606dcab6f061d651da4edd1ed6843915", "is_reserved": 0, "lon": -77.02977216666666, "is_disabled": 0, "fusion_lat": 0.0, "lat": 38.92245333333334, "bike_id": "606dcab6f061d651da4edd1ed6843915", "fusion_lon": 0.0}, {"rental_uris": {"ios": "https://dc.lft.to/lastmile_qr_scan", "android": "https://dc.lft.to/lastmile_qr_scan"}, "type": "electric_scooter", "name": "ef7fbb276a73c1edc75e4b5e9b2465ab", "is_reserved": 0, "lon": -77.04158633333333, "is_disabled": 0, "fusion_lat": 0.0, "lat": 38.9156985, "bike_id": "ef7fbb276a73c1edc75e4b5e9b2465ab", "fusion_lon": 0.0}, {"rental_uris": {"ios": "https://dc.lft.to/lastmile_qr_scan", "android": "https://dc.lft.to/lastmile_qr_scan"}, "type": "electric_scooter", "name": "6c023a548f21c165b4bec8ada342fd87", "is_reserved": 0, "lon": -76.97151233333334, "is_disabled": 0, "fusion_lat": 0.0, "lat": 38.91614916666666, "bike_id": "6c023a548f21c165b4bec8ada342fd87", "fusion_lon": 0.0}, {"rental_uris": {"ios": "https://dc.lft.to/lastmile_qr_scan", "android": "https://dc.lft.to/lastmile_qr_scan"}, "type": "electric_scooter", "name": "32bbfb2c642fdd40b1b435701d6ddee2", "is_reserved": 0, "lon": -77.00201883333334, "is_disabled": 0, "fusion_lat": 0.0, "lat": 38.90038633333333, "bike_id": "32bbfb2c642fdd40b1b435701d6ddee2", "fusion_lon": 0.0}, {"rental_uris": {"ios": "https://dc.lft.to/lastmile_qr_scan", "android": "https://dc.lft.to/lastmile_qr_scan"}, "type": "electric_scooter", "name": "a8dbac487f112c0674dc3f6d185bf8b4", "is_reserved": 0, "lon": -77.05367683333333, "is_disabled": 0, "fusion_lat": 0.0, "lat": 38.9232535, "bike_id": "a8dbac487f112c0674dc3f6d185bf8b4", "fusion_lon": 0.0}, {"rental_uris": {"ios": "https://dc.lft.to/lastmile_qr_scan", "android": "https://dc.lft.to/lastmile_qr_scan"}, "type": "electric_scooter", "name": "cabd15d9a6515368f9af8c144cb7ea46", "is_reserved": 0, "lon": -77.0126255, "is_disabled": 0, "fusion_lat": 0.0, "lat": 38.897234833333336, "bike_id": "cabd15d9a6515368f9af8c144cb7ea46", "fusion_lon": 0.0}, {"rental_uris": {"ios": "https://dc.lft.to/lastmile_qr_scan", "android": "https://dc.lft.to/lastmile_qr_scan"}, "type": "electric_scooter", "name": "36214a35bf0e7a3bebd495b59cc73fb7", "is_reserved": 0, "lon": -77.01911383333334, "is_disabled": 0, "fusion_lat": 0.0, "lat": 38.937159666666666, "bike_id": "36214a35bf0e7a3bebd495b59cc73fb7", "fusion_lon": 0.0}, {"rental_uris": {"ios": "https://dc.lft.to/lastmile_qr_scan", "android": "https://dc.lft.to/lastmile_qr_scan"}, "type": "electric_scooter", "name": "2cbe7057241d18d6d900147f240e88f6", "is_reserved": 0, "lon": -77.010865, "is_disabled": 0, "fusion_lat": 0.0, "lat": 38.895264, "bike_id": "2cbe7057241d18d6d900147f240e88f6", "fusion_lon": 0.0}, {"rental_uris": {"ios": "https://dc.lft.to/lastmile_qr_scan", "android": "https://dc.lft.to/lastmile_qr_scan"}, "type": "electric_scooter", "name": "41dfa670cd495ef7d64394dbd860139c", "is_reserved": 0, "lon": -77.0465865, "is_disabled": 0, "fusion_lat": 0.0, "lat": 38.905565, "bike_id": "41dfa670cd495ef7d64394dbd860139c", "fusion_lon": 0.0}, {"rental_uris": {"ios": "https://dc.lft.to/lastmile_qr_scan", "android": "https://dc.lft.to/lastmile_qr_scan"}, "type": "electric_scooter", "name": "963e7ce5520a26211fd5128d883b5a8c", "is_reserved": 0, "lon": -77.00577183333333, "is_disabled": 0, "fusion_lat": 0.0, "lat": 38.900089, "bike_id": "963e7ce5520a26211fd5128d883b5a8c", "fusion_lon": 0.0}, {"rental_uris": {"ios": "https://dc.lft.to/lastmile_qr_scan", "android": "https://dc.lft.to/lastmile_qr_scan"}, "type": "electric_scooter", "name": "5e82a40d4df0ef3a65a63b6efcd05d73", "is_reserved": 0, "lon": -77.03652083333333, "is_disabled": 0, "fusion_lat": 0.0, "lat": 38.9131695, "bike_id": "5e82a40d4df0ef3a65a63b6efcd05d73", "fusion_lon": 0.0}, {"rental_uris": {"ios": "https://dc.lft.to/lastmile_qr_scan", "android": "https://dc.lft.to/lastmile_qr_scan"}, "type": "electric_scooter", "name": "6f11c72c169beea63213054cf03422a1", "is_reserved": 0, "lon": -77.03758966666666, "is_disabled": 0, "fusion_lat": 0.0, "lat": 38.92324333333333, "bike_id": "6f11c72c169beea63213054cf03422a1", "fusion_lon": 0.0}, {"rental_uris": {"ios": "https://dc.lft.to/lastmile_qr_scan", "android": "https://dc.lft.to/lastmile_qr_scan"}, "type": "electric_scooter", "name": "4712ad5aa9977ec5599761ff0f32bacd", "is_reserved": 0, "lon": -77.0306575, "is_disabled": 0, "fusion_lat": 0.0, "lat": 38.92251383333333, "bike_id": "4712ad5aa9977ec5599761ff0f32bacd", "fusion_lon": 0.0}, {"rental_uris": {"ios": "https://dc.lft.to/lastmile_qr_scan", "android": "https://dc.lft.to/lastmile_qr_scan"}, "type": "electric_scooter", "name": "ea4e275a8d29278665b07dc1962fae45", "is_reserved": 0, "lon": -76.98930983333334, "is_disabled": 0, "fusion_lat": 0.0, "lat": 38.878615333333336, "bike_id": "ea4e275a8d29278665b07dc1962fae45", "fusion_lon": 0.0}, {"rental_uris": {"ios": "https://dc.lft.to/lastmile_qr_scan", "android": "https://dc.lft.to/lastmile_qr_scan"}, "type": "electric_scooter", "name": "cf0aa996c95489a3e60ffd9e57c24542", "is_reserved": 0, "lon": -77.04132283333334, "is_disabled": 0, "fusion_lat": 0.0, "lat": 38.93276766666666, "bike_id": "cf0aa996c95489a3e60ffd9e57c24542", "fusion_lon": 0.0}, {"rental_uris": {"ios": "https://dc.lft.to/lastmile_qr_scan", "android": "https://dc.lft.to/lastmile_qr_scan"}, "type": "electric_bike", "name": "ba172527564858c2cc0302dfa9a5a1d0", "is_reserved": 0, "lon": -77.0429815, "is_disabled": 0, "fusion_lat": 0.0, "lat": 39.034230666666666, "bike_id": "ba172527564858c2cc0302dfa9a5a1d0", "fusion_lon": 0.0}, {"rental_uris": {"ios": "https://dc.lft.to/lastmile_qr_scan", "android": "https://dc.lft.to/lastmile_qr_scan"}, "type": "electric_scooter", "name": "0069cdeddaa99245cf03c58de5960bbd", "is_reserved": 0, "lon": -77.00827583333333, "is_disabled": 0, "fusion_lat": 0.0, "lat": 38.8793375, "bike_id": "0069cdeddaa99245cf03c58de5960bbd", "fusion_lon": 0.0}, {"rental_uris": {"ios": "https://dc.lft.to/lastmile_qr_scan", "android": "https://dc.lft.to/lastmile_qr_scan"}, "type": "electric_scooter", "name": "e427194310865d4865ae699ead5f5f0e", "is_reserved": 0, "lon": -77.031283, "is_disabled": 0, "fusion_lat": 0.0, "lat": 38.9155315, "bike_id": "e427194310865d4865ae699ead5f5f0e", "fusion_lon": 0.0}, {"rental_uris": {"ios": "https://dc.lft.to/lastmile_qr_scan", "android": "https://dc.lft.to/lastmile_qr_scan"}, "type": "electric_scooter", "name": "8fb3516e1e34ee181b7f87116c1ad979", "is_reserved": 0, "lon": -77.056216, "is_disabled": 0, "fusion_lat": 0.0, "lat": 38.9068525, "bike_id": "8fb3516e1e34ee181b7f87116c1ad979", "fusion_lon": 0.0}, {"rental_uris": {"ios": "https://dc.lft.to/lastmile_qr_scan", "android": "https://dc.lft.to/lastmile_qr_scan"}, "type": "electric_scooter", "name": "faaedb52f9bab4d35e58cc5584e398ce", "is_reserved": 0, "lon": -77.02710433333333, "is_disabled": 0, "fusion_lat": 0.0, "lat": 38.91223866666667, "bike_id": "faaedb52f9bab4d35e58cc5584e398ce", "fusion_lon": 0.0}, {"rental_uris": {"ios": "https://dc.lft.to/lastmile_qr_scan", "android": "https://dc.lft.to/lastmile_qr_scan"}, "type": "electric_scooter", "name": "e0069e88476428b2094c4d81d76296da", "is_reserved": 0, "lon": -76.98105116666666, "is_disabled": 0, "fusion_lat": 0.0, "lat": 38.902460166666664, "bike_id": "e0069e88476428b2094c4d81d76296da", "fusion_lon": 0.0}, {"rental_uris": {"ios": "https://dc.lft.to/lastmile_qr_scan", "android": "https://dc.lft.to/lastmile_qr_scan"}, "type": "electric_scooter", "name": "aa8b2dac494e275c69a0e9ab89d94401", "is_reserved": 0, "lon": -77.003311, "is_disabled": 0, "fusion_lat": 0.0, "lat": 38.9190745, "bike_id": "aa8b2dac494e275c69a0e9ab89d94401", "fusion_lon": 0.0}, {"rental_uris": {"ios": "https://dc.lft.to/lastmile_qr_scan", "android": "https://dc.lft.to/lastmile_qr_scan"}, "type": "electric_scooter", "name": "1d2a0481598c7e185a8c57fda6b4b914", "is_reserved": 0, "lon": -77.03219316666667, "is_disabled": 0, "fusion_lat": 0.0, "lat": 38.88711383333333, "bike_id": "1d2a0481598c7e185a8c57fda6b4b914", "fusion_lon": 0.0}, {"rental_uris": {"ios": "https://dc.lft.to/lastmile_qr_scan", "android": "https://dc.lft.to/lastmile_qr_scan"}, "type": "electric_scooter", "name": "e6e36dcd01740f0de4ab495780664c36", "is_reserved": 0, "lon": -77.04643183333333, "is_disabled": 0, "fusion_lat": 0.0, "lat": 38.897312666666664, "bike_id": "e6e36dcd01740f0de4ab495780664c36", "fusion_lon": 0.0}, {"rental_uris": {"ios": "https://dc.lft.to/lastmile_qr_scan", "android": "https://dc.lft.to/lastmile_qr_scan"}, "type": "electric_scooter", "name": "d7ac9e1ff57a4dc251d7ac62eb178eca", "is_reserved": 0, "lon": -77.017716, "is_disabled": 0, "fusion_lat": 0.0, "lat": 38.902740333333334, "bike_id": "d7ac9e1ff57a4dc251d7ac62eb178eca", "fusion_lon": 0.0}, {"rental_uris": {"ios": "https://dc.lft.to/lastmile_qr_scan", "android": "https://dc.lft.to/lastmile_qr_scan"}, "type": "electric_bike", "name": "8357f44e51df0a2745d9974a4f0e3b55", "is_reserved": 0, "lon": -77.113538, "is_disabled": 0, "fusion_lat": 0.0, "lat": 38.8419665, "bike_id": "8357f44e51df0a2745d9974a4f0e3b55", "fusion_lon": 0.0}, {"rental_uris": {"ios": "https://dc.lft.to/lastmile_qr_scan", "android": "https://dc.lft.to/lastmile_qr_scan"}, "type": "electric_scooter", "name": "4214e7a63cce951062045abf5bd16549", "is_reserved": 0, "lon": -77.03206483333334, "is_disabled": 0, "fusion_lat": 0.0, "lat": 38.912015, "bike_id": "4214e7a63cce951062045abf5bd16549", "fusion_lon": 0.0}, {"rental_uris": {"ios": "https://dc.lft.to/lastmile_qr_scan", "android": "https://dc.lft.to/lastmile_qr_scan"}, "type": "electric_scooter", "name": "036364bb32ee99e5e08af0f61e5ac600", "is_reserved": 0, "lon": -76.99346333333334, "is_disabled": 0, "fusion_lat": 0.0, "lat": 38.87685416666667, "bike_id": "036364bb32ee99e5e08af0f61e5ac600", "fusion_lon": 0.0}, {"rental_uris": {"ios": "https://dc.lft.to/lastmile_qr_scan", "android": "https://dc.lft.to/lastmile_qr_scan"}, "type": "electric_scooter", "name": "b93dac8106e7fe434a6b3708fcbe4d27", "is_reserved": 0, "lon": -77.04260483333333, "is_disabled": 0, "fusion_lat": 0.0, "lat": 38.90713, "bike_id": "b93dac8106e7fe434a6b3708fcbe4d27", "fusion_lon": 0.0}, {"rental_uris": {"ios": "https://dc.lft.to/lastmile_qr_scan", "android": "https://dc.lft.to/lastmile_qr_scan"}, "type": "electric_scooter", "name": "390574f6f34751e4f7d17be07710756e", "is_reserved": 0, "lon": -77.0176365, "is_disabled": 0, "fusion_lat": 0.0, "lat": 38.900260333333335, "bike_id": "390574f6f34751e4f7d17be07710756e", "fusion_lon": 0.0}, {"rental_uris": {"ios": "https://dc.lft.to/lastmile_qr_scan", "android": "https://dc.lft.to/lastmile_qr_scan"}, "type": "electric_scooter", "name": "1f9790b4a3dd09ecc0a61d9ec4b4049c", "is_reserved": 0, "lon": -77.03638, "is_disabled": 0, "fusion_lat": 0.0, "lat": 38.9243215, "bike_id": "1f9790b4a3dd09ecc0a61d9ec4b4049c", "fusion_lon": 0.0}, {"rental_uris": {"ios": "https://dc.lft.to/lastmile_qr_scan", "android": "https://dc.lft.to/lastmile_qr_scan"}, "type": "electric_scooter", "name": "1830391e136fedd5d00e7de8e7bdf3b2", "is_reserved": 0, "lon": -76.9741535, "is_disabled": 0, "fusion_lat": 0.0, "lat": 38.901367666666665, "bike_id": "1830391e136fedd5d00e7de8e7bdf3b2", "fusion_lon": 0.0}, {"rental_uris": {"ios": "https://dc.lft.to/lastmile_qr_scan", "android": "https://dc.lft.to/lastmile_qr_scan"}, "type": "electric_scooter", "name": "34756c2af98ff568446942fa7e71e0c0", "is_reserved": 0, "lon": -77.0394655, "is_disabled": 0, "fusion_lat": 0.0, "lat": 38.90802766666667, "bike_id": "34756c2af98ff568446942fa7e71e0c0", "fusion_lon": 0.0}, {"rental_uris": {"ios": "https://dc.lft.to/lastmile_qr_scan", "android": "https://dc.lft.to/lastmile_qr_scan"}, "type": "electric_scooter", "name": "0a3d4d1b6ab11cc94b690f6757d05c73", "is_reserved": 0, "lon": -77.0406035, "is_disabled": 0, "fusion_lat": 0.0, "lat": 38.927605666666665, "bike_id": "0a3d4d1b6ab11cc94b690f6757d05c73", "fusion_lon": 0.0}, {"rental_uris": {"ios": "https://dc.lft.to/lastmile_qr_scan", "android": "https://dc.lft.to/lastmile_qr_scan"}, "type": "electric_scooter", "name": "9f66547745a872e6dd097164c2a252ff", "is_reserved": 0, "lon": -77.04503266666667, "is_disabled": 0, "fusion_lat": 0.0, "lat": 38.9141175, "bike_id": "9f66547745a872e6dd097164c2a252ff", "fusion_lon": 0.0}, {"rental_uris": {"ios": "https://dc.lft.to/lastmile_qr_scan", "android": "https://dc.lft.to/lastmile_qr_scan"}, "type": "electric_scooter", "name": "717a938f3eab1de70e2022c8e73bffe8", "is_reserved": 0, "lon": -76.929857, "is_disabled": 0, "fusion_lat": 0.0, "lat": 38.892914833333336, "bike_id": "717a938f3eab1de70e2022c8e73bffe8", "fusion_lon": 0.0}, {"rental_uris": {"ios": "https://dc.lft.to/lastmile_qr_scan", "android": "https://dc.lft.to/lastmile_qr_scan"}, "type": "electric_scooter", "name": "055e9bf25d79c6bb8f916bbcfba0f8a9", "is_reserved": 0, "lon": -77.006625, "is_disabled": 0, "fusion_lat": 0.0, "lat": 38.900068166666664, "bike_id": "055e9bf25d79c6bb8f916bbcfba0f8a9", "fusion_lon": 0.0}, {"rental_uris": {"ios": "https://dc.lft.to/lastmile_qr_scan", "android": "https://dc.lft.to/lastmile_qr_scan"}, "type": "electric_scooter", "name": "19f49dca0c0f4a2533630808530909bf", "is_reserved": 0, "lon": -77.05056333333333, "is_disabled": 0, "fusion_lat": 0.0, "lat": 38.92588583333333, "bike_id": "19f49dca0c0f4a2533630808530909bf", "fusion_lon": 0.0}, {"rental_uris": {"ios": "https://dc.lft.to/lastmile_qr_scan", "android": "https://dc.lft.to/lastmile_qr_scan"}, "type": "electric_scooter", "name": "573298c2540894318bb5483cc78b48ca", "is_reserved": 0, "lon": -77.02219233333334, "is_disabled": 0, "fusion_lat": 0.0, "lat": 38.92474633333333, "bike_id": "573298c2540894318bb5483cc78b48ca", "fusion_lon": 0.0}, {"rental_uris": {"ios": "https://dc.lft.to/lastmile_qr_scan", "android": "https://dc.lft.to/lastmile_qr_scan"}, "type": "electric_scooter", "name": "cd1278fcf9d4ad8ec5612d389230ab0d", "is_reserved": 0, "lon": -77.031862, "is_disabled": 0, "fusion_lat": 0.0, "lat": 38.920172, "bike_id": "cd1278fcf9d4ad8ec5612d389230ab0d", "fusion_lon": 0.0}, {"rental_uris": {"ios": "https://dc.lft.to/lastmile_qr_scan", "android": "https://dc.lft.to/lastmile_qr_scan"}, "type": "electric_bike", "name": "475939ab006550663eb5ac9c852f2756", "is_reserved": 0, "lon": -77.0067705, "is_disabled": 0, "fusion_lat": 0.0, "lat": 38.94515066666666, "bike_id": "475939ab006550663eb5ac9c852f2756", "fusion_lon": 0.0}, {"rental_uris": {"ios": "https://dc.lft.to/lastmile_qr_scan", "android": "https://dc.lft.to/lastmile_qr_scan"}, "type": "electric_scooter", "name": "cb19a4860e5e5e71ea6cf1f4345f521c", "is_reserved": 0, "lon": -77.03290333333334, "is_disabled": 0, "fusion_lat": 0.0, "lat": 38.89870466666667, "bike_id": "cb19a4860e5e5e71ea6cf1f4345f521c", "fusion_lon": 0.0}, {"rental_uris": {"ios": "https://dc.lft.to/lastmile_qr_scan", "android": "https://dc.lft.to/lastmile_qr_scan"}, "type": "electric_scooter", "name": "ac412f6916ba8e35290fb5374b800e44", "is_reserved": 0, "lon": -77.02957816666667, "is_disabled": 0, "fusion_lat": 0.0, "lat": 38.90708, "bike_id": "ac412f6916ba8e35290fb5374b800e44", "fusion_lon": 0.0}, {"rental_uris": {"ios": "https://dc.lft.to/lastmile_qr_scan", "android": "https://dc.lft.to/lastmile_qr_scan"}, "type": "electric_scooter", "name": "803ae1e4eac76c3f1a9237a560b21335", "is_reserved": 0, "lon": -77.0238545, "is_disabled": 0, "fusion_lat": 0.0, "lat": 38.933735666666664, "bike_id": "803ae1e4eac76c3f1a9237a560b21335", "fusion_lon": 0.0}, {"rental_uris": {"ios": "https://dc.lft.to/lastmile_qr_scan", "android": "https://dc.lft.to/lastmile_qr_scan"}, "type": "electric_scooter", "name": "163987f095e61b069427bf0af661026d", "is_reserved": 0, "lon": -77.0512935, "is_disabled": 0, "fusion_lat": 0.0, "lat": 38.89728733333333, "bike_id": "163987f095e61b069427bf0af661026d", "fusion_lon": 0.0}, {"rental_uris": {"ios": "https://dc.lft.to/lastmile_qr_scan", "android": "https://dc.lft.to/lastmile_qr_scan"}, "type": "electric_scooter", "name": "e2bf6a0828fdcb49ef1edcc73f4a1f75", "is_reserved": 0, "lon": -77.02288083333333, "is_disabled": 0, "fusion_lat": 0.0, "lat": 38.91683733333333, "bike_id": "e2bf6a0828fdcb49ef1edcc73f4a1f75", "fusion_lon": 0.0}, {"rental_uris": {"ios": "https://dc.lft.to/lastmile_qr_scan", "android": "https://dc.lft.to/lastmile_qr_scan"}, "type": "electric_scooter", "name": "a4364a374795e743379d99beb743b3f6", "is_reserved": 0, "lon": -77.00540866666667, "is_disabled": 0, "fusion_lat": 0.0, "lat": 38.87923683333333, "bike_id": "a4364a374795e743379d99beb743b3f6", "fusion_lon": 0.0}, {"rental_uris": {"ios": "https://dc.lft.to/lastmile_qr_scan", "android": "https://dc.lft.to/lastmile_qr_scan"}, "type": "electric_scooter", "name": "51504db403f6cbbb50ae0dcd8d09e38f", "is_reserved": 0, "lon": -77.02101516666667, "is_disabled": 0, "fusion_lat": 0.0, "lat": 38.923222833333334, "bike_id": "51504db403f6cbbb50ae0dcd8d09e38f", "fusion_lon": 0.0}, {"rental_uris": {"ios": "https://dc.lft.to/lastmile_qr_scan", "android": "https://dc.lft.to/lastmile_qr_scan"}, "type": "electric_scooter", "name": "763d34bc6513e4baae3dd5dabe0c819a", "is_reserved": 0, "lon": -77.04568916666666, "is_disabled": 0, "fusion_lat": 0.0, "lat": 38.91405066666667, "bike_id": "763d34bc6513e4baae3dd5dabe0c819a", "fusion_lon": 0.0}, {"rental_uris": {"ios": "https://dc.lft.to/lastmile_qr_scan", "android": "https://dc.lft.to/lastmile_qr_scan"}, "type": "electric_scooter", "name": "a854dc22c159f4b38c5c140f1098ecfb", "is_reserved": 0, "lon": -77.038422, "is_disabled": 0, "fusion_lat": 0.0, "lat": 38.91175333333333, "bike_id": "a854dc22c159f4b38c5c140f1098ecfb", "fusion_lon": 0.0}, {"rental_uris": {"ios": "https://dc.lft.to/lastmile_qr_scan", "android": "https://dc.lft.to/lastmile_qr_scan"}, "type": "electric_scooter", "name": "b8016dc936112d9247b3092dba0cbcc9", "is_reserved": 0, "lon": -77.007314, "is_disabled": 0, "fusion_lat": 0.0, "lat": 38.876704833333335, "bike_id": "b8016dc936112d9247b3092dba0cbcc9", "fusion_lon": 0.0}, {"rental_uris": {"ios": "https://dc.lft.to/lastmile_qr_scan", "android": "https://dc.lft.to/lastmile_qr_scan"}, "type": "electric_scooter", "name": "587079baf33a77b06b6b0ad026ba6f7f", "is_reserved": 0, "lon": -77.0005225, "is_disabled": 0, "fusion_lat": 0.0, "lat": 38.9232735, "bike_id": "587079baf33a77b06b6b0ad026ba6f7f", "fusion_lon": 0.0}, {"rental_uris": {"ios": "https://dc.lft.to/lastmile_qr_scan", "android": "https://dc.lft.to/lastmile_qr_scan"}, "type": "electric_scooter", "name": "72649f8e43be91b4eaf2b4b5d4b4e818", "is_reserved": 0, "lon": -77.0269275, "is_disabled": 0, "fusion_lat": 0.0, "lat": 38.949821166666666, "bike_id": "72649f8e43be91b4eaf2b4b5d4b4e818", "fusion_lon": 0.0}, {"rental_uris": {"ios": "https://dc.lft.to/lastmile_qr_scan", "android": "https://dc.lft.to/lastmile_qr_scan"}, "type": "electric_bike", "name": "d4f1ee41f843b09d799de864aea96537", "is_reserved": 0, "lon": -77.044251, "is_disabled": 0, "fusion_lat": 0.0, "lat": 39.0156535, "bike_id": "d4f1ee41f843b09d799de864aea96537", "fusion_lon": 0.0}, {"rental_uris": {"ios": "https://dc.lft.to/lastmile_qr_scan", "android": "https://dc.lft.to/lastmile_qr_scan"}, "type": "electric_scooter", "name": "a09f339e4db137edc15dc9bf69401316", "is_reserved": 0, "lon": -77.053218, "is_disabled": 0, "fusion_lat": 0.0, "lat": 38.90265516666667, "bike_id": "a09f339e4db137edc15dc9bf69401316", "fusion_lon": 0.0}, {"rental_uris": {"ios": "https://dc.lft.to/lastmile_qr_scan", "android": "https://dc.lft.to/lastmile_qr_scan"}, "type": "electric_bike", "name": "3b29ef26c3cd848df37148510c02f148", "is_reserved": 0, "lon": -77.12742233333333, "is_disabled": 0, "fusion_lat": 0.0, "lat": 38.895621166666665, "bike_id": "3b29ef26c3cd848df37148510c02f148", "fusion_lon": 0.0}, {"rental_uris": {"ios": "https://dc.lft.to/lastmile_qr_scan", "android": "https://dc.lft.to/lastmile_qr_scan"}, "type": "electric_scooter", "name": "c51f909d1f63fadbd3a09ce50d8d483d", "is_reserved": 0, "lon": -77.03337283333333, "is_disabled": 0, "fusion_lat": 0.0, "lat": 38.892224, "bike_id": "c51f909d1f63fadbd3a09ce50d8d483d", "fusion_lon": 0.0}, {"rental_uris": {"ios": "https://dc.lft.to/lastmile_qr_scan", "android": "https://dc.lft.to/lastmile_qr_scan"}, "type": "electric_bike", "name": "6fb17705c6366ac5f3db5e425f9df55a", "is_reserved": 0, "lon": -77.03429566666667, "is_disabled": 0, "fusion_lat": 0.0, "lat": 38.96537133333333, "bike_id": "6fb17705c6366ac5f3db5e425f9df55a", "fusion_lon": 0.0}, {"rental_uris": {"ios": "https://dc.lft.to/lastmile_qr_scan", "android": "https://dc.lft.to/lastmile_qr_scan"}, "type": "electric_scooter", "name": "679548fd046da8d4c07e53a3703d379c", "is_reserved": 0, "lon": -76.99619883333334, "is_disabled": 0, "fusion_lat": 0.0, "lat": 38.891881833333336, "bike_id": "679548fd046da8d4c07e53a3703d379c", "fusion_lon": 0.0}, {"rental_uris": {"ios": "https://dc.lft.to/lastmile_qr_scan", "android": "https://dc.lft.to/lastmile_qr_scan"}, "type": "electric_bike", "name": "d01a8d435151e59132609e386e9d7e61", "is_reserved": 0, "lon": -77.09621466666667, "is_disabled": 0, "fusion_lat": 0.0, "lat": 38.952465333333336, "bike_id": "d01a8d435151e59132609e386e9d7e61", "fusion_lon": 0.0}, {"rental_uris": {"ios": "https://dc.lft.to/lastmile_qr_scan", "android": "https://dc.lft.to/lastmile_qr_scan"}, "type": "electric_scooter", "name": "641936c34afeb8dcc56503fad0793e6b", "is_reserved": 0, "lon": -77.00995266666666, "is_disabled": 0, "fusion_lat": 0.0, "lat": 38.9111585, "bike_id": "641936c34afeb8dcc56503fad0793e6b", "fusion_lon": 0.0}, {"rental_uris": {"ios": "https://dc.lft.to/lastmile_qr_scan", "android": "https://dc.lft.to/lastmile_qr_scan"}, "type": "electric_scooter", "name": "f2dcfbe55a2f2419840bc600c9aa7678", "is_reserved": 0, "lon": -77.02292083333333, "is_disabled": 0, "fusion_lat": 0.0, "lat": 38.907524, "bike_id": "f2dcfbe55a2f2419840bc600c9aa7678", "fusion_lon": 0.0}, {"rental_uris": {"ios": "https://dc.lft.to/lastmile_qr_scan", "android": "https://dc.lft.to/lastmile_qr_scan"}, "type": "electric_scooter", "name": "37d9d7d0b5a83d3c1b5e000cf77720a9", "is_reserved": 0, "lon": -77.03705766666667, "is_disabled": 0, "fusion_lat": 0.0, "lat": 38.9265585, "bike_id": "37d9d7d0b5a83d3c1b5e000cf77720a9", "fusion_lon": 0.0}, {"rental_uris": {"ios": "https://dc.lft.to/lastmile_qr_scan", "android": "https://dc.lft.to/lastmile_qr_scan"}, "type": "electric_scooter", "name": "23587a2365f86f2fea7150b191402ba7", "is_reserved": 0, "lon": -77.03042766666667, "is_disabled": 0, "fusion_lat": 0.0, "lat": 38.88427466666667, "bike_id": "23587a2365f86f2fea7150b191402ba7", "fusion_lon": 0.0}, {"rental_uris": {"ios": "https://dc.lft.to/lastmile_qr_scan", "android": "https://dc.lft.to/lastmile_qr_scan"}, "type": "electric_scooter", "name": "6e1499fd7972009857f882bba287231c", "is_reserved": 0, "lon": -77.04026, "is_disabled": 0, "fusion_lat": 0.0, "lat": 38.922464, "bike_id": "6e1499fd7972009857f882bba287231c", "fusion_lon": 0.0}, {"rental_uris": {"ios": "https://dc.lft.to/lastmile_qr_scan", "android": "https://dc.lft.to/lastmile_qr_scan"}, "type": "electric_scooter", "name": "ef21591ff4202dcdedb8136e10148f39", "is_reserved": 0, "lon": -77.03953733333333, "is_disabled": 0, "fusion_lat": 0.0, "lat": 38.89247916666667, "bike_id": "ef21591ff4202dcdedb8136e10148f39", "fusion_lon": 0.0}, {"rental_uris": {"ios": "https://dc.lft.to/lastmile_qr_scan", "android": "https://dc.lft.to/lastmile_qr_scan"}, "type": "electric_scooter", "name": "8249bb374b0330cd410dd5e2a2d5c148", "is_reserved": 0, "lon": -76.929509, "is_disabled": 0, "fusion_lat": 0.0, "lat": 38.903353333333335, "bike_id": "8249bb374b0330cd410dd5e2a2d5c148", "fusion_lon": 0.0}, {"rental_uris": {"ios": "https://dc.lft.to/lastmile_qr_scan", "android": "https://dc.lft.to/lastmile_qr_scan"}, "type": "electric_scooter", "name": "c43d55fb46ab4b155d9de8bd7549d005", "is_reserved": 0, "lon": -76.98494016666666, "is_disabled": 0, "fusion_lat": 0.0, "lat": 38.92001833333333, "bike_id": "c43d55fb46ab4b155d9de8bd7549d005", "fusion_lon": 0.0}, {"rental_uris": {"ios": "https://dc.lft.to/lastmile_qr_scan", "android": "https://dc.lft.to/lastmile_qr_scan"}, "type": "electric_scooter", "name": "695ed53c3d773cfc490d200b74884f5e", "is_reserved": 0, "lon": -77.02059383333334, "is_disabled": 0, "fusion_lat": 0.0, "lat": 38.9240125, "bike_id": "695ed53c3d773cfc490d200b74884f5e", "fusion_lon": 0.0}, {"rental_uris": {"ios": "https://dc.lft.to/lastmile_qr_scan", "android": "https://dc.lft.to/lastmile_qr_scan"}, "type": "electric_scooter", "name": "b3048fb43f07555d1bcbfab71a345446", "is_reserved": 0, "lon": -77.01589416666667, "is_disabled": 0, "fusion_lat": 0.0, "lat": 38.872169666666665, "bike_id": "b3048fb43f07555d1bcbfab71a345446", "fusion_lon": 0.0}, {"rental_uris": {"ios": "https://dc.lft.to/lastmile_qr_scan", "android": "https://dc.lft.to/lastmile_qr_scan"}, "type": "electric_scooter", "name": "5904918b3060bcae6f34edc58751337e", "is_reserved": 0, "lon": -77.07596583333333, "is_disabled": 0, "fusion_lat": 0.0, "lat": 38.937481, "bike_id": "5904918b3060bcae6f34edc58751337e", "fusion_lon": 0.0}, {"rental_uris": {"ios": "https://dc.lft.to/lastmile_qr_scan", "android": "https://dc.lft.to/lastmile_qr_scan"}, "type": "electric_scooter", "name": "14cafafa0ff55b3d0b27dc1b656ab4ce", "is_reserved": 0, "lon": -77.03067633333333, "is_disabled": 0, "fusion_lat": 0.0, "lat": 38.9224425, "bike_id": "14cafafa0ff55b3d0b27dc1b656ab4ce", "fusion_lon": 0.0}, {"rental_uris": {"ios": "https://dc.lft.to/lastmile_qr_scan", "android": "https://dc.lft.to/lastmile_qr_scan"}, "type": "electric_scooter", "name": "73387a23c6bf07abd89040c29356477b", "is_reserved": 0, "lon": -77.02332983333334, "is_disabled": 0, "fusion_lat": 0.0, "lat": 38.91111866666667, "bike_id": "73387a23c6bf07abd89040c29356477b", "fusion_lon": 0.0}, {"rental_uris": {"ios": "https://dc.lft.to/lastmile_qr_scan", "android": "https://dc.lft.to/lastmile_qr_scan"}, "type": "electric_scooter", "name": "ed709d75d990d096b3a0b84fca470241", "is_reserved": 0, "lon": -77.0134745, "is_disabled": 0, "fusion_lat": 0.0, "lat": 38.919346166666664, "bike_id": "ed709d75d990d096b3a0b84fca470241", "fusion_lon": 0.0}, {"rental_uris": {"ios": "https://dc.lft.to/lastmile_qr_scan", "android": "https://dc.lft.to/lastmile_qr_scan"}, "type": "electric_scooter", "name": "5b60c75a259729c4e192d9e618e0da52", "is_reserved": 0, "lon": -77.0651865, "is_disabled": 0, "fusion_lat": 0.0, "lat": 38.905930166666664, "bike_id": "5b60c75a259729c4e192d9e618e0da52", "fusion_lon": 0.0}, {"rental_uris": {"ios": "https://dc.lft.to/lastmile_qr_scan", "android": "https://dc.lft.to/lastmile_qr_scan"}, "type": "electric_scooter", "name": "86564589943f6ddc6375c4f0d3ff6bcc", "is_reserved": 0, "lon": -77.031793, "is_disabled": 0, "fusion_lat": 0.0, "lat": 38.90869033333333, "bike_id": "86564589943f6ddc6375c4f0d3ff6bcc", "fusion_lon": 0.0}, {"rental_uris": {"ios": "https://dc.lft.to/lastmile_qr_scan", "android": "https://dc.lft.to/lastmile_qr_scan"}, "type": "electric_scooter", "name": "2b89da80cb04958e70599f88b2693c72", "is_reserved": 0, "lon": -77.01020183333333, "is_disabled": 0, "fusion_lat": 0.0, "lat": 38.914061333333336, "bike_id": "2b89da80cb04958e70599f88b2693c72", "fusion_lon": 0.0}, {"rental_uris": {"ios": "https://dc.lft.to/lastmile_qr_scan", "android": "https://dc.lft.to/lastmile_qr_scan"}, "type": "electric_scooter", "name": "95faa8af6163de30638d884da3a7fa47", "is_reserved": 0, "lon": -77.02127816666666, "is_disabled": 0, "fusion_lat": 0.0, "lat": 38.913352333333336, "bike_id": "95faa8af6163de30638d884da3a7fa47", "fusion_lon": 0.0}, {"rental_uris": {"ios": "https://dc.lft.to/lastmile_qr_scan", "android": "https://dc.lft.to/lastmile_qr_scan"}, "type": "electric_scooter", "name": "972a203da0079fabb11620cfb1c46fb5", "is_reserved": 0, "lon": -77.03123933333333, "is_disabled": 0, "fusion_lat": 0.0, "lat": 38.923621, "bike_id": "972a203da0079fabb11620cfb1c46fb5", "fusion_lon": 0.0}, {"rental_uris": {"ios": "https://dc.lft.to/lastmile_qr_scan", "android": "https://dc.lft.to/lastmile_qr_scan"}, "type": "electric_scooter", "name": "ee4e240cf04d8c1aec8639c5ff526bee", "is_reserved": 0, "lon": -77.03288333333333, "is_disabled": 0, "fusion_lat": 0.0, "lat": 38.924388666666665, "bike_id": "ee4e240cf04d8c1aec8639c5ff526bee", "fusion_lon": 0.0}, {"rental_uris": {"ios": "https://dc.lft.to/lastmile_qr_scan", "android": "https://dc.lft.to/lastmile_qr_scan"}, "type": "electric_scooter", "name": "83b8ce09ea6e509f5c3d4b41688797ed", "is_reserved": 0, "lon": -77.0365565, "is_disabled": 0, "fusion_lat": 0.0, "lat": 38.91002866666667, "bike_id": "83b8ce09ea6e509f5c3d4b41688797ed", "fusion_lon": 0.0}, {"rental_uris": {"ios": "https://dc.lft.to/lastmile_qr_scan", "android": "https://dc.lft.to/lastmile_qr_scan"}, "type": "electric_scooter", "name": "ce0a0594a8e31f73286dadd5921557cf", "is_reserved": 0, "lon": -77.044927, "is_disabled": 0, "fusion_lat": 0.0, "lat": 38.91516083333333, "bike_id": "ce0a0594a8e31f73286dadd5921557cf", "fusion_lon": 0.0}, {"rental_uris": {"ios": "https://dc.lft.to/lastmile_qr_scan", "android": "https://dc.lft.to/lastmile_qr_scan"}, "type": "electric_scooter", "name": "59de5f64ab2bac3af4cdb252507fdc0c", "is_reserved": 0, "lon": -77.0423095, "is_disabled": 0, "fusion_lat": 0.0, "lat": 38.921932, "bike_id": "59de5f64ab2bac3af4cdb252507fdc0c", "fusion_lon": 0.0}, {"rental_uris": {"ios": "https://dc.lft.to/lastmile_qr_scan", "android": "https://dc.lft.to/lastmile_qr_scan"}, "type": "electric_scooter", "name": "b172422a8e0b61bc626bb0df80f9d16a", "is_reserved": 0, "lon": -77.0417575, "is_disabled": 0, "fusion_lat": 0.0, "lat": 38.913984166666665, "bike_id": "b172422a8e0b61bc626bb0df80f9d16a", "fusion_lon": 0.0}, {"rental_uris": {"ios": "https://dc.lft.to/lastmile_qr_scan", "android": "https://dc.lft.to/lastmile_qr_scan"}, "type": "electric_scooter", "name": "31d70539ffdc78f60332bc68806cee14", "is_reserved": 0, "lon": -77.03889983333333, "is_disabled": 0, "fusion_lat": 0.0, "lat": 38.922452666666665, "bike_id": "31d70539ffdc78f60332bc68806cee14", "fusion_lon": 0.0}, {"rental_uris": {"ios": "https://dc.lft.to/lastmile_qr_scan", "android": "https://dc.lft.to/lastmile_qr_scan"}, "type": "electric_scooter", "name": "dcb501587e764ed6d946923299a6480a", "is_reserved": 0, "lon": -77.0365985, "is_disabled": 0, "fusion_lat": 0.0, "lat": 38.922875166666664, "bike_id": "dcb501587e764ed6d946923299a6480a", "fusion_lon": 0.0}, {"rental_uris": {"ios": "https://dc.lft.to/lastmile_qr_scan", "android": "https://dc.lft.to/lastmile_qr_scan"}, "type": "electric_scooter", "name": "c7b1d5bf55ed19c29b04e8ba1c0ae582", "is_reserved": 0, "lon": -77.03695633333334, "is_disabled": 0, "fusion_lat": 0.0, "lat": 38.93285916666667, "bike_id": "c7b1d5bf55ed19c29b04e8ba1c0ae582", "fusion_lon": 0.0}, {"rental_uris": {"ios": "https://dc.lft.to/lastmile_qr_scan", "android": "https://dc.lft.to/lastmile_qr_scan"}, "type": "electric_scooter", "name": "bd8961b7cdf4eb8d78e2683019d77d08", "is_reserved": 0, "lon": -77.02267666666667, "is_disabled": 0, "fusion_lat": 0.0, "lat": 38.92413083333334, "bike_id": "bd8961b7cdf4eb8d78e2683019d77d08", "fusion_lon": 0.0}, {"rental_uris": {"ios": "https://dc.lft.to/lastmile_qr_scan", "android": "https://dc.lft.to/lastmile_qr_scan"}, "type": "electric_scooter", "name": "04eb6397b6a0139395f92ede834e7ec0", "is_reserved": 0, "lon": -77.02354033333333, "is_disabled": 0, "fusion_lat": 0.0, "lat": 38.935351, "bike_id": "04eb6397b6a0139395f92ede834e7ec0", "fusion_lon": 0.0}, {"rental_uris": {"ios": "https://dc.lft.to/lastmile_qr_scan", "android": "https://dc.lft.to/lastmile_qr_scan"}, "type": "electric_scooter", "name": "78145cf2e52cc29c0a4bf9d7121873d6", "is_reserved": 0, "lon": -77.03404816666666, "is_disabled": 0, "fusion_lat": 0.0, "lat": 38.91969433333333, "bike_id": "78145cf2e52cc29c0a4bf9d7121873d6", "fusion_lon": 0.0}, {"rental_uris": {"ios": "https://dc.lft.to/lastmile_qr_scan", "android": "https://dc.lft.to/lastmile_qr_scan"}, "type": "electric_scooter", "name": "91b869a85253cc16508e989f3c134c86", "is_reserved": 0, "lon": -77.02306616666667, "is_disabled": 0, "fusion_lat": 0.0, "lat": 38.961279166666664, "bike_id": "91b869a85253cc16508e989f3c134c86", "fusion_lon": 0.0}, {"rental_uris": {"ios": "https://dc.lft.to/lastmile_qr_scan", "android": "https://dc.lft.to/lastmile_qr_scan"}, "type": "electric_scooter", "name": "bc447e2243ca868eef9005661e05ef3b", "is_reserved": 0, "lon": -77.031684, "is_disabled": 0, "fusion_lat": 0.0, "lat": 38.920008, "bike_id": "bc447e2243ca868eef9005661e05ef3b", "fusion_lon": 0.0}, {"rental_uris": {"ios": "https://dc.lft.to/lastmile_qr_scan", "android": "https://dc.lft.to/lastmile_qr_scan"}, "type": "electric_scooter", "name": "b6a0da336ce411e213a693020d172ae8", "is_reserved": 0, "lon": -77.0250155, "is_disabled": 0, "fusion_lat": 0.0, "lat": 38.92067766666667, "bike_id": "b6a0da336ce411e213a693020d172ae8", "fusion_lon": 0.0}, {"rental_uris": {"ios": "https://dc.lft.to/lastmile_qr_scan", "android": "https://dc.lft.to/lastmile_qr_scan"}, "type": "electric_scooter", "name": "b423ba11c8771a785784426959cae1ae", "is_reserved": 0, "lon": -77.007346, "is_disabled": 0, "fusion_lat": 0.0, "lat": 38.90563066666667, "bike_id": "b423ba11c8771a785784426959cae1ae", "fusion_lon": 0.0}, {"rental_uris": {"ios": "https://dc.lft.to/lastmile_qr_scan", "android": "https://dc.lft.to/lastmile_qr_scan"}, "type": "electric_bike", "name": "818813a0dc796526285821e8b31a18a7", "is_reserved": 0, "lon": -77.02816933333334, "is_disabled": 0, "fusion_lat": 0.0, "lat": 38.965275166666665, "bike_id": "818813a0dc796526285821e8b31a18a7", "fusion_lon": 0.0}, {"rental_uris": {"ios": "https://dc.lft.to/lastmile_qr_scan", "android": "https://dc.lft.to/lastmile_qr_scan"}, "type": "electric_scooter", "name": "f3e25812fb3c3782de9ae889f41d309a", "is_reserved": 0, "lon": -77.0219865, "is_disabled": 0, "fusion_lat": 0.0, "lat": 38.91126533333333, "bike_id": "f3e25812fb3c3782de9ae889f41d309a", "fusion_lon": 0.0}, {"rental_uris": {"ios": "https://dc.lft.to/lastmile_qr_scan", "android": "https://dc.lft.to/lastmile_qr_scan"}, "type": "electric_scooter", "name": "93280db288ecd1767fe3bc9994dbf85d", "is_reserved": 0, "lon": -77.027204, "is_disabled": 0, "fusion_lat": 0.0, "lat": 38.912182333333334, "bike_id": "93280db288ecd1767fe3bc9994dbf85d", "fusion_lon": 0.0}, {"rental_uris": {"ios": "https://dc.lft.to/lastmile_qr_scan", "android": "https://dc.lft.to/lastmile_qr_scan"}, "type": "electric_scooter", "name": "f55c2fddff0fd2c111c4588b1b4ae9aa", "is_reserved": 0, "lon": -77.02283533333333, "is_disabled": 0, "fusion_lat": 0.0, "lat": 38.9078455, "bike_id": "f55c2fddff0fd2c111c4588b1b4ae9aa", "fusion_lon": 0.0}, {"rental_uris": {"ios": "https://dc.lft.to/lastmile_qr_scan", "android": "https://dc.lft.to/lastmile_qr_scan"}, "type": "electric_scooter", "name": "9c86007f7f4fc984e11422a3beb98412", "is_reserved": 0, "lon": -77.04135366666667, "is_disabled": 0, "fusion_lat": 0.0, "lat": 38.934675, "bike_id": "9c86007f7f4fc984e11422a3beb98412", "fusion_lon": 0.0}, {"rental_uris": {"ios": "https://dc.lft.to/lastmile_qr_scan", "android": "https://dc.lft.to/lastmile_qr_scan"}, "type": "electric_scooter", "name": "252aaf610d1ec80828541f773b90ab19", "is_reserved": 0, "lon": -76.9889005, "is_disabled": 0, "fusion_lat": 0.0, "lat": 38.899526, "bike_id": "252aaf610d1ec80828541f773b90ab19", "fusion_lon": 0.0}, {"rental_uris": {"ios": "https://dc.lft.to/lastmile_qr_scan", "android": "https://dc.lft.to/lastmile_qr_scan"}, "type": "electric_scooter", "name": "7ba285cbd2d4529e7fb9d266d8f58650", "is_reserved": 0, "lon": -77.01582816666667, "is_disabled": 0, "fusion_lat": 0.0, "lat": 38.9168885, "bike_id": "7ba285cbd2d4529e7fb9d266d8f58650", "fusion_lon": 0.0}, {"rental_uris": {"ios": "https://dc.lft.to/lastmile_qr_scan", "android": "https://dc.lft.to/lastmile_qr_scan"}, "type": "electric_scooter", "name": "7e8c6a35f2969289b7d8ccbb1aff55b7", "is_reserved": 0, "lon": -77.03937233333333, "is_disabled": 0, "fusion_lat": 0.0, "lat": 38.91416666666667, "bike_id": "7e8c6a35f2969289b7d8ccbb1aff55b7", "fusion_lon": 0.0}, {"rental_uris": {"ios": "https://dc.lft.to/lastmile_qr_scan", "android": "https://dc.lft.to/lastmile_qr_scan"}, "type": "electric_scooter", "name": "835e364cec54b733a0e4dff8c1722323", "is_reserved": 0, "lon": -77.04366633333333, "is_disabled": 0, "fusion_lat": 0.0, "lat": 38.892155833333334, "bike_id": "835e364cec54b733a0e4dff8c1722323", "fusion_lon": 0.0}, {"rental_uris": {"ios": "https://dc.lft.to/lastmile_qr_scan", "android": "https://dc.lft.to/lastmile_qr_scan"}, "type": "electric_scooter", "name": "03a3a2cab9b5b2c1b151773c0825c5ff", "is_reserved": 0, "lon": -76.99103483333333, "is_disabled": 0, "fusion_lat": 0.0, "lat": 38.85726433333333, "bike_id": "03a3a2cab9b5b2c1b151773c0825c5ff", "fusion_lon": 0.0}, {"rental_uris": {"ios": "https://dc.lft.to/lastmile_qr_scan", "android": "https://dc.lft.to/lastmile_qr_scan"}, "type": "electric_scooter", "name": "cfd88d8c2e8ee0dc4bd91ef2cd58880f", "is_reserved": 0, "lon": -77.0207585, "is_disabled": 0, "fusion_lat": 0.0, "lat": 38.927002333333334, "bike_id": "cfd88d8c2e8ee0dc4bd91ef2cd58880f", "fusion_lon": 0.0}, {"rental_uris": {"ios": "https://dc.lft.to/lastmile_qr_scan", "android": "https://dc.lft.to/lastmile_qr_scan"}, "type": "electric_scooter", "name": "01ca6f9728621b7e5950cdb64a39bc06", "is_reserved": 0, "lon": -77.03227283333334, "is_disabled": 0, "fusion_lat": 0.0, "lat": 38.90719816666667, "bike_id": "01ca6f9728621b7e5950cdb64a39bc06", "fusion_lon": 0.0}, {"rental_uris": {"ios": "https://dc.lft.to/lastmile_qr_scan", "android": "https://dc.lft.to/lastmile_qr_scan"}, "type": "electric_scooter", "name": "53f77da2aa7cd663f387f8436864e055", "is_reserved": 0, "lon": -77.00865183333333, "is_disabled": 0, "fusion_lat": 0.0, "lat": 38.897452666666666, "bike_id": "53f77da2aa7cd663f387f8436864e055", "fusion_lon": 0.0}, {"rental_uris": {"ios": "https://dc.lft.to/lastmile_qr_scan", "android": "https://dc.lft.to/lastmile_qr_scan"}, "type": "electric_scooter", "name": "b6ec26e2509fd13d74c77ac05de1f437", "is_reserved": 0, "lon": -77.04181883333334, "is_disabled": 0, "fusion_lat": 0.0, "lat": 38.91114683333333, "bike_id": "b6ec26e2509fd13d74c77ac05de1f437", "fusion_lon": 0.0}, {"rental_uris": {"ios": "https://dc.lft.to/lastmile_qr_scan", "android": "https://dc.lft.to/lastmile_qr_scan"}, "type": "electric_scooter", "name": "762253f9cbe590ab66752958a312540b", "is_reserved": 0, "lon": -77.021623, "is_disabled": 0, "fusion_lat": 0.0, "lat": 38.899185333333335, "bike_id": "762253f9cbe590ab66752958a312540b", "fusion_lon": 0.0}, {"rental_uris": {"ios": "https://dc.lft.to/lastmile_qr_scan", "android": "https://dc.lft.to/lastmile_qr_scan"}, "type": "electric_scooter", "name": "1b336f0aefb89460f0708165799dd46b", "is_reserved": 0, "lon": -76.96980616666667, "is_disabled": 0, "fusion_lat": 0.0, "lat": 38.861403833333334, "bike_id": "1b336f0aefb89460f0708165799dd46b", "fusion_lon": 0.0}, {"rental_uris": {"ios": "https://dc.lft.to/lastmile_qr_scan", "android": "https://dc.lft.to/lastmile_qr_scan"}, "type": "electric_scooter", "name": "7966782a1b8c38334cd638ee089776ca", "is_reserved": 0, "lon": -77.0176745, "is_disabled": 0, "fusion_lat": 0.0, "lat": 38.900845833333335, "bike_id": "7966782a1b8c38334cd638ee089776ca", "fusion_lon": 0.0}, {"rental_uris": {"ios": "https://dc.lft.to/lastmile_qr_scan", "android": "https://dc.lft.to/lastmile_qr_scan"}, "type": "electric_scooter", "name": "d55ef220fc5e850d253d6578e5e5eb6d", "is_reserved": 0, "lon": -77.03277633333333, "is_disabled": 0, "fusion_lat": 0.0, "lat": 38.92946516666667, "bike_id": "d55ef220fc5e850d253d6578e5e5eb6d", "fusion_lon": 0.0}, {"rental_uris": {"ios": "https://dc.lft.to/lastmile_qr_scan", "android": "https://dc.lft.to/lastmile_qr_scan"}, "type": "electric_scooter", "name": "d7efc7c1663365c747b34a659aac0f1a", "is_reserved": 0, "lon": -77.04368333333333, "is_disabled": 0, "fusion_lat": 0.0, "lat": 38.89219833333333, "bike_id": "d7efc7c1663365c747b34a659aac0f1a", "fusion_lon": 0.0}, {"rental_uris": {"ios": "https://dc.lft.to/lastmile_qr_scan", "android": "https://dc.lft.to/lastmile_qr_scan"}, "type": "electric_scooter", "name": "911496a4f057946c4aa7a006ef69627c", "is_reserved": 0, "lon": -77.03421816666666, "is_disabled": 0, "fusion_lat": 0.0, "lat": 38.92200066666667, "bike_id": "911496a4f057946c4aa7a006ef69627c", "fusion_lon": 0.0}, {"rental_uris": {"ios": "https://dc.lft.to/lastmile_qr_scan", "android": "https://dc.lft.to/lastmile_qr_scan"}, "type": "electric_scooter", "name": "cff5bb75fef5722006ad520fa16bbca9", "is_reserved": 0, "lon": -77.01945466666666, "is_disabled": 0, "fusion_lat": 0.0, "lat": 38.92412216666666, "bike_id": "cff5bb75fef5722006ad520fa16bbca9", "fusion_lon": 0.0}, {"rental_uris": {"ios": "https://dc.lft.to/lastmile_qr_scan", "android": "https://dc.lft.to/lastmile_qr_scan"}, "type": "electric_bike", "name": "5593050a693cd0ed8a8638540a15d1a3", "is_reserved": 0, "lon": -77.085325, "is_disabled": 0, "fusion_lat": 0.0, "lat": 38.856478, "bike_id": "5593050a693cd0ed8a8638540a15d1a3", "fusion_lon": 0.0}, {"rental_uris": {"ios": "https://dc.lft.to/lastmile_qr_scan", "android": "https://dc.lft.to/lastmile_qr_scan"}, "type": "electric_scooter", "name": "c6332b1d229a3f6bb64478e328a19c8b", "is_reserved": 0, "lon": -77.03317633333333, "is_disabled": 0, "fusion_lat": 0.0, "lat": 38.898790166666664, "bike_id": "c6332b1d229a3f6bb64478e328a19c8b", "fusion_lon": 0.0}, {"rental_uris": {"ios": "https://dc.lft.to/lastmile_qr_scan", "android": "https://dc.lft.to/lastmile_qr_scan"}, "type": "electric_scooter", "name": "19c5338557b735d42438570cccd240b0", "is_reserved": 0, "lon": -77.09027133333333, "is_disabled": 0, "fusion_lat": 0.0, "lat": 38.95602133333333, "bike_id": "19c5338557b735d42438570cccd240b0", "fusion_lon": 0.0}, {"rental_uris": {"ios": "https://dc.lft.to/lastmile_qr_scan", "android": "https://dc.lft.to/lastmile_qr_scan"}, "type": "electric_scooter", "name": "49f8cbc04b8e9a6197de70df9b1b7c46", "is_reserved": 0, "lon": -77.01758466666666, "is_disabled": 0, "fusion_lat": 0.0, "lat": 38.87707016666667, "bike_id": "49f8cbc04b8e9a6197de70df9b1b7c46", "fusion_lon": 0.0}, {"rental_uris": {"ios": "https://dc.lft.to/lastmile_qr_scan", "android": "https://dc.lft.to/lastmile_qr_scan"}, "type": "electric_scooter", "name": "c106216152dcc9d5b3ecf7768140aebd", "is_reserved": 0, "lon": -77.0343575, "is_disabled": 0, "fusion_lat": 0.0, "lat": 38.917924, "bike_id": "c106216152dcc9d5b3ecf7768140aebd", "fusion_lon": 0.0}, {"rental_uris": {"ios": "https://dc.lft.to/lastmile_qr_scan", "android": "https://dc.lft.to/lastmile_qr_scan"}, "type": "electric_scooter", "name": "c57f78f33d00de0f4c228e043882a9eb", "is_reserved": 0, "lon": -77.03787383333334, "is_disabled": 0, "fusion_lat": 0.0, "lat": 38.923372666666666, "bike_id": "c57f78f33d00de0f4c228e043882a9eb", "fusion_lon": 0.0}, {"rental_uris": {"ios": "https://dc.lft.to/lastmile_qr_scan", "android": "https://dc.lft.to/lastmile_qr_scan"}, "type": "electric_scooter", "name": "4fefd1efdc64292f3bd2e5b26ac6612d", "is_reserved": 0, "lon": -77.04506066666667, "is_disabled": 0, "fusion_lat": 0.0, "lat": 38.91931566666667, "bike_id": "4fefd1efdc64292f3bd2e5b26ac6612d", "fusion_lon": 0.0}, {"rental_uris": {"ios": "https://dc.lft.to/lastmile_qr_scan", "android": "https://dc.lft.to/lastmile_qr_scan"}, "type": "electric_scooter", "name": "e0876be568089ff5151ecb88a7dc607f", "is_reserved": 0, "lon": -77.02205016666667, "is_disabled": 0, "fusion_lat": 0.0, "lat": 38.92048966666667, "bike_id": "e0876be568089ff5151ecb88a7dc607f", "fusion_lon": 0.0}, {"rental_uris": {"ios": "https://dc.lft.to/lastmile_qr_scan", "android": "https://dc.lft.to/lastmile_qr_scan"}, "type": "electric_scooter", "name": "b36345dded60b02959197696190da508", "is_reserved": 0, "lon": -76.98427, "is_disabled": 0, "fusion_lat": 0.0, "lat": 38.914590833333335, "bike_id": "b36345dded60b02959197696190da508", "fusion_lon": 0.0}, {"rental_uris": {"ios": "https://dc.lft.to/lastmile_qr_scan", "android": "https://dc.lft.to/lastmile_qr_scan"}, "type": "electric_scooter", "name": "f5a0d912d7711bbd86c667b9ec168156", "is_reserved": 0, "lon": -76.97355466666667, "is_disabled": 0, "fusion_lat": 0.0, "lat": 38.85004833333333, "bike_id": "f5a0d912d7711bbd86c667b9ec168156", "fusion_lon": 0.0}, {"rental_uris": {"ios": "https://dc.lft.to/lastmile_qr_scan", "android": "https://dc.lft.to/lastmile_qr_scan"}, "type": "electric_scooter", "name": "5f476f1d4892799e2a835b81749b7443", "is_reserved": 0, "lon": -77.00573516666667, "is_disabled": 0, "fusion_lat": 0.0, "lat": 38.907026, "bike_id": "5f476f1d4892799e2a835b81749b7443", "fusion_lon": 0.0}, {"rental_uris": {"ios": "https://dc.lft.to/lastmile_qr_scan", "android": "https://dc.lft.to/lastmile_qr_scan"}, "type": "electric_scooter", "name": "8d5e8fb7ca0f27595153bea886827414", "is_reserved": 0, "lon": -77.0176785, "is_disabled": 0, "fusion_lat": 0.0, "lat": 38.88724533333333, "bike_id": "8d5e8fb7ca0f27595153bea886827414", "fusion_lon": 0.0}, {"rental_uris": {"ios": "https://dc.lft.to/lastmile_qr_scan", "android": "https://dc.lft.to/lastmile_qr_scan"}, "type": "electric_scooter", "name": "f5ae531861329243dfbe73bc6b6250ff", "is_reserved": 0, "lon": -76.933861, "is_disabled": 0, "fusion_lat": 0.0, "lat": 38.899003, "bike_id": "f5ae531861329243dfbe73bc6b6250ff", "fusion_lon": 0.0}, {"rental_uris": {"ios": "https://dc.lft.to/lastmile_qr_scan", "android": "https://dc.lft.to/lastmile_qr_scan"}, "type": "electric_scooter", "name": "3cd14cc670c1659f9e8a2c28d53f67c1", "is_reserved": 0, "lon": -77.02653416666666, "is_disabled": 0, "fusion_lat": 0.0, "lat": 38.881202333333334, "bike_id": "3cd14cc670c1659f9e8a2c28d53f67c1", "fusion_lon": 0.0}, {"rental_uris": {"ios": "https://dc.lft.to/lastmile_qr_scan", "android": "https://dc.lft.to/lastmile_qr_scan"}, "type": "electric_scooter", "name": "73d8d7feb6202d5bf2ad0d44c397a5e6", "is_reserved": 0, "lon": -77.02183416666666, "is_disabled": 0, "fusion_lat": 0.0, "lat": 38.919812666666665, "bike_id": "73d8d7feb6202d5bf2ad0d44c397a5e6", "fusion_lon": 0.0}, {"rental_uris": {"ios": "https://dc.lft.to/lastmile_qr_scan", "android": "https://dc.lft.to/lastmile_qr_scan"}, "type": "electric_scooter", "name": "a5dced14fc909f9fe542628d3899379d", "is_reserved": 0, "lon": -77.00794616666667, "is_disabled": 0, "fusion_lat": 0.0, "lat": 38.897157666666665, "bike_id": "a5dced14fc909f9fe542628d3899379d", "fusion_lon": 0.0}, {"rental_uris": {"ios": "https://dc.lft.to/lastmile_qr_scan", "android": "https://dc.lft.to/lastmile_qr_scan"}, "type": "electric_scooter", "name": "b1d061d78689d85c42dc85f40c025e14", "is_reserved": 0, "lon": -77.012214, "is_disabled": 0, "fusion_lat": 0.0, "lat": 38.90095383333333, "bike_id": "b1d061d78689d85c42dc85f40c025e14", "fusion_lon": 0.0}, {"rental_uris": {"ios": "https://dc.lft.to/lastmile_qr_scan", "android": "https://dc.lft.to/lastmile_qr_scan"}, "type": "electric_scooter", "name": "fbac2155b2397d1040ad48e90d8fe0f2", "is_reserved": 0, "lon": -76.9831895, "is_disabled": 0, "fusion_lat": 0.0, "lat": 38.878352166666666, "bike_id": "fbac2155b2397d1040ad48e90d8fe0f2", "fusion_lon": 0.0}, {"rental_uris": {"ios": "https://dc.lft.to/lastmile_qr_scan", "android": "https://dc.lft.to/lastmile_qr_scan"}, "type": "electric_scooter", "name": "d2fb4084b97b6a2442c345ec37ec8043", "is_reserved": 0, "lon": -77.04664666666666, "is_disabled": 0, "fusion_lat": 0.0, "lat": 38.921156833333335, "bike_id": "d2fb4084b97b6a2442c345ec37ec8043", "fusion_lon": 0.0}, {"rental_uris": {"ios": "https://dc.lft.to/lastmile_qr_scan", "android": "https://dc.lft.to/lastmile_qr_scan"}, "type": "electric_scooter", "name": "542419269a666987330b67e9b871f977", "is_reserved": 0, "lon": -76.98702683333333, "is_disabled": 0, "fusion_lat": 0.0, "lat": 38.8596595, "bike_id": "542419269a666987330b67e9b871f977", "fusion_lon": 0.0}, {"rental_uris": {"ios": "https://dc.lft.to/lastmile_qr_scan", "android": "https://dc.lft.to/lastmile_qr_scan"}, "type": "electric_scooter", "name": "fd3cc620579b031cdac6867b8c16ed75", "is_reserved": 0, "lon": -77.0011945, "is_disabled": 0, "fusion_lat": 0.0, "lat": 38.878013, "bike_id": "fd3cc620579b031cdac6867b8c16ed75", "fusion_lon": 0.0}, {"rental_uris": {"ios": "https://dc.lft.to/lastmile_qr_scan", "android": "https://dc.lft.to/lastmile_qr_scan"}, "type": "electric_scooter", "name": "7cbb0c74271e6c564900b225be72cdc8", "is_reserved": 0, "lon": -77.0147555, "is_disabled": 0, "fusion_lat": 0.0, "lat": 38.94326316666667, "bike_id": "7cbb0c74271e6c564900b225be72cdc8", "fusion_lon": 0.0}, {"rental_uris": {"ios": "https://dc.lft.to/lastmile_qr_scan", "android": "https://dc.lft.to/lastmile_qr_scan"}, "type": "electric_scooter", "name": "833498925b1f35351a1cc6c2e68543f1", "is_reserved": 0, "lon": -77.041423, "is_disabled": 0, "fusion_lat": 0.0, "lat": 38.930456166666666, "bike_id": "833498925b1f35351a1cc6c2e68543f1", "fusion_lon": 0.0}, {"rental_uris": {"ios": "https://dc.lft.to/lastmile_qr_scan", "android": "https://dc.lft.to/lastmile_qr_scan"}, "type": "electric_scooter", "name": "4ffa350fa4394325b2ee7e95bc8091fe", "is_reserved": 0, "lon": -77.039549, "is_disabled": 0, "fusion_lat": 0.0, "lat": 38.8924425, "bike_id": "4ffa350fa4394325b2ee7e95bc8091fe", "fusion_lon": 0.0}, {"rental_uris": {"ios": "https://dc.lft.to/lastmile_qr_scan", "android": "https://dc.lft.to/lastmile_qr_scan"}, "type": "electric_scooter", "name": "faef42f87252fb945a00e6a1aa9f054d", "is_reserved": 0, "lon": -77.00200416666667, "is_disabled": 0, "fusion_lat": 0.0, "lat": 38.90038233333333, "bike_id": "faef42f87252fb945a00e6a1aa9f054d", "fusion_lon": 0.0}, {"rental_uris": {"ios": "https://dc.lft.to/lastmile_qr_scan", "android": "https://dc.lft.to/lastmile_qr_scan"}, "type": "electric_scooter", "name": "e843cc8662034abc5d938e1f58811b67", "is_reserved": 0, "lon": -77.03034566666666, "is_disabled": 0, "fusion_lat": 0.0, "lat": 38.922373666666665, "bike_id": "e843cc8662034abc5d938e1f58811b67", "fusion_lon": 0.0}, {"rental_uris": {"ios": "https://dc.lft.to/lastmile_qr_scan", "android": "https://dc.lft.to/lastmile_qr_scan"}, "type": "electric_scooter", "name": "3095fd8f73551b6133d029c4716bce86", "is_reserved": 0, "lon": -77.02621316666666, "is_disabled": 0, "fusion_lat": 0.0, "lat": 38.892154166666664, "bike_id": "3095fd8f73551b6133d029c4716bce86", "fusion_lon": 0.0}, {"rental_uris": {"ios": "https://dc.lft.to/lastmile_qr_scan", "android": "https://dc.lft.to/lastmile_qr_scan"}, "type": "electric_scooter", "name": "13e047706e56d85728198337b214f25a", "is_reserved": 0, "lon": -77.02414683333333, "is_disabled": 0, "fusion_lat": 0.0, "lat": 38.909566166666664, "bike_id": "13e047706e56d85728198337b214f25a", "fusion_lon": 0.0}, {"rental_uris": {"ios": "https://dc.lft.to/lastmile_qr_scan", "android": "https://dc.lft.to/lastmile_qr_scan"}, "type": "electric_bike", "name": "eb833f87ef2a643bb8bd1c8ae4f03d14", "is_reserved": 0, "lon": -77.06698166666666, "is_disabled": 0, "fusion_lat": 0.0, "lat": 38.83168716666667, "bike_id": "eb833f87ef2a643bb8bd1c8ae4f03d14", "fusion_lon": 0.0}, {"rental_uris": {"ios": "https://dc.lft.to/lastmile_qr_scan", "android": "https://dc.lft.to/lastmile_qr_scan"}, "type": "electric_scooter", "name": "cf9dee7e3cee8b2f2dde6b36751be231", "is_reserved": 0, "lon": -76.97053933333333, "is_disabled": 0, "fusion_lat": 0.0, "lat": 38.87326616666667, "bike_id": "cf9dee7e3cee8b2f2dde6b36751be231", "fusion_lon": 0.0}, {"rental_uris": {"ios": "https://dc.lft.to/lastmile_qr_scan", "android": "https://dc.lft.to/lastmile_qr_scan"}, "type": "electric_scooter", "name": "a6130db75c349a8f5c57992ba2308acb", "is_reserved": 0, "lon": -77.02900083333333, "is_disabled": 0, "fusion_lat": 0.0, "lat": 38.94041966666666, "bike_id": "a6130db75c349a8f5c57992ba2308acb", "fusion_lon": 0.0}, {"rental_uris": {"ios": "https://dc.lft.to/lastmile_qr_scan", "android": "https://dc.lft.to/lastmile_qr_scan"}, "type": "electric_scooter", "name": "08690a2639bf8323fbbb58697a73428a", "is_reserved": 0, "lon": -76.986059, "is_disabled": 0, "fusion_lat": 0.0, "lat": 38.878358666666664, "bike_id": "08690a2639bf8323fbbb58697a73428a", "fusion_lon": 0.0}, {"rental_uris": {"ios": "https://dc.lft.to/lastmile_qr_scan", "android": "https://dc.lft.to/lastmile_qr_scan"},