{"data": {"bikes": [{"lat": 38.912894, "is_disabled": 0, "type": "electric_scooter", "lon": -77.04550566666667, "bike_id": "4972a6c42dfcac2624d22e2ccbd7167d", "fusion_lat": 0.0, "name": "4972a6c42dfcac2624d22e2ccbd7167d", "is_reserved": 0, "rental_uris": {"android": "https://dc.lft.to/lastmile_qr_scan", "ios": "https://dc.lft.to/lastmile_qr_scan"}, "fusion_lon": 0.0}, {"lat": 38.9692795, "is_disabled": 0, "type": "electric_bike", "lon": -77.0262155, "bike_id": "fad40f82a3f0b50266104cd4c78681b0", "fusion_lat": 0.0, "name": "fad40f82a3f0b50266104cd4c78681b0", "is_reserved": 0, "rental_uris": {"android": "https://dc.lft.to/lastmile_qr_scan", "ios": "https://dc.lft.to/lastmile_qr_scan"}, "fusion_lon": 0.0}, {"lat": 38.90454116666667, "is_disabled": 0, "type": "electric_scooter", "lon": -76.99457216666667, "bike_id": "711c4c67c192b491aae09ce9845fe3d0", "fusion_lat": 0.0, "name": "711c4c67c192b491aae09ce9845fe3d0", "is_reserved": 0, "rental_uris": {"android": "https://dc.lft.to/lastmile_qr_scan", "ios": "https://dc.lft.to/lastmile_qr_scan"}, "fusion_lon": 0.0}, {"lat": 38.91707433333333, "is_disabled": 0, "type": "electric_scooter", "lon": -77.03470716666666, "bike_id": "be2f5a2281cb233d73bedfe430c3caa2", "fusion_lat": 0.0, "name": "be2f5a2281cb233d73bedfe430c3caa2", "is_reserved": 0, "rental_uris": {"android": "https://dc.lft.to/lastmile_qr_scan", "ios": "https://dc.lft.to/lastmile_qr_scan"}, "fusion_lon": 0.0}, {"lat": 38.92518416666667, "is_disabled": 0, "type": "electric_scooter", "lon": -77.02130583333333, "bike_id": "c067178c1f7427356ba4486f1b3d93e8", "fusion_lat": 0.0, "name": "c067178c1f7427356ba4486f1b3d93e8", "is_reserved": 0, "rental_uris": {"android": "https://dc.lft.to/lastmile_qr_scan", "ios": "https://dc.lft.to/lastmile_qr_scan"}, "fusion_lon": 0.0}, {"lat": 38.96605566666667, "is_disabled": 0, "type": "electric_bike", "lon": -76.98328766666667, "bike_id": "e402a690e06b76007b69f4294e29b400", "fusion_lat": 0.0, "name": "e402a690e06b76007b69f4294e29b400", "is_reserved": 0, "rental_uris": {"android": "https://dc.lft.to/lastmile_qr_scan", "ios": "https://dc.lft.to/lastmile_qr_scan"}, "fusion_lon": 0.0}, {"lat": 38.8983945, "is_disabled": 0, "type": "electric_scooter", "lon": -76.93102983333333, "bike_id": "219f95c16f598154ad01b764e6c99334", "fusion_lat": 0.0, "name": "219f95c16f598154ad01b764e6c99334", "is_reserved": 0, "rental_uris": {"android": "https://dc.lft.to/lastmile_qr_scan", "ios": "https://dc.lft.to/lastmile_qr_scan"}, "fusion_lon": 0.0}, {"lat": 38.892465333333334, "is_disabled": 0, "type": "electric_scooter", "lon": -77.048942, "bike_id": "0496eb9ec4b2f8e947887b982a0c677f", "fusion_lat": 0.0, "name": "0496eb9ec4b2f8e947887b982a0c677f", "is_reserved": 0, "rental_uris": {"android": "https://dc.lft.to/lastmile_qr_scan", "ios": "https://dc.lft.to/lastmile_qr_scan"}, "fusion_lon": 0.0}, {"lat": 38.9161425, "is_disabled": 0, "type": "electric_bike", "lon": -77.02135433333333, "bike_id": "1422aeb908edde2c829ad6c4a74fca79", "fusion_lat": 0.0, "name": "1422aeb908edde2c829ad6c4a74fca79", "is_reserved": 0, "rental_uris": {"android": "https://dc.lft.to/lastmile_qr_scan", "ios": "https://dc.lft.to/lastmile_qr_scan"}, "fusion_lon": 0.0}, {"lat": 38.930981, "is_disabled": 0, "type": "electric_scooter", "lon": -77.02559916666667, "bike_id": "5550e350c9c995a9d4464fc1e8107b4c", "fusion_lat": 0.0, "name": "5550e350c9c995a9d4464fc1e8107b4c", "is_reserved": 0, "rental_uris": {"android": "https://dc.lft.to/lastmile_qr_scan", "ios": "https://dc.lft.to/lastmile_qr_scan"}, "fusion_lon": 0.0}, {"lat": 38.938251, "is_disabled": 0, "type": "electric_scooter", "lon": -77.06035716666666, "bike_id": "c5983766585fde6729ef4134a38378c8", "fusion_lat": 0.0, "name": "c5983766585fde6729ef4134a38378c8", "is_reserved": 0, "rental_uris": {"android": "https://dc.lft.to/lastmile_qr_scan", "ios": "https://dc.lft.to/lastmile_qr_scan"}, "fusion_lon": 0.0}, {"lat": 38.88495416666667, "is_disabled": 0, "type": "electric_scooter", "lon": -77.00915116666667, "bike_id": "6ab9469780adceeb93c13907085f6053", "fusion_lat": 0.0, "name": "6ab9469780adceeb93c13907085f6053", "is_reserved": 0, "rental_uris": {"android": "https://dc.lft.to/lastmile_qr_scan", "ios": "https://dc.lft.to/lastmile_qr_scan"}, "fusion_lon": 0.0}, {"lat": 38.913364333333334, "is_disabled": 0, "type": "electric_scooter", "lon": -77.01268783333333, "bike_id": "97a654b9e2c25e6295ceb35cf686248b", "fusion_lat": 0.0, "name": "97a654b9e2c25e6295ceb35cf686248b", "is_reserved": 0, "rental_uris": {"android": "https://dc.lft.to/lastmile_qr_scan", "ios": "https://dc.lft.to/lastmile_qr_scan"}, "fusion_lon": 0.0}, {"lat": 38.90059516666667, "is_disabled": 0, "type": "electric_scooter", "lon": -77.00209016666666, "bike_id": "5bcf9ba4cf49f87d05e3015999e56d86", "fusion_lat": 0.0, "name": "5bcf9ba4cf49f87d05e3015999e56d86", "is_reserved": 0, "rental_uris": {"android": "https://dc.lft.to/lastmile_qr_scan", "ios": "https://dc.lft.to/lastmile_qr_scan"}, "fusion_lon": 0.0}, {"lat": 38.9267595, "is_disabled": 0, "type": "electric_scooter", "lon": -77.00738133333333, "bike_id": "7dbf6e8ad1be89bc4d4695fd99b2fd52", "fusion_lat": 0.0, "name": "7dbf6e8ad1be89bc4d4695fd99b2fd52", "is_reserved": 0, "rental_uris": {"android": "https://dc.lft.to/lastmile_qr_scan", "ios": "https://dc.lft.to/lastmile_qr_scan"}, "fusion_lon": 0.0}, {"lat": 38.8949585, "is_disabled": 0, "type": "electric_scooter", "lon": -77.0021355, "bike_id": "c72ec8fd36234040eeb1873554ab7b6b", "fusion_lat": 0.0, "name": "c72ec8fd36234040eeb1873554ab7b6b", "is_reserved": 0, "rental_uris": {"android": "https://dc.lft.to/lastmile_qr_scan", "ios": "https://dc.lft.to/lastmile_qr_scan"}, "fusion_lon": 0.0}, {"lat": 38.8868725, "is_disabled": 0, "type": "electric_scooter", "lon": -77.01765633333333, "bike_id": "3692a439ab8bff224d31832a7a9b6627", "fusion_lat": 0.0, "name": "3692a439ab8bff224d31832a7a9b6627", "is_reserved": 0, "rental_uris": {"android": "https://dc.lft.to/lastmile_qr_scan", "ios": "https://dc.lft.to/lastmile_qr_scan"}, "fusion_lon": 0.0}, {"lat": 38.89220366666667, "is_disabled": 0, "type": "electric_bike", "lon": -77.1077865, "bike_id": "28591f5cf1cce4a1d329e70249bd0bc1", "fusion_lat": 0.0, "name": "28591f5cf1cce4a1d329e70249bd0bc1", "is_reserved": 0, "rental_uris": {"android": "https://dc.lft.to/lastmile_qr_scan", "ios": "https://dc.lft.to/lastmile_qr_scan"}, "fusion_lon": 0.0}, {"lat": 38.903960833333336, "is_disabled": 0, "type": "electric_scooter", "lon": -76.98462733333334, "bike_id": "3465bddffa01d0ab47465f1c3896eeeb", "fusion_lat": 0.0, "name": "3465bddffa01d0ab47465f1c3896eeeb", "is_reserved": 0, "rental_uris": {"android": "https://dc.lft.to/lastmile_qr_scan", "ios": "https://dc.lft.to/lastmile_qr_scan"}, "fusion_lon": 0.0}, {"lat": 38.93373866666667, "is_disabled": 0, "type": "electric_scooter", "lon": -77.02406083333334, "bike_id": "548a83c657229b366dcd5f49bf41606f", "fusion_lat": 0.0, "name": "548a83c657229b366dcd5f49bf41606f", "is_reserved": 0, "rental_uris": {"android": "https://dc.lft.to/lastmile_qr_scan", "ios": "https://dc.lft.to/lastmile_qr_scan"}, "fusion_lon": 0.0}, {"lat": 38.89789833333333, "is_disabled": 0, "type": "electric_bike", "lon": -77.0269485, "bike_id": "b4170dca1921d919bb37b7d28a3f0bc4", "fusion_lat": 0.0, "name": "b4170dca1921d919bb37b7d28a3f0bc4", "is_reserved": 0, "rental_uris": {"android": "https://dc.lft.to/lastmile_qr_scan", "ios": "https://dc.lft.to/lastmile_qr_scan"}, "fusion_lon": 0.0}, {"lat": 38.96216916666667, "is_disabled": 0, "type": "electric_bike", "lon": -77.02627633333333, "bike_id": "ad1692e1f02730122c1d6fcde4575f7a", "fusion_lat": 0.0, "name": "ad1692e1f02730122c1d6fcde4575f7a", "is_reserved": 0, "rental_uris": {"android": "https://dc.lft.to/lastmile_qr_scan", "ios": "https://dc.lft.to/lastmile_qr_scan"}, "fusion_lon": 0.0}, {"lat": 38.93754, "is_disabled": 0, "type": "electric_scooter", "lon": -77.03258483333333, "bike_id": "b06a7b39efec430fbc7105c927752418", "fusion_lat": 0.0, "name": "b06a7b39efec430fbc7105c927752418", "is_reserved": 0, "rental_uris": {"android": "https://dc.lft.to/lastmile_qr_scan", "ios": "https://dc.lft.to/lastmile_qr_scan"}, "fusion_lon": 0.0}, {"lat": 38.930995333333335, "is_disabled": 0, "type": "electric_scooter", "lon": -77.02496666666667, "bike_id": "78ce05745521b49577f609322446bdb2", "fusion_lat": 0.0, "name": "78ce05745521b49577f609322446bdb2", "is_reserved": 0, "rental_uris": {"android": "https://dc.lft.to/lastmile_qr_scan", "ios": "https://dc.lft.to/lastmile_qr_scan"}, "fusion_lon": 0.0}, {"lat": 38.90455433333333, "is_disabled": 0, "type": "electric_scooter", "lon": -76.99456633333334, "bike_id": "72355ed9af00c063375e0fe71b062ffe", "fusion_lat": 0.0, "name": "72355ed9af00c063375e0fe71b062ffe", "is_reserved": 0, "rental_uris": {"android": "https://dc.lft.to/lastmile_qr_scan", "ios": "https://dc.lft.to/lastmile_qr_scan"}, "fusion_lon": 0.0}, {"lat": 38.912759333333334, "is_disabled": 0, "type": "electric_scooter", "lon": -77.03839, "bike_id": "a13601316a68f60454ab1a83e4af72e9", "fusion_lat": 0.0, "name": "a13601316a68f60454ab1a83e4af72e9", "is_reserved": 0, "rental_uris": {"android": "https://dc.lft.to/lastmile_qr_scan", "ios": "https://dc.lft.to/lastmile_qr_scan"}, "fusion_lon": 0.0}, {"lat": 38.87792966666667, "is_disabled": 0, "type": "electric_bike", "lon": -77.02327783333334, "bike_id": "b15ba3acf4dd7b53d19211817965f16b", "fusion_lat": 0.0, "name": "b15ba3acf4dd7b53d19211817965f16b", "is_reserved": 0, "rental_uris": {"android": "https://dc.lft.to/lastmile_qr_scan", "ios": "https://dc.lft.to/lastmile_qr_scan"}, "fusion_lon": 0.0}, {"lat": 38.89766083333333, "is_disabled": 0, "type": "electric_scooter", "lon": -77.02948133333334, "bike_id": "1869350cbbf916e5014d2b374357f69c", "fusion_lat": 0.0, "name": "1869350cbbf916e5014d2b374357f69c", "is_reserved": 0, "rental_uris": {"android": "https://dc.lft.to/lastmile_qr_scan", "ios": "https://dc.lft.to/lastmile_qr_scan"}, "fusion_lon": 0.0}, {"lat": 38.913433, "is_disabled": 0, "type": "electric_scooter", "lon": -77.0405015, "bike_id": "eb497841d3a6a3d535fa77719ef1a8dd", "fusion_lat": 0.0, "name": "eb497841d3a6a3d535fa77719ef1a8dd", "is_reserved": 0, "rental_uris": {"android": "https://dc.lft.to/lastmile_qr_scan", "ios": "https://dc.lft.to/lastmile_qr_scan"}, "fusion_lon": 0.0}, {"lat": 38.89584633333333, "is_disabled": 0, "type": "electric_scooter", "lon": -77.02286583333333, "bike_id": "3026271a410ef6c240ad4fbef8b8a8ca", "fusion_lat": 0.0, "name": "3026271a410ef6c240ad4fbef8b8a8ca", "is_reserved": 0, "rental_uris": {"android": "https://dc.lft.to/lastmile_qr_scan", "ios": "https://dc.lft.to/lastmile_qr_scan"}, "fusion_lon": 0.0}, {"lat": 39.03045933333333, "is_disabled": 0, "type": "electric_bike", "lon": -77.09476316666667, "bike_id": "1a5477dc2c24ec132c9e9d7cb1d451e9", "fusion_lat": 0.0, "name": "1a5477dc2c24ec132c9e9d7cb1d451e9", "is_reserved": 0, "rental_uris": {"android": "https://dc.lft.to/lastmile_qr_scan", "ios": "https://dc.lft.to/lastmile_qr_scan"}, "fusion_lon": 0.0}, {"lat": 38.9497655, "is_disabled": 0, "type": "electric_scooter", "lon": -77.0676275, "bike_id": "6aecf08bd4d3d9064b980bd2fa3df638", "fusion_lat": 0.0, "name": "6aecf08bd4d3d9064b980bd2fa3df638", "is_reserved": 0, "rental_uris": {"android": "https://dc.lft.to/lastmile_qr_scan", "ios": "https://dc.lft.to/lastmile_qr_scan"}, "fusion_lon": 0.0}, {"lat": 38.92516883333333, "is_disabled": 0, "type": "electric_scooter", "lon": -77.02130616666666, "bike_id": "7e717b75130aad2fcc6189c81d0bf1d4", "fusion_lat": 0.0, "name": "7e717b75130aad2fcc6189c81d0bf1d4", "is_reserved": 0, "rental_uris": {"android": "https://dc.lft.to/lastmile_qr_scan", "ios": "https://dc.lft.to/lastmile_qr_scan"}, "fusion_lon": 0.0}, {"lat": 38.901341333333335, "is_disabled": 0, "type": "electric_scooter", "lon": -77.02883, "bike_id": "562db8266567ad272cf9c66f67af30e9", "fusion_lat": 0.0, "name": "562db8266567ad272cf9c66f67af30e9", "is_reserved": 0, "rental_uris": {"android": "https://dc.lft.to/lastmile_qr_scan", "ios": "https://dc.lft.to/lastmile_qr_scan"}, "fusion_lon": 0.0}, {"lat": 39.024304, "is_disabled": 0, "type": "electric_bike", "lon": -77.13096766666666, "bike_id": "544c585aea9a1b5f77fb50b7fed7aa10", "fusion_lat": 0.0, "name": "544c585aea9a1b5f77fb50b7fed7aa10", "is_reserved": 0, "rental_uris": {"android": "https://dc.lft.to/lastmile_qr_scan", "ios": "https://dc.lft.to/lastmile_qr_scan"}, "fusion_lon": 0.0}, {"lat": 38.9515495, "is_disabled": 0, "type": "electric_scooter", "lon": -77.06769733333333, "bike_id": "cde6fd906141822c04f7330a10985471", "fusion_lat": 0.0, "name": "cde6fd906141822c04f7330a10985471", "is_reserved": 0, "rental_uris": {"android": "https://dc.lft.to/lastmile_qr_scan", "ios": "https://dc.lft.to/lastmile_qr_scan"}, "fusion_lon": 0.0}, {"lat": 38.91706083333333, "is_disabled": 0, "type": "electric_scooter", "lon": -77.03869933333333, "bike_id": "0dc25bbdcee8ae18fcc3667fea785093", "fusion_lat": 0.0, "name": "0dc25bbdcee8ae18fcc3667fea785093", "is_reserved": 0, "rental_uris": {"android": "https://dc.lft.to/lastmile_qr_scan", "ios": "https://dc.lft.to/lastmile_qr_scan"}, "fusion_lon": 0.0}, {"lat": 38.99817133333333, "is_disabled": 0, "type": "electric_bike", "lon": -76.88374633333333, "bike_id": "5421b63d3e0ca0130cb179e93f203281", "fusion_lat": 0.0, "name": "5421b63d3e0ca0130cb179e93f203281", "is_reserved": 0, "rental_uris": {"android": "https://dc.lft.to/lastmile_qr_scan", "ios": "https://dc.lft.to/lastmile_qr_scan"}, "fusion_lon": 0.0}, {"lat": 38.90004166666667, "is_disabled": 0, "type": "electric_scooter", "lon": -77.02175366666667, "bike_id": "e5fe3d64edd66f4da93203434b218b00", "fusion_lat": 0.0, "name": "e5fe3d64edd66f4da93203434b218b00", "is_reserved": 0, "rental_uris": {"android": "https://dc.lft.to/lastmile_qr_scan", "ios": "https://dc.lft.to/lastmile_qr_scan"}, "fusion_lon": 0.0}, {"lat": 38.906579, "is_disabled": 0, "type": "electric_scooter", "lon": -77.05301166666666, "bike_id": "a692a62dd022780514229aea2d928392", "fusion_lat": 0.0, "name": "a692a62dd022780514229aea2d928392", "is_reserved": 0, "rental_uris": {"android": "https://dc.lft.to/lastmile_qr_scan", "ios": "https://dc.lft.to/lastmile_qr_scan"}, "fusion_lon": 0.0}, {"lat": 38.901238, "is_disabled": 0, "type": "electric_scooter", "lon": -77.02702616666667, "bike_id": "e079fa5de5d9f80f9570710d602c4ca3", "fusion_lat": 0.0, "name": "e079fa5de5d9f80f9570710d602c4ca3", "is_reserved": 0, "rental_uris": {"android": "https://dc.lft.to/lastmile_qr_scan", "ios": "https://dc.lft.to/lastmile_qr_scan"}, "fusion_lon": 0.0}, {"lat": 38.90363333333333, "is_disabled": 0, "type": "electric_scooter", "lon": -77.01771016666666, "bike_id": "3051e7dc1521093f01db2c9fc013d9c0", "fusion_lat": 0.0, "name": "3051e7dc1521093f01db2c9fc013d9c0", "is_reserved": 0, "rental_uris": {"android": "https://dc.lft.to/lastmile_qr_scan", "ios": "https://dc.lft.to/lastmile_qr_scan"}, "fusion_lon": 0.0}, {"lat": 38.881093166666666, "is_disabled": 0, "type": "electric_scooter", "lon": -76.9833545, "bike_id": "caca1340f7b1626352eb3656265cb29f", "fusion_lat": 0.0, "name": "caca1340f7b1626352eb3656265cb29f", "is_reserved": 0, "rental_uris": {"android": "https://dc.lft.to/lastmile_qr_scan", "ios": "https://dc.lft.to/lastmile_qr_scan"}, "fusion_lon": 0.0}, {"lat": 38.916216, "is_disabled": 0, "type": "electric_scooter", "lon": -77.04292133333334, "bike_id": "ec3c96e288bdf6e807f9bcf1e2448aa9", "fusion_lat": 0.0, "name": "ec3c96e288bdf6e807f9bcf1e2448aa9", "is_reserved": 0, "rental_uris": {"android": "https://dc.lft.to/lastmile_qr_scan", "ios": "https://dc.lft.to/lastmile_qr_scan"}, "fusion_lon": 0.0}, {"lat": 38.925696, "is_disabled": 0, "type": "electric_scooter", "lon": -77.05744783333333, "bike_id": "20833196d252d29a28982f49ab051199", "fusion_lat": 0.0, "name": "20833196d252d29a28982f49ab051199", "is_reserved": 0, "rental_uris": {"android": "https://dc.lft.to/lastmile_qr_scan", "ios": "https://dc.lft.to/lastmile_qr_scan"}, "fusion_lon": 0.0}, {"lat": 38.92745216666667, "is_disabled": 0, "type": "electric_scooter", "lon": -76.99708633333333, "bike_id": "cfd2b6fd57e5c5809cc70245eb38ff01", "fusion_lat": 0.0, "name": "cfd2b6fd57e5c5809cc70245eb38ff01", "is_reserved": 0, "rental_uris": {"android": "https://dc.lft.to/lastmile_qr_scan", "ios": "https://dc.lft.to/lastmile_qr_scan"}, "fusion_lon": 0.0}, {"lat": 38.901537833333336, "is_disabled": 0, "type": "electric_scooter", "lon": -76.9862885, "bike_id": "b5c516247ce6fac385eeb3f8f9f37e5c", "fusion_lat": 0.0, "name": "b5c516247ce6fac385eeb3f8f9f37e5c", "is_reserved": 0, "rental_uris": {"android": "https://dc.lft.to/lastmile_qr_scan", "ios": "https://dc.lft.to/lastmile_qr_scan"}, "fusion_lon": 0.0}, {"lat": 38.89766233333334, "is_disabled": 0, "type": "electric_bike", "lon": -76.90438433333334, "bike_id": "55fb070ce81b0d446a6ff0ff8f59c127", "fusion_lat": 0.0, "name": "55fb070ce81b0d446a6ff0ff8f59c127", "is_reserved": 0, "rental_uris": {"android": "https://dc.lft.to/lastmile_qr_scan", "ios": "https://dc.lft.to/lastmile_qr_scan"}, "fusion_lon": 0.0}, {"lat": 38.956403, "is_disabled": 0, "type": "electric_bike", "lon": -76.93876283333333, "bike_id": "e398ccb9f4151ffea75c4950f33513cd", "fusion_lat": 0.0, "name": "e398ccb9f4151ffea75c4950f33513cd", "is_reserved": 0, "rental_uris": {"android": "https://dc.lft.to/lastmile_qr_scan", "ios": "https://dc.lft.to/lastmile_qr_scan"}, "fusion_lon": 0.0}, {"lat": 38.9214135, "is_disabled": 0, "type": "electric_scooter", "lon": -77.03483183333333, "bike_id": "bf0432db85e82c05f249ef8d4841451d", "fusion_lat": 0.0, "name": "bf0432db85e82c05f249ef8d4841451d", "is_reserved": 0, "rental_uris": {"android": "https://dc.lft.to/lastmile_qr_scan", "ios": "https://dc.lft.to/lastmile_qr_scan"}, "fusion_lon": 0.0}, {"lat": 38.95184483333333, "is_disabled": 0, "type": "electric_bike", "lon": -76.935419, "bike_id": "ee03db6cc6d6728234d65da6ce1feb18", "fusion_lat": 0.0, "name": "ee03db6cc6d6728234d65da6ce1feb18", "is_reserved": 0, "rental_uris": {"android": "https://dc.lft.to/lastmile_qr_scan", "ios": "https://dc.lft.to/lastmile_qr_scan"}, "fusion_lon": 0.0}, {"lat": 38.87082733333333, "is_disabled": 0, "type": "electric_scooter", "lon": -77.01186733333333, "bike_id": "41b0632297dd1479c203afb616281628", "fusion_lat": 0.0, "name": "41b0632297dd1479c203afb616281628", "is_reserved": 0, "rental_uris": {"android": "https://dc.lft.to/lastmile_qr_scan", "ios": "https://dc.lft.to/lastmile_qr_scan"}, "fusion_lon": 0.0}, {"lat": 38.920472333333336, "is_disabled": 0, "type": "electric_scooter", "lon": -77.04193616666667, "bike_id": "1ba951ed868b500ff94d9a8764b54b9a", "fusion_lat": 0.0, "name": "1ba951ed868b500ff94d9a8764b54b9a", "is_reserved": 0, "rental_uris": {"android": "https://dc.lft.to/lastmile_qr_scan", "ios": "https://dc.lft.to/lastmile_qr_scan"}, "fusion_lon": 0.0}, {"lat": 38.9297065, "is_disabled": 0, "type": "electric_scooter", "lon": -77.0282285, "bike_id": "1f3525a82b09c4f0f11e50e12457534d", "fusion_lat": 0.0, "name": "1f3525a82b09c4f0f11e50e12457534d", "is_reserved": 0, "rental_uris": {"android": "https://dc.lft.to/lastmile_qr_scan", "ios": "https://dc.lft.to/lastmile_qr_scan"}, "fusion_lon": 0.0}, {"lat": 38.92060266666667, "is_disabled": 0, "type": "electric_scooter", "lon": -77.0437175, "bike_id": "d703565cef4b5db9841170dd654f0a84", "fusion_lat": 0.0, "name": "d703565cef4b5db9841170dd654f0a84", "is_reserved": 0, "rental_uris": {"android": "https://dc.lft.to/lastmile_qr_scan", "ios": "https://dc.lft.to/lastmile_qr_scan"}, "fusion_lon": 0.0}, {"lat": 38.87732333333334, "is_disabled": 0, "type": "electric_bike", "lon": -77.11852366666666, "bike_id": "6d75095c6e22956cb64c35567360e683", "fusion_lat": 0.0, "name": "6d75095c6e22956cb64c35567360e683", "is_reserved": 0, "rental_uris": {"android": "https://dc.lft.to/lastmile_qr_scan", "ios": "https://dc.lft.to/lastmile_qr_scan"}, "fusion_lon": 0.0}, {"lat": 38.91349066666667, "is_disabled": 0, "type": "electric_scooter", "lon": -77.03181066666667, "bike_id": "72aaf055b9ca66c53995b81202e568fc", "fusion_lat": 0.0, "name": "72aaf055b9ca66c53995b81202e568fc", "is_reserved": 0, "rental_uris": {"android": "https://dc.lft.to/lastmile_qr_scan", "ios": "https://dc.lft.to/lastmile_qr_scan"}, "fusion_lon": 0.0}, {"lat": 38.862559166666664, "is_disabled": 0, "type": "electric_scooter", "lon": -76.98692783333334, "bike_id": "b0db1daab4b8c5a140920f31f278391c", "fusion_lat": 0.0, "name": "b0db1daab4b8c5a140920f31f278391c", "is_reserved": 0, "rental_uris": {"android": "https://dc.lft.to/lastmile_qr_scan", "ios": "https://dc.lft.to/lastmile_qr_scan"}, "fusion_lon": 0.0}, {"lat": 38.91105666666667, "is_disabled": 0, "type": "electric_scooter", "lon": -77.036195, "bike_id": "377e58fc9f3075a4f9758d4947126be8", "fusion_lat": 0.0, "name": "377e58fc9f3075a4f9758d4947126be8", "is_reserved": 0, "rental_uris": {"android": "https://dc.lft.to/lastmile_qr_scan", "ios": "https://dc.lft.to/lastmile_qr_scan"}, "fusion_lon": 0.0}, {"lat": 38.932250833333335, "is_disabled": 0, "type": "electric_scooter", "lon": -76.99602616666667, "bike_id": "63e45ff599103380ba82b0ceae4f2f40", "fusion_lat": 0.0, "name": "63e45ff599103380ba82b0ceae4f2f40", "is_reserved": 0, "rental_uris": {"android": "https://dc.lft.to/lastmile_qr_scan", "ios": "https://dc.lft.to/lastmile_qr_scan"}, "fusion_lon": 0.0}, {"lat": 38.92675916666666, "is_disabled": 0, "type": "electric_scooter", "lon": -77.03803266666667, "bike_id": "dca42262de8348483cc8235e0e13eefa", "fusion_lat": 0.0, "name": "dca42262de8348483cc8235e0e13eefa", "is_reserved": 0, "rental_uris": {"android": "https://dc.lft.to/lastmile_qr_scan", "ios": "https://dc.lft.to/lastmile_qr_scan"}, "fusion_lon": 0.0}, {"lat": 38.916993, "is_disabled": 0, "type": "electric_scooter", "lon": -77.03197483333334, "bike_id": "acdd2cf86ff31ace0dd08f5e07ee3c5e", "fusion_lat": 0.0, "name": "acdd2cf86ff31ace0dd08f5e07ee3c5e", "is_reserved": 0, "rental_uris": {"android": "https://dc.lft.to/lastmile_qr_scan", "ios": "https://dc.lft.to/lastmile_qr_scan"}, "fusion_lon": 0.0}, {"lat": 38.916873333333335, "is_disabled": 0, "type": "electric_scooter", "lon": -77.02712283333334, "bike_id": "c0a69f5af2a4279000769c7bd523da86", "fusion_lat": 0.0, "name": "c0a69f5af2a4279000769c7bd523da86", "is_reserved": 0, "rental_uris": {"android": "https://dc.lft.to/lastmile_qr_scan", "ios": "https://dc.lft.to/lastmile_qr_scan"}, "fusion_lon": 0.0}, {"lat": 38.917576333333336, "is_disabled": 0, "type": "electric_scooter", "lon": -77.02813516666667, "bike_id": "cf4ba56db12de133a66c0f190ff036dd", "fusion_lat": 0.0, "name": "cf4ba56db12de133a66c0f190ff036dd", "is_reserved": 0, "rental_uris": {"android": "https://dc.lft.to/lastmile_qr_scan", "ios": "https://dc.lft.to/lastmile_qr_scan"}, "fusion_lon": 0.0}, {"lat": 38.920510166666666, "is_disabled": 0, "type": "electric_scooter", "lon": -77.0287425, "bike_id": "01bebda0de88dfd07580c7e99d1b6cc9", "fusion_lat": 0.0, "name": "01bebda0de88dfd07580c7e99d1b6cc9", "is_reserved": 0, "rental_uris": {"android": "https://dc.lft.to/lastmile_qr_scan", "ios": "https://dc.lft.to/lastmile_qr_scan"}, "fusion_lon": 0.0}, {"lat": 38.9109775, "is_disabled": 0, "type": "electric_scooter", "lon": -77.04442166666666, "bike_id": "b586876278d5ae72c1eba4d538a6f397", "fusion_lat": 0.0, "name": "b586876278d5ae72c1eba4d538a6f397", "is_reserved": 0, "rental_uris": {"android": "https://dc.lft.to/lastmile_qr_scan", "ios": "https://dc.lft.to/lastmile_qr_scan"}, "fusion_lon": 0.0}, {"lat": 38.91896166666667, "is_disabled": 0, "type": "electric_scooter", "lon": -77.00233383333334, "bike_id": "b554e1783468e907a9f37d28712d4f5e", "fusion_lat": 0.0, "name": "b554e1783468e907a9f37d28712d4f5e", "is_reserved": 0, "rental_uris": {"android": "https://dc.lft.to/lastmile_qr_scan", "ios": "https://dc.lft.to/lastmile_qr_scan"}, "fusion_lon": 0.0}, {"lat": 38.9181755, "is_disabled": 0, "type": "electric_scooter", "lon": -77.03086616666667, "bike_id": "2f212bd7064176b1815b8e2b6b91d03c", "fusion_lat": 0.0, "name": "2f212bd7064176b1815b8e2b6b91d03c", "is_reserved": 0, "rental_uris": {"android": "https://dc.lft.to/lastmile_qr_scan", "ios": "https://dc.lft.to/lastmile_qr_scan"}, "fusion_lon": 0.0}, {"lat": 38.91704283333333, "is_disabled": 0, "type": "electric_scooter", "lon": -77.03380316666667, "bike_id": "9c7f5f05a60bc09e213fa36bb88377de", "fusion_lat": 0.0, "name": "9c7f5f05a60bc09e213fa36bb88377de", "is_reserved": 0, "rental_uris": {"android": "https://dc.lft.to/lastmile_qr_scan", "ios": "https://dc.lft.to/lastmile_qr_scan"}, "fusion_lon": 0.0}, {"lat": 38.93062033333333, "is_disabled": 0, "type": "electric_scooter", "lon": -77.02813816666666, "bike_id": "109e0e2955b18d6d788fbca0b687d40d", "fusion_lat": 0.0, "name": "109e0e2955b18d6d788fbca0b687d40d", "is_reserved": 0, "rental_uris": {"android": "https://dc.lft.to/lastmile_qr_scan", "ios": "https://dc.lft.to/lastmile_qr_scan"}, "fusion_lon": 0.0}, {"lat": 38.886033166666664, "is_disabled": 0, "type": "electric_scooter", "lon": -77.02195216666667, "bike_id": "24ca52e2728070940c6ebc0fba3144ea", "fusion_lat": 0.0, "name": "24ca52e2728070940c6ebc0fba3144ea", "is_reserved": 0, "rental_uris": {"android": "https://dc.lft.to/lastmile_qr_scan", "ios": "https://dc.lft.to/lastmile_qr_scan"}, "fusion_lon": 0.0}, {"lat": 38.92113066666667, "is_disabled": 0, "type": "electric_bike", "lon": -76.98575116666666, "bike_id": "d26a51dd0fdfa2f6ac1d3f09703dad1f", "fusion_lat": 0.0, "name": "d26a51dd0fdfa2f6ac1d3f09703dad1f", "is_reserved": 0, "rental_uris": {"android": "https://dc.lft.to/lastmile_qr_scan", "ios": "https://dc.lft.to/lastmile_qr_scan"}, "fusion_lon": 0.0}, {"lat": 38.858479, "is_disabled": 0, "type": "electric_bike", "lon": -77.09756966666667, "bike_id": "f29152c355752a6664e0c00d3f5335d7", "fusion_lat": 0.0, "name": "f29152c355752a6664e0c00d3f5335d7", "is_reserved": 0, "rental_uris": {"android": "https://dc.lft.to/lastmile_qr_scan", "ios": "https://dc.lft.to/lastmile_qr_scan"}, "fusion_lon": 0.0}, {"lat": 38.91323333333333, "is_disabled": 0, "type": "electric_scooter", "lon": -77.031973, "bike_id": "f9ad0ab12a3f1427efa5c58c2fb4d45f", "fusion_lat": 0.0, "name": "f9ad0ab12a3f1427efa5c58c2fb4d45f", "is_reserved": 0, "rental_uris": {"android": "https://dc.lft.to/lastmile_qr_scan", "ios": "https://dc.lft.to/lastmile_qr_scan"}, "fusion_lon": 0.0}, {"lat": 38.92914583333334, "is_disabled": 0, "type": "electric_scooter", "lon": -77.031751, "bike_id": "4287d6a4334c91c6caeb022ea706071c", "fusion_lat": 0.0, "name": "4287d6a4334c91c6caeb022ea706071c", "is_reserved": 0, "rental_uris": {"android": "https://dc.lft.to/lastmile_qr_scan", "ios": "https://dc.lft.to/lastmile_qr_scan"}, "fusion_lon": 0.0}, {"lat": 38.930946666666664, "is_disabled": 0, "type": "electric_scooter", "lon": -77.02492783333334, "bike_id": "4e0b9406e4d8e321b628599214bf463e", "fusion_lat": 0.0, "name": "4e0b9406e4d8e321b628599214bf463e", "is_reserved": 0, "rental_uris": {"android": "https://dc.lft.to/lastmile_qr_scan", "ios": "https://dc.lft.to/lastmile_qr_scan"}, "fusion_lon": 0.0}, {"lat": 38.95879166666667, "is_disabled": 0, "type": "electric_bike", "lon": -76.92494516666666, "bike_id": "868419182d5cfd9bcf157ed04f02a9e4", "fusion_lat": 0.0, "name": "868419182d5cfd9bcf157ed04f02a9e4", "is_reserved": 0, "rental_uris": {"android": "https://dc.lft.to/lastmile_qr_scan", "ios": "https://dc.lft.to/lastmile_qr_scan"}, "fusion_lon": 0.0}, {"lat": 38.94041466666667, "is_disabled": 0, "type": "electric_bike", "lon": -77.05155566666667, "bike_id": "23b00bc71538232d66193016dd2c1854", "fusion_lat": 0.0, "name": "23b00bc71538232d66193016dd2c1854", "is_reserved": 0, "rental_uris": {"android": "https://dc.lft.to/lastmile_qr_scan", "ios": "https://dc.lft.to/lastmile_qr_scan"}, "fusion_lon": 0.0}, {"lat": 38.89044766666667, "is_disabled": 0, "type": "electric_scooter", "lon": -76.94073833333333, "bike_id": "864b27a904ab14edf82e9f00a8a4a4b5", "fusion_lat": 0.0, "name": "864b27a904ab14edf82e9f00a8a4a4b5", "is_reserved": 0, "rental_uris": {"android": "https://dc.lft.to/lastmile_qr_scan", "ios": "https://dc.lft.to/lastmile_qr_scan"}, "fusion_lon": 0.0}, {"lat": 38.91794016666667, "is_disabled": 0, "type": "electric_scooter", "lon": -77.04438, "bike_id": "576930a786e73aaf5b76d284405abe61", "fusion_lat": 0.0, "name": "576930a786e73aaf5b76d284405abe61", "is_reserved": 0, "rental_uris": {"android": "https://dc.lft.to/lastmile_qr_scan", "ios": "https://dc.lft.to/lastmile_qr_scan"}, "fusion_lon": 0.0}, {"lat": 38.90276583333333, "is_disabled": 0, "type": "electric_scooter", "lon": -77.0364115, "bike_id": "fc147a6428e4a6fa02ff7561bf71b618", "fusion_lat": 0.0, "name": "fc147a6428e4a6fa02ff7561bf71b618", "is_reserved": 0, "rental_uris": {"android": "https://dc.lft.to/lastmile_qr_scan", "ios": "https://dc.lft.to/lastmile_qr_scan"}, "fusion_lon": 0.0}, {"lat": 38.862207, "is_disabled": 0, "type": "electric_scooter", "lon": -76.98356533333333, "bike_id": "13a875a38035261b17b7af323c912434", "fusion_lat": 0.0, "name": "13a875a38035261b17b7af323c912434", "is_reserved": 0, "rental_uris": {"android": "https://dc.lft.to/lastmile_qr_scan", "ios": "https://dc.lft.to/lastmile_qr_scan"}, "fusion_lon": 0.0}, {"lat": 38.903299833333335, "is_disabled": 0, "type": "electric_scooter", "lon": -76.97057633333333, "bike_id": "0badd6d202cc984e0f5370542f23145c", "fusion_lat": 0.0, "name": "0badd6d202cc984e0f5370542f23145c", "is_reserved": 0, "rental_uris": {"android": "https://dc.lft.to/lastmile_qr_scan", "ios": "https://dc.lft.to/lastmile_qr_scan"}, "fusion_lon": 0.0}, {"lat": 38.91556283333333, "is_disabled": 0, "type": "electric_scooter", "lon": -77.01035783333333, "bike_id": "fd21ce7288f56a85e0fb5e28579a6994", "fusion_lat": 0.0, "name": "fd21ce7288f56a85e0fb5e28579a6994", "is_reserved": 0, "rental_uris": {"android": "https://dc.lft.to/lastmile_qr_scan", "ios": "https://dc.lft.to/lastmile_qr_scan"}, "fusion_lon": 0.0}, {"lat": 38.882760833333336, "is_disabled": 0, "type": "electric_bike", "lon": -76.93237983333333, "bike_id": "2011b7b643e5312171c03fd3ea48c02e", "fusion_lat": 0.0, "name": "2011b7b643e5312171c03fd3ea48c02e", "is_reserved": 0, "rental_uris": {"android": "https://dc.lft.to/lastmile_qr_scan", "ios": "https://dc.lft.to/lastmile_qr_scan"}, "fusion_lon": 0.0}, {"lat": 38.8876645, "is_disabled": 0, "type": "electric_scooter", "lon": -76.98350733333334, "bike_id": "4ea6ac2077fa4a28d165db603d640c8d", "fusion_lat": 0.0, "name": "4ea6ac2077fa4a28d165db603d640c8d", "is_reserved": 0, "rental_uris": {"android": "https://dc.lft.to/lastmile_qr_scan", "ios": "https://dc.lft.to/lastmile_qr_scan"}, "fusion_lon": 0.0}, {"lat": 38.935685166666666, "is_disabled": 0, "type": "electric_scooter", "lon": -77.03726716666667, "bike_id": "3317b5f299a20b2fcc03cf9d2260f76a", "fusion_lat": 0.0, "name": "3317b5f299a20b2fcc03cf9d2260f76a", "is_reserved": 0, "rental_uris": {"android": "https://dc.lft.to/lastmile_qr_scan", "ios": "https://dc.lft.to/lastmile_qr_scan"}, "fusion_lon": 0.0}, {"lat": 38.90073183333333, "is_disabled": 0, "type": "electric_scooter", "lon": -77.05065566666667, "bike_id": "f109dab5e6662b6ff8f218a3cee27b88", "fusion_lat": 0.0, "name": "f109dab5e6662b6ff8f218a3cee27b88", "is_reserved": 0, "rental_uris": {"android": "https://dc.lft.to/lastmile_qr_scan", "ios": "https://dc.lft.to/lastmile_qr_scan"}, "fusion_lon": 0.0}, {"lat": 38.912063833333335, "is_disabled": 0, "type": "electric_scooter", "lon": -77.04482233333333, "bike_id": "64edce8199a70eb833e7e964e1a8d017", "fusion_lat": 0.0, "name": "64edce8199a70eb833e7e964e1a8d017", "is_reserved": 0, "rental_uris": {"android": "https://dc.lft.to/lastmile_qr_scan", "ios": "https://dc.lft.to/lastmile_qr_scan"}, "fusion_lon": 0.0}, {"lat": 38.901307833333334, "is_disabled": 0, "type": "electric_scooter", "lon": -77.04997083333333, "bike_id": "37febc0d54aedc5e54177f192530a43b", "fusion_lat": 0.0, "name": "37febc0d54aedc5e54177f192530a43b", "is_reserved": 0, "rental_uris": {"android": "https://dc.lft.to/lastmile_qr_scan", "ios": "https://dc.lft.to/lastmile_qr_scan"}, "fusion_lon": 0.0}, {"lat": 38.950819333333335, "is_disabled": 0, "type": "electric_bike", "lon": -77.01193, "bike_id": "9afe13907d6bd37647a5d9166ef7ebdc", "fusion_lat": 0.0, "name": "9afe13907d6bd37647a5d9166ef7ebdc", "is_reserved": 0, "rental_uris": {"android": "https://dc.lft.to/lastmile_qr_scan", "ios": "https://dc.lft.to/lastmile_qr_scan"}, "fusion_lon": 0.0}, {"lat": 38.86618333333333, "is_disabled": 0, "type": "electric_scooter", "lon": -76.98661166666666, "bike_id": "ff006d1d385f728a1186ff836288595f", "fusion_lat": 0.0, "name": "ff006d1d385f728a1186ff836288595f", "is_reserved": 0, "rental_uris": {"android": "https://dc.lft.to/lastmile_qr_scan", "ios": "https://dc.lft.to/lastmile_qr_scan"}, "fusion_lon": 0.0}, {"lat": 38.902381166666665, "is_disabled": 0, "type": "electric_scooter", "lon": -77.04348583333334, "bike_id": "40b68f5b23fdc154e961b22301a0b985", "fusion_lat": 0.0, "name": "40b68f5b23fdc154e961b22301a0b985", "is_reserved": 0, "rental_uris": {"android": "https://dc.lft.to/lastmile_qr_scan", "ios": "https://dc.lft.to/lastmile_qr_scan"}, "fusion_lon": 0.0}, {"lat": 38.91558283333333, "is_disabled": 0, "type": "electric_scooter", "lon": -77.00977483333334, "bike_id": "7e3dd84851f99577112af83d23049c13", "fusion_lat": 0.0, "name": "7e3dd84851f99577112af83d23049c13", "is_reserved": 0, "rental_uris": {"android": "https://dc.lft.to/lastmile_qr_scan", "ios": "https://dc.lft.to/lastmile_qr_scan"}, "fusion_lon": 0.0}, {"lat": 38.914954333333334, "is_disabled": 0, "type": "electric_scooter", "lon": -76.9836925, "bike_id": "64059a3aec582bbcd4a616a701b5fd95", "fusion_lat": 0.0, "name": "64059a3aec582bbcd4a616a701b5fd95", "is_reserved": 0, "rental_uris": {"android": "https://dc.lft.to/lastmile_qr_scan", "ios": "https://dc.lft.to/lastmile_qr_scan"}, "fusion_lon": 0.0}, {"lat": 38.8922575, "is_disabled": 0, "type": "electric_bike", "lon": -77.032061, "bike_id": "568d09c9267134083d31afcf81067a89", "fusion_lat": 0.0, "name": "568d09c9267134083d31afcf81067a89", "is_reserved": 0, "rental_uris": {"android": "https://dc.lft.to/lastmile_qr_scan", "ios": "https://dc.lft.to/lastmile_qr_scan"}, "fusion_lon": 0.0}, {"lat": 38.9142615, "is_disabled": 0, "type": "electric_scooter", "lon": -77.03212033333334, "bike_id": "f3c2b22e1e98d696890331102721d36b", "fusion_lat": 0.0, "name": "f3c2b22e1e98d696890331102721d36b", "is_reserved": 0, "rental_uris": {"android": "https://dc.lft.to/lastmile_qr_scan", "ios": "https://dc.lft.to/lastmile_qr_scan"}, "fusion_lon": 0.0}, {"lat": 38.907579, "is_disabled": 0, "type": "electric_scooter", "lon": -77.04155216666666, "bike_id": "9484db323bf20792445877900bd01837", "fusion_lat": 0.0, "name": "9484db323bf20792445877900bd01837", "is_reserved": 0, "rental_uris": {"android": "https://dc.lft.to/lastmile_qr_scan", "ios": "https://dc.lft.to/lastmile_qr_scan"}, "fusion_lon": 0.0}, {"lat": 38.908812166666664, "is_disabled": 0, "type": "electric_scooter", "lon": -77.036596, "bike_id": "8f6985aad90b51c41b115325db9942ef", "fusion_lat": 0.0, "name": "8f6985aad90b51c41b115325db9942ef", "is_reserved": 0, "rental_uris": {"android": "https://dc.lft.to/lastmile_qr_scan", "ios": "https://dc.lft.to/lastmile_qr_scan"}, "fusion_lon": 0.0}, {"lat": 38.957328333333336, "is_disabled": 0, "type": "electric_scooter", "lon": -77.02383033333334, "bike_id": "09d5b0ea57bbb7d465348dd51c9c295a", "fusion_lat": 0.0, "name": "09d5b0ea57bbb7d465348dd51c9c295a", "is_reserved": 0, "rental_uris": {"android": "https://dc.lft.to/lastmile_qr_scan", "ios": "https://dc.lft.to/lastmile_qr_scan"}, "fusion_lon": 0.0}, {"lat": 38.9387285, "is_disabled": 0, "type": "electric_scooter", "lon": -77.02448366666667, "bike_id": "dcb6e81668591d25cd34ec3241f7da6c", "fusion_lat": 0.0, "name": "dcb6e81668591d25cd34ec3241f7da6c", "is_reserved": 0, "rental_uris": {"android": "https://dc.lft.to/lastmile_qr_scan", "ios": "https://dc.lft.to/lastmile_qr_scan"}, "fusion_lon": 0.0}, {"lat": 38.887767333333336, "is_disabled": 0, "type": "electric_scooter", "lon": -77.003256, "bike_id": "8767f2fb64eae8180829fb4744d75852", "fusion_lat": 0.0, "name": "8767f2fb64eae8180829fb4744d75852", "is_reserved": 0, "rental_uris": {"android": "https://dc.lft.to/lastmile_qr_scan", "ios": "https://dc.lft.to/lastmile_qr_scan"}, "fusion_lon": 0.0}, {"lat": 38.95569066666667, "is_disabled": 0, "type": "electric_scooter", "lon": -77.022331, "bike_id": "9e12a31d5056b9e19f360a8874453912", "fusion_lat": 0.0, "name": "9e12a31d5056b9e19f360a8874453912", "is_reserved": 0, "rental_uris": {"android": "https://dc.lft.to/lastmile_qr_scan", "ios": "https://dc.lft.to/lastmile_qr_scan"}, "fusion_lon": 0.0}, {"lat": 38.86560166666667, "is_disabled": 0, "type": "electric_scooter", "lon": -76.9894505, "bike_id": "830ffb721f7ce0fc969685441e086884", "fusion_lat": 0.0, "name": "830ffb721f7ce0fc969685441e086884", "is_reserved": 0, "rental_uris": {"android": "https://dc.lft.to/lastmile_qr_scan", "ios": "https://dc.lft.to/lastmile_qr_scan"}, "fusion_lon": 0.0}, {"lat": 38.90912266666667, "is_disabled": 0, "type": "electric_scooter", "lon": -77.03644533333333, "bike_id": "e2f9c9e32291c7c0be736d3ae65d1954", "fusion_lat": 0.0, "name": "e2f9c9e32291c7c0be736d3ae65d1954", "is_reserved": 0, "rental_uris": {"android": "https://dc.lft.to/lastmile_qr_scan", "ios": "https://dc.lft.to/lastmile_qr_scan"}, "fusion_lon": 0.0}, {"lat": 38.92062166666667, "is_disabled": 0, "type": "electric_scooter", "lon": -77.04374433333334, "bike_id": "50b71dce482418e1096bb5b98c8f0a07", "fusion_lat": 0.0, "name": "50b71dce482418e1096bb5b98c8f0a07", "is_reserved": 0, "rental_uris": {"android": "https://dc.lft.to/lastmile_qr_scan", "ios": "https://dc.lft.to/lastmile_qr_scan"}, "fusion_lon": 0.0}, {"lat": 38.938926333333335, "is_disabled": 0, "type": "electric_scooter", "lon": -77.08489416666667, "bike_id": "84b97ed54b28be34a4842e1859056036", "fusion_lat": 0.0, "name": "84b97ed54b28be34a4842e1859056036", "is_reserved": 0, "rental_uris": {"android": "https://dc.lft.to/lastmile_qr_scan", "ios": "https://dc.lft.to/lastmile_qr_scan"}, "fusion_lon": 0.0}, {"lat": 38.8976335, "is_disabled": 0, "type": "electric_scooter", "lon": -77.009147, "bike_id": "55daed3634d3ac884cda4da7ec94d8e2", "fusion_lat": 0.0, "name": "55daed3634d3ac884cda4da7ec94d8e2", "is_reserved": 0, "rental_uris": {"android": "https://dc.lft.to/lastmile_qr_scan", "ios": "https://dc.lft.to/lastmile_qr_scan"}, "fusion_lon": 0.0}, {"lat": 38.9040555, "is_disabled": 0, "type": "electric_scooter", "lon": -77.024881, "bike_id": "83f09c3fc24a2dce165fb5b6bb682437", "fusion_lat": 0.0, "name": "83f09c3fc24a2dce165fb5b6bb682437", "is_reserved": 0, "rental_uris": {"android": "https://dc.lft.to/lastmile_qr_scan", "ios": "https://dc.lft.to/lastmile_qr_scan"}, "fusion_lon": 0.0}, {"lat": 38.91675933333333, "is_disabled": 0, "type": "electric_scooter", "lon": -77.023953, "bike_id": "e1a0351ea087714e72aea182fe7d2936", "fusion_lat": 0.0, "name": "e1a0351ea087714e72aea182fe7d2936", "is_reserved": 0, "rental_uris": {"android": "https://dc.lft.to/lastmile_qr_scan", "ios": "https://dc.lft.to/lastmile_qr_scan"}, "fusion_lon": 0.0}, {"lat": 38.952681166666665, "is_disabled": 0, "type": "electric_bike", "lon": -77.06980866666666, "bike_id": "1890d720b790bd7fc98ca352fc2b9d1a", "fusion_lat": 0.0, "name": "1890d720b790bd7fc98ca352fc2b9d1a", "is_reserved": 0, "rental_uris": {"android": "https://dc.lft.to/lastmile_qr_scan", "ios": "https://dc.lft.to/lastmile_qr_scan"}, "fusion_lon": 0.0}, {"lat": 38.88760933333333, "is_disabled": 0, "type": "electric_scooter", "lon": -76.95595116666667, "bike_id": "3cb626616fa8f1ccbee4c6994576179a", "fusion_lat": 0.0, "name": "3cb626616fa8f1ccbee4c6994576179a", "is_reserved": 0, "rental_uris": {"android": "https://dc.lft.to/lastmile_qr_scan", "ios": "https://dc.lft.to/lastmile_qr_scan"}, "fusion_lon": 0.0}, {"lat": 38.88438166666667, "is_disabled": 0, "type": "electric_bike", "lon": -76.9808125, "bike_id": "4e3d152a060e69234a995e3086d2fc78", "fusion_lat": 0.0, "name": "4e3d152a060e69234a995e3086d2fc78", "is_reserved": 0, "rental_uris": {"android": "https://dc.lft.to/lastmile_qr_scan", "ios": "https://dc.lft.to/lastmile_qr_scan"}, "fusion_lon": 0.0}, {"lat": 38.8763855, "is_disabled": 0, "type": "electric_scooter", "lon": -76.99320433333334, "bike_id": "fa1f80169b6c020345dad2845da339af", "fusion_lat": 0.0, "name": "fa1f80169b6c020345dad2845da339af", "is_reserved": 0, "rental_uris": {"android": "https://dc.lft.to/lastmile_qr_scan", "ios": "https://dc.lft.to/lastmile_qr_scan"}, "fusion_lon": 0.0}, {"lat": 39.08857033333334, "is_disabled": 0, "type": "electric_bike", "lon": -77.17839983333333, "bike_id": "8f2534a700677b2f018220404c69eaaf", "fusion_lat": 0.0, "name": "8f2534a700677b2f018220404c69eaaf", "is_reserved": 0, "rental_uris": {"android": "https://dc.lft.to/lastmile_qr_scan", "ios": "https://dc.lft.to/lastmile_qr_scan"}, "fusion_lon": 0.0}, {"lat": 38.92854716666667, "is_disabled": 0, "type": "electric_bike", "lon": -77.22215933333334, "bike_id": "7fdfaa3fd1c10a08fdc74f7d4bce5baf", "fusion_lat": 0.0, "name": "7fdfaa3fd1c10a08fdc74f7d4bce5baf", "is_reserved": 0, "rental_uris": {"android": "https://dc.lft.to/lastmile_qr_scan", "ios": "https://dc.lft.to/lastmile_qr_scan"}, "fusion_lon": 0.0}, {"lat": 38.917707, "is_disabled": 0, "type": "electric_scooter", "lon": -77.0289225, "bike_id": "35c8c6c1ab73bc6f0868c0bee9e6b85f", "fusion_lat": 0.0, "name": "35c8c6c1ab73bc6f0868c0bee9e6b85f", "is_reserved": 0, "rental_uris": {"android": "https://dc.lft.to/lastmile_qr_scan", "ios": "https://dc.lft.to/lastmile_qr_scan"}, "fusion_lon": 0.0}, {"lat": 38.938675333333336, "is_disabled": 0, "type": "electric_scooter", "lon": -77.03260083333333, "bike_id": "ddc4ac01f05ce0e2780fe7a0d150bb87", "fusion_lat": 0.0, "name": "ddc4ac01f05ce0e2780fe7a0d150bb87", "is_reserved": 0, "rental_uris": {"android": "https://dc.lft.to/lastmile_qr_scan", "ios": "https://dc.lft.to/lastmile_qr_scan"}, "fusion_lon": 0.0}, {"lat": 38.9031435, "is_disabled": 0, "type": "electric_scooter", "lon": -77.02884566666667, "bike_id": "158471d90acb1ee9220c93a38ea579a1", "fusion_lat": 0.0, "name": "158471d90acb1ee9220c93a38ea579a1", "is_reserved": 0, "rental_uris": {"android": "https://dc.lft.to/lastmile_qr_scan", "ios": "https://dc.lft.to/lastmile_qr_scan"}, "fusion_lon": 0.0}, {"lat": 38.911047833333335, "is_disabled": 0, "type": "electric_scooter", "lon": -77.02169, "bike_id": "9b8d2494a3443e15c3a0ed8e09130600", "fusion_lat": 0.0, "name": "9b8d2494a3443e15c3a0ed8e09130600", "is_reserved": 0, "rental_uris": {"android": "https://dc.lft.to/lastmile_qr_scan", "ios": "https://dc.lft.to/lastmile_qr_scan"}, "fusion_lon": 0.0}, {"lat": 38.902287333333334, "is_disabled": 0, "type": "electric_scooter", "lon": -77.043451, "bike_id": "ac9ae26b8e00c8eb5cce8b5a15eb94c8", "fusion_lat": 0.0, "name": "ac9ae26b8e00c8eb5cce8b5a15eb94c8", "is_reserved": 0, "rental_uris": {"android": "https://dc.lft.to/lastmile_qr_scan", "ios": "https://dc.lft.to/lastmile_qr_scan"}, "fusion_lon": 0.0}, {"lat": 38.916297666666665, "is_disabled": 0, "type": "electric_scooter", "lon": -77.046171, "bike_id": "f022e05c758605a31f1709f284c8700a", "fusion_lat": 0.0, "name": "f022e05c758605a31f1709f284c8700a", "is_reserved": 0, "rental_uris": {"android": "https://dc.lft.to/lastmile_qr_scan", "ios": "https://dc.lft.to/lastmile_qr_scan"}, "fusion_lon": 0.0}, {"lat": 38.913402166666664, "is_disabled": 0, "type": "electric_scooter", "lon": -77.00221866666666, "bike_id": "3e17cdbec3cc1e5771190be37a0992a5", "fusion_lat": 0.0, "name": "3e17cdbec3cc1e5771190be37a0992a5", "is_reserved": 0, "rental_uris": {"android": "https://dc.lft.to/lastmile_qr_scan", "ios": "https://dc.lft.to/lastmile_qr_scan"}, "fusion_lon": 0.0}, {"lat": 38.91015066666667, "is_disabled": 0, "type": "electric_scooter", "lon": -76.99390116666666, "bike_id": "300bed0fb98fae64efa844ccb140dd76", "fusion_lat": 0.0, "name": "300bed0fb98fae64efa844ccb140dd76", "is_reserved": 0, "rental_uris": {"android": "https://dc.lft.to/lastmile_qr_scan", "ios": "https://dc.lft.to/lastmile_qr_scan"}, "fusion_lon": 0.0}, {"lat": 38.91193766666667, "is_disabled": 0, "type": "electric_scooter", "lon": -77.060119, "bike_id": "5b06335cc0c2e14e09c27618db7b74f7", "fusion_lat": 0.0, "name": "5b06335cc0c2e14e09c27618db7b74f7", "is_reserved": 0, "rental_uris": {"android": "https://dc.lft.to/lastmile_qr_scan", "ios": "https://dc.lft.to/lastmile_qr_scan"}, "fusion_lon": 0.0}, {"lat": 38.923863833333336, "is_disabled": 0, "type": "electric_scooter", "lon": -77.00065183333334, "bike_id": "993c207af1744679abea713cd37baf29", "fusion_lat": 0.0, "name": "993c207af1744679abea713cd37baf29", "is_reserved": 0, "rental_uris": {"android": "https://dc.lft.to/lastmile_qr_scan", "ios": "https://dc.lft.to/lastmile_qr_scan"}, "fusion_lon": 0.0}, {"lat": 38.86110033333333, "is_disabled": 0, "type": "electric_scooter", "lon": -76.96762633333333, "bike_id": "9c355307e7bf1e91b3906668afc64013", "fusion_lat": 0.0, "name": "9c355307e7bf1e91b3906668afc64013", "is_reserved": 0, "rental_uris": {"android": "https://dc.lft.to/lastmile_qr_scan", "ios": "https://dc.lft.to/lastmile_qr_scan"}, "fusion_lon": 0.0}, {"lat": 38.91737466666667, "is_disabled": 0, "type": "electric_scooter", "lon": -77.068924, "bike_id": "95172aac9d6a23096112ff62091f4f81", "fusion_lat": 0.0, "name": "95172aac9d6a23096112ff62091f4f81", "is_reserved": 0, "rental_uris": {"android": "https://dc.lft.to/lastmile_qr_scan", "ios": "https://dc.lft.to/lastmile_qr_scan"}, "fusion_lon": 0.0}, {"lat": 38.920958666666664, "is_disabled": 0, "type": "electric_scooter", "lon": -77.025246, "bike_id": "e3723c8306eb743760d7807c1c7f491f", "fusion_lat": 0.0, "name": "e3723c8306eb743760d7807c1c7f491f", "is_reserved": 0, "rental_uris": {"android": "https://dc.lft.to/lastmile_qr_scan", "ios": "https://dc.lft.to/lastmile_qr_scan"}, "fusion_lon": 0.0}, {"lat": 38.92336266666667, "is_disabled": 0, "type": "electric_scooter", "lon": -77.019011, "bike_id": "1194afabe4e9cf91e59eb2ad9cce8786", "fusion_lat": 0.0, "name": "1194afabe4e9cf91e59eb2ad9cce8786", "is_reserved": 0, "rental_uris": {"android": "https://dc.lft.to/lastmile_qr_scan", "ios": "https://dc.lft.to/lastmile_qr_scan"}, "fusion_lon": 0.0}, {"lat": 38.912190333333335, "is_disabled": 0, "type": "electric_scooter", "lon": -77.04504683333333, "bike_id": "37dfa0c32b6ecb033e8126d6eb88e395", "fusion_lat": 0.0, "name": "37dfa0c32b6ecb033e8126d6eb88e395", "is_reserved": 0, "rental_uris": {"android": "https://dc.lft.to/lastmile_qr_scan", "ios": "https://dc.lft.to/lastmile_qr_scan"}, "fusion_lon": 0.0}, {"lat": 38.901538, "is_disabled": 0, "type": "electric_scooter", "lon": -77.03305166666667, "bike_id": "2379b1425e19144f42ac23813fa0f9aa", "fusion_lat": 0.0, "name": "2379b1425e19144f42ac23813fa0f9aa", "is_reserved": 0, "rental_uris": {"android": "https://dc.lft.to/lastmile_qr_scan", "ios": "https://dc.lft.to/lastmile_qr_scan"}, "fusion_lon": 0.0}, {"lat": 38.858105, "is_disabled": 0, "type": "electric_scooter", "lon": -76.98711266666666, "bike_id": "e81401de5908164b6b7ca45f4fdb2a03", "fusion_lat": 0.0, "name": "e81401de5908164b6b7ca45f4fdb2a03", "is_reserved": 0, "rental_uris": {"android": "https://dc.lft.to/lastmile_qr_scan", "ios": "https://dc.lft.to/lastmile_qr_scan"}, "fusion_lon": 0.0}, {"lat": 38.923895, "is_disabled": 0, "type": "electric_scooter", "lon": -77.0352885, "bike_id": "5a8abb1b6007e6c6d97dc875d06680a5", "fusion_lat": 0.0, "name": "5a8abb1b6007e6c6d97dc875d06680a5", "is_reserved": 0, "rental_uris": {"android": "https://dc.lft.to/lastmile_qr_scan", "ios": "https://dc.lft.to/lastmile_qr_scan"}, "fusion_lon": 0.0}, {"lat": 38.922405166666664, "is_disabled": 0, "type": "electric_scooter", "lon": -77.04253183333333, "bike_id": "032ee13ff4433c7623383f8c6ab9bf99", "fusion_lat": 0.0, "name": "032ee13ff4433c7623383f8c6ab9bf99", "is_reserved": 0, "rental_uris": {"android": "https://dc.lft.to/lastmile_qr_scan", "ios": "https://dc.lft.to/lastmile_qr_scan"}, "fusion_lon": 0.0}, {"lat": 38.883364, "is_disabled": 0, "type": "electric_scooter", "lon": -77.03158583333334, "bike_id": "4f9877c25c76560f799b172d615140dd", "fusion_lat": 0.0, "name": "4f9877c25c76560f799b172d615140dd", "is_reserved": 0, "rental_uris": {"android": "https://dc.lft.to/lastmile_qr_scan", "ios": "https://dc.lft.to/lastmile_qr_scan"}, "fusion_lon": 0.0}, {"lat": 38.89508033333333, "is_disabled": 0, "type": "electric_scooter", "lon": -77.0395465, "bike_id": "57993eb7c488eb75d56c10b12bf660fb", "fusion_lat": 0.0, "name": "57993eb7c488eb75d56c10b12bf660fb", "is_reserved": 0, "rental_uris": {"android": "https://dc.lft.to/lastmile_qr_scan", "ios": "https://dc.lft.to/lastmile_qr_scan"}, "fusion_lon": 0.0}, {"lat": 38.922235666666666, "is_disabled": 0, "type": "electric_scooter", "lon": -77.04237616666667, "bike_id": "224723c114a95c97475d71dd2f2c23a6", "fusion_lat": 0.0, "name": "224723c114a95c97475d71dd2f2c23a6", "is_reserved": 0, "rental_uris": {"android": "https://dc.lft.to/lastmile_qr_scan", "ios": "https://dc.lft.to/lastmile_qr_scan"}, "fusion_lon": 0.0}, {"lat": 38.906747, "is_disabled": 0, "type": "electric_scooter", "lon": -77.06273633333333, "bike_id": "1c2a42f9790f56ddb986ef22fba61ba6", "fusion_lat": 0.0, "name": "1c2a42f9790f56ddb986ef22fba61ba6", "is_reserved": 0, "rental_uris": {"android": "https://dc.lft.to/lastmile_qr_scan", "ios": "https://dc.lft.to/lastmile_qr_scan"}, "fusion_lon": 0.0}, {"lat": 38.9168885, "is_disabled": 0, "type": "electric_scooter", "lon": -77.02792816666667, "bike_id": "ce33e81e4e830d53e7b62fb28f37b4d7", "fusion_lat": 0.0, "name": "ce33e81e4e830d53e7b62fb28f37b4d7", "is_reserved": 0, "rental_uris": {"android": "https://dc.lft.to/lastmile_qr_scan", "ios": "https://dc.lft.to/lastmile_qr_scan"}, "fusion_lon": 0.0}, {"lat": 38.8666285, "is_disabled": 0, "type": "electric_scooter", "lon": -76.98907083333333, "bike_id": "d4620d58030661ba2b2eedc1e37158a6", "fusion_lat": 0.0, "name": "d4620d58030661ba2b2eedc1e37158a6", "is_reserved": 0, "rental_uris": {"android": "https://dc.lft.to/lastmile_qr_scan", "ios": "https://dc.lft.to/lastmile_qr_scan"}, "fusion_lon": 0.0}, {"lat": 38.924423, "is_disabled": 0, "type": "electric_scooter", "lon": -77.03357416666667, "bike_id": "407305f22273c59460e59aa06d82cf41", "fusion_lat": 0.0, "name": "407305f22273c59460e59aa06d82cf41", "is_reserved": 0, "rental_uris": {"android": "https://dc.lft.to/lastmile_qr_scan", "ios": "https://dc.lft.to/lastmile_qr_scan"}, "fusion_lon": 0.0}, {"lat": 38.909884, "is_disabled": 0, "type": "electric_scooter", "lon": -76.9973955, "bike_id": "70686367f0cf72dfdf8e771d351c7dea", "fusion_lat": 0.0, "name": "70686367f0cf72dfdf8e771d351c7dea", "is_reserved": 0, "rental_uris": {"android": "https://dc.lft.to/lastmile_qr_scan", "ios": "https://dc.lft.to/lastmile_qr_scan"}, "fusion_lon": 0.0}, {"lat": 38.88131533333333, "is_disabled": 0, "type": "electric_scooter", "lon": -76.9872075, "bike_id": "952375c5fcdeb7c8d2507e067603f138", "fusion_lat": 0.0, "name": "952375c5fcdeb7c8d2507e067603f138", "is_reserved": 0, "rental_uris": {"android": "https://dc.lft.to/lastmile_qr_scan", "ios": "https://dc.lft.to/lastmile_qr_scan"}, "fusion_lon": 0.0}, {"lat": 38.923395, "is_disabled": 0, "type": "electric_scooter", "lon": -77.05167883333333, "bike_id": "c81c2020bf40d705c5f05d63c591b608", "fusion_lat": 0.0, "name": "c81c2020bf40d705c5f05d63c591b608", "is_reserved": 0, "rental_uris": {"android": "https://dc.lft.to/lastmile_qr_scan", "ios": "https://dc.lft.to/lastmile_qr_scan"}, "fusion_lon": 0.0}, {"lat": 38.93133433333333, "is_disabled": 0, "type": "electric_scooter", "lon": -77.02137366666666, "bike_id": "ad1615c43b48e24c94b6e02b83425d5d", "fusion_lat": 0.0, "name": "ad1615c43b48e24c94b6e02b83425d5d", "is_reserved": 0, "rental_uris": {"android": "https://dc.lft.to/lastmile_qr_scan", "ios": "https://dc.lft.to/lastmile_qr_scan"}, "fusion_lon": 0.0}, {"lat": 38.906474833333334, "is_disabled": 0, "type": "electric_scooter", "lon": -77.0083575, "bike_id": "0fd5a2c658d5bdd048f9c71dcdfcc6e9", "fusion_lat": 0.0, "name": "0fd5a2c658d5bdd048f9c71dcdfcc6e9", "is_reserved": 0, "rental_uris": {"android": "https://dc.lft.to/lastmile_qr_scan", "ios": "https://dc.lft.to/lastmile_qr_scan"}, "fusion_lon": 0.0}, {"lat": 38.916805833333335, "is_disabled": 0, "type": "electric_scooter", "lon": -77.0289835, "bike_id": "0b4659a74dc494dd57aab28789a86703", "fusion_lat": 0.0, "name": "0b4659a74dc494dd57aab28789a86703", "is_reserved": 0, "rental_uris": {"android": "https://dc.lft.to/lastmile_qr_scan", "ios": "https://dc.lft.to/lastmile_qr_scan"}, "fusion_lon": 0.0}, {"lat": 38.892186, "is_disabled": 0, "type": "electric_scooter", "lon": -77.02021083333334, "bike_id": "e9556d92711727a7a0ae1ef76cd7a641", "fusion_lat": 0.0, "name": "e9556d92711727a7a0ae1ef76cd7a641", "is_reserved": 0, "rental_uris": {"android": "https://dc.lft.to/lastmile_qr_scan", "ios": "https://dc.lft.to/lastmile_qr_scan"}, "fusion_lon": 0.0}, {"lat": 38.9089395, "is_disabled": 0, "type": "electric_scooter", "lon": -77.04301733333334, "bike_id": "ee241f263bebaf6553ec04d7ee16e349", "fusion_lat": 0.0, "name": "ee241f263bebaf6553ec04d7ee16e349", "is_reserved": 0, "rental_uris": {"android": "https://dc.lft.to/lastmile_qr_scan", "ios": "https://dc.lft.to/lastmile_qr_scan"}, "fusion_lon": 0.0}, {"lat": 38.89557033333333, "is_disabled": 0, "type": "electric_scooter", "lon": -76.93078566666667, "bike_id": "7d67bdab90489bda4610b655f29ddd09", "fusion_lat": 0.0, "name": "7d67bdab90489bda4610b655f29ddd09", "is_reserved": 0, "rental_uris": {"android": "https://dc.lft.to/lastmile_qr_scan", "ios": "https://dc.lft.to/lastmile_qr_scan"}, "fusion_lon": 0.0}, {"lat": 38.939585, "is_disabled": 0, "type": "electric_bike", "lon": -77.36095633333333, "bike_id": "c2c286fe37b0f43236a322c798669d93", "fusion_lat": 0.0, "name": "c2c286fe37b0f43236a322c798669d93", "is_reserved": 0, "rental_uris": {"android": "https://dc.lft.to/lastmile_qr_scan", "ios": "https://dc.lft.to/lastmile_qr_scan"}, "fusion_lon": 0.0}, {"lat": 38.926754, "is_disabled": 0, "type": "electric_scooter", "lon": -77.0305125, "bike_id": "9bc2d2c4689688d080f9b6811c10bc9b", "fusion_lat": 0.0, "name": "9bc2d2c4689688d080f9b6811c10bc9b", "is_reserved": 0, "rental_uris": {"android": "https://dc.lft.to/lastmile_qr_scan", "ios": "https://dc.lft.to/lastmile_qr_scan"}, "fusion_lon": 0.0}, {"lat": 38.952882333333335, "is_disabled": 0, "type": "electric_bike", "lon": -76.94598833333333, "bike_id": "21431ecb541b21e4a80235998bfe02c7", "fusion_lat": 0.0, "name": "21431ecb541b21e4a80235998bfe02c7", "is_reserved": 0, "rental_uris": {"android": "https://dc.lft.to/lastmile_qr_scan", "ios": "https://dc.lft.to/lastmile_qr_scan"}, "fusion_lon": 0.0}, {"lat": 38.942887166666665, "is_disabled": 0, "type": "electric_bike", "lon": -77.02801966666667, "bike_id": "54ae873fdba65ebc8fc7cec1ebbf5b9d", "fusion_lat": 0.0, "name": "54ae873fdba65ebc8fc7cec1ebbf5b9d", "is_reserved": 0, "rental_uris": {"android": "https://dc.lft.to/lastmile_qr_scan", "ios": "https://dc.lft.to/lastmile_qr_scan"}, "fusion_lon": 0.0}, {"lat": 38.9173235, "is_disabled": 0, "type": "electric_scooter", "lon": -77.02398583333333, "bike_id": "d60792e88ffc769cdbe44357bbb0f885", "fusion_lat": 0.0, "name": "d60792e88ffc769cdbe44357bbb0f885", "is_reserved": 0, "rental_uris": {"android": "https://dc.lft.to/lastmile_qr_scan", "ios": "https://dc.lft.to/lastmile_qr_scan"}, "fusion_lon": 0.0}, {"lat": 38.93554433333333, "is_disabled": 0, "type": "electric_scooter", "lon": -77.022205, "bike_id": "e6e9c03ed3ee0baf05ab948384655449", "fusion_lat": 0.0, "name": "e6e9c03ed3ee0baf05ab948384655449", "is_reserved": 0, "rental_uris": {"android": "https://dc.lft.to/lastmile_qr_scan", "ios": "https://dc.lft.to/lastmile_qr_scan"}, "fusion_lon": 0.0}, {"lat": 38.931119, "is_disabled": 0, "type": "electric_scooter", "lon": -77.03029166666667, "bike_id": "9799f47ca10e9647848da88ea51a78eb", "fusion_lat": 0.0, "name": "9799f47ca10e9647848da88ea51a78eb", "is_reserved": 0, "rental_uris": {"android": "https://dc.lft.to/lastmile_qr_scan", "ios": "https://dc.lft.to/lastmile_qr_scan"}, "fusion_lon": 0.0}, {"lat": 38.88492566666667, "is_disabled": 0, "type": "electric_scooter", "lon": -77.00726083333333, "bike_id": "0547a38c5f4cefe573d574a3566b295c", "fusion_lat": 0.0, "name": "0547a38c5f4cefe573d574a3566b295c", "is_reserved": 0, "rental_uris": {"android": "https://dc.lft.to/lastmile_qr_scan", "ios": "https://dc.lft.to/lastmile_qr_scan"}, "fusion_lon": 0.0}, {"lat": 38.9200075, "is_disabled": 0, "type": "electric_scooter", "lon": -77.03887316666666, "bike_id": "2e4809ca9bd0112b3c1a3ab6891ab42e", "fusion_lat": 0.0, "name": "2e4809ca9bd0112b3c1a3ab6891ab42e", "is_reserved": 0, "rental_uris": {"android": "https://dc.lft.to/lastmile_qr_scan", "ios": "https://dc.lft.to/lastmile_qr_scan"}, "fusion_lon": 0.0}, {"lat": 38.9170415, "is_disabled": 0, "type": "electric_scooter", "lon": -77.0011515, "bike_id": "588e82f61aba5b5ad854f52101c99b26", "fusion_lat": 0.0, "name": "588e82f61aba5b5ad854f52101c99b26", "is_reserved": 0, "rental_uris": {"android": "https://dc.lft.to/lastmile_qr_scan", "ios": "https://dc.lft.to/lastmile_qr_scan"}, "fusion_lon": 0.0}, {"lat": 38.8629365, "is_disabled": 0, "type": "electric_scooter", "lon": -76.99220583333333, "bike_id": "13a524ac5550b673915b226426770d3c", "fusion_lat": 0.0, "name": "13a524ac5550b673915b226426770d3c", "is_reserved": 0, "rental_uris": {"android": "https://dc.lft.to/lastmile_qr_scan", "ios": "https://dc.lft.to/lastmile_qr_scan"}, "fusion_lon": 0.0}, {"lat": 38.935144666666666, "is_disabled": 0, "type": "electric_bike", "lon": -76.98342383333333, "bike_id": "3813df3e7b65e447f6287a5484b9b35e", "fusion_lat": 0.0, "name": "3813df3e7b65e447f6287a5484b9b35e", "is_reserved": 0, "rental_uris": {"android": "https://dc.lft.to/lastmile_qr_scan", "ios": "https://dc.lft.to/lastmile_qr_scan"}, "fusion_lon": 0.0}, {"lat": 38.898419833333335, "is_disabled": 0, "type": "electric_scooter", "lon": -76.94458883333333, "bike_id": "3f2a60621c22f45bb0073eea9267ffbf", "fusion_lat": 0.0, "name": "3f2a60621c22f45bb0073eea9267ffbf", "is_reserved": 0, "rental_uris": {"android": "https://dc.lft.to/lastmile_qr_scan", "ios": "https://dc.lft.to/lastmile_qr_scan"}, "fusion_lon": 0.0}, {"lat": 38.8935765, "is_disabled": 0, "type": "electric_scooter", "lon": -77.041551, "bike_id": "ae96f0d4a40b63c38d90a964d43201f5", "fusion_lat": 0.0, "name": "ae96f0d4a40b63c38d90a964d43201f5", "is_reserved": 0, "rental_uris": {"android": "https://dc.lft.to/lastmile_qr_scan", "ios": "https://dc.lft.to/lastmile_qr_scan"}, "fusion_lon": 0.0}, {"lat": 38.906848333333336, "is_disabled": 0, "type": "electric_scooter", "lon": -77.02710266666666, "bike_id": "7fbcb27ac9b29eef95e1a9f17d06155d", "fusion_lat": 0.0, "name": "7fbcb27ac9b29eef95e1a9f17d06155d", "is_reserved": 0, "rental_uris": {"android": "https://dc.lft.to/lastmile_qr_scan", "ios": "https://dc.lft.to/lastmile_qr_scan"}, "fusion_lon": 0.0}, {"lat": 38.913192333333335, "is_disabled": 0, "type": "electric_scooter", "lon": -77.045655, "bike_id": "cd74e4b0ac3d531525a8074d7244f1df", "fusion_lat": 0.0, "name": "cd74e4b0ac3d531525a8074d7244f1df", "is_reserved": 0, "rental_uris": {"android": "https://dc.lft.to/lastmile_qr_scan", "ios": "https://dc.lft.to/lastmile_qr_scan"}, "fusion_lon": 0.0}, {"lat": 39.094394666666666, "is_disabled": 0, "type": "electric_bike", "lon": -77.13459666666667, "bike_id": "ff4fe297a7907a88543ed84ba8ebd6a8", "fusion_lat": 0.0, "name": "ff4fe297a7907a88543ed84ba8ebd6a8", "is_reserved": 0, "rental_uris": {"android": "https://dc.lft.to/lastmile_qr_scan", "ios": "https://dc.lft.to/lastmile_qr_scan"}, "fusion_lon": 0.0}, {"lat": 38.91252983333333, "is_disabled": 0, "type": "electric_scooter", "lon": -77.032098, "bike_id": "79d14a75c6c7e4afc7dfb372645d2b8a", "fusion_lat": 0.0, "name": "79d14a75c6c7e4afc7dfb372645d2b8a", "is_reserved": 0, "rental_uris": {"android": "https://dc.lft.to/lastmile_qr_scan", "ios": "https://dc.lft.to/lastmile_qr_scan"}, "fusion_lon": 0.0}, {"lat": 38.92811066666667, "is_disabled": 0, "type": "electric_scooter", "lon": -77.05417983333334, "bike_id": "9bbb970817c33a6ab0e40a87e9538683", "fusion_lat": 0.0, "name": "9bbb970817c33a6ab0e40a87e9538683", "is_reserved": 0, "rental_uris": {"android": "https://dc.lft.to/lastmile_qr_scan", "ios": "https://dc.lft.to/lastmile_qr_scan"}, "fusion_lon": 0.0}, {"lat": 38.911914833333334, "is_disabled": 0, "type": "electric_scooter", "lon": -77.0609125, "bike_id": "e0f8b94ac34ff949ac88f7b42acbe65a", "fusion_lat": 0.0, "name": "e0f8b94ac34ff949ac88f7b42acbe65a", "is_reserved": 0, "rental_uris": {"android": "https://dc.lft.to/lastmile_qr_scan", "ios": "https://dc.lft.to/lastmile_qr_scan"}, "fusion_lon": 0.0}, {"lat": 38.8874095, "is_disabled": 0, "type": "electric_scooter", "lon": -77.0217255, "bike_id": "465d258ab78792f7d71e8311143d0f0a", "fusion_lat": 0.0, "name": "465d258ab78792f7d71e8311143d0f0a", "is_reserved": 0, "rental_uris": {"android": "https://dc.lft.to/lastmile_qr_scan", "ios": "https://dc.lft.to/lastmile_qr_scan"}, "fusion_lon": 0.0}, {"lat": 38.905344166666666, "is_disabled": 0, "type": "electric_scooter", "lon": -77.04885233333333, "bike_id": "1eab01f0d804ca5c6100e00c8d7e70fc", "fusion_lat": 0.0, "name": "1eab01f0d804ca5c6100e00c8d7e70fc", "is_reserved": 0, "rental_uris": {"android": "https://dc.lft.to/lastmile_qr_scan", "ios": "https://dc.lft.to/lastmile_qr_scan"}, "fusion_lon": 0.0}, {"lat": 38.91312933333333, "is_disabled": 0, "type": "electric_scooter", "lon": -77.031965, "bike_id": "e66900b6268b3bfc54d2ccbc7ca23151", "fusion_lat": 0.0, "name": "e66900b6268b3bfc54d2ccbc7ca23151", "is_reserved": 0, "rental_uris": {"android": "https://dc.lft.to/lastmile_qr_scan", "ios": "https://dc.lft.to/lastmile_qr_scan"}, "fusion_lon": 0.0}, {"lat": 38.90012483333334, "is_disabled": 0, "type": "electric_scooter", "lon": -77.01198333333333, "bike_id": "a669ec3cc9bac60b4a166b2f1f358c64", "fusion_lat": 0.0, "name": "a669ec3cc9bac60b4a166b2f1f358c64", "is_reserved": 0, "rental_uris": {"android": "https://dc.lft.to/lastmile_qr_scan", "ios": "https://dc.lft.to/lastmile_qr_scan"}, "fusion_lon": 0.0}, {"lat": 38.884711833333334, "is_disabled": 0, "type": "electric_scooter", "lon": -77.0239875, "bike_id": "bc4e63dcdc87f6df9816675cab97c04a", "fusion_lat": 0.0, "name": "bc4e63dcdc87f6df9816675cab97c04a", "is_reserved": 0, "rental_uris": {"android": "https://dc.lft.to/lastmile_qr_scan", "ios": "https://dc.lft.to/lastmile_qr_scan"}, "fusion_lon": 0.0}, {"lat": 38.9251235, "is_disabled": 0, "type": "electric_scooter", "lon": -76.98577716666667, "bike_id": "09c5357bbc8fd61ec43d97c8a2010045", "fusion_lat": 0.0, "name": "09c5357bbc8fd61ec43d97c8a2010045", "is_reserved": 0, "rental_uris": {"android": "https://dc.lft.to/lastmile_qr_scan", "ios": "https://dc.lft.to/lastmile_qr_scan"}, "fusion_lon": 0.0}, {"lat": 38.867135166666664, "is_disabled": 0, "type": "electric_scooter", "lon": -76.987235, "bike_id": "d134d4a1ae77603ad3985d3cef8ffe94", "fusion_lat": 0.0, "name": "d134d4a1ae77603ad3985d3cef8ffe94", "is_reserved": 0, "rental_uris": {"android": "https://dc.lft.to/lastmile_qr_scan", "ios": "https://dc.lft.to/lastmile_qr_scan"}, "fusion_lon": 0.0}, {"lat": 38.91483816666667, "is_disabled": 0, "type": "electric_scooter", "lon": -77.0326035, "bike_id": "30763e604f83c0a702d5a48bd8fc93dc", "fusion_lat": 0.0, "name": "30763e604f83c0a702d5a48bd8fc93dc", "is_reserved": 0, "rental_uris": {"android": "https://dc.lft.to/lastmile_qr_scan", "ios": "https://dc.lft.to/lastmile_qr_scan"}, "fusion_lon": 0.0}, {"lat": 38.927466, "is_disabled": 0, "type": "electric_scooter", "lon": -77.02269616666666, "bike_id": "b12573c3fc3c6f9037fdc3fa18543fdb", "fusion_lat": 0.0, "name": "b12573c3fc3c6f9037fdc3fa18543fdb", "is_reserved": 0, "rental_uris": {"android": "https://dc.lft.to/lastmile_qr_scan", "ios": "https://dc.lft.to/lastmile_qr_scan"}, "fusion_lon": 0.0}, {"lat": 38.898813833333335, "is_disabled": 0, "type": "electric_scooter", "lon": -77.02382933333334, "bike_id": "a8a0d6afce823279e2b11556a7dc3af4", "fusion_lat": 0.0, "name": "a8a0d6afce823279e2b11556a7dc3af4", "is_reserved": 0, "rental_uris": {"android": "https://dc.lft.to/lastmile_qr_scan", "ios": "https://dc.lft.to/lastmile_qr_scan"}, "fusion_lon": 0.0}, {"lat": 38.8922105, "is_disabled": 0, "type": "electric_scooter", "lon": -77.04507883333333, "bike_id": "136f4bd63ddfa34b8f183cbd1fc60b56", "fusion_lat": 0.0, "name": "136f4bd63ddfa34b8f183cbd1fc60b56", "is_reserved": 0, "rental_uris": {"android": "https://dc.lft.to/lastmile_qr_scan", "ios": "https://dc.lft.to/lastmile_qr_scan"}, "fusion_lon": 0.0}, {"lat": 38.911085, "is_disabled": 0, "type": "electric_scooter", "lon": -77.04456816666666, "bike_id": "65d87cfffdb5a92749b762a6b6fafac5", "fusion_lat": 0.0, "name": "65d87cfffdb5a92749b762a6b6fafac5", "is_reserved": 0, "rental_uris": {"android": "https://dc.lft.to/lastmile_qr_scan", "ios": "https://dc.lft.to/lastmile_qr_scan"}, "fusion_lon": 0.0}, {"lat": 38.917005333333336, "is_disabled": 0, "type": "electric_scooter", "lon": -77.03237666666666, "bike_id": "63b32614ea681e0a3609af5cbd077f68", "fusion_lat": 0.0, "name": "63b32614ea681e0a3609af5cbd077f68", "is_reserved": 0, "rental_uris": {"android": "https://dc.lft.to/lastmile_qr_scan", "ios": "https://dc.lft.to/lastmile_qr_scan"}, "fusion_lon": 0.0}, {"lat": 38.903609833333334, "is_disabled": 0, "type": "electric_scooter", "lon": -77.06019766666667, "bike_id": "8af78f8935665f05045937432c72f2b3", "fusion_lat": 0.0, "name": "8af78f8935665f05045937432c72f2b3", "is_reserved": 0, "rental_uris": {"android": "https://dc.lft.to/lastmile_qr_scan", "ios": "https://dc.lft.to/lastmile_qr_scan"}, "fusion_lon": 0.0}, {"lat": 38.8967845, "is_disabled": 0, "type": "electric_scooter", "lon": -76.93531266666666, "bike_id": "bcf63769fd4c826e0f438e7c769d4c5f", "fusion_lat": 0.0, "name": "bcf63769fd4c826e0f438e7c769d4c5f", "is_reserved": 0, "rental_uris": {"android": "https://dc.lft.to/lastmile_qr_scan", "ios": "https://dc.lft.to/lastmile_qr_scan"}, "fusion_lon": 0.0}, {"lat": 38.9595665, "is_disabled": 0, "type": "electric_bike", "lon": -77.10089016666667, "bike_id": "15be923f426816d4f8e15c3e4e19c457", "fusion_lat": 0.0, "name": "15be923f426816d4f8e15c3e4e19c457", "is_reserved": 0, "rental_uris": {"android": "https://dc.lft.to/lastmile_qr_scan", "ios": "https://dc.lft.to/lastmile_qr_scan"}, "fusion_lon": 0.0}, {"lat": 38.91710483333333, "is_disabled": 0, "type": "electric_scooter", "lon": -77.03868966666667, "bike_id": "bf401270bfe3e141b72ba29d03063378", "fusion_lat": 0.0, "name": "bf401270bfe3e141b72ba29d03063378", "is_reserved": 0, "rental_uris": {"android": "https://dc.lft.to/lastmile_qr_scan", "ios": "https://dc.lft.to/lastmile_qr_scan"}, "fusion_lon": 0.0}, {"lat": 38.91866533333334, "is_disabled": 0, "type": "electric_scooter", "lon": -77.04589333333334, "bike_id": "436bdeb10f2c90fea71d934b5c0f1da8", "fusion_lat": 0.0, "name": "436bdeb10f2c90fea71d934b5c0f1da8", "is_reserved": 0, "rental_uris": {"android": "https://dc.lft.to/lastmile_qr_scan", "ios": "https://dc.lft.to/lastmile_qr_scan"}, "fusion_lon": 0.0}, {"lat": 38.87394233333333, "is_disabled": 0, "type": "electric_bike", "lon": -77.00044366666667, "bike_id": "39992e6fcdd3da2dff361e1f9e39155d", "fusion_lat": 0.0, "name": "39992e6fcdd3da2dff361e1f9e39155d", "is_reserved": 0, "rental_uris": {"android": "https://dc.lft.to/lastmile_qr_scan", "ios": "https://dc.lft.to/lastmile_qr_scan"}, "fusion_lon": 0.0}, {"lat": 38.91326166666666, "is_disabled": 0, "type": "electric_scooter", "lon": -77.032677, "bike_id": "691406d4fa3e5f419602d7803443af80", "fusion_lat": 0.0, "name": "691406d4fa3e5f419602d7803443af80", "is_reserved": 0, "rental_uris": {"android": "https://dc.lft.to/lastmile_qr_scan", "ios": "https://dc.lft.to/lastmile_qr_scan"}, "fusion_lon": 0.0}, {"lat": 38.920633333333335, "is_disabled": 0, "type": "electric_scooter", "lon": -77.04341083333334, "bike_id": "f9f9a24e3648b20dcdf46c9648dc0eb1", "fusion_lat": 0.0, "name": "f9f9a24e3648b20dcdf46c9648dc0eb1", "is_reserved": 0, "rental_uris": {"android": "https://dc.lft.to/lastmile_qr_scan", "ios": "https://dc.lft.to/lastmile_qr_scan"}, "fusion_lon": 0.0}, {"lat": 38.96150566666667, "is_disabled": 0, "type": "electric_scooter", "lon": -77.02779383333333, "bike_id": "03f560b5636bedcfa261cb81a7bede07", "fusion_lat": 0.0, "name": "03f560b5636bedcfa261cb81a7bede07", "is_reserved": 0, "rental_uris": {"android": "https://dc.lft.to/lastmile_qr_scan", "ios": "https://dc.lft.to/lastmile_qr_scan"}, "fusion_lon": 0.0}, {"lat": 38.94545266666667, "is_disabled": 0, "type": "electric_bike", "lon": -76.89540416666667, "bike_id": "12013d941d0ad2576bd358d3f1ead73e", "fusion_lat": 0.0, "name": "12013d941d0ad2576bd358d3f1ead73e", "is_reserved": 0, "rental_uris": {"android": "https://dc.lft.to/lastmile_qr_scan", "ios": "https://dc.lft.to/lastmile_qr_scan"}, "fusion_lon": 0.0}, {"lat": 38.916896, "is_disabled": 0, "type": "electric_scooter", "lon": -77.02515933333333, "bike_id": "b5e369961f7b9b5cac094e81fe5b0bcb", "fusion_lat": 0.0, "name": "b5e369961f7b9b5cac094e81fe5b0bcb", "is_reserved": 0, "rental_uris": {"android": "https://dc.lft.to/lastmile_qr_scan", "ios": "https://dc.lft.to/lastmile_qr_scan"}, "fusion_lon": 0.0}, {"lat": 38.912554166666666, "is_disabled": 0, "type": "electric_scooter", "lon": -77.032365, "bike_id": "5e1de8948c730b48c7c9c9ef9bc483b3", "fusion_lat": 0.0, "name": "5e1de8948c730b48c7c9c9ef9bc483b3", "is_reserved": 0, "rental_uris": {"android": "https://dc.lft.to/lastmile_qr_scan", "ios": "https://dc.lft.to/lastmile_qr_scan"}, "fusion_lon": 0.0}, {"lat": 38.907423666666666, "is_disabled": 0, "type": "electric_scooter", "lon": -77.0414585, "bike_id": "cd994ea4d5c4181d479b1030ab0c58a6", "fusion_lat": 0.0, "name": "cd994ea4d5c4181d479b1030ab0c58a6", "is_reserved": 0, "rental_uris": {"android": "https://dc.lft.to/lastmile_qr_scan", "ios": "https://dc.lft.to/lastmile_qr_scan"}, "fusion_lon": 0.0}, {"lat": 38.900317666666666, "is_disabled": 0, "type": "electric_scooter", "lon": -76.99617316666667, "bike_id": "dc85d0fc6fd57e01c2e3a506df4294ab", "fusion_lat": 0.0, "name": "dc85d0fc6fd57e01c2e3a506df4294ab", "is_reserved": 0, "rental_uris": {"android": "https://dc.lft.to/lastmile_qr_scan", "ios": "https://dc.lft.to/lastmile_qr_scan"}, "fusion_lon": 0.0}, {"lat": 38.8972485, "is_disabled": 0, "type": "electric_scooter", "lon": -77.04974966666667, "bike_id": "3f0f112521259d31911bfe0f9c6b9784", "fusion_lat": 0.0, "name": "3f0f112521259d31911bfe0f9c6b9784", "is_reserved": 0, "rental_uris": {"android": "https://dc.lft.to/lastmile_qr_scan", "ios": "https://dc.lft.to/lastmile_qr_scan"}, "fusion_lon": 0.0}, {"lat": 38.92241283333333, "is_disabled": 0, "type": "electric_scooter", "lon": -77.04267233333333, "bike_id": "ca4768da23e25d0b33bc737aa63b4b40", "fusion_lat": 0.0, "name": "ca4768da23e25d0b33bc737aa63b4b40", "is_reserved": 0, "rental_uris": {"android": "https://dc.lft.to/lastmile_qr_scan", "ios": "https://dc.lft.to/lastmile_qr_scan"}, "fusion_lon": 0.0}, {"lat": 38.887348833333334, "is_disabled": 0, "type": "electric_scooter", "lon": -77.03173583333333, "bike_id": "eb54347830c85da6a005297f9e8f1f28", "fusion_lat": 0.0, "name": "eb54347830c85da6a005297f9e8f1f28", "is_reserved": 0, "rental_uris": {"android": "https://dc.lft.to/lastmile_qr_scan", "ios": "https://dc.lft.to/lastmile_qr_scan"}, "fusion_lon": 0.0}, {"lat": 38.93657966666667, "is_disabled": 0, "type": "electric_bike", "lon": -76.95215883333333, "bike_id": "5dd781c9872c665f6be277785d911dda", "fusion_lat": 0.0, "name": "5dd781c9872c665f6be277785d911dda", "is_reserved": 0, "rental_uris": {"android": "https://dc.lft.to/lastmile_qr_scan", "ios": "https://dc.lft.to/lastmile_qr_scan"}, "fusion_lon": 0.0}, {"lat": 38.91693166666667, "is_disabled": 0, "type": "electric_scooter", "lon": -77.02915133333333, "bike_id": "e2f75c7e7101f249303e3fb85e712912", "fusion_lat": 0.0, "name": "e2f75c7e7101f249303e3fb85e712912", "is_reserved": 0, "rental_uris": {"android": "https://dc.lft.to/lastmile_qr_scan", "ios": "https://dc.lft.to/lastmile_qr_scan"}, "fusion_lon": 0.0}, {"lat": 38.973260333333336, "is_disabled": 0, "type": "electric_bike", "lon": -77.02148366666667, "bike_id": "a3c73007adbf0ea79ed1ab6de50ce827", "fusion_lat": 0.0, "name": "a3c73007adbf0ea79ed1ab6de50ce827", "is_reserved": 0, "rental_uris": {"android": "https://dc.lft.to/lastmile_qr_scan", "ios": "https://dc.lft.to/lastmile_qr_scan"}, "fusion_lon": 0.0}, {"lat": 38.91639966666666, "is_disabled": 0, "type": "electric_scooter", "lon": -76.98225433333333, "bike_id": "4b3c12d1c60a780dacafa56ff3d9ee0f", "fusion_lat": 0.0, "name": "4b3c12d1c60a780dacafa56ff3d9ee0f", "is_reserved": 0, "rental_uris": {"android": "https://dc.lft.to/lastmile_qr_scan", "ios": "https://dc.lft.to/lastmile_qr_scan"}, "fusion_lon": 0.0}, {"lat": 38.84426116666667, "is_disabled": 0, "type": "electric_scooter", "lon": -76.99771766666667, "bike_id": "33123dac9fcb6bb3d747994cb101eaba", "fusion_lat": 0.0, "name": "33123dac9fcb6bb3d747994cb101eaba", "is_reserved": 0, "rental_uris": {"android": "https://dc.lft.to/lastmile_qr_scan", "ios": "https://dc.lft.to/lastmile_qr_scan"}, "fusion_lon": 0.0}, {"lat": 38.851879833333335, "is_disabled": 0, "type": "electric_scooter", "lon": -76.97619666666667, "bike_id": "aa5e8c7972a09b8a17d5bcd2f4df9a25", "fusion_lat": 0.0, "name": "aa5e8c7972a09b8a17d5bcd2f4df9a25", "is_reserved": 0, "rental_uris": {"android": "https://dc.lft.to/lastmile_qr_scan", "ios": "https://dc.lft.to/lastmile_qr_scan"}, "fusion_lon": 0.0}, {"lat": 39.034318166666665, "is_disabled": 0, "type": "electric_bike", "lon": -77.0430415, "bike_id": "c54c5f153da0601d89ae0c3a15319898", "fusion_lat": 0.0, "name": "c54c5f153da0601d89ae0c3a15319898", "is_reserved": 0, "rental_uris": {"android": "https://dc.lft.to/lastmile_qr_scan", "ios": "https://dc.lft.to/lastmile_qr_scan"}, "fusion_lon": 0.0}, {"lat": 38.876636, "is_disabled": 0, "type": "electric_scooter", "lon": -77.00424933333333, "bike_id": "ffa22a6c8d4966058e32f287e541f1cb", "fusion_lat": 0.0, "name": "ffa22a6c8d4966058e32f287e541f1cb", "is_reserved": 0, "rental_uris": {"android": "https://dc.lft.to/lastmile_qr_scan", "ios": "https://dc.lft.to/lastmile_qr_scan"}, "fusion_lon": 0.0}, {"lat": 38.905299166666666, "is_disabled": 0, "type": "electric_scooter", "lon": -77.02697533333334, "bike_id": "91e06f07133dd2b6be3d94edd61dc8c0", "fusion_lat": 0.0, "name": "91e06f07133dd2b6be3d94edd61dc8c0", "is_reserved": 0, "rental_uris": {"android": "https://dc.lft.to/lastmile_qr_scan", "ios": "https://dc.lft.to/lastmile_qr_scan"}, "fusion_lon": 0.0}, {"lat": 38.9197415, "is_disabled": 0, "type": "electric_scooter", "lon": -77.02381933333334, "bike_id": "95e852ec1f9d61325aac92813ad919cc", "fusion_lat": 0.0, "name": "95e852ec1f9d61325aac92813ad919cc", "is_reserved": 0, "rental_uris": {"android": "https://dc.lft.to/lastmile_qr_scan", "ios": "https://dc.lft.to/lastmile_qr_scan"}, "fusion_lon": 0.0}, {"lat": 38.921352666666664, "is_disabled": 0, "type": "electric_scooter", "lon": -77.0413175, "bike_id": "15e2eb936ba7a2b84b02ff6e95dc8ae1", "fusion_lat": 0.0, "name": "15e2eb936ba7a2b84b02ff6e95dc8ae1", "is_reserved": 0, "rental_uris": {"android": "https://dc.lft.to/lastmile_qr_scan", "ios": "https://dc.lft.to/lastmile_qr_scan"}, "fusion_lon": 0.0}, {"lat": 38.90392766666667, "is_disabled": 0, "type": "electric_scooter", "lon": -77.00577416666667, "bike_id": "2e3aa009c0219d1f81e9a7cb9ac8ff26", "fusion_lat": 0.0, "name": "2e3aa009c0219d1f81e9a7cb9ac8ff26", "is_reserved": 0, "rental_uris": {"android": "https://dc.lft.to/lastmile_qr_scan", "ios": "https://dc.lft.to/lastmile_qr_scan"}, "fusion_lon": 0.0}, {"lat": 38.93883566666667, "is_disabled": 0, "type": "electric_scooter", "lon": -77.03224633333333, "bike_id": "7d17e59c25be0f90b5555ee9bf895b8d", "fusion_lat": 0.0, "name": "7d17e59c25be0f90b5555ee9bf895b8d", "is_reserved": 0, "rental_uris": {"android": "https://dc.lft.to/lastmile_qr_scan", "ios": "https://dc.lft.to/lastmile_qr_scan"}, "fusion_lon": 0.0}, {"lat": 38.935776833333335, "is_disabled": 0, "type": "electric_scooter", "lon": -77.06088416666667, "bike_id": "b1584798a2d11a7e7b5f60009b7dcb40", "fusion_lat": 0.0, "name": "b1584798a2d11a7e7b5f60009b7dcb40", "is_reserved": 0, "rental_uris": {"android": "https://dc.lft.to/lastmile_qr_scan", "ios": "https://dc.lft.to/lastmile_qr_scan"}, "fusion_lon": 0.0}, {"lat": 38.896609, "is_disabled": 0, "type": "electric_scooter", "lon": -77.039735, "bike_id": "f467c06789138dc8500cf370eeec57a2", "fusion_lat": 0.0, "name": "f467c06789138dc8500cf370eeec57a2", "is_reserved": 0, "rental_uris": {"android": "https://dc.lft.to/lastmile_qr_scan", "ios": "https://dc.lft.to/lastmile_qr_scan"}, "fusion_lon": 0.0}, {"lat": 38.905809166666664, "is_disabled": 0, "type": "electric_scooter", "lon": -77.00884416666666, "bike_id": "750b6ad1e3fa325969ee0a9b1243f10f", "fusion_lat": 0.0, "name": "750b6ad1e3fa325969ee0a9b1243f10f", "is_reserved": 0, "rental_uris": {"android": "https://dc.lft.to/lastmile_qr_scan", "ios": "https://dc.lft.to/lastmile_qr_scan"}, "fusion_lon": 0.0}, {"lat": 38.91051366666667, "is_disabled": 0, "type": "electric_scooter", "lon": -77.04577066666667, "bike_id": "fe9fe2b0e92a087cfba265c8b4428d22", "fusion_lat": 0.0, "name": "fe9fe2b0e92a087cfba265c8b4428d22", "is_reserved": 0, "rental_uris": {"android": "https://dc.lft.to/lastmile_qr_scan", "ios": "https://dc.lft.to/lastmile_qr_scan"}, "fusion_lon": 0.0}, {"lat": 38.900603833333335, "is_disabled": 0, "type": "electric_scooter", "lon": -77.002051, "bike_id": "00e7f7ab00ab3cf03358cc8f7f80cb95", "fusion_lat": 0.0, "name": "00e7f7ab00ab3cf03358cc8f7f80cb95", "is_reserved": 0, "rental_uris": {"android": "https://dc.lft.to/lastmile_qr_scan", "ios": "https://dc.lft.to/lastmile_qr_scan"}, "fusion_lon": 0.0}, {"lat": 38.886533666666665, "is_disabled": 0, "type": "electric_bike", "lon": -77.16229233333334, "bike_id": "cfe53867df6694371863f5a778be1b6f", "fusion_lat": 0.0, "name": "cfe53867df6694371863f5a778be1b6f", "is_reserved": 0, "rental_uris": {"android": "https://dc.lft.to/lastmile_qr_scan", "ios": "https://dc.lft.to/lastmile_qr_scan"}, "fusion_lon": 0.0}, {"lat": 38.921474333333336, "is_disabled": 0, "type": "electric_scooter", "lon": -77.03508716666667, "bike_id": "df8ec784160e1c2ff3394248db09001e", "fusion_lat": 0.0, "name": "df8ec784160e1c2ff3394248db09001e", "is_reserved": 0, "rental_uris": {"android": "https://dc.lft.to/lastmile_qr_scan", "ios": "https://dc.lft.to/lastmile_qr_scan"}, "fusion_lon": 0.0}, {"lat": 38.905029666666664, "is_disabled": 0, "type": "electric_scooter", "lon": -77.064669, "bike_id": "294c8736d8fb8508c8ae3ae2a6e3d8a6", "fusion_lat": 0.0, "name": "294c8736d8fb8508c8ae3ae2a6e3d8a6", "is_reserved": 0, "rental_uris": {"android": "https://dc.lft.to/lastmile_qr_scan", "ios": "https://dc.lft.to/lastmile_qr_scan"}, "fusion_lon": 0.0}, {"lat": 38.9155125, "is_disabled": 0, "type": "electric_scooter", "lon": -77.0123615, "bike_id": "40e308b6db7519e0ad65c9700e01c334", "fusion_lat": 0.0, "name": "40e308b6db7519e0ad65c9700e01c334", "is_reserved": 0, "rental_uris": {"android": "https://dc.lft.to/lastmile_qr_scan", "ios": "https://dc.lft.to/lastmile_qr_scan"}, "fusion_lon": 0.0}, {"lat": 38.90018216666667, "is_disabled": 0, "type": "electric_scooter", "lon": -76.9986685, "bike_id": "c0e841219c5cddbb1b94293c760619d4", "fusion_lat": 0.0, "name": "c0e841219c5cddbb1b94293c760619d4", "is_reserved": 0, "rental_uris": {"android": "https://dc.lft.to/lastmile_qr_scan", "ios": "https://dc.lft.to/lastmile_qr_scan"}, "fusion_lon": 0.0}, {"lat": 38.918889166666666, "is_disabled": 0, "type": "electric_scooter", "lon": -77.03908133333333, "bike_id": "0ca7052516b3987ab832467ab6a91463", "fusion_lat": 0.0, "name": "0ca7052516b3987ab832467ab6a91463", "is_reserved": 0, "rental_uris": {"android": "https://dc.lft.to/lastmile_qr_scan", "ios": "https://dc.lft.to/lastmile_qr_scan"}, "fusion_lon": 0.0}, {"lat": 38.917635, "is_disabled": 0, "type": "electric_scooter", "lon": -76.97624766666667, "bike_id": "0883e5f332686f7a2aa7666387a4875b", "fusion_lat": 0.0, "name": "0883e5f332686f7a2aa7666387a4875b", "is_reserved": 0, "rental_uris": {"android": "https://dc.lft.to/lastmile_qr_scan", "ios": "https://dc.lft.to/lastmile_qr_scan"}, "fusion_lon": 0.0}, {"lat": 38.941256, "is_disabled": 0, "type": "electric_scooter", "lon": -77.00062583333333, "bike_id": "d9bcde788c1be57aa9ed6a47c677df4e", "fusion_lat": 0.0, "name": "d9bcde788c1be57aa9ed6a47c677df4e", "is_reserved": 0, "rental_uris": {"android": "https://dc.lft.to/lastmile_qr_scan", "ios": "https://dc.lft.to/lastmile_qr_scan"}, "fusion_lon": 0.0}, {"lat": 38.9036315, "is_disabled": 0, "type": "electric_scooter", "lon": -77.00343033333333, "bike_id": "747516071126115ee62e57d3f8cf1cd0", "fusion_lat": 0.0, "name": "747516071126115ee62e57d3f8cf1cd0", "is_reserved": 0, "rental_uris": {"android": "https://dc.lft.to/lastmile_qr_scan", "ios": "https://dc.lft.to/lastmile_qr_scan"}, "fusion_lon": 0.0}, {"lat": 38.934128333333334, "is_disabled": 0, "type": "electric_scooter", "lon": -77.03290716666666, "bike_id": "f3842723b71e4aeecc577216c474c062", "fusion_lat": 0.0, "name": "f3842723b71e4aeecc577216c474c062", "is_reserved": 0, "rental_uris": {"android": "https://dc.lft.to/lastmile_qr_scan", "ios": "https://dc.lft.to/lastmile_qr_scan"}, "fusion_lon": 0.0}, {"lat": 38.92638433333333, "is_disabled": 0, "type": "electric_scooter", "lon": -77.037997, "bike_id": "87f0a8b6b147e045f22b82d9a7270096", "fusion_lat": 0.0, "name": "87f0a8b6b147e045f22b82d9a7270096", "is_reserved": 0, "rental_uris": {"android": "https://dc.lft.to/lastmile_qr_scan", "ios": "https://dc.lft.to/lastmile_qr_scan"}, "fusion_lon": 0.0}, {"lat": 38.95890583333333, "is_disabled": 0, "type": "electric_bike", "lon": -76.92476816666667, "bike_id": "a51fb32bc4007a513d67cc117ed43d21", "fusion_lat": 0.0, "name": "a51fb32bc4007a513d67cc117ed43d21", "is_reserved": 0, "rental_uris": {"android": "https://dc.lft.to/lastmile_qr_scan", "ios": "https://dc.lft.to/lastmile_qr_scan"}, "fusion_lon": 0.0}, {"lat": 38.902474, "is_disabled": 0, "type": "electric_scooter", "lon": -77.03473733333334, "bike_id": "cb2864d12c7f6d5b467ea74ac4d94a98", "fusion_lat": 0.0, "name": "cb2864d12c7f6d5b467ea74ac4d94a98", "is_reserved": 0, "rental_uris": {"android": "https://dc.lft.to/lastmile_qr_scan", "ios": "https://dc.lft.to/lastmile_qr_scan"}, "fusion_lon": 0.0}, {"lat": 38.91680916666667, "is_disabled": 0, "type": "electric_scooter", "lon": -77.00189883333333, "bike_id": "c74ee17bd13d0446aad1b0791c8f4146", "fusion_lat": 0.0, "name": "c74ee17bd13d0446aad1b0791c8f4146", "is_reserved": 0, "rental_uris": {"android": "https://dc.lft.to/lastmile_qr_scan", "ios": "https://dc.lft.to/lastmile_qr_scan"}, "fusion_lon": 0.0}, {"lat": 38.906201333333335, "is_disabled": 0, "type": "electric_scooter", "lon": -77.06282533333334, "bike_id": "f862fb025b72b21a196167bb67b3c115", "fusion_lat": 0.0, "name": "f862fb025b72b21a196167bb67b3c115", "is_reserved": 0, "rental_uris": {"android": "https://dc.lft.to/lastmile_qr_scan", "ios": "https://dc.lft.to/lastmile_qr_scan"}, "fusion_lon": 0.0}, {"lat": 38.9248065, "is_disabled": 0, "type": "electric_scooter", "lon": -77.03066733333333, "bike_id": "b3e61e1c51224668029f547577cea841", "fusion_lat": 0.0, "name": "b3e61e1c51224668029f547577cea841", "is_reserved": 0, "rental_uris": {"android": "https://dc.lft.to/lastmile_qr_scan", "ios": "https://dc.lft.to/lastmile_qr_scan"}, "fusion_lon": 0.0}, {"lat": 38.98823983333333, "is_disabled": 0, "type": "electric_bike", "lon": -76.996454, "bike_id": "738d3bb625dc3455f2769ad5d0e2f2a0", "fusion_lat": 0.0, "name": "738d3bb625dc3455f2769ad5d0e2f2a0", "is_reserved": 0, "rental_uris": {"android": "https://dc.lft.to/lastmile_qr_scan", "ios": "https://dc.lft.to/lastmile_qr_scan"}, "fusion_lon": 0.0}, {"lat": 38.88363183333333, "is_disabled": 0, "type": "electric_scooter", "lon": -76.94154, "bike_id": "3b4728120b83630f28341580871309dc", "fusion_lat": 0.0, "name": "3b4728120b83630f28341580871309dc", "is_reserved": 0, "rental_uris": {"android": "https://dc.lft.to/lastmile_qr_scan", "ios": "https://dc.lft.to/lastmile_qr_scan"}, "fusion_lon": 0.0}, {"lat": 38.91867633333333, "is_disabled": 0, "type": "electric_scooter", "lon": -77.0402495, "bike_id": "10672ce0845d8edb75ca866759937559", "fusion_lat": 0.0, "name": "10672ce0845d8edb75ca866759937559", "is_reserved": 0, "rental_uris": {"android": "https://dc.lft.to/lastmile_qr_scan", "ios": "https://dc.lft.to/lastmile_qr_scan"}, "fusion_lon": 0.0}, {"lat": 38.907906, "is_disabled": 0, "type": "electric_scooter", "lon": -76.99692466666667, "bike_id": "6f9929d0684fe48177fda4ff920a15fd", "fusion_lat": 0.0, "name": "6f9929d0684fe48177fda4ff920a15fd", "is_reserved": 0, "rental_uris": {"android": "https://dc.lft.to/lastmile_qr_scan", "ios": "https://dc.lft.to/lastmile_qr_scan"}, "fusion_lon": 0.0}, {"lat": 38.919933666666665, "is_disabled": 0, "type": "electric_scooter", "lon": -77.03967333333334, "bike_id": "91fb950a7654536d499799225fe886d1", "fusion_lat": 0.0, "name": "91fb950a7654536d499799225fe886d1", "is_reserved": 0, "rental_uris": {"android": "https://dc.lft.to/lastmile_qr_scan", "ios": "https://dc.lft.to/lastmile_qr_scan"}, "fusion_lon": 0.0}, {"lat": 38.89600166666666, "is_disabled": 0, "type": "electric_scooter", "lon": -77.01335366666666, "bike_id": "c07f03bd4f4586d7c1574815f7e8d26d", "fusion_lat": 0.0, "name": "c07f03bd4f4586d7c1574815f7e8d26d", "is_reserved": 0, "rental_uris": {"android": "https://dc.lft.to/lastmile_qr_scan", "ios": "https://dc.lft.to/lastmile_qr_scan"}, "fusion_lon": 0.0}, {"lat": 38.93111533333333, "is_disabled": 0, "type": "electric_scooter", "lon": -77.0381265, "bike_id": "71a75b62a3c7d80692f5b8820eef9464", "fusion_lat": 0.0, "name": "71a75b62a3c7d80692f5b8820eef9464", "is_reserved": 0, "rental_uris": {"android": "https://dc.lft.to/lastmile_qr_scan", "ios": "https://dc.lft.to/lastmile_qr_scan"}, "fusion_lon": 0.0}, {"lat": 38.9004665, "is_disabled": 0, "type": "electric_scooter", "lon": -76.9949835, "bike_id": "239e6b5ec4a87acf1bad3d81aa3b5853", "fusion_lat": 0.0, "name": "239e6b5ec4a87acf1bad3d81aa3b5853", "is_reserved": 0, "rental_uris": {"android": "https://dc.lft.to/lastmile_qr_scan", "ios": "https://dc.lft.to/lastmile_qr_scan"}, "fusion_lon": 0.0}, {"lat": 38.92807066666667, "is_disabled": 0, "type": "electric_scooter", "lon": -77.03644083333333, "bike_id": "9457755370083e1e5fe4b4569f8505c7", "fusion_lat": 0.0, "name": "9457755370083e1e5fe4b4569f8505c7", "is_reserved": 0, "rental_uris": {"android": "https://dc.lft.to/lastmile_qr_scan", "ios": "https://dc.lft.to/lastmile_qr_scan"}, "fusion_lon": 0.0}, {"lat": 38.8398755, "is_disabled": 0, "type": "electric_bike", "lon": -77.0057125, "bike_id": "c2a3d59bad0d7096e6e24efdc4e79b47", "fusion_lat": 0.0, "name": "c2a3d59bad0d7096e6e24efdc4e79b47", "is_reserved": 0, "rental_uris": {"android": "https://dc.lft.to/lastmile_qr_scan", "ios": "https://dc.lft.to/lastmile_qr_scan"}, "fusion_lon": 0.0}, {"lat": 38.908178166666666, "is_disabled": 0, "type": "electric_scooter", "lon": -76.94145616666667, "bike_id": "9f42e0eb44fc49c4182fffe902fa3f88", "fusion_lat": 0.0, "name": "9f42e0eb44fc49c4182fffe902fa3f88", "is_reserved": 0, "rental_uris": {"android": "https://dc.lft.to/lastmile_qr_scan", "ios": "https://dc.lft.to/lastmile_qr_scan"}, "fusion_lon": 0.0}, {"lat": 38.88408733333333, "is_disabled": 0, "type": "electric_bike", "lon": -76.96057616666667, "bike_id": "4a01999e6d4def5c0e6db2fb70a2acd9", "fusion_lat": 0.0, "name": "4a01999e6d4def5c0e6db2fb70a2acd9", "is_reserved": 0, "rental_uris": {"android": "https://dc.lft.to/lastmile_qr_scan", "ios": "https://dc.lft.to/lastmile_qr_scan"}, "fusion_lon": 0.0}, {"lat": 38.9110505, "is_disabled": 0, "type": "electric_scooter", "lon": -77.0021645, "bike_id": "e51866fbd79e08a61a6328219c951d22", "fusion_lat": 0.0, "name": "e51866fbd79e08a61a6328219c951d22", "is_reserved": 0, "rental_uris": {"android": "https://dc.lft.to/lastmile_qr_scan", "ios": "https://dc.lft.to/lastmile_qr_scan"}, "fusion_lon": 0.0}, {"lat": 38.881014666666665, "is_disabled": 0, "type": "electric_scooter", "lon": -77.023962, "bike_id": "ee0ebee2b7f153260df8e824aee9e1ed", "fusion_lat": 0.0, "name": "ee0ebee2b7f153260df8e824aee9e1ed", "is_reserved": 0, "rental_uris": {"android": "https://dc.lft.to/lastmile_qr_scan", "ios": "https://dc.lft.to/lastmile_qr_scan"}, "fusion_lon": 0.0}, {"lat": 38.904021, "is_disabled": 0, "type": "electric_scooter", "lon": -77.025092, "bike_id": "a80890ab84a6d36e67e5402c4bf41ab8", "fusion_lat": 0.0, "name": "a80890ab84a6d36e67e5402c4bf41ab8", "is_reserved": 0, "rental_uris": {"android": "https://dc.lft.to/lastmile_qr_scan", "ios": "https://dc.lft.to/lastmile_qr_scan"}, "fusion_lon": 0.0}, {"lat": 38.92024266666667, "is_disabled": 0, "type": "electric_scooter", "lon": -77.04088966666667, "bike_id": "efcea307ec0657783b0b0387be7e4b64", "fusion_lat": 0.0, "name": "efcea307ec0657783b0b0387be7e4b64", "is_reserved": 0, "rental_uris": {"android": "https://dc.lft.to/lastmile_qr_scan", "ios": "https://dc.lft.to/lastmile_qr_scan"}, "fusion_lon": 0.0}, {"lat": 38.914867666666666, "is_disabled": 0, "type": "electric_scooter", "lon": -77.03259333333334, "bike_id": "638b70bd0c7a0b2848cfd350598d6afe", "fusion_lat": 0.0, "name": "638b70bd0c7a0b2848cfd350598d6afe", "is_reserved": 0, "rental_uris": {"android": "https://dc.lft.to/lastmile_qr_scan", "ios": "https://dc.lft.to/lastmile_qr_scan"}, "fusion_lon": 0.0}, {"lat": 38.92528883333333, "is_disabled": 0, "type": "electric_scooter", "lon": -77.0442775, "bike_id": "dd62e599e4a2256775c09760b3757eed", "fusion_lat": 0.0, "name": "dd62e599e4a2256775c09760b3757eed", "is_reserved": 0, "rental_uris": {"android": "https://dc.lft.to/lastmile_qr_scan", "ios": "https://dc.lft.to/lastmile_qr_scan"}, "fusion_lon": 0.0}, {"lat": 38.907978166666666, "is_disabled": 0, "type": "electric_scooter", "lon": -77.06365466666666, "bike_id": "304a8a23d4a19663aff60ddc548ef953", "fusion_lat": 0.0, "name": "304a8a23d4a19663aff60ddc548ef953", "is_reserved": 0, "rental_uris": {"android": "https://dc.lft.to/lastmile_qr_scan", "ios": "https://dc.lft.to/lastmile_qr_scan"}, "fusion_lon": 0.0}, {"lat": 38.93870733333333, "is_disabled": 0, "type": "electric_scooter", "lon": -77.0244325, "bike_id": "e976f6afbf616f4d36b6bbe50c3a7734", "fusion_lat": 0.0, "name": "e976f6afbf616f4d36b6bbe50c3a7734", "is_reserved": 0, "rental_uris": {"android": "https://dc.lft.to/lastmile_qr_scan", "ios": "https://dc.lft.to/lastmile_qr_scan"}, "fusion_lon": 0.0}, {"lat": 38.92850166666667, "is_disabled": 0, "type": "electric_bike", "lon": -77.10676283333333, "bike_id": "b1d1ec88f23b7a0d9fc30374ab2e100e", "fusion_lat": 0.0, "name": "b1d1ec88f23b7a0d9fc30374ab2e100e", "is_reserved": 0, "rental_uris": {"android": "https://dc.lft.to/lastmile_qr_scan", "ios": "https://dc.lft.to/lastmile_qr_scan"}, "fusion_lon": 0.0}, {"lat": 38.80742633333333, "is_disabled": 0, "type": "electric_bike", "lon": -77.09423533333333, "bike_id": "6d5f48c387641ce5abde1313de50e6eb", "fusion_lat": 0.0, "name": "6d5f48c387641ce5abde1313de50e6eb", "is_reserved": 0, "rental_uris": {"android": "https://dc.lft.to/lastmile_qr_scan", "ios": "https://dc.lft.to/lastmile_qr_scan"}, "fusion_lon": 0.0}, {"lat": 38.908797166666666, "is_disabled": 0, "type": "electric_scooter", "lon": -77.06437916666667, "bike_id": "6dbe5ebfbe0dd30d0a4676309269deb7", "fusion_lat": 0.0, "name": "6dbe5ebfbe0dd30d0a4676309269deb7", "is_reserved": 0, "rental_uris": {"android": "https://dc.lft.to/lastmile_qr_scan", "ios": "https://dc.lft.to/lastmile_qr_scan"}, "fusion_lon": 0.0}, {"lat": 38.9375715, "is_disabled": 0, "type": "electric_scooter", "lon": -77.031349, "bike_id": "bdfbfbc96d54ca72a1c9e00f4f54c52d", "fusion_lat": 0.0, "name": "bdfbfbc96d54ca72a1c9e00f4f54c52d", "is_reserved": 0, "rental_uris": {"android": "https://dc.lft.to/lastmile_qr_scan", "ios": "https://dc.lft.to/lastmile_qr_scan"}, "fusion_lon": 0.0}, {"lat": 38.911057, "is_disabled": 0, "type": "electric_scooter", "lon": -77.03241633333333, "bike_id": "69d9ce71399409e8dda8c293c1a2c01c", "fusion_lat": 0.0, "name": "69d9ce71399409e8dda8c293c1a2c01c", "is_reserved": 0, "rental_uris": {"android": "https://dc.lft.to/lastmile_qr_scan", "ios": "https://dc.lft.to/lastmile_qr_scan"}, "fusion_lon": 0.0}, {"lat": 38.9003715, "is_disabled": 0, "type": "electric_scooter", "lon": -76.99375416666666, "bike_id": "233018cd03f1d9719a0046e54cd48477", "fusion_lat": 0.0, "name": "233018cd03f1d9719a0046e54cd48477", "is_reserved": 0, "rental_uris": {"android": "https://dc.lft.to/lastmile_qr_scan", "ios": "https://dc.lft.to/lastmile_qr_scan"}, "fusion_lon": 0.0}, {"lat": 38.920617, "is_disabled": 0, "type": "electric_scooter", "lon": -76.97609683333333, "bike_id": "1f34c41b8d2013633db4b3ae6594a61c", "fusion_lat": 0.0, "name": "1f34c41b8d2013633db4b3ae6594a61c", "is_reserved": 0, "rental_uris": {"android": "https://dc.lft.to/lastmile_qr_scan", "ios": "https://dc.lft.to/lastmile_qr_scan"}, "fusion_lon": 0.0}, {"lat": 38.910194, "is_disabled": 0, "type": "electric_scooter", "lon": -77.03859616666666, "bike_id": "837497839cb80580de3791f5a95fd9a1", "fusion_lat": 0.0, "name": "837497839cb80580de3791f5a95fd9a1", "is_reserved": 0, "rental_uris": {"android": "https://dc.lft.to/lastmile_qr_scan", "ios": "https://dc.lft.to/lastmile_qr_scan"}, "fusion_lon": 0.0}, {"lat": 38.88477916666667, "is_disabled": 0, "type": "electric_scooter", "lon": -77.03471083333334, "bike_id": "6832a35cbebb533334df726806f061b4", "fusion_lat": 0.0, "name": "6832a35cbebb533334df726806f061b4", "is_reserved": 0, "rental_uris": {"android": "https://dc.lft.to/lastmile_qr_scan", "ios": "https://dc.lft.to/lastmile_qr_scan"}, "fusion_lon": 0.0}, {"lat": 38.921822, "is_disabled": 0, "type": "electric_scooter", "lon": -77.041372, "bike_id": "b5f90ebc47ee47daab1bfd69cdb634d5", "fusion_lat": 0.0, "name": "b5f90ebc47ee47daab1bfd69cdb634d5", "is_reserved": 0, "rental_uris": {"android": "https://dc.lft.to/lastmile_qr_scan", "ios": "https://dc.lft.to/lastmile_qr_scan"}, "fusion_lon": 0.0}, {"lat": 38.926625333333334, "is_disabled": 0, "type": "electric_scooter", "lon": -77.05599216666667, "bike_id": "cc6b624174aa5a4ba9f0976b8e1d8de0", "fusion_lat": 0.0, "name": "cc6b624174aa5a4ba9f0976b8e1d8de0", "is_reserved": 0, "rental_uris": {"android": "https://dc.lft.to/lastmile_qr_scan", "ios": "https://dc.lft.to/lastmile_qr_scan"}, "fusion_lon": 0.0}, {"lat": 38.91131133333333, "is_disabled": 0, "type": "electric_scooter", "lon": -77.0435295, "bike_id": "b1574d154d27e85b4e8bfbec8ce66271", "fusion_lat": 0.0, "name": "b1574d154d27e85b4e8bfbec8ce66271", "is_reserved": 0, "rental_uris": {"android": "https://dc.lft.to/lastmile_qr_scan", "ios": "https://dc.lft.to/lastmile_qr_scan"}, "fusion_lon": 0.0}, {"lat": 38.89555766666667, "is_disabled": 0, "type": "electric_scooter", "lon": -76.93369883333334, "bike_id": "3a9362ea9205ba0e74c6ea20beaa1bea", "fusion_lat": 0.0, "name": "3a9362ea9205ba0e74c6ea20beaa1bea", "is_reserved": 0, "rental_uris": {"android": "https://dc.lft.to/lastmile_qr_scan", "ios": "https://dc.lft.to/lastmile_qr_scan"}, "fusion_lon": 0.0}, {"lat": 38.918734666666666, "is_disabled": 0, "type": "electric_scooter", "lon": -77.03504783333334, "bike_id": "96ada6a4eef7e75428a1d2c74281407d", "fusion_lat": 0.0, "name": "96ada6a4eef7e75428a1d2c74281407d", "is_reserved": 0, "rental_uris": {"android": "https://dc.lft.to/lastmile_qr_scan", "ios": "https://dc.lft.to/lastmile_qr_scan"}, "fusion_lon": 0.0}, {"lat": 38.895884, "is_disabled": 0, "type": "electric_scooter", "lon": -77.04355233333334, "bike_id": "c5c11e8232f12bd36196868caed53449", "fusion_lat": 0.0, "name": "c5c11e8232f12bd36196868caed53449", "is_reserved": 0, "rental_uris": {"android": "https://dc.lft.to/lastmile_qr_scan", "ios": "https://dc.lft.to/lastmile_qr_scan"}, "fusion_lon": 0.0}, {"lat": 38.92559966666666, "is_disabled": 0, "type": "electric_scooter", "lon": -77.0380075, "bike_id": "1947a1d735f083cc5932b54c04ec5c17", "fusion_lat": 0.0, "name": "1947a1d735f083cc5932b54c04ec5c17", "is_reserved": 0, "rental_uris": {"android": "https://dc.lft.to/lastmile_qr_scan", "ios": "https://dc.lft.to/lastmile_qr_scan"}, "fusion_lon": 0.0}, {"lat": 38.903660333333335, "is_disabled": 0, "type": "electric_scooter", "lon": -76.97655583333334, "bike_id": "56bac17e0a09221ec573a932f09dab22", "fusion_lat": 0.0, "name": "56bac17e0a09221ec573a932f09dab22", "is_reserved": 0, "rental_uris": {"android": "https://dc.lft.to/lastmile_qr_scan", "ios": "https://dc.lft.to/lastmile_qr_scan"}, "fusion_lon": 0.0}, {"lat": 38.9020635, "is_disabled": 0, "type": "electric_scooter", "lon": -76.9883805, "bike_id": "f67012de7638d44f9aa308dc4da93843", "fusion_lat": 0.0, "name": "f67012de7638d44f9aa308dc4da93843", "is_reserved": 0, "rental_uris": {"android": "https://dc.lft.to/lastmile_qr_scan", "ios": "https://dc.lft.to/lastmile_qr_scan"}, "fusion_lon": 0.0}, {"lat": 38.89698533333333, "is_disabled": 0, "type": "electric_scooter", "lon": -77.050227, "bike_id": "7cfc0a29c0a8a85a3ccc578209bddb58", "fusion_lat": 0.0, "name": "7cfc0a29c0a8a85a3ccc578209bddb58", "is_reserved": 0, "rental_uris": {"android": "https://dc.lft.to/lastmile_qr_scan", "ios": "https://dc.lft.to/lastmile_qr_scan"}, "fusion_lon": 0.0}, {"lat": 38.924928666666666, "is_disabled": 0, "type": "electric_scooter", "lon": -77.05223733333334, "bike_id": "120cbcf0a1ccc7fe3c6ec400759c5c9f", "fusion_lat": 0.0, "name": "120cbcf0a1ccc7fe3c6ec400759c5c9f", "is_reserved": 0, "rental_uris": {"android": "https://dc.lft.to/lastmile_qr_scan", "ios": "https://dc.lft.to/lastmile_qr_scan"}, "fusion_lon": 0.0}, {"lat": 38.87535233333333, "is_disabled": 0, "type": "electric_scooter", "lon": -77.0050345, "bike_id": "abded300992aed0a45ac16ed2a2f9443", "fusion_lat": 0.0, "name": "abded300992aed0a45ac16ed2a2f9443", "is_reserved": 0, "rental_uris": {"android": "https://dc.lft.to/lastmile_qr_scan", "ios": "https://dc.lft.to/lastmile_qr_scan"}, "fusion_lon": 0.0}, {"lat": 38.946507833333335, "is_disabled": 0, "type": "electric_scooter", "lon": -77.06479433333334, "bike_id": "89f3ef42e27f0a10b287af294649bb1a", "fusion_lat": 0.0, "name": "89f3ef42e27f0a10b287af294649bb1a", "is_reserved": 0, "rental_uris": {"android": "https://dc.lft.to/lastmile_qr_scan", "ios": "https://dc.lft.to/lastmile_qr_scan"}, "fusion_lon": 0.0}, {"lat": 38.86092433333334, "is_disabled": 0, "type": "electric_scooter", "lon": -76.983695, "bike_id": "c70ad8a0f5cc5a272d48c02e73fd2b40", "fusion_lat": 0.0, "name": "c70ad8a0f5cc5a272d48c02e73fd2b40", "is_reserved": 0, "rental_uris": {"android": "https://dc.lft.to/lastmile_qr_scan", "ios": "https://dc.lft.to/lastmile_qr_scan"}, "fusion_lon": 0.0}, {"lat": 38.92445083333333, "is_disabled": 0, "type": "electric_scooter", "lon": -77.02032166666666, "bike_id": "77ac534ca80bd647bd367f1b8eacc7fb", "fusion_lat": 0.0, "name": "77ac534ca80bd647bd367f1b8eacc7fb", "is_reserved": 0, "rental_uris": {"android": "https://dc.lft.to/lastmile_qr_scan", "ios": "https://dc.lft.to/lastmile_qr_scan"}, "fusion_lon": 0.0}, {"lat": 38.9430295, "is_disabled": 0, "type": "electric_scooter", "lon": -77.05922733333334, "bike_id": "fb86703f0f646db6f5a42e9726990e68", "fusion_lat": 0.0, "name": "fb86703f0f646db6f5a42e9726990e68", "is_reserved": 0, "rental_uris": {"android": "https://dc.lft.to/lastmile_qr_scan", "ios": "https://dc.lft.to/lastmile_qr_scan"}, "fusion_lon": 0.0}, {"lat": 38.90138816666666, "is_disabled": 0, "type": "electric_scooter", "lon": -77.0443885, "bike_id": "b60e334a106ecba8307eafe3c000f147", "fusion_lat": 0.0, "name": "b60e334a106ecba8307eafe3c000f147", "is_reserved": 0, "rental_uris": {"android": "https://dc.lft.to/lastmile_qr_scan", "ios": "https://dc.lft.to/lastmile_qr_scan"}, "fusion_lon": 0.0}, {"lat": 38.9278775, "is_disabled": 0, "type": "electric_bike", "lon": -76.9721735, "bike_id": "7592c5604ad9e3a9eb60b0def6c0b61c", "fusion_lat": 0.0, "name": "7592c5604ad9e3a9eb60b0def6c0b61c", "is_reserved": 0, "rental_uris": {"android": "https://dc.lft.to/lastmile_qr_scan", "ios": "https://dc.lft.to/lastmile_qr_scan"}, "fusion_lon": 0.0},