{"data": {"bikes": [{"rental_uris": {"ios": "https://dc.lft.to/lastmile_qr_scan", "android": "https://dc.lft.to/lastmile_qr_scan"}, "lon": -77.027196, "type": "electric_scooter", "fusion_lat": 0.0, "lat": 38.90685466666667, "name": "ddd2ab870b4ba0704d32664f8139730d", "fusion_lon": 0.0, "bike_id": "ddd2ab870b4ba0704d32664f8139730d", "is_disabled": 0, "is_reserved": 0}, {"rental_uris": {"ios": "https://dc.lft.to/lastmile_qr_scan", "android": "https://dc.lft.to/lastmile_qr_scan"}, "lon": -77.077883, "type": "electric_scooter", "fusion_lat": 0.0, "lat": 38.94086033333333, "name": "102f6c5a207c100451ca045ed34153ad", "fusion_lon": 0.0, "bike_id": "102f6c5a207c100451ca045ed34153ad", "is_disabled": 0, "is_reserved": 0}, {"rental_uris": {"ios": "https://dc.lft.to/lastmile_qr_scan", "android": "https://dc.lft.to/lastmile_qr_scan"}, "lon": -76.92995516666667, "type": "electric_bike", "fusion_lat": 0.0, "lat": 38.88796166666667, "name": "ae6cdd9342f29099a37acf62d2b62beb", "fusion_lon": 0.0, "bike_id": "ae6cdd9342f29099a37acf62d2b62beb", "is_disabled": 0, "is_reserved": 0}, {"rental_uris": {"ios": "https://dc.lft.to/lastmile_qr_scan", "android": "https://dc.lft.to/lastmile_qr_scan"}, "lon": -77.015994, "type": "electric_scooter", "fusion_lat": 0.0, "lat": 38.8961215, "name": "63faf1e5d25912f121bb88ed90363c16", "fusion_lon": 0.0, "bike_id": "63faf1e5d25912f121bb88ed90363c16", "is_disabled": 0, "is_reserved": 0}, {"rental_uris": {"ios": "https://dc.lft.to/lastmile_qr_scan", "android": "https://dc.lft.to/lastmile_qr_scan"}, "lon": -77.00712566666667, "type": "electric_scooter", "fusion_lat": 0.0, "lat": 38.91339716666667, "name": "bbd9adf12e8d59783cd66107ed4217ed", "fusion_lon": 0.0, "bike_id": "bbd9adf12e8d59783cd66107ed4217ed", "is_disabled": 0, "is_reserved": 0}, {"rental_uris": {"ios": "https://dc.lft.to/lastmile_qr_scan", "android": "https://dc.lft.to/lastmile_qr_scan"}, "lon": -76.93965733333333, "type": "electric_scooter", "fusion_lat": 0.0, "lat": 38.894196, "name": "260a04cfc57f80e149bb2b50f9a51fb7", "fusion_lon": 0.0, "bike_id": "260a04cfc57f80e149bb2b50f9a51fb7", "is_disabled": 0, "is_reserved": 0}, {"rental_uris": {"ios": "https://dc.lft.to/lastmile_qr_scan", "android": "https://dc.lft.to/lastmile_qr_scan"}, "lon": -77.00590466666667, "type": "electric_scooter", "fusion_lat": 0.0, "lat": 38.905634, "name": "e77add79bca45162721c4e3fb7ec8998", "fusion_lon": 0.0, "bike_id": "e77add79bca45162721c4e3fb7ec8998", "is_disabled": 0, "is_reserved": 0}, {"rental_uris": {"ios": "https://dc.lft.to/lastmile_qr_scan", "android": "https://dc.lft.to/lastmile_qr_scan"}, "lon": -77.03188433333334, "type": "electric_scooter", "fusion_lat": 0.0, "lat": 38.9179425, "name": "6e65f25eeb9bdc181149d38d64b58ce5", "fusion_lon": 0.0, "bike_id": "6e65f25eeb9bdc181149d38d64b58ce5", "is_disabled": 0, "is_reserved": 0}, {"rental_uris": {"ios": "https://dc.lft.to/lastmile_qr_scan", "android": "https://dc.lft.to/lastmile_qr_scan"}, "lon": -77.04928666666666, "type": "electric_scooter", "fusion_lat": 0.0, "lat": 38.8960475, "name": "5064eb5f27b63c593ac70e9edaffb2db", "fusion_lon": 0.0, "bike_id": "5064eb5f27b63c593ac70e9edaffb2db", "is_disabled": 0, "is_reserved": 0}, {"rental_uris": {"ios": "https://dc.lft.to/lastmile_qr_scan", "android": "https://dc.lft.to/lastmile_qr_scan"}, "lon": -77.019687, "type": "electric_scooter", "fusion_lat": 0.0, "lat": 38.885549833333336, "name": "77cebc07f038dca4bd5caf950e5bc2ed", "fusion_lon": 0.0, "bike_id": "77cebc07f038dca4bd5caf950e5bc2ed", "is_disabled": 0, "is_reserved": 0}, {"rental_uris": {"ios": "https://dc.lft.to/lastmile_qr_scan", "android": "https://dc.lft.to/lastmile_qr_scan"}, "lon": -77.0527845, "type": "electric_scooter", "fusion_lat": 0.0, "lat": 38.9101, "name": "c62c6dd3618a43b3b9711f226b19ca65", "fusion_lon": 0.0, "bike_id": "c62c6dd3618a43b3b9711f226b19ca65", "is_disabled": 0, "is_reserved": 0}, {"rental_uris": {"ios": "https://dc.lft.to/lastmile_qr_scan", "android": "https://dc.lft.to/lastmile_qr_scan"}, "lon": -77.01124233333333, "type": "electric_scooter", "fusion_lat": 0.0, "lat": 38.912647666666665, "name": "490993e5337063ba78586cd7afca90e0", "fusion_lon": 0.0, "bike_id": "490993e5337063ba78586cd7afca90e0", "is_disabled": 0, "is_reserved": 0}, {"rental_uris": {"ios": "https://dc.lft.to/lastmile_qr_scan", "android": "https://dc.lft.to/lastmile_qr_scan"}, "lon": -76.944411, "type": "electric_bike", "fusion_lat": 0.0, "lat": 38.902978166666664, "name": "973bbae7740a3a92616b0a614ebce81c", "fusion_lon": 0.0, "bike_id": "973bbae7740a3a92616b0a614ebce81c", "is_disabled": 0, "is_reserved": 0}, {"rental_uris": {"ios": "https://dc.lft.to/lastmile_qr_scan", "android": "https://dc.lft.to/lastmile_qr_scan"}, "lon": -77.04183266666666, "type": "electric_scooter", "fusion_lat": 0.0, "lat": 38.920451666666665, "name": "cddf12e10e72b825db64ded6d9df8520", "fusion_lon": 0.0, "bike_id": "cddf12e10e72b825db64ded6d9df8520", "is_disabled": 0, "is_reserved": 0}, {"rental_uris": {"ios": "https://dc.lft.to/lastmile_qr_scan", "android": "https://dc.lft.to/lastmile_qr_scan"}, "lon": -77.032225, "type": "electric_scooter", "fusion_lat": 0.0, "lat": 38.933834166666664, "name": "3a5bb98863138b8d883a5919e19039bd", "fusion_lon": 0.0, "bike_id": "3a5bb98863138b8d883a5919e19039bd", "is_disabled": 0, "is_reserved": 0}, {"rental_uris": {"ios": "https://dc.lft.to/lastmile_qr_scan", "android": "https://dc.lft.to/lastmile_qr_scan"}, "lon": -77.031945, "type": "electric_scooter", "fusion_lat": 0.0, "lat": 38.90979333333333, "name": "4cfbf286c2eae2cf2f11621145fa0994", "fusion_lon": 0.0, "bike_id": "4cfbf286c2eae2cf2f11621145fa0994", "is_disabled": 0, "is_reserved": 0}, {"rental_uris": {"ios": "https://dc.lft.to/lastmile_qr_scan", "android": "https://dc.lft.to/lastmile_qr_scan"}, "lon": -76.972184, "type": "electric_bike", "fusion_lat": 0.0, "lat": 38.84475333333334, "name": "94304b5ae55b939013cf7120334c5f49", "fusion_lon": 0.0, "bike_id": "94304b5ae55b939013cf7120334c5f49", "is_disabled": 0, "is_reserved": 0}, {"rental_uris": {"ios": "https://dc.lft.to/lastmile_qr_scan", "android": "https://dc.lft.to/lastmile_qr_scan"}, "lon": -77.06378266666667, "type": "electric_scooter", "fusion_lat": 0.0, "lat": 38.908205833333334, "name": "d6c61aeed697019b3299257cdfeee6c7", "fusion_lon": 0.0, "bike_id": "d6c61aeed697019b3299257cdfeee6c7", "is_disabled": 0, "is_reserved": 0}, {"rental_uris": {"ios": "https://dc.lft.to/lastmile_qr_scan", "android": "https://dc.lft.to/lastmile_qr_scan"}, "lon": -77.0329775, "type": "electric_scooter", "fusion_lat": 0.0, "lat": 38.9285625, "name": "1fc682aa60cea08e2f2d36a38ce9c5e7", "fusion_lon": 0.0, "bike_id": "1fc682aa60cea08e2f2d36a38ce9c5e7", "is_disabled": 0, "is_reserved": 0}, {"rental_uris": {"ios": "https://dc.lft.to/lastmile_qr_scan", "android": "https://dc.lft.to/lastmile_qr_scan"}, "lon": -77.00773433333333, "type": "electric_scooter", "fusion_lat": 0.0, "lat": 38.911167666666664, "name": "81370e27d3d922a26473158a65ee1d6a", "fusion_lon": 0.0, "bike_id": "81370e27d3d922a26473158a65ee1d6a", "is_disabled": 0, "is_reserved": 0}, {"rental_uris": {"ios": "https://dc.lft.to/lastmile_qr_scan", "android": "https://dc.lft.to/lastmile_qr_scan"}, "lon": -76.98005266666667, "type": "electric_bike", "fusion_lat": 0.0, "lat": 38.862823, "name": "82a6b364add75985de17342339010dbf", "fusion_lon": 0.0, "bike_id": "82a6b364add75985de17342339010dbf", "is_disabled": 0, "is_reserved": 0}, {"rental_uris": {"ios": "https://dc.lft.to/lastmile_qr_scan", "android": "https://dc.lft.to/lastmile_qr_scan"}, "lon": -76.9855215, "type": "electric_scooter", "fusion_lat": 0.0, "lat": 38.89766266666667, "name": "e4a1952562ec35e8569674dce146798f", "fusion_lon": 0.0, "bike_id": "e4a1952562ec35e8569674dce146798f", "is_disabled": 0, "is_reserved": 0}, {"rental_uris": {"ios": "https://dc.lft.to/lastmile_qr_scan", "android": "https://dc.lft.to/lastmile_qr_scan"}, "lon": -77.05349, "type": "electric_scooter", "fusion_lat": 0.0, "lat": 38.9025705, "name": "2413c06982c4fe1e93747c17f8f13007", "fusion_lon": 0.0, "bike_id": "2413c06982c4fe1e93747c17f8f13007", "is_disabled": 0, "is_reserved": 0}, {"rental_uris": {"ios": "https://dc.lft.to/lastmile_qr_scan", "android": "https://dc.lft.to/lastmile_qr_scan"}, "lon": -76.93102083333333, "type": "electric_scooter", "fusion_lat": 0.0, "lat": 38.901415166666666, "name": "7c5e9d9a719f5c79d13595d1da252724", "fusion_lon": 0.0, "bike_id": "7c5e9d9a719f5c79d13595d1da252724", "is_disabled": 0, "is_reserved": 0}, {"rental_uris": {"ios": "https://dc.lft.to/lastmile_qr_scan", "android": "https://dc.lft.to/lastmile_qr_scan"}, "lon": -77.02685383333333, "type": "electric_scooter", "fusion_lat": 0.0, "lat": 38.90723066666666, "name": "dc6a06a34ecce57fe43f3ebecf4aad7f", "fusion_lon": 0.0, "bike_id": "dc6a06a34ecce57fe43f3ebecf4aad7f", "is_disabled": 0, "is_reserved": 0}, {"rental_uris": {"ios": "https://dc.lft.to/lastmile_qr_scan", "android": "https://dc.lft.to/lastmile_qr_scan"}, "lon": -77.10453966666667, "type": "electric_bike", "fusion_lat": 0.0, "lat": 38.8963505, "name": "59cefd6a8e115c1aed9c16cb87851b90", "fusion_lon": 0.0, "bike_id": "59cefd6a8e115c1aed9c16cb87851b90", "is_disabled": 0, "is_reserved": 0}, {"rental_uris": {"ios": "https://dc.lft.to/lastmile_qr_scan", "android": "https://dc.lft.to/lastmile_qr_scan"}, "lon": -77.03287883333333, "type": "electric_scooter", "fusion_lat": 0.0, "lat": 38.923462666666666, "name": "c5697327f5b36c301e3be571a7d8356d", "fusion_lon": 0.0, "bike_id": "c5697327f5b36c301e3be571a7d8356d", "is_disabled": 0, "is_reserved": 0}, {"rental_uris": {"ios": "https://dc.lft.to/lastmile_qr_scan", "android": "https://dc.lft.to/lastmile_qr_scan"}, "lon": -76.94033233333333, "type": "electric_scooter", "fusion_lat": 0.0, "lat": 38.90069333333334, "name": "602cf0a979d8c6b9df923a9087892734", "fusion_lon": 0.0, "bike_id": "602cf0a979d8c6b9df923a9087892734", "is_disabled": 0, "is_reserved": 0}, {"rental_uris": {"ios": "https://dc.lft.to/lastmile_qr_scan", "android": "https://dc.lft.to/lastmile_qr_scan"}, "lon": -77.02690216666667, "type": "electric_scooter", "fusion_lat": 0.0, "lat": 38.91330166666667, "name": "9e5fb167996df528610b3c06f3c6d3fc", "fusion_lon": 0.0, "bike_id": "9e5fb167996df528610b3c06f3c6d3fc", "is_disabled": 0, "is_reserved": 0}, {"rental_uris": {"ios": "https://dc.lft.to/lastmile_qr_scan", "android": "https://dc.lft.to/lastmile_qr_scan"}, "lon": -77.00651233333333, "type": "electric_scooter", "fusion_lat": 0.0, "lat": 38.871769666666665, "name": "b19f336b20a52a6c240af326664a8d13", "fusion_lon": 0.0, "bike_id": "b19f336b20a52a6c240af326664a8d13", "is_disabled": 0, "is_reserved": 0}, {"rental_uris": {"ios": "https://dc.lft.to/lastmile_qr_scan", "android": "https://dc.lft.to/lastmile_qr_scan"}, "lon": -77.04499033333333, "type": "electric_scooter", "fusion_lat": 0.0, "lat": 38.908707666666665, "name": "fd10c97ddc3caf031e5528247ceaf12c", "fusion_lon": 0.0, "bike_id": "fd10c97ddc3caf031e5528247ceaf12c", "is_disabled": 0, "is_reserved": 0}, {"rental_uris": {"ios": "https://dc.lft.to/lastmile_qr_scan", "android": "https://dc.lft.to/lastmile_qr_scan"}, "lon": -77.00124816666667, "type": "electric_scooter", "fusion_lat": 0.0, "lat": 38.90844333333333, "name": "5d594aff1419395db5be0c4c4051096b", "fusion_lon": 0.0, "bike_id": "5d594aff1419395db5be0c4c4051096b", "is_disabled": 0, "is_reserved": 0}, {"rental_uris": {"ios": "https://dc.lft.to/lastmile_qr_scan", "android": "https://dc.lft.to/lastmile_qr_scan"}, "lon": -76.98861983333333, "type": "electric_scooter", "fusion_lat": 0.0, "lat": 38.90017683333333, "name": "c81917c183b55a8860b9783a9e772311", "fusion_lon": 0.0, "bike_id": "c81917c183b55a8860b9783a9e772311", "is_disabled": 0, "is_reserved": 0}, {"rental_uris": {"ios": "https://dc.lft.to/lastmile_qr_scan", "android": "https://dc.lft.to/lastmile_qr_scan"}, "lon": -77.04549333333334, "type": "electric_scooter", "fusion_lat": 0.0, "lat": 38.934016, "name": "d1c5f511101cbbe22f1510b8c4886d37", "fusion_lon": 0.0, "bike_id": "d1c5f511101cbbe22f1510b8c4886d37", "is_disabled": 0, "is_reserved": 0}, {"rental_uris": {"ios": "https://dc.lft.to/lastmile_qr_scan", "android": "https://dc.lft.to/lastmile_qr_scan"}, "lon": -77.04442216666666, "type": "electric_scooter", "fusion_lat": 0.0, "lat": 38.91009016666667, "name": "59b64d8262579471fbf6f3d822762d94", "fusion_lon": 0.0, "bike_id": "59b64d8262579471fbf6f3d822762d94", "is_disabled": 0, "is_reserved": 0}, {"rental_uris": {"ios": "https://dc.lft.to/lastmile_qr_scan", "android": "https://dc.lft.to/lastmile_qr_scan"}, "lon": -77.02829733333333, "type": "electric_scooter", "fusion_lat": 0.0, "lat": 38.9111855, "name": "23400e12bb40a95798b26892d7c19474", "fusion_lon": 0.0, "bike_id": "23400e12bb40a95798b26892d7c19474", "is_disabled": 0, "is_reserved": 0}, {"rental_uris": {"ios": "https://dc.lft.to/lastmile_qr_scan", "android": "https://dc.lft.to/lastmile_qr_scan"}, "lon": -77.048059, "type": "electric_scooter", "fusion_lat": 0.0, "lat": 38.916501, "name": "00181e68b40e08115ccaad19aca64652", "fusion_lon": 0.0, "bike_id": "00181e68b40e08115ccaad19aca64652", "is_disabled": 0, "is_reserved": 0}, {"rental_uris": {"ios": "https://dc.lft.to/lastmile_qr_scan", "android": "https://dc.lft.to/lastmile_qr_scan"}, "lon": -77.02387133333333, "type": "electric_scooter", "fusion_lat": 0.0, "lat": 38.9376695, "name": "487a4193af4a0959fb9684c4314805ca", "fusion_lon": 0.0, "bike_id": "487a4193af4a0959fb9684c4314805ca", "is_disabled": 0, "is_reserved": 0}, {"rental_uris": {"ios": "https://dc.lft.to/lastmile_qr_scan", "android": "https://dc.lft.to/lastmile_qr_scan"}, "lon": -77.057444, "type": "electric_scooter", "fusion_lat": 0.0, "lat": 38.93398216666667, "name": "7324a44865abe8000b5d292d162e0a67", "fusion_lon": 0.0, "bike_id": "7324a44865abe8000b5d292d162e0a67", "is_disabled": 0, "is_reserved": 0}, {"rental_uris": {"ios": "https://dc.lft.to/lastmile_qr_scan", "android": "https://dc.lft.to/lastmile_qr_scan"}, "lon": -77.032291, "type": "electric_scooter", "fusion_lat": 0.0, "lat": 38.9201425, "name": "f451f5a000304826cf9b27fde0d5a593", "fusion_lon": 0.0, "bike_id": "f451f5a000304826cf9b27fde0d5a593", "is_disabled": 0, "is_reserved": 0}, {"rental_uris": {"ios": "https://dc.lft.to/lastmile_qr_scan", "android": "https://dc.lft.to/lastmile_qr_scan"}, "lon": -77.0318755, "type": "electric_scooter", "fusion_lat": 0.0, "lat": 38.91490366666667, "name": "479a3b646a8bb48cd973300d55a2f516", "fusion_lon": 0.0, "bike_id": "479a3b646a8bb48cd973300d55a2f516", "is_disabled": 0, "is_reserved": 0}, {"rental_uris": {"ios": "https://dc.lft.to/lastmile_qr_scan", "android": "https://dc.lft.to/lastmile_qr_scan"}, "lon": -77.115239, "type": "electric_bike", "fusion_lat": 0.0, "lat": 38.8548995, "name": "a316a269aecc024c6d2eb19f97737cc6", "fusion_lon": 0.0, "bike_id": "a316a269aecc024c6d2eb19f97737cc6", "is_disabled": 0, "is_reserved": 0}, {"rental_uris": {"ios": "https://dc.lft.to/lastmile_qr_scan", "android": "https://dc.lft.to/lastmile_qr_scan"}, "lon": -76.98201833333333, "type": "electric_scooter", "fusion_lat": 0.0, "lat": 38.90389283333333, "name": "280aab77d8654fd2be73bb520950a97b", "fusion_lon": 0.0, "bike_id": "280aab77d8654fd2be73bb520950a97b", "is_disabled": 0, "is_reserved": 0}, {"rental_uris": {"ios": "https://dc.lft.to/lastmile_qr_scan", "android": "https://dc.lft.to/lastmile_qr_scan"}, "lon": -77.03148766666666, "type": "electric_scooter", "fusion_lat": 0.0, "lat": 38.88533433333333, "name": "9526a4f96a5c96100cecbd30a99b7e2c", "fusion_lon": 0.0, "bike_id": "9526a4f96a5c96100cecbd30a99b7e2c", "is_disabled": 0, "is_reserved": 0}, {"rental_uris": {"ios": "https://dc.lft.to/lastmile_qr_scan", "android": "https://dc.lft.to/lastmile_qr_scan"}, "lon": -76.99248233333333, "type": "electric_scooter", "fusion_lat": 0.0, "lat": 38.9196205, "name": "9097d189b1d38ac355228c10fb0c538f", "fusion_lon": 0.0, "bike_id": "9097d189b1d38ac355228c10fb0c538f", "is_disabled": 0, "is_reserved": 0}, {"rental_uris": {"ios": "https://dc.lft.to/lastmile_qr_scan", "android": "https://dc.lft.to/lastmile_qr_scan"}, "lon": -77.007651, "type": "electric_scooter", "fusion_lat": 0.0, "lat": 38.878526666666666, "name": "9c94566127ff2f02637a2355c5f1a61e", "fusion_lon": 0.0, "bike_id": "9c94566127ff2f02637a2355c5f1a61e", "is_disabled": 0, "is_reserved": 0}, {"rental_uris": {"ios": "https://dc.lft.to/lastmile_qr_scan", "android": "https://dc.lft.to/lastmile_qr_scan"}, "lon": -77.04475233333334, "type": "electric_scooter", "fusion_lat": 0.0, "lat": 38.9111625, "name": "ab18d5a2ce01bf760b8ca21094ee4f54", "fusion_lon": 0.0, "bike_id": "ab18d5a2ce01bf760b8ca21094ee4f54", "is_disabled": 0, "is_reserved": 0}, {"rental_uris": {"ios": "https://dc.lft.to/lastmile_qr_scan", "android": "https://dc.lft.to/lastmile_qr_scan"}, "lon": -77.046097, "type": "electric_scooter", "fusion_lat": 0.0, "lat": 38.919108666666666, "name": "b47a61da010d1c14d401837245ecf9d2", "fusion_lon": 0.0, "bike_id": "b47a61da010d1c14d401837245ecf9d2", "is_disabled": 0, "is_reserved": 0}, {"rental_uris": {"ios": "https://dc.lft.to/lastmile_qr_scan", "android": "https://dc.lft.to/lastmile_qr_scan"}, "lon": -77.19907233333333, "type": "electric_bike", "fusion_lat": 0.0, "lat": 38.875290166666666, "name": "303f67bf2085a7cbed5fb249587179d8", "fusion_lon": 0.0, "bike_id": "303f67bf2085a7cbed5fb249587179d8", "is_disabled": 0, "is_reserved": 0}, {"rental_uris": {"ios": "https://dc.lft.to/lastmile_qr_scan", "android": "https://dc.lft.to/lastmile_qr_scan"}, "lon": -77.02689033333333, "type": "electric_scooter", "fusion_lat": 0.0, "lat": 38.90082683333333, "name": "94aca25d83ebe1a753bddafc3823df7c", "fusion_lon": 0.0, "bike_id": "94aca25d83ebe1a753bddafc3823df7c", "is_disabled": 0, "is_reserved": 0}, {"rental_uris": {"ios": "https://dc.lft.to/lastmile_qr_scan", "android": "https://dc.lft.to/lastmile_qr_scan"}, "lon": -77.00558516666666, "type": "electric_scooter", "fusion_lat": 0.0, "lat": 38.879004333333334, "name": "9efe8e9ecbea6fb67fd18fc2b85bbfe5", "fusion_lon": 0.0, "bike_id": "9efe8e9ecbea6fb67fd18fc2b85bbfe5", "is_disabled": 0, "is_reserved": 0}, {"rental_uris": {"ios": "https://dc.lft.to/lastmile_qr_scan", "android": "https://dc.lft.to/lastmile_qr_scan"}, "lon": -76.9336255, "type": "electric_scooter", "fusion_lat": 0.0, "lat": 38.8991745, "name": "324abfad0cefe0ac32b5e797261cc99a", "fusion_lon": 0.0, "bike_id": "324abfad0cefe0ac32b5e797261cc99a", "is_disabled": 0, "is_reserved": 0}, {"rental_uris": {"ios": "https://dc.lft.to/lastmile_qr_scan", "android": "https://dc.lft.to/lastmile_qr_scan"}, "lon": -77.14996583333334, "type": "electric_bike", "fusion_lat": 0.0, "lat": 39.094570166666664, "name": "bbb630979c28e078a4e9372c4749fd58", "fusion_lon": 0.0, "bike_id": "bbb630979c28e078a4e9372c4749fd58", "is_disabled": 0, "is_reserved": 0}, {"rental_uris": {"ios": "https://dc.lft.to/lastmile_qr_scan", "android": "https://dc.lft.to/lastmile_qr_scan"}, "lon": -77.0482255, "type": "electric_scooter", "fusion_lat": 0.0, "lat": 38.896174333333335, "name": "864a46e7d2dbe131f77468caae02d2f0", "fusion_lon": 0.0, "bike_id": "864a46e7d2dbe131f77468caae02d2f0", "is_disabled": 0, "is_reserved": 0}, {"rental_uris": {"ios": "https://dc.lft.to/lastmile_qr_scan", "android": "https://dc.lft.to/lastmile_qr_scan"}, "lon": -77.02225966666667, "type": "electric_scooter", "fusion_lat": 0.0, "lat": 38.938704666666666, "name": "acc4c922b082d96e10d4540d5ec826af", "fusion_lon": 0.0, "bike_id": "acc4c922b082d96e10d4540d5ec826af", "is_disabled": 0, "is_reserved": 0}, {"rental_uris": {"ios": "https://dc.lft.to/lastmile_qr_scan", "android": "https://dc.lft.to/lastmile_qr_scan"}, "lon": -77.02162633333333, "type": "electric_scooter", "fusion_lat": 0.0, "lat": 38.92608366666666, "name": "87b4b631c9a3a85395c03aaf4874dd47", "fusion_lon": 0.0, "bike_id": "87b4b631c9a3a85395c03aaf4874dd47", "is_disabled": 0, "is_reserved": 0}, {"rental_uris": {"ios": "https://dc.lft.to/lastmile_qr_scan", "android": "https://dc.lft.to/lastmile_qr_scan"}, "lon": -77.03223433333334, "type": "electric_scooter", "fusion_lat": 0.0, "lat": 38.917065666666666, "name": "43010a5f51f2f9645eb4b3ae57f57077", "fusion_lon": 0.0, "bike_id": "43010a5f51f2f9645eb4b3ae57f57077", "is_disabled": 0, "is_reserved": 0}, {"rental_uris": {"ios": "https://dc.lft.to/lastmile_qr_scan", "android": "https://dc.lft.to/lastmile_qr_scan"}, "lon": -77.002149, "type": "electric_scooter", "fusion_lat": 0.0, "lat": 38.91102683333333, "name": "802caf5bb7feb9098e341a0a89e5eaa9", "fusion_lon": 0.0, "bike_id": "802caf5bb7feb9098e341a0a89e5eaa9", "is_disabled": 0, "is_reserved": 0}, {"rental_uris": {"ios": "https://dc.lft.to/lastmile_qr_scan", "android": "https://dc.lft.to/lastmile_qr_scan"}, "lon": -77.03784966666667, "type": "electric_scooter", "fusion_lat": 0.0, "lat": 38.93020383333333, "name": "48e0d05a0639dd703b9366024988f053", "fusion_lon": 0.0, "bike_id": "48e0d05a0639dd703b9366024988f053", "is_disabled": 0, "is_reserved": 0}, {"rental_uris": {"ios": "https://dc.lft.to/lastmile_qr_scan", "android": "https://dc.lft.to/lastmile_qr_scan"}, "lon": -77.03016533333333, "type": "electric_scooter", "fusion_lat": 0.0, "lat": 38.920441333333336, "name": "c70bc876156bef51348414c85fb956d6", "fusion_lon": 0.0, "bike_id": "c70bc876156bef51348414c85fb956d6", "is_disabled": 0, "is_reserved": 0}, {"rental_uris": {"ios": "https://dc.lft.to/lastmile_qr_scan", "android": "https://dc.lft.to/lastmile_qr_scan"}, "lon": -77.03447183333333, "type": "electric_scooter", "fusion_lat": 0.0, "lat": 38.90728433333334, "name": "840cd49b7d6680d51bc140d850d6bc65", "fusion_lon": 0.0, "bike_id": "840cd49b7d6680d51bc140d850d6bc65", "is_disabled": 0, "is_reserved": 0}, {"rental_uris": {"ios": "https://dc.lft.to/lastmile_qr_scan", "android": "https://dc.lft.to/lastmile_qr_scan"}, "lon": -77.0425665, "type": "electric_scooter", "fusion_lat": 0.0, "lat": 38.916079833333335, "name": "649987deefd5dae97f01bcd7a971b78f", "fusion_lon": 0.0, "bike_id": "649987deefd5dae97f01bcd7a971b78f", "is_disabled": 0, "is_reserved": 0}, {"rental_uris": {"ios": "https://dc.lft.to/lastmile_qr_scan", "android": "https://dc.lft.to/lastmile_qr_scan"}, "lon": -77.02234316666667, "type": "electric_scooter", "fusion_lat": 0.0, "lat": 38.91424833333333, "name": "0f6e372f50bada206b39fa2010923baf", "fusion_lon": 0.0, "bike_id": "0f6e372f50bada206b39fa2010923baf", "is_disabled": 0, "is_reserved": 0}, {"rental_uris": {"ios": "https://dc.lft.to/lastmile_qr_scan", "android": "https://dc.lft.to/lastmile_qr_scan"}, "lon": -77.058845, "type": "electric_scooter", "fusion_lat": 0.0, "lat": 38.936356833333335, "name": "852cbf8a96be597afe86f453c3dc3259", "fusion_lon": 0.0, "bike_id": "852cbf8a96be597afe86f453c3dc3259", "is_disabled": 0, "is_reserved": 0}, {"rental_uris": {"ios": "https://dc.lft.to/lastmile_qr_scan", "android": "https://dc.lft.to/lastmile_qr_scan"}, "lon": -76.987194, "type": "electric_scooter", "fusion_lat": 0.0, "lat": 38.867050666666664, "name": "8d34daf66c29e57beb1d8cb8e05075e7", "fusion_lon": 0.0, "bike_id": "8d34daf66c29e57beb1d8cb8e05075e7", "is_disabled": 0, "is_reserved": 0}, {"rental_uris": {"ios": "https://dc.lft.to/lastmile_qr_scan", "android": "https://dc.lft.to/lastmile_qr_scan"}, "lon": -77.0229115, "type": "electric_scooter", "fusion_lat": 0.0, "lat": 38.92760616666666, "name": "d1b6923a2b7919e54ca4b16fdadc9089", "fusion_lon": 0.0, "bike_id": "d1b6923a2b7919e54ca4b16fdadc9089", "is_disabled": 0, "is_reserved": 0}, {"rental_uris": {"ios": "https://dc.lft.to/lastmile_qr_scan", "android": "https://dc.lft.to/lastmile_qr_scan"}, "lon": -77.0379945, "type": "electric_scooter", "fusion_lat": 0.0, "lat": 38.905659666666665, "name": "7b1a0d3fdb531f6e24927124ea5fc37f", "fusion_lon": 0.0, "bike_id": "7b1a0d3fdb531f6e24927124ea5fc37f", "is_disabled": 0, "is_reserved": 0}, {"rental_uris": {"ios": "https://dc.lft.to/lastmile_qr_scan", "android": "https://dc.lft.to/lastmile_qr_scan"}, "lon": -77.0419175, "type": "electric_scooter", "fusion_lat": 0.0, "lat": 38.922002166666665, "name": "0349ef83c4e1b49e4339ab4a2c32110c", "fusion_lon": 0.0, "bike_id": "0349ef83c4e1b49e4339ab4a2c32110c", "is_disabled": 0, "is_reserved": 0}, {"rental_uris": {"ios": "https://dc.lft.to/lastmile_qr_scan", "android": "https://dc.lft.to/lastmile_qr_scan"}, "lon": -77.0530915, "type": "electric_scooter", "fusion_lat": 0.0, "lat": 38.901691166666666, "name": "46d4e17d8e410c44e881d51afe4014e7", "fusion_lon": 0.0, "bike_id": "46d4e17d8e410c44e881d51afe4014e7", "is_disabled": 0, "is_reserved": 0}, {"rental_uris": {"ios": "https://dc.lft.to/lastmile_qr_scan", "android": "https://dc.lft.to/lastmile_qr_scan"}, "lon": -77.05054766666667, "type": "electric_scooter", "fusion_lat": 0.0, "lat": 38.923623166666665, "name": "3fa498c06370605e047c3da0de8bbe10", "fusion_lon": 0.0, "bike_id": "3fa498c06370605e047c3da0de8bbe10", "is_disabled": 0, "is_reserved": 0}, {"rental_uris": {"ios": "https://dc.lft.to/lastmile_qr_scan", "android": "https://dc.lft.to/lastmile_qr_scan"}, "lon": -76.996121, "type": "electric_scooter", "fusion_lat": 0.0, "lat": 38.897444666666665, "name": "4a35b5e414c8bb2e16ef316794557349", "fusion_lon": 0.0, "bike_id": "4a35b5e414c8bb2e16ef316794557349", "is_disabled": 0, "is_reserved": 0}, {"rental_uris": {"ios": "https://dc.lft.to/lastmile_qr_scan", "android": "https://dc.lft.to/lastmile_qr_scan"}, "lon": -77.054987, "type": "electric_scooter", "fusion_lat": 0.0, "lat": 38.929710666666665, "name": "abef0332c8a8569fb18e9039ed614c48", "fusion_lon": 0.0, "bike_id": "abef0332c8a8569fb18e9039ed614c48", "is_disabled": 0, "is_reserved": 0}, {"rental_uris": {"ios": "https://dc.lft.to/lastmile_qr_scan", "android": "https://dc.lft.to/lastmile_qr_scan"}, "lon": -76.932518, "type": "electric_bike", "fusion_lat": 0.0, "lat": 38.88292966666667, "name": "45a6e337f57ed8375bb89ca19a165762", "fusion_lon": 0.0, "bike_id": "45a6e337f57ed8375bb89ca19a165762", "is_disabled": 0, "is_reserved": 0}, {"rental_uris": {"ios": "https://dc.lft.to/lastmile_qr_scan", "android": "https://dc.lft.to/lastmile_qr_scan"}, "lon": -77.036436, "type": "electric_scooter", "fusion_lat": 0.0, "lat": 38.921112666666666, "name": "a97c3879e60b1f957dbc21ec68f5bc90", "fusion_lon": 0.0, "bike_id": "a97c3879e60b1f957dbc21ec68f5bc90", "is_disabled": 0, "is_reserved": 0}, {"rental_uris": {"ios": "https://dc.lft.to/lastmile_qr_scan", "android": "https://dc.lft.to/lastmile_qr_scan"}, "lon": -77.02363916666667, "type": "electric_scooter", "fusion_lat": 0.0, "lat": 38.935565833333335, "name": "6af33192709098e1d191e78ef0f213eb", "fusion_lon": 0.0, "bike_id": "6af33192709098e1d191e78ef0f213eb", "is_disabled": 0, "is_reserved": 0}, {"rental_uris": {"ios": "https://dc.lft.to/lastmile_qr_scan", "android": "https://dc.lft.to/lastmile_qr_scan"}, "lon": -77.032085, "type": "electric_scooter", "fusion_lat": 0.0, "lat": 38.92065, "name": "05dfca78019a6ecd4bd315dd16a31ef8", "fusion_lon": 0.0, "bike_id": "05dfca78019a6ecd4bd315dd16a31ef8", "is_disabled": 0, "is_reserved": 0}, {"rental_uris": {"ios": "https://dc.lft.to/lastmile_qr_scan", "android": "https://dc.lft.to/lastmile_qr_scan"}, "lon": -77.07100383333334, "type": "electric_scooter", "fusion_lat": 0.0, "lat": 38.93367416666667, "name": "0aa93ba1357354edf4e6d9d319518157", "fusion_lon": 0.0, "bike_id": "0aa93ba1357354edf4e6d9d319518157", "is_disabled": 0, "is_reserved": 0}, {"rental_uris": {"ios": "https://dc.lft.to/lastmile_qr_scan", "android": "https://dc.lft.to/lastmile_qr_scan"}, "lon": -77.03625766666667, "type": "electric_scooter", "fusion_lat": 0.0, "lat": 38.9030325, "name": "415e84308cd40dbc58faa3c62752858d", "fusion_lon": 0.0, "bike_id": "415e84308cd40dbc58faa3c62752858d", "is_disabled": 0, "is_reserved": 0}, {"rental_uris": {"ios": "https://dc.lft.to/lastmile_qr_scan", "android": "https://dc.lft.to/lastmile_qr_scan"}, "lon": -76.99147916666666, "type": "electric_scooter", "fusion_lat": 0.0, "lat": 38.900347, "name": "722f0d626ef95e130d01fdf9835cdc3b", "fusion_lon": 0.0, "bike_id": "722f0d626ef95e130d01fdf9835cdc3b", "is_disabled": 0, "is_reserved": 0}, {"rental_uris": {"ios": "https://dc.lft.to/lastmile_qr_scan", "android": "https://dc.lft.to/lastmile_qr_scan"}, "lon": -77.05206433333333, "type": "electric_scooter", "fusion_lat": 0.0, "lat": 38.924279166666665, "name": "d4ff57f714f46e07e7607b8e2653dafc", "fusion_lon": 0.0, "bike_id": "d4ff57f714f46e07e7607b8e2653dafc", "is_disabled": 0, "is_reserved": 0}, {"rental_uris": {"ios": "https://dc.lft.to/lastmile_qr_scan", "android": "https://dc.lft.to/lastmile_qr_scan"}, "lon": -76.9865395, "type": "electric_scooter", "fusion_lat": 0.0, "lat": 38.90027883333333, "name": "bd81e44808127692f5988e01bdb66f44", "fusion_lon": 0.0, "bike_id": "bd81e44808127692f5988e01bdb66f44", "is_disabled": 0, "is_reserved": 0}, {"rental_uris": {"ios": "https://dc.lft.to/lastmile_qr_scan", "android": "https://dc.lft.to/lastmile_qr_scan"}, "lon": -77.02758633333333, "type": "electric_scooter", "fusion_lat": 0.0, "lat": 38.971512, "name": "77eddff6b31fceddede2e36235da7a7a", "fusion_lon": 0.0, "bike_id": "77eddff6b31fceddede2e36235da7a7a", "is_disabled": 0, "is_reserved": 0}, {"rental_uris": {"ios": "https://dc.lft.to/lastmile_qr_scan", "android": "https://dc.lft.to/lastmile_qr_scan"}, "lon": -77.02756583333333, "type": "electric_scooter", "fusion_lat": 0.0, "lat": 38.92305233333333, "name": "fa0df2526d3f97b96fa30df02455c9e9", "fusion_lon": 0.0, "bike_id": "fa0df2526d3f97b96fa30df02455c9e9", "is_disabled": 0, "is_reserved": 0}, {"rental_uris": {"ios": "https://dc.lft.to/lastmile_qr_scan", "android": "https://dc.lft.to/lastmile_qr_scan"}, "lon": -77.0284435, "type": "electric_scooter", "fusion_lat": 0.0, "lat": 38.925704, "name": "5c2c4d2a85f535f83f0bccc1cc0ac0e0", "fusion_lon": 0.0, "bike_id": "5c2c4d2a85f535f83f0bccc1cc0ac0e0", "is_disabled": 0, "is_reserved": 0}, {"rental_uris": {"ios": "https://dc.lft.to/lastmile_qr_scan", "android": "https://dc.lft.to/lastmile_qr_scan"}, "lon": -76.9650785, "type": "electric_scooter", "fusion_lat": 0.0, "lat": 38.8764595, "name": "2f19df02e45dce0369edfce1de59d075", "fusion_lon": 0.0, "bike_id": "2f19df02e45dce0369edfce1de59d075", "is_disabled": 0, "is_reserved": 0}, {"rental_uris": {"ios": "https://dc.lft.to/lastmile_qr_scan", "android": "https://dc.lft.to/lastmile_qr_scan"}, "lon": -77.04858566666667, "type": "electric_scooter", "fusion_lat": 0.0, "lat": 38.9008205, "name": "af6c6038ba1143dc34eb6c327eda7a51", "fusion_lon": 0.0, "bike_id": "af6c6038ba1143dc34eb6c327eda7a51", "is_disabled": 0, "is_reserved": 0}, {"rental_uris": {"ios": "https://dc.lft.to/lastmile_qr_scan", "android": "https://dc.lft.to/lastmile_qr_scan"}, "lon": -77.05594633333334, "type": "electric_scooter", "fusion_lat": 0.0, "lat": 38.90518633333333, "name": "be19123eee71addfa18c3957899a61a7", "fusion_lon": 0.0, "bike_id": "be19123eee71addfa18c3957899a61a7", "is_disabled": 0, "is_reserved": 0}, {"rental_uris": {"ios": "https://dc.lft.to/lastmile_qr_scan", "android": "https://dc.lft.to/lastmile_qr_scan"}, "lon": -76.93835533333333, "type": "electric_scooter", "fusion_lat": 0.0, "lat": 38.89758716666667, "name": "19329819d70fd21e3257da8f8ab173d0", "fusion_lon": 0.0, "bike_id": "19329819d70fd21e3257da8f8ab173d0", "is_disabled": 0, "is_reserved": 0}, {"rental_uris": {"ios": "https://dc.lft.to/lastmile_qr_scan", "android": "https://dc.lft.to/lastmile_qr_scan"}, "lon": -77.00428633333334, "type": "electric_scooter", "fusion_lat": 0.0, "lat": 38.9038965, "name": "8032c05abece425b673fe66d1a598f19", "fusion_lon": 0.0, "bike_id": "8032c05abece425b673fe66d1a598f19", "is_disabled": 0, "is_reserved": 0}, {"rental_uris": {"ios": "https://dc.lft.to/lastmile_qr_scan", "android": "https://dc.lft.to/lastmile_qr_scan"}, "lon": -77.02856533333333, "type": "electric_scooter", "fusion_lat": 0.0, "lat": 38.950848666666666, "name": "c88d5e91834f809cebf29d01248aac72", "fusion_lon": 0.0, "bike_id": "c88d5e91834f809cebf29d01248aac72", "is_disabled": 0, "is_reserved": 0}, {"rental_uris": {"ios": "https://dc.lft.to/lastmile_qr_scan", "android": "https://dc.lft.to/lastmile_qr_scan"}, "lon": -77.035143, "type": "electric_scooter", "fusion_lat": 0.0, "lat": 38.9215205, "name": "49440493530340c68a7e1ff2fd39c1e9", "fusion_lon": 0.0, "bike_id": "49440493530340c68a7e1ff2fd39c1e9", "is_disabled": 0, "is_reserved": 0}, {"rental_uris": {"ios": "https://dc.lft.to/lastmile_qr_scan", "android": "https://dc.lft.to/lastmile_qr_scan"}, "lon": -77.030335, "type": "electric_scooter", "fusion_lat": 0.0, "lat": 38.897555, "name": "c506dc4aacba1850b736e99bd111f3c4", "fusion_lon": 0.0, "bike_id": "c506dc4aacba1850b736e99bd111f3c4", "is_disabled": 0, "is_reserved": 0}, {"rental_uris": {"ios": "https://dc.lft.to/lastmile_qr_scan", "android": "https://dc.lft.to/lastmile_qr_scan"}, "lon": -77.0435485, "type": "electric_scooter", "fusion_lat": 0.0, "lat": 38.92672483333333, "name": "29d036680e46b35f211dc5a58a4b87f1", "fusion_lon": 0.0, "bike_id": "29d036680e46b35f211dc5a58a4b87f1", "is_disabled": 0, "is_reserved": 0}, {"rental_uris": {"ios": "https://dc.lft.to/lastmile_qr_scan", "android": "https://dc.lft.to/lastmile_qr_scan"}, "lon": -77.03871533333333, "type": "electric_scooter", "fusion_lat": 0.0, "lat": 38.915549, "name": "ad4eb4ecb01cc4008dc44578297fcf8f", "fusion_lon": 0.0, "bike_id": "ad4eb4ecb01cc4008dc44578297fcf8f", "is_disabled": 0, "is_reserved": 0}, {"rental_uris": {"ios": "https://dc.lft.to/lastmile_qr_scan", "android": "https://dc.lft.to/lastmile_qr_scan"}, "lon": -77.037434, "type": "electric_scooter", "fusion_lat": 0.0, "lat": 38.92905483333333, "name": "ae1531246f449ca85ff2acde15e304db", "fusion_lon": 0.0, "bike_id": "ae1531246f449ca85ff2acde15e304db", "is_disabled": 0, "is_reserved": 0}, {"rental_uris": {"ios": "https://dc.lft.to/lastmile_qr_scan", "android": "https://dc.lft.to/lastmile_qr_scan"}, "lon": -77.021045, "type": "electric_scooter", "fusion_lat": 0.0, "lat": 38.91417333333333, "name": "71a4a60d9057bfec8ff8d6c86511b518", "fusion_lon": 0.0, "bike_id": "71a4a60d9057bfec8ff8d6c86511b518", "is_disabled": 0, "is_reserved": 0}, {"rental_uris": {"ios": "https://dc.lft.to/lastmile_qr_scan", "android": "https://dc.lft.to/lastmile_qr_scan"}, "lon": -77.06007183333334, "type": "electric_scooter", "fusion_lat": 0.0, "lat": 38.9126005, "name": "1ff9466666689862eeeddb7be62d02b6", "fusion_lon": 0.0, "bike_id": "1ff9466666689862eeeddb7be62d02b6", "is_disabled": 0, "is_reserved": 0}, {"rental_uris": {"ios": "https://dc.lft.to/lastmile_qr_scan", "android": "https://dc.lft.to/lastmile_qr_scan"}, "lon": -77.01769366666667, "type": "electric_scooter", "fusion_lat": 0.0, "lat": 38.877177333333336, "name": "9674f57521c5f3ebe4a7e1467247844b", "fusion_lon": 0.0, "bike_id": "9674f57521c5f3ebe4a7e1467247844b", "is_disabled": 0, "is_reserved": 0}, {"rental_uris": {"ios": "https://dc.lft.to/lastmile_qr_scan", "android": "https://dc.lft.to/lastmile_qr_scan"}, "lon": -76.98717416666666, "type": "electric_scooter", "fusion_lat": 0.0, "lat": 38.86258133333333, "name": "0fc14bca72c5bc9dcdbbb7f0e74d9025", "fusion_lon": 0.0, "bike_id": "0fc14bca72c5bc9dcdbbb7f0e74d9025", "is_disabled": 0, "is_reserved": 0}, {"rental_uris": {"ios": "https://dc.lft.to/lastmile_qr_scan", "android": "https://dc.lft.to/lastmile_qr_scan"}, "lon": -77.03618766666666, "type": "electric_scooter", "fusion_lat": 0.0, "lat": 38.93256266666667, "name": "a3c48e4a78c85ea65f9acecf53cbd0e8", "fusion_lon": 0.0, "bike_id": "a3c48e4a78c85ea65f9acecf53cbd0e8", "is_disabled": 0, "is_reserved": 0}, {"rental_uris": {"ios": "https://dc.lft.to/lastmile_qr_scan", "android": "https://dc.lft.to/lastmile_qr_scan"}, "lon": -76.941814, "type": "electric_scooter", "fusion_lat": 0.0, "lat": 38.88218533333333, "name": "63b21644c16961dcf63f966be5ee04de", "fusion_lon": 0.0, "bike_id": "63b21644c16961dcf63f966be5ee04de", "is_disabled": 0, "is_reserved": 0}, {"rental_uris": {"ios": "https://dc.lft.to/lastmile_qr_scan", "android": "https://dc.lft.to/lastmile_qr_scan"}, "lon": -77.03458333333333, "type": "electric_scooter", "fusion_lat": 0.0, "lat": 38.907284, "name": "27870958592ac42ab583cc4cc2541813", "fusion_lon": 0.0, "bike_id": "27870958592ac42ab583cc4cc2541813", "is_disabled": 0, "is_reserved": 0}, {"rental_uris": {"ios": "https://dc.lft.to/lastmile_qr_scan", "android": "https://dc.lft.to/lastmile_qr_scan"}, "lon": -76.99150983333334, "type": "electric_scooter", "fusion_lat": 0.0, "lat": 38.9003275, "name": "7dfb95fcd935c2e907060a2ab540c3db", "fusion_lon": 0.0, "bike_id": "7dfb95fcd935c2e907060a2ab540c3db", "is_disabled": 0, "is_reserved": 0}, {"rental_uris": {"ios": "https://dc.lft.to/lastmile_qr_scan", "android": "https://dc.lft.to/lastmile_qr_scan"}, "lon": -77.02714183333333, "type": "electric_scooter", "fusion_lat": 0.0, "lat": 38.92466783333333, "name": "c521fe5c5d45af221ea6ba5e4ab33bf7", "fusion_lon": 0.0, "bike_id": "c521fe5c5d45af221ea6ba5e4ab33bf7", "is_disabled": 0, "is_reserved": 0}, {"rental_uris": {"ios": "https://dc.lft.to/lastmile_qr_scan", "android": "https://dc.lft.to/lastmile_qr_scan"}, "lon": -77.05475366666667, "type": "electric_scooter", "fusion_lat": 0.0, "lat": 38.92101916666667, "name": "53fb3c2dcb14dddd642d2ab714ec779d", "fusion_lon": 0.0, "bike_id": "53fb3c2dcb14dddd642d2ab714ec779d", "is_disabled": 0, "is_reserved": 0}, {"rental_uris": {"ios": "https://dc.lft.to/lastmile_qr_scan", "android": "https://dc.lft.to/lastmile_qr_scan"}, "lon": -76.95526633333333, "type": "electric_scooter", "fusion_lat": 0.0, "lat": 38.88781516666667, "name": "22c64dcfa42c8090876790d45ef57185", "fusion_lon": 0.0, "bike_id": "22c64dcfa42c8090876790d45ef57185", "is_disabled": 0, "is_reserved": 0}, {"rental_uris": {"ios": "https://dc.lft.to/lastmile_qr_scan", "android": "https://dc.lft.to/lastmile_qr_scan"}, "lon": -76.98614083333334, "type": "electric_scooter", "fusion_lat": 0.0, "lat": 38.868241166666664, "name": "062bd2d8e5afd89340eef934609226bc", "fusion_lon": 0.0, "bike_id": "062bd2d8e5afd89340eef934609226bc", "is_disabled": 0, "is_reserved": 0}, {"rental_uris": {"ios": "https://dc.lft.to/lastmile_qr_scan", "android": "https://dc.lft.to/lastmile_qr_scan"}, "lon": -77.13596566666666, "type": "electric_bike", "fusion_lat": 0.0, "lat": 39.053463, "name": "41b76b2951966d5947b8ae8dcf3d43c4", "fusion_lon": 0.0, "bike_id": "41b76b2951966d5947b8ae8dcf3d43c4", "is_disabled": 0, "is_reserved": 0}, {"rental_uris": {"ios": "https://dc.lft.to/lastmile_qr_scan", "android": "https://dc.lft.to/lastmile_qr_scan"}, "lon": -77.03440683333334, "type": "electric_scooter", "fusion_lat": 0.0, "lat": 38.902407333333336, "name": "09898f7eb40d9180dae60e562cf77e94", "fusion_lon": 0.0, "bike_id": "09898f7eb40d9180dae60e562cf77e94", "is_disabled": 0, "is_reserved": 0}, {"rental_uris": {"ios": "https://dc.lft.to/lastmile_qr_scan", "android": "https://dc.lft.to/lastmile_qr_scan"}, "lon": -77.07879133333333, "type": "electric_scooter", "fusion_lat": 0.0, "lat": 38.92544683333333, "name": "1f8f12a51e94a35fc940560c88cd15a4", "fusion_lon": 0.0, "bike_id": "1f8f12a51e94a35fc940560c88cd15a4", "is_disabled": 0, "is_reserved": 0}, {"rental_uris": {"ios": "https://dc.lft.to/lastmile_qr_scan", "android": "https://dc.lft.to/lastmile_qr_scan"}, "lon": -77.04163566666666, "type": "electric_scooter", "fusion_lat": 0.0, "lat": 38.90045683333334, "name": "49bf3d68796d64bc451091f8bf96d54f", "fusion_lon": 0.0, "bike_id": "49bf3d68796d64bc451091f8bf96d54f", "is_disabled": 0, "is_reserved": 0}, {"rental_uris": {"ios": "https://dc.lft.to/lastmile_qr_scan", "android": "https://dc.lft.to/lastmile_qr_scan"}, "lon": -77.01260916666666, "type": "electric_scooter", "fusion_lat": 0.0, "lat": 38.899683833333334, "name": "b1a5993eedaaa6693b1457672a2e5943", "fusion_lon": 0.0, "bike_id": "b1a5993eedaaa6693b1457672a2e5943", "is_disabled": 0, "is_reserved": 0}, {"rental_uris": {"ios": "https://dc.lft.to/lastmile_qr_scan", "android": "https://dc.lft.to/lastmile_qr_scan"}, "lon": -76.99146666666667, "type": "electric_scooter", "fusion_lat": 0.0, "lat": 38.9003405, "name": "f0ae8a568bbcfa5e41e7d2f7ff5b9991", "fusion_lon": 0.0, "bike_id": "f0ae8a568bbcfa5e41e7d2f7ff5b9991", "is_disabled": 0, "is_reserved": 0}, {"rental_uris": {"ios": "https://dc.lft.to/lastmile_qr_scan", "android": "https://dc.lft.to/lastmile_qr_scan"}, "lon": -77.040341, "type": "electric_scooter", "fusion_lat": 0.0, "lat": 38.917094166666665, "name": "6ea3fb5fd80b9348b6ed1febc5e3c058", "fusion_lon": 0.0, "bike_id": "6ea3fb5fd80b9348b6ed1febc5e3c058", "is_disabled": 0, "is_reserved": 0}, {"rental_uris": {"ios": "https://dc.lft.to/lastmile_qr_scan", "android": "https://dc.lft.to/lastmile_qr_scan"}, "lon": -76.9872075, "type": "electric_scooter", "fusion_lat": 0.0, "lat": 38.86269083333333, "name": "64f4d4cefc0105c76b712b89d2a7e332", "fusion_lon": 0.0, "bike_id": "64f4d4cefc0105c76b712b89d2a7e332", "is_disabled": 0, "is_reserved": 0}, {"rental_uris": {"ios": "https://dc.lft.to/lastmile_qr_scan", "android": "https://dc.lft.to/lastmile_qr_scan"}, "lon": -77.03343583333333, "type": "electric_scooter", "fusion_lat": 0.0, "lat": 38.91912, "name": "edfc7312dfdb6fc311ea59034c1b415f", "fusion_lon": 0.0, "bike_id": "edfc7312dfdb6fc311ea59034c1b415f", "is_disabled": 0, "is_reserved": 0}, {"rental_uris": {"ios": "https://dc.lft.to/lastmile_qr_scan", "android": "https://dc.lft.to/lastmile_qr_scan"}, "lon": -77.02222883333333, "type": "electric_bike", "fusion_lat": 0.0, "lat": 38.95682166666667, "name": "1903f8c194fef26e03c5951a5c78abf7", "fusion_lon": 0.0, "bike_id": "1903f8c194fef26e03c5951a5c78abf7", "is_disabled": 0, "is_reserved": 0}, {"rental_uris": {"ios": "https://dc.lft.to/lastmile_qr_scan", "android": "https://dc.lft.to/lastmile_qr_scan"}, "lon": -77.0329235, "type": "electric_scooter", "fusion_lat": 0.0, "lat": 38.928542166666666, "name": "0613f1b796527fe61b95418abd2d6fd0", "fusion_lon": 0.0, "bike_id": "0613f1b796527fe61b95418abd2d6fd0", "is_disabled": 0, "is_reserved": 0}, {"rental_uris": {"ios": "https://dc.lft.to/lastmile_qr_scan", "android": "https://dc.lft.to/lastmile_qr_scan"}, "lon": -77.03148633333333, "type": "electric_scooter", "fusion_lat": 0.0, "lat": 38.915605, "name": "cba788a0c1c9d414661af6f5d4cf6a73", "fusion_lon": 0.0, "bike_id": "cba788a0c1c9d414661af6f5d4cf6a73", "is_disabled": 0, "is_reserved": 0}, {"rental_uris": {"ios": "https://dc.lft.to/lastmile_qr_scan", "android": "https://dc.lft.to/lastmile_qr_scan"}, "lon": -77.031857, "type": "electric_scooter", "fusion_lat": 0.0, "lat": 38.9294815, "name": "9b80b8d72a0f602ba5a0d7d616adb3d2", "fusion_lon": 0.0, "bike_id": "9b80b8d72a0f602ba5a0d7d616adb3d2", "is_disabled": 0, "is_reserved": 0}, {"rental_uris": {"ios": "https://dc.lft.to/lastmile_qr_scan", "android": "https://dc.lft.to/lastmile_qr_scan"}, "lon": -77.0260275, "type": "electric_scooter", "fusion_lat": 0.0, "lat": 38.916926, "name": "0a3168948bd9deb4988593d75eca1f49", "fusion_lon": 0.0, "bike_id": "0a3168948bd9deb4988593d75eca1f49", "is_disabled": 0, "is_reserved": 0}, {"rental_uris": {"ios": "https://dc.lft.to/lastmile_qr_scan", "android": "https://dc.lft.to/lastmile_qr_scan"}, "lon": -77.08255966666667, "type": "electric_scooter", "fusion_lat": 0.0, "lat": 38.935824833333335, "name": "736b778ec2bb5488b33f3aad64852691", "fusion_lon": 0.0, "bike_id": "736b778ec2bb5488b33f3aad64852691", "is_disabled": 0, "is_reserved": 0}, {"rental_uris": {"ios": "https://dc.lft.to/lastmile_qr_scan", "android": "https://dc.lft.to/lastmile_qr_scan"}, "lon": -77.02374883333333, "type": "electric_scooter", "fusion_lat": 0.0, "lat": 38.936931333333334, "name": "440fe0496d4b34f0f70d3c3fe9a77196", "fusion_lon": 0.0, "bike_id": "440fe0496d4b34f0f70d3c3fe9a77196", "is_disabled": 0, "is_reserved": 0}, {"rental_uris": {"ios": "https://dc.lft.to/lastmile_qr_scan", "android": "https://dc.lft.to/lastmile_qr_scan"}, "lon": -76.97273683333333, "type": "electric_bike", "fusion_lat": 0.0, "lat": 38.91975466666667, "name": "481de25ec96c8d42a0f9f61ae8df287d", "fusion_lon": 0.0, "bike_id": "481de25ec96c8d42a0f9f61ae8df287d", "is_disabled": 0, "is_reserved": 0}, {"rental_uris": {"ios": "https://dc.lft.to/lastmile_qr_scan", "android": "https://dc.lft.to/lastmile_qr_scan"}, "lon": -77.04041233333334, "type": "electric_scooter", "fusion_lat": 0.0, "lat": 38.92466816666666, "name": "fc4143d70aa102e2abcb65a4d7d80f67", "fusion_lon": 0.0, "bike_id": "fc4143d70aa102e2abcb65a4d7d80f67", "is_disabled": 0, "is_reserved": 0}, {"rental_uris": {"ios": "https://dc.lft.to/lastmile_qr_scan", "android": "https://dc.lft.to/lastmile_qr_scan"}, "lon": -76.99001366666667, "type": "electric_scooter", "fusion_lat": 0.0, "lat": 38.865045333333335, "name": "4701f3dd96422f63ed48e8a3364fa8bc", "fusion_lon": 0.0, "bike_id": "4701f3dd96422f63ed48e8a3364fa8bc", "is_disabled": 0, "is_reserved": 0}, {"rental_uris": {"ios": "https://dc.lft.to/lastmile_qr_scan", "android": "https://dc.lft.to/lastmile_qr_scan"}, "lon": -77.11050833333333, "type": "electric_bike", "fusion_lat": 0.0, "lat": 38.8707185, "name": "8e7cd07882d591fe644c14fdbfe2ddc7", "fusion_lon": 0.0, "bike_id": "8e7cd07882d591fe644c14fdbfe2ddc7", "is_disabled": 0, "is_reserved": 0}, {"rental_uris": {"ios": "https://dc.lft.to/lastmile_qr_scan", "android": "https://dc.lft.to/lastmile_qr_scan"}, "lon": -76.980264, "type": "electric_scooter", "fusion_lat": 0.0, "lat": 38.8876985, "name": "ca49f48affaadba986e3bedbe28ebe4c", "fusion_lon": 0.0, "bike_id": "ca49f48affaadba986e3bedbe28ebe4c", "is_disabled": 0, "is_reserved": 0}, {"rental_uris": {"ios": "https://dc.lft.to/lastmile_qr_scan", "android": "https://dc.lft.to/lastmile_qr_scan"}, "lon": -77.0298305, "type": "electric_scooter", "fusion_lat": 0.0, "lat": 38.907382, "name": "41c413eb194062323ae82c7824d17997", "fusion_lon": 0.0, "bike_id": "41c413eb194062323ae82c7824d17997", "is_disabled": 0, "is_reserved": 0}, {"rental_uris": {"ios": "https://dc.lft.to/lastmile_qr_scan", "android": "https://dc.lft.to/lastmile_qr_scan"}, "lon": -77.007439, "type": "electric_scooter", "fusion_lat": 0.0, "lat": 38.91627016666666, "name": "09ba4965abf6afd5fb0063fac0744675", "fusion_lon": 0.0, "bike_id": "09ba4965abf6afd5fb0063fac0744675", "is_disabled": 0, "is_reserved": 0}, {"rental_uris": {"ios": "https://dc.lft.to/lastmile_qr_scan", "android": "https://dc.lft.to/lastmile_qr_scan"}, "lon": -77.017503, "type": "electric_scooter", "fusion_lat": 0.0, "lat": 38.877075833333336, "name": "ddb26c90d63405158e45a9f1452ff701", "fusion_lon": 0.0, "bike_id": "ddb26c90d63405158e45a9f1452ff701", "is_disabled": 0, "is_reserved": 0}, {"rental_uris": {"ios": "https://dc.lft.to/lastmile_qr_scan", "android": "https://dc.lft.to/lastmile_qr_scan"}, "lon": -77.00933216666667, "type": "electric_scooter", "fusion_lat": 0.0, "lat": 38.87197833333333, "name": "485025d45a11a70726bbde09bf73429f", "fusion_lon": 0.0, "bike_id": "485025d45a11a70726bbde09bf73429f", "is_disabled": 0, "is_reserved": 0}, {"rental_uris": {"ios": "https://dc.lft.to/lastmile_qr_scan", "android": "https://dc.lft.to/lastmile_qr_scan"}, "lon": -77.07043733333333, "type": "electric_bike", "fusion_lat": 0.0, "lat": 38.82443716666667, "name": "0770608efe7065a16c3362070818026e", "fusion_lon": 0.0, "bike_id": "0770608efe7065a16c3362070818026e", "is_disabled": 0, "is_reserved": 0}, {"rental_uris": {"ios": "https://dc.lft.to/lastmile_qr_scan", "android": "https://dc.lft.to/lastmile_qr_scan"}, "lon": -77.02576966666666, "type": "electric_scooter", "fusion_lat": 0.0, "lat": 38.90242666666666, "name": "7ae4ab4b54663df266104dd18df3ddbd", "fusion_lon": 0.0, "bike_id": "7ae4ab4b54663df266104dd18df3ddbd", "is_disabled": 0, "is_reserved": 0}, {"rental_uris": {"ios": "https://dc.lft.to/lastmile_qr_scan", "android": "https://dc.lft.to/lastmile_qr_scan"}, "lon": -77.04124816666666, "type": "electric_scooter", "fusion_lat": 0.0, "lat": 38.922026833333334, "name": "6f2d5a03293027bb374bb7a687faf6a5", "fusion_lon": 0.0, "bike_id": "6f2d5a03293027bb374bb7a687faf6a5", "is_disabled": 0, "is_reserved": 0}, {"rental_uris": {"ios": "https://dc.lft.to/lastmile_qr_scan", "android": "https://dc.lft.to/lastmile_qr_scan"}, "lon": -76.99949583333333, "type": "electric_scooter", "fusion_lat": 0.0, "lat": 38.84293066666667, "name": "738759a581404e8cf23ccc6b5fa03a4d", "fusion_lon": 0.0, "bike_id": "738759a581404e8cf23ccc6b5fa03a4d", "is_disabled": 0, "is_reserved": 0}, {"rental_uris": {"ios": "https://dc.lft.to/lastmile_qr_scan", "android": "https://dc.lft.to/lastmile_qr_scan"}, "lon": -77.04514516666667, "type": "electric_scooter", "fusion_lat": 0.0, "lat": 38.91280583333333, "name": "4d1a064cec61799384f3df5df39e7f94", "fusion_lon": 0.0, "bike_id": "4d1a064cec61799384f3df5df39e7f94", "is_disabled": 0, "is_reserved": 0}, {"rental_uris": {"ios": "https://dc.lft.to/lastmile_qr_scan", "android": "https://dc.lft.to/lastmile_qr_scan"}, "lon": -77.03999483333334, "type": "electric_scooter", "fusion_lat": 0.0, "lat": 38.9028745, "name": "ebfd4b715625d75acd784b6d68ee333d", "fusion_lon": 0.0, "bike_id": "ebfd4b715625d75acd784b6d68ee333d", "is_disabled": 0, "is_reserved": 0}, {"rental_uris": {"ios": "https://dc.lft.to/lastmile_qr_scan", "android": "https://dc.lft.to/lastmile_qr_scan"}, "lon": -77.02379933333333, "type": "electric_bike", "fusion_lat": 0.0, "lat": 38.9944085, "name": "e1505d5856df89519a8b410c84bf5802", "fusion_lon": 0.0, "bike_id": "e1505d5856df89519a8b410c84bf5802", "is_disabled": 0, "is_reserved": 0}, {"rental_uris": {"ios": "https://dc.lft.to/lastmile_qr_scan", "android": "https://dc.lft.to/lastmile_qr_scan"}, "lon": -77.01644716666667, "type": "electric_scooter", "fusion_lat": 0.0, "lat": 38.90384316666667, "name": "1571295bf299627b634599919f01c023", "fusion_lon": 0.0, "bike_id": "1571295bf299627b634599919f01c023", "is_disabled": 0, "is_reserved": 0}, {"rental_uris": {"ios": "https://dc.lft.to/lastmile_qr_scan", "android": "https://dc.lft.to/lastmile_qr_scan"}, "lon": -77.063686, "type": "electric_scooter", "fusion_lat": 0.0, "lat": 38.909299, "name": "2232ea1b8373984b8c1a7d39bc60f0cd", "fusion_lon": 0.0, "bike_id": "2232ea1b8373984b8c1a7d39bc60f0cd", "is_disabled": 0, "is_reserved": 0}, {"rental_uris": {"ios": "https://dc.lft.to/lastmile_qr_scan", "android": "https://dc.lft.to/lastmile_qr_scan"}, "lon": -77.04070033333333, "type": "electric_scooter", "fusion_lat": 0.0, "lat": 38.9266385, "name": "88f3919eccc58d98f3c5160df72b689d", "fusion_lon": 0.0, "bike_id": "88f3919eccc58d98f3c5160df72b689d", "is_disabled": 0, "is_reserved": 0}, {"rental_uris": {"ios": "https://dc.lft.to/lastmile_qr_scan", "android": "https://dc.lft.to/lastmile_qr_scan"}, "lon": -77.00214433333333, "type": "electric_scooter", "fusion_lat": 0.0, "lat": 38.9084955, "name": "45fbe88917f2de161b0920649818b6f3", "fusion_lon": 0.0, "bike_id": "45fbe88917f2de161b0920649818b6f3", "is_disabled": 0, "is_reserved": 0}, {"rental_uris": {"ios": "https://dc.lft.to/lastmile_qr_scan", "android": "https://dc.lft.to/lastmile_qr_scan"}, "lon": -77.00709766666667, "type": "electric_scooter", "fusion_lat": 0.0, "lat": 38.884941, "name": "a8a62f3c5302d6115e28ca979e4e3aa9", "fusion_lon": 0.0, "bike_id": "a8a62f3c5302d6115e28ca979e4e3aa9", "is_disabled": 0, "is_reserved": 0}, {"rental_uris": {"ios": "https://dc.lft.to/lastmile_qr_scan", "android": "https://dc.lft.to/lastmile_qr_scan"}, "lon": -76.98078533333333, "type": "electric_scooter", "fusion_lat": 0.0, "lat": 38.901688, "name": "6614075d3a4c103146285f7c5f86cab1", "fusion_lon": 0.0, "bike_id": "6614075d3a4c103146285f7c5f86cab1", "is_disabled": 0, "is_reserved": 0}, {"rental_uris": {"ios": "https://dc.lft.to/lastmile_qr_scan", "android": "https://dc.lft.to/lastmile_qr_scan"}, "lon": -77.0546845, "type": "electric_scooter", "fusion_lat": 0.0, "lat": 38.896644333333334, "name": "259bf9e511c577d89323d8c5595fe3cd", "fusion_lon": 0.0, "bike_id": "259bf9e511c577d89323d8c5595fe3cd", "is_disabled": 0, "is_reserved": 0}, {"rental_uris": {"ios": "https://dc.lft.to/lastmile_qr_scan", "android": "https://dc.lft.to/lastmile_qr_scan"}, "lon": -77.043708, "type": "electric_scooter", "fusion_lat": 0.0, "lat": 38.93337983333333, "name": "77ea8461d18567c9929573d6a7eee31d", "fusion_lon": 0.0, "bike_id": "77ea8461d18567c9929573d6a7eee31d", "is_disabled": 0, "is_reserved": 0}, {"rental_uris": {"ios": "https://dc.lft.to/lastmile_qr_scan", "android": "https://dc.lft.to/lastmile_qr_scan"}, "lon": -77.01650266666667, "type": "electric_bike", "fusion_lat": 0.0, "lat": 38.881267333333334, "name": "45c62f60923f657887a759ac9e62e3c4", "fusion_lon": 0.0, "bike_id": "45c62f60923f657887a759ac9e62e3c4", "is_disabled": 0, "is_reserved": 0}, {"rental_uris": {"ios": "https://dc.lft.to/lastmile_qr_scan", "android": "https://dc.lft.to/lastmile_qr_scan"}, "lon": -76.98543216666667, "type": "electric_scooter", "fusion_lat": 0.0, "lat": 38.904189333333335, "name": "25defe4d1487b992e43487e99168e854", "fusion_lon": 0.0, "bike_id": "25defe4d1487b992e43487e99168e854", "is_disabled": 0, "is_reserved": 0}, {"rental_uris": {"ios": "https://dc.lft.to/lastmile_qr_scan", "android": "https://dc.lft.to/lastmile_qr_scan"}, "lon": -77.032384, "type": "electric_scooter", "fusion_lat": 0.0, "lat": 38.9275985, "name": "0c7a857bd97d7fa57a172ce03f0b2437", "fusion_lon": 0.0, "bike_id": "0c7a857bd97d7fa57a172ce03f0b2437", "is_disabled": 0, "is_reserved": 0}, {"rental_uris": {"ios": "https://dc.lft.to/lastmile_qr_scan", "android": "https://dc.lft.to/lastmile_qr_scan"}, "lon": -76.93928316666667, "type": "electric_scooter", "fusion_lat": 0.0, "lat": 38.892980666666666, "name": "6d136200b07557cfc5c9998a8b61a303", "fusion_lon": 0.0, "bike_id": "6d136200b07557cfc5c9998a8b61a303", "is_disabled": 0, "is_reserved": 0}, {"rental_uris": {"ios": "https://dc.lft.to/lastmile_qr_scan", "android": "https://dc.lft.to/lastmile_qr_scan"}, "lon": -77.01435633333334, "type": "electric_scooter", "fusion_lat": 0.0, "lat": 38.906428166666664, "name": "436fac8e92fdc172f44db97c5cb5c075", "fusion_lon": 0.0, "bike_id": "436fac8e92fdc172f44db97c5cb5c075", "is_disabled": 0, "is_reserved": 0}, {"rental_uris": {"ios": "https://dc.lft.to/lastmile_qr_scan", "android": "https://dc.lft.to/lastmile_qr_scan"}, "lon": -76.94628333333333, "type": "electric_bike", "fusion_lat": 0.0, "lat": 38.832349666666666, "name": "7bf5ee220e167409fc68c2d7751ea082", "fusion_lon": 0.0, "bike_id": "7bf5ee220e167409fc68c2d7751ea082", "is_disabled": 0, "is_reserved": 0}, {"rental_uris": {"ios": "https://dc.lft.to/lastmile_qr_scan", "android": "https://dc.lft.to/lastmile_qr_scan"}, "lon": -77.1008835, "type": "electric_bike", "fusion_lat": 0.0, "lat": 38.95954016666666, "name": "53ec9a452c65971b68982e1a1abd4bf4", "fusion_lon": 0.0, "bike_id": "53ec9a452c65971b68982e1a1abd4bf4", "is_disabled": 0, "is_reserved": 0}, {"rental_uris": {"ios": "https://dc.lft.to/lastmile_qr_scan", "android": "https://dc.lft.to/lastmile_qr_scan"}, "lon": -76.99596983333333, "type": "electric_scooter", "fusion_lat": 0.0, "lat": 38.84542916666667, "name": "c1c4965876ba216d44609c58011f5c65", "fusion_lon": 0.0, "bike_id": "c1c4965876ba216d44609c58011f5c65", "is_disabled": 0, "is_reserved": 0}, {"rental_uris": {"ios": "https://dc.lft.to/lastmile_qr_scan", "android": "https://dc.lft.to/lastmile_qr_scan"}, "lon": -77.01532716666667, "type": "electric_scooter", "fusion_lat": 0.0, "lat": 38.901972, "name": "6a7d506b25c70a4263b8c342c1abcc01", "fusion_lon": 0.0, "bike_id": "6a7d506b25c70a4263b8c342c1abcc01", "is_disabled": 0, "is_reserved": 0}, {"rental_uris": {"ios": "https://dc.lft.to/lastmile_qr_scan", "android": "https://dc.lft.to/lastmile_qr_scan"}, "lon": -77.02186266666666, "type": "electric_scooter", "fusion_lat": 0.0, "lat": 38.915124, "name": "5df5b363893537b8a3b150f91355b7f5", "fusion_lon": 0.0, "bike_id": "5df5b363893537b8a3b150f91355b7f5", "is_disabled": 0, "is_reserved": 0}, {"rental_uris": {"ios": "https://dc.lft.to/lastmile_qr_scan", "android": "https://dc.lft.to/lastmile_qr_scan"}, "lon": -77.01386983333333, "type": "electric_scooter", "fusion_lat": 0.0, "lat": 38.97011916666666, "name": "6c42cd886f453a7289a55462e6412048", "fusion_lon": 0.0, "bike_id": "6c42cd886f453a7289a55462e6412048", "is_disabled": 0, "is_reserved": 0}, {"rental_uris": {"ios": "https://dc.lft.to/lastmile_qr_scan", "android": "https://dc.lft.to/lastmile_qr_scan"}, "lon": -77.0342915, "type": "electric_scooter", "fusion_lat": 0.0, "lat": 38.90262883333333, "name": "51aca5a80097dec6b74d507e833479bc", "fusion_lon": 0.0, "bike_id": "51aca5a80097dec6b74d507e833479bc", "is_disabled": 0, "is_reserved": 0}, {"rental_uris": {"ios": "https://dc.lft.to/lastmile_qr_scan", "android": "https://dc.lft.to/lastmile_qr_scan"}, "lon": -76.99795383333333, "type": "electric_scooter", "fusion_lat": 0.0, "lat": 38.92178283333333, "name": "4b0bb82ce52230fb9012ecf52198dc29", "fusion_lon": 0.0, "bike_id": "4b0bb82ce52230fb9012ecf52198dc29", "is_disabled": 0, "is_reserved": 0}, {"rental_uris": {"ios": "https://dc.lft.to/lastmile_qr_scan", "android": "https://dc.lft.to/lastmile_qr_scan"}, "lon": -77.03655433333333, "type": "electric_scooter", "fusion_lat": 0.0, "lat": 38.91807383333333, "name": "837001ee1b629d242542ad90e10222ab", "fusion_lon": 0.0, "bike_id": "837001ee1b629d242542ad90e10222ab", "is_disabled": 0, "is_reserved": 0}, {"rental_uris": {"ios": "https://dc.lft.to/lastmile_qr_scan", "android": "https://dc.lft.to/lastmile_qr_scan"}, "lon": -77.02716516666666, "type": "electric_scooter", "fusion_lat": 0.0, "lat": 38.918025166666666, "name": "e51611cf39ebe6aa0fd90197584a37fa", "fusion_lon": 0.0, "bike_id": "e51611cf39ebe6aa0fd90197584a37fa", "is_disabled": 0, "is_reserved": 0}, {"rental_uris": {"ios": "https://dc.lft.to/lastmile_qr_scan", "android": "https://dc.lft.to/lastmile_qr_scan"}, "lon": -77.0470865, "type": "electric_scooter", "fusion_lat": 0.0, "lat": 38.9216875, "name": "34734ead64c8e4466568e974c87ad183", "fusion_lon": 0.0, "bike_id": "34734ead64c8e4466568e974c87ad183", "is_disabled": 0, "is_reserved": 0}, {"rental_uris": {"ios": "https://dc.lft.to/lastmile_qr_scan", "android": "https://dc.lft.to/lastmile_qr_scan"}, "lon": -76.98499483333333, "type": "electric_scooter", "fusion_lat": 0.0, "lat": 38.86045333333333, "name": "bccdad66b9e2d24f3726836b65519b41", "fusion_lon": 0.0, "bike_id": "bccdad66b9e2d24f3726836b65519b41", "is_disabled": 0, "is_reserved": 0}, {"rental_uris": {"ios": "https://dc.lft.to/lastmile_qr_scan", "android": "https://dc.lft.to/lastmile_qr_scan"}, "lon": -77.039199, "type": "electric_scooter", "fusion_lat": 0.0, "lat": 38.8992785, "name": "a99be74f5f4a76a277b6c908ef894727", "fusion_lon": 0.0, "bike_id": "a99be74f5f4a76a277b6c908ef894727", "is_disabled": 0, "is_reserved": 0}, {"rental_uris": {"ios": "https://dc.lft.to/lastmile_qr_scan", "android": "https://dc.lft.to/lastmile_qr_scan"}, "lon": -76.97892533333334, "type": "electric_scooter", "fusion_lat": 0.0, "lat": 38.904214833333334, "name": "a1b574b49d9d7882594f49ad34bc2a78", "fusion_lon": 0.0, "bike_id": "a1b574b49d9d7882594f49ad34bc2a78", "is_disabled": 0, "is_reserved": 0}, {"rental_uris": {"ios": "https://dc.lft.to/lastmile_qr_scan", "android": "https://dc.lft.to/lastmile_qr_scan"}, "lon": -77.03961833333334, "type": "electric_scooter", "fusion_lat": 0.0, "lat": 38.90274483333334, "name": "6f03d71a319847d8375e060ba13a2e95", "fusion_lon": 0.0, "bike_id": "6f03d71a319847d8375e060ba13a2e95", "is_disabled": 0, "is_reserved": 0}, {"rental_uris": {"ios": "https://dc.lft.to/lastmile_qr_scan", "android": "https://dc.lft.to/lastmile_qr_scan"}, "lon": -77.038079, "type": "electric_scooter", "fusion_lat": 0.0, "lat": 38.9219165, "name": "67058888b767f028aac5b6e5496b7b34", "fusion_lon": 0.0, "bike_id": "67058888b767f028aac5b6e5496b7b34", "is_disabled": 0, "is_reserved": 0}, {"rental_uris": {"ios": "https://dc.lft.to/lastmile_qr_scan", "android": "https://dc.lft.to/lastmile_qr_scan"}, "lon": -76.977229, "type": "electric_scooter", "fusion_lat": 0.0, "lat": 38.872449333333336, "name": "432ae39487af8d25a42f029480eb8f2d", "fusion_lon": 0.0, "bike_id": "432ae39487af8d25a42f029480eb8f2d", "is_disabled": 0, "is_reserved": 0}, {"rental_uris": {"ios": "https://dc.lft.to/lastmile_qr_scan", "android": "https://dc.lft.to/lastmile_qr_scan"}, "lon": -77.03675283333334, "type": "electric_scooter", "fusion_lat": 0.0, "lat": 38.92996466666666, "name": "f1ab9553fe365616d646b078486d9f2e", "fusion_lon": 0.0, "bike_id": "f1ab9553fe365616d646b078486d9f2e", "is_disabled": 0, "is_reserved": 0}, {"rental_uris": {"ios": "https://dc.lft.to/lastmile_qr_scan", "android": "https://dc.lft.to/lastmile_qr_scan"}, "lon": -77.02458633333333, "type": "electric_scooter", "fusion_lat": 0.0, "lat": 38.979344833333336, "name": "0bca07ca9ed0bcd65b1aa2368e8e5b90", "fusion_lon": 0.0, "bike_id": "0bca07ca9ed0bcd65b1aa2368e8e5b90", "is_disabled": 0, "is_reserved": 0}, {"rental_uris": {"ios": "https://dc.lft.to/lastmile_qr_scan", "android": "https://dc.lft.to/lastmile_qr_scan"}, "lon": -77.047984, "type": "electric_scooter", "fusion_lat": 0.0, "lat": 38.907265833333334, "name": "f78c494e66366977c9139f1dcfe1152c", "fusion_lon": 0.0, "bike_id": "f78c494e66366977c9139f1dcfe1152c", "is_disabled": 0, "is_reserved": 0}, {"rental_uris": {"ios": "https://dc.lft.to/lastmile_qr_scan", "android": "https://dc.lft.to/lastmile_qr_scan"}, "lon": -77.02333433333334, "type": "electric_scooter", "fusion_lat": 0.0, "lat": 38.93048683333333, "name": "52002bec13f38e24aec9d3be5c35cd47", "fusion_lon": 0.0, "bike_id": "52002bec13f38e24aec9d3be5c35cd47", "is_disabled": 0, "is_reserved": 0}, {"rental_uris": {"ios": "https://dc.lft.to/lastmile_qr_scan", "android": "https://dc.lft.to/lastmile_qr_scan"}, "lon": -77.04130283333333, "type": "electric_scooter", "fusion_lat": 0.0, "lat": 38.92346166666667, "name": "e365012b8d6e61b1dd6cf457f70afa77", "fusion_lon": 0.0, "bike_id": "e365012b8d6e61b1dd6cf457f70afa77", "is_disabled": 0, "is_reserved": 0}, {"rental_uris": {"ios": "https://dc.lft.to/lastmile_qr_scan", "android": "https://dc.lft.to/lastmile_qr_scan"}, "lon": -77.02421016666666, "type": "electric_scooter", "fusion_lat": 0.0, "lat": 38.918201, "name": "bbc5ab1deaeef3e7f3c18550bd17698f", "fusion_lon": 0.0, "bike_id": "bbc5ab1deaeef3e7f3c18550bd17698f", "is_disabled": 0, "is_reserved": 0}, {"rental_uris": {"ios": "https://dc.lft.to/lastmile_qr_scan", "android": "https://dc.lft.to/lastmile_qr_scan"}, "lon": -77.05315, "type": "electric_scooter", "fusion_lat": 0.0, "lat": 38.904277666666665, "name": "fb325d76b960c87600a58610f901171c", "fusion_lon": 0.0, "bike_id": "fb325d76b960c87600a58610f901171c", "is_disabled": 0, "is_reserved": 0}, {"rental_uris": {"ios": "https://dc.lft.to/lastmile_qr_scan", "android": "https://dc.lft.to/lastmile_qr_scan"}, "lon": -76.97329066666667, "type": "electric_bike", "fusion_lat": 0.0, "lat": 38.850638000000004, "name": "e9c2049892147addf69d8be61b69df83", "fusion_lon": 0.0, "bike_id": "e9c2049892147addf69d8be61b69df83", "is_disabled": 0, "is_reserved": 0}, {"rental_uris": {"ios": "https://dc.lft.to/lastmile_qr_scan", "android": "https://dc.lft.to/lastmile_qr_scan"}, "lon": -77.04626366666666, "type": "electric_scooter", "fusion_lat": 0.0, "lat": 38.90242716666667, "name": "fa114d43ffabcdb0fa97a55312e6f96b", "fusion_lon": 0.0, "bike_id": "fa114d43ffabcdb0fa97a55312e6f96b", "is_disabled": 0, "is_reserved": 0}, {"rental_uris": {"ios": "https://dc.lft.to/lastmile_qr_scan", "android": "https://dc.lft.to/lastmile_qr_scan"}, "lon": -77.05037, "type": "electric_scooter", "fusion_lat": 0.0, "lat": 38.8966235, "name": "f8d85f692439cf76b27b563e77a163d4", "fusion_lon": 0.0, "bike_id": "f8d85f692439cf76b27b563e77a163d4", "is_disabled": 0, "is_reserved": 0}, {"rental_uris": {"ios": "https://dc.lft.to/lastmile_qr_scan", "android": "https://dc.lft.to/lastmile_qr_scan"}, "lon": -77.0350885, "type": "electric_scooter", "fusion_lat": 0.0, "lat": 38.9214695, "name": "fe387bcdbc08bb18710d733b94c0c9bf", "fusion_lon": 0.0, "bike_id": "fe387bcdbc08bb18710d733b94c0c9bf", "is_disabled": 0, "is_reserved": 0}, {"rental_uris": {"ios": "https://dc.lft.to/lastmile_qr_scan", "android": "https://dc.lft.to/lastmile_qr_scan"}, "lon": -77.0487295, "type": "electric_scooter", "fusion_lat": 0.0, "lat": 38.90297416666667, "name": "4131945e337355719b0551d24a6821c4", "fusion_lon": 0.0, "bike_id": "4131945e337355719b0551d24a6821c4", "is_disabled": 0, "is_reserved": 0}, {"rental_uris": {"ios": "https://dc.lft.to/lastmile_qr_scan", "android": "https://dc.lft.to/lastmile_qr_scan"}, "lon": -77.05062983333333, "type": "electric_scooter", "fusion_lat": 0.0, "lat": 38.900181333333336, "name": "86b955c928d88bd6c3315f5d94db8e81", "fusion_lon": 0.0, "bike_id": "86b955c928d88bd6c3315f5d94db8e81", "is_disabled": 0, "is_reserved": 0}, {"rental_uris": {"ios": "https://dc.lft.to/lastmile_qr_scan", "android": "https://dc.lft.to/lastmile_qr_scan"}, "lon": -77.03628983333333, "type": "electric_scooter", "fusion_lat": 0.0, "lat": 38.936887, "name": "da693e4f3999c7b8726782c256b889e1", "fusion_lon": 0.0, "bike_id": "da693e4f3999c7b8726782c256b889e1", "is_disabled": 0, "is_reserved": 0}, {"rental_uris": {"ios": "https://dc.lft.to/lastmile_qr_scan", "android": "https://dc.lft.to/lastmile_qr_scan"}, "lon": -77.131778, "type": "electric_bike", "fusion_lat": 0.0, "lat": 38.86905266666667, "name": "c380e3a8d63c13c44d3f654eb87a3611", "fusion_lon": 0.0, "bike_id": "c380e3a8d63c13c44d3f654eb87a3611", "is_disabled": 0, "is_reserved": 0}, {"rental_uris": {"ios": "https://dc.lft.to/lastmile_qr_scan", "android": "https://dc.lft.to/lastmile_qr_scan"}, "lon": -76.974433, "type": "electric_bike", "fusion_lat": 0.0, "lat": 38.86399133333333, "name": "e78657a06f6931a3383d4c6098b7e11a", "fusion_lon": 0.0, "bike_id": "e78657a06f6931a3383d4c6098b7e11a", "is_disabled": 0, "is_reserved": 0}, {"rental_uris": {"ios": "https://dc.lft.to/lastmile_qr_scan", "android": "https://dc.lft.to/lastmile_qr_scan"}, "lon": -76.997729, "type": "electric_scooter", "fusion_lat": 0.0, "lat": 38.84421866666667, "name": "1ea4c7cabad484cda1b6df90d1dfcffe", "fusion_lon": 0.0, "bike_id": "1ea4c7cabad484cda1b6df90d1dfcffe", "is_disabled": 0, "is_reserved": 0}, {"rental_uris": {"ios": "https://dc.lft.to/lastmile_qr_scan", "android": "https://dc.lft.to/lastmile_qr_scan"}, "lon": -77.036337, "type": "electric_bike", "fusion_lat": 0.0, "lat": 38.91271833333333, "name": "6a2c5400d1b3507a83246c64c3c927d4", "fusion_lon": 0.0, "bike_id": "6a2c5400d1b3507a83246c64c3c927d4", "is_disabled": 0, "is_reserved": 0}, {"rental_uris": {"ios": "https://dc.lft.to/lastmile_qr_scan", "android": "https://dc.lft.to/lastmile_qr_scan"}, "lon": -77.015141, "type": "electric_scooter", "fusion_lat": 0.0, "lat": 38.8981015, "name": "f5bded0e2b9940ea3050a7ee10f5985a", "fusion_lon": 0.0, "bike_id": "f5bded0e2b9940ea3050a7ee10f5985a", "is_disabled": 0, "is_reserved": 0}, {"rental_uris": {"ios": "https://dc.lft.to/lastmile_qr_scan", "android": "https://dc.lft.to/lastmile_qr_scan"}, "lon": -77.06286683333333, "type": "electric_scooter", "fusion_lat": 0.0, "lat": 38.9124405, "name": "3f44c35de6488a4b9a279b4ac5dfa677", "fusion_lon": 0.0, "bike_id": "3f44c35de6488a4b9a279b4ac5dfa677", "is_disabled": 0, "is_reserved": 0}, {"rental_uris": {"ios": "https://dc.lft.to/lastmile_qr_scan", "android": "https://dc.lft.to/lastmile_qr_scan"}, "lon": -77.04107516666667, "type": "electric_scooter", "fusion_lat": 0.0, "lat": 38.90597016666667, "name": "c12c3d545e9e7b6170e251a96b08cee2", "fusion_lon": 0.0, "bike_id": "c12c3d545e9e7b6170e251a96b08cee2", "is_disabled": 0, "is_reserved": 0}, {"rental_uris": {"ios": "https://dc.lft.to/lastmile_qr_scan", "android": "https://dc.lft.to/lastmile_qr_scan"}, "lon": -77.02945266666667, "type": "electric_scooter", "fusion_lat": 0.0, "lat": 38.9004265, "name": "5d8e8e383c9ea9ef9aea5138cd739601", "fusion_lon": 0.0, "bike_id": "5d8e8e383c9ea9ef9aea5138cd739601", "is_disabled": 0, "is_reserved": 0}, {"rental_uris": {"ios": "https://dc.lft.to/lastmile_qr_scan", "android": "https://dc.lft.to/lastmile_qr_scan"}, "lon": -76.94985016666666, "type": "electric_scooter", "fusion_lat": 0.0, "lat": 38.893588333333334, "name": "e8a8aa95c73be0117f95ca445b77eeaa", "fusion_lon": 0.0, "bike_id": "e8a8aa95c73be0117f95ca445b77eeaa", "is_disabled": 0, "is_reserved": 0}, {"rental_uris": {"ios": "https://dc.lft.to/lastmile_qr_scan", "android": "https://dc.lft.to/lastmile_qr_scan"}, "lon": -77.01867083333333, "type": "electric_scooter", "fusion_lat": 0.0, "lat": 38.91570816666667, "name": "dae75b1e36f44f71bd2e1b52b02ddbe9", "fusion_lon": 0.0, "bike_id": "dae75b1e36f44f71bd2e1b52b02ddbe9", "is_disabled": 0, "is_reserved": 0}, {"rental_uris": {"ios": "https://dc.lft.to/lastmile_qr_scan", "android": "https://dc.lft.to/lastmile_qr_scan"}, "lon": -77.00210116666666, "type": "electric_scooter", "fusion_lat": 0.0, "lat": 38.908483, "name": "00db01812f3d6df88f06bd7c1c5a5e8e", "fusion_lon": 0.0, "bike_id": "00db01812f3d6df88f06bd7c1c5a5e8e", "is_disabled": 0, "is_reserved": 0}, {"rental_uris": {"ios": "https://dc.lft.to/lastmile_qr_scan", "android": "https://dc.lft.to/lastmile_qr_scan"}, "lon": -77.03585483333333, "type": "electric_scooter", "fusion_lat": 0.0, "lat": 38.932369333333334, "name": "c51b1a850c135d9cead15cf2478f91c8", "fusion_lon": 0.0, "bike_id": "c51b1a850c135d9cead15cf2478f91c8", "is_disabled": 0, "is_reserved": 0}, {"rental_uris": {"ios": "https://dc.lft.to/lastmile_qr_scan", "android": "https://dc.lft.to/lastmile_qr_scan"}, "lon": -76.95744816666667, "type": "electric_scooter", "fusion_lat": 0.0, "lat": 38.8921365, "name": "2763bfd7ec1e786ff302d41bd5ad050f", "fusion_lon": 0.0, "bike_id": "2763bfd7ec1e786ff302d41bd5ad050f", "is_disabled": 0, "is_reserved": 0}, {"rental_uris": {"ios": "https://dc.lft.to/lastmile_qr_scan", "android": "https://dc.lft.to/lastmile_qr_scan"}, "lon": -77.05471716666666, "type": "electric_bike", "fusion_lat": 0.0, "lat": 38.908594666666666, "name": "8d0a93615a0b9a6fbb26d9d3dcda84bf", "fusion_lon": 0.0, "bike_id": "8d0a93615a0b9a6fbb26d9d3dcda84bf", "is_disabled": 0, "is_reserved": 0}, {"rental_uris": {"ios": "https://dc.lft.to/lastmile_qr_scan", "android": "https://dc.lft.to/lastmile_qr_scan"}, "lon": -77.01342466666667, "type": "electric_bike", "fusion_lat": 0.0, "lat": 38.9999665, "name": "92476cbc4f7cecf66a48ad51a9b33006", "fusion_lon": 0.0, "bike_id": "92476cbc4f7cecf66a48ad51a9b33006", "is_disabled": 0, "is_reserved": 0}, {"rental_uris": {"ios": "https://dc.lft.to/lastmile_qr_scan", "android": "https://dc.lft.to/lastmile_qr_scan"}, "lon": -77.03457933333334, "type": "electric_scooter", "fusion_lat": 0.0, "lat": 38.92151283333333, "name": "cf75d2a14414ced2e6cb2af9522de322", "fusion_lon": 0.0, "bike_id": "cf75d2a14414ced2e6cb2af9522de322", "is_disabled": 0, "is_reserved": 0}, {"rental_uris": {"ios": "https://dc.lft.to/lastmile_qr_scan", "android": "https://dc.lft.to/lastmile_qr_scan"}, "lon": -77.0289005, "type": "electric_scooter", "fusion_lat": 0.0, "lat": 38.9045545, "name": "6267b398eb4f6146c8a04355625003b4", "fusion_lon": 0.0, "bike_id": "6267b398eb4f6146c8a04355625003b4", "is_disabled": 0, "is_reserved": 0}, {"rental_uris": {"ios": "https://dc.lft.to/lastmile_qr_scan", "android": "https://dc.lft.to/lastmile_qr_scan"}, "lon": -77.0065095, "type": "electric_scooter", "fusion_lat": 0.0, "lat": 38.87177283333333, "name": "9ca37c0a26ca2c705328918fd4a7d969", "fusion_lon": 0.0, "bike_id": "9ca37c0a26ca2c705328918fd4a7d969", "is_disabled": 0, "is_reserved": 0}, {"rental_uris": {"ios": "https://dc.lft.to/lastmile_qr_scan", "android": "https://dc.lft.to/lastmile_qr_scan"}, "lon": -77.01903166666666, "type": "electric_scooter", "fusion_lat": 0.0, "lat": 38.87663666666667, "name": "e379b72b31fc16b7d5a8585974b38b34", "fusion_lon": 0.0, "bike_id": "e379b72b31fc16b7d5a8585974b38b34", "is_disabled": 0, "is_reserved": 0}, {"rental_uris": {"ios": "https://dc.lft.to/lastmile_qr_scan", "android": "https://dc.lft.to/lastmile_qr_scan"}, "lon": -77.02730433333333, "type": "electric_scooter", "fusion_lat": 0.0, "lat": 38.9138125, "name": "d81a77bcde03ed04a4b9b4d14f1f9d94", "fusion_lon": 0.0, "bike_id": "d81a77bcde03ed04a4b9b4d14f1f9d94", "is_disabled": 0, "is_reserved": 0}, {"rental_uris": {"ios": "https://dc.lft.to/lastmile_qr_scan", "android": "https://dc.lft.to/lastmile_qr_scan"}, "lon": -77.0553775, "type": "electric_scooter", "fusion_lat": 0.0, "lat": 38.927902, "name": "e702875e8f55f3cedf953aeb889ed357", "fusion_lon": 0.0, "bike_id": "e702875e8f55f3cedf953aeb889ed357", "is_disabled": 0, "is_reserved": 0}, {"rental_uris": {"ios": "https://dc.lft.to/lastmile_qr_scan", "android": "https://dc.lft.to/lastmile_qr_scan"}, "lon": -77.01116916666666, "type": "electric_scooter", "fusion_lat": 0.0, "lat": 38.903555, "name": "a00cb4f83f72db500a9be32d26f822ee", "fusion_lon": 0.0, "bike_id": "a00cb4f83f72db500a9be32d26f822ee", "is_disabled": 0, "is_reserved": 0}, {"rental_uris": {"ios": "https://dc.lft.to/lastmile_qr_scan", "android": "https://dc.lft.to/lastmile_qr_scan"}, "lon": -77.03208766666667, "type": "electric_scooter", "fusion_lat": 0.0, "lat": 38.911079, "name": "9f0b4e9089cbbd6ccdf58e085852230c", "fusion_lon": 0.0, "bike_id": "9f0b4e9089cbbd6ccdf58e085852230c", "is_disabled": 0, "is_reserved": 0}, {"rental_uris": {"ios": "https://dc.lft.to/lastmile_qr_scan", "android": "https://dc.lft.to/lastmile_qr_scan"}, "lon": -77.02233933333333, "type": "electric_scooter", "fusion_lat": 0.0, "lat": 38.89198433333333, "name": "19e0a426ae9f0857a408bd9836e1dafa", "fusion_lon": 0.0, "bike_id": "19e0a426ae9f0857a408bd9836e1dafa", "is_disabled": 0, "is_reserved": 0}, {"rental_uris": {"ios": "https://dc.lft.to/lastmile_qr_scan", "android": "https://dc.lft.to/lastmile_qr_scan"}, "lon": -77.036578, "type": "electric_scooter", "fusion_lat": 0.0, "lat": 38.92932033333334, "name": "b531788bf887662afe635e461b45488a", "fusion_lon": 0.0, "bike_id": "b531788bf887662afe635e461b45488a", "is_disabled": 0, "is_reserved": 0}, {"rental_uris": {"ios": "https://dc.lft.to/lastmile_qr_scan", "android": "https://dc.lft.to/lastmile_qr_scan"}, "lon": -77.07325133333333, "type": "electric_scooter", "fusion_lat": 0.0, "lat": 38.924972333333336, "name": "52b29fac0209020b0df5470d108cadd6", "fusion_lon": 0.0, "bike_id": "52b29fac0209020b0df5470d108cadd6", "is_disabled": 0, "is_reserved": 0}, {"rental_uris": {"ios": "https://dc.lft.to/lastmile_qr_scan", "android": "https://dc.lft.to/lastmile_qr_scan"}, "lon": -77.0756075, "type": "electric_scooter", "fusion_lat": 0.0, "lat": 38.914284, "name": "f166db019b6224e03bcd8381a93292eb", "fusion_lon": 0.0, "bike_id": "f166db019b6224e03bcd8381a93292eb", "is_disabled": 0, "is_reserved": 0}, {"rental_uris": {"ios": "https://dc.lft.to/lastmile_qr_scan", "android": "https://dc.lft.to/lastmile_qr_scan"}, "lon": -77.0174995, "type": "electric_scooter", "fusion_lat": 0.0, "lat": 38.915853, "name": "a289e1eb3b347097fd162a8b8e9b0301", "fusion_lon": 0.0, "bike_id": "a289e1eb3b347097fd162a8b8e9b0301", "is_disabled": 0, "is_reserved": 0}, {"rental_uris": {"ios": "https://dc.lft.to/lastmile_qr_scan", "android": "https://dc.lft.to/lastmile_qr_scan"}, "lon": -77.0279125, "type": "electric_scooter", "fusion_lat": 0.0, "lat": 38.89637466666667, "name": "954c2f0dd63ef9bcf8eb1c5318e48596", "fusion_lon": 0.0, "bike_id": "954c2f0dd63ef9bcf8eb1c5318e48596", "is_disabled": 0, "is_reserved": 0}, {"rental_uris": {"ios": "https://dc.lft.to/lastmile_qr_scan", "android": "https://dc.lft.to/lastmile_qr_scan"}, "lon": -77.045, "type": "electric_scooter", "fusion_lat": 0.0, "lat": 38.91111133333333, "name": "cdc5c2019a28186260bb9d686d210b46", "fusion_lon": 0.0, "bike_id": "cdc5c2019a28186260bb9d686d210b46", "is_disabled": 0, "is_reserved": 0}, {"rental_uris": {"ios": "https://dc.lft.to/lastmile_qr_scan", "android": "https://dc.lft.to/lastmile_qr_scan"}, "lon": -77.003433, "type": "electric_scooter", "fusion_lat": 0.0, "lat": 38.91340733333333, "name": "6b4d70a6c43be132265a8f5044318548", "fusion_lon": 0.0, "bike_id": "6b4d70a6c43be132265a8f5044318548", "is_disabled": 0, "is_reserved": 0}, {"rental_uris": {"ios": "https://dc.lft.to/lastmile_qr_scan", "android": "https://dc.lft.to/lastmile_qr_scan"}, "lon": -77.02349, "type": "electric_scooter", "fusion_lat": 0.0, "lat": 38.9337745, "name": "089e3f8941502bfd116b50b88db836e8", "fusion_lon": 0.0, "bike_id": "089e3f8941502bfd116b50b88db836e8", "is_disabled": 0, "is_reserved": 0}, {"rental_uris": {"ios": "https://dc.lft.to/lastmile_qr_scan", "android": "https://dc.lft.to/lastmile_qr_scan"}, "lon": -76.99871816666666, "type": "electric_scooter", "fusion_lat": 0.0, "lat": 38.900226833333335, "name": "38bdf1fe3e488f33e24722a16b18b3f3", "fusion_lon": 0.0, "bike_id": "38bdf1fe3e488f33e24722a16b18b3f3", "is_disabled": 0, "is_reserved": 0}, {"rental_uris": {"ios": "https://dc.lft.to/lastmile_qr_scan", "android": "https://dc.lft.to/lastmile_qr_scan"}, "lon": -76.98087866666667, "type": "electric_bike", "fusion_lat": 0.0, "lat": 38.902905833333335, "name": "fed25e6636f1757ee44d4dcf9ca8de31", "fusion_lon": 0.0, "bike_id": "fed25e6636f1757ee44d4dcf9ca8de31", "is_disabled": 0, "is_reserved": 0}, {"rental_uris": {"ios": "https://dc.lft.to/lastmile_qr_scan", "android": "https://dc.lft.to/lastmile_qr_scan"}, "lon": -77.0066865, "type": "electric_scooter", "fusion_lat": 0.0, "lat": 38.8764235, "name": "d41125e902738134bb962a7d0f88b617", "fusion_lon": 0.0, "bike_id": "d41125e902738134bb962a7d0f88b617", "is_disabled": 0, "is_reserved": 0}, {"rental_uris": {"ios": "https://dc.lft.to/lastmile_qr_scan", "android": "https://dc.lft.to/lastmile_qr_scan"}, "lon": -77.07901183333334, "type": "electric_bike", "fusion_lat": 0.0, "lat": 38.83931666666667, "name": "5ba72569ff426e6c9c65e4fa3b50546b", "fusion_lon": 0.0, "bike_id": "5ba72569ff426e6c9c65e4fa3b50546b", "is_disabled": 0, "is_reserved": 0}, {"rental_uris": {"ios": "https://dc.lft.to/lastmile_qr_scan", "android": "https://dc.lft.to/lastmile_qr_scan"}, "lon": -77.0247335, "type": "electric_scooter", "fusion_lat": 0.0, "lat": 38.93871816666667, "name": "a42b3fc70d832518ea864fcef5b564ca", "fusion_lon": 0.0, "bike_id": "a42b3fc70d832518ea864fcef5b564ca", "is_disabled": 0, "is_reserved": 0}, {"rental_uris": {"ios": "https://dc.lft.to/lastmile_qr_scan", "android": "https://dc.lft.to/lastmile_qr_scan"}, "lon": -77.00204733333334, "type": "electric_scooter", "fusion_lat": 0.0, "lat": 38.91193416666667, "name": "496ad2dbc09055e524cc4588d998032b", "fusion_lon": 0.0, "bike_id": "496ad2dbc09055e524cc4588d998032b", "is_disabled": 0, "is_reserved": 0}, {"rental_uris": {"ios": "https://dc.lft.to/lastmile_qr_scan", "android": "https://dc.lft.to/lastmile_qr_scan"}, "lon": -76.93613416666666, "type": "electric_bike", "fusion_lat": 0.0, "lat": 38.97063333333333, "name": "bbdad207177e1bc845125e89e11adac3", "fusion_lon": 0.0, "bike_id": "bbdad207177e1bc845125e89e11adac3", "is_disabled": 0, "is_reserved": 0}, {"rental_uris": {"ios": "https://dc.lft.to/lastmile_qr_scan", "android": "https://dc.lft.to/lastmile_qr_scan"}, "lon": -77.12744333333333, "type": "electric_bike", "fusion_lat": 0.0, "lat": 38.88816583333333, "name": "783be4718681a563a2b05809186e5906", "fusion_lon": 0.0, "bike_id": "783be4718681a563a2b05809186e5906", "is_disabled": 0, "is_reserved": 0}, {"rental_uris": {"ios": "https://dc.lft.to/lastmile_qr_scan", "android": "https://dc.lft.to/lastmile_qr_scan"}, "lon": -77.08368216666666, "type": "electric_scooter", "fusion_lat": 0.0, "lat": 38.930332166666666, "name": "b774d2dc8d3003f7d95515826b666a59", "fusion_lon": 0.0, "bike_id": "b774d2dc8d3003f7d95515826b666a59", "is_disabled": 0, "is_reserved": 0}, {"rental_uris": {"ios": "https://dc.lft.to/lastmile_qr_scan", "android": "https://dc.lft.to/lastmile_qr_scan"}, "lon": -77.04945066666667, "type": "electric_scooter", "fusion_lat": 0.0, "lat": 38.8964815, "name": "6edcc2cb86b8312a9c0703b102021122", "fusion_lon": 0.0, "bike_id": "6edcc2cb86b8312a9c0703b102021122", "is_disabled": 0, "is_reserved": 0}, {"rental_uris": {"ios": "https://dc.lft.to/lastmile_qr_scan", "android": "https://dc.lft.to/lastmile_qr_scan"}, "lon": -77.042255, "type": "electric_scooter", "fusion_lat": 0.0, "lat": 38.90804383333333, "name": "e065888900e0cb0c5f1824cb962cdfc9", "fusion_lon": 0.0, "bike_id": "e065888900e0cb0c5f1824cb962cdfc9", "is_disabled": 0, "is_reserved": 0}, {"rental_uris": {"ios": "https://dc.lft.to/lastmile_qr_scan", "android": "https://dc.lft.to/lastmile_qr_scan"}, "lon": -76.995402, "type": "electric_scooter", "fusion_lat": 0.0, "lat": 38.926636333333335, "name": "77b165236ba99ef5c17606f8d442c14a", "fusion_lon": 0.0, "bike_id": "77b165236ba99ef5c17606f8d442c14a", "is_disabled": 0, "is_reserved": 0}, {"rental_uris": {"ios": "https://dc.lft.to/lastmile_qr_scan", "android": "https://dc.lft.to/lastmile_qr_scan"}, "lon": -76.98774383333334, "type": "electric_scooter", "fusion_lat": 0.0, "lat": 38.91169516666667, "name": "093daab0067ca43315791cd16a52321c", "fusion_lon": 0.0, "bike_id": "093daab0067ca43315791cd16a52321c", "is_disabled": 0, "is_reserved": 0}, {"rental_uris": {"ios": "https://dc.lft.to/lastmile_qr_scan", "android": "https://dc.lft.to/lastmile_qr_scan"}, "lon": -77.02615133333333, "type": "electric_scooter", "fusion_lat": 0.0, "lat": 38.9169305, "name": "f32ca550a2d22e146231475defd64215", "fusion_lon": 0.0, "bike_id": "f32ca550a2d22e146231475defd64215", "is_disabled": 0, "is_reserved": 0}, {"rental_uris": {"ios": "https://dc.lft.to/lastmile_qr_scan", "android": "https://dc.lft.to/lastmile_qr_scan"}, "lon": -77.04827016666667, "type": "electric_scooter", "fusion_lat": 0.0, "lat": 38.896179333333336, "name": "f200194f18cefe5f84b305123668fca9", "fusion_lon": 0.0, "bike_id": "f200194f18cefe5f84b305123668fca9", "is_disabled": 0, "is_reserved": 0}, {"rental_uris": {"ios": "https://dc.lft.to/lastmile_qr_scan", "android": "https://dc.lft.to/lastmile_qr_scan"}, "lon": -77.03084416666667, "type": "electric_scooter", "fusion_lat": 0.0, "lat": 38.93471783333333, "name": "2c0f0671842fd021ed4bb51ff54742bf", "fusion_lon": 0.0, "bike_id": "2c0f0671842fd021ed4bb51ff54742bf", "is_disabled": 0, "is_reserved": 0}, {"rental_uris": {"ios": "https://dc.lft.to/lastmile_qr_scan", "android": "https://dc.lft.to/lastmile_qr_scan"}, "lon": -77.02898766666667, "type": "electric_scooter", "fusion_lat": 0.0, "lat": 38.903654, "name": "35c6065abaa749aa1a5582901b769aeb", "fusion_lon": 0.0, "bike_id": "35c6065abaa749aa1a5582901b769aeb", "is_disabled": 0, "is_reserved": 0}, {"rental_uris": {"ios": "https://dc.lft.to/lastmile_qr_scan", "android": "https://dc.lft.to/lastmile_qr_scan"}, "lon": -77.00855066666666, "type": "electric_scooter", "fusion_lat": 0.0, "lat": 38.92589783333333, "name": "71cd0f29677469d9e5961f83332bee3a", "fusion_lon": 0.0, "bike_id": "71cd0f29677469d9e5961f83332bee3a", "is_disabled": 0, "is_reserved": 0}, {"rental_uris": {"ios": "https://dc.lft.to/lastmile_qr_scan", "android": "https://dc.lft.to/lastmile_qr_scan"}, "lon": -77.01759366666667, "type": "electric_scooter", "fusion_lat": 0.0, "lat": 38.9389425, "name": "5f3832e8a8fd2ee7c24dabc1ef5e305c", "fusion_lon": 0.0, "bike_id": "5f3832e8a8fd2ee7c24dabc1ef5e305c", "is_disabled": 0, "is_reserved": 0}, {"rental_uris": {"ios": "https://dc.lft.to/lastmile_qr_scan", "android": "https://dc.lft.to/lastmile_qr_scan"}, "lon": -76.97890466666666, "type": "electric_scooter", "fusion_lat": 0.0, "lat": 38.916744666666666, "name": "b1f8f24c25d472703d7a5a555e0e9686", "fusion_lon": 0.0, "bike_id": "b1f8f24c25d472703d7a5a555e0e9686", "is_disabled": 0, "is_reserved": 0}, {"rental_uris": {"ios": "https://dc.lft.to/lastmile_qr_scan", "android": "https://dc.lft.to/lastmile_qr_scan"}, "lon": -76.93796933333333, "type": "electric_scooter", "fusion_lat": 0.0, "lat": 38.91286816666667, "name": "d5ad6c059e58194621b47b259405bc17", "fusion_lon": 0.0, "bike_id": "d5ad6c059e58194621b47b259405bc17", "is_disabled": 0, "is_reserved": 0}, {"rental_uris": {"ios": "https://dc.lft.to/lastmile_qr_scan", "android": "https://dc.lft.to/lastmile_qr_scan"}, "lon": -77.04287383333333, "type": "electric_scooter", "fusion_lat": 0.0, "lat": 38.89532166666667, "name": "9b1bce3b8ec5dd8bf1d6de0cae3d25f9", "fusion_lon": 0.0, "bike_id": "9b1bce3b8ec5dd8bf1d6de0cae3d25f9", "is_disabled": 0, "is_reserved": 0}, {"rental_uris": {"ios": "https://dc.lft.to/lastmile_qr_scan", "android": "https://dc.lft.to/lastmile_qr_scan"}, "lon": -77.02384983333333, "type": "electric_scooter", "fusion_lat": 0.0, "lat": 38.93606033333333, "name": "ccee34c051ba5074d645152dd656ade2", "fusion_lon": 0.0, "bike_id": "ccee34c051ba5074d645152dd656ade2", "is_disabled": 0, "is_reserved": 0}, {"rental_uris": {"ios": "https://dc.lft.to/lastmile_qr_scan", "android": "https://dc.lft.to/lastmile_qr_scan"}, "lon": -77.0385065, "type": "electric_scooter", "fusion_lat": 0.0, "lat": 38.909263333333335, "name": "9f2368e82b1828b5f00d32cc012ce7c9", "fusion_lon": 0.0, "bike_id": "9f2368e82b1828b5f00d32cc012ce7c9", "is_disabled": 0, "is_reserved": 0}, {"rental_uris": {"ios": "https://dc.lft.to/lastmile_qr_scan", "android": "https://dc.lft.to/lastmile_qr_scan"}, "lon": -77.028702, "type": "electric_scooter", "fusion_lat": 0.0, "lat": 38.90869433333334, "name": "47ef5daec6e7362691cc3bd18b893abb", "fusion_lon": 0.0, "bike_id": "47ef5daec6e7362691cc3bd18b893abb", "is_disabled": 0, "is_reserved": 0}, {"rental_uris": {"ios": "https://dc.lft.to/lastmile_qr_scan", "android": "https://dc.lft.to/lastmile_qr_scan"}, "lon": -77.05267883333333, "type": "electric_scooter", "fusion_lat": 0.0, "lat": 38.9343035, "name": "52c5581d6869bba57db852d06e5eeb72", "fusion_lon": 0.0, "bike_id": "52c5581d6869bba57db852d06e5eeb72", "is_disabled": 0, "is_reserved": 0}, {"rental_uris": {"ios": "https://dc.lft.to/lastmile_qr_scan", "android": "https://dc.lft.to/lastmile_qr_scan"}, "lon": -77.0020795, "type": "electric_scooter", "fusion_lat": 0.0, "lat": 38.9001605, "name": "938a691d09a7f8b3fa6288ce262b25f1", "fusion_lon": 0.0, "bike_id": "938a691d09a7f8b3fa6288ce262b25f1", "is_disabled": 0, "is_reserved": 0}, {"rental_uris": {"ios": "https://dc.lft.to/lastmile_qr_scan", "android": "https://dc.lft.to/lastmile_qr_scan"}, "lon": -77.03282216666666, "type": "electric_scooter", "fusion_lat": 0.0, "lat": 38.93882116666666, "name": "06c45b15531a2edf96038b7b6062cafd", "fusion_lon": 0.0, "bike_id": "06c45b15531a2edf96038b7b6062cafd", "is_disabled": 0, "is_reserved": 0}, {"rental_uris": {"ios": "https://dc.lft.to/lastmile_qr_scan", "android": "https://dc.lft.to/lastmile_qr_scan"}, "lon": -76.93181783333333, "type": "electric_scooter", "fusion_lat": 0.0, "lat": 38.89881333333334, "name": "66e2aa41ee9abb0807745cd874cf3f0f", "fusion_lon": 0.0, "bike_id": "66e2aa41ee9abb0807745cd874cf3f0f", "is_disabled": 0, "is_reserved": 0}, {"rental_uris": {"ios": "https://dc.lft.to/lastmile_qr_scan", "android": "https://dc.lft.to/lastmile_qr_scan"}, "lon": -77.036251, "type": "electric_scooter", "fusion_lat": 0.0, "lat": 38.91862716666667, "name": "f3b19f60857499ce9e1620e17f47bf86", "fusion_lon": 0.0, "bike_id": "f3b19f60857499ce9e1620e17f47bf86", "is_disabled": 0, "is_reserved": 0}, {"rental_uris": {"ios": "https://dc.lft.to/lastmile_qr_scan", "android": "https://dc.lft.to/lastmile_qr_scan"}, "lon": -77.04867883333333, "type": "electric_scooter", "fusion_lat": 0.0, "lat": 38.90582766666667, "name": "7e7a362f5b0a230318fbbad21d4ce3bd", "fusion_lon": 0.0, "bike_id": "7e7a362f5b0a230318fbbad21d4ce3bd", "is_disabled": 0, "is_reserved": 0}, {"rental_uris": {"ios": "https://dc.lft.to/lastmile_qr_scan", "android": "https://dc.lft.to/lastmile_qr_scan"}, "lon": -77.01111283333333, "type": "electric_scooter", "fusion_lat": 0.0, "lat": 38.90355016666667, "name": "c2f5f0edfcaef2e31cf11c37e07215d0", "fusion_lon": 0.0, "bike_id": "c2f5f0edfcaef2e31cf11c37e07215d0", "is_disabled": 0, "is_reserved": 0}, {"rental_uris": {"ios": "https://dc.lft.to/lastmile_qr_scan", "android": "https://dc.lft.to/lastmile_qr_scan"}, "lon": -76.95909033333334, "type": "electric_scooter", "fusion_lat": 0.0, "lat": 38.926917833333334, "name": "96d059c95f952127927c693f1dcb78b9", "fusion_lon": 0.0, "bike_id": "96d059c95f952127927c693f1dcb78b9", "is_disabled": 0, "is_reserved": 0}, {"rental_uris": {"ios": "https://dc.lft.to/lastmile_qr_scan", "android": "https://dc.lft.to/lastmile_qr_scan"}, "lon": -77.04414033333333, "type": "electric_scooter", "fusion_lat": 0.0, "lat": 38.9130375, "name": "73b6bdc0af2af7066a005cf39d6813b2", "fusion_lon": 0.0, "bike_id": "73b6bdc0af2af7066a005cf39d6813b2", "is_disabled": 0, "is_reserved": 0}, {"rental_uris": {"ios": "https://dc.lft.to/lastmile_qr_scan", "android": "https://dc.lft.to/lastmile_qr_scan"}, "lon": -77.01315016666666, "type": "electric_scooter", "fusion_lat": 0.0, "lat": 38.89740716666667, "name": "71bdb3090d541964cf91755e06ac5027", "fusion_lon": 0.0, "bike_id": "71bdb3090d541964cf91755e06ac5027", "is_disabled": 0, "is_reserved": 0}, {"rental_uris": {"ios": "https://dc.lft.to/lastmile_qr_scan", "android": "https://dc.lft.to/lastmile_qr_scan"}, "lon": -76.9800085, "type": "electric_bike", "fusion_lat": 0.0, "lat": 38.900225666666664, "name": "db2b9e51bf9441ccd99b06e6d7f73c74", "fusion_lon": 0.0, "bike_id": "db2b9e51bf9441ccd99b06e6d7f73c74", "is_disabled": 0, "is_reserved": 0}, {"rental_uris": {"ios": "https://dc.lft.to/lastmile_qr_scan", "android": "https://dc.lft.to/lastmile_qr_scan"}, "lon": -76.95182066666666, "type": "electric_bike", "fusion_lat": 0.0, "lat": 38.906787, "name": "57cfb676907c82f4b6383c14f14d976f", "fusion_lon": 0.0, "bike_id": "57cfb676907c82f4b6383c14f14d976f", "is_disabled": 0, "is_reserved": 0}, {"rental_uris": {"ios": "https://dc.lft.to/lastmile_qr_scan", "android": "https://dc.lft.to/lastmile_qr_scan"}, "lon": -77.0137475, "type": "electric_scooter", "fusion_lat": 0.0, "lat": 38.886511166666665, "name": "82b4d29a58251bc23ed6b277010a1298", "fusion_lon": 0.0, "bike_id": "82b4d29a58251bc23ed6b277010a1298", "is_disabled": 0, "is_reserved": 0}, {"rental_uris": {"ios": "https://dc.lft.to/lastmile_qr_scan", "android": "https://dc.lft.to/lastmile_qr_scan"}, "lon": -77.05389233333334, "type": "electric_scooter", "fusion_lat": 0.0, "lat": 38.90255, "name": "361dcca0124175af4273d1224a5114bb", "fusion_lon": 0.0, "bike_id": "361dcca0124175af4273d1224a5114bb", "is_disabled": 0, "is_reserved": 0}, {"rental_uris": {"ios": "https://dc.lft.to/lastmile_qr_scan", "android": "https://dc.lft.to/lastmile_qr_scan"}, "lon": -77.06406566666666, "type": "electric_bike", "fusion_lat": 0.0, "lat": 38.84352116666667, "name": "48c2bf06132385b0f3d088de410254fc", "fusion_lon": 0.0, "bike_id": "48c2bf06132385b0f3d088de410254fc", "is_disabled": 0, "is_reserved": 0}, {"rental_uris": {"ios": "https://dc.lft.to/lastmile_qr_scan", "android": "https://dc.lft.to/lastmile_qr_scan"}, "lon": -76.99279566666667, "type": "electric_scooter", "fusion_lat": 0.0, "lat": 38.921322333333336, "name": "548d6bb6883a0f80758b3b4369cad9aa", "fusion_lon": 0.0, "bike_id": "548d6bb6883a0f80758b3b4369cad9aa", "is_disabled": 0, "is_reserved": 0}, {"rental_uris": {"ios": "https://dc.lft.to/lastmile_qr_scan", "android": "https://dc.lft.to/lastmile_qr_scan"}, "lon": -77.026824, "type": "electric_scooter", "fusion_lat": 0.0, "lat": 38.90717216666667, "name": "84d2dda54c88180713a5214afe203bfa", "fusion_lon": 0.0, "bike_id": "84d2dda54c88180713a5214afe203bfa", "is_disabled": 0, "is_reserved": 0}, {"rental_uris": {"ios": "https://dc.lft.to/lastmile_qr_scan", "android": "https://dc.lft.to/lastmile_qr_scan"}, "lon": -77.035445, "type": "electric_scooter", "fusion_lat": 0.0, "lat": 38.908312333333335, "name": "99b29aa4293ea474d20d79ca66dc8911", "fusion_lon": 0.0, "bike_id": "99b29aa4293ea474d20d79ca66dc8911", "is_disabled": 0, "is_reserved": 0}, {"rental_uris": {"ios": "https://dc.lft.to/lastmile_qr_scan", "android": "https://dc.lft.to/lastmile_qr_scan"}, "lon": -77.03903333333334, "type": "electric_scooter", "fusion_lat": 0.0, "lat": 38.914192166666666, "name": "dc1ed51a5240d6dd7ef9d84009dfd383", "fusion_lon": 0.0, "bike_id": "dc1ed51a5240d6dd7ef9d84009dfd383", "is_disabled": 0, "is_reserved": 0}, {"rental_uris": {"ios": "https://dc.lft.to/lastmile_qr_scan", "android": "https://dc.lft.to/lastmile_qr_scan"}, "lon": -76.98876933333334, "type": "electric_scooter", "fusion_lat": 0.0, "lat": 38.832393833333334, "name": "a00fea63a4a34a2fda4fc2bf8bc077ef", "fusion_lon": 0.0, "bike_id": "a00fea63a4a34a2fda4fc2bf8bc077ef", "is_disabled": 0, "is_reserved": 0}, {"rental_uris": {"ios": "https://dc.lft.to/lastmile_qr_scan", "android": "https://dc.lft.to/lastmile_qr_scan"}, "lon": -77.01765383333333, "type": "electric_scooter", "fusion_lat": 0.0, "lat": 38.90560683333333, "name": "629580ecd20b1e11c1dd3cd2ca0cf316", "fusion_lon": 0.0, "bike_id": "629580ecd20b1e11c1dd3cd2ca0cf316", "is_disabled": 0, "is_reserved": 0}, {"rental_uris": {"ios": "https://dc.lft.to/lastmile_qr_scan", "android": "https://dc.lft.to/lastmile_qr_scan"}, "lon": -77.04450166666666, "type": "electric_scooter", "fusion_lat": 0.0, "lat": 38.9187245, "name": "d2dc10c2f3dc293faaeedb151c681e79", "fusion_lon": 0.0, "bike_id": "d2dc10c2f3dc293faaeedb151c681e79", "is_disabled": 0, "is_reserved": 0}, {"rental_uris": {"ios": "https://dc.lft.to/lastmile_qr_scan", "android": "https://dc.lft.to/lastmile_qr_scan"}, "lon": -77.041958, "type": "electric_scooter", "fusion_lat": 0.0, "lat": 38.92052833333333, "name": "144599fa6dcdab6c594d8ee506dfbd8a", "fusion_lon": 0.0, "bike_id": "144599fa6dcdab6c594d8ee506dfbd8a", "is_disabled": 0, "is_reserved": 0}, {"rental_uris": {"ios": "https://dc.lft.to/lastmile_qr_scan", "android": "https://dc.lft.to/lastmile_qr_scan"}, "lon": -77.03838916666666, "type": "electric_scooter", "fusion_lat": 0.0, "lat": 38.90756366666667, "name": "8387c33c8802a0d1a3ce2acc1eeae4e8", "fusion_lon": 0.0, "bike_id": "8387c33c8802a0d1a3ce2acc1eeae4e8", "is_disabled": 0, "is_reserved": 0}, {"rental_uris": {"ios": "https://dc.lft.to/lastmile_qr_scan", "android": "https://dc.lft.to/lastmile_qr_scan"}, "lon": -77.01106166666666, "type": "electric_scooter", "fusion_lat": 0.0, "lat": 38.895211, "name": "8a5e5f9c7c2297a3697f776a4b13ae39", "fusion_lon": 0.0, "bike_id": "8a5e5f9c7c2297a3697f776a4b13ae39", "is_disabled": 0, "is_reserved": 0}, {"rental_uris": {"ios": "https://dc.lft.to/lastmile_qr_scan", "android": "https://dc.lft.to/lastmile_qr_scan"}, "lon": -77.01793883333333, "type": "electric_scooter", "fusion_lat": 0.0, "lat": 38.90822716666667, "name": "fd2a3bf68e1ac66a6d48828bc86b2d8f", "fusion_lon": 0.0, "bike_id": "fd2a3bf68e1ac66a6d48828bc86b2d8f", "is_disabled": 0, "is_reserved": 0}, {"rental_uris": {"ios": "https://dc.lft.to/lastmile_qr_scan", "android": "https://dc.lft.to/lastmile_qr_scan"}, "lon": -77.0336535, "type": "electric_scooter", "fusion_lat": 0.0, "lat": 38.90617366666667, "name": "439b60a2a02c1b8e3013e5cbd0fff076", "fusion_lon": 0.0, "bike_id": "439b60a2a02c1b8e3013e5cbd0fff076", "is_disabled": 0, "is_reserved": 0}, {"rental_uris": {"ios": "https://dc.lft.to/lastmile_qr_scan", "android": "https://dc.lft.to/lastmile_qr_scan"}, "lon": -77.08066766666667, "type": "electric_scooter", "fusion_lat": 0.0, "lat": 38.95911783333333, "name": "46af3183fee1622434d4c8b6ee2380ed", "fusion_lon": 0.0, "bike_id": "46af3183fee1622434d4c8b6ee2380ed", "is_disabled": 0, "is_reserved": 0}, {"rental_uris": {"ios": "https://dc.lft.to/lastmile_qr_scan", "android": "https://dc.lft.to/lastmile_qr_scan"}, "lon": -76.94657316666667, "type": "electric_scooter", "fusion_lat": 0.0, "lat": 38.898264, "name": "66c01f6fe735900d54576a5cb70bbaa6", "fusion_lon": 0.0, "bike_id": "66c01f6fe735900d54576a5cb70bbaa6", "is_disabled": 0, "is_reserved": 0}, {"rental_uris": {"ios": "https://dc.lft.to/lastmile_qr_scan", "android": "https://dc.lft.to/lastmile_qr_scan"}, "lon": -77.02969, "type": "electric_scooter", "fusion_lat": 0.0, "lat": 38.90033416666667, "name": "4c9400c85fe29bfa6cc8ffc4f56f5558", "fusion_lon": 0.0, "bike_id": "4c9400c85fe29bfa6cc8ffc4f56f5558", "is_disabled": 0, "is_reserved": 0}, {"rental_uris": {"ios": "https://dc.lft.to/lastmile_qr_scan", "android": "https://dc.lft.to/lastmile_qr_scan"}, "lon": -77.026759, "type": "electric_scooter", "fusion_lat": 0.0, "lat": 38.8990955, "name": "df0dcbfbb6d86e64ccccb8ff5ed502ba", "fusion_lon": 0.0, "bike_id": "df0dcbfbb6d86e64ccccb8ff5ed502ba", "is_disabled": 0, "is_reserved": 0}, {"rental_uris": {"ios": "https://dc.lft.to/lastmile_qr_scan", "android": "https://dc.lft.to/lastmile_qr_scan"}, "lon": -76.97669566666667, "type": "electric_bike", "fusion_lat": 0.0, "lat": 38.96624216666667, "name": "7727ca01f90d4ccefba0422949ee2f04", "fusion_lon": 0.0, "bike_id": "7727ca01f90d4ccefba0422949ee2f04", "is_disabled": 0, "is_reserved": 0}, {"rental_uris": {"ios": "https://dc.lft.to/lastmile_qr_scan", "android": "https://dc.lft.to/lastmile_qr_scan"}, "lon": -77.03408383333333, "type": "electric_scooter", "fusion_lat": 0.0, "lat": 38.9231275, "name": "12df272b5bdb9cb6af3d53ad4dc0cef3", "fusion_lon": 0.0, "bike_id": "12df272b5bdb9cb6af3d53ad4dc0cef3", "is_disabled": 0, "is_reserved": 0}, {"rental_uris": {"ios": "https://dc.lft.to/lastmile_qr_scan", "android": "https://dc.lft.to/lastmile_qr_scan"}, "lon": -77.0351385, "type": "electric_scooter", "fusion_lat": 0.0, "lat": 38.900363166666665, "name": "f3c88d6cd2161484d53a513092353d93", "fusion_lon": 0.0, "bike_id": "f3c88d6cd2161484d53a513092353d93", "is_disabled": 0, "is_reserved": 0}, {"rental_uris": {"ios": "https://dc.lft.to/lastmile_qr_scan", "android": "https://dc.lft.to/lastmile_qr_scan"}, "lon": -77.03585983333333, "type": "electric_scooter", "fusion_lat": 0.0, "lat": 38.90754233333333, "name": "d94306c83a214ddacf6488b3ee1d477d", "fusion_lon": 0.0, "bike_id": "d94306c83a214ddacf6488b3ee1d477d", "is_disabled": 0, "is_reserved": 0}, {"rental_uris": {"ios": "https://dc.lft.to/lastmile_qr_scan", "android": "https://dc.lft.to/lastmile_qr_scan"}, "lon": -77.04888616666666, "type": "electric_scooter", "fusion_lat": 0.0, "lat": 38.896646833333335, "name": "32781966c9f85e2e20a58ebc33fb9e3c", "fusion_lon": 0.0, "bike_id": "32781966c9f85e2e20a58ebc33fb9e3c", "is_disabled": 0, "is_reserved": 0}, {"rental_uris": {"ios": "https://dc.lft.to/lastmile_qr_scan", "android": "https://dc.lft.to/lastmile_qr_scan"}, "lon": -77.02226683333333, "type": "electric_scooter", "fusion_lat": 0.0, "lat": 38.912666, "name": "76e33d307091740bb54ea5051fb9fc47", "fusion_lon": 0.0, "bike_id": "76e33d307091740bb54ea5051fb9fc47", "is_disabled": 0, "is_reserved": 0}, {"rental_uris": {"ios": "https://dc.lft.to/lastmile_qr_scan", "android": "https://dc.lft.to/lastmile_qr_scan"}, "lon": -77.034568, "type": "electric_scooter", "fusion_lat": 0.0, "lat": 38.9170815, "name": "04f74d6174f93055013c280d28741dfa", "fusion_lon": 0.0, "bike_id": "04f74d6174f93055013c280d28741dfa", "is_disabled": 0, "is_reserved": 0}, {"rental_uris": {"ios": "https://dc.lft.to/lastmile_qr_scan", "android": "https://dc.lft.to/lastmile_qr_scan"}, "lon": -77.0241735, "type": "electric_scooter", "fusion_lat": 0.0, "lat": 38.926566333333334, "name": "2e41bafec6e98f56f7905168c00a8914", "fusion_lon": 0.0, "bike_id": "2e41bafec6e98f56f7905168c00a8914", "is_disabled": 0, "is_reserved": 0}, {"rental_uris": {"ios": "https://dc.lft.to/lastmile_qr_scan", "android": "https://dc.lft.to/lastmile_qr_scan"}, "lon": -77.035628, "type": "electric_scooter", "fusion_lat": 0.0, "lat": 38.918065166666665, "name": "b16e867576d936722986b4988d7fb3f4", "fusion_lon": 0.0, "bike_id": "b16e867576d936722986b4988d7fb3f4", "is_disabled": 0, "is_reserved": 0}, {"rental_uris": {"ios": "https://dc.lft.to/lastmile_qr_scan", "android": "https://dc.lft.to/lastmile_qr_scan"}, "lon": -76.97706883333333, "type": "electric_scooter", "fusion_lat": 0.0, "lat": 38.897085, "name": "b0e09254fdcb714fe96d5fcaac256225", "fusion_lon": 0.0, "bike_id": "b0e09254fdcb714fe96d5fcaac256225", "is_disabled": 0, "is_reserved": 0}, {"rental_uris": {"ios": "https://dc.lft.to/lastmile_qr_scan", "android": "https://dc.lft.to/lastmile_qr_scan"}, "lon": -77.023612, "type": "electric_scooter", "fusion_lat": 0.0, "lat": 38.925124833333335, "name": "7379934c230999a683391b0fafc88b60", "fusion_lon": 0.0, "bike_id": "7379934c230999a683391b0fafc88b60", "is_disabled": 0, "is_reserved": 0}, {"rental_uris": {"ios": "https://dc.lft.to/lastmile_qr_scan", "android": "https://dc.lft.to/lastmile_qr_scan"},