{"data": {"bikes": [{"name": "fcaa2a8567f4008ad4e0f790e8a7d238", "fusion_lat": 0.0, "fusion_lon": 0.0, "bike_id": "fcaa2a8567f4008ad4e0f790e8a7d238", "rental_uris": {"ios": "https://dc.lft.to/lastmile_qr_scan", "android": "https://dc.lft.to/lastmile_qr_scan"}, "type": "electric_bike", "lat": 38.85649733333333, "is_disabled": 0, "lon": -77.08526933333333, "is_reserved": 0}, {"name": "20a8c01e72e88e05a7b9e30cc567e073", "fusion_lat": 0.0, "fusion_lon": 0.0, "bike_id": "20a8c01e72e88e05a7b9e30cc567e073", "rental_uris": {"ios": "https://dc.lft.to/lastmile_qr_scan", "android": "https://dc.lft.to/lastmile_qr_scan"}, "type": "electric_scooter", "lat": 38.95640916666667, "is_disabled": 0, "lon": -77.0910365, "is_reserved": 0}, {"name": "c63885720da7950ea66fedb18ed684ce", "fusion_lat": 0.0, "fusion_lon": 0.0, "bike_id": "c63885720da7950ea66fedb18ed684ce", "rental_uris": {"ios": "https://dc.lft.to/lastmile_qr_scan", "android": "https://dc.lft.to/lastmile_qr_scan"}, "type": "electric_scooter", "lat": 38.894606, "is_disabled": 0, "lon": -76.94825333333333, "is_reserved": 0}, {"name": "a18bb226cd5a8a66ad258dcb35567723", "fusion_lat": 0.0, "fusion_lon": 0.0, "bike_id": "a18bb226cd5a8a66ad258dcb35567723", "rental_uris": {"ios": "https://dc.lft.to/lastmile_qr_scan", "android": "https://dc.lft.to/lastmile_qr_scan"}, "type": "electric_scooter", "lat": 38.898285666666666, "is_disabled": 0, "lon": -77.033251, "is_reserved": 0}, {"name": "50986b135c45ea8280577c1dd9aaeca3", "fusion_lat": 0.0, "fusion_lon": 0.0, "bike_id": "50986b135c45ea8280577c1dd9aaeca3", "rental_uris": {"ios": "https://dc.lft.to/lastmile_qr_scan", "android": "https://dc.lft.to/lastmile_qr_scan"}, "type": "electric_scooter", "lat": 38.9258625, "is_disabled": 0, "lon": -77.03209183333334, "is_reserved": 0}, {"name": "deaab76a4eafb6f5f74cb76118ac3717", "fusion_lat": 0.0, "fusion_lon": 0.0, "bike_id": "deaab76a4eafb6f5f74cb76118ac3717", "rental_uris": {"ios": "https://dc.lft.to/lastmile_qr_scan", "android": "https://dc.lft.to/lastmile_qr_scan"}, "type": "electric_scooter", "lat": 38.895574333333336, "is_disabled": 0, "lon": -77.009272, "is_reserved": 0}, {"name": "90993bface48019856ab663d303ee817", "fusion_lat": 0.0, "fusion_lon": 0.0, "bike_id": "90993bface48019856ab663d303ee817", "rental_uris": {"ios": "https://dc.lft.to/lastmile_qr_scan", "android": "https://dc.lft.to/lastmile_qr_scan"}, "type": "electric_scooter", "lat": 38.846497666666664, "is_disabled": 0, "lon": -76.97236516666666, "is_reserved": 0}, {"name": "d7bf8e40bccbad0f806fd98d3e71016e", "fusion_lat": 0.0, "fusion_lon": 0.0, "bike_id": "d7bf8e40bccbad0f806fd98d3e71016e", "rental_uris": {"ios": "https://dc.lft.to/lastmile_qr_scan", "android": "https://dc.lft.to/lastmile_qr_scan"}, "type": "electric_scooter", "lat": 38.86994633333333, "is_disabled": 0, "lon": -77.01054383333333, "is_reserved": 0}, {"name": "3f631b3a67db31dcc2c51195a9c9282f", "fusion_lat": 0.0, "fusion_lon": 0.0, "bike_id": "3f631b3a67db31dcc2c51195a9c9282f", "rental_uris": {"ios": "https://dc.lft.to/lastmile_qr_scan", "android": "https://dc.lft.to/lastmile_qr_scan"}, "type": "electric_scooter", "lat": 38.935254666666665, "is_disabled": 0, "lon": -77.03264716666666, "is_reserved": 0}, {"name": "4ddd29bad4066640c7cc3a107252fb9d", "fusion_lat": 0.0, "fusion_lon": 0.0, "bike_id": "4ddd29bad4066640c7cc3a107252fb9d", "rental_uris": {"ios": "https://dc.lft.to/lastmile_qr_scan", "android": "https://dc.lft.to/lastmile_qr_scan"}, "type": "electric_scooter", "lat": 38.89243066666667, "is_disabled": 0, "lon": -77.02390416666667, "is_reserved": 0}, {"name": "5a7d156243e135a90c2f6d41177f7435", "fusion_lat": 0.0, "fusion_lon": 0.0, "bike_id": "5a7d156243e135a90c2f6d41177f7435", "rental_uris": {"ios": "https://dc.lft.to/lastmile_qr_scan", "android": "https://dc.lft.to/lastmile_qr_scan"}, "type": "electric_scooter", "lat": 38.86250116666667, "is_disabled": 0, "lon": -76.99530183333333, "is_reserved": 0}, {"name": "0f3aacaf3bbba84227058e56015f837f", "fusion_lat": 0.0, "fusion_lon": 0.0, "bike_id": "0f3aacaf3bbba84227058e56015f837f", "rental_uris": {"ios": "https://dc.lft.to/lastmile_qr_scan", "android": "https://dc.lft.to/lastmile_qr_scan"}, "type": "electric_scooter", "lat": 38.91188916666667, "is_disabled": 0, "lon": -77.04154816666667, "is_reserved": 0}, {"name": "4384463f1c58947c836ce2f3915a9611", "fusion_lat": 0.0, "fusion_lon": 0.0, "bike_id": "4384463f1c58947c836ce2f3915a9611", "rental_uris": {"ios": "https://dc.lft.to/lastmile_qr_scan", "android": "https://dc.lft.to/lastmile_qr_scan"}, "type": "electric_scooter", "lat": 38.900566166666664, "is_disabled": 0, "lon": -77.0019995, "is_reserved": 0}, {"name": "0abfc9230f388538c3e0bad99e649444", "fusion_lat": 0.0, "fusion_lon": 0.0, "bike_id": "0abfc9230f388538c3e0bad99e649444", "rental_uris": {"ios": "https://dc.lft.to/lastmile_qr_scan", "android": "https://dc.lft.to/lastmile_qr_scan"}, "type": "electric_scooter", "lat": 38.9071725, "is_disabled": 0, "lon": -77.03946683333334, "is_reserved": 0}, {"name": "78013562289841f0fc8ee1e2cee9cc98", "fusion_lat": 0.0, "fusion_lon": 0.0, "bike_id": "78013562289841f0fc8ee1e2cee9cc98", "rental_uris": {"ios": "https://dc.lft.to/lastmile_qr_scan", "android": "https://dc.lft.to/lastmile_qr_scan"}, "type": "electric_scooter", "lat": 38.956321833333334, "is_disabled": 0, "lon": -77.0329685, "is_reserved": 0}, {"name": "3cd44e002649a2626469887d817c6c53", "fusion_lat": 0.0, "fusion_lon": 0.0, "bike_id": "3cd44e002649a2626469887d817c6c53", "rental_uris": {"ios": "https://dc.lft.to/lastmile_qr_scan", "android": "https://dc.lft.to/lastmile_qr_scan"}, "type": "electric_scooter", "lat": 38.89793483333333, "is_disabled": 0, "lon": -77.03953916666667, "is_reserved": 0}, {"name": "fd9eb312230684269f581b6737930cbf", "fusion_lat": 0.0, "fusion_lon": 0.0, "bike_id": "fd9eb312230684269f581b6737930cbf", "rental_uris": {"ios": "https://dc.lft.to/lastmile_qr_scan", "android": "https://dc.lft.to/lastmile_qr_scan"}, "type": "electric_scooter", "lat": 38.919875, "is_disabled": 0, "lon": -77.03784583333334, "is_reserved": 0}, {"name": "d5a269002267cb823189514c7c976cc4", "fusion_lat": 0.0, "fusion_lon": 0.0, "bike_id": "d5a269002267cb823189514c7c976cc4", "rental_uris": {"ios": "https://dc.lft.to/lastmile_qr_scan", "android": "https://dc.lft.to/lastmile_qr_scan"}, "type": "electric_scooter", "lat": 38.922026333333335, "is_disabled": 0, "lon": -77.04021, "is_reserved": 0}, {"name": "058f4b26687c54a440e0115f05f7441a", "fusion_lat": 0.0, "fusion_lon": 0.0, "bike_id": "058f4b26687c54a440e0115f05f7441a", "rental_uris": {"ios": "https://dc.lft.to/lastmile_qr_scan", "android": "https://dc.lft.to/lastmile_qr_scan"}, "type": "electric_scooter", "lat": 38.8841235, "is_disabled": 0, "lon": -77.02583, "is_reserved": 0}, {"name": "935fdb249017857e58c91b3d6a204fdc", "fusion_lat": 0.0, "fusion_lon": 0.0, "bike_id": "935fdb249017857e58c91b3d6a204fdc", "rental_uris": {"ios": "https://dc.lft.to/lastmile_qr_scan", "android": "https://dc.lft.to/lastmile_qr_scan"}, "type": "electric_scooter", "lat": 38.916139666666666, "is_disabled": 0, "lon": -77.0248035, "is_reserved": 0}, {"name": "406576b9e37cb5956dda8b5c028f9570", "fusion_lat": 0.0, "fusion_lon": 0.0, "bike_id": "406576b9e37cb5956dda8b5c028f9570", "rental_uris": {"ios": "https://dc.lft.to/lastmile_qr_scan", "android": "https://dc.lft.to/lastmile_qr_scan"}, "type": "electric_scooter", "lat": 38.93252616666667, "is_disabled": 0, "lon": -77.02733766666667, "is_reserved": 0}, {"name": "f22484d9ac9e93c1fec907777cdc969f", "fusion_lat": 0.0, "fusion_lon": 0.0, "bike_id": "f22484d9ac9e93c1fec907777cdc969f", "rental_uris": {"ios": "https://dc.lft.to/lastmile_qr_scan", "android": "https://dc.lft.to/lastmile_qr_scan"}, "type": "electric_scooter", "lat": 38.930662833333336, "is_disabled": 0, "lon": -77.0381855, "is_reserved": 0}, {"name": "ada1dfc0919b7201e98422f4e5ab41df", "fusion_lat": 0.0, "fusion_lon": 0.0, "bike_id": "ada1dfc0919b7201e98422f4e5ab41df", "rental_uris": {"ios": "https://dc.lft.to/lastmile_qr_scan", "android": "https://dc.lft.to/lastmile_qr_scan"}, "type": "electric_scooter", "lat": 38.885044666666666, "is_disabled": 0, "lon": -76.99643033333334, "is_reserved": 0}, {"name": "2dfa5c03d4292001d6092f53394b18fa", "fusion_lat": 0.0, "fusion_lon": 0.0, "bike_id": "2dfa5c03d4292001d6092f53394b18fa", "rental_uris": {"ios": "https://dc.lft.to/lastmile_qr_scan", "android": "https://dc.lft.to/lastmile_qr_scan"}, "type": "electric_scooter", "lat": 38.92258566666667, "is_disabled": 0, "lon": -77.03522066666666, "is_reserved": 0}, {"name": "70292717b013b41ccc06623aa9e46c75", "fusion_lat": 0.0, "fusion_lon": 0.0, "bike_id": "70292717b013b41ccc06623aa9e46c75", "rental_uris": {"ios": "https://dc.lft.to/lastmile_qr_scan", "android": "https://dc.lft.to/lastmile_qr_scan"}, "type": "electric_bike", "lat": 38.850666333333336, "is_disabled": 0, "lon": -76.97330716666667, "is_reserved": 0}, {"name": "ca6e47ff16adf213e32e9cff184a97c2", "fusion_lat": 0.0, "fusion_lon": 0.0, "bike_id": "ca6e47ff16adf213e32e9cff184a97c2", "rental_uris": {"ios": "https://dc.lft.to/lastmile_qr_scan", "android": "https://dc.lft.to/lastmile_qr_scan"}, "type": "electric_scooter", "lat": 38.90274733333333, "is_disabled": 0, "lon": -77.03839833333333, "is_reserved": 0}, {"name": "480dfe6c78dfe7878869d6e37891e26f", "fusion_lat": 0.0, "fusion_lon": 0.0, "bike_id": "480dfe6c78dfe7878869d6e37891e26f", "rental_uris": {"ios": "https://dc.lft.to/lastmile_qr_scan", "android": "https://dc.lft.to/lastmile_qr_scan"}, "type": "electric_scooter", "lat": 38.927814833333336, "is_disabled": 0, "lon": -77.01406716666666, "is_reserved": 0}, {"name": "5d4650910e57b5253390db6a6077c318", "fusion_lat": 0.0, "fusion_lon": 0.0, "bike_id": "5d4650910e57b5253390db6a6077c318", "rental_uris": {"ios": "https://dc.lft.to/lastmile_qr_scan", "android": "https://dc.lft.to/lastmile_qr_scan"}, "type": "electric_scooter", "lat": 38.91839066666667, "is_disabled": 0, "lon": -77.02543966666667, "is_reserved": 0}, {"name": "8ea1927663aa21641ee581b6499a0067", "fusion_lat": 0.0, "fusion_lon": 0.0, "bike_id": "8ea1927663aa21641ee581b6499a0067", "rental_uris": {"ios": "https://dc.lft.to/lastmile_qr_scan", "android": "https://dc.lft.to/lastmile_qr_scan"}, "type": "electric_scooter", "lat": 38.87694966666667, "is_disabled": 0, "lon": -77.0178525, "is_reserved": 0}, {"name": "80352eba7d62c76adf829343ca302a97", "fusion_lat": 0.0, "fusion_lon": 0.0, "bike_id": "80352eba7d62c76adf829343ca302a97", "rental_uris": {"ios": "https://dc.lft.to/lastmile_qr_scan", "android": "https://dc.lft.to/lastmile_qr_scan"}, "type": "electric_scooter", "lat": 38.91833366666667, "is_disabled": 0, "lon": -76.96554316666666, "is_reserved": 0}, {"name": "3c7b08579bcf083e9bb0a29d40291cc1", "fusion_lat": 0.0, "fusion_lon": 0.0, "bike_id": "3c7b08579bcf083e9bb0a29d40291cc1", "rental_uris": {"ios": "https://dc.lft.to/lastmile_qr_scan", "android": "https://dc.lft.to/lastmile_qr_scan"}, "type": "electric_scooter", "lat": 38.901101, "is_disabled": 0, "lon": -77.03057116666666, "is_reserved": 0}, {"name": "31b5386aafa80051966654c3d7aa5b58", "fusion_lat": 0.0, "fusion_lon": 0.0, "bike_id": "31b5386aafa80051966654c3d7aa5b58", "rental_uris": {"ios": "https://dc.lft.to/lastmile_qr_scan", "android": "https://dc.lft.to/lastmile_qr_scan"}, "type": "electric_scooter", "lat": 38.8615485, "is_disabled": 0, "lon": -76.9857745, "is_reserved": 0}, {"name": "affdc9048d28ed244974236b76b83fea", "fusion_lat": 0.0, "fusion_lon": 0.0, "bike_id": "affdc9048d28ed244974236b76b83fea", "rental_uris": {"ios": "https://dc.lft.to/lastmile_qr_scan", "android": "https://dc.lft.to/lastmile_qr_scan"}, "type": "electric_scooter", "lat": 38.93023066666667, "is_disabled": 0, "lon": -77.03804, "is_reserved": 0}, {"name": "055fc529e06f0be668282d066c8cdf90", "fusion_lat": 0.0, "fusion_lon": 0.0, "bike_id": "055fc529e06f0be668282d066c8cdf90", "rental_uris": {"ios": "https://dc.lft.to/lastmile_qr_scan", "android": "https://dc.lft.to/lastmile_qr_scan"}, "type": "electric_scooter", "lat": 38.893919833333335, "is_disabled": 0, "lon": -76.94998783333334, "is_reserved": 0}, {"name": "4d4ebb9572d5ed900efd38c64bc9b763", "fusion_lat": 0.0, "fusion_lon": 0.0, "bike_id": "4d4ebb9572d5ed900efd38c64bc9b763", "rental_uris": {"ios": "https://dc.lft.to/lastmile_qr_scan", "android": "https://dc.lft.to/lastmile_qr_scan"}, "type": "electric_scooter", "lat": 38.9051855, "is_disabled": 0, "lon": -77.05054683333333, "is_reserved": 0}, {"name": "bea336f17fa391c1fe08ba49197ab0c0", "fusion_lat": 0.0, "fusion_lon": 0.0, "bike_id": "bea336f17fa391c1fe08ba49197ab0c0", "rental_uris": {"ios": "https://dc.lft.to/lastmile_qr_scan", "android": "https://dc.lft.to/lastmile_qr_scan"}, "type": "electric_scooter", "lat": 38.918365333333334, "is_disabled": 0, "lon": -77.04167983333333, "is_reserved": 0}, {"name": "3e65c9f033af797e2bd2b534a19a5d34", "fusion_lat": 0.0, "fusion_lon": 0.0, "bike_id": "3e65c9f033af797e2bd2b534a19a5d34", "rental_uris": {"ios": "https://dc.lft.to/lastmile_qr_scan", "android": "https://dc.lft.to/lastmile_qr_scan"}, "type": "electric_bike", "lat": 38.85437316666667, "is_disabled": 0, "lon": -76.9096675, "is_reserved": 0}, {"name": "43de46b47bbc7f6c7be84b3d8060fb2f", "fusion_lat": 0.0, "fusion_lon": 0.0, "bike_id": "43de46b47bbc7f6c7be84b3d8060fb2f", "rental_uris": {"ios": "https://dc.lft.to/lastmile_qr_scan", "android": "https://dc.lft.to/lastmile_qr_scan"}, "type": "electric_scooter", "lat": 38.890152, "is_disabled": 0, "lon": -76.93743033333334, "is_reserved": 0}, {"name": "33f6ba4a0d79329b3a7315eaf22cfc9d", "fusion_lat": 0.0, "fusion_lon": 0.0, "bike_id": "33f6ba4a0d79329b3a7315eaf22cfc9d", "rental_uris": {"ios": "https://dc.lft.to/lastmile_qr_scan", "android": "https://dc.lft.to/lastmile_qr_scan"}, "type": "electric_scooter", "lat": 38.899818333333336, "is_disabled": 0, "lon": -77.04190166666666, "is_reserved": 0}, {"name": "5d4e97cb7ca9780cabb2bffbc9d40c1a", "fusion_lat": 0.0, "fusion_lon": 0.0, "bike_id": "5d4e97cb7ca9780cabb2bffbc9d40c1a", "rental_uris": {"ios": "https://dc.lft.to/lastmile_qr_scan", "android": "https://dc.lft.to/lastmile_qr_scan"}, "type": "electric_scooter", "lat": 38.907013666666664, "is_disabled": 0, "lon": -77.04397233333333, "is_reserved": 0}, {"name": "e28c985dcb2c2ba06e2c761900a35ab6", "fusion_lat": 0.0, "fusion_lon": 0.0, "bike_id": "e28c985dcb2c2ba06e2c761900a35ab6", "rental_uris": {"ios": "https://dc.lft.to/lastmile_qr_scan", "android": "https://dc.lft.to/lastmile_qr_scan"}, "type": "electric_scooter", "lat": 38.8801815, "is_disabled": 0, "lon": -76.93116433333333, "is_reserved": 0}, {"name": "3184940e51ac9fec611bd4f4a5bbc090", "fusion_lat": 0.0, "fusion_lon": 0.0, "bike_id": "3184940e51ac9fec611bd4f4a5bbc090", "rental_uris": {"ios": "https://dc.lft.to/lastmile_qr_scan", "android": "https://dc.lft.to/lastmile_qr_scan"}, "type": "electric_scooter", "lat": 38.939034666666664, "is_disabled": 0, "lon": -77.02471133333333, "is_reserved": 0}, {"name": "cf739a90cf3435a12f9030d9a953c76a", "fusion_lat": 0.0, "fusion_lon": 0.0, "bike_id": "cf739a90cf3435a12f9030d9a953c76a", "rental_uris": {"ios": "https://dc.lft.to/lastmile_qr_scan", "android": "https://dc.lft.to/lastmile_qr_scan"}, "type": "electric_scooter", "lat": 38.90352816666667, "is_disabled": 0, "lon": -77.0319685, "is_reserved": 0}, {"name": "7cb51b9d78e073a30dc72dccf2c67f63", "fusion_lat": 0.0, "fusion_lon": 0.0, "bike_id": "7cb51b9d78e073a30dc72dccf2c67f63", "rental_uris": {"ios": "https://dc.lft.to/lastmile_qr_scan", "android": "https://dc.lft.to/lastmile_qr_scan"}, "type": "electric_scooter", "lat": 38.86249816666667, "is_disabled": 0, "lon": -76.99530683333333, "is_reserved": 0}, {"name": "3c7b1d9011c8725d8efbefb52580c868", "fusion_lat": 0.0, "fusion_lon": 0.0, "bike_id": "3c7b1d9011c8725d8efbefb52580c868", "rental_uris": {"ios": "https://dc.lft.to/lastmile_qr_scan", "android": "https://dc.lft.to/lastmile_qr_scan"}, "type": "electric_scooter", "lat": 38.92181, "is_disabled": 0, "lon": -77.04233583333334, "is_reserved": 0}, {"name": "eff8e9ba6d32643710e51475765c6830", "fusion_lat": 0.0, "fusion_lon": 0.0, "bike_id": "eff8e9ba6d32643710e51475765c6830", "rental_uris": {"ios": "https://dc.lft.to/lastmile_qr_scan", "android": "https://dc.lft.to/lastmile_qr_scan"}, "type": "electric_bike", "lat": 38.988301666666665, "is_disabled": 0, "lon": -76.98754683333334, "is_reserved": 0}, {"name": "a659102f7bd6e9a4cec1e3d9caf5d8f6", "fusion_lat": 0.0, "fusion_lon": 0.0, "bike_id": "a659102f7bd6e9a4cec1e3d9caf5d8f6", "rental_uris": {"ios": "https://dc.lft.to/lastmile_qr_scan", "android": "https://dc.lft.to/lastmile_qr_scan"}, "type": "electric_scooter", "lat": 38.89512333333333, "is_disabled": 0, "lon": -77.028374, "is_reserved": 0}, {"name": "e6aab3f0b5264035a568286cb5901209", "fusion_lat": 0.0, "fusion_lon": 0.0, "bike_id": "e6aab3f0b5264035a568286cb5901209", "rental_uris": {"ios": "https://dc.lft.to/lastmile_qr_scan", "android": "https://dc.lft.to/lastmile_qr_scan"}, "type": "electric_scooter", "lat": 38.853258, "is_disabled": 0, "lon": -76.96579466666667, "is_reserved": 0}, {"name": "1b33e0e490abbe5a49bf6e93922e1dde", "fusion_lat": 0.0, "fusion_lon": 0.0, "bike_id": "1b33e0e490abbe5a49bf6e93922e1dde", "rental_uris": {"ios": "https://dc.lft.to/lastmile_qr_scan", "android": "https://dc.lft.to/lastmile_qr_scan"}, "type": "electric_scooter", "lat": 38.9036395, "is_disabled": 0, "lon": -77.0193995, "is_reserved": 0}, {"name": "769d27ca4e63d0f8a4508849a8610922", "fusion_lat": 0.0, "fusion_lon": 0.0, "bike_id": "769d27ca4e63d0f8a4508849a8610922", "rental_uris": {"ios": "https://dc.lft.to/lastmile_qr_scan", "android": "https://dc.lft.to/lastmile_qr_scan"}, "type": "electric_scooter", "lat": 38.900058666666666, "is_disabled": 0, "lon": -77.011901, "is_reserved": 0}, {"name": "e2577c8caa2c2c2759b79e3b8f05b0bd", "fusion_lat": 0.0, "fusion_lon": 0.0, "bike_id": "e2577c8caa2c2c2759b79e3b8f05b0bd", "rental_uris": {"ios": "https://dc.lft.to/lastmile_qr_scan", "android": "https://dc.lft.to/lastmile_qr_scan"}, "type": "electric_scooter", "lat": 38.905171333333335, "is_disabled": 0, "lon": -77.01710966666667, "is_reserved": 0}, {"name": "9f2256d97ecefc82b7da20746c4397ec", "fusion_lat": 0.0, "fusion_lon": 0.0, "bike_id": "9f2256d97ecefc82b7da20746c4397ec", "rental_uris": {"ios": "https://dc.lft.to/lastmile_qr_scan", "android": "https://dc.lft.to/lastmile_qr_scan"}, "type": "electric_scooter", "lat": 38.918164833333336, "is_disabled": 0, "lon": -77.04179316666666, "is_reserved": 0}, {"name": "988934fc0b084ca3fa90c943de65354a", "fusion_lat": 0.0, "fusion_lon": 0.0, "bike_id": "988934fc0b084ca3fa90c943de65354a", "rental_uris": {"ios": "https://dc.lft.to/lastmile_qr_scan", "android": "https://dc.lft.to/lastmile_qr_scan"}, "type": "electric_scooter", "lat": 38.93317833333333, "is_disabled": 0, "lon": -77.03276366666667, "is_reserved": 0}, {"name": "32678969b74bd83b4700c288681f7f9b", "fusion_lat": 0.0, "fusion_lon": 0.0, "bike_id": "32678969b74bd83b4700c288681f7f9b", "rental_uris": {"ios": "https://dc.lft.to/lastmile_qr_scan", "android": "https://dc.lft.to/lastmile_qr_scan"}, "type": "electric_scooter", "lat": 38.914347, "is_disabled": 0, "lon": -77.03206233333333, "is_reserved": 0}, {"name": "0567c65bc6b80f94457dac63e1208732", "fusion_lat": 0.0, "fusion_lon": 0.0, "bike_id": "0567c65bc6b80f94457dac63e1208732", "rental_uris": {"ios": "https://dc.lft.to/lastmile_qr_scan", "android": "https://dc.lft.to/lastmile_qr_scan"}, "type": "electric_scooter", "lat": 38.876022166666665, "is_disabled": 0, "lon": -77.00567433333333, "is_reserved": 0}, {"name": "73f4272dc23cf5e31c7c0ac13f9cc20d", "fusion_lat": 0.0, "fusion_lon": 0.0, "bike_id": "73f4272dc23cf5e31c7c0ac13f9cc20d", "rental_uris": {"ios": "https://dc.lft.to/lastmile_qr_scan", "android": "https://dc.lft.to/lastmile_qr_scan"}, "type": "electric_scooter", "lat": 38.915705, "is_disabled": 0, "lon": -77.0469745, "is_reserved": 0}, {"name": "3dc3f45258eff759774a6491ac0e3ced", "fusion_lat": 0.0, "fusion_lon": 0.0, "bike_id": "3dc3f45258eff759774a6491ac0e3ced", "rental_uris": {"ios": "https://dc.lft.to/lastmile_qr_scan", "android": "https://dc.lft.to/lastmile_qr_scan"}, "type": "electric_scooter", "lat": 38.91904183333333, "is_disabled": 0, "lon": -77.01773833333333, "is_reserved": 0}, {"name": "10864dc9a64c5915fa908ac8f188f892", "fusion_lat": 0.0, "fusion_lon": 0.0, "bike_id": "10864dc9a64c5915fa908ac8f188f892", "rental_uris": {"ios": "https://dc.lft.to/lastmile_qr_scan", "android": "https://dc.lft.to/lastmile_qr_scan"}, "type": "electric_scooter", "lat": 38.937189000000004, "is_disabled": 0, "lon": -77.02431883333334, "is_reserved": 0}, {"name": "0ab0519a5c3036b173611a6012477edc", "fusion_lat": 0.0, "fusion_lon": 0.0, "bike_id": "0ab0519a5c3036b173611a6012477edc", "rental_uris": {"ios": "https://dc.lft.to/lastmile_qr_scan", "android": "https://dc.lft.to/lastmile_qr_scan"}, "type": "electric_scooter", "lat": 38.87593533333333, "is_disabled": 0, "lon": -77.00582083333333, "is_reserved": 0}, {"name": "2e128724514387e63d59cb807e7c4c53", "fusion_lat": 0.0, "fusion_lon": 0.0, "bike_id": "2e128724514387e63d59cb807e7c4c53", "rental_uris": {"ios": "https://dc.lft.to/lastmile_qr_scan", "android": "https://dc.lft.to/lastmile_qr_scan"}, "type": "electric_scooter", "lat": 38.918153833333335, "is_disabled": 0, "lon": -77.02665416666666, "is_reserved": 0}, {"name": "cc58bd58f81edddae61caa4c70f9339a", "fusion_lat": 0.0, "fusion_lon": 0.0, "bike_id": "cc58bd58f81edddae61caa4c70f9339a", "rental_uris": {"ios": "https://dc.lft.to/lastmile_qr_scan", "android": "https://dc.lft.to/lastmile_qr_scan"}, "type": "electric_scooter", "lat": 38.931340166666665, "is_disabled": 0, "lon": -77.02363783333334, "is_reserved": 0}, {"name": "398ed95596e375b431f40590506f4f2b", "fusion_lat": 0.0, "fusion_lon": 0.0, "bike_id": "398ed95596e375b431f40590506f4f2b", "rental_uris": {"ios": "https://dc.lft.to/lastmile_qr_scan", "android": "https://dc.lft.to/lastmile_qr_scan"}, "type": "electric_scooter", "lat": 38.919883, "is_disabled": 0, "lon": -77.03312166666667, "is_reserved": 0}, {"name": "21bb4fd1bdef6e62e8195b265595045b", "fusion_lat": 0.0, "fusion_lon": 0.0, "bike_id": "21bb4fd1bdef6e62e8195b265595045b", "rental_uris": {"ios": "https://dc.lft.to/lastmile_qr_scan", "android": "https://dc.lft.to/lastmile_qr_scan"}, "type": "electric_scooter", "lat": 38.9112145, "is_disabled": 0, "lon": -77.0223465, "is_reserved": 0}, {"name": "10c743a71817930fec7b9e43e76058eb", "fusion_lat": 0.0, "fusion_lon": 0.0, "bike_id": "10c743a71817930fec7b9e43e76058eb", "rental_uris": {"ios": "https://dc.lft.to/lastmile_qr_scan", "android": "https://dc.lft.to/lastmile_qr_scan"}, "type": "electric_bike", "lat": 39.000012166666664, "is_disabled": 0, "lon": -76.9180825, "is_reserved": 0}, {"name": "022cf2ac3bfa222a4b7644744dae1e75", "fusion_lat": 0.0, "fusion_lon": 0.0, "bike_id": "022cf2ac3bfa222a4b7644744dae1e75", "rental_uris": {"ios": "https://dc.lft.to/lastmile_qr_scan", "android": "https://dc.lft.to/lastmile_qr_scan"}, "type": "electric_scooter", "lat": 38.88747933333333, "is_disabled": 0, "lon": -77.02126816666667, "is_reserved": 0}, {"name": "0dff95e0a3ee6c568c545ff66fde13a9", "fusion_lat": 0.0, "fusion_lon": 0.0, "bike_id": "0dff95e0a3ee6c568c545ff66fde13a9", "rental_uris": {"ios": "https://dc.lft.to/lastmile_qr_scan", "android": "https://dc.lft.to/lastmile_qr_scan"}, "type": "electric_scooter", "lat": 38.904142, "is_disabled": 0, "lon": -76.99060066666667, "is_reserved": 0}, {"name": "52e183e11917c83f5ff8ea0694f9d82e", "fusion_lat": 0.0, "fusion_lon": 0.0, "bike_id": "52e183e11917c83f5ff8ea0694f9d82e", "rental_uris": {"ios": "https://dc.lft.to/lastmile_qr_scan", "android": "https://dc.lft.to/lastmile_qr_scan"}, "type": "electric_scooter", "lat": 38.921860833333334, "is_disabled": 0, "lon": -76.99700166666666, "is_reserved": 0}, {"name": "23f70390d85b957400fffcebde16f479", "fusion_lat": 0.0, "fusion_lon": 0.0, "bike_id": "23f70390d85b957400fffcebde16f479", "rental_uris": {"ios": "https://dc.lft.to/lastmile_qr_scan", "android": "https://dc.lft.to/lastmile_qr_scan"}, "type": "electric_scooter", "lat": 38.89859783333333, "is_disabled": 0, "lon": -77.01622216666667, "is_reserved": 0}, {"name": "520ab39261cbf96a93ca074ec15503c3", "fusion_lat": 0.0, "fusion_lon": 0.0, "bike_id": "520ab39261cbf96a93ca074ec15503c3", "rental_uris": {"ios": "https://dc.lft.to/lastmile_qr_scan", "android": "https://dc.lft.to/lastmile_qr_scan"}, "type": "electric_scooter", "lat": 38.9158375, "is_disabled": 0, "lon": -77.046754, "is_reserved": 0}, {"name": "9022d4d3c86c8437a5a657c1edc365c8", "fusion_lat": 0.0, "fusion_lon": 0.0, "bike_id": "9022d4d3c86c8437a5a657c1edc365c8", "rental_uris": {"ios": "https://dc.lft.to/lastmile_qr_scan", "android": "https://dc.lft.to/lastmile_qr_scan"}, "type": "electric_scooter", "lat": 38.92463166666667, "is_disabled": 0, "lon": -76.99735183333334, "is_reserved": 0}, {"name": "16b7816e1980b5219fc12d7752ef7f38", "fusion_lat": 0.0, "fusion_lon": 0.0, "bike_id": "16b7816e1980b5219fc12d7752ef7f38", "rental_uris": {"ios": "https://dc.lft.to/lastmile_qr_scan", "android": "https://dc.lft.to/lastmile_qr_scan"}, "type": "electric_scooter", "lat": 38.939066833333335, "is_disabled": 0, "lon": -77.02471183333333, "is_reserved": 0}, {"name": "6afc006e03e84bbac2afba59b6c27fa0", "fusion_lat": 0.0, "fusion_lon": 0.0, "bike_id": "6afc006e03e84bbac2afba59b6c27fa0", "rental_uris": {"ios": "https://dc.lft.to/lastmile_qr_scan", "android": "https://dc.lft.to/lastmile_qr_scan"}, "type": "electric_scooter", "lat": 38.90131266666667, "is_disabled": 0, "lon": -77.0439425, "is_reserved": 0}, {"name": "8f840ebb16df642a798fc2b020ddd4de", "fusion_lat": 0.0, "fusion_lon": 0.0, "bike_id": "8f840ebb16df642a798fc2b020ddd4de", "rental_uris": {"ios": "https://dc.lft.to/lastmile_qr_scan", "android": "https://dc.lft.to/lastmile_qr_scan"}, "type": "electric_bike", "lat": 38.94999466666667, "is_disabled": 0, "lon": -77.3530985, "is_reserved": 0}, {"name": "4fe06e9d5c68830463adc573f34ee73e", "fusion_lat": 0.0, "fusion_lon": 0.0, "bike_id": "4fe06e9d5c68830463adc573f34ee73e", "rental_uris": {"ios": "https://dc.lft.to/lastmile_qr_scan", "android": "https://dc.lft.to/lastmile_qr_scan"}, "type": "electric_scooter", "lat": 38.91216766666667, "is_disabled": 0, "lon": -77.03859333333334, "is_reserved": 0}, {"name": "fc1127df69a3385e3db9139ba691e61b", "fusion_lat": 0.0, "fusion_lon": 0.0, "bike_id": "fc1127df69a3385e3db9139ba691e61b", "rental_uris": {"ios": "https://dc.lft.to/lastmile_qr_scan", "android": "https://dc.lft.to/lastmile_qr_scan"}, "type": "electric_scooter", "lat": 38.892391333333336, "is_disabled": 0, "lon": -77.02574983333334, "is_reserved": 0}, {"name": "16e0f6bf04a52ecb3c6e01e495f3fa91", "fusion_lat": 0.0, "fusion_lon": 0.0, "bike_id": "16e0f6bf04a52ecb3c6e01e495f3fa91", "rental_uris": {"ios": "https://dc.lft.to/lastmile_qr_scan", "android": "https://dc.lft.to/lastmile_qr_scan"}, "type": "electric_scooter", "lat": 38.908475333333335, "is_disabled": 0, "lon": -77.02388183333333, "is_reserved": 0}, {"name": "e4d03d230cc29a30ad8350fb4e3e8857", "fusion_lat": 0.0, "fusion_lon": 0.0, "bike_id": "e4d03d230cc29a30ad8350fb4e3e8857", "rental_uris": {"ios": "https://dc.lft.to/lastmile_qr_scan", "android": "https://dc.lft.to/lastmile_qr_scan"}, "type": "electric_scooter", "lat": 38.9019915, "is_disabled": 0, "lon": -77.0548255, "is_reserved": 0}, {"name": "fa44a849e20c7e2c1bcec667895a6342", "fusion_lat": 0.0, "fusion_lon": 0.0, "bike_id": "fa44a849e20c7e2c1bcec667895a6342", "rental_uris": {"ios": "https://dc.lft.to/lastmile_qr_scan", "android": "https://dc.lft.to/lastmile_qr_scan"}, "type": "electric_scooter", "lat": 38.86355066666667, "is_disabled": 0, "lon": -76.99056733333333, "is_reserved": 0}, {"name": "f2630b7558218d59484c809f6bed4eea", "fusion_lat": 0.0, "fusion_lon": 0.0, "bike_id": "f2630b7558218d59484c809f6bed4eea", "rental_uris": {"ios": "https://dc.lft.to/lastmile_qr_scan", "android": "https://dc.lft.to/lastmile_qr_scan"}, "type": "electric_scooter", "lat": 38.9228485, "is_disabled": 0, "lon": -77.0446585, "is_reserved": 0}, {"name": "5d95ee60630a64f7dbfe124590f3fe46", "fusion_lat": 0.0, "fusion_lon": 0.0, "bike_id": "5d95ee60630a64f7dbfe124590f3fe46", "rental_uris": {"ios": "https://dc.lft.to/lastmile_qr_scan", "android": "https://dc.lft.to/lastmile_qr_scan"}, "type": "electric_bike", "lat": 38.82439333333333, "is_disabled": 0, "lon": -77.07050933333333, "is_reserved": 0}, {"name": "617f8a1fcbb484f9dcfa8a9ce7cb7acc", "fusion_lat": 0.0, "fusion_lon": 0.0, "bike_id": "617f8a1fcbb484f9dcfa8a9ce7cb7acc", "rental_uris": {"ios": "https://dc.lft.to/lastmile_qr_scan", "android": "https://dc.lft.to/lastmile_qr_scan"}, "type": "electric_scooter", "lat": 38.925832166666666, "is_disabled": 0, "lon": -77.03059316666666, "is_reserved": 0}, {"name": "f651ccb17e3ffc12d00a321c77336504", "fusion_lat": 0.0, "fusion_lon": 0.0, "bike_id": "f651ccb17e3ffc12d00a321c77336504", "rental_uris": {"ios": "https://dc.lft.to/lastmile_qr_scan", "android": "https://dc.lft.to/lastmile_qr_scan"}, "type": "electric_scooter", "lat": 38.922533333333334, "is_disabled": 0, "lon": -77.04211266666667, "is_reserved": 0}, {"name": "b77174e8daad7a48772badbebf69186e", "fusion_lat": 0.0, "fusion_lon": 0.0, "bike_id": "b77174e8daad7a48772badbebf69186e", "rental_uris": {"ios": "https://dc.lft.to/lastmile_qr_scan", "android": "https://dc.lft.to/lastmile_qr_scan"}, "type": "electric_bike", "lat": 38.86526116666667, "is_disabled": 0, "lon": -77.12816166666667, "is_reserved": 0}, {"name": "047461bd4cea38353c48a0d42dcb94b5", "fusion_lat": 0.0, "fusion_lon": 0.0, "bike_id": "047461bd4cea38353c48a0d42dcb94b5", "rental_uris": {"ios": "https://dc.lft.to/lastmile_qr_scan", "android": "https://dc.lft.to/lastmile_qr_scan"}, "type": "electric_scooter", "lat": 38.89207066666667, "is_disabled": 0, "lon": -76.98806333333333, "is_reserved": 0}, {"name": "a4d56e38d59fc62f7111b7ebc11c1413", "fusion_lat": 0.0, "fusion_lon": 0.0, "bike_id": "a4d56e38d59fc62f7111b7ebc11c1413", "rental_uris": {"ios": "https://dc.lft.to/lastmile_qr_scan", "android": "https://dc.lft.to/lastmile_qr_scan"}, "type": "electric_scooter", "lat": 38.89816066666667, "is_disabled": 0, "lon": -77.04357966666667, "is_reserved": 0}, {"name": "04a8924406ce9a328c6be4384a069486", "fusion_lat": 0.0, "fusion_lon": 0.0, "bike_id": "04a8924406ce9a328c6be4384a069486", "rental_uris": {"ios": "https://dc.lft.to/lastmile_qr_scan", "android": "https://dc.lft.to/lastmile_qr_scan"}, "type": "electric_scooter", "lat": 38.90623033333333, "is_disabled": 0, "lon": -77.041686, "is_reserved": 0}, {"name": "ec0a16b9c0165ebd1ed6e7144817e2fe", "fusion_lat": 0.0, "fusion_lon": 0.0, "bike_id": "ec0a16b9c0165ebd1ed6e7144817e2fe", "rental_uris": {"ios": "https://dc.lft.to/lastmile_qr_scan", "android": "https://dc.lft.to/lastmile_qr_scan"}, "type": "electric_scooter", "lat": 38.86676383333333, "is_disabled": 0, "lon": -76.98887966666666, "is_reserved": 0}, {"name": "790bbd61e02978a7dea9b526768b7b5d", "fusion_lat": 0.0, "fusion_lon": 0.0, "bike_id": "790bbd61e02978a7dea9b526768b7b5d", "rental_uris": {"ios": "https://dc.lft.to/lastmile_qr_scan", "android": "https://dc.lft.to/lastmile_qr_scan"}, "type": "electric_scooter", "lat": 38.884141666666665, "is_disabled": 0, "lon": -76.95416716666666, "is_reserved": 0}, {"name": "f0af46fc9a0c8235f521cbab33114a9f", "fusion_lat": 0.0, "fusion_lon": 0.0, "bike_id": "f0af46fc9a0c8235f521cbab33114a9f", "rental_uris": {"ios": "https://dc.lft.to/lastmile_qr_scan", "android": "https://dc.lft.to/lastmile_qr_scan"}, "type": "electric_scooter", "lat": 38.865081, "is_disabled": 0, "lon": -76.99006166666666, "is_reserved": 0}, {"name": "b541ab4508b2a37093acdebbc8b7e887", "fusion_lat": 0.0, "fusion_lon": 0.0, "bike_id": "b541ab4508b2a37093acdebbc8b7e887", "rental_uris": {"ios": "https://dc.lft.to/lastmile_qr_scan", "android": "https://dc.lft.to/lastmile_qr_scan"}, "type": "electric_scooter", "lat": 38.91480216666667, "is_disabled": 0, "lon": -77.0347195, "is_reserved": 0}, {"name": "b21bc07ea3b7f3dfaf89bcdbbb88465f", "fusion_lat": 0.0, "fusion_lon": 0.0, "bike_id": "b21bc07ea3b7f3dfaf89bcdbbb88465f", "rental_uris": {"ios": "https://dc.lft.to/lastmile_qr_scan", "android": "https://dc.lft.to/lastmile_qr_scan"}, "type": "electric_bike", "lat": 39.08843916666667, "is_disabled": 0, "lon": -77.1779885, "is_reserved": 0}, {"name": "cfcd9d697e503b1931ec61b5e9c566fb", "fusion_lat": 0.0, "fusion_lon": 0.0, "bike_id": "cfcd9d697e503b1931ec61b5e9c566fb", "rental_uris": {"ios": "https://dc.lft.to/lastmile_qr_scan", "android": "https://dc.lft.to/lastmile_qr_scan"}, "type": "electric_scooter", "lat": 38.9104905, "is_disabled": 0, "lon": -77.01511483333333, "is_reserved": 0}, {"name": "99a15576f7e2774b9fc0639c6cd1541f", "fusion_lat": 0.0, "fusion_lon": 0.0, "bike_id": "99a15576f7e2774b9fc0639c6cd1541f", "rental_uris": {"ios": "https://dc.lft.to/lastmile_qr_scan", "android": "https://dc.lft.to/lastmile_qr_scan"}, "type": "electric_scooter", "lat": 38.913360833333336, "is_disabled": 0, "lon": -77.03264116666666, "is_reserved": 0}, {"name": "c965066f453e6e0ac35219f2d2d7b3ca", "fusion_lat": 0.0, "fusion_lon": 0.0, "bike_id": "c965066f453e6e0ac35219f2d2d7b3ca", "rental_uris": {"ios": "https://dc.lft.to/lastmile_qr_scan", "android": "https://dc.lft.to/lastmile_qr_scan"}, "type": "electric_scooter", "lat": 38.917993, "is_disabled": 0, "lon": -77.03450116666667, "is_reserved": 0}, {"name": "49821c96e82b40ca527d0acb5626adc8", "fusion_lat": 0.0, "fusion_lon": 0.0, "bike_id": "49821c96e82b40ca527d0acb5626adc8", "rental_uris": {"ios": "https://dc.lft.to/lastmile_qr_scan", "android": "https://dc.lft.to/lastmile_qr_scan"}, "type": "electric_scooter", "lat": 38.931907833333334, "is_disabled": 0, "lon": -77.02831666666667, "is_reserved": 0}, {"name": "ea0caf29bea47fba608f3a27587c05d1", "fusion_lat": 0.0, "fusion_lon": 0.0, "bike_id": "ea0caf29bea47fba608f3a27587c05d1", "rental_uris": {"ios": "https://dc.lft.to/lastmile_qr_scan", "android": "https://dc.lft.to/lastmile_qr_scan"}, "type": "electric_scooter", "lat": 38.897837833333334, "is_disabled": 0, "lon": -77.05103416666667, "is_reserved": 0}, {"name": "fe3c545103c85d2d8193798e93bccc72", "fusion_lat": 0.0, "fusion_lon": 0.0, "bike_id": "fe3c545103c85d2d8193798e93bccc72", "rental_uris": {"ios": "https://dc.lft.to/lastmile_qr_scan", "android": "https://dc.lft.to/lastmile_qr_scan"}, "type": "electric_scooter", "lat": 38.916912333333336, "is_disabled": 0, "lon": -77.029039, "is_reserved": 0}, {"name": "c0b8c733fc46f7e4fdf07d5f1b145ed9", "fusion_lat": 0.0, "fusion_lon": 0.0, "bike_id": "c0b8c733fc46f7e4fdf07d5f1b145ed9", "rental_uris": {"ios": "https://dc.lft.to/lastmile_qr_scan", "android": "https://dc.lft.to/lastmile_qr_scan"}, "type": "electric_scooter", "lat": 38.92389466666667, "is_disabled": 0, "lon": -77.05160266666667, "is_reserved": 0}, {"name": "9f30b3bed8493a354d1b643f714024b8", "fusion_lat": 0.0, "fusion_lon": 0.0, "bike_id": "9f30b3bed8493a354d1b643f714024b8", "rental_uris": {"ios": "https://dc.lft.to/lastmile_qr_scan", "android": "https://dc.lft.to/lastmile_qr_scan"}, "type": "electric_scooter", "lat": 38.93699566666667, "is_disabled": 0, "lon": -77.05600383333334, "is_reserved": 0}, {"name": "d1b79dd37a49297218657d699fe86e5d", "fusion_lat": 0.0, "fusion_lon": 0.0, "bike_id": "d1b79dd37a49297218657d699fe86e5d", "rental_uris": {"ios": "https://dc.lft.to/lastmile_qr_scan", "android": "https://dc.lft.to/lastmile_qr_scan"}, "type": "electric_scooter", "lat": 38.89609733333333, "is_disabled": 0, "lon": -77.04642116666666, "is_reserved": 0}, {"name": "e8af3572353d91ad467f57727d6e4d47", "fusion_lat": 0.0, "fusion_lon": 0.0, "bike_id": "e8af3572353d91ad467f57727d6e4d47", "rental_uris": {"ios": "https://dc.lft.to/lastmile_qr_scan", "android": "https://dc.lft.to/lastmile_qr_scan"}, "type": "electric_bike", "lat": 39.024982333333334, "is_disabled": 0, "lon": -77.12572583333333, "is_reserved": 0}, {"name": "4368039d841c7510019753fc04093089", "fusion_lat": 0.0, "fusion_lon": 0.0, "bike_id": "4368039d841c7510019753fc04093089", "rental_uris": {"ios": "https://dc.lft.to/lastmile_qr_scan", "android": "https://dc.lft.to/lastmile_qr_scan"}, "type": "electric_scooter", "lat": 38.897461166666666, "is_disabled": 0, "lon": -77.00345083333333, "is_reserved": 0}, {"name": "afff03e43740cf4188e81c49e917fc4c", "fusion_lat": 0.0, "fusion_lon": 0.0, "bike_id": "afff03e43740cf4188e81c49e917fc4c", "rental_uris": {"ios": "https://dc.lft.to/lastmile_qr_scan", "android": "https://dc.lft.to/lastmile_qr_scan"}, "type": "electric_scooter", "lat": 38.890118333333334, "is_disabled": 0, "lon": -76.9383625, "is_reserved": 0}, {"name": "00240d64a2ec56ef08087e5dce6b3c7f", "fusion_lat": 0.0, "fusion_lon": 0.0, "bike_id": "00240d64a2ec56ef08087e5dce6b3c7f", "rental_uris": {"ios": "https://dc.lft.to/lastmile_qr_scan", "android": "https://dc.lft.to/lastmile_qr_scan"}, "type": "electric_scooter", "lat": 38.93090016666667, "is_disabled": 0, "lon": -77.03622816666666, "is_reserved": 0}, {"name": "7c2ac58bbfa93ae2a313f98cde6e17a9", "fusion_lat": 0.0, "fusion_lon": 0.0, "bike_id": "7c2ac58bbfa93ae2a313f98cde6e17a9", "rental_uris": {"ios": "https://dc.lft.to/lastmile_qr_scan", "android": "https://dc.lft.to/lastmile_qr_scan"}, "type": "electric_scooter", "lat": 38.918293166666665, "is_disabled": 0, "lon": -77.03226533333333, "is_reserved": 0}, {"name": "1de65cb6028d2e1af7f355aaf7675fbb", "fusion_lat": 0.0, "fusion_lon": 0.0, "bike_id": "1de65cb6028d2e1af7f355aaf7675fbb", "rental_uris": {"ios": "https://dc.lft.to/lastmile_qr_scan", "android": "https://dc.lft.to/lastmile_qr_scan"}, "type": "electric_scooter", "lat": 38.93055666666667, "is_disabled": 0, "lon": -77.02966083333334, "is_reserved": 0}, {"name": "fcc8db328c37d480395d5d28027b6d1f", "fusion_lat": 0.0, "fusion_lon": 0.0, "bike_id": "fcc8db328c37d480395d5d28027b6d1f", "rental_uris": {"ios": "https://dc.lft.to/lastmile_qr_scan", "android": "https://dc.lft.to/lastmile_qr_scan"}, "type": "electric_scooter", "lat": 38.905836, "is_disabled": 0, "lon": -77.04880966666667, "is_reserved": 0}, {"name": "2abafec9163f6c51df01f53563793aca", "fusion_lat": 0.0, "fusion_lon": 0.0, "bike_id": "2abafec9163f6c51df01f53563793aca", "rental_uris": {"ios": "https://dc.lft.to/lastmile_qr_scan", "android": "https://dc.lft.to/lastmile_qr_scan"}, "type": "electric_scooter", "lat": 38.9022165, "is_disabled": 0, "lon": -77.02121333333334, "is_reserved": 0}, {"name": "a1c5992af9bd23cd4fb445d2352e36e6", "fusion_lat": 0.0, "fusion_lon": 0.0, "bike_id": "a1c5992af9bd23cd4fb445d2352e36e6", "rental_uris": {"ios": "https://dc.lft.to/lastmile_qr_scan", "android": "https://dc.lft.to/lastmile_qr_scan"}, "type": "electric_scooter", "lat": 38.905451, "is_disabled": 0, "lon": -77.0067755, "is_reserved": 0}, {"name": "3c20a5136116f55a00f3f28a1de34550", "fusion_lat": 0.0, "fusion_lon": 0.0, "bike_id": "3c20a5136116f55a00f3f28a1de34550", "rental_uris": {"ios": "https://dc.lft.to/lastmile_qr_scan", "android": "https://dc.lft.to/lastmile_qr_scan"}, "type": "electric_scooter", "lat": 38.908773333333336, "is_disabled": 0, "lon": -77.03197133333333, "is_reserved": 0}, {"name": "196056b60a3bd1cec662a53cce2bf4f6", "fusion_lat": 0.0, "fusion_lon": 0.0, "bike_id": "196056b60a3bd1cec662a53cce2bf4f6", "rental_uris": {"ios": "https://dc.lft.to/lastmile_qr_scan", "android": "https://dc.lft.to/lastmile_qr_scan"}, "type": "electric_scooter", "lat": 38.89510416666667, "is_disabled": 0, "lon": -77.01988383333334, "is_reserved": 0}, {"name": "c3fb76095f09135a47aef36e67f7a4f7", "fusion_lat": 0.0, "fusion_lon": 0.0, "bike_id": "c3fb76095f09135a47aef36e67f7a4f7", "rental_uris": {"ios": "https://dc.lft.to/lastmile_qr_scan", "android": "https://dc.lft.to/lastmile_qr_scan"}, "type": "electric_scooter", "lat": 38.942051666666664, "is_disabled": 0, "lon": -77.01831916666667, "is_reserved": 0}, {"name": "0e12d0df92c4de947857901248f82240", "fusion_lat": 0.0, "fusion_lon": 0.0, "bike_id": "0e12d0df92c4de947857901248f82240", "rental_uris": {"ios": "https://dc.lft.to/lastmile_qr_scan", "android": "https://dc.lft.to/lastmile_qr_scan"}, "type": "electric_scooter", "lat": 38.92164666666667, "is_disabled": 0, "lon": -76.99400216666666, "is_reserved": 0}, {"name": "e5c57e12f4bab1b423f3012c09198200", "fusion_lat": 0.0, "fusion_lon": 0.0, "bike_id": "e5c57e12f4bab1b423f3012c09198200", "rental_uris": {"ios": "https://dc.lft.to/lastmile_qr_scan", "android": "https://dc.lft.to/lastmile_qr_scan"}, "type": "electric_scooter", "lat": 38.91053633333333, "is_disabled": 0, "lon": -77.04348783333333, "is_reserved": 0}, {"name": "11dda68dc3d236ffe06efd77ca2b8725", "fusion_lat": 0.0, "fusion_lon": 0.0, "bike_id": "11dda68dc3d236ffe06efd77ca2b8725", "rental_uris": {"ios": "https://dc.lft.to/lastmile_qr_scan", "android": "https://dc.lft.to/lastmile_qr_scan"}, "type": "electric_scooter", "lat": 38.8951295, "is_disabled": 0, "lon": -76.94890483333333, "is_reserved": 0}, {"name": "388c6ee0ec4a11ee2ea40f758bcb36b1", "fusion_lat": 0.0, "fusion_lon": 0.0, "bike_id": "388c6ee0ec4a11ee2ea40f758bcb36b1", "rental_uris": {"ios": "https://dc.lft.to/lastmile_qr_scan", "android": "https://dc.lft.to/lastmile_qr_scan"}, "type": "electric_scooter", "lat": 38.90241916666667, "is_disabled": 0, "lon": -77.0019895, "is_reserved": 0}, {"name": "afc388723a88db6dd6b3748b0d1b8276", "fusion_lat": 0.0, "fusion_lon": 0.0, "bike_id": "afc388723a88db6dd6b3748b0d1b8276", "rental_uris": {"ios": "https://dc.lft.to/lastmile_qr_scan", "android": "https://dc.lft.to/lastmile_qr_scan"}, "type": "electric_scooter", "lat": 38.8841445, "is_disabled": 0, "lon": -77.02567266666667, "is_reserved": 0}, {"name": "da8e3151e58278e9357970c833aba9b7", "fusion_lat": 0.0, "fusion_lon": 0.0, "bike_id": "da8e3151e58278e9357970c833aba9b7", "rental_uris": {"ios": "https://dc.lft.to/lastmile_qr_scan", "android": "https://dc.lft.to/lastmile_qr_scan"}, "type": "electric_scooter", "lat": 38.93112, "is_disabled": 0, "lon": -77.03031283333333, "is_reserved": 0}, {"name": "606dbafbef70c182e924f7f783eabb88", "fusion_lat": 0.0, "fusion_lon": 0.0, "bike_id": "606dbafbef70c182e924f7f783eabb88", "rental_uris": {"ios": "https://dc.lft.to/lastmile_qr_scan", "android": "https://dc.lft.to/lastmile_qr_scan"}, "type": "electric_scooter", "lat": 38.924671333333336, "is_disabled": 0, "lon": -77.05240916666666, "is_reserved": 0}, {"name": "36616b404eb084a412e77766bce23d07", "fusion_lat": 0.0, "fusion_lon": 0.0, "bike_id": "36616b404eb084a412e77766bce23d07", "rental_uris": {"ios": "https://dc.lft.to/lastmile_qr_scan", "android": "https://dc.lft.to/lastmile_qr_scan"}, "type": "electric_scooter", "lat": 38.90026, "is_disabled": 0, "lon": -77.02022566666666, "is_reserved": 0}, {"name": "c3d66e22a9aea91ff146ae33cfabce47", "fusion_lat": 0.0, "fusion_lon": 0.0, "bike_id": "c3d66e22a9aea91ff146ae33cfabce47", "rental_uris": {"ios": "https://dc.lft.to/lastmile_qr_scan", "android": "https://dc.lft.to/lastmile_qr_scan"}, "type": "electric_scooter", "lat": 38.88488266666667, "is_disabled": 0, "lon": -76.9295445, "is_reserved": 0}, {"name": "0c34e891783f0dc4c9d005e080bf8150", "fusion_lat": 0.0, "fusion_lon": 0.0, "bike_id": "0c34e891783f0dc4c9d005e080bf8150", "rental_uris": {"ios": "https://dc.lft.to/lastmile_qr_scan", "android": "https://dc.lft.to/lastmile_qr_scan"}, "type": "electric_scooter", "lat": 38.90756783333333, "is_disabled": 0, "lon": -77.03829916666666, "is_reserved": 0}, {"name": "edee24bb2313c725c9249e1feb1defb1", "fusion_lat": 0.0, "fusion_lon": 0.0, "bike_id": "edee24bb2313c725c9249e1feb1defb1", "rental_uris": {"ios": "https://dc.lft.to/lastmile_qr_scan", "android": "https://dc.lft.to/lastmile_qr_scan"}, "type": "electric_scooter", "lat": 38.933966166666664, "is_disabled": 0, "lon": -77.0412225, "is_reserved": 0}, {"name": "54f9ee6df4d4a4a91eb31d1e94b33ccd", "fusion_lat": 0.0, "fusion_lon": 0.0, "bike_id": "54f9ee6df4d4a4a91eb31d1e94b33ccd", "rental_uris": {"ios": "https://dc.lft.to/lastmile_qr_scan", "android": "https://dc.lft.to/lastmile_qr_scan"}, "type": "electric_scooter", "lat": 38.899401166666664, "is_disabled": 0, "lon": -77.0547355, "is_reserved": 0}, {"name": "bb2ad86f3a14884dc418ffd4bfb2a053", "fusion_lat": 0.0, "fusion_lon": 0.0, "bike_id": "bb2ad86f3a14884dc418ffd4bfb2a053", "rental_uris": {"ios": "https://dc.lft.to/lastmile_qr_scan", "android": "https://dc.lft.to/lastmile_qr_scan"}, "type": "electric_scooter", "lat": 38.91404166666667, "is_disabled": 0, "lon": -77.03230383333333, "is_reserved": 0}, {"name": "5c96c14619a3cc61cb14a77c3f15845f", "fusion_lat": 0.0, "fusion_lon": 0.0, "bike_id": "5c96c14619a3cc61cb14a77c3f15845f", "rental_uris": {"ios": "https://dc.lft.to/lastmile_qr_scan", "android": "https://dc.lft.to/lastmile_qr_scan"}, "type": "electric_scooter", "lat": 38.898345666666664, "is_disabled": 0, "lon": -76.94632033333333, "is_reserved": 0}, {"name": "0abbca2b7cbea8e2c278d968e807773e", "fusion_lat": 0.0, "fusion_lon": 0.0, "bike_id": "0abbca2b7cbea8e2c278d968e807773e", "rental_uris": {"ios": "https://dc.lft.to/lastmile_qr_scan", "android": "https://dc.lft.to/lastmile_qr_scan"}, "type": "electric_scooter", "lat": 38.8953715, "is_disabled": 0, "lon": -77.04130583333334, "is_reserved": 0}, {"name": "7ff164064ae23edb61cc1190a6799427", "fusion_lat": 0.0, "fusion_lon": 0.0, "bike_id": "7ff164064ae23edb61cc1190a6799427", "rental_uris": {"ios": "https://dc.lft.to/lastmile_qr_scan", "android": "https://dc.lft.to/lastmile_qr_scan"}, "type": "electric_scooter", "lat": 38.905581166666664, "is_disabled": 0, "lon": -77.0053455, "is_reserved": 0}, {"name": "e3a44445d39b798043363c0f1b6f2b4b", "fusion_lat": 0.0, "fusion_lon": 0.0, "bike_id": "e3a44445d39b798043363c0f1b6f2b4b", "rental_uris": {"ios": "https://dc.lft.to/lastmile_qr_scan", "android": "https://dc.lft.to/lastmile_qr_scan"}, "type": "electric_scooter", "lat": 38.90736033333334, "is_disabled": 0, "lon": -77.04538016666666, "is_reserved": 0}, {"name": "ea3441f0a0f6b7d91603238d4c542702", "fusion_lat": 0.0, "fusion_lon": 0.0, "bike_id": "ea3441f0a0f6b7d91603238d4c542702", "rental_uris": {"ios": "https://dc.lft.to/lastmile_qr_scan", "android": "https://dc.lft.to/lastmile_qr_scan"}, "type": "electric_scooter", "lat": 38.9002615, "is_disabled": 0, "lon": -76.99871016666667, "is_reserved": 0}, {"name": "62682ec0e86fd907d894a8dee7194a22", "fusion_lat": 0.0, "fusion_lon": 0.0, "bike_id": "62682ec0e86fd907d894a8dee7194a22", "rental_uris": {"ios": "https://dc.lft.to/lastmile_qr_scan", "android": "https://dc.lft.to/lastmile_qr_scan"}, "type": "electric_scooter", "lat": 38.90383416666667, "is_disabled": 0, "lon": -77.04871583333333, "is_reserved": 0}, {"name": "c5b4cc97d48bc85dcea8c6e0cc39ef6c", "fusion_lat": 0.0, "fusion_lon": 0.0, "bike_id": "c5b4cc97d48bc85dcea8c6e0cc39ef6c", "rental_uris": {"ios": "https://dc.lft.to/lastmile_qr_scan", "android": "https://dc.lft.to/lastmile_qr_scan"}, "type": "electric_scooter", "lat": 38.9165655, "is_disabled": 0, "lon": -77.04787216666666, "is_reserved": 0}, {"name": "c6d4a3a0dcffb68222d72cce95b1af5e", "fusion_lat": 0.0, "fusion_lon": 0.0, "bike_id": "c6d4a3a0dcffb68222d72cce95b1af5e", "rental_uris": {"ios": "https://dc.lft.to/lastmile_qr_scan", "android": "https://dc.lft.to/lastmile_qr_scan"}, "type": "electric_scooter", "lat": 38.90525016666667, "is_disabled": 0, "lon": -77.05002516666667, "is_reserved": 0}, {"name": "303e5d4b3c260d44029575050c4e4e65", "fusion_lat": 0.0, "fusion_lon": 0.0, "bike_id": "303e5d4b3c260d44029575050c4e4e65", "rental_uris": {"ios": "https://dc.lft.to/lastmile_qr_scan", "android": "https://dc.lft.to/lastmile_qr_scan"}, "type": "electric_scooter", "lat": 38.92479016666667, "is_disabled": 0, "lon": -77.0521785, "is_reserved": 0}, {"name": "ce7f02026e1539456adb7f8bc1423b22", "fusion_lat": 0.0, "fusion_lon": 0.0, "bike_id": "ce7f02026e1539456adb7f8bc1423b22", "rental_uris": {"ios": "https://dc.lft.to/lastmile_qr_scan", "android": "https://dc.lft.to/lastmile_qr_scan"}, "type": "electric_scooter", "lat": 38.900205666666665, "is_disabled": 0, "lon": -77.007256, "is_reserved": 0}, {"name": "45daff30f711f193d6ad5e9c2b258eff", "fusion_lat": 0.0, "fusion_lon": 0.0, "bike_id": "45daff30f711f193d6ad5e9c2b258eff", "rental_uris": {"ios": "https://dc.lft.to/lastmile_qr_scan", "android": "https://dc.lft.to/lastmile_qr_scan"}, "type": "electric_scooter", "lat": 38.8899255, "is_disabled": 0, "lon": -77.04913983333333, "is_reserved": 0}, {"name": "256fd037e75e57005aa715d9326e925c", "fusion_lat": 0.0, "fusion_lon": 0.0, "bike_id": "256fd037e75e57005aa715d9326e925c", "rental_uris": {"ios": "https://dc.lft.to/lastmile_qr_scan", "android": "https://dc.lft.to/lastmile_qr_scan"}, "type": "electric_scooter", "lat": 38.883674666666664, "is_disabled": 0, "lon": -76.99521, "is_reserved": 0}, {"name": "f03bdee5780aa3f2ecbfa265c616006a", "fusion_lat": 0.0, "fusion_lon": 0.0, "bike_id": "f03bdee5780aa3f2ecbfa265c616006a", "rental_uris": {"ios": "https://dc.lft.to/lastmile_qr_scan", "android": "https://dc.lft.to/lastmile_qr_scan"}, "type": "electric_scooter", "lat": 38.901291666666665, "is_disabled": 0, "lon": -77.01201733333333, "is_reserved": 0}, {"name": "c0f4d3730d0acecf8d33fd3b38215a00", "fusion_lat": 0.0, "fusion_lon": 0.0, "bike_id": "c0f4d3730d0acecf8d33fd3b38215a00", "rental_uris": {"ios": "https://dc.lft.to/lastmile_qr_scan", "android": "https://dc.lft.to/lastmile_qr_scan"}, "type": "electric_bike", "lat": 38.96764783333333, "is_disabled": 0, "lon": -77.091604, "is_reserved": 0}, {"name": "f6106e19fd800fcaab9972d69674bad0", "fusion_lat": 0.0, "fusion_lon": 0.0, "bike_id": "f6106e19fd800fcaab9972d69674bad0", "rental_uris": {"ios": "https://dc.lft.to/lastmile_qr_scan", "android": "https://dc.lft.to/lastmile_qr_scan"}, "type": "electric_scooter", "lat": 38.91754866666667, "is_disabled": 0, "lon": -77.04044816666666, "is_reserved": 0}, {"name": "02a6a9adf5f1e15505e1fa2e84046564", "fusion_lat": 0.0, "fusion_lon": 0.0, "bike_id": "02a6a9adf5f1e15505e1fa2e84046564", "rental_uris": {"ios": "https://dc.lft.to/lastmile_qr_scan", "android": "https://dc.lft.to/lastmile_qr_scan"}, "type": "electric_scooter", "lat": 38.89482133333333, "is_disabled": 0, "lon": -76.99517533333334, "is_reserved": 0}, {"name": "ba1c2a888d9415b40affae5415c2422e", "fusion_lat": 0.0, "fusion_lon": 0.0, "bike_id": "ba1c2a888d9415b40affae5415c2422e", "rental_uris": {"ios": "https://dc.lft.to/lastmile_qr_scan", "android": "https://dc.lft.to/lastmile_qr_scan"}, "type": "electric_scooter", "lat": 38.91773216666667, "is_disabled": 0, "lon": -77.02312233333333, "is_reserved": 0}, {"name": "79e40a033fb9304943424e06b4e5f733", "fusion_lat": 0.0, "fusion_lon": 0.0, "bike_id": "79e40a033fb9304943424e06b4e5f733", "rental_uris": {"ios": "https://dc.lft.to/lastmile_qr_scan", "android": "https://dc.lft.to/lastmile_qr_scan"}, "type": "electric_scooter", "lat": 38.89515, "is_disabled": 0, "lon": -77.02938083333333, "is_reserved": 0}, {"name": "49206c4e8297fe6c688754a682b1621f", "fusion_lat": 0.0, "fusion_lon": 0.0, "bike_id": "49206c4e8297fe6c688754a682b1621f", "rental_uris": {"ios": "https://dc.lft.to/lastmile_qr_scan", "android": "https://dc.lft.to/lastmile_qr_scan"}, "type": "electric_scooter", "lat": 38.8580845, "is_disabled": 0, "lon": -76.98655016666666, "is_reserved": 0}, {"name": "ed06df8c474ae3ab95f32367a92f2aec", "fusion_lat": 0.0, "fusion_lon": 0.0, "bike_id": "ed06df8c474ae3ab95f32367a92f2aec", "rental_uris": {"ios": "https://dc.lft.to/lastmile_qr_scan", "android": "https://dc.lft.to/lastmile_qr_scan"}, "type": "electric_scooter", "lat": 38.8929755, "is_disabled": 0, "lon": -77.0465555, "is_reserved": 0}, {"name": "4839dbe8f7dc9006a43331cb2ae3e13f", "fusion_lat": 0.0, "fusion_lon": 0.0, "bike_id": "4839dbe8f7dc9006a43331cb2ae3e13f", "rental_uris": {"ios": "https://dc.lft.to/lastmile_qr_scan", "android": "https://dc.lft.to/lastmile_qr_scan"}, "type": "electric_scooter", "lat": 38.940886666666664, "is_disabled": 0, "lon": -77.02728533333334, "is_reserved": 0}, {"name": "6974ae8f38b86578819f1904108b6af8", "fusion_lat": 0.0, "fusion_lon": 0.0, "bike_id": "6974ae8f38b86578819f1904108b6af8", "rental_uris": {"ios": "https://dc.lft.to/lastmile_qr_scan", "android": "https://dc.lft.to/lastmile_qr_scan"}, "type": "electric_bike", "lat": 38.99875, "is_disabled": 0, "lon": -77.02877533333333, "is_reserved": 0}, {"name": "af1b4f5c9fb02336cb036074ac0eae0e", "fusion_lat": 0.0, "fusion_lon": 0.0, "bike_id": "af1b4f5c9fb02336cb036074ac0eae0e", "rental_uris": {"ios": "https://dc.lft.to/lastmile_qr_scan", "android": "https://dc.lft.to/lastmile_qr_scan"}, "type": "electric_scooter", "lat": 38.91268516666667, "is_disabled": 0, "lon": -77.01695566666666, "is_reserved": 0}, {"name": "2ff9b4ca324ceb6dc6157474d368ead0", "fusion_lat": 0.0, "fusion_lon": 0.0, "bike_id": "2ff9b4ca324ceb6dc6157474d368ead0", "rental_uris": {"ios": "https://dc.lft.to/lastmile_qr_scan", "android": "https://dc.lft.to/lastmile_qr_scan"}, "type": "electric_scooter", "lat": 38.93127783333333, "is_disabled": 0, "lon": -77.03854933333334, "is_reserved": 0}, {"name": "647edb8f5878bb00be59c7769e91a5de", "fusion_lat": 0.0, "fusion_lon": 0.0, "bike_id": "647edb8f5878bb00be59c7769e91a5de", "rental_uris": {"ios": "https://dc.lft.to/lastmile_qr_scan", "android": "https://dc.lft.to/lastmile_qr_scan"}, "type": "electric_scooter", "lat": 38.90873633333333, "is_disabled": 0, "lon": -77.04045033333334, "is_reserved": 0}, {"name": "36ab02598614f6dd134d44a08c653eed", "fusion_lat": 0.0, "fusion_lon": 0.0, "bike_id": "36ab02598614f6dd134d44a08c653eed", "rental_uris": {"ios": "https://dc.lft.to/lastmile_qr_scan", "android": "https://dc.lft.to/lastmile_qr_scan"}, "type": "electric_scooter", "lat": 38.8462495, "is_disabled": 0, "lon": -76.9963155, "is_reserved": 0}, {"name": "4b4fce3333f04f3edf7a34987d1dc2bf", "fusion_lat": 0.0, "fusion_lon": 0.0, "bike_id": "4b4fce3333f04f3edf7a34987d1dc2bf", "rental_uris": {"ios": "https://dc.lft.to/lastmile_qr_scan", "android": "https://dc.lft.to/lastmile_qr_scan"}, "type": "electric_scooter", "lat": 38.897677333333334, "is_disabled": 0, "lon": -77.031284, "is_reserved": 0}, {"name": "7a60a848c70b69ea5293a8a8ed9b697a", "fusion_lat": 0.0, "fusion_lon": 0.0, "bike_id": "7a60a848c70b69ea5293a8a8ed9b697a", "rental_uris": {"ios": "https://dc.lft.to/lastmile_qr_scan", "android": "https://dc.lft.to/lastmile_qr_scan"}, "type": "electric_scooter", "lat": 38.9451905, "is_disabled": 0, "lon": -77.029824, "is_reserved": 0}, {"name": "9dc5e514d46a42aa17f718b497283dc2", "fusion_lat": 0.0, "fusion_lon": 0.0, "bike_id": "9dc5e514d46a42aa17f718b497283dc2", "rental_uris": {"ios": "https://dc.lft.to/lastmile_qr_scan", "android": "https://dc.lft.to/lastmile_qr_scan"}, "type": "electric_bike", "lat": 38.830936666666666, "is_disabled": 0, "lon": -77.04295716666667, "is_reserved": 0}, {"name": "3185fb633351b3d25b79b93b51d94b11", "fusion_lat": 0.0, "fusion_lon": 0.0, "bike_id": "3185fb633351b3d25b79b93b51d94b11", "rental_uris": {"ios": "https://dc.lft.to/lastmile_qr_scan", "android": "https://dc.lft.to/lastmile_qr_scan"}, "type": "electric_scooter", "lat": 38.9233105, "is_disabled": 0, "lon": -76.99916966666666, "is_reserved": 0}, {"name": "902efc7ada7e5bc1fe94404daddb957d", "fusion_lat": 0.0, "fusion_lon": 0.0, "bike_id": "902efc7ada7e5bc1fe94404daddb957d", "rental_uris": {"ios": "https://dc.lft.to/lastmile_qr_scan", "android": "https://dc.lft.to/lastmile_qr_scan"}, "type": "electric_scooter", "lat": 38.89938316666667, "is_disabled": 0, "lon": -77.00357283333334, "is_reserved": 0}, {"name": "06b640a7d7d4119fe8b6adafd19f7701", "fusion_lat": 0.0, "fusion_lon": 0.0, "bike_id": "06b640a7d7d4119fe8b6adafd19f7701", "rental_uris": {"ios": "https://dc.lft.to/lastmile_qr_scan", "android": "https://dc.lft.to/lastmile_qr_scan"}, "type": "electric_scooter", "lat": 38.863567333333336, "is_disabled": 0, "lon": -76.99057383333333, "is_reserved": 0}, {"name": "6f3daddd5c7564796a884ef6e23f29c9", "fusion_lat": 0.0, "fusion_lon": 0.0, "bike_id": "6f3daddd5c7564796a884ef6e23f29c9", "rental_uris": {"ios": "https://dc.lft.to/lastmile_qr_scan", "android": "https://dc.lft.to/lastmile_qr_scan"}, "type": "electric_scooter", "lat": 38.915345, "is_disabled": 0, "lon": -77.02200883333333, "is_reserved": 0}, {"name": "8f9685e6273c158eadc4457b48cc416e", "fusion_lat": 0.0, "fusion_lon": 0.0, "bike_id": "8f9685e6273c158eadc4457b48cc416e", "rental_uris": {"ios": "https://dc.lft.to/lastmile_qr_scan", "android": "https://dc.lft.to/lastmile_qr_scan"}, "type": "electric_bike", "lat": 38.917454166666666, "is_disabled": 0, "lon": -76.98987416666667, "is_reserved": 0}, {"name": "b8ba3f60cebc99b46e223cfe7c801028", "fusion_lat": 0.0, "fusion_lon": 0.0, "bike_id": "b8ba3f60cebc99b46e223cfe7c801028", "rental_uris": {"ios": "https://dc.lft.to/lastmile_qr_scan", "android": "https://dc.lft.to/lastmile_qr_scan"}, "type": "electric_bike", "lat": 39.022989333333335, "is_disabled": 0, "lon": -77.0210135, "is_reserved": 0}, {"name": "edc30175437aa0aed944283198a2d597", "fusion_lat": 0.0, "fusion_lon": 0.0, "bike_id": "edc30175437aa0aed944283198a2d597", "rental_uris": {"ios": "https://dc.lft.to/lastmile_qr_scan", "android": "https://dc.lft.to/lastmile_qr_scan"}, "type": "electric_scooter", "lat": 38.940877666666665, "is_disabled": 0, "lon": -77.027251, "is_reserved": 0}, {"name": "691365b7509337b2695415ccb469f5b9", "fusion_lat": 0.0, "fusion_lon": 0.0, "bike_id": "691365b7509337b2695415ccb469f5b9", "rental_uris": {"ios": "https://dc.lft.to/lastmile_qr_scan", "android": "https://dc.lft.to/lastmile_qr_scan"}, "type": "electric_scooter", "lat": 38.90787266666667, "is_disabled": 0, "lon": -77.0450505, "is_reserved": 0}, {"name": "bd5ab5c903f053f4fb85dc87c08535a1", "fusion_lat": 0.0, "fusion_lon": 0.0, "bike_id": "bd5ab5c903f053f4fb85dc87c08535a1", "rental_uris": {"ios": "https://dc.lft.to/lastmile_qr_scan", "android": "https://dc.lft.to/lastmile_qr_scan"}, "type": "electric_bike", "lat": 38.86372983333333, "is_disabled": 0, "lon": -77.12900283333333, "is_reserved": 0}, {"name": "042dc4d9ac354e68325c5475f12d7d7a", "fusion_lat": 0.0, "fusion_lon": 0.0, "bike_id": "042dc4d9ac354e68325c5475f12d7d7a", "rental_uris": {"ios": "https://dc.lft.to/lastmile_qr_scan", "android": "https://dc.lft.to/lastmile_qr_scan"}, "type": "electric_scooter", "lat": 38.899715, "is_disabled": 0, "lon": -76.93779716666667, "is_reserved": 0}, {"name": "5a1f1ae1885aff237feb4a1d4760d554", "fusion_lat": 0.0, "fusion_lon": 0.0, "bike_id": "5a1f1ae1885aff237feb4a1d4760d554", "rental_uris": {"ios": "https://dc.lft.to/lastmile_qr_scan", "android": "https://dc.lft.to/lastmile_qr_scan"}, "type": "electric_scooter", "lat": 38.89760916666667, "is_disabled": 0, "lon": -77.05169066666667, "is_reserved": 0}, {"name": "9966b3106f610788805731d8feab3f89", "fusion_lat": 0.0, "fusion_lon": 0.0, "bike_id": "9966b3106f610788805731d8feab3f89", "rental_uris": {"ios": "https://dc.lft.to/lastmile_qr_scan", "android": "https://dc.lft.to/lastmile_qr_scan"}, "type": "electric_scooter", "lat": 38.916709, "is_disabled": 0, "lon": -77.02325483333334, "is_reserved": 0}, {"name": "c7ffa0cd802e25f2d1c86b01244b94f4", "fusion_lat": 0.0, "fusion_lon": 0.0, "bike_id": "c7ffa0cd802e25f2d1c86b01244b94f4", "rental_uris": {"ios": "https://dc.lft.to/lastmile_qr_scan", "android": "https://dc.lft.to/lastmile_qr_scan"}, "type": "electric_scooter", "lat": 38.90332383333333, "is_disabled": 0, "lon": -77.04330316666666, "is_reserved": 0}, {"name": "47f4249ffb5fe4cf265d4cc2ffea4ee6", "fusion_lat": 0.0, "fusion_lon": 0.0, "bike_id": "47f4249ffb5fe4cf265d4cc2ffea4ee6", "rental_uris": {"ios": "https://dc.lft.to/lastmile_qr_scan", "android": "https://dc.lft.to/lastmile_qr_scan"}, "type": "electric_scooter", "lat": 38.9105645, "is_disabled": 0, "lon": -77.0435035, "is_reserved": 0}, {"name": "77d034afbda40d579ccd7cc8f0ab8ba1", "fusion_lat": 0.0, "fusion_lon": 0.0, "bike_id": "77d034afbda40d579ccd7cc8f0ab8ba1", "rental_uris": {"ios": "https://dc.lft.to/lastmile_qr_scan", "android": "https://dc.lft.to/lastmile_qr_scan"}, "type": "electric_scooter", "lat": 38.89845483333333, "is_disabled": 0, "lon": -76.9445355, "is_reserved": 0}, {"name": "5cf70f9f9e11375a7f96478bef0e3f2a", "fusion_lat": 0.0, "fusion_lon": 0.0, "bike_id": "5cf70f9f9e11375a7f96478bef0e3f2a", "rental_uris": {"ios": "https://dc.lft.to/lastmile_qr_scan", "android": "https://dc.lft.to/lastmile_qr_scan"}, "type": "electric_scooter", "lat": 38.89103216666667, "is_disabled": 0, "lon": -77.00617533333333, "is_reserved": 0}, {"name": "f80cb6e2d2d9fe18bb90ff627530fc61", "fusion_lat": 0.0, "fusion_lon": 0.0, "bike_id": "f80cb6e2d2d9fe18bb90ff627530fc61", "rental_uris": {"ios": "https://dc.lft.to/lastmile_qr_scan", "android": "https://dc.lft.to/lastmile_qr_scan"}, "type": "electric_scooter", "lat": 38.909720666666665, "is_disabled": 0, "lon": -77.04829683333334, "is_reserved": 0}, {"name": "627d956ec4e95b4856dab138323702c8", "fusion_lat": 0.0, "fusion_lon": 0.0, "bike_id": "627d956ec4e95b4856dab138323702c8", "rental_uris": {"ios": "https://dc.lft.to/lastmile_qr_scan", "android": "https://dc.lft.to/lastmile_qr_scan"}, "type": "electric_scooter", "lat": 38.91574683333333, "is_disabled": 0, "lon": -77.03850883333334, "is_reserved": 0}, {"name": "aee63ee8f16623858eec0dffc26910f6", "fusion_lat": 0.0, "fusion_lon": 0.0, "bike_id": "aee63ee8f16623858eec0dffc26910f6", "rental_uris": {"ios": "https://dc.lft.to/lastmile_qr_scan", "android": "https://dc.lft.to/lastmile_qr_scan"}, "type": "electric_bike", "lat": 38.98499616666667, "is_disabled": 0, "lon": -76.981971, "is_reserved": 0}, {"name": "f26d5307eab8b16ce039427d46235f8c", "fusion_lat": 0.0, "fusion_lon": 0.0, "bike_id": "f26d5307eab8b16ce039427d46235f8c", "rental_uris": {"ios": "https://dc.lft.to/lastmile_qr_scan", "android": "https://dc.lft.to/lastmile_qr_scan"}, "type": "electric_scooter", "lat": 38.899664333333334, "is_disabled": 0, "lon": -77.02960933333334, "is_reserved": 0}, {"name": "a5666f708360cad705b065e242b47198", "fusion_lat": 0.0, "fusion_lon": 0.0, "bike_id": "a5666f708360cad705b065e242b47198", "rental_uris": {"ios": "https://dc.lft.to/lastmile_qr_scan", "android": "https://dc.lft.to/lastmile_qr_scan"}, "type": "electric_scooter", "lat": 38.921528333333335, "is_disabled": 0, "lon": -77.04586883333333, "is_reserved": 0}, {"name": "d34c7c8608c1a6e7a59d5dbfb483d498", "fusion_lat": 0.0, "fusion_lon": 0.0, "bike_id": "d34c7c8608c1a6e7a59d5dbfb483d498", "rental_uris": {"ios": "https://dc.lft.to/lastmile_qr_scan", "android": "https://dc.lft.to/lastmile_qr_scan"}, "type": "electric_scooter", "lat": 38.902514333333336, "is_disabled": 0, "lon": -77.036609, "is_reserved": 0}, {"name": "3cfe89f39e0668648006122ff79db1df", "fusion_lat": 0.0, "fusion_lon": 0.0, "bike_id": "3cfe89f39e0668648006122ff79db1df", "rental_uris": {"ios": "https://dc.lft.to/lastmile_qr_scan", "android": "https://dc.lft.to/lastmile_qr_scan"}, "type": "electric_scooter", "lat": 38.900059666666664, "is_disabled": 0, "lon": -76.99789666666666, "is_reserved": 0}, {"name": "409547b60e65ac1777ba662368eee054", "fusion_lat": 0.0, "fusion_lon": 0.0, "bike_id": "409547b60e65ac1777ba662368eee054", "rental_uris": {"ios": "https://dc.lft.to/lastmile_qr_scan", "android": "https://dc.lft.to/lastmile_qr_scan"}, "type": "electric_bike", "lat": 38.91937083333333, "is_disabled": 0, "lon": -76.975044, "is_reserved": 0}, {"name": "acc5d06de3176286284cc226b002c8e1", "fusion_lat": 0.0, "fusion_lon": 0.0, "bike_id": "acc5d06de3176286284cc226b002c8e1", "rental_uris": {"ios": "https://dc.lft.to/lastmile_qr_scan", "android": "https://dc.lft.to/lastmile_qr_scan"}, "type": "electric_scooter", "lat": 38.889849166666664, "is_disabled": 0, "lon": -77.0033775, "is_reserved": 0}, {"name": "49e45a92a595b0b36045ac57b2734585", "fusion_lat": 0.0, "fusion_lon": 0.0, "bike_id": "49e45a92a595b0b36045ac57b2734585", "rental_uris": {"ios": "https://dc.lft.to/lastmile_qr_scan", "android": "https://dc.lft.to/lastmile_qr_scan"}, "type": "electric_scooter", "lat": 38.88518633333333, "is_disabled": 0, "lon": -76.94824816666667, "is_reserved": 0}, {"name": "030ff743e32ee3d66e39d8137510b437", "fusion_lat": 0.0, "fusion_lon": 0.0, "bike_id": "030ff743e32ee3d66e39d8137510b437", "rental_uris": {"ios": "https://dc.lft.to/lastmile_qr_scan", "android": "https://dc.lft.to/lastmile_qr_scan"}, "type": "electric_scooter", "lat": 38.926376, "is_disabled": 0, "lon": -77.0384145, "is_reserved": 0}, {"name": "c192b52e1e83c90a2da36b6b5a6f417f", "fusion_lat": 0.0, "fusion_lon": 0.0, "bike_id": "c192b52e1e83c90a2da36b6b5a6f417f", "rental_uris": {"ios": "https://dc.lft.to/lastmile_qr_scan", "android": "https://dc.lft.to/lastmile_qr_scan"}, "type": "electric_scooter", "lat": 38.91409483333333, "is_disabled": 0, "lon": -77.041759, "is_reserved": 0}, {"name": "d66e77068fcc19e17eb01ca6f29ed999", "fusion_lat": 0.0, "fusion_lon": 0.0, "bike_id": "d66e77068fcc19e17eb01ca6f29ed999", "rental_uris": {"ios": "https://dc.lft.to/lastmile_qr_scan", "android": "https://dc.lft.to/lastmile_qr_scan"}, "type": "electric_scooter", "lat": 38.899792, "is_disabled": 0, "lon": -77.0551985, "is_reserved": 0}, {"name": "aca1a57047ee9f50bff362a461baa081", "fusion_lat": 0.0, "fusion_lon": 0.0, "bike_id": "aca1a57047ee9f50bff362a461baa081", "rental_uris": {"ios": "https://dc.lft.to/lastmile_qr_scan", "android": "https://dc.lft.to/lastmile_qr_scan"}, "type": "electric_scooter", "lat": 38.9154105, "is_disabled": 0, "lon": -77.01220433333333, "is_reserved": 0}, {"name": "d86d04e413a46d3508ad7e998f7f0b26", "fusion_lat": 0.0, "fusion_lon": 0.0, "bike_id": "d86d04e413a46d3508ad7e998f7f0b26", "rental_uris": {"ios": "https://dc.lft.to/lastmile_qr_scan", "android": "https://dc.lft.to/lastmile_qr_scan"}, "type": "electric_scooter", "lat": 38.90429866666667, "is_disabled": 0, "lon": -76.97910616666667, "is_reserved": 0}, {"name": "970fd58b2ed48fb3e0342bb3455da5e3", "fusion_lat": 0.0, "fusion_lon": 0.0, "bike_id": "970fd58b2ed48fb3e0342bb3455da5e3", "rental_uris": {"ios": "https://dc.lft.to/lastmile_qr_scan", "android": "https://dc.lft.to/lastmile_qr_scan"}, "type": "electric_scooter", "lat": 38.943033166666666, "is_disabled": 0, "lon": -77.02763916666666, "is_reserved": 0}, {"name": "15fea7746be33f9fcdc23bf90e8908bb", "fusion_lat": 0.0, "fusion_lon": 0.0, "bike_id": "15fea7746be33f9fcdc23bf90e8908bb", "rental_uris": {"ios": "https://dc.lft.to/lastmile_qr_scan", "android": "https://dc.lft.to/lastmile_qr_scan"}, "type": "electric_scooter", "lat": 38.895019, "is_disabled": 0, "lon": -77.00943583333333, "is_reserved": 0}, {"name": "292a040495309d284bf3fc64976084d7", "fusion_lat": 0.0, "fusion_lon": 0.0, "bike_id": "292a040495309d284bf3fc64976084d7", "rental_uris": {"ios": "https://dc.lft.to/lastmile_qr_scan", "android": "https://dc.lft.to/lastmile_qr_scan"}, "type": "electric_scooter", "lat": 38.923806666666664, "is_disabled": 0, "lon": -77.04072083333334, "is_reserved": 0}, {"name": "3ad11fe102256450599208f3330b9d0d", "fusion_lat": 0.0, "fusion_lon": 0.0, "bike_id": "3ad11fe102256450599208f3330b9d0d", "rental_uris": {"ios": "https://dc.lft.to/lastmile_qr_scan", "android": "https://dc.lft.to/lastmile_qr_scan"}, "type": "electric_scooter", "lat": 38.919072666666665, "is_disabled": 0, "lon": -77.03382983333333, "is_reserved": 0}, {"name": "dad6c6639f42ef7dbece0c83b3ff2f3f", "fusion_lat": 0.0, "fusion_lon": 0.0, "bike_id": "dad6c6639f42ef7dbece0c83b3ff2f3f", "rental_uris": {"ios": "https://dc.lft.to/lastmile_qr_scan", "android": "https://dc.lft.to/lastmile_qr_scan"}, "type": "electric_scooter", "lat": 38.905305, "is_disabled": 0, "lon": -77.0600805, "is_reserved": 0}, {"name": "5ade3be89632e4faece35c33de1a0866", "fusion_lat": 0.0, "fusion_lon": 0.0, "bike_id": "5ade3be89632e4faece35c33de1a0866", "rental_uris": {"ios": "https://dc.lft.to/lastmile_qr_scan", "android": "https://dc.lft.to/lastmile_qr_scan"}, "type": "electric_scooter", "lat": 38.8850095, "is_disabled": 0, "lon": -77.00568166666666, "is_reserved": 0}, {"name": "5962d392861ebc42580fefa48a5131aa", "fusion_lat": 0.0, "fusion_lon": 0.0, "bike_id": "5962d392861ebc42580fefa48a5131aa", "rental_uris": {"ios": "https://dc.lft.to/lastmile_qr_scan", "android": "https://dc.lft.to/lastmile_qr_scan"}, "type": "electric_scooter", "lat": 38.92154883333333, "is_disabled": 0, "lon": -77.03456816666667, "is_reserved": 0}, {"name": "c92f8b836dcdaf8c9e869bc9f2df85ca", "fusion_lat": 0.0, "fusion_lon": 0.0, "bike_id": "c92f8b836dcdaf8c9e869bc9f2df85ca", "rental_uris": {"ios": "https://dc.lft.to/lastmile_qr_scan", "android": "https://dc.lft.to/lastmile_qr_scan"}, "type": "electric_scooter", "lat": 38.88562016666667, "is_disabled": 0, "lon": -76.99820833333334, "is_reserved": 0}, {"name": "eceb380c4cc3380b4e720ec6ea8f977c", "fusion_lat": 0.0, "fusion_lon": 0.0, "bike_id": "eceb380c4cc3380b4e720ec6ea8f977c", "rental_uris": {"ios": "https://dc.lft.to/lastmile_qr_scan", "android": "https://dc.lft.to/lastmile_qr_scan"}, "type": "electric_scooter", "lat": 38.89589133333333, "is_disabled": 0, "lon": -77.0232245, "is_reserved": 0}, {"name": "48a27a5b3ea6026f0cf0aa9ebc156105", "fusion_lat": 0.0, "fusion_lon": 0.0, "bike_id": "48a27a5b3ea6026f0cf0aa9ebc156105", "rental_uris": {"ios": "https://dc.lft.to/lastmile_qr_scan", "android": "https://dc.lft.to/lastmile_qr_scan"}, "type": "electric_scooter", "lat": 38.917326, "is_disabled": 0, "lon": -77.03211233333333, "is_reserved": 0}, {"name": "88cef727392ac3237dae6c40eebcb4fd", "fusion_lat": 0.0, "fusion_lon": 0.0, "bike_id": "88cef727392ac3237dae6c40eebcb4fd", "rental_uris": {"ios": "https://dc.lft.to/lastmile_qr_scan", "android": "https://dc.lft.to/lastmile_qr_scan"}, "type": "electric_scooter", "lat": 38.89704616666667, "is_disabled": 0, "lon": -76.94718133333333, "is_reserved": 0}, {"name": "a8314c562d3e7a0a8fcb25236486fed4", "fusion_lat": 0.0, "fusion_lon": 0.0, "bike_id": "a8314c562d3e7a0a8fcb25236486fed4", "rental_uris": {"ios": "https://dc.lft.to/lastmile_qr_scan", "android": "https://dc.lft.to/lastmile_qr_scan"}, "type": "electric_scooter", "lat": 38.956311, "is_disabled": 0, "lon": -77.03630716666666, "is_reserved": 0}, {"name": "4df8e7f12d8d7638e3789def3e41024c", "fusion_lat": 0.0, "fusion_lon": 0.0, "bike_id": "4df8e7f12d8d7638e3789def3e41024c", "rental_uris": {"ios": "https://dc.lft.to/lastmile_qr_scan", "android": "https://dc.lft.to/lastmile_qr_scan"}, "type": "electric_scooter", "lat": 38.90986916666667, "is_disabled": 0, "lon": -77.0425015, "is_reserved": 0}, {"name": "7aff11c0dbff08166ded34e751565747", "fusion_lat": 0.0, "fusion_lon": 0.0, "bike_id": "7aff11c0dbff08166ded34e751565747", "rental_uris": {"ios": "https://dc.lft.to/lastmile_qr_scan", "android": "https://dc.lft.to/lastmile_qr_scan"}, "type": "electric_scooter", "lat": 38.897993166666666, "is_disabled": 0, "lon": -77.0310365, "is_reserved": 0}, {"name": "da25234ebaa20a9d0fddd5d7d7b21639", "fusion_lat": 0.0, "fusion_lon": 0.0, "bike_id": "da25234ebaa20a9d0fddd5d7d7b21639", "rental_uris": {"ios": "https://dc.lft.to/lastmile_qr_scan", "android": "https://dc.lft.to/lastmile_qr_scan"}, "type": "electric_scooter", "lat": 38.904253833333335, "is_disabled": 0, "lon": -77.029527, "is_reserved": 0}, {"name": "555a19336de19afd5f1c07fd69bc2a36", "fusion_lat": 0.0, "fusion_lon": 0.0, "bike_id": "555a19336de19afd5f1c07fd69bc2a36", "rental_uris": {"ios": "https://dc.lft.to/lastmile_qr_scan", "android": "https://dc.lft.to/lastmile_qr_scan"}, "type": "electric_scooter", "lat": 38.88974066666667, "is_disabled": 0, "lon": -76.99199933333334, "is_reserved": 0}, {"name": "74ad14aa7fe26471b403fcd21fc90165", "fusion_lat": 0.0, "fusion_lon": 0.0, "bike_id": "74ad14aa7fe26471b403fcd21fc90165", "rental_uris": {"ios": "https://dc.lft.to/lastmile_qr_scan", "android": "https://dc.lft.to/lastmile_qr_scan"}, "type": "electric_scooter", "lat": 38.91581016666667, "is_disabled": 0, "lon": -77.02000183333334, "is_reserved": 0}, {"name": "0f73dede0fec2c2d149e1b44054a2fa8", "fusion_lat": 0.0, "fusion_lon": 0.0, "bike_id": "0f73dede0fec2c2d149e1b44054a2fa8", "rental_uris": {"ios": "https://dc.lft.to/lastmile_qr_scan", "android": "https://dc.lft.to/lastmile_qr_scan"}, "type": "electric_scooter", "lat": 38.885801, "is_disabled": 0, "lon": -77.012274, "is_reserved": 0}, {"name": "bbbe869a5cf7597149a8ceda435b22fe", "fusion_lat": 0.0, "fusion_lon": 0.0, "bike_id": "bbbe869a5cf7597149a8ceda435b22fe", "rental_uris": {"ios": "https://dc.lft.to/lastmile_qr_scan", "android": "https://dc.lft.to/lastmile_qr_scan"}, "type": "electric_scooter", "lat": 38.91044516666667, "is_disabled": 0, "lon": -77.036189, "is_reserved": 0}, {"name": "e383ea306c439c3f6b9f572d45346ab6", "fusion_lat": 0.0, "fusion_lon": 0.0, "bike_id": "e383ea306c439c3f6b9f572d45346ab6", "rental_uris": {"ios": "https://dc.lft.to/lastmile_qr_scan", "android": "https://dc.lft.to/lastmile_qr_scan"}, "type": "electric_scooter", "lat": 38.89604083333333, "is_disabled": 0, "lon": -77.05441016666667, "is_reserved": 0}, {"name": "38e2a2eb7c2730ce4a6514eaf3590e8d", "fusion_lat": 0.0, "fusion_lon": 0.0, "bike_id": "38e2a2eb7c2730ce4a6514eaf3590e8d", "rental_uris": {"ios": "https://dc.lft.to/lastmile_qr_scan", "android": "https://dc.lft.to/lastmile_qr_scan"}, "type": "electric_scooter", "lat": 38.9161675, "is_disabled": 0, "lon": -77.02305883333334, "is_reserved": 0}, {"name": "e67849a4f7bbd7973ef59decac4656a8", "fusion_lat": 0.0, "fusion_lon": 0.0, "bike_id": "e67849a4f7bbd7973ef59decac4656a8", "rental_uris": {"ios": "https://dc.lft.to/lastmile_qr_scan", "android": "https://dc.lft.to/lastmile_qr_scan"}, "type": "electric_bike", "lat": 38.9033085, "is_disabled": 0, "lon": -76.97535216666667, "is_reserved": 0}, {"name": "a9fd487fa4c595f0276a06ce672175c2", "fusion_lat": 0.0, "fusion_lon": 0.0, "bike_id": "a9fd487fa4c595f0276a06ce672175c2", "rental_uris": {"ios": "https://dc.lft.to/lastmile_qr_scan", "android": "https://dc.lft.to/lastmile_qr_scan"}, "type": "electric_scooter", "lat": 38.9182755, "is_disabled": 0, "lon": -77.04528983333333, "is_reserved": 0}, {"name": "e91a8171e6c18234a7139ca9ba159966", "fusion_lat": 0.0, "fusion_lon": 0.0, "bike_id": "e91a8171e6c18234a7139ca9ba159966", "rental_uris": {"ios": "https://dc.lft.to/lastmile_qr_scan", "android": "https://dc.lft.to/lastmile_qr_scan"}, "type": "electric_scooter", "lat": 38.92021183333333, "is_disabled": 0, "lon": -76.99570583333333, "is_reserved": 0}, {"name": "f7c9f2827adb459afe3f213c7f94b868", "fusion_lat": 0.0, "fusion_lon": 0.0, "bike_id": "f7c9f2827adb459afe3f213c7f94b868", "rental_uris": {"ios": "https://dc.lft.to/lastmile_qr_scan", "android": "https://dc.lft.to/lastmile_qr_scan"}, "type": "electric_scooter", "lat": 38.91594816666667, "is_disabled": 0, "lon": -77.02348966666666, "is_reserved": 0}, {"name": "229860736866af32e5e0d40c832365f3", "fusion_lat": 0.0, "fusion_lon": 0.0, "bike_id": "229860736866af32e5e0d40c832365f3", "rental_uris": {"ios": "https://dc.lft.to/lastmile_qr_scan", "android": "https://dc.lft.to/lastmile_qr_scan"}, "type": "electric_scooter", "lat": 38.88519633333333, "is_disabled": 0, "lon": -76.94827483333333, "is_reserved": 0}, {"name": "ea9bf323c18e5eaec8b1c147fea6b324", "fusion_lat": 0.0, "fusion_lon": 0.0, "bike_id": "ea9bf323c18e5eaec8b1c147fea6b324", "rental_uris": {"ios": "https://dc.lft.to/lastmile_qr_scan", "android": "https://dc.lft.to/lastmile_qr_scan"}, "type": "electric_scooter", "lat": 38.905764, "is_disabled": 0, "lon": -77.02211733333333, "is_reserved": 0}, {"name": "11a960155b073bc218040f61b5bc495f", "fusion_lat": 0.0, "fusion_lon": 0.0, "bike_id": "11a960155b073bc218040f61b5bc495f", "rental_uris": {"ios": "https://dc.lft.to/lastmile_qr_scan", "android": "https://dc.lft.to/lastmile_qr_scan"}, "type": "electric_scooter", "lat": 38.921135, "is_disabled": 0, "lon": -77.04223933333333, "is_reserved": 0}, {"name": "e8ce5163bf61b6ae571377e9c78596f5", "fusion_lat": 0.0, "fusion_lon": 0.0, "bike_id": "e8ce5163bf61b6ae571377e9c78596f5", "rental_uris": {"ios": "https://dc.lft.to/lastmile_qr_scan", "android": "https://dc.lft.to/lastmile_qr_scan"}, "type": "electric_scooter", "lat": 38.903678, "is_disabled": 0, "lon": -77.0346565, "is_reserved": 0}, {"name": "a60a4127e5914e17285b8af8c7e1294b", "fusion_lat": 0.0, "fusion_lon": 0.0, "bike_id": "a60a4127e5914e17285b8af8c7e1294b", "rental_uris": {"ios": "https://dc.lft.to/lastmile_qr_scan", "android": "https://dc.lft.to/lastmile_qr_scan"}, "type": "electric_scooter", "lat": 38.930843833333334, "is_disabled": 0, "lon": -77.02791783333333, "is_reserved": 0}, {"name": "ad15bf23d1c421a2166ca62fe95b0260", "fusion_lat": 0.0, "fusion_lon": 0.0, "bike_id": "ad15bf23d1c421a2166ca62fe95b0260", "rental_uris": {"ios": "https://dc.lft.to/lastmile_qr_scan", "android": "https://dc.lft.to/lastmile_qr_scan"}, "type": "electric_scooter", "lat": 38.884278333333334, "is_disabled": 0, "lon": -77.02460216666667, "is_reserved": 0}, {"name": "6d9ad90ed184f41c0555c6cb5960296d", "fusion_lat": 0.0, "fusion_lon": 0.0, "bike_id": "6d9ad90ed184f41c0555c6cb5960296d", "rental_uris": {"ios": "https://dc.lft.to/lastmile_qr_scan", "android": "https://dc.lft.to/lastmile_qr_scan"}, "type": "electric_scooter", "lat": 38.89542516666667, "is_disabled": 0, "lon": -77.01538833333333, "is_reserved": 0}, {"name": "6c995bf235130333d4c961a5d18a1d28", "fusion_lat": 0.0, "fusion_lon": 0.0, "bike_id": "6c995bf235130333d4c961a5d18a1d28", "rental_uris": {"ios": "https://dc.lft.to/lastmile_qr_scan", "android": "https://dc.lft.to/lastmile_qr_scan"}, "type": "electric_scooter", "lat": 38.9181055, "is_disabled": 0, "lon": -77.01012833333333, "is_reserved": 0}, {"name": "b8fdb29c550d0ff9a7305cc980b2c75a", "fusion_lat": 0.0, "fusion_lon": 0.0, "bike_id": "b8fdb29c550d0ff9a7305cc980b2c75a", "rental_uris": {"ios": "https://dc.lft.to/lastmile_qr_scan", "android": "https://dc.lft.to/lastmile_qr_scan"}, "type": "electric_scooter", "lat": 38.8832115, "is_disabled": 0, "lon": -76.94941533333333, "is_reserved": 0}, {"name": "2f355c1779cded1330c56d34c74f13d9", "fusion_lat": 0.0, "fusion_lon": 0.0, "bike_id": "2f355c1779cded1330c56d34c74f13d9", "rental_uris": {"ios": "https://dc.lft.to/lastmile_qr_scan", "android": "https://dc.lft.to/lastmile_qr_scan"}, "type": "electric_scooter", "lat": 38.902689333333335, "is_disabled": 0, "lon": -77.05389733333334, "is_reserved": 0}, {"name": "235829f83d424b3e2859aedfdbde0952", "fusion_lat": 0.0, "fusion_lon": 0.0, "bike_id": "235829f83d424b3e2859aedfdbde0952", "rental_uris": {"ios": "https://dc.lft.to/lastmile_qr_scan", "android": "https://dc.lft.to/lastmile_qr_scan"}, "type": "electric_scooter", "lat": 38.902379, "is_disabled": 0, "lon": -77.00204466666666, "is_reserved": 0}, {"name": "aa21c02c136c98910b0717e48befcf5e", "fusion_lat": 0.0, "fusion_lon": 0.0, "bike_id": "aa21c02c136c98910b0717e48befcf5e", "rental_uris": {"ios": "https://dc.lft.to/lastmile_qr_scan", "android": "https://dc.lft.to/lastmile_qr_scan"}, "type": "electric_scooter", "lat": 38.896758166666665, "is_disabled": 0, "lon": -76.93541583333334, "is_reserved": 0}, {"name": "785c6800502f5011be6c4c4e70770c15", "fusion_lat": 0.0, "fusion_lon": 0.0, "bike_id": "785c6800502f5011be6c4c4e70770c15", "rental_uris": {"ios": "https://dc.lft.to/lastmile_qr_scan", "android": "https://dc.lft.to/lastmile_qr_scan"}, "type": "electric_scooter", "lat": 38.924207333333335, "is_disabled": 0, "lon": -77.02009866666667, "is_reserved": 0}, {"name": "4c41f75e51ba8000c78aa564e4b1fd29", "fusion_lat": 0.0, "fusion_lon": 0.0, "bike_id": "4c41f75e51ba8000c78aa564e4b1fd29", "rental_uris": {"ios": "https://dc.lft.to/lastmile_qr_scan", "android": "https://dc.lft.to/lastmile_qr_scan"}, "type": "electric_scooter", "lat": 38.897879333333336, "is_disabled": 0, "lon": -77.03943266666667, "is_reserved": 0}, {"name": "68b13823c43c393c1176d23f817be9c4", "fusion_lat": 0.0, "fusion_lon": 0.0, "bike_id": "68b13823c43c393c1176d23f817be9c4", "rental_uris": {"ios": "https://dc.lft.to/lastmile_qr_scan", "android": "https://dc.lft.to/lastmile_qr_scan"}, "type": "electric_scooter", "lat": 38.91375466666667, "is_disabled": 0, "lon": -77.04339833333333, "is_reserved": 0}, {"name": "fd3f222287bd0c7ffbfc45f478187f50", "fusion_lat": 0.0, "fusion_lon": 0.0, "bike_id": "fd3f222287bd0c7ffbfc45f478187f50", "rental_uris": {"ios": "https://dc.lft.to/lastmile_qr_scan", "android": "https://dc.lft.to/lastmile_qr_scan"}, "type": "electric_scooter", "lat": 38.918211666666664, "is_disabled": 0, "lon": -77.02781083333333, "is_reserved": 0}, {"name": "56716c4dffd6cff1a62f0915f9e4e446", "fusion_lat": 0.0, "fusion_lon": 0.0, "bike_id": "56716c4dffd6cff1a62f0915f9e4e446", "rental_uris": {"ios": "https://dc.lft.to/lastmile_qr_scan", "android": "https://dc.lft.to/lastmile_qr_scan"}, "type": "electric_scooter", "lat": 38.905006166666666, "is_disabled": 0, "lon": -76.97943766666667, "is_reserved": 0}, {"name": "b92d6ccbadc5ec45553477b50a078192", "fusion_lat": 0.0, "fusion_lon": 0.0, "bike_id": "b92d6ccbadc5ec45553477b50a078192", "rental_uris": {"ios": "https://dc.lft.to/lastmile_qr_scan", "android": "https://dc.lft.to/lastmile_qr_scan"}, "type": "electric_scooter", "lat": 38.8849385, "is_disabled": 0, "lon": -77.02495683333333, "is_reserved": 0}, {"name": "395850dc9b80abd94bc8cd73e5045219", "fusion_lat": 0.0, "fusion_lon": 0.0, "bike_id": "395850dc9b80abd94bc8cd73e5045219", "rental_uris": {"ios": "https://dc.lft.to/lastmile_qr_scan", "android": "https://dc.lft.to/lastmile_qr_scan"}, "type": "electric_scooter", "lat": 38.920805666666666, "is_disabled": 0, "lon": -77.00052016666666, "is_reserved": 0}, {"name": "ef09eeed935bb6daab7b1cc7631705d8", "fusion_lat": 0.0, "fusion_lon": 0.0, "bike_id": "ef09eeed935bb6daab7b1cc7631705d8", "rental_uris": {"ios": "https://dc.lft.to/lastmile_qr_scan", "android": "https://dc.lft.to/lastmile_qr_scan"}, "type": "electric_scooter", "lat": 38.87897, "is_disabled": 0, "lon": -77.01993633333333, "is_reserved": 0}, {"name": "1baf11b45ce39fe84987910d4b5a225d", "fusion_lat": 0.0, "fusion_lon": 0.0, "bike_id": "1baf11b45ce39fe84987910d4b5a225d", "rental_uris": {"ios": "https://dc.lft.to/lastmile_qr_scan", "android": "https://dc.lft.to/lastmile_qr_scan"}, "type": "electric_scooter", "lat": 38.916286666666664, "is_disabled": 0, "lon": -77.03315166666667, "is_reserved": 0}, {"name": "d7c6ccd91876aba3ac2530571d984615", "fusion_lat": 0.0, "fusion_lon": 0.0, "bike_id": "d7c6ccd91876aba3ac2530571d984615", "rental_uris": {"ios": "https://dc.lft.to/lastmile_qr_scan", "android": "https://dc.lft.to/lastmile_qr_scan"}, "type": "electric_scooter", "lat": 38.932337, "is_disabled": 0, "lon": -76.999326, "is_reserved": 0}, {"name": "d165711d71aa445f17b1d491a9f0b87c", "fusion_lat": 0.0, "fusion_lon": 0.0, "bike_id": "d165711d71aa445f17b1d491a9f0b87c", "rental_uris": {"ios": "https://dc.lft.to/lastmile_qr_scan", "android": "https://dc.lft.to/lastmile_qr_scan"}, "type": "electric_bike", "lat": 38.86973616666667, "is_disabled": 0, "lon": -77.13230366666667, "is_reserved": 0}, {"name": "16520ba6f5f30bb2a88d4bdc70a8dfdd", "fusion_lat": 0.0, "fusion_lon": 0.0, "bike_id": "16520ba6f5f30bb2a88d4bdc70a8dfdd", "rental_uris": {"ios": "https://dc.lft.to/lastmile_qr_scan", "android": "https://dc.lft.to/lastmile_qr_scan"}, "type": "electric_scooter", "lat": 38.917052, "is_disabled": 0, "lon": -77.0299195, "is_reserved": 0}, {"name": "6eb34dbf0f013071344ec7667c885bf5", "fusion_lat": 0.0, "fusion_lon": 0.0, "bike_id": "6eb34dbf0f013071344ec7667c885bf5", "rental_uris": {"ios": "https://dc.lft.to/lastmile_qr_scan", "android": "https://dc.lft.to/lastmile_qr_scan"}, "type": "electric_scooter", "lat": 38.90963333333333, "is_disabled": 0, "lon": -77.03298783333334, "is_reserved": 0}, {"name": "f762a7e782b80a481d00319d99a3616e", "fusion_lat": 0.0, "fusion_lon": 0.0, "bike_id": "f762a7e782b80a481d00319d99a3616e", "rental_uris": {"ios": "https://dc.lft.to/lastmile_qr_scan", "android": "https://dc.lft.to/lastmile_qr_scan"}, "type": "electric_bike", "lat": 38.83354083333333, "is_disabled": 0, "lon": -76.96560566666666, "is_reserved": 0}, {"name": "c1131fc012e401c4e3787de4661da52a", "fusion_lat": 0.0, "fusion_lon": 0.0, "bike_id": "c1131fc012e401c4e3787de4661da52a", "rental_uris": {"ios": "https://dc.lft.to/lastmile_qr_scan", "android": "https://dc.lft.to/lastmile_qr_scan"}, "type": "electric_scooter", "lat": 38.92250283333333, "is_disabled": 0, "lon": -77.03086166666667, "is_reserved": 0}, {"name": "66516c0b07190632acb3eb2793d3e0cf", "fusion_lat": 0.0, "fusion_lon": 0.0, "bike_id": "66516c0b07190632acb3eb2793d3e0cf", "rental_uris": {"ios": "https://dc.lft.to/lastmile_qr_scan", "android": "https://dc.lft.to/lastmile_qr_scan"}, "type": "electric_scooter", "lat": 38.904563333333336, "is_disabled": 0, "lon": -77.0294785, "is_reserved": 0}, {"name": "aecb54c21393ba1257b1d76c7316ffff", "fusion_lat": 0.0, "fusion_lon": 0.0, "bike_id": "aecb54c21393ba1257b1d76c7316ffff", "rental_uris": {"ios": "https://dc.lft.to/lastmile_qr_scan", "android": "https://dc.lft.to/lastmile_qr_scan"}, "type": "electric_scooter", "lat": 38.91190516666666, "is_disabled": 0, "lon": -77.03137116666667, "is_reserved": 0}, {"name": "207bbc71871e98cf0bbce004518dde72", "fusion_lat": 0.0, "fusion_lon": 0.0, "bike_id": "207bbc71871e98cf0bbce004518dde72", "rental_uris": {"ios": "https://dc.lft.to/lastmile_qr_scan", "android": "https://dc.lft.to/lastmile_qr_scan"}, "type": "electric_scooter", "lat": 38.873382666666664, "is_disabled": 0, "lon": -76.967885, "is_reserved": 0}, {"name": "b71375730f654bff7e5ced018d072c1c", "fusion_lat": 0.0, "fusion_lon": 0.0, "bike_id": "b71375730f654bff7e5ced018d072c1c", "rental_uris": {"ios": "https://dc.lft.to/lastmile_qr_scan", "android": "https://dc.lft.to/lastmile_qr_scan"}, "type": "electric_scooter", "lat": 38.8980165, "is_disabled": 0, "lon": -77.0522345, "is_reserved": 0}, {"name": "15d0fbf2df1c581ecabf3eaec9a0d496", "fusion_lat": 0.0, "fusion_lon": 0.0, "bike_id": "15d0fbf2df1c581ecabf3eaec9a0d496", "rental_uris": {"ios": "https://dc.lft.to/lastmile_qr_scan", "android": "https://dc.lft.to/lastmile_qr_scan"}, "type": "electric_bike", "lat": 38.950609, "is_disabled": 0, "lon": -76.9673665, "is_reserved": 0}, {"name": "54f6a834b37dce23d7647392ba282b04", "fusion_lat": 0.0, "fusion_lon": 0.0, "bike_id": "54f6a834b37dce23d7647392ba282b04", "rental_uris": {"ios": "https://dc.lft.to/lastmile_qr_scan", "android": "https://dc.lft.to/lastmile_qr_scan"}, "type": "electric_scooter", "lat": 38.88249316666667, "is_disabled": 0, "lon": -77.003497, "is_reserved": 0}, {"name": "96130e923819d3b7821c745b1750de53", "fusion_lat": 0.0, "fusion_lon": 0.0, "bike_id": "96130e923819d3b7821c745b1750de53", "rental_uris": {"ios": "https://dc.lft.to/lastmile_qr_scan", "android": "https://dc.lft.to/lastmile_qr_scan"}, "type": "electric_scooter", "lat": 38.936076666666665, "is_disabled": 0, "lon": -77.05870783333333, "is_reserved": 0}, {"name": "1fd984dd11514caca2e9afb10195e410", "fusion_lat": 0.0, "fusion_lon": 0.0, "bike_id": "1fd984dd11514caca2e9afb10195e410", "rental_uris": {"ios": "https://dc.lft.to/lastmile_qr_scan", "android": "https://dc.lft.to/lastmile_qr_scan"}, "type": "electric_scooter", "lat": 38.866782, "is_disabled": 0, "lon": -76.98892633333334, "is_reserved": 0}, {"name": "1d150fd66ab60ee4f101fda818bf2914", "fusion_lat": 0.0, "fusion_lon": 0.0, "bike_id": "1d150fd66ab60ee4f101fda818bf2914", "rental_uris": {"ios": "https://dc.lft.to/lastmile_qr_scan", "android": "https://dc.lft.to/lastmile_qr_scan"}, "type": "electric_scooter", "lat": 38.901164, "is_disabled": 0, "lon": -77.03049816666666, "is_reserved": 0}, {"name": "15b5c4c9b86fad2f77025cc14a1fd63b", "fusion_lat": 0.0, "fusion_lon": 0.0, "bike_id": "15b5c4c9b86fad2f77025cc14a1fd63b", "rental_uris": {"ios": "https://dc.lft.to/lastmile_qr_scan", "android": "https://dc.lft.to/lastmile_qr_scan"}, "type": "electric_scooter", "lat": 38.89193866666667, "is_disabled": 0, "lon": -77.00294083333333, "is_reserved": 0}, {"name": "51469152383c875f0483bbee8199a895", "fusion_lat": 0.0, "fusion_lon": 0.0, "bike_id": "51469152383c875f0483bbee8199a895", "rental_uris": {"ios": "https://dc.lft.to/lastmile_qr_scan", "android": "https://dc.lft.to/lastmile_qr_scan"}, "type": "electric_bike", "lat": 38.963067833333334, "is_disabled": 0, "lon": -77.05762416666667, "is_reserved": 0}, {"name": "6911366de109850f0f3578f2398d0f1c", "fusion_lat": 0.0, "fusion_lon": 0.0, "bike_id": "6911366de109850f0f3578f2398d0f1c", "rental_uris": {"ios": "https://dc.lft.to/lastmile_qr_scan", "android": "https://dc.lft.to/lastmile_qr_scan"}, "type": "electric_bike", "lat": 38.918612333333336, "is_disabled": 0, "lon": -76.96093633333334, "is_reserved": 0}, {"name": "5b183e2ebf80bb6dd88d4eb9021555b2", "fusion_lat": 0.0, "fusion_lon": 0.0, "bike_id": "5b183e2ebf80bb6dd88d4eb9021555b2", "rental_uris": {"ios": "https://dc.lft.to/lastmile_qr_scan", "android": "https://dc.lft.to/lastmile_qr_scan"}, "type": "electric_bike", "lat": 39.0173445, "is_disabled": 0, "lon": -77.06383083333333, "is_reserved": 0}, {"name": "5eae60b91fe7b0c4ae9e510ca5fd40cd", "fusion_lat": 0.0, "fusion_lon": 0.0, "bike_id": "5eae60b91fe7b0c4ae9e510ca5fd40cd", "rental_uris": {"ios": "https://dc.lft.to/lastmile_qr_scan", "android": "https://dc.lft.to/lastmile_qr_scan"}, "type": "electric_scooter", "lat": 38.90976333333333, "is_disabled": 0, "lon": -77.03750516666666, "is_reserved": 0}, {"name": "8baaf2939aefabacb4e26d475885ea58", "fusion_lat": 0.0, "fusion_lon": 0.0, "bike_id": "8baaf2939aefabacb4e26d475885ea58", "rental_uris": {"ios": "https://dc.lft.to/lastmile_qr_scan", "android": "https://dc.lft.to/lastmile_qr_scan"}, "type": "electric_scooter", "lat": 38.92077533333333, "is_disabled": 0, "lon": -77.025124, "is_reserved": 0}, {"name": "06e187f7c3bcdd19882cd832e2173d0e", "fusion_lat": 0.0, "fusion_lon": 0.0, "bike_id": "06e187f7c3bcdd19882cd832e2173d0e", "rental_uris": {"ios": "https://dc.lft.to/lastmile_qr_scan", "android": "https://dc.lft.to/lastmile_qr_scan"}, "type": "electric_scooter", "lat": 38.92190433333333, "is_disabled": 0, "lon": -77.07264083333334, "is_reserved": 0}, {"name": "c7c4c68e29216cba452b712cdefa4a74", "fusion_lat": 0.0, "fusion_lon": 0.0, "bike_id": "c7c4c68e29216cba452b712cdefa4a74", "rental_uris": {"ios": "https://dc.lft.to/lastmile_qr_scan", "android": "https://dc.lft.to/lastmile_qr_scan"}, "type": "electric_scooter", "lat": 38.90794483333333, "is_disabled": 0, "lon": -76.98537366666666, "is_reserved": 0}, {"name": "8265a7985fd6565c9ab2c065e7d4c161", "fusion_lat": 0.0, "fusion_lon": 0.0, "bike_id": "8265a7985fd6565c9ab2c065e7d4c161", "rental_uris": {"ios": "https://dc.lft.to/lastmile_qr_scan", "android": "https://dc.lft.to/lastmile_qr_scan"}, "type": "electric_scooter", "lat": 38.93015466666667, "is_disabled": 0, "lon": -77.01360833333334, "is_reserved": 0}, {"name": "178c9a0dfe3ee6bd4ec51ac6a84497d9", "fusion_lat": 0.0, "fusion_lon": 0.0, "bike_id": "178c9a0dfe3ee6bd4ec51ac6a84497d9", "rental_uris": {"ios": "https://dc.lft.to/lastmile_qr_scan", "android": "https://dc.lft.to/lastmile_qr_scan"}, "type": "electric_bike", "lat": 38.877554, "is_disabled": 0, "lon": -76.9799825, "is_reserved": 0}, {"name": "9a36c1cd70185da66bd130302f51bc44", "fusion_lat": 0.0, "fusion_lon": 0.0, "bike_id": "9a36c1cd70185da66bd130302f51bc44", "rental_uris": {"ios": "https://dc.lft.to/lastmile_qr_scan", "android": "https://dc.lft.to/lastmile_qr_scan"}, "type": "electric_scooter", "lat": 38.92564216666667, "is_disabled": 0, "lon": -77.08060983333333, "is_reserved": 0}, {"name": "3039cfc8c967175f8d88d5d0f23ecb9e", "fusion_lat": 0.0, "fusion_lon": 0.0, "bike_id": "3039cfc8c967175f8d88d5d0f23ecb9e", "rental_uris": {"ios": "https://dc.lft.to/lastmile_qr_scan", "android": "https://dc.lft.to/lastmile_qr_scan"}, "type": "electric_scooter", "lat": 38.914608666666666, "is_disabled": 0, "lon": -76.98441333333334, "is_reserved": 0}, {"name": "c9a258f4f96a95995e3739b629b7f748", "fusion_lat": 0.0, "fusion_lon": 0.0, "bike_id": "c9a258f4f96a95995e3739b629b7f748", "rental_uris": {"ios": "https://dc.lft.to/lastmile_qr_scan", "android": "https://dc.lft.to/lastmile_qr_scan"}, "type": "electric_scooter", "lat": 38.897363166666665, "is_disabled": 0, "lon": -77.02992566666667, "is_reserved": 0}, {"name": "c536d37892abc19969bfce78e7c0f871", "fusion_lat": 0.0, "fusion_lon": 0.0, "bike_id": "c536d37892abc19969bfce78e7c0f871", "rental_uris": {"ios": "https://dc.lft.to/lastmile_qr_scan", "android": "https://dc.lft.to/lastmile_qr_scan"}, "type": "electric_bike", "lat": 38.933522333333336, "is_disabled": 0, "lon": -76.99109483333334, "is_reserved": 0}, {"name": "e1e32fa7166532375d5c1f8d0aefc10a", "fusion_lat": 0.0, "fusion_lon": 0.0, "bike_id": "e1e32fa7166532375d5c1f8d0aefc10a", "rental_uris": {"ios": "https://dc.lft.to/lastmile_qr_scan", "android": "https://dc.lft.to/lastmile_qr_scan"}, "type": "electric_scooter", "lat": 38.9261645, "is_disabled": 0, "lon": -77.03785833333333, "is_reserved": 0}, {"name": "442f4c36298667caddba8c7ee77b598e", "fusion_lat": 0.0, "fusion_lon": 0.0, "bike_id": "442f4c36298667caddba8c7ee77b598e", "rental_uris": {"ios": "https://dc.lft.to/lastmile_qr_scan", "android": "https://dc.lft.to/lastmile_qr_scan"}, "type": "electric_bike", "lat": 38.939617, "is_disabled": 0, "lon": -77.36089966666667, "is_reserved": 0}, {"name": "75705f6b827187bb95776556fdef5965", "fusion_lat": 0.0, "fusion_lon": 0.0, "bike_id": "75705f6b827187bb95776556fdef5965", "rental_uris": {"ios": "https://dc.lft.to/lastmile_qr_scan", "android": "https://dc.lft.to/lastmile_qr_scan"}, "type": "electric_scooter", "lat": 38.885944, "is_disabled": 0, "lon": -77.017678, "is_reserved": 0}, {"name": "925702801ba6517cf3d007202c2af75d", "fusion_lat": 0.0, "fusion_lon": 0.0, "bike_id": "925702801ba6517cf3d007202c2af75d", "rental_uris": {"ios": "https://dc.lft.to/lastmile_qr_scan", "android": "https://dc.lft.to/lastmile_qr_scan"}, "type": "electric_scooter", "lat": 38.9010715, "is_disabled": 0, "lon": -77.03213333333333, "is_reserved": 0}, {"name": "3faf80c61f7c9bd7dc069eaaa0565727", "fusion_lat": 0.0, "fusion_lon": 0.0, "bike_id": "3faf80c61f7c9bd7dc069eaaa0565727", "rental_uris": {"ios": "https://dc.lft.to/lastmile_qr_scan", "android": "https://dc.lft.to/lastmile_qr_scan"}, "type": "electric_scooter", "lat": 38.914305166666665, "is_disabled": 0, "lon": -77.03874683333333, "is_reserved": 0}, {"name": "4a08b7666aa865529a7034d72486c203", "fusion_lat": 0.0, "fusion_lon": 0.0, "bike_id": "4a08b7666aa865529a7034d72486c203", "rental_uris": {"ios": "https://dc.lft.to/lastmile_qr_scan", "android": "https://dc.lft.to/lastmile_qr_scan"}, "type": "electric_scooter", "lat": 38.885015833333334, "is_disabled": 0, "lon": -77.00568266666667, "is_reserved": 0}, {"name": "487e50feb9173a98490cfb97cc196272", "fusion_lat": 0.0, "fusion_lon": 0.0, "bike_id": "487e50feb9173a98490cfb97cc196272", "rental_uris": {"ios": "https://dc.lft.to/lastmile_qr_scan", "android": "https://dc.lft.to/lastmile_qr_scan"}, "type": "electric_scooter", "lat": 38.89774583333333, "is_disabled": 0, "lon": -77.00715066666666, "is_reserved": 0}, {"name": "e1ba9ce4599ada0fe798403de4691b16", "fusion_lat": 0.0, "fusion_lon": 0.0, "bike_id": "e1ba9ce4599ada0fe798403de4691b16", "rental_uris": {"ios": "https://dc.lft.to/lastmile_qr_scan", "android": "https://dc.lft.to/lastmile_qr_scan"}, "type": "electric_bike", "lat": 38.868582, "is_disabled": 0, "lon": -76.91656733333333, "is_reserved": 0}, {"name": "b56c01162c3d99dbef5d0bcc29ecad2b", "fusion_lat": 0.0, "fusion_lon": 0.0, "bike_id": "b56c01162c3d99dbef5d0bcc29ecad2b", "rental_uris": {"ios": "https://dc.lft.to/lastmile_qr_scan", "android": "https://dc.lft.to/lastmile_qr_scan"}, "type": "electric_bike", "lat": 38.99806783333333, "is_disabled": 0, "lon": -77.02846216666667, "is_reserved": 0}, {"name": "c0cb0b2203edeb4d05c00ae4ba7b766c", "fusion_lat": 0.0, "fusion_lon": 0.0, "bike_id": "c0cb0b2203edeb4d05c00ae4ba7b766c", "rental_uris": {"ios": "https://dc.lft.to/lastmile_qr_scan", "android": "https://dc.lft.to/lastmile_qr_scan"}, "type": "electric_scooter", "lat": 38.91751416666666, "is_disabled": 0, "lon": -77.02493333333334, "is_reserved": 0}, {"name": "1119584fd8452603bbec3353cbbcd8e8", "fusion_lat": 0.0, "fusion_lon": 0.0, "bike_id": "1119584fd8452603bbec3353cbbcd8e8", "rental_uris": {"ios": "https://dc.lft.to/lastmile_qr_scan", "android": "https://dc.lft.to/lastmile_qr_scan"}, "type": "electric_bike", "lat": 38.9319085, "is_disabled": 0, "lon": -77.22938383333333, "is_reserved": 0}, {"name": "8a3a46919295a034e7e3f5d122a3692e", "fusion_lat": 0.0, "fusion_lon": 0.0, "bike_id": "8a3a46919295a034e7e3f5d122a3692e", "rental_uris": {"ios": "https://dc.lft.to/lastmile_qr_scan", "android": "https://dc.lft.to/lastmile_qr_scan"}, "type": "electric_bike", "lat": 38.9243075, "is_disabled": 0, "lon": -77.05181583333334, "is_reserved": 0}, {"name": "0f28a9ff958a2af656332d808e0576c4", "fusion_lat": 0.0, "fusion_lon": 0.0, "bike_id": "0f28a9ff958a2af656332d808e0576c4", "rental_uris": {"ios": "https://dc.lft.to/lastmile_qr_scan", "android": "https://dc.lft.to/lastmile_qr_scan"}, "type": "electric_scooter", "lat": 38.90971966666667, "is_disabled": 0, "lon": -77.02174216666667, "is_reserved": 0}, {"name": "69a296016667b8abc4d72e742dc5b5bc", "fusion_lat": 0.0, "fusion_lon": 0.0, "bike_id": "69a296016667b8abc4d72e742dc5b5bc", "rental_uris": {"ios": "https://dc.lft.to/lastmile_qr_scan", "android": "https://dc.lft.to/lastmile_qr_scan"}, "type": "electric_scooter", "lat": 38.89354616666667, "is_disabled": 0, "lon": -77.00336416666667, "is_reserved": 0}, {"name": "5fa61f192f94bcb95cb71347f2dfa955", "fusion_lat": 0.0, "fusion_lon": 0.0, "bike_id": "5fa61f192f94bcb95cb71347f2dfa955", "rental_uris": {"ios": "https://dc.lft.to/lastmile_qr_scan", "android": "https://dc.lft.to/lastmile_qr_scan"}, "type": "electric_scooter", "lat": 38.9051355, "is_disabled": 0, "lon": -77.06150333333333, "is_reserved": 0}, {"name": "99b4be029efc452a2c245357199ea20f", "fusion_lat": 0.0, "fusion_lon": 0.0, "bike_id": "99b4be029efc452a2c245357199ea20f", "rental_uris": {"ios": "https://dc.lft.to/lastmile_qr_scan", "android": "https://dc.lft.to/lastmile_qr_scan"}, "type": "electric_scooter", "lat": 38.929651, "is_disabled": 0, "lon": -77.00542433333334, "is_reserved": 0}, {"name": "f6d69c921f563f9a7505c3262014d8e1", "fusion_lat": 0.0, "fusion_lon": 0.0, "bike_id": "f6d69c921f563f9a7505c3262014d8e1", "rental_uris": {"ios": "https://dc.lft.to/lastmile_qr_scan", "android": "https://dc.lft.to/lastmile_qr_scan"}, "type": "electric_scooter", "lat": 38.892233833333336, "is_disabled": 0, "lon": -77.02982733333333, "is_reserved": 0}, {"name": "e02bb7357093b6a293215fdcefc69a7e", "fusion_lat": 0.0, "fusion_lon": 0.0, "bike_id": "e02bb7357093b6a293215fdcefc69a7e", "rental_uris": {"ios": "https://dc.lft.to/lastmile_qr_scan", "android": "https://dc.lft.to/lastmile_qr_scan"}, "type": "electric_scooter", "lat": 38.92740283333333, "is_disabled": 0, "lon": -77.03299933333334, "is_reserved": 0}, {"name": "676930227ef517d69afb2961c8cb65e8", "fusion_lat": 0.0, "fusion_lon": 0.0, "bike_id": "676930227ef517d69afb2961c8cb65e8", "rental_uris": {"ios": "https://dc.lft.to/lastmile_qr_scan", "android": "https://dc.lft.to/lastmile_qr_scan"}, "type": "electric_scooter", "lat": 38.90143966666667, "is_disabled": 0, "lon": -77.02782983333333, "is_reserved": 0}, {"name": "430efa58ecff01f80385ca3a17591946", "fusion_lat": 0.0, "fusion_lon": 0.0, "bike_id": "430efa58ecff01f80385ca3a17591946", "rental_uris": {"ios": "https://dc.lft.to/lastmile_qr_scan", "android": "https://dc.lft.to/lastmile_qr_scan"}, "type": "electric_scooter", "lat": 38.887441833333334, "is_disabled": 0, "lon": -77.021209, "is_reserved": 0}, {"name": "0e8c83094bff55faa6493a2d437e5daa", "fusion_lat": 0.0, "fusion_lon": 0.0, "bike_id": "0e8c83094bff55faa6493a2d437e5daa", "rental_uris": {"ios": "https://dc.lft.to/lastmile_qr_scan", "android": "https://dc.lft.to/lastmile_qr_scan"}, "type": "electric_scooter", "lat": 38.90198383333333, "is_disabled": 0, "lon": -77.02409633333333, "is_reserved": 0}, {"name": "7edb6b67c91576db3e5974a2a1620ba4", "fusion_lat": 0.0, "fusion_lon": 0.0, "bike_id": "7edb6b67c91576db3e5974a2a1620ba4", "rental_uris": {"ios": "https://dc.lft.to/lastmile_qr_scan", "android": "https://dc.lft.to/lastmile_qr_scan"},