{"data": {"bikes": [{"rental_uris": {"ios": "https://dc.lft.to/lastmile_qr_scan", "android": "https://dc.lft.to/lastmile_qr_scan"}, "lon": -77.04785883333334, "type": "electric_scooter", "fusion_lat": 0.0, "lat": 38.893697333333336, "name": "172b707e93b16c8a1eae9fbd51734b92", "fusion_lon": 0.0, "bike_id": "172b707e93b16c8a1eae9fbd51734b92", "is_disabled": 0, "is_reserved": 0}, {"rental_uris": {"ios": "https://dc.lft.to/lastmile_qr_scan", "android": "https://dc.lft.to/lastmile_qr_scan"}, "lon": -77.02708133333333, "type": "electric_scooter", "fusion_lat": 0.0, "lat": 38.919643, "name": "c92bb0b951d5da99375ea099c062ba3d", "fusion_lon": 0.0, "bike_id": "c92bb0b951d5da99375ea099c062ba3d", "is_disabled": 0, "is_reserved": 0}, {"rental_uris": {"ios": "https://dc.lft.to/lastmile_qr_scan", "android": "https://dc.lft.to/lastmile_qr_scan"}, "lon": -77.013458, "type": "electric_scooter", "fusion_lat": 0.0, "lat": 38.92733966666667, "name": "5b4a085e38ccc7c1c9137e3701c71ed1", "fusion_lon": 0.0, "bike_id": "5b4a085e38ccc7c1c9137e3701c71ed1", "is_disabled": 0, "is_reserved": 0}, {"rental_uris": {"ios": "https://dc.lft.to/lastmile_qr_scan", "android": "https://dc.lft.to/lastmile_qr_scan"}, "lon": -76.993731, "type": "electric_scooter", "fusion_lat": 0.0, "lat": 38.89743566666667, "name": "54d63b9156bb34618e670dd4c5a3111e", "fusion_lon": 0.0, "bike_id": "54d63b9156bb34618e670dd4c5a3111e", "is_disabled": 0, "is_reserved": 0}, {"rental_uris": {"ios": "https://dc.lft.to/lastmile_qr_scan", "android": "https://dc.lft.to/lastmile_qr_scan"}, "lon": -77.03229516666667, "type": "electric_scooter", "fusion_lat": 0.0, "lat": 38.914067, "name": "3d9877909f31ee23165348cd269f1ec7", "fusion_lon": 0.0, "bike_id": "3d9877909f31ee23165348cd269f1ec7", "is_disabled": 0, "is_reserved": 0}, {"rental_uris": {"ios": "https://dc.lft.to/lastmile_qr_scan", "android": "https://dc.lft.to/lastmile_qr_scan"}, "lon": -77.05436516666667, "type": "electric_scooter", "fusion_lat": 0.0, "lat": 38.89608916666667, "name": "70c9f690b5cb7f4db02476e9376e49e0", "fusion_lon": 0.0, "bike_id": "70c9f690b5cb7f4db02476e9376e49e0", "is_disabled": 0, "is_reserved": 0}, {"rental_uris": {"ios": "https://dc.lft.to/lastmile_qr_scan", "android": "https://dc.lft.to/lastmile_qr_scan"}, "lon": -77.04415383333334, "type": "electric_scooter", "fusion_lat": 0.0, "lat": 38.90571883333333, "name": "4a59aad27c2e80a2587045fafea1a5c2", "fusion_lon": 0.0, "bike_id": "4a59aad27c2e80a2587045fafea1a5c2", "is_disabled": 0, "is_reserved": 0}, {"rental_uris": {"ios": "https://dc.lft.to/lastmile_qr_scan", "android": "https://dc.lft.to/lastmile_qr_scan"}, "lon": -77.01107933333333, "type": "electric_scooter", "fusion_lat": 0.0, "lat": 38.90011166666667, "name": "b54fd42e8ed423ed47c50a874ee5294b", "fusion_lon": 0.0, "bike_id": "b54fd42e8ed423ed47c50a874ee5294b", "is_disabled": 0, "is_reserved": 0}, {"rental_uris": {"ios": "https://dc.lft.to/lastmile_qr_scan", "android": "https://dc.lft.to/lastmile_qr_scan"}, "lon": -77.01650416666666, "type": "electric_scooter", "fusion_lat": 0.0, "lat": 38.953297666666664, "name": "23be59eb5361b3d5bdf4069644e76a52", "fusion_lon": 0.0, "bike_id": "23be59eb5361b3d5bdf4069644e76a52", "is_disabled": 0, "is_reserved": 0}, {"rental_uris": {"ios": "https://dc.lft.to/lastmile_qr_scan", "android": "https://dc.lft.to/lastmile_qr_scan"}, "lon": -76.98257766666667, "type": "electric_scooter", "fusion_lat": 0.0, "lat": 38.8635325, "name": "324a541f5a8f168f81f2b4a47a1a24eb", "fusion_lon": 0.0, "bike_id": "324a541f5a8f168f81f2b4a47a1a24eb", "is_disabled": 0, "is_reserved": 0}, {"rental_uris": {"ios": "https://dc.lft.to/lastmile_qr_scan", "android": "https://dc.lft.to/lastmile_qr_scan"}, "lon": -77.05340783333334, "type": "electric_scooter", "fusion_lat": 0.0, "lat": 38.92717433333333, "name": "6551057fff9e5ad05ea1c7630aa3f61b", "fusion_lon": 0.0, "bike_id": "6551057fff9e5ad05ea1c7630aa3f61b", "is_disabled": 0, "is_reserved": 0}, {"rental_uris": {"ios": "https://dc.lft.to/lastmile_qr_scan", "android": "https://dc.lft.to/lastmile_qr_scan"}, "lon": -76.98407783333333, "type": "electric_scooter", "fusion_lat": 0.0, "lat": 38.85972816666666, "name": "bf3ffb46d9a5a426c303fc8fb786fc9a", "fusion_lon": 0.0, "bike_id": "bf3ffb46d9a5a426c303fc8fb786fc9a", "is_disabled": 0, "is_reserved": 0}, {"rental_uris": {"ios": "https://dc.lft.to/lastmile_qr_scan", "android": "https://dc.lft.to/lastmile_qr_scan"}, "lon": -77.04247283333333, "type": "electric_scooter", "fusion_lat": 0.0, "lat": 38.92182783333333, "name": "9e88e479b3f6fe741f5ab27febff18ee", "fusion_lon": 0.0, "bike_id": "9e88e479b3f6fe741f5ab27febff18ee", "is_disabled": 0, "is_reserved": 0}, {"rental_uris": {"ios": "https://dc.lft.to/lastmile_qr_scan", "android": "https://dc.lft.to/lastmile_qr_scan"}, "lon": -77.029462, "type": "electric_scooter", "fusion_lat": 0.0, "lat": 38.915839, "name": "5a9d8b6d01bbf0b235b8a429f4a0ba9f", "fusion_lon": 0.0, "bike_id": "5a9d8b6d01bbf0b235b8a429f4a0ba9f", "is_disabled": 0, "is_reserved": 0}, {"rental_uris": {"ios": "https://dc.lft.to/lastmile_qr_scan", "android": "https://dc.lft.to/lastmile_qr_scan"}, "lon": -77.03225833333333, "type": "electric_scooter", "fusion_lat": 0.0, "lat": 38.9181775, "name": "8ecaf0c206d405cfe9c6525fea70b849", "fusion_lon": 0.0, "bike_id": "8ecaf0c206d405cfe9c6525fea70b849", "is_disabled": 0, "is_reserved": 0}, {"rental_uris": {"ios": "https://dc.lft.to/lastmile_qr_scan", "android": "https://dc.lft.to/lastmile_qr_scan"}, "lon": -77.032017, "type": "electric_scooter", "fusion_lat": 0.0, "lat": 38.918154333333334, "name": "8bf6d0ee21532c70321f1f811e3a78e6", "fusion_lon": 0.0, "bike_id": "8bf6d0ee21532c70321f1f811e3a78e6", "is_disabled": 0, "is_reserved": 0}, {"rental_uris": {"ios": "https://dc.lft.to/lastmile_qr_scan", "android": "https://dc.lft.to/lastmile_qr_scan"}, "lon": -77.00276216666667, "type": "electric_scooter", "fusion_lat": 0.0, "lat": 38.8974275, "name": "34b07d36af13ed3338c90c40ce0cfb04", "fusion_lon": 0.0, "bike_id": "34b07d36af13ed3338c90c40ce0cfb04", "is_disabled": 0, "is_reserved": 0}, {"rental_uris": {"ios": "https://dc.lft.to/lastmile_qr_scan", "android": "https://dc.lft.to/lastmile_qr_scan"}, "lon": -77.04735183333334, "type": "electric_scooter", "fusion_lat": 0.0, "lat": 38.902319, "name": "26eddfc134814ad9468c764e9b256485", "fusion_lon": 0.0, "bike_id": "26eddfc134814ad9468c764e9b256485", "is_disabled": 0, "is_reserved": 0}, {"rental_uris": {"ios": "https://dc.lft.to/lastmile_qr_scan", "android": "https://dc.lft.to/lastmile_qr_scan"}, "lon": -77.03177616666666, "type": "electric_scooter", "fusion_lat": 0.0, "lat": 38.913333333333334, "name": "6a456963358efe2b0bbc921e450b9e65", "fusion_lon": 0.0, "bike_id": "6a456963358efe2b0bbc921e450b9e65", "is_disabled": 0, "is_reserved": 0}, {"rental_uris": {"ios": "https://dc.lft.to/lastmile_qr_scan", "android": "https://dc.lft.to/lastmile_qr_scan"}, "lon": -77.04859616666667, "type": "electric_scooter", "fusion_lat": 0.0, "lat": 38.90379516666667, "name": "47f97000c9c452e1e002bea314a2a5d7", "fusion_lon": 0.0, "bike_id": "47f97000c9c452e1e002bea314a2a5d7", "is_disabled": 0, "is_reserved": 0}, {"rental_uris": {"ios": "https://dc.lft.to/lastmile_qr_scan", "android": "https://dc.lft.to/lastmile_qr_scan"}, "lon": -77.105051, "type": "electric_bike", "fusion_lat": 0.0, "lat": 38.928478, "name": "140d7e811b9f58581481d9368d5f66c7", "fusion_lon": 0.0, "bike_id": "140d7e811b9f58581481d9368d5f66c7", "is_disabled": 0, "is_reserved": 0}, {"rental_uris": {"ios": "https://dc.lft.to/lastmile_qr_scan", "android": "https://dc.lft.to/lastmile_qr_scan"}, "lon": -77.03162583333334, "type": "electric_scooter", "fusion_lat": 0.0, "lat": 38.89336083333333, "name": "adc28939f9f469a445a0229bffd4c80c", "fusion_lon": 0.0, "bike_id": "adc28939f9f469a445a0229bffd4c80c", "is_disabled": 0, "is_reserved": 0}, {"rental_uris": {"ios": "https://dc.lft.to/lastmile_qr_scan", "android": "https://dc.lft.to/lastmile_qr_scan"}, "lon": -77.0893745, "type": "electric_bike", "fusion_lat": 0.0, "lat": 38.84096, "name": "28886f4c52095fce8104a00cb486e9ff", "fusion_lon": 0.0, "bike_id": "28886f4c52095fce8104a00cb486e9ff", "is_disabled": 0, "is_reserved": 0}, {"rental_uris": {"ios": "https://dc.lft.to/lastmile_qr_scan", "android": "https://dc.lft.to/lastmile_qr_scan"}, "lon": -77.00721483333334, "type": "electric_scooter", "fusion_lat": 0.0, "lat": 38.900228166666665, "name": "eed34aa83a831d83bb5d1c37873b5055", "fusion_lon": 0.0, "bike_id": "eed34aa83a831d83bb5d1c37873b5055", "is_disabled": 0, "is_reserved": 0}, {"rental_uris": {"ios": "https://dc.lft.to/lastmile_qr_scan", "android": "https://dc.lft.to/lastmile_qr_scan"}, "lon": -77.06535116666667, "type": "electric_scooter", "fusion_lat": 0.0, "lat": 38.9047565, "name": "e9c7186e5c5e207a531c3505880e61c5", "fusion_lon": 0.0, "bike_id": "e9c7186e5c5e207a531c3505880e61c5", "is_disabled": 0, "is_reserved": 0}, {"rental_uris": {"ios": "https://dc.lft.to/lastmile_qr_scan", "android": "https://dc.lft.to/lastmile_qr_scan"}, "lon": -77.01369283333334, "type": "electric_scooter", "fusion_lat": 0.0, "lat": 38.89222066666667, "name": "3c7491354d6582666821de1f99bd660d", "fusion_lon": 0.0, "bike_id": "3c7491354d6582666821de1f99bd660d", "is_disabled": 0, "is_reserved": 0}, {"rental_uris": {"ios": "https://dc.lft.to/lastmile_qr_scan", "android": "https://dc.lft.to/lastmile_qr_scan"}, "lon": -77.00496916666667, "type": "electric_scooter", "fusion_lat": 0.0, "lat": 38.87890316666667, "name": "c110cd245da985c85b497712ff5650f1", "fusion_lon": 0.0, "bike_id": "c110cd245da985c85b497712ff5650f1", "is_disabled": 0, "is_reserved": 0}, {"rental_uris": {"ios": "https://dc.lft.to/lastmile_qr_scan", "android": "https://dc.lft.to/lastmile_qr_scan"}, "lon": -76.99506, "type": "electric_scooter", "fusion_lat": 0.0, "lat": 38.886311666666664, "name": "2cead46b7db387d21e0e5377d38d80a8", "fusion_lon": 0.0, "bike_id": "2cead46b7db387d21e0e5377d38d80a8", "is_disabled": 0, "is_reserved": 0}, {"rental_uris": {"ios": "https://dc.lft.to/lastmile_qr_scan", "android": "https://dc.lft.to/lastmile_qr_scan"}, "lon": -77.04164783333333, "type": "electric_scooter", "fusion_lat": 0.0, "lat": 38.919027666666665, "name": "4d15f73afa847c3d8d251d485bfc2194", "fusion_lon": 0.0, "bike_id": "4d15f73afa847c3d8d251d485bfc2194", "is_disabled": 0, "is_reserved": 0}, {"rental_uris": {"ios": "https://dc.lft.to/lastmile_qr_scan", "android": "https://dc.lft.to/lastmile_qr_scan"}, "lon": -76.9588205, "type": "electric_scooter", "fusion_lat": 0.0, "lat": 38.85852966666667, "name": "da95dd85a92059e308f793f4c1d93eb8", "fusion_lon": 0.0, "bike_id": "da95dd85a92059e308f793f4c1d93eb8", "is_disabled": 0, "is_reserved": 0}, {"rental_uris": {"ios": "https://dc.lft.to/lastmile_qr_scan", "android": "https://dc.lft.to/lastmile_qr_scan"}, "lon": -76.99830266666666, "type": "electric_bike", "fusion_lat": 0.0, "lat": 38.83917983333333, "name": "985849352e81620a46467ff0ad9ee64f", "fusion_lon": 0.0, "bike_id": "985849352e81620a46467ff0ad9ee64f", "is_disabled": 0, "is_reserved": 0}, {"rental_uris": {"ios": "https://dc.lft.to/lastmile_qr_scan", "android": "https://dc.lft.to/lastmile_qr_scan"}, "lon": -77.022687, "type": "electric_scooter", "fusion_lat": 0.0, "lat": 38.912737166666666, "name": "8e59a5d8d778df38740c05521832adb4", "fusion_lon": 0.0, "bike_id": "8e59a5d8d778df38740c05521832adb4", "is_disabled": 0, "is_reserved": 0}, {"rental_uris": {"ios": "https://dc.lft.to/lastmile_qr_scan", "android": "https://dc.lft.to/lastmile_qr_scan"}, "lon": -76.98020916666667, "type": "electric_scooter", "fusion_lat": 0.0, "lat": 38.9037695, "name": "73d20b1a4daae3186b15b21983fcd0ce", "fusion_lon": 0.0, "bike_id": "73d20b1a4daae3186b15b21983fcd0ce", "is_disabled": 0, "is_reserved": 0}, {"rental_uris": {"ios": "https://dc.lft.to/lastmile_qr_scan", "android": "https://dc.lft.to/lastmile_qr_scan"}, "lon": -77.0433615, "type": "electric_scooter", "fusion_lat": 0.0, "lat": 38.927944, "name": "f390340058b19f4c39cb739a5f7b0757", "fusion_lon": 0.0, "bike_id": "f390340058b19f4c39cb739a5f7b0757", "is_disabled": 0, "is_reserved": 0}, {"rental_uris": {"ios": "https://dc.lft.to/lastmile_qr_scan", "android": "https://dc.lft.to/lastmile_qr_scan"}, "lon": -77.02499766666666, "type": "electric_scooter", "fusion_lat": 0.0, "lat": 38.89747033333333, "name": "129cd18afbf9611fe29301ef89e87991", "fusion_lon": 0.0, "bike_id": "129cd18afbf9611fe29301ef89e87991", "is_disabled": 0, "is_reserved": 0}, {"rental_uris": {"ios": "https://dc.lft.to/lastmile_qr_scan", "android": "https://dc.lft.to/lastmile_qr_scan"}, "lon": -77.0114725, "type": "electric_bike", "fusion_lat": 0.0, "lat": 38.9117635, "name": "672783136e09e49243eb7923a42c2c6e", "fusion_lon": 0.0, "bike_id": "672783136e09e49243eb7923a42c2c6e", "is_disabled": 0, "is_reserved": 0}, {"rental_uris": {"ios": "https://dc.lft.to/lastmile_qr_scan", "android": "https://dc.lft.to/lastmile_qr_scan"}, "lon": -76.9575135, "type": "electric_scooter", "fusion_lat": 0.0, "lat": 38.88692566666667, "name": "4317fe760f50c1a9474860faaa03ca88", "fusion_lon": 0.0, "bike_id": "4317fe760f50c1a9474860faaa03ca88", "is_disabled": 0, "is_reserved": 0}, {"rental_uris": {"ios": "https://dc.lft.to/lastmile_qr_scan", "android": "https://dc.lft.to/lastmile_qr_scan"}, "lon": -76.98886216666666, "type": "electric_scooter", "fusion_lat": 0.0, "lat": 38.866543666666665, "name": "96525a74e3cce1f6a89d9ff9d62b5de9", "fusion_lon": 0.0, "bike_id": "96525a74e3cce1f6a89d9ff9d62b5de9", "is_disabled": 0, "is_reserved": 0}, {"rental_uris": {"ios": "https://dc.lft.to/lastmile_qr_scan", "android": "https://dc.lft.to/lastmile_qr_scan"}, "lon": -77.031904, "type": "electric_scooter", "fusion_lat": 0.0, "lat": 38.8935805, "name": "ae5ab1265d56f04213ecd672751f98b9", "fusion_lon": 0.0, "bike_id": "ae5ab1265d56f04213ecd672751f98b9", "is_disabled": 0, "is_reserved": 0}, {"rental_uris": {"ios": "https://dc.lft.to/lastmile_qr_scan", "android": "https://dc.lft.to/lastmile_qr_scan"}, "lon": -77.0511875, "type": "electric_bike", "fusion_lat": 0.0, "lat": 38.99969866666667, "name": "737aa21e794c43d32f0290a0520d6e3e", "fusion_lon": 0.0, "bike_id": "737aa21e794c43d32f0290a0520d6e3e", "is_disabled": 0, "is_reserved": 0}, {"rental_uris": {"ios": "https://dc.lft.to/lastmile_qr_scan", "android": "https://dc.lft.to/lastmile_qr_scan"}, "lon": -77.041699, "type": "electric_scooter", "fusion_lat": 0.0, "lat": 38.90985083333333, "name": "2d1d66c40e5b01d59e7a903cac92ab21", "fusion_lon": 0.0, "bike_id": "2d1d66c40e5b01d59e7a903cac92ab21", "is_disabled": 0, "is_reserved": 0}, {"rental_uris": {"ios": "https://dc.lft.to/lastmile_qr_scan", "android": "https://dc.lft.to/lastmile_qr_scan"}, "lon": -76.9808195, "type": "electric_bike", "fusion_lat": 0.0, "lat": 38.9028955, "name": "d27a94e6e51ae78a5d9c1ef1073df7bd", "fusion_lon": 0.0, "bike_id": "d27a94e6e51ae78a5d9c1ef1073df7bd", "is_disabled": 0, "is_reserved": 0}, {"rental_uris": {"ios": "https://dc.lft.to/lastmile_qr_scan", "android": "https://dc.lft.to/lastmile_qr_scan"}, "lon": -77.02346366666667, "type": "electric_scooter", "fusion_lat": 0.0, "lat": 38.9338725, "name": "682ed000f35e2727c5c254712e6961ac", "fusion_lon": 0.0, "bike_id": "682ed000f35e2727c5c254712e6961ac", "is_disabled": 0, "is_reserved": 0}, {"rental_uris": {"ios": "https://dc.lft.to/lastmile_qr_scan", "android": "https://dc.lft.to/lastmile_qr_scan"}, "lon": -76.93615183333333, "type": "electric_bike", "fusion_lat": 0.0, "lat": 38.97059466666666, "name": "6ce0e15166d853561d0f84f07fb3e97f", "fusion_lon": 0.0, "bike_id": "6ce0e15166d853561d0f84f07fb3e97f", "is_disabled": 0, "is_reserved": 0}, {"rental_uris": {"ios": "https://dc.lft.to/lastmile_qr_scan", "android": "https://dc.lft.to/lastmile_qr_scan"}, "lon": -77.11933316666666, "type": "electric_bike", "fusion_lat": 0.0, "lat": 38.84106416666667, "name": "b39e3bf93e2e50e0ca81ae0456be5396", "fusion_lon": 0.0, "bike_id": "b39e3bf93e2e50e0ca81ae0456be5396", "is_disabled": 0, "is_reserved": 0}, {"rental_uris": {"ios": "https://dc.lft.to/lastmile_qr_scan", "android": "https://dc.lft.to/lastmile_qr_scan"}, "lon": -77.02708216666667, "type": "electric_scooter", "fusion_lat": 0.0, "lat": 38.881385333333334, "name": "c08324ad3cb426d8753b212f06bd882e", "fusion_lon": 0.0, "bike_id": "c08324ad3cb426d8753b212f06bd882e", "is_disabled": 0, "is_reserved": 0}, {"rental_uris": {"ios": "https://dc.lft.to/lastmile_qr_scan", "android": "https://dc.lft.to/lastmile_qr_scan"}, "lon": -77.014337, "type": "electric_scooter", "fusion_lat": 0.0, "lat": 38.9196275, "name": "91222f18d149c3a93c52920d293e2da4", "fusion_lon": 0.0, "bike_id": "91222f18d149c3a93c52920d293e2da4", "is_disabled": 0, "is_reserved": 0}, {"rental_uris": {"ios": "https://dc.lft.to/lastmile_qr_scan", "android": "https://dc.lft.to/lastmile_qr_scan"}, "lon": -77.02970983333333, "type": "electric_scooter", "fusion_lat": 0.0, "lat": 38.89567983333333, "name": "2118f151116a52ac72c015ea9ecd0f68", "fusion_lon": 0.0, "bike_id": "2118f151116a52ac72c015ea9ecd0f68", "is_disabled": 0, "is_reserved": 0}, {"rental_uris": {"ios": "https://dc.lft.to/lastmile_qr_scan", "android": "https://dc.lft.to/lastmile_qr_scan"}, "lon": -77.00753483333334, "type": "electric_scooter", "fusion_lat": 0.0, "lat": 38.87137033333333, "name": "af7840f6477f3becb184b6968b0df1e6", "fusion_lon": 0.0, "bike_id": "af7840f6477f3becb184b6968b0df1e6", "is_disabled": 0, "is_reserved": 0}, {"rental_uris": {"ios": "https://dc.lft.to/lastmile_qr_scan", "android": "https://dc.lft.to/lastmile_qr_scan"}, "lon": -77.06936433333334, "type": "electric_bike", "fusion_lat": 0.0, "lat": 38.846273333333336, "name": "347419c74a7ad3531d409c1f5b71cd00", "fusion_lon": 0.0, "bike_id": "347419c74a7ad3531d409c1f5b71cd00", "is_disabled": 0, "is_reserved": 0}, {"rental_uris": {"ios": "https://dc.lft.to/lastmile_qr_scan", "android": "https://dc.lft.to/lastmile_qr_scan"}, "lon": -77.07895566666667, "type": "electric_bike", "fusion_lat": 0.0, "lat": 38.83938916666666, "name": "c5777ec854962f4b0892c9df19fcb54f", "fusion_lon": 0.0, "bike_id": "c5777ec854962f4b0892c9df19fcb54f", "is_disabled": 0, "is_reserved": 0}, {"rental_uris": {"ios": "https://dc.lft.to/lastmile_qr_scan", "android": "https://dc.lft.to/lastmile_qr_scan"}, "lon": -77.08189733333333, "type": "electric_bike", "fusion_lat": 0.0, "lat": 38.92206016666667, "name": "af52e3400e5ee379aa41e077a2081a5b", "fusion_lon": 0.0, "bike_id": "af52e3400e5ee379aa41e077a2081a5b", "is_disabled": 0, "is_reserved": 0}, {"rental_uris": {"ios": "https://dc.lft.to/lastmile_qr_scan", "android": "https://dc.lft.to/lastmile_qr_scan"}, "lon": -77.04019416666667, "type": "electric_scooter", "fusion_lat": 0.0, "lat": 38.91796866666667, "name": "cbb874cd638e558fb7cbb54591b2acc3", "fusion_lon": 0.0, "bike_id": "cbb874cd638e558fb7cbb54591b2acc3", "is_disabled": 0, "is_reserved": 0}, {"rental_uris": {"ios": "https://dc.lft.to/lastmile_qr_scan", "android": "https://dc.lft.to/lastmile_qr_scan"}, "lon": -77.01671116666667, "type": "electric_bike", "fusion_lat": 0.0, "lat": 38.88122083333333, "name": "70baafb9c0a86c024dc4981a368e0451", "fusion_lon": 0.0, "bike_id": "70baafb9c0a86c024dc4981a368e0451", "is_disabled": 0, "is_reserved": 0}, {"rental_uris": {"ios": "https://dc.lft.to/lastmile_qr_scan", "android": "https://dc.lft.to/lastmile_qr_scan"}, "lon": -76.97611083333334, "type": "electric_bike", "fusion_lat": 0.0, "lat": 38.91308516666667, "name": "2787549c2b9428faa6c21339f7f6b5ce", "fusion_lon": 0.0, "bike_id": "2787549c2b9428faa6c21339f7f6b5ce", "is_disabled": 0, "is_reserved": 0}, {"rental_uris": {"ios": "https://dc.lft.to/lastmile_qr_scan", "android": "https://dc.lft.to/lastmile_qr_scan"}, "lon": -77.02481383333334, "type": "electric_scooter", "fusion_lat": 0.0, "lat": 38.91983616666667, "name": "b5507e9ae8c702bb20cd00bd8ea38bfb", "fusion_lon": 0.0, "bike_id": "b5507e9ae8c702bb20cd00bd8ea38bfb", "is_disabled": 0, "is_reserved": 0}, {"rental_uris": {"ios": "https://dc.lft.to/lastmile_qr_scan", "android": "https://dc.lft.to/lastmile_qr_scan"}, "lon": -76.99034983333334, "type": "electric_scooter", "fusion_lat": 0.0, "lat": 38.85867833333333, "name": "0702e1e9a586dd61e959886fae134208", "fusion_lon": 0.0, "bike_id": "0702e1e9a586dd61e959886fae134208", "is_disabled": 0, "is_reserved": 0}, {"rental_uris": {"ios": "https://dc.lft.to/lastmile_qr_scan", "android": "https://dc.lft.to/lastmile_qr_scan"}, "lon": -77.06250766666666, "type": "electric_scooter", "fusion_lat": 0.0, "lat": 38.90677566666667, "name": "aea505941b3eabcea1c1f4ce80b61357", "fusion_lon": 0.0, "bike_id": "aea505941b3eabcea1c1f4ce80b61357", "is_disabled": 0, "is_reserved": 0}, {"rental_uris": {"ios": "https://dc.lft.to/lastmile_qr_scan", "android": "https://dc.lft.to/lastmile_qr_scan"}, "lon": -77.03743483333334, "type": "electric_scooter", "fusion_lat": 0.0, "lat": 38.9169465, "name": "7fcad70a4055329974e77bc32f354770", "fusion_lon": 0.0, "bike_id": "7fcad70a4055329974e77bc32f354770", "is_disabled": 0, "is_reserved": 0}, {"rental_uris": {"ios": "https://dc.lft.to/lastmile_qr_scan", "android": "https://dc.lft.to/lastmile_qr_scan"}, "lon": -77.06690733333333, "type": "electric_scooter", "fusion_lat": 0.0, "lat": 38.909754166666666, "name": "024569704b7ba798eeaf1997ca8d48ac", "fusion_lon": 0.0, "bike_id": "024569704b7ba798eeaf1997ca8d48ac", "is_disabled": 0, "is_reserved": 0}, {"rental_uris": {"ios": "https://dc.lft.to/lastmile_qr_scan", "android": "https://dc.lft.to/lastmile_qr_scan"}, "lon": -77.04381833333333, "type": "electric_scooter", "fusion_lat": 0.0, "lat": 38.9227775, "name": "6d42bfc66d119d7e828fec517a775663", "fusion_lon": 0.0, "bike_id": "6d42bfc66d119d7e828fec517a775663", "is_disabled": 0, "is_reserved": 0}, {"rental_uris": {"ios": "https://dc.lft.to/lastmile_qr_scan", "android": "https://dc.lft.to/lastmile_qr_scan"}, "lon": -77.002676, "type": "electric_bike", "fusion_lat": 0.0, "lat": 38.9116325, "name": "e3d0f3b49a811143354c0c6c58f92b3a", "fusion_lon": 0.0, "bike_id": "e3d0f3b49a811143354c0c6c58f92b3a", "is_disabled": 0, "is_reserved": 0}, {"rental_uris": {"ios": "https://dc.lft.to/lastmile_qr_scan", "android": "https://dc.lft.to/lastmile_qr_scan"}, "lon": -77.0470825, "type": "electric_scooter", "fusion_lat": 0.0, "lat": 38.90860216666667, "name": "25e66d0330eef9443596c847685bff3f", "fusion_lon": 0.0, "bike_id": "25e66d0330eef9443596c847685bff3f", "is_disabled": 0, "is_reserved": 0}, {"rental_uris": {"ios": "https://dc.lft.to/lastmile_qr_scan", "android": "https://dc.lft.to/lastmile_qr_scan"}, "lon": -76.98171266666667, "type": "electric_scooter", "fusion_lat": 0.0, "lat": 38.87701083333333, "name": "ae1ce7175d2e48176016b4b17327f080", "fusion_lon": 0.0, "bike_id": "ae1ce7175d2e48176016b4b17327f080", "is_disabled": 0, "is_reserved": 0}, {"rental_uris": {"ios": "https://dc.lft.to/lastmile_qr_scan", "android": "https://dc.lft.to/lastmile_qr_scan"}, "lon": -76.931704, "type": "electric_scooter", "fusion_lat": 0.0, "lat": 38.898862333333334, "name": "68d94f3bbf38f732ec7f7704a29ce068", "fusion_lon": 0.0, "bike_id": "68d94f3bbf38f732ec7f7704a29ce068", "is_disabled": 0, "is_reserved": 0}, {"rental_uris": {"ios": "https://dc.lft.to/lastmile_qr_scan", "android": "https://dc.lft.to/lastmile_qr_scan"}, "lon": -77.03353316666667, "type": "electric_scooter", "fusion_lat": 0.0, "lat": 38.88752733333333, "name": "b4884613384a225eaac8bed82416d116", "fusion_lon": 0.0, "bike_id": "b4884613384a225eaac8bed82416d116", "is_disabled": 0, "is_reserved": 0}, {"rental_uris": {"ios": "https://dc.lft.to/lastmile_qr_scan", "android": "https://dc.lft.to/lastmile_qr_scan"}, "lon": -76.92712783333333, "type": "electric_scooter", "fusion_lat": 0.0, "lat": 38.88766483333333, "name": "b00a07c0b48cdb951e588578aa6f18ae", "fusion_lon": 0.0, "bike_id": "b00a07c0b48cdb951e588578aa6f18ae", "is_disabled": 0, "is_reserved": 0}, {"rental_uris": {"ios": "https://dc.lft.to/lastmile_qr_scan", "android": "https://dc.lft.to/lastmile_qr_scan"}, "lon": -77.04550833333333, "type": "electric_scooter", "fusion_lat": 0.0, "lat": 38.912687166666664, "name": "db64a318e855f49fe0d0b207e189a020", "fusion_lon": 0.0, "bike_id": "db64a318e855f49fe0d0b207e189a020", "is_disabled": 0, "is_reserved": 0}, {"rental_uris": {"ios": "https://dc.lft.to/lastmile_qr_scan", "android": "https://dc.lft.to/lastmile_qr_scan"}, "lon": -77.00890433333333, "type": "electric_scooter", "fusion_lat": 0.0, "lat": 38.912329166666666, "name": "55a3c078c170c1016f013a5ec2927b1e", "fusion_lon": 0.0, "bike_id": "55a3c078c170c1016f013a5ec2927b1e", "is_disabled": 0, "is_reserved": 0}, {"rental_uris": {"ios": "https://dc.lft.to/lastmile_qr_scan", "android": "https://dc.lft.to/lastmile_qr_scan"}, "lon": -77.0319795, "type": "electric_scooter", "fusion_lat": 0.0, "lat": 38.92482066666667, "name": "8020c23cf7df264de065c4172b7883f9", "fusion_lon": 0.0, "bike_id": "8020c23cf7df264de065c4172b7883f9", "is_disabled": 0, "is_reserved": 0}, {"rental_uris": {"ios": "https://dc.lft.to/lastmile_qr_scan", "android": "https://dc.lft.to/lastmile_qr_scan"}, "lon": -77.01604516666667, "type": "electric_scooter", "fusion_lat": 0.0, "lat": 38.91134133333333, "name": "7d5744e0ad9517f16a962a8c5d860131", "fusion_lon": 0.0, "bike_id": "7d5744e0ad9517f16a962a8c5d860131", "is_disabled": 0, "is_reserved": 0}, {"rental_uris": {"ios": "https://dc.lft.to/lastmile_qr_scan", "android": "https://dc.lft.to/lastmile_qr_scan"}, "lon": -77.0437065, "type": "electric_bike", "fusion_lat": 0.0, "lat": 38.928052666666666, "name": "69e1524802e938efc1eeabf7d5f4fe6e", "fusion_lon": 0.0, "bike_id": "69e1524802e938efc1eeabf7d5f4fe6e", "is_disabled": 0, "is_reserved": 0}, {"rental_uris": {"ios": "https://dc.lft.to/lastmile_qr_scan", "android": "https://dc.lft.to/lastmile_qr_scan"}, "lon": -76.965259, "type": "electric_scooter", "fusion_lat": 0.0, "lat": 38.8762835, "name": "9a0896579419f4819aae66119a260eba", "fusion_lon": 0.0, "bike_id": "9a0896579419f4819aae66119a260eba", "is_disabled": 0, "is_reserved": 0}, {"rental_uris": {"ios": "https://dc.lft.to/lastmile_qr_scan", "android": "https://dc.lft.to/lastmile_qr_scan"}, "lon": -77.043363, "type": "electric_scooter", "fusion_lat": 0.0, "lat": 38.9065675, "name": "5a824cbb22ab8e2fe262a4e45e7de33c", "fusion_lon": 0.0, "bike_id": "5a824cbb22ab8e2fe262a4e45e7de33c", "is_disabled": 0, "is_reserved": 0}, {"rental_uris": {"ios": "https://dc.lft.to/lastmile_qr_scan", "android": "https://dc.lft.to/lastmile_qr_scan"}, "lon": -77.0330265, "type": "electric_scooter", "fusion_lat": 0.0, "lat": 38.911163, "name": "0515c7a3e313ddfffa72d5e397425f0c", "fusion_lon": 0.0, "bike_id": "0515c7a3e313ddfffa72d5e397425f0c", "is_disabled": 0, "is_reserved": 0}, {"rental_uris": {"ios": "https://dc.lft.to/lastmile_qr_scan", "android": "https://dc.lft.to/lastmile_qr_scan"}, "lon": -76.99961966666666, "type": "electric_scooter", "fusion_lat": 0.0, "lat": 38.90698916666667, "name": "0b508517634aa13cfc5b1af4fa4cb3d3", "fusion_lon": 0.0, "bike_id": "0b508517634aa13cfc5b1af4fa4cb3d3", "is_disabled": 0, "is_reserved": 0}, {"rental_uris": {"ios": "https://dc.lft.to/lastmile_qr_scan", "android": "https://dc.lft.to/lastmile_qr_scan"}, "lon": -77.010949, "type": "electric_scooter", "fusion_lat": 0.0, "lat": 38.9035835, "name": "2f091c7d8860fb8f1174cf28aa4a5b95", "fusion_lon": 0.0, "bike_id": "2f091c7d8860fb8f1174cf28aa4a5b95", "is_disabled": 0, "is_reserved": 0}, {"rental_uris": {"ios": "https://dc.lft.to/lastmile_qr_scan", "android": "https://dc.lft.to/lastmile_qr_scan"}, "lon": -77.02397666666667, "type": "electric_scooter", "fusion_lat": 0.0, "lat": 38.906655666666666, "name": "7c73a52185a9b4045336c67d596eb152", "fusion_lon": 0.0, "bike_id": "7c73a52185a9b4045336c67d596eb152", "is_disabled": 0, "is_reserved": 0}, {"rental_uris": {"ios": "https://dc.lft.to/lastmile_qr_scan", "android": "https://dc.lft.to/lastmile_qr_scan"}, "lon": -77.12741166666666, "type": "electric_bike", "fusion_lat": 0.0, "lat": 38.8882415, "name": "d2290c956d67466fe2cee7ca2df28e7c", "fusion_lon": 0.0, "bike_id": "d2290c956d67466fe2cee7ca2df28e7c", "is_disabled": 0, "is_reserved": 0}, {"rental_uris": {"ios": "https://dc.lft.to/lastmile_qr_scan", "android": "https://dc.lft.to/lastmile_qr_scan"}, "lon": -77.04945466666666, "type": "electric_scooter", "fusion_lat": 0.0, "lat": 38.896742, "name": "46667302a78d44d22c69b7b583d087fc", "fusion_lon": 0.0, "bike_id": "46667302a78d44d22c69b7b583d087fc", "is_disabled": 0, "is_reserved": 0}, {"rental_uris": {"ios": "https://dc.lft.to/lastmile_qr_scan", "android": "https://dc.lft.to/lastmile_qr_scan"}, "lon": -77.0316525, "type": "electric_scooter", "fusion_lat": 0.0, "lat": 38.896120333333336, "name": "275391fe4c3173be266681bead4ada7d", "fusion_lon": 0.0, "bike_id": "275391fe4c3173be266681bead4ada7d", "is_disabled": 0, "is_reserved": 0}, {"rental_uris": {"ios": "https://dc.lft.to/lastmile_qr_scan", "android": "https://dc.lft.to/lastmile_qr_scan"}, "lon": -76.98770016666667, "type": "electric_scooter", "fusion_lat": 0.0, "lat": 38.911727666666664, "name": "db8728992105ad466e82173adbd228c2", "fusion_lon": 0.0, "bike_id": "db8728992105ad466e82173adbd228c2", "is_disabled": 0, "is_reserved": 0}, {"rental_uris": {"ios": "https://dc.lft.to/lastmile_qr_scan", "android": "https://dc.lft.to/lastmile_qr_scan"}, "lon": -77.06153366666666, "type": "electric_scooter", "fusion_lat": 0.0, "lat": 38.942308, "name": "6b33fe4fe2812a31315c2acca3b0b58b", "fusion_lon": 0.0, "bike_id": "6b33fe4fe2812a31315c2acca3b0b58b", "is_disabled": 0, "is_reserved": 0}, {"rental_uris": {"ios": "https://dc.lft.to/lastmile_qr_scan", "android": "https://dc.lft.to/lastmile_qr_scan"}, "lon": -77.0345275, "type": "electric_scooter", "fusion_lat": 0.0, "lat": 38.916664833333336, "name": "5656d6ef9db7e469f3e5a910c60e7d1e", "fusion_lon": 0.0, "bike_id": "5656d6ef9db7e469f3e5a910c60e7d1e", "is_disabled": 0, "is_reserved": 0}, {"rental_uris": {"ios": "https://dc.lft.to/lastmile_qr_scan", "android": "https://dc.lft.to/lastmile_qr_scan"}, "lon": -77.0666045, "type": "electric_scooter", "fusion_lat": 0.0, "lat": 38.949748166666666, "name": "fc0f7d875561de904d8ba15cb0c700ae", "fusion_lon": 0.0, "bike_id": "fc0f7d875561de904d8ba15cb0c700ae", "is_disabled": 0, "is_reserved": 0}, {"rental_uris": {"ios": "https://dc.lft.to/lastmile_qr_scan", "android": "https://dc.lft.to/lastmile_qr_scan"}, "lon": -76.93809883333333, "type": "electric_scooter", "fusion_lat": 0.0, "lat": 38.9131175, "name": "db22e5aeeb73aa0664141f7c846321a5", "fusion_lon": 0.0, "bike_id": "db22e5aeeb73aa0664141f7c846321a5", "is_disabled": 0, "is_reserved": 0}, {"rental_uris": {"ios": "https://dc.lft.to/lastmile_qr_scan", "android": "https://dc.lft.to/lastmile_qr_scan"}, "lon": -77.043198, "type": "electric_scooter", "fusion_lat": 0.0, "lat": 38.8958935, "name": "b791afb69ed577f0d9c9504a9839ca70", "fusion_lon": 0.0, "bike_id": "b791afb69ed577f0d9c9504a9839ca70", "is_disabled": 0, "is_reserved": 0}, {"rental_uris": {"ios": "https://dc.lft.to/lastmile_qr_scan", "android": "https://dc.lft.to/lastmile_qr_scan"}, "lon": -77.04811833333333, "type": "electric_scooter", "fusion_lat": 0.0, "lat": 38.89626416666667, "name": "33386aca50248f9e855e13e836369210", "fusion_lon": 0.0, "bike_id": "33386aca50248f9e855e13e836369210", "is_disabled": 0, "is_reserved": 0}, {"rental_uris": {"ios": "https://dc.lft.to/lastmile_qr_scan", "android": "https://dc.lft.to/lastmile_qr_scan"}, "lon": -77.04033666666666, "type": "electric_scooter", "fusion_lat": 0.0, "lat": 38.92567583333334, "name": "a021c2956d2bae4d4f8f5fe996c97c74", "fusion_lon": 0.0, "bike_id": "a021c2956d2bae4d4f8f5fe996c97c74", "is_disabled": 0, "is_reserved": 0}, {"rental_uris": {"ios": "https://dc.lft.to/lastmile_qr_scan", "android": "https://dc.lft.to/lastmile_qr_scan"}, "lon": -76.97887333333334, "type": "electric_scooter", "fusion_lat": 0.0, "lat": 38.91674183333333, "name": "849cbada8d90fdba2222dc3861745b2e", "fusion_lon": 0.0, "bike_id": "849cbada8d90fdba2222dc3861745b2e", "is_disabled": 0, "is_reserved": 0}, {"rental_uris": {"ios": "https://dc.lft.to/lastmile_qr_scan", "android": "https://dc.lft.to/lastmile_qr_scan"}, "lon": -77.03268266666667, "type": "electric_scooter", "fusion_lat": 0.0, "lat": 38.9374045, "name": "1b5b5df753f8d776d423ab9b9123fe3b", "fusion_lon": 0.0, "bike_id": "1b5b5df753f8d776d423ab9b9123fe3b", "is_disabled": 0, "is_reserved": 0}, {"rental_uris": {"ios": "https://dc.lft.to/lastmile_qr_scan", "android": "https://dc.lft.to/lastmile_qr_scan"}, "lon": -77.0175485, "type": "electric_scooter", "fusion_lat": 0.0, "lat": 38.93897116666667, "name": "6cd807daf8a602faa70d9124aed60a2e", "fusion_lon": 0.0, "bike_id": "6cd807daf8a602faa70d9124aed60a2e", "is_disabled": 0, "is_reserved": 0}, {"rental_uris": {"ios": "https://dc.lft.to/lastmile_qr_scan", "android": "https://dc.lft.to/lastmile_qr_scan"}, "lon": -77.04081483333333, "type": "electric_scooter", "fusion_lat": 0.0, "lat": 38.907157166666664, "name": "afb3ceab29c0ceaadc824797fd6c1cae", "fusion_lon": 0.0, "bike_id": "afb3ceab29c0ceaadc824797fd6c1cae", "is_disabled": 0, "is_reserved": 0}, {"rental_uris": {"ios": "https://dc.lft.to/lastmile_qr_scan", "android": "https://dc.lft.to/lastmile_qr_scan"}, "lon": -77.033549, "type": "electric_scooter", "fusion_lat": 0.0, "lat": 38.90003333333333, "name": "d8b557aa30428d4abd00378aefc1c47e", "fusion_lon": 0.0, "bike_id": "d8b557aa30428d4abd00378aefc1c47e", "is_disabled": 0, "is_reserved": 0}, {"rental_uris": {"ios": "https://dc.lft.to/lastmile_qr_scan", "android": "https://dc.lft.to/lastmile_qr_scan"}, "lon": -76.979843, "type": "electric_bike", "fusion_lat": 0.0, "lat": 38.877505, "name": "23a79d381f56c2a7b7af2099608143df", "fusion_lon": 0.0, "bike_id": "23a79d381f56c2a7b7af2099608143df", "is_disabled": 0, "is_reserved": 0}, {"rental_uris": {"ios": "https://dc.lft.to/lastmile_qr_scan", "android": "https://dc.lft.to/lastmile_qr_scan"}, "lon": -77.36092983333333, "type": "electric_bike", "fusion_lat": 0.0, "lat": 38.939549, "name": "9de879678e1054a286699cd224c1dde1", "fusion_lon": 0.0, "bike_id": "9de879678e1054a286699cd224c1dde1", "is_disabled": 0, "is_reserved": 0}, {"rental_uris": {"ios": "https://dc.lft.to/lastmile_qr_scan", "android": "https://dc.lft.to/lastmile_qr_scan"}, "lon": -77.0257915, "type": "electric_scooter", "fusion_lat": 0.0, "lat": 38.901629666666665, "name": "9faea4e5b9cf0eaa389fc52d26172922", "fusion_lon": 0.0, "bike_id": "9faea4e5b9cf0eaa389fc52d26172922", "is_disabled": 0, "is_reserved": 0}, {"rental_uris": {"ios": "https://dc.lft.to/lastmile_qr_scan", "android": "https://dc.lft.to/lastmile_qr_scan"}, "lon": -77.03284516666666, "type": "electric_scooter", "fusion_lat": 0.0, "lat": 38.92219466666667, "name": "eac33227473cf1515942b604db3aeef0", "fusion_lon": 0.0, "bike_id": "eac33227473cf1515942b604db3aeef0", "is_disabled": 0, "is_reserved": 0}, {"rental_uris": {"ios": "https://dc.lft.to/lastmile_qr_scan", "android": "https://dc.lft.to/lastmile_qr_scan"}, "lon": -77.0209245, "type": "electric_scooter", "fusion_lat": 0.0, "lat": 38.9100805, "name": "7017b183b760d8f1520b3f1027a2f128", "fusion_lon": 0.0, "bike_id": "7017b183b760d8f1520b3f1027a2f128", "is_disabled": 0, "is_reserved": 0}, {"rental_uris": {"ios": "https://dc.lft.to/lastmile_qr_scan", "android": "https://dc.lft.to/lastmile_qr_scan"}, "lon": -77.04994916666666, "type": "electric_scooter", "fusion_lat": 0.0, "lat": 38.8923045, "name": "4351f81a517de692297e5cdb4a3b8a75", "fusion_lon": 0.0, "bike_id": "4351f81a517de692297e5cdb4a3b8a75", "is_disabled": 0, "is_reserved": 0}, {"rental_uris": {"ios": "https://dc.lft.to/lastmile_qr_scan", "android": "https://dc.lft.to/lastmile_qr_scan"}, "lon": -77.025721, "type": "electric_scooter", "fusion_lat": 0.0, "lat": 38.89591333333333, "name": "63f529502499a1e43245ee71c7428f13", "fusion_lon": 0.0, "bike_id": "63f529502499a1e43245ee71c7428f13", "is_disabled": 0, "is_reserved": 0}, {"rental_uris": {"ios": "https://dc.lft.to/lastmile_qr_scan", "android": "https://dc.lft.to/lastmile_qr_scan"}, "lon": -77.00717533333334, "type": "electric_scooter", "fusion_lat": 0.0, "lat": 38.913403833333334, "name": "b1f10b9d7c3790c4d3749d8689527ec0", "fusion_lon": 0.0, "bike_id": "b1f10b9d7c3790c4d3749d8689527ec0", "is_disabled": 0, "is_reserved": 0}, {"rental_uris": {"ios": "https://dc.lft.to/lastmile_qr_scan", "android": "https://dc.lft.to/lastmile_qr_scan"}, "lon": -77.05267633333334, "type": "electric_scooter", "fusion_lat": 0.0, "lat": 38.91014233333333, "name": "f93727b037ffa0b06f01abcb6b56cd1c", "fusion_lon": 0.0, "bike_id": "f93727b037ffa0b06f01abcb6b56cd1c", "is_disabled": 0, "is_reserved": 0}, {"rental_uris": {"ios": "https://dc.lft.to/lastmile_qr_scan", "android": "https://dc.lft.to/lastmile_qr_scan"}, "lon": -77.0029715, "type": "electric_scooter", "fusion_lat": 0.0, "lat": 38.90904883333333, "name": "06179c37990406932d23e29021dd266f", "fusion_lon": 0.0, "bike_id": "06179c37990406932d23e29021dd266f", "is_disabled": 0, "is_reserved": 0}, {"rental_uris": {"ios": "https://dc.lft.to/lastmile_qr_scan", "android": "https://dc.lft.to/lastmile_qr_scan"}, "lon": -77.01594283333333, "type": "electric_scooter", "fusion_lat": 0.0, "lat": 38.89618466666667, "name": "57a3a827b3c7e33fbf66391dc99df802", "fusion_lon": 0.0, "bike_id": "57a3a827b3c7e33fbf66391dc99df802", "is_disabled": 0, "is_reserved": 0}, {"rental_uris": {"ios": "https://dc.lft.to/lastmile_qr_scan", "android": "https://dc.lft.to/lastmile_qr_scan"}, "lon": -77.02707083333334, "type": "electric_scooter", "fusion_lat": 0.0, "lat": 38.91799733333333, "name": "54a1491db3df7ae19603390604f3bcc9", "fusion_lon": 0.0, "bike_id": "54a1491db3df7ae19603390604f3bcc9", "is_disabled": 0, "is_reserved": 0}, {"rental_uris": {"ios": "https://dc.lft.to/lastmile_qr_scan", "android": "https://dc.lft.to/lastmile_qr_scan"}, "lon": -76.93958516666666, "type": "electric_scooter", "fusion_lat": 0.0, "lat": 38.894128333333335, "name": "39258f5a77c059c9c4f97ceb13d8a7f6", "fusion_lon": 0.0, "bike_id": "39258f5a77c059c9c4f97ceb13d8a7f6", "is_disabled": 0, "is_reserved": 0}, {"rental_uris": {"ios": "https://dc.lft.to/lastmile_qr_scan", "android": "https://dc.lft.to/lastmile_qr_scan"}, "lon": -76.92994666666667, "type": "electric_bike", "fusion_lat": 0.0, "lat": 38.887963166666665, "name": "f1425294f891d09ea798c38d23ecede6", "fusion_lon": 0.0, "bike_id": "f1425294f891d09ea798c38d23ecede6", "is_disabled": 0, "is_reserved": 0}, {"rental_uris": {"ios": "https://dc.lft.to/lastmile_qr_scan", "android": "https://dc.lft.to/lastmile_qr_scan"}, "lon": -77.0317065, "type": "electric_bike", "fusion_lat": 0.0, "lat": 38.89773483333333, "name": "9069e1037fc5b16b3106ec3976f0a797", "fusion_lon": 0.0, "bike_id": "9069e1037fc5b16b3106ec3976f0a797", "is_disabled": 0, "is_reserved": 0}, {"rental_uris": {"ios": "https://dc.lft.to/lastmile_qr_scan", "android": "https://dc.lft.to/lastmile_qr_scan"}, "lon": -77.049267, "type": "electric_scooter", "fusion_lat": 0.0, "lat": 38.896081, "name": "29b174b696f88de840ac4eb30ba75d0a", "fusion_lon": 0.0, "bike_id": "29b174b696f88de840ac4eb30ba75d0a", "is_disabled": 0, "is_reserved": 0}, {"rental_uris": {"ios": "https://dc.lft.to/lastmile_qr_scan", "android": "https://dc.lft.to/lastmile_qr_scan"}, "lon": -77.07940283333333, "type": "electric_scooter", "fusion_lat": 0.0, "lat": 38.948791666666665, "name": "e512424390a1e3fc6a0fce20d0280d2f", "fusion_lon": 0.0, "bike_id": "e512424390a1e3fc6a0fce20d0280d2f", "is_disabled": 0, "is_reserved": 0}, {"rental_uris": {"ios": "https://dc.lft.to/lastmile_qr_scan", "android": "https://dc.lft.to/lastmile_qr_scan"}, "lon": -76.97743733333333, "type": "electric_scooter", "fusion_lat": 0.0, "lat": 38.900166166666665, "name": "562751ba2859c7609299a635761a45b0", "fusion_lon": 0.0, "bike_id": "562751ba2859c7609299a635761a45b0", "is_disabled": 0, "is_reserved": 0}, {"rental_uris": {"ios": "https://dc.lft.to/lastmile_qr_scan", "android": "https://dc.lft.to/lastmile_qr_scan"}, "lon": -76.95757583333334, "type": "electric_bike", "fusion_lat": 0.0, "lat": 38.88418, "name": "c50d3f60a3a9a3b6f6ddaedad415d4b4", "fusion_lon": 0.0, "bike_id": "c50d3f60a3a9a3b6f6ddaedad415d4b4", "is_disabled": 0, "is_reserved": 0}, {"rental_uris": {"ios": "https://dc.lft.to/lastmile_qr_scan", "android": "https://dc.lft.to/lastmile_qr_scan"}, "lon": -77.02081533333333, "type": "electric_scooter", "fusion_lat": 0.0, "lat": 38.901669166666665, "name": "62051778ed8bf7ee06a67b6c1b011048", "fusion_lon": 0.0, "bike_id": "62051778ed8bf7ee06a67b6c1b011048", "is_disabled": 0, "is_reserved": 0}, {"rental_uris": {"ios": "https://dc.lft.to/lastmile_qr_scan", "android": "https://dc.lft.to/lastmile_qr_scan"}, "lon": -77.1072105, "type": "electric_bike", "fusion_lat": 0.0, "lat": 38.85532666666667, "name": "a6e4a7fdaf12bc310050aaeb76ad2c05", "fusion_lon": 0.0, "bike_id": "a6e4a7fdaf12bc310050aaeb76ad2c05", "is_disabled": 0, "is_reserved": 0}, {"rental_uris": {"ios": "https://dc.lft.to/lastmile_qr_scan", "android": "https://dc.lft.to/lastmile_qr_scan"}, "lon": -77.03822866666667, "type": "electric_scooter", "fusion_lat": 0.0, "lat": 38.9217025, "name": "7baffa68e5560441e23d16d0c0edba31", "fusion_lon": 0.0, "bike_id": "7baffa68e5560441e23d16d0c0edba31", "is_disabled": 0, "is_reserved": 0}, {"rental_uris": {"ios": "https://dc.lft.to/lastmile_qr_scan", "android": "https://dc.lft.to/lastmile_qr_scan"}, "lon": -76.9761485, "type": "electric_scooter", "fusion_lat": 0.0, "lat": 38.903837833333334, "name": "90ab9a176b8f45a91a6e4e9498c342ed", "fusion_lon": 0.0, "bike_id": "90ab9a176b8f45a91a6e4e9498c342ed", "is_disabled": 0, "is_reserved": 0}, {"rental_uris": {"ios": "https://dc.lft.to/lastmile_qr_scan", "android": "https://dc.lft.to/lastmile_qr_scan"}, "lon": -76.94631183333334, "type": "electric_scooter", "fusion_lat": 0.0, "lat": 38.898335833333334, "name": "7d62221d4ae479c3b654d17748a169a9", "fusion_lon": 0.0, "bike_id": "7d62221d4ae479c3b654d17748a169a9", "is_disabled": 0, "is_reserved": 0}, {"rental_uris": {"ios": "https://dc.lft.to/lastmile_qr_scan", "android": "https://dc.lft.to/lastmile_qr_scan"}, "lon": -77.037851, "type": "electric_scooter", "fusion_lat": 0.0, "lat": 38.926308666666664, "name": "ed8b2ae141f4fac8e7355703c4e16b15", "fusion_lon": 0.0, "bike_id": "ed8b2ae141f4fac8e7355703c4e16b15", "is_disabled": 0, "is_reserved": 0}, {"rental_uris": {"ios": "https://dc.lft.to/lastmile_qr_scan", "android": "https://dc.lft.to/lastmile_qr_scan"}, "lon": -76.87822566666667, "type": "electric_bike", "fusion_lat": 0.0, "lat": 38.992348166666666, "name": "3ce75073fd55d6f118840f1e9eea9608", "fusion_lon": 0.0, "bike_id": "3ce75073fd55d6f118840f1e9eea9608", "is_disabled": 0, "is_reserved": 0}, {"rental_uris": {"ios": "https://dc.lft.to/lastmile_qr_scan", "android": "https://dc.lft.to/lastmile_qr_scan"}, "lon": -77.0567845, "type": "electric_scooter", "fusion_lat": 0.0, "lat": 38.905186, "name": "a0a83ced73049c77c608e66d89cca393", "fusion_lon": 0.0, "bike_id": "a0a83ced73049c77c608e66d89cca393", "is_disabled": 0, "is_reserved": 0}, {"rental_uris": {"ios": "https://dc.lft.to/lastmile_qr_scan", "android": "https://dc.lft.to/lastmile_qr_scan"}, "lon": -77.0352975, "type": "electric_scooter", "fusion_lat": 0.0, "lat": 38.92861216666667, "name": "9b094aa6f2f9a4796ce29cb2a1db7008", "fusion_lon": 0.0, "bike_id": "9b094aa6f2f9a4796ce29cb2a1db7008", "is_disabled": 0, "is_reserved": 0}, {"rental_uris": {"ios": "https://dc.lft.to/lastmile_qr_scan", "android": "https://dc.lft.to/lastmile_qr_scan"}, "lon": -77.04270566666666, "type": "electric_scooter", "fusion_lat": 0.0, "lat": 38.916346, "name": "ba497abec1b5dabafe593a86824d6bcb", "fusion_lon": 0.0, "bike_id": "ba497abec1b5dabafe593a86824d6bcb", "is_disabled": 0, "is_reserved": 0}, {"rental_uris": {"ios": "https://dc.lft.to/lastmile_qr_scan", "android": "https://dc.lft.to/lastmile_qr_scan"}, "lon": -77.04223866666666, "type": "electric_scooter", "fusion_lat": 0.0, "lat": 38.9213185, "name": "3f6a8770102957266ddc1eb9998c00ad", "fusion_lon": 0.0, "bike_id": "3f6a8770102957266ddc1eb9998c00ad", "is_disabled": 0, "is_reserved": 0}, {"rental_uris": {"ios": "https://dc.lft.to/lastmile_qr_scan", "android": "https://dc.lft.to/lastmile_qr_scan"}, "lon": -76.99606383333334, "type": "electric_scooter", "fusion_lat": 0.0, "lat": 38.886249166666666, "name": "01e70e7a9179614e0cd67e149c0a36c4", "fusion_lon": 0.0, "bike_id": "01e70e7a9179614e0cd67e149c0a36c4", "is_disabled": 0, "is_reserved": 0}, {"rental_uris": {"ios": "https://dc.lft.to/lastmile_qr_scan", "android": "https://dc.lft.to/lastmile_qr_scan"}, "lon": -76.97553683333334, "type": "electric_scooter", "fusion_lat": 0.0, "lat": 38.904402166666664, "name": "2d108233cbab6a076d4025a648a92cdb", "fusion_lon": 0.0, "bike_id": "2d108233cbab6a076d4025a648a92cdb", "is_disabled": 0, "is_reserved": 0}, {"rental_uris": {"ios": "https://dc.lft.to/lastmile_qr_scan", "android": "https://dc.lft.to/lastmile_qr_scan"}, "lon": -77.0281785, "type": "electric_scooter", "fusion_lat": 0.0, "lat": 38.896281333333334, "name": "e8270f316f89cb3621619ff54a5b3c03", "fusion_lon": 0.0, "bike_id": "e8270f316f89cb3621619ff54a5b3c03", "is_disabled": 0, "is_reserved": 0}, {"rental_uris": {"ios": "https://dc.lft.to/lastmile_qr_scan", "android": "https://dc.lft.to/lastmile_qr_scan"}, "lon": -76.985666, "type": "electric_scooter", "fusion_lat": 0.0, "lat": 38.86148516666667, "name": "f3f45e3a494dae736ca58f257a1e67ac", "fusion_lon": 0.0, "bike_id": "f3f45e3a494dae736ca58f257a1e67ac", "is_disabled": 0, "is_reserved": 0}, {"rental_uris": {"ios": "https://dc.lft.to/lastmile_qr_scan", "android": "https://dc.lft.to/lastmile_qr_scan"}, "lon": -76.9986675, "type": "electric_scooter", "fusion_lat": 0.0, "lat": 38.900293833333336, "name": "216253f7632a23c26c6816cd976ecf4f", "fusion_lon": 0.0, "bike_id": "216253f7632a23c26c6816cd976ecf4f", "is_disabled": 0, "is_reserved": 0}, {"rental_uris": {"ios": "https://dc.lft.to/lastmile_qr_scan", "android": "https://dc.lft.to/lastmile_qr_scan"}, "lon": -76.97323766666666, "type": "electric_scooter", "fusion_lat": 0.0, "lat": 38.93034983333333, "name": "5c1f3482c917ad9098fdf79c0a6a1db4", "fusion_lon": 0.0, "bike_id": "5c1f3482c917ad9098fdf79c0a6a1db4", "is_disabled": 0, "is_reserved": 0}, {"rental_uris": {"ios": "https://dc.lft.to/lastmile_qr_scan", "android": "https://dc.lft.to/lastmile_qr_scan"}, "lon": -76.975017, "type": "electric_bike", "fusion_lat": 0.0, "lat": 38.919361333333335, "name": "e83882ffb42b46f72b3a5cc371d1c748", "fusion_lon": 0.0, "bike_id": "e83882ffb42b46f72b3a5cc371d1c748", "is_disabled": 0, "is_reserved": 0}, {"rental_uris": {"ios": "https://dc.lft.to/lastmile_qr_scan", "android": "https://dc.lft.to/lastmile_qr_scan"}, "lon": -77.033234, "type": "electric_scooter", "fusion_lat": 0.0, "lat": 38.9033715, "name": "085722e9be00c6e96af58adda3957870", "fusion_lon": 0.0, "bike_id": "085722e9be00c6e96af58adda3957870", "is_disabled": 0, "is_reserved": 0}, {"rental_uris": {"ios": "https://dc.lft.to/lastmile_qr_scan", "android": "https://dc.lft.to/lastmile_qr_scan"}, "lon": -76.99945116666666, "type": "electric_scooter", "fusion_lat": 0.0, "lat": 38.842953, "name": "49701c270fd94fc93561c9afb39eba2c", "fusion_lon": 0.0, "bike_id": "49701c270fd94fc93561c9afb39eba2c", "is_disabled": 0, "is_reserved": 0}, {"rental_uris": {"ios": "https://dc.lft.to/lastmile_qr_scan", "android": "https://dc.lft.to/lastmile_qr_scan"}, "lon": -77.02323366666667, "type": "electric_scooter", "fusion_lat": 0.0, "lat": 38.916717166666665, "name": "c84c921649096c35378f76d74ac3a080", "fusion_lon": 0.0, "bike_id": "c84c921649096c35378f76d74ac3a080", "is_disabled": 0, "is_reserved": 0}, {"rental_uris": {"ios": "https://dc.lft.to/lastmile_qr_scan", "android": "https://dc.lft.to/lastmile_qr_scan"}, "lon": -77.02004116666667, "type": "electric_scooter", "fusion_lat": 0.0, "lat": 38.892473, "name": "477da4de6ad51fa85aef1aba4f60983b", "fusion_lon": 0.0, "bike_id": "477da4de6ad51fa85aef1aba4f60983b", "is_disabled": 0, "is_reserved": 0}, {"rental_uris": {"ios": "https://dc.lft.to/lastmile_qr_scan", "android": "https://dc.lft.to/lastmile_qr_scan"}, "lon": -77.03469333333334, "type": "electric_scooter", "fusion_lat": 0.0, "lat": 38.92992516666666, "name": "f4e1b69899ebc7262a489eb065ea946a", "fusion_lon": 0.0, "bike_id": "f4e1b69899ebc7262a489eb065ea946a", "is_disabled": 0, "is_reserved": 0}, {"rental_uris": {"ios": "https://dc.lft.to/lastmile_qr_scan", "android": "https://dc.lft.to/lastmile_qr_scan"}, "lon": -77.04503833333334, "type": "electric_scooter", "fusion_lat": 0.0, "lat": 38.892216833333336, "name": "c170a03400e6e8a680b45b95c0252367", "fusion_lon": 0.0, "bike_id": "c170a03400e6e8a680b45b95c0252367", "is_disabled": 0, "is_reserved": 0}, {"rental_uris": {"ios": "https://dc.lft.to/lastmile_qr_scan", "android": "https://dc.lft.to/lastmile_qr_scan"}, "lon": -77.04898633333333, "type": "electric_bike", "fusion_lat": 0.0, "lat": 38.874948, "name": "a6ff5d56f7a1ad1e72b1380605a87a46", "fusion_lon": 0.0, "bike_id": "a6ff5d56f7a1ad1e72b1380605a87a46", "is_disabled": 0, "is_reserved": 0}, {"rental_uris": {"ios": "https://dc.lft.to/lastmile_qr_scan", "android": "https://dc.lft.to/lastmile_qr_scan"}, "lon": -76.99045416666667, "type": "electric_scooter", "fusion_lat": 0.0, "lat": 38.90141966666667, "name": "d699f98d9c428077e1f952078a103def", "fusion_lon": 0.0, "bike_id": "d699f98d9c428077e1f952078a103def", "is_disabled": 0, "is_reserved": 0}, {"rental_uris": {"ios": "https://dc.lft.to/lastmile_qr_scan", "android": "https://dc.lft.to/lastmile_qr_scan"}, "lon": -77.06251466666667, "type": "electric_scooter", "fusion_lat": 0.0, "lat": 38.908503333333336, "name": "a4b096cdb9e5a1ea33a14a61973200fe", "fusion_lon": 0.0, "bike_id": "a4b096cdb9e5a1ea33a14a61973200fe", "is_disabled": 0, "is_reserved": 0}, {"rental_uris": {"ios": "https://dc.lft.to/lastmile_qr_scan", "android": "https://dc.lft.to/lastmile_qr_scan"}, "lon": -76.946517, "type": "electric_scooter", "fusion_lat": 0.0, "lat": 38.8982765, "name": "072fc027d70b83be1d117b52cc41f7e7", "fusion_lon": 0.0, "bike_id": "072fc027d70b83be1d117b52cc41f7e7", "is_disabled": 0, "is_reserved": 0}, {"rental_uris": {"ios": "https://dc.lft.to/lastmile_qr_scan", "android": "https://dc.lft.to/lastmile_qr_scan"}, "lon": -76.98656383333334, "type": "electric_scooter", "fusion_lat": 0.0, "lat": 38.8580525, "name": "56b66a37b443a40cc25f5b85d11242ca", "fusion_lon": 0.0, "bike_id": "56b66a37b443a40cc25f5b85d11242ca", "is_disabled": 0, "is_reserved": 0}, {"rental_uris": {"ios": "https://dc.lft.to/lastmile_qr_scan", "android": "https://dc.lft.to/lastmile_qr_scan"}, "lon": -77.003391, "type": "electric_scooter", "fusion_lat": 0.0, "lat": 38.89768483333334, "name": "d8f2e90bd3bbfa336aa6cac687edaefc", "fusion_lon": 0.0, "bike_id": "d8f2e90bd3bbfa336aa6cac687edaefc", "is_disabled": 0, "is_reserved": 0}, {"rental_uris": {"ios": "https://dc.lft.to/lastmile_qr_scan", "android": "https://dc.lft.to/lastmile_qr_scan"}, "lon": -76.98655583333333, "type": "electric_scooter", "fusion_lat": 0.0, "lat": 38.858065333333336, "name": "0b34db57d108d5069c5ca0d88c9efe67", "fusion_lon": 0.0, "bike_id": "0b34db57d108d5069c5ca0d88c9efe67", "is_disabled": 0, "is_reserved": 0}, {"rental_uris": {"ios": "https://dc.lft.to/lastmile_qr_scan", "android": "https://dc.lft.to/lastmile_qr_scan"}, "lon": -76.98568516666667, "type": "electric_scooter", "fusion_lat": 0.0, "lat": 38.898879666666666, "name": "4ae372c019ff5e34a42baafdab5d8b59", "fusion_lon": 0.0, "bike_id": "4ae372c019ff5e34a42baafdab5d8b59", "is_disabled": 0, "is_reserved": 0}, {"rental_uris": {"ios": "https://dc.lft.to/lastmile_qr_scan", "android": "https://dc.lft.to/lastmile_qr_scan"}, "lon": -77.03211433333334, "type": "electric_scooter", "fusion_lat": 0.0, "lat": 38.9623985, "name": "bea7270d9fffa9a27c317ef7c0ea821b", "fusion_lon": 0.0, "bike_id": "bea7270d9fffa9a27c317ef7c0ea821b", "is_disabled": 0, "is_reserved": 0}, {"rental_uris": {"ios": "https://dc.lft.to/lastmile_qr_scan", "android": "https://dc.lft.to/lastmile_qr_scan"}, "lon": -77.10022316666667, "type": "electric_bike", "fusion_lat": 0.0, "lat": 38.990661333333335, "name": "caeed235b9d646a2ee91df742ba4bcbb", "fusion_lon": 0.0, "bike_id": "caeed235b9d646a2ee91df742ba4bcbb", "is_disabled": 0, "is_reserved": 0}, {"rental_uris": {"ios": "https://dc.lft.to/lastmile_qr_scan", "android": "https://dc.lft.to/lastmile_qr_scan"}, "lon": -77.029621, "type": "electric_scooter", "fusion_lat": 0.0, "lat": 38.924263, "name": "2d1baa6780235a0fbffec7edeb51819b", "fusion_lon": 0.0, "bike_id": "2d1baa6780235a0fbffec7edeb51819b", "is_disabled": 0, "is_reserved": 0}, {"rental_uris": {"ios": "https://dc.lft.to/lastmile_qr_scan", "android": "https://dc.lft.to/lastmile_qr_scan"}, "lon": -77.063191, "type": "electric_scooter", "fusion_lat": 0.0, "lat": 38.905193833333335, "name": "5530766412a7eaa873a93b1f5f91627d", "fusion_lon": 0.0, "bike_id": "5530766412a7eaa873a93b1f5f91627d", "is_disabled": 0, "is_reserved": 0}, {"rental_uris": {"ios": "https://dc.lft.to/lastmile_qr_scan", "android": "https://dc.lft.to/lastmile_qr_scan"}, "lon": -77.00041033333333, "type": "electric_scooter", "fusion_lat": 0.0, "lat": 38.908753, "name": "1d892fd712c3970f9af98e1c4c4ed274", "fusion_lon": 0.0, "bike_id": "1d892fd712c3970f9af98e1c4c4ed274", "is_disabled": 0, "is_reserved": 0}, {"rental_uris": {"ios": "https://dc.lft.to/lastmile_qr_scan", "android": "https://dc.lft.to/lastmile_qr_scan"}, "lon": -77.00867316666667, "type": "electric_scooter", "fusion_lat": 0.0, "lat": 38.905218, "name": "6125eee7435f9f6cc57b7cda83a683f5", "fusion_lon": 0.0, "bike_id": "6125eee7435f9f6cc57b7cda83a683f5", "is_disabled": 0, "is_reserved": 0}, {"rental_uris": {"ios": "https://dc.lft.to/lastmile_qr_scan", "android": "https://dc.lft.to/lastmile_qr_scan"}, "lon": -76.95180783333333, "type": "electric_scooter", "fusion_lat": 0.0, "lat": 38.891364333333335, "name": "d34df22dc4ef92e8d21aae328e3b2714", "fusion_lon": 0.0, "bike_id": "d34df22dc4ef92e8d21aae328e3b2714", "is_disabled": 0, "is_reserved": 0}, {"rental_uris": {"ios": "https://dc.lft.to/lastmile_qr_scan", "android": "https://dc.lft.to/lastmile_qr_scan"}, "lon": -77.04310033333333, "type": "electric_scooter", "fusion_lat": 0.0, "lat": 38.9237365, "name": "83457527edf3834f1e64e64c85384ffc", "fusion_lon": 0.0, "bike_id": "83457527edf3834f1e64e64c85384ffc", "is_disabled": 0, "is_reserved": 0}, {"rental_uris": {"ios": "https://dc.lft.to/lastmile_qr_scan", "android": "https://dc.lft.to/lastmile_qr_scan"}, "lon": -77.02693566666666, "type": "electric_scooter", "fusion_lat": 0.0, "lat": 38.9068315, "name": "7cb258d2c47e0b3d8854adc6b6f0a5c1", "fusion_lon": 0.0, "bike_id": "7cb258d2c47e0b3d8854adc6b6f0a5c1", "is_disabled": 0, "is_reserved": 0}, {"rental_uris": {"ios": "https://dc.lft.to/lastmile_qr_scan", "android": "https://dc.lft.to/lastmile_qr_scan"}, "lon": -77.0164025, "type": "electric_scooter", "fusion_lat": 0.0, "lat": 38.92939166666667, "name": "88e2c2df5c8992a71a0d2a2cf4acb6f1", "fusion_lon": 0.0, "bike_id": "88e2c2df5c8992a71a0d2a2cf4acb6f1", "is_disabled": 0, "is_reserved": 0}, {"rental_uris": {"ios": "https://dc.lft.to/lastmile_qr_scan", "android": "https://dc.lft.to/lastmile_qr_scan"}, "lon": -77.03523033333333, "type": "electric_scooter", "fusion_lat": 0.0, "lat": 38.9070375, "name": "e55fa9a0b053049ebbbbcb330f88e295", "fusion_lon": 0.0, "bike_id": "e55fa9a0b053049ebbbbcb330f88e295", "is_disabled": 0, "is_reserved": 0}, {"rental_uris": {"ios": "https://dc.lft.to/lastmile_qr_scan", "android": "https://dc.lft.to/lastmile_qr_scan"}, "lon": -77.02802516666667, "type": "electric_scooter", "fusion_lat": 0.0, "lat": 38.897301666666664, "name": "fbe3303965569604dd4dd32efa7e316e", "fusion_lon": 0.0, "bike_id": "fbe3303965569604dd4dd32efa7e316e", "is_disabled": 0, "is_reserved": 0}, {"rental_uris": {"ios": "https://dc.lft.to/lastmile_qr_scan", "android": "https://dc.lft.to/lastmile_qr_scan"}, "lon": -77.06034783333334, "type": "electric_scooter", "fusion_lat": 0.0, "lat": 38.90530866666667, "name": "cbcda5e21a6279cb21dbfd9de3c22ac0", "fusion_lon": 0.0, "bike_id": "cbcda5e21a6279cb21dbfd9de3c22ac0", "is_disabled": 0, "is_reserved": 0}, {"rental_uris": {"ios": "https://dc.lft.to/lastmile_qr_scan", "android": "https://dc.lft.to/lastmile_qr_scan"}, "lon": -77.022373, "type": "electric_scooter", "fusion_lat": 0.0, "lat": 38.916485, "name": "57bec19eee2ad3d0c9c40017f365d686", "fusion_lon": 0.0, "bike_id": "57bec19eee2ad3d0c9c40017f365d686", "is_disabled": 0, "is_reserved": 0}, {"rental_uris": {"ios": "https://dc.lft.to/lastmile_qr_scan", "android": "https://dc.lft.to/lastmile_qr_scan"}, "lon": -77.0429445, "type": "electric_scooter", "fusion_lat": 0.0, "lat": 38.907918333333335, "name": "59c01bb6433ca2a4a1a37389a0834ecc", "fusion_lon": 0.0, "bike_id": "59c01bb6433ca2a4a1a37389a0834ecc", "is_disabled": 0, "is_reserved": 0}, {"rental_uris": {"ios": "https://dc.lft.to/lastmile_qr_scan", "android": "https://dc.lft.to/lastmile_qr_scan"}, "lon": -76.9336835, "type": "electric_scooter", "fusion_lat": 0.0, "lat": 38.89919533333333, "name": "07fd961ec71930b63decaa0ed343217c", "fusion_lon": 0.0, "bike_id": "07fd961ec71930b63decaa0ed343217c", "is_disabled": 0, "is_reserved": 0}, {"rental_uris": {"ios": "https://dc.lft.to/lastmile_qr_scan", "android": "https://dc.lft.to/lastmile_qr_scan"}, "lon": -77.03465183333333, "type": "electric_scooter", "fusion_lat": 0.0, "lat": 38.9094355, "name": "c5229f9b4b42ae0778519c2e0e8f43ef", "fusion_lon": 0.0, "bike_id": "c5229f9b4b42ae0778519c2e0e8f43ef", "is_disabled": 0, "is_reserved": 0}, {"rental_uris": {"ios": "https://dc.lft.to/lastmile_qr_scan", "android": "https://dc.lft.to/lastmile_qr_scan"}, "lon": -77.04662016666667, "type": "electric_scooter", "fusion_lat": 0.0, "lat": 38.909561, "name": "1fff24aebd393d59fbe3a578ec4df536", "fusion_lon": 0.0, "bike_id": "1fff24aebd393d59fbe3a578ec4df536", "is_disabled": 0, "is_reserved": 0}, {"rental_uris": {"ios": "https://dc.lft.to/lastmile_qr_scan", "android": "https://dc.lft.to/lastmile_qr_scan"}, "lon": -77.042561, "type": "electric_scooter", "fusion_lat": 0.0, "lat": 38.90555766666667, "name": "6c5176627e591514f40ef4b5ce922897", "fusion_lon": 0.0, "bike_id": "6c5176627e591514f40ef4b5ce922897", "is_disabled": 0, "is_reserved": 0}, {"rental_uris": {"ios": "https://dc.lft.to/lastmile_qr_scan", "android": "https://dc.lft.to/lastmile_qr_scan"}, "lon": -77.00610933333333, "type": "electric_scooter", "fusion_lat": 0.0, "lat": 38.906326166666666, "name": "0935454ad1fda0d8c1ee01fece7495ae", "fusion_lon": 0.0, "bike_id": "0935454ad1fda0d8c1ee01fece7495ae", "is_disabled": 0, "is_reserved": 0}, {"rental_uris": {"ios": "https://dc.lft.to/lastmile_qr_scan", "android": "https://dc.lft.to/lastmile_qr_scan"}, "lon": -76.93193266666667, "type": "electric_scooter", "fusion_lat": 0.0, "lat": 38.88995383333334, "name": "0df81e1f4953b61d0e5f814d3c57d9d6", "fusion_lon": 0.0, "bike_id": "0df81e1f4953b61d0e5f814d3c57d9d6", "is_disabled": 0, "is_reserved": 0}, {"rental_uris": {"ios": "https://dc.lft.to/lastmile_qr_scan", "android": "https://dc.lft.to/lastmile_qr_scan"}, "lon": -77.03147783333333, "type": "electric_scooter", "fusion_lat": 0.0, "lat": 38.920230333333336, "name": "4270151d268a01afc1ca46bcc206bbee", "fusion_lon": 0.0, "bike_id": "4270151d268a01afc1ca46bcc206bbee", "is_disabled": 0, "is_reserved": 0}, {"rental_uris": {"ios": "https://dc.lft.to/lastmile_qr_scan", "android": "https://dc.lft.to/lastmile_qr_scan"}, "lon": -76.99499433333334, "type": "electric_scooter", "fusion_lat": 0.0, "lat": 38.88313183333333, "name": "ebf911b0725147466d92a113569b830e", "fusion_lon": 0.0, "bike_id": "ebf911b0725147466d92a113569b830e", "is_disabled": 0, "is_reserved": 0}, {"rental_uris": {"ios": "https://dc.lft.to/lastmile_qr_scan", "android": "https://dc.lft.to/lastmile_qr_scan"}, "lon": -77.06361933333334, "type": "electric_scooter", "fusion_lat": 0.0, "lat": 38.909288333333336, "name": "35925cdea3c47165e0442dd67bc45cbe", "fusion_lon": 0.0, "bike_id": "35925cdea3c47165e0442dd67bc45cbe", "is_disabled": 0, "is_reserved": 0}, {"rental_uris": {"ios": "https://dc.lft.to/lastmile_qr_scan", "android": "https://dc.lft.to/lastmile_qr_scan"}, "lon": -76.99887883333334, "type": "electric_scooter", "fusion_lat": 0.0, "lat": 38.90947416666667, "name": "6cab746170e924657a9aa35811463c75", "fusion_lon": 0.0, "bike_id": "6cab746170e924657a9aa35811463c75", "is_disabled": 0, "is_reserved": 0}, {"rental_uris": {"ios": "https://dc.lft.to/lastmile_qr_scan", "android": "https://dc.lft.to/lastmile_qr_scan"}, "lon": -76.977039, "type": "electric_scooter", "fusion_lat": 0.0, "lat": 38.89901283333333, "name": "9afb187c74898c841ce96f3e411f7840", "fusion_lon": 0.0, "bike_id": "9afb187c74898c841ce96f3e411f7840", "is_disabled": 0, "is_reserved": 0}, {"rental_uris": {"ios": "https://dc.lft.to/lastmile_qr_scan", "android": "https://dc.lft.to/lastmile_qr_scan"}, "lon": -76.944385, "type": "electric_bike", "fusion_lat": 0.0, "lat": 38.90297183333333, "name": "d0e45236ddc3703dc2718bb48b458e39", "fusion_lon": 0.0, "bike_id": "d0e45236ddc3703dc2718bb48b458e39", "is_disabled": 0, "is_reserved": 0}, {"rental_uris": {"ios": "https://dc.lft.to/lastmile_qr_scan", "android": "https://dc.lft.to/lastmile_qr_scan"}, "lon": -77.02498316666667, "type": "electric_scooter", "fusion_lat": 0.0, "lat": 38.903233, "name": "bcfaf5e063351b12443cb70848bee1d2", "fusion_lon": 0.0, "bike_id": "bcfaf5e063351b12443cb70848bee1d2", "is_disabled": 0, "is_reserved": 0}, {"rental_uris": {"ios": "https://dc.lft.to/lastmile_qr_scan", "android": "https://dc.lft.to/lastmile_qr_scan"}, "lon": -77.03029583333333, "type": "electric_scooter", "fusion_lat": 0.0, "lat": 38.93114816666667, "name": "c53602f19795705eaf875c6f961f7dd0", "fusion_lon": 0.0, "bike_id": "c53602f19795705eaf875c6f961f7dd0", "is_disabled": 0, "is_reserved": 0}, {"rental_uris": {"ios": "https://dc.lft.to/lastmile_qr_scan", "android": "https://dc.lft.to/lastmile_qr_scan"}, "lon": -77.01792533333334, "type": "electric_scooter", "fusion_lat": 0.0, "lat": 38.919533666666666, "name": "2a2ad06db378450055e6f60ac0cd5f78", "fusion_lon": 0.0, "bike_id": "2a2ad06db378450055e6f60ac0cd5f78", "is_disabled": 0, "is_reserved": 0}, {"rental_uris": {"ios": "https://dc.lft.to/lastmile_qr_scan", "android": "https://dc.lft.to/lastmile_qr_scan"}, "lon": -76.97211783333333, "type": "electric_bike", "fusion_lat": 0.0, "lat": 38.8448085, "name": "1e18affaabbd5abb51a7559b0dcb06e4", "fusion_lon": 0.0, "bike_id": "1e18affaabbd5abb51a7559b0dcb06e4", "is_disabled": 0, "is_reserved": 0}, {"rental_uris": {"ios": "https://dc.lft.to/lastmile_qr_scan", "android": "https://dc.lft.to/lastmile_qr_scan"}, "lon": -77.03294566666666, "type": "electric_scooter", "fusion_lat": 0.0, "lat": 38.900363, "name": "49810b5f9cb5d44b8d524350510ed1bb", "fusion_lon": 0.0, "bike_id": "49810b5f9cb5d44b8d524350510ed1bb", "is_disabled": 0, "is_reserved": 0}, {"rental_uris": {"ios": "https://dc.lft.to/lastmile_qr_scan", "android": "https://dc.lft.to/lastmile_qr_scan"}, "lon": -76.90960883333334, "type": "electric_bike", "fusion_lat": 0.0, "lat": 38.854329, "name": "ba55e5eabe6ea1ecc7683fa23652ac90", "fusion_lon": 0.0, "bike_id": "ba55e5eabe6ea1ecc7683fa23652ac90", "is_disabled": 0, "is_reserved": 0}, {"rental_uris": {"ios": "https://dc.lft.to/lastmile_qr_scan", "android": "https://dc.lft.to/lastmile_qr_scan"}, "lon": -76.94890583333333, "type": "electric_scooter", "fusion_lat": 0.0, "lat": 38.895284833333335, "name": "c9405edbeac5ec30d0a68722993094da", "fusion_lon": 0.0, "bike_id": "c9405edbeac5ec30d0a68722993094da", "is_disabled": 0, "is_reserved": 0}, {"rental_uris": {"ios": "https://dc.lft.to/lastmile_qr_scan", "android": "https://dc.lft.to/lastmile_qr_scan"}, "lon": -77.04666, "type": "electric_scooter", "fusion_lat": 0.0, "lat": 38.901307333333335, "name": "e3f6bf84b2b886695c266a872b2a6ed5", "fusion_lon": 0.0, "bike_id": "e3f6bf84b2b886695c266a872b2a6ed5", "is_disabled": 0, "is_reserved": 0}, {"rental_uris": {"ios": "https://dc.lft.to/lastmile_qr_scan", "android": "https://dc.lft.to/lastmile_qr_scan"}, "lon": -76.98178566666667, "type": "electric_scooter", "fusion_lat": 0.0, "lat": 38.895830833333335, "name": "7c05123a48bb5688ab0fa26d1d6ed13a", "fusion_lon": 0.0, "bike_id": "7c05123a48bb5688ab0fa26d1d6ed13a", "is_disabled": 0, "is_reserved": 0}, {"rental_uris": {"ios": "https://dc.lft.to/lastmile_qr_scan", "android": "https://dc.lft.to/lastmile_qr_scan"}, "lon": -77.04174583333334, "type": "electric_scooter", "fusion_lat": 0.0, "lat": 38.92022633333333, "name": "1c1ec21f7f7ac8affa73753cbf00a64e", "fusion_lon": 0.0, "bike_id": "1c1ec21f7f7ac8affa73753cbf00a64e", "is_disabled": 0, "is_reserved": 0}, {"rental_uris": {"ios": "https://dc.lft.to/lastmile_qr_scan", "android": "https://dc.lft.to/lastmile_qr_scan"}, "lon": -77.03144883333333, "type": "electric_scooter", "fusion_lat": 0.0, "lat": 38.9126435, "name": "e3ea76acb9043fd918a28b5b9c3b7b07", "fusion_lon": 0.0, "bike_id": "e3ea76acb9043fd918a28b5b9c3b7b07", "is_disabled": 0, "is_reserved": 0}, {"rental_uris": {"ios": "https://dc.lft.to/lastmile_qr_scan", "android": "https://dc.lft.to/lastmile_qr_scan"}, "lon": -77.02181466666667, "type": "electric_scooter", "fusion_lat": 0.0, "lat": 38.93948566666667, "name": "6054883c1e09b5c387febcdc2d7778ee", "fusion_lon": 0.0, "bike_id": "6054883c1e09b5c387febcdc2d7778ee", "is_disabled": 0, "is_reserved": 0}, {"rental_uris": {"ios": "https://dc.lft.to/lastmile_qr_scan", "android": "https://dc.lft.to/lastmile_qr_scan"}, "lon": -77.02948366666666, "type": "electric_scooter", "fusion_lat": 0.0, "lat": 38.91587666666667, "name": "64e3f50739b09923fceaa6d1847b521f", "fusion_lon": 0.0, "bike_id": "64e3f50739b09923fceaa6d1847b521f", "is_disabled": 0, "is_reserved": 0}, {"rental_uris": {"ios": "https://dc.lft.to/lastmile_qr_scan", "android": "https://dc.lft.to/lastmile_qr_scan"}, "lon": -76.982451, "type": "electric_scooter", "fusion_lat": 0.0, "lat": 38.908674, "name": "d828ea8ec9512a3deafb0369f0abbffc", "fusion_lon": 0.0, "bike_id": "d828ea8ec9512a3deafb0369f0abbffc", "is_disabled": 0, "is_reserved": 0}, {"rental_uris": {"ios": "https://dc.lft.to/lastmile_qr_scan", "android": "https://dc.lft.to/lastmile_qr_scan"}, "lon": -77.040997, "type": "electric_scooter", "fusion_lat": 0.0, "lat": 38.91773033333333, "name": "3a1c35ef609b3df34f009b2bbfc83e01", "fusion_lon": 0.0, "bike_id": "3a1c35ef609b3df34f009b2bbfc83e01", "is_disabled": 0, "is_reserved": 0}, {"rental_uris": {"ios": "https://dc.lft.to/lastmile_qr_scan", "android": "https://dc.lft.to/lastmile_qr_scan"}, "lon": -77.0221605, "type": "electric_scooter", "fusion_lat": 0.0, "lat": 38.922521, "name": "bdd3bfec0f4181a038332ee68f733021", "fusion_lon": 0.0, "bike_id": "bdd3bfec0f4181a038332ee68f733021", "is_disabled": 0, "is_reserved": 0}, {"rental_uris": {"ios": "https://dc.lft.to/lastmile_qr_scan", "android": "https://dc.lft.to/lastmile_qr_scan"}, "lon": -77.00976566666667, "type": "electric_scooter", "fusion_lat": 0.0, "lat": 38.9192475, "name": "1dfe40fd133ff9326e527a671647e4e5", "fusion_lon": 0.0, "bike_id": "1dfe40fd133ff9326e527a671647e4e5", "is_disabled": 0, "is_reserved": 0}, {"rental_uris": {"ios": "https://dc.lft.to/lastmile_qr_scan", "android": "https://dc.lft.to/lastmile_qr_scan"}, "lon": -77.03177916666667, "type": "electric_scooter", "fusion_lat": 0.0, "lat": 38.9133, "name": "c9f2eb8e62550eedc378c82d7cc096a4", "fusion_lon": 0.0, "bike_id": "c9f2eb8e62550eedc378c82d7cc096a4", "is_disabled": 0, "is_reserved": 0}, {"rental_uris": {"ios": "https://dc.lft.to/lastmile_qr_scan", "android": "https://dc.lft.to/lastmile_qr_scan"}, "lon": -77.02594666666667, "type": "electric_bike", "fusion_lat": 0.0, "lat": 38.94393633333333, "name": "d291f2cc4a081a445de210747d3b473f", "fusion_lon": 0.0, "bike_id": "d291f2cc4a081a445de210747d3b473f", "is_disabled": 0, "is_reserved": 0}, {"rental_uris": {"ios": "https://dc.lft.to/lastmile_qr_scan", "android": "https://dc.lft.to/lastmile_qr_scan"}, "lon": -77.024027, "type": "electric_scooter", "fusion_lat": 0.0, "lat": 38.91570083333333, "name": "10c90f84f219f27f69ba37b2ea4ce0b4", "fusion_lon": 0.0, "bike_id": "10c90f84f219f27f69ba37b2ea4ce0b4", "is_disabled": 0, "is_reserved": 0}, {"rental_uris": {"ios": "https://dc.lft.to/lastmile_qr_scan", "android": "https://dc.lft.to/lastmile_qr_scan"}, "lon": -76.90822283333333, "type": "electric_bike", "fusion_lat": 0.0, "lat": 39.002550666666664, "name": "1095dcbe701b13e4665272fe14014366", "fusion_lon": 0.0, "bike_id": "1095dcbe701b13e4665272fe14014366", "is_disabled": 0, "is_reserved": 0}, {"rental_uris": {"ios": "https://dc.lft.to/lastmile_qr_scan", "android": "https://dc.lft.to/lastmile_qr_scan"}, "lon": -76.99180733333333, "type": "electric_scooter", "fusion_lat": 0.0, "lat": 38.90454533333333, "name": "9ee3737290a999c14798783ef07d8027", "fusion_lon": 0.0, "bike_id": "9ee3737290a999c14798783ef07d8027", "is_disabled": 0, "is_reserved": 0}, {"rental_uris": {"ios": "https://dc.lft.to/lastmile_qr_scan", "android": "https://dc.lft.to/lastmile_qr_scan"}, "lon": -76.99946333333334, "type": "electric_scooter", "fusion_lat": 0.0, "lat": 38.84290716666667, "name": "163c28652bfbff163ebc73d1398dc15d", "fusion_lon": 0.0, "bike_id": "163c28652bfbff163ebc73d1398dc15d", "is_disabled": 0, "is_reserved": 0}, {"rental_uris": {"ios": "https://dc.lft.to/lastmile_qr_scan", "android": "https://dc.lft.to/lastmile_qr_scan"}, "lon": -77.11221533333334, "type": "electric_bike", "fusion_lat": 0.0, "lat": 38.828718, "name": "6f30a788b1829e241b09162f334c2b74", "fusion_lon": 0.0, "bike_id": "6f30a788b1829e241b09162f334c2b74", "is_disabled": 0, "is_reserved": 0}, {"rental_uris": {"ios": "https://dc.lft.to/lastmile_qr_scan", "android": "https://dc.lft.to/lastmile_qr_scan"}, "lon": -77.02080216666667, "type": "electric_scooter", "fusion_lat": 0.0, "lat": 38.88186733333333, "name": "cf08479323f4735d8a33202c8474ba9a", "fusion_lon": 0.0, "bike_id": "cf08479323f4735d8a33202c8474ba9a", "is_disabled": 0, "is_reserved": 0}, {"rental_uris": {"ios": "https://dc.lft.to/lastmile_qr_scan", "android": "https://dc.lft.to/lastmile_qr_scan"}, "lon": -77.03070483333333, "type": "electric_scooter", "fusion_lat": 0.0, "lat": 38.9075815, "name": "fe8e44d302f140e6ccf8ebe8baa22af4", "fusion_lon": 0.0, "bike_id": "fe8e44d302f140e6ccf8ebe8baa22af4", "is_disabled": 0, "is_reserved": 0}, {"rental_uris": {"ios": "https://dc.lft.to/lastmile_qr_scan", "android": "https://dc.lft.to/lastmile_qr_scan"}, "lon": -77.05498233333333, "type": "electric_scooter", "fusion_lat": 0.0, "lat": 38.92972116666667, "name": "f94b7f0d7a7f12fdb8b93497676900a8", "fusion_lon": 0.0, "bike_id": "f94b7f0d7a7f12fdb8b93497676900a8", "is_disabled": 0, "is_reserved": 0}, {"rental_uris": {"ios": "https://dc.lft.to/lastmile_qr_scan", "android": "https://dc.lft.to/lastmile_qr_scan"}, "lon": -77.03228316666667, "type": "electric_scooter", "fusion_lat": 0.0, "lat": 38.91405966666667, "name": "27666ee21e0cf53a4ee2cf615b90d2fb", "fusion_lon": 0.0, "bike_id": "27666ee21e0cf53a4ee2cf615b90d2fb", "is_disabled": 0, "is_reserved": 0}, {"rental_uris": {"ios": "https://dc.lft.to/lastmile_qr_scan", "android": "https://dc.lft.to/lastmile_qr_scan"}, "lon": -76.9574885, "type": "electric_scooter", "fusion_lat": 0.0, "lat": 38.88431283333333, "name": "20aa4416cdc3b2a7c1cbe369815bcea7", "fusion_lon": 0.0, "bike_id": "20aa4416cdc3b2a7c1cbe369815bcea7", "is_disabled": 0, "is_reserved": 0}, {"rental_uris": {"ios": "https://dc.lft.to/lastmile_qr_scan", "android": "https://dc.lft.to/lastmile_qr_scan"}, "lon": -77.04066116666667, "type": "electric_bike", "fusion_lat": 0.0, "lat": 38.934154666666664, "name": "dc9640fb84a466a6cb60c17106460388", "fusion_lon": 0.0, "bike_id": "dc9640fb84a466a6cb60c17106460388", "is_disabled": 0, "is_reserved": 0}, {"rental_uris": {"ios": "https://dc.lft.to/lastmile_qr_scan", "android": "https://dc.lft.to/lastmile_qr_scan"}, "lon": -77.03213566666666, "type": "electric_scooter", "fusion_lat": 0.0, "lat": 38.9178425, "name": "585b0ce8db8112d01abbc76ec7e8d96d", "fusion_lon": 0.0, "bike_id": "585b0ce8db8112d01abbc76ec7e8d96d", "is_disabled": 0, "is_reserved": 0}, {"rental_uris": {"ios": "https://dc.lft.to/lastmile_qr_scan", "android": "https://dc.lft.to/lastmile_qr_scan"}, "lon": -77.12502916666666, "type": "electric_bike", "fusion_lat": 0.0, "lat": 39.0242665, "name": "cabfd1532bbbdb5fcb0e7f68ccd3de5d", "fusion_lon": 0.0, "bike_id": "cabfd1532bbbdb5fcb0e7f68ccd3de5d", "is_disabled": 0, "is_reserved": 0}, {"rental_uris": {"ios": "https://dc.lft.to/lastmile_qr_scan", "android": "https://dc.lft.to/lastmile_qr_scan"}, "lon": -77.0262125, "type": "electric_scooter", "fusion_lat": 0.0, "lat": 38.898388, "name": "ee48afeca5e0ab0d6197cf5a97cf6a54", "fusion_lon": 0.0, "bike_id": "ee48afeca5e0ab0d6197cf5a97cf6a54", "is_disabled": 0, "is_reserved": 0}, {"rental_uris": {"ios": "https://dc.lft.to/lastmile_qr_scan", "android": "https://dc.lft.to/lastmile_qr_scan"}, "lon": -77.07562683333333, "type": "electric_scooter", "fusion_lat": 0.0, "lat": 38.92095466666667, "name": "33035778d7b4325c1decbd75a64cc67e", "fusion_lon": 0.0, "bike_id": "33035778d7b4325c1decbd75a64cc67e", "is_disabled": 0, "is_reserved": 0}, {"rental_uris": {"ios": "https://dc.lft.to/lastmile_qr_scan", "android": "https://dc.lft.to/lastmile_qr_scan"}, "lon": -77.04646416666667, "type": "electric_bike", "fusion_lat": 0.0, "lat": 38.915601, "name": "65f743974bd2ff9931125df0c356b368", "fusion_lon": 0.0, "bike_id": "65f743974bd2ff9931125df0c356b368", "is_disabled": 0, "is_reserved": 0}, {"rental_uris": {"ios": "https://dc.lft.to/lastmile_qr_scan", "android": "https://dc.lft.to/lastmile_qr_scan"}, "lon": -76.94794083333333, "type": "electric_scooter", "fusion_lat": 0.0, "lat": 38.8963295, "name": "ed573927e261e316d11a1b2d64533a89", "fusion_lon": 0.0, "bike_id": "ed573927e261e316d11a1b2d64533a89", "is_disabled": 0, "is_reserved": 0}, {"rental_uris": {"ios": "https://dc.lft.to/lastmile_qr_scan", "android": "https://dc.lft.to/lastmile_qr_scan"}, "lon": -77.0297415, "type": "electric_scooter", "fusion_lat": 0.0, "lat": 38.96229566666667, "name": "adef0238cc2bfa3926e267344ae80b57", "fusion_lon": 0.0, "bike_id": "adef0238cc2bfa3926e267344ae80b57", "is_disabled": 0, "is_reserved": 0}, {"rental_uris": {"ios": "https://dc.lft.to/lastmile_qr_scan", "android": "https://dc.lft.to/lastmile_qr_scan"}, "lon": -77.00878883333333, "type": "electric_scooter", "fusion_lat": 0.0, "lat": 38.914036333333335, "name": "6debe8a1494d03ad547c9da0c98483cd", "fusion_lon": 0.0, "bike_id": "6debe8a1494d03ad547c9da0c98483cd", "is_disabled": 0, "is_reserved": 0}, {"rental_uris": {"ios": "https://dc.lft.to/lastmile_qr_scan", "android": "https://dc.lft.to/lastmile_qr_scan"}, "lon": -77.0013215, "type": "electric_scooter", "fusion_lat": 0.0, "lat": 38.904165166666665, "name": "0fea7ad78115e26ee5f0c0f46ba58499", "fusion_lon": 0.0, "bike_id": "0fea7ad78115e26ee5f0c0f46ba58499", "is_disabled": 0, "is_reserved": 0}, {"rental_uris": {"ios": "https://dc.lft.to/lastmile_qr_scan", "android": "https://dc.lft.to/lastmile_qr_scan"}, "lon": -77.10338583333333, "type": "electric_bike", "fusion_lat": 0.0, "lat": 38.852385, "name": "0f8ecae83629e0095953eb898f33165c", "fusion_lon": 0.0, "bike_id": "0f8ecae83629e0095953eb898f33165c", "is_disabled": 0, "is_reserved": 0}, {"rental_uris": {"ios": "https://dc.lft.to/lastmile_qr_scan", "android": "https://dc.lft.to/lastmile_qr_scan"}, "lon": -77.02603583333334, "type": "electric_bike", "fusion_lat": 0.0, "lat": 38.962607, "name": "17a07c3d7b81898f3274ec41f2b74cc2", "fusion_lon": 0.0, "bike_id": "17a07c3d7b81898f3274ec41f2b74cc2", "is_disabled": 0, "is_reserved": 0}, {"rental_uris": {"ios": "https://dc.lft.to/lastmile_qr_scan", "android": "https://dc.lft.to/lastmile_qr_scan"}, "lon": -76.94214833333334, "type": "electric_scooter", "fusion_lat": 0.0, "lat": 38.89677116666667, "name": "a3be2f389f015e7d3295ac8f8cb1dc60", "fusion_lon": 0.0, "bike_id": "a3be2f389f015e7d3295ac8f8cb1dc60", "is_disabled": 0, "is_reserved": 0}, {"rental_uris": {"ios": "https://dc.lft.to/lastmile_qr_scan", "android": "https://dc.lft.to/lastmile_qr_scan"}, "lon": -76.94992333333333, "type": "electric_scooter", "fusion_lat": 0.0, "lat": 38.8937415, "name": "77cb53005faf493f06fa43ce081653a2", "fusion_lon": 0.0, "bike_id": "77cb53005faf493f06fa43ce081653a2", "is_disabled": 0, "is_reserved": 0}, {"rental_uris": {"ios": "https://dc.lft.to/lastmile_qr_scan", "android": "https://dc.lft.to/lastmile_qr_scan"}, "lon": -77.032698, "type": "electric_scooter", "fusion_lat": 0.0, "lat": 38.933323666666666, "name": "641f24075461258fcaa290f8719d7911", "fusion_lon": 0.0, "bike_id": "641f24075461258fcaa290f8719d7911", "is_disabled": 0, "is_reserved": 0}, {"rental_uris": {"ios": "https://dc.lft.to/lastmile_qr_scan", "android": "https://dc.lft.to/lastmile_qr_scan"}, "lon": -76.932334, "type": "electric_bike", "fusion_lat": 0.0, "lat": 38.86594316666667, "name": "ef37dfae19f16e31706f749b7ef91d9d", "fusion_lon": 0.0, "bike_id": "ef37dfae19f16e31706f749b7ef91d9d", "is_disabled": 0, "is_reserved": 0}, {"rental_uris": {"ios": "https://dc.lft.to/lastmile_qr_scan", "android": "https://dc.lft.to/lastmile_qr_scan"}, "lon": -76.97288766666667, "type": "electric_scooter", "fusion_lat": 0.0, "lat": 38.903387333333335, "name": "81b4bff8e92c96e44c8656bee4125069", "fusion_lon": 0.0, "bike_id": "81b4bff8e92c96e44c8656bee4125069", "is_disabled": 0, "is_reserved": 0}, {"rental_uris": {"ios": "https://dc.lft.to/lastmile_qr_scan", "android": "https://dc.lft.to/lastmile_qr_scan"}, "lon": -77.054735, "type": "electric_scooter", "fusion_lat": 0.0, "lat": 38.893905333333336, "name": "dc09801a2db9dac1c53bffaae64dd636", "fusion_lon": 0.0, "bike_id": "dc09801a2db9dac1c53bffaae64dd636", "is_disabled": 0, "is_reserved": 0}, {"rental_uris": {"ios": "https://dc.lft.to/lastmile_qr_scan", "android": "https://dc.lft.to/lastmile_qr_scan"}, "lon": -77.092017, "type": "electric_scooter", "fusion_lat": 0.0, "lat": 38.941333, "name": "ad759a9b7fb7953b42c6032b0245038f", "fusion_lon": 0.0, "bike_id": "ad759a9b7fb7953b42c6032b0245038f", "is_disabled": 0, "is_reserved": 0}, {"rental_uris": {"ios": "https://dc.lft.to/lastmile_qr_scan", "android": "https://dc.lft.to/lastmile_qr_scan"}, "lon": -77.129547, "type": "electric_bike", "fusion_lat": 0.0, "lat": 38.852198333333334, "name": "b03803fa347e18442869626f29bbb80b", "fusion_lon": 0.0, "bike_id": "b03803fa347e18442869626f29bbb80b", "is_disabled": 0, "is_reserved": 0}, {"rental_uris": {"ios": "https://dc.lft.to/lastmile_qr_scan", "android": "https://dc.lft.to/lastmile_qr_scan"}, "lon": -76.9950165, "type": "electric_scooter", "fusion_lat": 0.0, "lat": 38.8860155, "name": "5a7d133d9b5bbe9ed5519d5cef8c87bf", "fusion_lon": 0.0, "bike_id": "5a7d133d9b5bbe9ed5519d5cef8c87bf", "is_disabled": 0, "is_reserved": 0}, {"rental_uris": {"ios": "https://dc.lft.to/lastmile_qr_scan", "android": "https://dc.lft.to/lastmile_qr_scan"}, "lon": -77.00741383333333, "type": "electric_scooter", "fusion_lat": 0.0, "lat": 38.879391, "name": "59ed422749c8d9a1558d893f8a87c987", "fusion_lon": 0.0, "bike_id": "59ed422749c8d9a1558d893f8a87c987", "is_disabled": 0, "is_reserved": 0}, {"rental_uris": {"ios": "https://dc.lft.to/lastmile_qr_scan", "android": "https://dc.lft.to/lastmile_qr_scan"}, "lon": -77.0467835, "type": "electric_scooter", "fusion_lat": 0.0, "lat": 38.90098583333334, "name": "8c5025d07af3faf555eb65fecda8e21d", "fusion_lon": 0.0, "bike_id": "8c5025d07af3faf555eb65fecda8e21d", "is_disabled": 0, "is_reserved": 0}, {"rental_uris": {"ios": "https://dc.lft.to/lastmile_qr_scan", "android": "https://dc.lft.to/lastmile_qr_scan"}, "lon": -76.96849683333333, "type": "electric_scooter", "fusion_lat": 0.0, "lat": 38.874680833333336, "name": "5768c79500261881dfe2d9876b0cc290", "fusion_lon": 0.0, "bike_id": "5768c79500261881dfe2d9876b0cc290", "is_disabled": 0, "is_reserved": 0}, {"rental_uris": {"ios": "https://dc.lft.to/lastmile_qr_scan", "android": "https://dc.lft.to/lastmile_qr_scan"}, "lon": -76.99547466666667, "type": "electric_scooter", "fusion_lat": 0.0, "lat": 38.901296, "name": "5c9f0b3d5970d548e1b062785c39df63", "fusion_lon": 0.0, "bike_id": "5c9f0b3d5970d548e1b062785c39df63", "is_disabled": 0, "is_reserved": 0}, {"rental_uris": {"ios": "https://dc.lft.to/lastmile_qr_scan", "android": "https://dc.lft.to/lastmile_qr_scan"}, "lon": -76.99693616666667, "type": "electric_scooter", "fusion_lat": 0.0, "lat": 38.90078533333333, "name": "0611cca63ed348799a4ec2cc2ab63759", "fusion_lon": 0.0, "bike_id": "0611cca63ed348799a4ec2cc2ab63759", "is_disabled": 0, "is_reserved": 0}, {"rental_uris": {"ios": "https://dc.lft.to/lastmile_qr_scan", "android": "https://dc.lft.to/lastmile_qr_scan"}, "lon": -77.02972633333333, "type": "electric_scooter", "fusion_lat": 0.0, "lat": 38.922711166666666, "name": "e98059f07e6714082c0320df30070dfb", "fusion_lon": 0.0, "bike_id": "e98059f07e6714082c0320df30070dfb", "is_disabled": 0, "is_reserved": 0}, {"rental_uris": {"ios": "https://dc.lft.to/lastmile_qr_scan", "android": "https://dc.lft.to/lastmile_qr_scan"}, "lon": -76.97249416666666, "type": "electric_bike", "fusion_lat": 0.0, "lat": 38.957422, "name": "1f0b16fc64455e6e885fac7c27a8874c", "fusion_lon": 0.0, "bike_id": "1f0b16fc64455e6e885fac7c27a8874c", "is_disabled": 0, "is_reserved": 0}, {"rental_uris": {"ios": "https://dc.lft.to/lastmile_qr_scan", "android": "https://dc.lft.to/lastmile_qr_scan"}, "lon": -77.031975, "type": "electric_scooter", "fusion_lat": 0.0, "lat": 38.937567333333334, "name": "1f86a9cb219e25524aa5e31fa10a0e4a", "fusion_lon": 0.0, "bike_id": "1f86a9cb219e25524aa5e31fa10a0e4a", "is_disabled": 0, "is_reserved": 0}, {"rental_uris": {"ios": "https://dc.lft.to/lastmile_qr_scan", "android": "https://dc.lft.to/lastmile_qr_scan"}, "lon": -77.01534, "type": "electric_scooter", "fusion_lat": 0.0, "lat": 38.9025625, "name": "4e9c78a0eb88852a65d7a9a59f584abd", "fusion_lon": 0.0, "bike_id": "4e9c78a0eb88852a65d7a9a59f584abd", "is_disabled": 0, "is_reserved": 0}, {"rental_uris": {"ios": "https://dc.lft.to/lastmile_qr_scan", "android": "https://dc.lft.to/lastmile_qr_scan"}, "lon": -77.00479833333333, "type": "electric_scooter", "fusion_lat": 0.0, "lat": 38.912608166666665, "name": "5d25daea43946a6ae370028ba5cc8bae", "fusion_lon": 0.0, "bike_id": "5d25daea43946a6ae370028ba5cc8bae", "is_disabled": 0, "is_reserved": 0}, {"rental_uris": {"ios": "https://dc.lft.to/lastmile_qr_scan", "android": "https://dc.lft.to/lastmile_qr_scan"}, "lon": -77.04992783333333, "type": "electric_scooter", "fusion_lat": 0.0, "lat": 38.904211333333336, "name": "ea63bc867894d0c224067ab29ed30141", "fusion_lon": 0.0, "bike_id": "ea63bc867894d0c224067ab29ed30141", "is_disabled": 0, "is_reserved": 0}, {"rental_uris": {"ios": "https://dc.lft.to/lastmile_qr_scan", "android": "https://dc.lft.to/lastmile_qr_scan"}, "lon": -77.04697283333333, "type": "electric_scooter", "fusion_lat": 0.0, "lat": 38.9179175, "name": "af5a744d36a5f988a16c00e6d89579d5", "fusion_lon": 0.0, "bike_id": "af5a744d36a5f988a16c00e6d89579d5", "is_disabled": 0, "is_reserved": 0}, {"rental_uris": {"ios": "https://dc.lft.to/lastmile_qr_scan", "android": "https://dc.lft.to/lastmile_qr_scan"}, "lon": -77.02150733333333, "type": "electric_scooter", "fusion_lat": 0.0, "lat": 38.91625166666667, "name": "f26f9bcfffa8ba49a0651e2fadeb7373", "fusion_lon": 0.0, "bike_id": "f26f9bcfffa8ba49a0651e2fadeb7373", "is_disabled": 0, "is_reserved": 0}, {"rental_uris": {"ios": "https://dc.lft.to/lastmile_qr_scan", "android": "https://dc.lft.to/lastmile_qr_scan"}, "lon": -77.032054, "type": "electric_scooter", "fusion_lat": 0.0, "lat": 38.91719633333334, "name": "d50bbd7cbfb7ccdeca7db92d74d3f837", "fusion_lon": 0.0, "bike_id": "d50bbd7cbfb7ccdeca7db92d74d3f837", "is_disabled": 0, "is_reserved": 0}, {"rental_uris": {"ios": "https://dc.lft.to/lastmile_qr_scan", "android": "https://dc.lft.to/lastmile_qr_scan"}, "lon": -77.0587995, "type": "electric_scooter", "fusion_lat": 0.0, "lat": 38.93639983333333, "name": "630ed227871763c0bafa444b2ef6c713", "fusion_lon": 0.0, "bike_id": "630ed227871763c0bafa444b2ef6c713", "is_disabled": 0, "is_reserved": 0}, {"rental_uris": {"ios": "https://dc.lft.to/lastmile_qr_scan", "android": "https://dc.lft.to/lastmile_qr_scan"}, "lon": -76.94652166666667, "type": "electric_scooter", "fusion_lat": 0.0, "lat": 38.898256, "name": "5ff068330bf6d33eea0e58b40acf3ea3", "fusion_lon": 0.0, "bike_id": "5ff068330bf6d33eea0e58b40acf3ea3", "is_disabled": 0, "is_reserved": 0}, {"rental_uris": {"ios": "https://dc.lft.to/lastmile_qr_scan", "android": "https://dc.lft.to/lastmile_qr_scan"}, "lon": -77.01110366666667, "type": "electric_scooter", "fusion_lat": 0.0, "lat": 38.89536833333333, "name": "8923427580d265e38fdb42b5af366a4b", "fusion_lon": 0.0, "bike_id": "8923427580d265e38fdb42b5af366a4b", "is_disabled": 0, "is_reserved": 0}, {"rental_uris": {"ios": "https://dc.lft.to/lastmile_qr_scan", "android": "https://dc.lft.to/lastmile_qr_scan"}, "lon": -77.02377, "type": "electric_scooter", "fusion_lat": 0.0, "lat": 38.916067166666664, "name": "681503a6d9da1eb34b81f47dcd3b7aab", "fusion_lon": 0.0, "bike_id": "681503a6d9da1eb34b81f47dcd3b7aab", "is_disabled": 0, "is_reserved": 0}, {"rental_uris": {"ios": "https://dc.lft.to/lastmile_qr_scan", "android": "https://dc.lft.to/lastmile_qr_scan"}, "lon": -77.0335655, "type": "electric_scooter", "fusion_lat": 0.0, "lat": 38.90633116666667, "name": "19632c93b43381c6bd1489e2ea2d05e9", "fusion_lon": 0.0, "bike_id": "19632c93b43381c6bd1489e2ea2d05e9", "is_disabled": 0, "is_reserved": 0}, {"rental_uris": {"ios": "https://dc.lft.to/lastmile_qr_scan", "android": "https://dc.lft.to/lastmile_qr_scan"}, "lon": -77.0319025, "type": "electric_scooter", "fusion_lat": 0.0, "lat": 38.91920433333333, "name": "a2ccf332e5d27f2b62bd3d73fe882171", "fusion_lon": 0.0, "bike_id": "a2ccf332e5d27f2b62bd3d73fe882171", "is_disabled": 0, "is_reserved": 0}, {"rental_uris": {"ios": "https://dc.lft.to/lastmile_qr_scan", "android": "https://dc.lft.to/lastmile_qr_scan"}, "lon": -77.06347133333334, "type": "electric_bike", "fusion_lat": 0.0, "lat": 38.90849933333333, "name": "28deb1b0a9136f2cc8a309b353dc76fa", "fusion_lon": 0.0, "bike_id": "28deb1b0a9136f2cc8a309b353dc76fa", "is_disabled": 0, "is_reserved": 0}, {"rental_uris": {"ios": "https://dc.lft.to/lastmile_qr_scan", "android": "https://dc.lft.to/lastmile_qr_scan"}, "lon": -77.031996, "type": "electric_scooter", "fusion_lat": 0.0, "lat": 38.921593666666666, "name": "fe53d4afe4a28bc2bcff1936f665cd2e", "fusion_lon": 0.0, "bike_id": "fe53d4afe4a28bc2bcff1936f665cd2e", "is_disabled": 0, "is_reserved": 0}, {"rental_uris": {"ios": "https://dc.lft.to/lastmile_qr_scan", "android": "https://dc.lft.to/lastmile_qr_scan"}, "lon": -77.00186833333333, "type": "electric_scooter", "fusion_lat": 0.0, "lat": 38.919463666666665, "name": "b5b2314d32d0906a26f71d8c3d8df662", "fusion_lon": 0.0, "bike_id": "b5b2314d32d0906a26f71d8c3d8df662", "is_disabled": 0, "is_reserved": 0}, {"rental_uris": {"ios": "https://dc.lft.to/lastmile_qr_scan", "android": "https://dc.lft.to/lastmile_qr_scan"}, "lon": -77.04226633333333, "type": "electric_scooter", "fusion_lat": 0.0, "lat": 38.921322333333336, "name": "be8352e61782099e5ca0d84649b19b29", "fusion_lon": 0.0, "bike_id": "be8352e61782099e5ca0d84649b19b29", "is_disabled": 0, "is_reserved": 0}, {"rental_uris": {"ios": "https://dc.lft.to/lastmile_qr_scan", "android": "https://dc.lft.to/lastmile_qr_scan"}, "lon": -77.03265033333334, "type": "electric_scooter", "fusion_lat": 0.0, "lat": 38.89564883333333, "name": "3aa4a157f23f1cd2b1c537baffdd483e", "fusion_lon": 0.0, "bike_id": "3aa4a157f23f1cd2b1c537baffdd483e", "is_disabled": 0, "is_reserved": 0}, {"rental_uris": {"ios": "https://dc.lft.to/lastmile_qr_scan", "android": "https://dc.lft.to/lastmile_qr_scan"}, "lon": -77.11424183333334, "type": "electric_bike", "fusion_lat": 0.0, "lat": 38.85248383333333, "name": "b942fe132fa24035e7672f6bbbd057c8", "fusion_lon": 0.0, "bike_id": "b942fe132fa24035e7672f6bbbd057c8", "is_disabled": 0, "is_reserved": 0}, {"rental_uris": {"ios": "https://dc.lft.to/lastmile_qr_scan", "android": "https://dc.lft.to/lastmile_qr_scan"}, "lon": -77.03174283333334, "type": "electric_scooter", "fusion_lat": 0.0, "lat": 38.899648166666665, "name": "cd641ca4c476c085de8ab4c618add3b9", "fusion_lon": 0.0, "bike_id": "cd641ca4c476c085de8ab4c618add3b9", "is_disabled": 0, "is_reserved": 0}, {"rental_uris": {"ios": "https://dc.lft.to/lastmile_qr_scan", "android": "https://dc.lft.to/lastmile_qr_scan"}, "lon": -77.02609066666666, "type": "electric_scooter", "fusion_lat": 0.0, "lat": 38.88354266666666, "name": "079d24b19ee81091bdd0c873427f48da", "fusion_lon": 0.0, "bike_id": "079d24b19ee81091bdd0c873427f48da", "is_disabled": 0, "is_reserved": 0}, {"rental_uris": {"ios": "https://dc.lft.to/lastmile_qr_scan", "android": "https://dc.lft.to/lastmile_qr_scan"}, "lon": -77.022527, "type": "electric_scooter", "fusion_lat": 0.0, "lat": 38.916509, "name": "adfa03a25de3efda1cbb678e9e27ca16", "fusion_lon": 0.0, "bike_id": "adfa03a25de3efda1cbb678e9e27ca16", "is_disabled": 0, "is_reserved": 0}, {"rental_uris": {"ios": "https://dc.lft.to/lastmile_qr_scan", "android": "https://dc.lft.to/lastmile_qr_scan"}, "lon": -77.03375966666667, "type": "electric_scooter", "fusion_lat": 0.0, "lat": 38.9196465, "name": "21e13c3302b49078fef1d3300bf9d20c", "fusion_lon": 0.0, "bike_id": "21e13c3302b49078fef1d3300bf9d20c", "is_disabled": 0, "is_reserved": 0}, {"rental_uris": {"ios": "https://dc.lft.to/lastmile_qr_scan", "android": "https://dc.lft.to/lastmile_qr_scan"}, "lon": -76.98415416666667, "type": "electric_scooter", "fusion_lat": 0.0, "lat": 38.913869166666665, "name": "3c07c7b8c730bbce6826484e8f5cccf7", "fusion_lon": 0.0, "bike_id": "3c07c7b8c730bbce6826484e8f5cccf7", "is_disabled": 0, "is_reserved": 0}, {"rental_uris": {"ios": "https://dc.lft.to/lastmile_qr_scan", "android": "https://dc.lft.to/lastmile_qr_scan"}, "lon": -77.02013983333333, "type": "electric_scooter", "fusion_lat": 0.0, "lat": 38.88361316666666, "name": "600a5063c7c23c708929b83cbf9ab123", "fusion_lon": 0.0, "bike_id": "600a5063c7c23c708929b83cbf9ab123", "is_disabled": 0, "is_reserved": 0}, {"rental_uris": {"ios": "https://dc.lft.to/lastmile_qr_scan", "android": "https://dc.lft.to/lastmile_qr_scan"}, "lon": -77.07812616666666, "type": "electric_scooter", "fusion_lat": 0.0, "lat": 38.9262665, "name": "e0d1140d5ef62c32cf504524084c6b7b", "fusion_lon": 0.0, "bike_id": "e0d1140d5ef62c32cf504524084c6b7b", "is_disabled": 0, "is_reserved": 0}, {"rental_uris": {"ios": "https://dc.lft.to/lastmile_qr_scan", "android": "https://dc.lft.to/lastmile_qr_scan"}, "lon": -77.0219755, "type": "electric_scooter", "fusion_lat": 0.0, "lat": 38.90836866666667, "name": "49b51927725ec495b512a1fd442afd4c", "fusion_lon": 0.0, "bike_id": "49b51927725ec495b512a1fd442afd4c", "is_disabled": 0, "is_reserved": 0}, {"rental_uris": {"ios": "https://dc.lft.to/lastmile_qr_scan", "android": "https://dc.lft.to/lastmile_qr_scan"}, "lon": -76.96788016666666, "type": "electric_scooter", "fusion_lat": 0.0, "lat": 38.861436833333336, "name": "c7143a35693e69191473c86360e5068e", "fusion_lon": 0.0, "bike_id": "c7143a35693e69191473c86360e5068e", "is_disabled": 0, "is_reserved": 0}, {"rental_uris": {"ios": "https://dc.lft.to/lastmile_qr_scan", "android": "https://dc.lft.to/lastmile_qr_scan"}, "lon": -76.98356666666666, "type": "electric_scooter", "fusion_lat": 0.0, "lat": 38.91546, "name": "cf66f0d0bd1691b007653ba259438fbf", "fusion_lon": 0.0, "bike_id": "cf66f0d0bd1691b007653ba259438fbf", "is_disabled": 0, "is_reserved": 0}, {"rental_uris": {"ios": "https://dc.lft.to/lastmile_qr_scan", "android": "https://dc.lft.to/lastmile_qr_scan"}, "lon": -77.02016033333334, "type": "electric_scooter", "fusion_lat": 0.0, "lat": 38.89282083333333, "name": "91b6335b478ef5192f8ba77f4e729c24", "fusion_lon": 0.0, "bike_id": "91b6335b478ef5192f8ba77f4e729c24", "is_disabled": 0, "is_reserved": 0}, {"rental_uris": {"ios": "https://dc.lft.to/lastmile_qr_scan", "android": "https://dc.lft.to/lastmile_qr_scan"}, "lon": -76.995585, "type": "electric_scooter", "fusion_lat": 0.0, "lat": 38.928762, "name": "823c161b1d0d2ccd4c5a0b5f15cefdba", "fusion_lon": 0.0, "bike_id": "823c161b1d0d2ccd4c5a0b5f15cefdba", "is_disabled": 0, "is_reserved": 0}, {"rental_uris": {"ios": "https://dc.lft.to/lastmile_qr_scan", "android": "https://dc.lft.to/lastmile_qr_scan"}, "lon": -76.93869033333333, "type": "electric_scooter", "fusion_lat": 0.0, "lat": 38.9008345, "name": "eccc2c35786790112ff8bfbf226c8a86", "fusion_lon": 0.0, "bike_id": "eccc2c35786790112ff8bfbf226c8a86", "is_disabled": 0, "is_reserved": 0}, {"rental_uris": {"ios": "https://dc.lft.to/lastmile_qr_scan", "android": "https://dc.lft.to/lastmile_qr_scan"}, "lon": -77.02428283333333, "type": "electric_scooter", "fusion_lat": 0.0, "lat": 38.895162, "name": "05b5bddca4c5e9167ba7625779b6a697", "fusion_lon": 0.0, "bike_id": "05b5bddca4c5e9167ba7625779b6a697", "is_disabled": 0, "is_reserved": 0}, {"rental_uris": {"ios": "https://dc.lft.to/lastmile_qr_scan", "android": "https://dc.lft.to/lastmile_qr_scan"}, "lon": -77.01219166666667, "type": "electric_scooter", "fusion_lat": 0.0, "lat": 38.90036166666667, "name": "ce5f4bca9686863f8e3bb7fc27503add", "fusion_lon": 0.0, "bike_id": "ce5f4bca9686863f8e3bb7fc27503add", "is_disabled": 0, "is_reserved": 0}, {"rental_uris": {"ios": "https://dc.lft.to/lastmile_qr_scan", "android": "https://dc.lft.to/lastmile_qr_scan"}, "lon": -77.03542616666667, "type": "electric_scooter", "fusion_lat": 0.0, "lat": 38.924217166666665, "name": "e1b7dc54404a93a76375e7284f6370bd", "fusion_lon": 0.0, "bike_id": "e1b7dc54404a93a76375e7284f6370bd", "is_disabled": 0, "is_reserved": 0}, {"rental_uris": {"ios": "https://dc.lft.to/lastmile_qr_scan", "android": "https://dc.lft.to/lastmile_qr_scan"}, "lon": -76.98655266666667, "type": "electric_scooter", "fusion_lat": 0.0, "lat": 38.85805033333333, "name": "c93072521a2d1a416a4b0839aad6cf6a", "fusion_lon": 0.0, "bike_id": "c93072521a2d1a416a4b0839aad6cf6a", "is_disabled": 0, "is_reserved": 0}, {"rental_uris": {"ios": "https://dc.lft.to/lastmile_qr_scan", "android": "https://dc.lft.to/lastmile_qr_scan"}, "lon": -77.0448115, "type": "electric_scooter", "fusion_lat": 0.0, "lat": 38.900298166666666, "name": "a9cf88509d3583e1efc434dac28c1094", "fusion_lon": 0.0, "bike_id": "a9cf88509d3583e1efc434dac28c1094", "is_disabled": 0, "is_reserved": 0}, {"rental_uris": {"ios": "https://dc.lft.to/lastmile_qr_scan", "android": "https://dc.lft.to/lastmile_qr_scan"}, "lon": -77.03344116666666, "type": "electric_scooter", "fusion_lat": 0.0, "lat": 38.892439, "name": "a2f72db0bc0bdfac63c6b6727c453970", "fusion_lon": 0.0, "bike_id": "a2f72db0bc0bdfac63c6b6727c453970", "is_disabled": 0, "is_reserved": 0}, {"rental_uris": {"ios": "https://dc.lft.to/lastmile_qr_scan", "android": "https://dc.lft.to/lastmile_qr_scan"}, "lon": -76.99670766666667, "type": "electric_scooter", "fusion_lat": 0.0, "lat": 38.91011116666667, "name": "f0e31cc9dde49265b9e98e8b32105142", "fusion_lon": 0.0, "bike_id": "f0e31cc9dde49265b9e98e8b32105142", "is_disabled": 0, "is_reserved": 0}, {"rental_uris": {"ios": "https://dc.lft.to/lastmile_qr_scan", "android": "https://dc.lft.to/lastmile_qr_scan"}, "lon": -77.03198483333334, "type": "electric_scooter", "fusion_lat": 0.0, "lat": 38.918086, "name": "93b9048c78ca976157a1a2b6a74b3a20", "fusion_lon": 0.0, "bike_id": "93b9048c78ca976157a1a2b6a74b3a20", "is_disabled": 0, "is_reserved": 0}, {"rental_uris": {"ios": "https://dc.lft.to/lastmile_qr_scan", "android": "https://dc.lft.to/lastmile_qr_scan"}, "lon": -77.006639, "type": "electric_scooter", "fusion_lat": 0.0, "lat": 38.874838833333335, "name": "bd039c7ee2c0468cdb07bacd8eae3ff7", "fusion_lon": 0.0, "bike_id": "bd039c7ee2c0468cdb07bacd8eae3ff7", "is_disabled": 0, "is_reserved": 0}, {"rental_uris": {"ios": "https://dc.lft.to/lastmile_qr_scan", "android": "https://dc.lft.to/lastmile_qr_scan"}, "lon": -77.02976583333333, "type": "electric_scooter", "fusion_lat": 0.0, "lat": 38.96230416666667, "name": "58a2dd398d2ee97cf34236578f3a295e", "fusion_lon": 0.0, "bike_id": "58a2dd398d2ee97cf34236578f3a295e", "is_disabled": 0, "is_reserved": 0}, {"rental_uris": {"ios": "https://dc.lft.to/lastmile_qr_scan", "android": "https://dc.lft.to/lastmile_qr_scan"}, "lon": -77.03207233333333, "type": "electric_scooter", "fusion_lat": 0.0, "lat": 38.8953105, "name": "fd384ef4f38bc1ce1f44c60eb80038d4", "fusion_lon": 0.0, "bike_id": "fd384ef4f38bc1ce1f44c60eb80038d4", "is_disabled": 0, "is_reserved": 0}, {"rental_uris": {"ios": "https://dc.lft.to/lastmile_qr_scan", "android": "https://dc.lft.to/lastmile_qr_scan"}, "lon": -77.04100466666667, "type": "electric_scooter", "fusion_lat": 0.0, "lat": 38.91859483333333, "name": "e48bc381797beeb6fe1c14e6cc26ef9c", "fusion_lon": 0.0, "bike_id": "e48bc381797beeb6fe1c14e6cc26ef9c", "is_disabled": 0, "is_reserved": 0}, {"rental_uris": {"ios": "https://dc.lft.to/lastmile_qr_scan", "android": "https://dc.lft.to/lastmile_qr_scan"}, "lon": -76.99544183333333, "type": "electric_scooter", "fusion_lat": 0.0, "lat": 38.90029716666667, "name": "f2a1754688eb6d0d73d08b61b2d0f70b", "fusion_lon": 0.0, "bike_id": "f2a1754688eb6d0d73d08b61b2d0f70b", "is_disabled": 0, "is_reserved": 0}, {"rental_uris": {"ios": "https://dc.lft.to/lastmile_qr_scan", "android": "https://dc.lft.to/lastmile_qr_scan"}, "lon": -77.0854285, "type": "electric_bike", "fusion_lat": 0.0, "lat": 38.856232166666665, "name": "4dcf1e097ebc8e161e512a9b504727bd", "fusion_lon": 0.0, "bike_id": "4dcf1e097ebc8e161e512a9b504727bd", "is_disabled": 0, "is_reserved": 0}, {"rental_uris": {"ios": "https://dc.lft.to/lastmile_qr_scan", "android": "https://dc.lft.to/lastmile_qr_scan"}, "lon": -77.028858, "type": "electric_scooter", "fusion_lat": 0.0, "lat": 38.923775666666664, "name": "f82ede2f1f0e3a5c55312cc45287d4af", "fusion_lon": 0.0, "bike_id": "f82ede2f1f0e3a5c55312cc45287d4af", "is_disabled": 0, "is_reserved": 0}, {"rental_uris": {"ios": "https://dc.lft.to/lastmile_qr_scan", "android": "https://dc.lft.to/lastmile_qr_scan"}, "lon": -77.17849533333333, "type": "electric_bike", "fusion_lat": 0.0, "lat": 39.0889735, "name": "4793fb98f69a5b998fc9b78c9ff3b3b2", "fusion_lon": 0.0, "bike_id": "4793fb98f69a5b998fc9b78c9ff3b3b2", "is_disabled": 0, "is_reserved": 0}, {"rental_uris": {"ios": "https://dc.lft.to/lastmile_qr_scan", "android": "https://dc.lft.to/lastmile_qr_scan"}, "lon": -77.09865566666667, "type": "electric_bike", "fusion_lat": 0.0, "lat": 38.85365016666667, "name": "2d409c2df0ccd9a1f428b7105a3554b9", "fusion_lon": 0.0, "bike_id": "2d409c2df0ccd9a1f428b7105a3554b9", "is_disabled": 0, "is_reserved": 0}, {"rental_uris": {"ios": "https://dc.lft.to/lastmile_qr_scan", "android": "https://dc.lft.to/lastmile_qr_scan"}, "lon": -77.0405125, "type": "electric_scooter", "fusion_lat": 0.0, "lat": 38.927180166666666, "name": "fe36bd6ea0874011eb084273bd7df2c7", "fusion_lon": 0.0, "bike_id": "fe36bd6ea0874011eb084273bd7df2c7", "is_disabled": 0, "is_reserved": 0}, {"rental_uris": {"ios": "https://dc.lft.to/lastmile_qr_scan", "android": "https://dc.lft.to/lastmile_qr_scan"}, "lon": -77.0340855, "type": "electric_bike", "fusion_lat": 0.0, "lat": 38.9004255, "name": "d7688b75a23249dbc6f0ca90da6fb4aa", "fusion_lon": 0.0, "bike_id": "d7688b75a23249dbc6f0ca90da6fb4aa", "is_disabled": 0, "is_reserved": 0}, {"rental_uris": {"ios": "https://dc.lft.to/lastmile_qr_scan", "android": "https://dc.lft.to/lastmile_qr_scan"}, "lon": -77.0500065, "type": "electric_scooter", "fusion_lat": 0.0, "lat": 38.905506, "name": "ac66609d64fd363d7e8f2bebaac86306", "fusion_lon": 0.0, "bike_id": "ac66609d64fd363d7e8f2bebaac86306", "is_disabled": 0, "is_reserved": 0}, {"rental_uris": {"ios": "https://dc.lft.to/lastmile_qr_scan", "android": "https://dc.lft.to/lastmile_qr_scan"}, "lon": -77.03650766666667, "type": "electric_scooter", "fusion_lat": 0.0, "lat": 38.9563115, "name": "2606879824ca969905dc4400e6d57c01", "fusion_lon": 0.0, "bike_id": "2606879824ca969905dc4400e6d57c01", "is_disabled": 0, "is_reserved": 0}, {"rental_uris": {"ios": "https://dc.lft.to/lastmile_qr_scan", "android": "https://dc.lft.to/lastmile_qr_scan"},