{"data": {"bikes": [{"is_reserved": 0, "type": "electric_scooter", "bike_id": "906cf692ccaf6d5ad2a935407dc0b9cf", "lat": 38.892298333333336, "lon": -77.048994, "rental_uris": {"android": "https://dc.lft.to/lastmile_qr_scan", "ios": "https://dc.lft.to/lastmile_qr_scan"}, "is_disabled": 0, "fusion_lat": 0.0, "name": "906cf692ccaf6d5ad2a935407dc0b9cf", "fusion_lon": 0.0}, {"is_reserved": 0, "type": "electric_scooter", "bike_id": "312cf91deb1efafeb7e701790b29a57d", "lat": 38.927414, "lon": -77.05251183333333, "rental_uris": {"android": "https://dc.lft.to/lastmile_qr_scan", "ios": "https://dc.lft.to/lastmile_qr_scan"}, "is_disabled": 0, "fusion_lat": 0.0, "name": "312cf91deb1efafeb7e701790b29a57d", "fusion_lon": 0.0}, {"is_reserved": 0, "type": "electric_scooter", "bike_id": "c7ef0fa407ff2baa753b206170372247", "lat": 38.945223, "lon": -77.02978416666667, "rental_uris": {"android": "https://dc.lft.to/lastmile_qr_scan", "ios": "https://dc.lft.to/lastmile_qr_scan"}, "is_disabled": 0, "fusion_lat": 0.0, "name": "c7ef0fa407ff2baa753b206170372247", "fusion_lon": 0.0}, {"is_reserved": 0, "type": "electric_scooter", "bike_id": "501b66f74c649558298d972d02eee8a6", "lat": 38.90781066666667, "lon": -77.000066, "rental_uris": {"android": "https://dc.lft.to/lastmile_qr_scan", "ios": "https://dc.lft.to/lastmile_qr_scan"}, "is_disabled": 0, "fusion_lat": 0.0, "name": "501b66f74c649558298d972d02eee8a6", "fusion_lon": 0.0}, {"is_reserved": 0, "type": "electric_scooter", "bike_id": "99caa1861ac01813580251f098938373", "lat": 38.92291133333333, "lon": -77.03658483333334, "rental_uris": {"android": "https://dc.lft.to/lastmile_qr_scan", "ios": "https://dc.lft.to/lastmile_qr_scan"}, "is_disabled": 0, "fusion_lat": 0.0, "name": "99caa1861ac01813580251f098938373", "fusion_lon": 0.0}, {"is_reserved": 0, "type": "electric_scooter", "bike_id": "543a157a7768b552e9b13bd65344c777", "lat": 38.9498015, "lon": -77.02016833333333, "rental_uris": {"android": "https://dc.lft.to/lastmile_qr_scan", "ios": "https://dc.lft.to/lastmile_qr_scan"}, "is_disabled": 0, "fusion_lat": 0.0, "name": "543a157a7768b552e9b13bd65344c777", "fusion_lon": 0.0}, {"is_reserved": 0, "type": "electric_scooter", "bike_id": "e8d59f069cf0de16f1ef672424ed19ba", "lat": 38.92194533333333, "lon": -77.04257566666666, "rental_uris": {"android": "https://dc.lft.to/lastmile_qr_scan", "ios": "https://dc.lft.to/lastmile_qr_scan"}, "is_disabled": 0, "fusion_lat": 0.0, "name": "e8d59f069cf0de16f1ef672424ed19ba", "fusion_lon": 0.0}, {"is_reserved": 0, "type": "electric_scooter", "bike_id": "cf1ac5b5670c7b6af61e289e52c3bb6a", "lat": 38.93075733333333, "lon": -77.02962116666667, "rental_uris": {"android": "https://dc.lft.to/lastmile_qr_scan", "ios": "https://dc.lft.to/lastmile_qr_scan"}, "is_disabled": 0, "fusion_lat": 0.0, "name": "cf1ac5b5670c7b6af61e289e52c3bb6a", "fusion_lon": 0.0}, {"is_reserved": 0, "type": "electric_scooter", "bike_id": "254a31737bd3e5e683da813eba7c4112", "lat": 38.920244833333335, "lon": -77.01877483333334, "rental_uris": {"android": "https://dc.lft.to/lastmile_qr_scan", "ios": "https://dc.lft.to/lastmile_qr_scan"}, "is_disabled": 0, "fusion_lat": 0.0, "name": "254a31737bd3e5e683da813eba7c4112", "fusion_lon": 0.0}, {"is_reserved": 0, "type": "electric_scooter", "bike_id": "6e663ee974036b77a15bb99a3d85eda4", "lat": 38.93662783333333, "lon": -77.03660716666667, "rental_uris": {"android": "https://dc.lft.to/lastmile_qr_scan", "ios": "https://dc.lft.to/lastmile_qr_scan"}, "is_disabled": 0, "fusion_lat": 0.0, "name": "6e663ee974036b77a15bb99a3d85eda4", "fusion_lon": 0.0}, {"is_reserved": 0, "type": "electric_scooter", "bike_id": "311fb57d4565c2f5396e99c072d7c9fb", "lat": 38.924539833333334, "lon": -77.0202535, "rental_uris": {"android": "https://dc.lft.to/lastmile_qr_scan", "ios": "https://dc.lft.to/lastmile_qr_scan"}, "is_disabled": 0, "fusion_lat": 0.0, "name": "311fb57d4565c2f5396e99c072d7c9fb", "fusion_lon": 0.0}, {"is_reserved": 0, "type": "electric_scooter", "bike_id": "e555090732a7d1aa09b085a367cd31f6", "lat": 38.904997333333334, "lon": -77.06790433333333, "rental_uris": {"android": "https://dc.lft.to/lastmile_qr_scan", "ios": "https://dc.lft.to/lastmile_qr_scan"}, "is_disabled": 0, "fusion_lat": 0.0, "name": "e555090732a7d1aa09b085a367cd31f6", "fusion_lon": 0.0}, {"is_reserved": 0, "type": "electric_scooter", "bike_id": "5a2364e233978894fe6105527f8a28df", "lat": 38.925542666666665, "lon": -77.033677, "rental_uris": {"android": "https://dc.lft.to/lastmile_qr_scan", "ios": "https://dc.lft.to/lastmile_qr_scan"}, "is_disabled": 0, "fusion_lat": 0.0, "name": "5a2364e233978894fe6105527f8a28df", "fusion_lon": 0.0}, {"is_reserved": 0, "type": "electric_scooter", "bike_id": "859f4f58b475f8458c32acf64146447c", "lat": 38.90014033333333, "lon": -77.0272615, "rental_uris": {"android": "https://dc.lft.to/lastmile_qr_scan", "ios": "https://dc.lft.to/lastmile_qr_scan"}, "is_disabled": 0, "fusion_lat": 0.0, "name": "859f4f58b475f8458c32acf64146447c", "fusion_lon": 0.0}, {"is_reserved": 0, "type": "electric_scooter", "bike_id": "e95e96377027cf40e42d04634c5f661e", "lat": 38.916551, "lon": -77.03715866666667, "rental_uris": {"android": "https://dc.lft.to/lastmile_qr_scan", "ios": "https://dc.lft.to/lastmile_qr_scan"}, "is_disabled": 0, "fusion_lat": 0.0, "name": "e95e96377027cf40e42d04634c5f661e", "fusion_lon": 0.0}, {"is_reserved": 0, "type": "electric_scooter", "bike_id": "ec21691079abedea51a3e0b45398fd41", "lat": 38.92449583333333, "lon": -77.02136033333333, "rental_uris": {"android": "https://dc.lft.to/lastmile_qr_scan", "ios": "https://dc.lft.to/lastmile_qr_scan"}, "is_disabled": 0, "fusion_lat": 0.0, "name": "ec21691079abedea51a3e0b45398fd41", "fusion_lon": 0.0}, {"is_reserved": 0, "type": "electric_scooter", "bike_id": "fc5e635b5d292f4fafd93ccf6ee79cf8", "lat": 38.92447333333333, "lon": -77.02032683333333, "rental_uris": {"android": "https://dc.lft.to/lastmile_qr_scan", "ios": "https://dc.lft.to/lastmile_qr_scan"}, "is_disabled": 0, "fusion_lat": 0.0, "name": "fc5e635b5d292f4fafd93ccf6ee79cf8", "fusion_lon": 0.0}, {"is_reserved": 0, "type": "electric_scooter", "bike_id": "fbc1fbab5842783187abfc7da9b937d5", "lat": 38.933911333333334, "lon": -77.02380166666667, "rental_uris": {"android": "https://dc.lft.to/lastmile_qr_scan", "ios": "https://dc.lft.to/lastmile_qr_scan"}, "is_disabled": 0, "fusion_lat": 0.0, "name": "fbc1fbab5842783187abfc7da9b937d5", "fusion_lon": 0.0}, {"is_reserved": 0, "type": "electric_scooter", "bike_id": "0e83cc39fa87fe5a2dd7572db6b21661", "lat": 38.956323166666664, "lon": -77.03561933333333, "rental_uris": {"android": "https://dc.lft.to/lastmile_qr_scan", "ios": "https://dc.lft.to/lastmile_qr_scan"}, "is_disabled": 0, "fusion_lat": 0.0, "name": "0e83cc39fa87fe5a2dd7572db6b21661", "fusion_lon": 0.0}, {"is_reserved": 0, "type": "electric_scooter", "bike_id": "77792d63baf706b6ee1bafb0c8cbbfef", "lat": 38.90486883333333, "lon": -77.06282433333334, "rental_uris": {"android": "https://dc.lft.to/lastmile_qr_scan", "ios": "https://dc.lft.to/lastmile_qr_scan"}, "is_disabled": 0, "fusion_lat": 0.0, "name": "77792d63baf706b6ee1bafb0c8cbbfef", "fusion_lon": 0.0}, {"is_reserved": 0, "type": "electric_scooter", "bike_id": "de57bfee655f350e926ddd99f14871b2", "lat": 38.912673833333336, "lon": -77.04429466666667, "rental_uris": {"android": "https://dc.lft.to/lastmile_qr_scan", "ios": "https://dc.lft.to/lastmile_qr_scan"}, "is_disabled": 0, "fusion_lat": 0.0, "name": "de57bfee655f350e926ddd99f14871b2", "fusion_lon": 0.0}, {"is_reserved": 0, "type": "electric_scooter", "bike_id": "1ed25888517a19caf1693c331170e4bc", "lat": 38.93111316666667, "lon": -77.02395233333333, "rental_uris": {"android": "https://dc.lft.to/lastmile_qr_scan", "ios": "https://dc.lft.to/lastmile_qr_scan"}, "is_disabled": 0, "fusion_lat": 0.0, "name": "1ed25888517a19caf1693c331170e4bc", "fusion_lon": 0.0}, {"is_reserved": 0, "type": "electric_scooter", "bike_id": "7db6ea579e70c0707d9bb350d1d7f0f3", "lat": 38.91612816666667, "lon": -77.04622633333334, "rental_uris": {"android": "https://dc.lft.to/lastmile_qr_scan", "ios": "https://dc.lft.to/lastmile_qr_scan"}, "is_disabled": 0, "fusion_lat": 0.0, "name": "7db6ea579e70c0707d9bb350d1d7f0f3", "fusion_lon": 0.0}, {"is_reserved": 0, "type": "electric_scooter", "bike_id": "320696c6dea091b58d056d61c4267794", "lat": 38.900879, "lon": -76.9800835, "rental_uris": {"android": "https://dc.lft.to/lastmile_qr_scan", "ios": "https://dc.lft.to/lastmile_qr_scan"}, "is_disabled": 0, "fusion_lat": 0.0, "name": "320696c6dea091b58d056d61c4267794", "fusion_lon": 0.0}, {"is_reserved": 0, "type": "electric_scooter", "bike_id": "bd7a7eeadf8cb44c43d825dfa434759a", "lat": 38.90976933333334, "lon": -77.03399866666666, "rental_uris": {"android": "https://dc.lft.to/lastmile_qr_scan", "ios": "https://dc.lft.to/lastmile_qr_scan"}, "is_disabled": 0, "fusion_lat": 0.0, "name": "bd7a7eeadf8cb44c43d825dfa434759a", "fusion_lon": 0.0}, {"is_reserved": 0, "type": "electric_scooter", "bike_id": "a71c92ef1285432acd2ad04a5abf69b0", "lat": 38.917786, "lon": -77.04149783333334, "rental_uris": {"android": "https://dc.lft.to/lastmile_qr_scan", "ios": "https://dc.lft.to/lastmile_qr_scan"}, "is_disabled": 0, "fusion_lat": 0.0, "name": "a71c92ef1285432acd2ad04a5abf69b0", "fusion_lon": 0.0}, {"is_reserved": 0, "type": "electric_bike", "bike_id": "b987f1e6d1cdee4316613dfc2121fb31", "lat": 38.97342916666667, "lon": -76.995861, "rental_uris": {"android": "https://dc.lft.to/lastmile_qr_scan", "ios": "https://dc.lft.to/lastmile_qr_scan"}, "is_disabled": 0, "fusion_lat": 0.0, "name": "b987f1e6d1cdee4316613dfc2121fb31", "fusion_lon": 0.0}, {"is_reserved": 0, "type": "electric_scooter", "bike_id": "fa92ca5e9d4ea7a37c36d598d9f73fcc", "lat": 38.923737833333334, "lon": -77.02893833333333, "rental_uris": {"android": "https://dc.lft.to/lastmile_qr_scan", "ios": "https://dc.lft.to/lastmile_qr_scan"}, "is_disabled": 0, "fusion_lat": 0.0, "name": "fa92ca5e9d4ea7a37c36d598d9f73fcc", "fusion_lon": 0.0}, {"is_reserved": 0, "type": "electric_scooter", "bike_id": "09880638b715b3622fa1cfb793777d7d", "lat": 38.91135716666667, "lon": -76.98466116666667, "rental_uris": {"android": "https://dc.lft.to/lastmile_qr_scan", "ios": "https://dc.lft.to/lastmile_qr_scan"}, "is_disabled": 0, "fusion_lat": 0.0, "name": "09880638b715b3622fa1cfb793777d7d", "fusion_lon": 0.0}, {"is_reserved": 0, "type": "electric_bike", "bike_id": "1d6587f834affb3deeebdebb20a7490c", "lat": 39.04236133333333, "lon": -76.99732866666666, "rental_uris": {"android": "https://dc.lft.to/lastmile_qr_scan", "ios": "https://dc.lft.to/lastmile_qr_scan"}, "is_disabled": 0, "fusion_lat": 0.0, "name": "1d6587f834affb3deeebdebb20a7490c", "fusion_lon": 0.0}, {"is_reserved": 0, "type": "electric_scooter", "bike_id": "456bef350b0595c9e9ba2923da90e7e9", "lat": 38.89663516666667, "lon": -77.02605683333333, "rental_uris": {"android": "https://dc.lft.to/lastmile_qr_scan", "ios": "https://dc.lft.to/lastmile_qr_scan"}, "is_disabled": 0, "fusion_lat": 0.0, "name": "456bef350b0595c9e9ba2923da90e7e9", "fusion_lon": 0.0}, {"is_reserved": 0, "type": "electric_bike", "bike_id": "85c3b7e1ca716800c3509c62576403df", "lat": 38.90177466666667, "lon": -77.06018166666667, "rental_uris": {"android": "https://dc.lft.to/lastmile_qr_scan", "ios": "https://dc.lft.to/lastmile_qr_scan"}, "is_disabled": 0, "fusion_lat": 0.0, "name": "85c3b7e1ca716800c3509c62576403df", "fusion_lon": 0.0}, {"is_reserved": 0, "type": "electric_scooter", "bike_id": "2be3c8579c14b79e4261afff5a18e936", "lat": 38.89507316666667, "lon": -76.93478483333334, "rental_uris": {"android": "https://dc.lft.to/lastmile_qr_scan", "ios": "https://dc.lft.to/lastmile_qr_scan"}, "is_disabled": 0, "fusion_lat": 0.0, "name": "2be3c8579c14b79e4261afff5a18e936", "fusion_lon": 0.0}, {"is_reserved": 0, "type": "electric_scooter", "bike_id": "1a41e6a8d42c5304ebdd3a75a00770e1", "lat": 38.9058145, "lon": -77.00582116666666, "rental_uris": {"android": "https://dc.lft.to/lastmile_qr_scan", "ios": "https://dc.lft.to/lastmile_qr_scan"}, "is_disabled": 0, "fusion_lat": 0.0, "name": "1a41e6a8d42c5304ebdd3a75a00770e1", "fusion_lon": 0.0}, {"is_reserved": 0, "type": "electric_scooter", "bike_id": "c83dca248e93483839927e2763eadeb5", "lat": 38.901382, "lon": -76.99789966666667, "rental_uris": {"android": "https://dc.lft.to/lastmile_qr_scan", "ios": "https://dc.lft.to/lastmile_qr_scan"}, "is_disabled": 0, "fusion_lat": 0.0, "name": "c83dca248e93483839927e2763eadeb5", "fusion_lon": 0.0}, {"is_reserved": 0, "type": "electric_scooter", "bike_id": "9e6f092fe7c766de4f0907b9e1bf254f", "lat": 38.89753783333333, "lon": -77.02989616666666, "rental_uris": {"android": "https://dc.lft.to/lastmile_qr_scan", "ios": "https://dc.lft.to/lastmile_qr_scan"}, "is_disabled": 0, "fusion_lat": 0.0, "name": "9e6f092fe7c766de4f0907b9e1bf254f", "fusion_lon": 0.0}, {"is_reserved": 0, "type": "electric_scooter", "bike_id": "4878f540efbefe7f0ceb2e0bcdcff354", "lat": 38.933663333333335, "lon": -77.02728066666667, "rental_uris": {"android": "https://dc.lft.to/lastmile_qr_scan", "ios": "https://dc.lft.to/lastmile_qr_scan"}, "is_disabled": 0, "fusion_lat": 0.0, "name": "4878f540efbefe7f0ceb2e0bcdcff354", "fusion_lon": 0.0}, {"is_reserved": 0, "type": "electric_scooter", "bike_id": "00de52df51774ccdb88946e8fafd41b8", "lat": 38.8960925, "lon": -77.02212666666667, "rental_uris": {"android": "https://dc.lft.to/lastmile_qr_scan", "ios": "https://dc.lft.to/lastmile_qr_scan"}, "is_disabled": 0, "fusion_lat": 0.0, "name": "00de52df51774ccdb88946e8fafd41b8", "fusion_lon": 0.0}, {"is_reserved": 0, "type": "electric_scooter", "bike_id": "729814e3efe138dc28965423b6b8b240", "lat": 38.914184666666664, "lon": -77.02214216666667, "rental_uris": {"android": "https://dc.lft.to/lastmile_qr_scan", "ios": "https://dc.lft.to/lastmile_qr_scan"}, "is_disabled": 0, "fusion_lat": 0.0, "name": "729814e3efe138dc28965423b6b8b240", "fusion_lon": 0.0}, {"is_reserved": 0, "type": "electric_scooter", "bike_id": "e90bf7e348b9375dbc1a18ed9fdbca88", "lat": 38.93246166666667, "lon": -77.03851366666666, "rental_uris": {"android": "https://dc.lft.to/lastmile_qr_scan", "ios": "https://dc.lft.to/lastmile_qr_scan"}, "is_disabled": 0, "fusion_lat": 0.0, "name": "e90bf7e348b9375dbc1a18ed9fdbca88", "fusion_lon": 0.0}, {"is_reserved": 0, "type": "electric_scooter", "bike_id": "6005b0db552bc4865d81cf41a36b2e53", "lat": 38.911757, "lon": -77.026935, "rental_uris": {"android": "https://dc.lft.to/lastmile_qr_scan", "ios": "https://dc.lft.to/lastmile_qr_scan"}, "is_disabled": 0, "fusion_lat": 0.0, "name": "6005b0db552bc4865d81cf41a36b2e53", "fusion_lon": 0.0}, {"is_reserved": 0, "type": "electric_bike", "bike_id": "f7b4feba8b95032b5713058ba044bd26", "lat": 38.82035466666667, "lon": -77.05363483333333, "rental_uris": {"android": "https://dc.lft.to/lastmile_qr_scan", "ios": "https://dc.lft.to/lastmile_qr_scan"}, "is_disabled": 0, "fusion_lat": 0.0, "name": "f7b4feba8b95032b5713058ba044bd26", "fusion_lon": 0.0}, {"is_reserved": 0, "type": "electric_scooter", "bike_id": "656673320fda85e43686c148781086a7", "lat": 38.923931, "lon": -77.02967016666666, "rental_uris": {"android": "https://dc.lft.to/lastmile_qr_scan", "ios": "https://dc.lft.to/lastmile_qr_scan"}, "is_disabled": 0, "fusion_lat": 0.0, "name": "656673320fda85e43686c148781086a7", "fusion_lon": 0.0}, {"is_reserved": 0, "type": "electric_bike", "bike_id": "f6f99a4265433f61ff037df21f10de0f", "lat": 38.924566, "lon": -77.01920233333334, "rental_uris": {"android": "https://dc.lft.to/lastmile_qr_scan", "ios": "https://dc.lft.to/lastmile_qr_scan"}, "is_disabled": 0, "fusion_lat": 0.0, "name": "f6f99a4265433f61ff037df21f10de0f", "fusion_lon": 0.0}, {"is_reserved": 0, "type": "electric_scooter", "bike_id": "c17ba6bd736570f05969f7cae84a1c95", "lat": 38.905107, "lon": -77.05161383333333, "rental_uris": {"android": "https://dc.lft.to/lastmile_qr_scan", "ios": "https://dc.lft.to/lastmile_qr_scan"}, "is_disabled": 0, "fusion_lat": 0.0, "name": "c17ba6bd736570f05969f7cae84a1c95", "fusion_lon": 0.0}, {"is_reserved": 0, "type": "electric_scooter", "bike_id": "c855e77cad8dca20c2bf322e585f375d", "lat": 38.91850783333334, "lon": -77.0452175, "rental_uris": {"android": "https://dc.lft.to/lastmile_qr_scan", "ios": "https://dc.lft.to/lastmile_qr_scan"}, "is_disabled": 0, "fusion_lat": 0.0, "name": "c855e77cad8dca20c2bf322e585f375d", "fusion_lon": 0.0}, {"is_reserved": 0, "type": "electric_scooter", "bike_id": "3bf2bbca4506459191c0c1969942b727", "lat": 38.892284833333335, "lon": -77.04899466666667, "rental_uris": {"android": "https://dc.lft.to/lastmile_qr_scan", "ios": "https://dc.lft.to/lastmile_qr_scan"}, "is_disabled": 0, "fusion_lat": 0.0, "name": "3bf2bbca4506459191c0c1969942b727", "fusion_lon": 0.0}, {"is_reserved": 0, "type": "electric_scooter", "bike_id": "4e310d5f3c8b31d540e9e64f3ee16844", "lat": 38.90550966666667, "lon": -77.041824, "rental_uris": {"android": "https://dc.lft.to/lastmile_qr_scan", "ios": "https://dc.lft.to/lastmile_qr_scan"}, "is_disabled": 0, "fusion_lat": 0.0, "name": "4e310d5f3c8b31d540e9e64f3ee16844", "fusion_lon": 0.0}, {"is_reserved": 0, "type": "electric_scooter", "bike_id": "178f41d38e06c83b359a2cb5a04c359e", "lat": 38.921925, "lon": -76.99622433333333, "rental_uris": {"android": "https://dc.lft.to/lastmile_qr_scan", "ios": "https://dc.lft.to/lastmile_qr_scan"}, "is_disabled": 0, "fusion_lat": 0.0, "name": "178f41d38e06c83b359a2cb5a04c359e", "fusion_lon": 0.0}, {"is_reserved": 0, "type": "electric_scooter", "bike_id": "d8f05f3f4c415ee66da83bfe858bed53", "lat": 38.919998, "lon": -77.03218533333333, "rental_uris": {"android": "https://dc.lft.to/lastmile_qr_scan", "ios": "https://dc.lft.to/lastmile_qr_scan"}, "is_disabled": 0, "fusion_lat": 0.0, "name": "d8f05f3f4c415ee66da83bfe858bed53", "fusion_lon": 0.0}, {"is_reserved": 0, "type": "electric_scooter", "bike_id": "4f2174c504caaac93fedad5e4c71b8cd", "lat": 38.90034816666667, "lon": -76.9885535, "rental_uris": {"android": "https://dc.lft.to/lastmile_qr_scan", "ios": "https://dc.lft.to/lastmile_qr_scan"}, "is_disabled": 0, "fusion_lat": 0.0, "name": "4f2174c504caaac93fedad5e4c71b8cd", "fusion_lon": 0.0}, {"is_reserved": 0, "type": "electric_scooter", "bike_id": "0a54bc33aeba24a46ffe6bd03a7d293c", "lat": 38.89974616666667, "lon": -77.0262295, "rental_uris": {"android": "https://dc.lft.to/lastmile_qr_scan", "ios": "https://dc.lft.to/lastmile_qr_scan"}, "is_disabled": 0, "fusion_lat": 0.0, "name": "0a54bc33aeba24a46ffe6bd03a7d293c", "fusion_lon": 0.0}, {"is_reserved": 0, "type": "electric_bike", "bike_id": "d81b6825351b6ebc07748d3e6e564245", "lat": 38.849430166666664, "lon": -77.11749816666666, "rental_uris": {"android": "https://dc.lft.to/lastmile_qr_scan", "ios": "https://dc.lft.to/lastmile_qr_scan"}, "is_disabled": 0, "fusion_lat": 0.0, "name": "d81b6825351b6ebc07748d3e6e564245", "fusion_lon": 0.0}, {"is_reserved": 0, "type": "electric_scooter", "bike_id": "f8c92411298cd133a59bc66b97717adc", "lat": 38.91694866666667, "lon": -77.02576416666666, "rental_uris": {"android": "https://dc.lft.to/lastmile_qr_scan", "ios": "https://dc.lft.to/lastmile_qr_scan"}, "is_disabled": 0, "fusion_lat": 0.0, "name": "f8c92411298cd133a59bc66b97717adc", "fusion_lon": 0.0}, {"is_reserved": 0, "type": "electric_scooter", "bike_id": "639ec89218886e7e915c95ae520d43b4", "lat": 38.929028333333335, "lon": -77.03263566666666, "rental_uris": {"android": "https://dc.lft.to/lastmile_qr_scan", "ios": "https://dc.lft.to/lastmile_qr_scan"}, "is_disabled": 0, "fusion_lat": 0.0, "name": "639ec89218886e7e915c95ae520d43b4", "fusion_lon": 0.0}, {"is_reserved": 0, "type": "electric_scooter", "bike_id": "e94b824628e048d405c0aa84d3dbfec5", "lat": 38.9203455, "lon": -77.01738033333334, "rental_uris": {"android": "https://dc.lft.to/lastmile_qr_scan", "ios": "https://dc.lft.to/lastmile_qr_scan"}, "is_disabled": 0, "fusion_lat": 0.0, "name": "e94b824628e048d405c0aa84d3dbfec5", "fusion_lon": 0.0}, {"is_reserved": 0, "type": "electric_scooter", "bike_id": "a7838bc05222a0b16d1f108e797cc108", "lat": 38.9056655, "lon": -76.981387, "rental_uris": {"android": "https://dc.lft.to/lastmile_qr_scan", "ios": "https://dc.lft.to/lastmile_qr_scan"}, "is_disabled": 0, "fusion_lat": 0.0, "name": "a7838bc05222a0b16d1f108e797cc108", "fusion_lon": 0.0}, {"is_reserved": 0, "type": "electric_scooter", "bike_id": "360ae0e3ce6cfebee85155b93a37e9ed", "lat": 38.89232466666667, "lon": -77.03183133333333, "rental_uris": {"android": "https://dc.lft.to/lastmile_qr_scan", "ios": "https://dc.lft.to/lastmile_qr_scan"}, "is_disabled": 0, "fusion_lat": 0.0, "name": "360ae0e3ce6cfebee85155b93a37e9ed", "fusion_lon": 0.0}, {"is_reserved": 0, "type": "electric_scooter", "bike_id": "db5b61c2f475402fcbde629098e1400a", "lat": 38.911138, "lon": -77.02079416666666, "rental_uris": {"android": "https://dc.lft.to/lastmile_qr_scan", "ios": "https://dc.lft.to/lastmile_qr_scan"}, "is_disabled": 0, "fusion_lat": 0.0, "name": "db5b61c2f475402fcbde629098e1400a", "fusion_lon": 0.0}, {"is_reserved": 0, "type": "electric_scooter", "bike_id": "88a2f8fdb12b3abe675ca7c6561ce592", "lat": 38.91939516666667, "lon": -77.0187965, "rental_uris": {"android": "https://dc.lft.to/lastmile_qr_scan", "ios": "https://dc.lft.to/lastmile_qr_scan"}, "is_disabled": 0, "fusion_lat": 0.0, "name": "88a2f8fdb12b3abe675ca7c6561ce592", "fusion_lon": 0.0}, {"is_reserved": 0, "type": "electric_scooter", "bike_id": "a96d91bd509c6e28a49171201c4a9666", "lat": 38.90860716666667, "lon": -77.00363383333334, "rental_uris": {"android": "https://dc.lft.to/lastmile_qr_scan", "ios": "https://dc.lft.to/lastmile_qr_scan"}, "is_disabled": 0, "fusion_lat": 0.0, "name": "a96d91bd509c6e28a49171201c4a9666", "fusion_lon": 0.0}, {"is_reserved": 0, "type": "electric_scooter", "bike_id": "595f590b1db6192d7f05b8b5be4ba7f0", "lat": 38.86598933333333, "lon": -76.97454566666667, "rental_uris": {"android": "https://dc.lft.to/lastmile_qr_scan", "ios": "https://dc.lft.to/lastmile_qr_scan"}, "is_disabled": 0, "fusion_lat": 0.0, "name": "595f590b1db6192d7f05b8b5be4ba7f0", "fusion_lon": 0.0}, {"is_reserved": 0, "type": "electric_scooter", "bike_id": "b1d5e89e8417d2a785b874178a8d9e30", "lat": 38.8979245, "lon": -77.02681466666667, "rental_uris": {"android": "https://dc.lft.to/lastmile_qr_scan", "ios": "https://dc.lft.to/lastmile_qr_scan"}, "is_disabled": 0, "fusion_lat": 0.0, "name": "b1d5e89e8417d2a785b874178a8d9e30", "fusion_lon": 0.0}, {"is_reserved": 0, "type": "electric_scooter", "bike_id": "06230c410f79c8126d5119b7eeb18b49", "lat": 38.919628, "lon": -77.0436135, "rental_uris": {"android": "https://dc.lft.to/lastmile_qr_scan", "ios": "https://dc.lft.to/lastmile_qr_scan"}, "is_disabled": 0, "fusion_lat": 0.0, "name": "06230c410f79c8126d5119b7eeb18b49", "fusion_lon": 0.0}, {"is_reserved": 0, "type": "electric_scooter", "bike_id": "42e26659c8217434d63187aeda092378", "lat": 38.90640483333333, "lon": -77.0179315, "rental_uris": {"android": "https://dc.lft.to/lastmile_qr_scan", "ios": "https://dc.lft.to/lastmile_qr_scan"}, "is_disabled": 0, "fusion_lat": 0.0, "name": "42e26659c8217434d63187aeda092378", "fusion_lon": 0.0}, {"is_reserved": 0, "type": "electric_scooter", "bike_id": "5216c256b6b1a23565bd21d843a996d8", "lat": 38.890107, "lon": -77.03320683333334, "rental_uris": {"android": "https://dc.lft.to/lastmile_qr_scan", "ios": "https://dc.lft.to/lastmile_qr_scan"}, "is_disabled": 0, "fusion_lat": 0.0, "name": "5216c256b6b1a23565bd21d843a996d8", "fusion_lon": 0.0}, {"is_reserved": 0, "type": "electric_scooter", "bike_id": "c06cf02d7b1292ca1cf1cf88310eb5f9", "lat": 38.887664666666666, "lon": -76.98318183333333, "rental_uris": {"android": "https://dc.lft.to/lastmile_qr_scan", "ios": "https://dc.lft.to/lastmile_qr_scan"}, "is_disabled": 0, "fusion_lat": 0.0, "name": "c06cf02d7b1292ca1cf1cf88310eb5f9", "fusion_lon": 0.0}, {"is_reserved": 0, "type": "electric_scooter", "bike_id": "65e54888e4d683afc93cb95ca5554345", "lat": 38.898112833333336, "lon": -76.99687433333334, "rental_uris": {"android": "https://dc.lft.to/lastmile_qr_scan", "ios": "https://dc.lft.to/lastmile_qr_scan"}, "is_disabled": 0, "fusion_lat": 0.0, "name": "65e54888e4d683afc93cb95ca5554345", "fusion_lon": 0.0}, {"is_reserved": 0, "type": "electric_bike", "bike_id": "a17305e1400001795c68307e5fed431d", "lat": 38.89594816666666, "lon": -76.90690433333333, "rental_uris": {"android": "https://dc.lft.to/lastmile_qr_scan", "ios": "https://dc.lft.to/lastmile_qr_scan"}, "is_disabled": 0, "fusion_lat": 0.0, "name": "a17305e1400001795c68307e5fed431d", "fusion_lon": 0.0}, {"is_reserved": 0, "type": "electric_scooter", "bike_id": "c052865ae661e20228a5c0f7101f889d", "lat": 38.867187666666666, "lon": -76.98071983333334, "rental_uris": {"android": "https://dc.lft.to/lastmile_qr_scan", "ios": "https://dc.lft.to/lastmile_qr_scan"}, "is_disabled": 0, "fusion_lat": 0.0, "name": "c052865ae661e20228a5c0f7101f889d", "fusion_lon": 0.0}, {"is_reserved": 0, "type": "electric_scooter", "bike_id": "a8569a15c01ddd06aba7ad0f74748d3b", "lat": 38.90687616666666, "lon": -77.062583, "rental_uris": {"android": "https://dc.lft.to/lastmile_qr_scan", "ios": "https://dc.lft.to/lastmile_qr_scan"}, "is_disabled": 0, "fusion_lat": 0.0, "name": "a8569a15c01ddd06aba7ad0f74748d3b", "fusion_lon": 0.0}, {"is_reserved": 0, "type": "electric_scooter", "bike_id": "922c1463d2b4cae85246f0f58ea79e89", "lat": 38.91709266666667, "lon": -77.0314425, "rental_uris": {"android": "https://dc.lft.to/lastmile_qr_scan", "ios": "https://dc.lft.to/lastmile_qr_scan"}, "is_disabled": 0, "fusion_lat": 0.0, "name": "922c1463d2b4cae85246f0f58ea79e89", "fusion_lon": 0.0}, {"is_reserved": 0, "type": "electric_scooter", "bike_id": "a7dc229e06ba9f11efda9451c9401430", "lat": 38.91729483333334, "lon": -77.02386533333333, "rental_uris": {"android": "https://dc.lft.to/lastmile_qr_scan", "ios": "https://dc.lft.to/lastmile_qr_scan"}, "is_disabled": 0, "fusion_lat": 0.0, "name": "a7dc229e06ba9f11efda9451c9401430", "fusion_lon": 0.0}, {"is_reserved": 0, "type": "electric_scooter", "bike_id": "2ea77cb833434a2b5616b93db8b8329f", "lat": 38.918052833333334, "lon": -77.03441433333333, "rental_uris": {"android": "https://dc.lft.to/lastmile_qr_scan", "ios": "https://dc.lft.to/lastmile_qr_scan"}, "is_disabled": 0, "fusion_lat": 0.0, "name": "2ea77cb833434a2b5616b93db8b8329f", "fusion_lon": 0.0}, {"is_reserved": 0, "type": "electric_scooter", "bike_id": "beefccaf7ba66bb451e83279be6aebe4", "lat": 38.879200833333336, "lon": -77.00243316666666, "rental_uris": {"android": "https://dc.lft.to/lastmile_qr_scan", "ios": "https://dc.lft.to/lastmile_qr_scan"}, "is_disabled": 0, "fusion_lat": 0.0, "name": "beefccaf7ba66bb451e83279be6aebe4", "fusion_lon": 0.0}, {"is_reserved": 0, "type": "electric_scooter", "bike_id": "ee9ab73d0028d93a6a702c2e722c8ebb", "lat": 38.87652416666667, "lon": -77.00725516666667, "rental_uris": {"android": "https://dc.lft.to/lastmile_qr_scan", "ios": "https://dc.lft.to/lastmile_qr_scan"}, "is_disabled": 0, "fusion_lat": 0.0, "name": "ee9ab73d0028d93a6a702c2e722c8ebb", "fusion_lon": 0.0}, {"is_reserved": 0, "type": "electric_scooter", "bike_id": "9bcf29e10d82c7675daf91ef91c76afa", "lat": 38.907561333333334, "lon": -77.00355416666666, "rental_uris": {"android": "https://dc.lft.to/lastmile_qr_scan", "ios": "https://dc.lft.to/lastmile_qr_scan"}, "is_disabled": 0, "fusion_lat": 0.0, "name": "9bcf29e10d82c7675daf91ef91c76afa", "fusion_lon": 0.0}, {"is_reserved": 0, "type": "electric_scooter", "bike_id": "54bf15bf2d43eefd3ef4fd42ebcf7389", "lat": 38.91847933333333, "lon": -77.02272733333334, "rental_uris": {"android": "https://dc.lft.to/lastmile_qr_scan", "ios": "https://dc.lft.to/lastmile_qr_scan"}, "is_disabled": 0, "fusion_lat": 0.0, "name": "54bf15bf2d43eefd3ef4fd42ebcf7389", "fusion_lon": 0.0}, {"is_reserved": 0, "type": "electric_scooter", "bike_id": "f262bb573b7870f9604bdeb3f4a43d52", "lat": 38.89748, "lon": -77.02500866666666, "rental_uris": {"android": "https://dc.lft.to/lastmile_qr_scan", "ios": "https://dc.lft.to/lastmile_qr_scan"}, "is_disabled": 0, "fusion_lat": 0.0, "name": "f262bb573b7870f9604bdeb3f4a43d52", "fusion_lon": 0.0}, {"is_reserved": 0, "type": "electric_scooter", "bike_id": "d384f5fd6de5765d1846d551be3391d4", "lat": 38.90032516666667, "lon": -76.98858766666666, "rental_uris": {"android": "https://dc.lft.to/lastmile_qr_scan", "ios": "https://dc.lft.to/lastmile_qr_scan"}, "is_disabled": 0, "fusion_lat": 0.0, "name": "d384f5fd6de5765d1846d551be3391d4", "fusion_lon": 0.0}, {"is_reserved": 0, "type": "electric_bike", "bike_id": "f99138758fad9c05a8f7ed4ff841a0ea", "lat": 39.038162666666665, "lon": -77.04255983333333, "rental_uris": {"android": "https://dc.lft.to/lastmile_qr_scan", "ios": "https://dc.lft.to/lastmile_qr_scan"}, "is_disabled": 0, "fusion_lat": 0.0, "name": "f99138758fad9c05a8f7ed4ff841a0ea", "fusion_lon": 0.0}, {"is_reserved": 0, "type": "electric_scooter", "bike_id": "4ba59b5ce118dea3bae5d861443d3284", "lat": 38.919189333333335, "lon": -77.01340533333334, "rental_uris": {"android": "https://dc.lft.to/lastmile_qr_scan", "ios": "https://dc.lft.to/lastmile_qr_scan"}, "is_disabled": 0, "fusion_lat": 0.0, "name": "4ba59b5ce118dea3bae5d861443d3284", "fusion_lon": 0.0}, {"is_reserved": 0, "type": "electric_scooter", "bike_id": "06cbf2ecec45a18c2aabbcc1290441cf", "lat": 38.92335466666667, "lon": -77.053969, "rental_uris": {"android": "https://dc.lft.to/lastmile_qr_scan", "ios": "https://dc.lft.to/lastmile_qr_scan"}, "is_disabled": 0, "fusion_lat": 0.0, "name": "06cbf2ecec45a18c2aabbcc1290441cf", "fusion_lon": 0.0}, {"is_reserved": 0, "type": "electric_scooter", "bike_id": "f18dbf5f0267f46018070b86a0eeff8d", "lat": 38.923093333333334, "lon": -77.05426783333333, "rental_uris": {"android": "https://dc.lft.to/lastmile_qr_scan", "ios": "https://dc.lft.to/lastmile_qr_scan"}, "is_disabled": 0, "fusion_lat": 0.0, "name": "f18dbf5f0267f46018070b86a0eeff8d", "fusion_lon": 0.0}, {"is_reserved": 0, "type": "electric_scooter", "bike_id": "4e1d0b9f9c641a2b75a06729c915024d", "lat": 38.930005666666666, "lon": -77.038013, "rental_uris": {"android": "https://dc.lft.to/lastmile_qr_scan", "ios": "https://dc.lft.to/lastmile_qr_scan"}, "is_disabled": 0, "fusion_lat": 0.0, "name": "4e1d0b9f9c641a2b75a06729c915024d", "fusion_lon": 0.0}, {"is_reserved": 0, "type": "electric_scooter", "bike_id": "1201dfd6f0c6762d6d4a8f5d65ab0f4d", "lat": 38.92603, "lon": -77.03662283333334, "rental_uris": {"android": "https://dc.lft.to/lastmile_qr_scan", "ios": "https://dc.lft.to/lastmile_qr_scan"}, "is_disabled": 0, "fusion_lat": 0.0, "name": "1201dfd6f0c6762d6d4a8f5d65ab0f4d", "fusion_lon": 0.0}, {"is_reserved": 0, "type": "electric_scooter", "bike_id": "b4f1e3a8f850668898cf6421f7987e59", "lat": 38.892337833333336, "lon": -77.03184, "rental_uris": {"android": "https://dc.lft.to/lastmile_qr_scan", "ios": "https://dc.lft.to/lastmile_qr_scan"}, "is_disabled": 0, "fusion_lat": 0.0, "name": "b4f1e3a8f850668898cf6421f7987e59", "fusion_lon": 0.0}, {"is_reserved": 0, "type": "electric_scooter", "bike_id": "2be22c2341fbacb5b562441f9233a294", "lat": 38.90171633333333, "lon": -77.02485416666667, "rental_uris": {"android": "https://dc.lft.to/lastmile_qr_scan", "ios": "https://dc.lft.to/lastmile_qr_scan"}, "is_disabled": 0, "fusion_lat": 0.0, "name": "2be22c2341fbacb5b562441f9233a294", "fusion_lon": 0.0}, {"is_reserved": 0, "type": "electric_scooter", "bike_id": "9c78e1cf82f5317c6172f752f8cd2fc6", "lat": 38.900428166666664, "lon": -77.00194133333333, "rental_uris": {"android": "https://dc.lft.to/lastmile_qr_scan", "ios": "https://dc.lft.to/lastmile_qr_scan"}, "is_disabled": 0, "fusion_lat": 0.0, "name": "9c78e1cf82f5317c6172f752f8cd2fc6", "fusion_lon": 0.0}, {"is_reserved": 0, "type": "electric_scooter", "bike_id": "54f0c797b2a8d3d71a318b58a49ec921", "lat": 38.9181545, "lon": -77.04548133333333, "rental_uris": {"android": "https://dc.lft.to/lastmile_qr_scan", "ios": "https://dc.lft.to/lastmile_qr_scan"}, "is_disabled": 0, "fusion_lat": 0.0, "name": "54f0c797b2a8d3d71a318b58a49ec921", "fusion_lon": 0.0}, {"is_reserved": 0, "type": "electric_scooter", "bike_id": "61b1dde6cbe5ec857fc949eb4bba01d3", "lat": 38.899061833333334, "lon": -77.02700683333333, "rental_uris": {"android": "https://dc.lft.to/lastmile_qr_scan", "ios": "https://dc.lft.to/lastmile_qr_scan"}, "is_disabled": 0, "fusion_lat": 0.0, "name": "61b1dde6cbe5ec857fc949eb4bba01d3", "fusion_lon": 0.0}, {"is_reserved": 0, "type": "electric_scooter", "bike_id": "72ab6605df368499dd4e71d3181d44c6", "lat": 38.92097566666666, "lon": -77.0317845, "rental_uris": {"android": "https://dc.lft.to/lastmile_qr_scan", "ios": "https://dc.lft.to/lastmile_qr_scan"}, "is_disabled": 0, "fusion_lat": 0.0, "name": "72ab6605df368499dd4e71d3181d44c6", "fusion_lon": 0.0}, {"is_reserved": 0, "type": "electric_scooter", "bike_id": "4a35bb48ff185a9bd778e618fcc8db3f", "lat": 38.89224516666667, "lon": -77.04639866666666, "rental_uris": {"android": "https://dc.lft.to/lastmile_qr_scan", "ios": "https://dc.lft.to/lastmile_qr_scan"}, "is_disabled": 0, "fusion_lat": 0.0, "name": "4a35bb48ff185a9bd778e618fcc8db3f", "fusion_lon": 0.0}, {"is_reserved": 0, "type": "electric_scooter", "bike_id": "f530e991eaecd0261a6f46a60d12a037", "lat": 38.92025116666667, "lon": -77.01061433333334, "rental_uris": {"android": "https://dc.lft.to/lastmile_qr_scan", "ios": "https://dc.lft.to/lastmile_qr_scan"}, "is_disabled": 0, "fusion_lat": 0.0, "name": "f530e991eaecd0261a6f46a60d12a037", "fusion_lon": 0.0}, {"is_reserved": 0, "type": "electric_scooter", "bike_id": "29054500e22c450e4687570c83c79e48", "lat": 38.9107665, "lon": -77.0272655, "rental_uris": {"android": "https://dc.lft.to/lastmile_qr_scan", "ios": "https://dc.lft.to/lastmile_qr_scan"}, "is_disabled": 0, "fusion_lat": 0.0, "name": "29054500e22c450e4687570c83c79e48", "fusion_lon": 0.0}, {"is_reserved": 0, "type": "electric_scooter", "bike_id": "b0cf542450bb6e024de8c003d42a9f9f", "lat": 38.902444333333335, "lon": -77.0334375, "rental_uris": {"android": "https://dc.lft.to/lastmile_qr_scan", "ios": "https://dc.lft.to/lastmile_qr_scan"}, "is_disabled": 0, "fusion_lat": 0.0, "name": "b0cf542450bb6e024de8c003d42a9f9f", "fusion_lon": 0.0}, {"is_reserved": 0, "type": "electric_scooter", "bike_id": "90c9170570467b3b035e34bd28581f26", "lat": 38.932838833333335, "lon": -76.98530416666667, "rental_uris": {"android": "https://dc.lft.to/lastmile_qr_scan", "ios": "https://dc.lft.to/lastmile_qr_scan"}, "is_disabled": 0, "fusion_lat": 0.0, "name": "90c9170570467b3b035e34bd28581f26", "fusion_lon": 0.0}, {"is_reserved": 0, "type": "electric_scooter", "bike_id": "258a75e201ab15a0c08704f637dc7ce8", "lat": 38.89639283333333, "lon": -77.03217, "rental_uris": {"android": "https://dc.lft.to/lastmile_qr_scan", "ios": "https://dc.lft.to/lastmile_qr_scan"}, "is_disabled": 0, "fusion_lat": 0.0, "name": "258a75e201ab15a0c08704f637dc7ce8", "fusion_lon": 0.0}, {"is_reserved": 0, "type": "electric_bike", "bike_id": "c227d81026cd97df5578086d45bdb6ef", "lat": 38.86924116666667, "lon": -76.95962083333333, "rental_uris": {"android": "https://dc.lft.to/lastmile_qr_scan", "ios": "https://dc.lft.to/lastmile_qr_scan"}, "is_disabled": 0, "fusion_lat": 0.0, "name": "c227d81026cd97df5578086d45bdb6ef", "fusion_lon": 0.0}, {"is_reserved": 0, "type": "electric_scooter", "bike_id": "ccaa342e4e4cb13f6885282d49455b89", "lat": 38.937019, "lon": -77.05600216666667, "rental_uris": {"android": "https://dc.lft.to/lastmile_qr_scan", "ios": "https://dc.lft.to/lastmile_qr_scan"}, "is_disabled": 0, "fusion_lat": 0.0, "name": "ccaa342e4e4cb13f6885282d49455b89", "fusion_lon": 0.0}, {"is_reserved": 0, "type": "electric_scooter", "bike_id": "6faf399f8e0697945baa319cae8b8e32", "lat": 38.8966045, "lon": -77.0435215, "rental_uris": {"android": "https://dc.lft.to/lastmile_qr_scan", "ios": "https://dc.lft.to/lastmile_qr_scan"}, "is_disabled": 0, "fusion_lat": 0.0, "name": "6faf399f8e0697945baa319cae8b8e32", "fusion_lon": 0.0}, {"is_reserved": 0, "type": "electric_scooter", "bike_id": "397691c2c717f2b727babe7b92d9a0f5", "lat": 38.89524883333333, "lon": -76.99197183333334, "rental_uris": {"android": "https://dc.lft.to/lastmile_qr_scan", "ios": "https://dc.lft.to/lastmile_qr_scan"}, "is_disabled": 0, "fusion_lat": 0.0, "name": "397691c2c717f2b727babe7b92d9a0f5", "fusion_lon": 0.0}, {"is_reserved": 0, "type": "electric_scooter", "bike_id": "66e78376b50e63dd2b69bc004063ea18", "lat": 38.910763, "lon": -77.01626033333334, "rental_uris": {"android": "https://dc.lft.to/lastmile_qr_scan", "ios": "https://dc.lft.to/lastmile_qr_scan"}, "is_disabled": 0, "fusion_lat": 0.0, "name": "66e78376b50e63dd2b69bc004063ea18", "fusion_lon": 0.0}, {"is_reserved": 0, "type": "electric_scooter", "bike_id": "4b4a5915032e8d52fb7d80525d8f3d18", "lat": 38.907236166666664, "lon": -77.02437416666666, "rental_uris": {"android": "https://dc.lft.to/lastmile_qr_scan", "ios": "https://dc.lft.to/lastmile_qr_scan"}, "is_disabled": 0, "fusion_lat": 0.0, "name": "4b4a5915032e8d52fb7d80525d8f3d18", "fusion_lon": 0.0}, {"is_reserved": 0, "type": "electric_scooter", "bike_id": "d127d4a8a71ccffffabc551f4e32a8f6", "lat": 38.9161815, "lon": -77.04872383333333, "rental_uris": {"android": "https://dc.lft.to/lastmile_qr_scan", "ios": "https://dc.lft.to/lastmile_qr_scan"}, "is_disabled": 0, "fusion_lat": 0.0, "name": "d127d4a8a71ccffffabc551f4e32a8f6", "fusion_lon": 0.0}, {"is_reserved": 0, "type": "electric_scooter", "bike_id": "4f29143734b6fc412fc72e36ddc75a4d", "lat": 38.919913666666666, "lon": -77.03475, "rental_uris": {"android": "https://dc.lft.to/lastmile_qr_scan", "ios": "https://dc.lft.to/lastmile_qr_scan"}, "is_disabled": 0, "fusion_lat": 0.0, "name": "4f29143734b6fc412fc72e36ddc75a4d", "fusion_lon": 0.0}, {"is_reserved": 0, "type": "electric_scooter", "bike_id": "03eb73cedba9dd66a6b92d209eaf2bf8", "lat": 38.9261845, "lon": -77.0564645, "rental_uris": {"android": "https://dc.lft.to/lastmile_qr_scan", "ios": "https://dc.lft.to/lastmile_qr_scan"}, "is_disabled": 0, "fusion_lat": 0.0, "name": "03eb73cedba9dd66a6b92d209eaf2bf8", "fusion_lon": 0.0}, {"is_reserved": 0, "type": "electric_scooter", "bike_id": "acd6f8550e6eefffdff7f9c66db0744d", "lat": 38.936395166666664, "lon": -77.08320516666667, "rental_uris": {"android": "https://dc.lft.to/lastmile_qr_scan", "ios": "https://dc.lft.to/lastmile_qr_scan"}, "is_disabled": 0, "fusion_lat": 0.0, "name": "acd6f8550e6eefffdff7f9c66db0744d", "fusion_lon": 0.0}, {"is_reserved": 0, "type": "electric_scooter", "bike_id": "7ce3568764a0cfff353ae284af12ad46", "lat": 38.92247066666667, "lon": -77.04248583333333, "rental_uris": {"android": "https://dc.lft.to/lastmile_qr_scan", "ios": "https://dc.lft.to/lastmile_qr_scan"}, "is_disabled": 0, "fusion_lat": 0.0, "name": "7ce3568764a0cfff353ae284af12ad46", "fusion_lon": 0.0}, {"is_reserved": 0, "type": "electric_scooter", "bike_id": "1a6726b41afd111e9e639dc4faa0ba49", "lat": 38.90790366666667, "lon": -77.0479745, "rental_uris": {"android": "https://dc.lft.to/lastmile_qr_scan", "ios": "https://dc.lft.to/lastmile_qr_scan"}, "is_disabled": 0, "fusion_lat": 0.0, "name": "1a6726b41afd111e9e639dc4faa0ba49", "fusion_lon": 0.0}, {"is_reserved": 0, "type": "electric_scooter", "bike_id": "423c28b8885e183460daa88cc01ed979", "lat": 38.905494166666664, "lon": -77.05924583333334, "rental_uris": {"android": "https://dc.lft.to/lastmile_qr_scan", "ios": "https://dc.lft.to/lastmile_qr_scan"}, "is_disabled": 0, "fusion_lat": 0.0, "name": "423c28b8885e183460daa88cc01ed979", "fusion_lon": 0.0}, {"is_reserved": 0, "type": "electric_scooter", "bike_id": "e98afb900afeffc93fb743713e5d4ec6", "lat": 38.905395, "lon": -77.058123, "rental_uris": {"android": "https://dc.lft.to/lastmile_qr_scan", "ios": "https://dc.lft.to/lastmile_qr_scan"}, "is_disabled": 0, "fusion_lat": 0.0, "name": "e98afb900afeffc93fb743713e5d4ec6", "fusion_lon": 0.0}, {"is_reserved": 0, "type": "electric_scooter", "bike_id": "6ed1f08f3687db6d44199f9a5b2255df", "lat": 38.89281, "lon": -77.03207516666667, "rental_uris": {"android": "https://dc.lft.to/lastmile_qr_scan", "ios": "https://dc.lft.to/lastmile_qr_scan"}, "is_disabled": 0, "fusion_lat": 0.0, "name": "6ed1f08f3687db6d44199f9a5b2255df", "fusion_lon": 0.0}, {"is_reserved": 0, "type": "electric_scooter", "bike_id": "59fcb72083d1c1e79be5e7f4082dbbbb", "lat": 38.911203, "lon": -77.04386833333334, "rental_uris": {"android": "https://dc.lft.to/lastmile_qr_scan", "ios": "https://dc.lft.to/lastmile_qr_scan"}, "is_disabled": 0, "fusion_lat": 0.0, "name": "59fcb72083d1c1e79be5e7f4082dbbbb", "fusion_lon": 0.0}, {"is_reserved": 0, "type": "electric_scooter", "bike_id": "798209315224264e7d86ec68ebbd4e08", "lat": 38.924466333333335, "lon": -77.02024616666667, "rental_uris": {"android": "https://dc.lft.to/lastmile_qr_scan", "ios": "https://dc.lft.to/lastmile_qr_scan"}, "is_disabled": 0, "fusion_lat": 0.0, "name": "798209315224264e7d86ec68ebbd4e08", "fusion_lon": 0.0}, {"is_reserved": 0, "type": "electric_scooter", "bike_id": "8734518e10a5bf42c53cdeac8c2fa1fa", "lat": 38.924195166666664, "lon": -77.02007183333333, "rental_uris": {"android": "https://dc.lft.to/lastmile_qr_scan", "ios": "https://dc.lft.to/lastmile_qr_scan"}, "is_disabled": 0, "fusion_lat": 0.0, "name": "8734518e10a5bf42c53cdeac8c2fa1fa", "fusion_lon": 0.0}, {"is_reserved": 0, "type": "electric_scooter", "bike_id": "dbddc6446579a5d4392f5906a2c34fc0", "lat": 38.9311165, "lon": -77.02480466666667, "rental_uris": {"android": "https://dc.lft.to/lastmile_qr_scan", "ios": "https://dc.lft.to/lastmile_qr_scan"}, "is_disabled": 0, "fusion_lat": 0.0, "name": "dbddc6446579a5d4392f5906a2c34fc0", "fusion_lon": 0.0}, {"is_reserved": 0, "type": "electric_scooter", "bike_id": "98e39fb1717b41556e51fd48b76c5dab", "lat": 38.915774666666664, "lon": -77.02000933333333, "rental_uris": {"android": "https://dc.lft.to/lastmile_qr_scan", "ios": "https://dc.lft.to/lastmile_qr_scan"}, "is_disabled": 0, "fusion_lat": 0.0, "name": "98e39fb1717b41556e51fd48b76c5dab", "fusion_lon": 0.0}, {"is_reserved": 0, "type": "electric_scooter", "bike_id": "cddfe8d9cdcf4d152741532152996a4c", "lat": 38.926079666666666, "lon": -77.05179966666667, "rental_uris": {"android": "https://dc.lft.to/lastmile_qr_scan", "ios": "https://dc.lft.to/lastmile_qr_scan"}, "is_disabled": 0, "fusion_lat": 0.0, "name": "cddfe8d9cdcf4d152741532152996a4c", "fusion_lon": 0.0}, {"is_reserved": 0, "type": "electric_scooter", "bike_id": "42c37c0108c4839f69d41a9e88314bd1", "lat": 38.88510083333333, "lon": -77.01114833333334, "rental_uris": {"android": "https://dc.lft.to/lastmile_qr_scan", "ios": "https://dc.lft.to/lastmile_qr_scan"}, "is_disabled": 0, "fusion_lat": 0.0, "name": "42c37c0108c4839f69d41a9e88314bd1", "fusion_lon": 0.0}, {"is_reserved": 0, "type": "electric_scooter", "bike_id": "298d44dc14ddfde15beab97ee9dab06f", "lat": 38.908349333333334, "lon": -76.9871775, "rental_uris": {"android": "https://dc.lft.to/lastmile_qr_scan", "ios": "https://dc.lft.to/lastmile_qr_scan"}, "is_disabled": 0, "fusion_lat": 0.0, "name": "298d44dc14ddfde15beab97ee9dab06f", "fusion_lon": 0.0}, {"is_reserved": 0, "type": "electric_scooter", "bike_id": "9f750f9d8cb1389b1bf57d8c83f70e71", "lat": 38.918151333333334, "lon": -77.0317275, "rental_uris": {"android": "https://dc.lft.to/lastmile_qr_scan", "ios": "https://dc.lft.to/lastmile_qr_scan"}, "is_disabled": 0, "fusion_lat": 0.0, "name": "9f750f9d8cb1389b1bf57d8c83f70e71", "fusion_lon": 0.0}, {"is_reserved": 0, "type": "electric_scooter", "bike_id": "d1ea6d35e0e6fe8f891e4b81b00043c9", "lat": 38.886324333333334, "lon": -77.01534583333333, "rental_uris": {"android": "https://dc.lft.to/lastmile_qr_scan", "ios": "https://dc.lft.to/lastmile_qr_scan"}, "is_disabled": 0, "fusion_lat": 0.0, "name": "d1ea6d35e0e6fe8f891e4b81b00043c9", "fusion_lon": 0.0}, {"is_reserved": 0, "type": "electric_scooter", "bike_id": "b218cbd84f87ce280f52bbd520d45959", "lat": 38.905816, "lon": -77.006146, "rental_uris": {"android": "https://dc.lft.to/lastmile_qr_scan", "ios": "https://dc.lft.to/lastmile_qr_scan"}, "is_disabled": 0, "fusion_lat": 0.0, "name": "b218cbd84f87ce280f52bbd520d45959", "fusion_lon": 0.0}, {"is_reserved": 0, "type": "electric_scooter", "bike_id": "2aafd837d74e3132972412a67829fda2", "lat": 38.886057, "lon": -77.00401416666666, "rental_uris": {"android": "https://dc.lft.to/lastmile_qr_scan", "ios": "https://dc.lft.to/lastmile_qr_scan"}, "is_disabled": 0, "fusion_lat": 0.0, "name": "2aafd837d74e3132972412a67829fda2", "fusion_lon": 0.0}, {"is_reserved": 0, "type": "electric_bike", "bike_id": "cffcd54fd7d93262803c0d23e28f4d12", "lat": 38.99105816666667, "lon": -76.8815615, "rental_uris": {"android": "https://dc.lft.to/lastmile_qr_scan", "ios": "https://dc.lft.to/lastmile_qr_scan"}, "is_disabled": 0, "fusion_lat": 0.0, "name": "cffcd54fd7d93262803c0d23e28f4d12", "fusion_lon": 0.0}, {"is_reserved": 0, "type": "electric_scooter", "bike_id": "f16d2772b32d2521d84910ddb9d783ee", "lat": 38.924129, "lon": -77.03539033333334, "rental_uris": {"android": "https://dc.lft.to/lastmile_qr_scan", "ios": "https://dc.lft.to/lastmile_qr_scan"}, "is_disabled": 0, "fusion_lat": 0.0, "name": "f16d2772b32d2521d84910ddb9d783ee", "fusion_lon": 0.0}, {"is_reserved": 0, "type": "electric_bike", "bike_id": "a8663ef26b40c6b7f8acc98a99c72913", "lat": 38.84334333333334, "lon": -76.9974185, "rental_uris": {"android": "https://dc.lft.to/lastmile_qr_scan", "ios": "https://dc.lft.to/lastmile_qr_scan"}, "is_disabled": 0, "fusion_lat": 0.0, "name": "a8663ef26b40c6b7f8acc98a99c72913", "fusion_lon": 0.0}, {"is_reserved": 0, "type": "electric_scooter", "bike_id": "1dbc75828c89dd1e1eea1ad5db65b795", "lat": 38.942015833333336, "lon": -77.02519633333333, "rental_uris": {"android": "https://dc.lft.to/lastmile_qr_scan", "ios": "https://dc.lft.to/lastmile_qr_scan"}, "is_disabled": 0, "fusion_lat": 0.0, "name": "1dbc75828c89dd1e1eea1ad5db65b795", "fusion_lon": 0.0}, {"is_reserved": 0, "type": "electric_scooter", "bike_id": "2782e131cf3c98d0ec7635dce2c1bc89", "lat": 38.92005666666667, "lon": -76.98505983333334, "rental_uris": {"android": "https://dc.lft.to/lastmile_qr_scan", "ios": "https://dc.lft.to/lastmile_qr_scan"}, "is_disabled": 0, "fusion_lat": 0.0, "name": "2782e131cf3c98d0ec7635dce2c1bc89", "fusion_lon": 0.0}, {"is_reserved": 0, "type": "electric_scooter", "bike_id": "0b4afa0d6c0ef9903b4a50cbc44ddf66", "lat": 38.90529516666667, "lon": -77.0584075, "rental_uris": {"android": "https://dc.lft.to/lastmile_qr_scan", "ios": "https://dc.lft.to/lastmile_qr_scan"}, "is_disabled": 0, "fusion_lat": 0.0, "name": "0b4afa0d6c0ef9903b4a50cbc44ddf66", "fusion_lon": 0.0}, {"is_reserved": 0, "type": "electric_scooter", "bike_id": "1920e00ac4466a7c84152dd90ab0e2de", "lat": 38.90032133333333, "lon": -77.01185283333334, "rental_uris": {"android": "https://dc.lft.to/lastmile_qr_scan", "ios": "https://dc.lft.to/lastmile_qr_scan"}, "is_disabled": 0, "fusion_lat": 0.0, "name": "1920e00ac4466a7c84152dd90ab0e2de", "fusion_lon": 0.0}, {"is_reserved": 0, "type": "electric_scooter", "bike_id": "439dfa179648f04b4049f5b3bf21201d", "lat": 38.89326466666667, "lon": -77.02226733333333, "rental_uris": {"android": "https://dc.lft.to/lastmile_qr_scan", "ios": "https://dc.lft.to/lastmile_qr_scan"}, "is_disabled": 0, "fusion_lat": 0.0, "name": "439dfa179648f04b4049f5b3bf21201d", "fusion_lon": 0.0}, {"is_reserved": 0, "type": "electric_bike", "bike_id": "8c0bc70dd9f99642b016d88ddfbb8254", "lat": 38.9096225, "lon": -77.032719, "rental_uris": {"android": "https://dc.lft.to/lastmile_qr_scan", "ios": "https://dc.lft.to/lastmile_qr_scan"}, "is_disabled": 0, "fusion_lat": 0.0, "name": "8c0bc70dd9f99642b016d88ddfbb8254", "fusion_lon": 0.0}, {"is_reserved": 0, "type": "electric_bike", "bike_id": "4a39925512e28a0d9947e726e293d740", "lat": 38.83237616666667, "lon": -76.946236, "rental_uris": {"android": "https://dc.lft.to/lastmile_qr_scan", "ios": "https://dc.lft.to/lastmile_qr_scan"}, "is_disabled": 0, "fusion_lat": 0.0, "name": "4a39925512e28a0d9947e726e293d740", "fusion_lon": 0.0}, {"is_reserved": 0, "type": "electric_scooter", "bike_id": "52935e2030745c5b830c2aad095efb95", "lat": 38.905265, "lon": -77.06380033333333, "rental_uris": {"android": "https://dc.lft.to/lastmile_qr_scan", "ios": "https://dc.lft.to/lastmile_qr_scan"}, "is_disabled": 0, "fusion_lat": 0.0, "name": "52935e2030745c5b830c2aad095efb95", "fusion_lon": 0.0}, {"is_reserved": 0, "type": "electric_scooter", "bike_id": "5deee1063e832147db2438fadce58fff", "lat": 38.90736166666667, "lon": -77.0041275, "rental_uris": {"android": "https://dc.lft.to/lastmile_qr_scan", "ios": "https://dc.lft.to/lastmile_qr_scan"}, "is_disabled": 0, "fusion_lat": 0.0, "name": "5deee1063e832147db2438fadce58fff", "fusion_lon": 0.0}, {"is_reserved": 0, "type": "electric_scooter", "bike_id": "44ab3e1d7c82ad1be5d258f061119849", "lat": 38.920859166666666, "lon": -77.022969, "rental_uris": {"android": "https://dc.lft.to/lastmile_qr_scan", "ios": "https://dc.lft.to/lastmile_qr_scan"}, "is_disabled": 0, "fusion_lat": 0.0, "name": "44ab3e1d7c82ad1be5d258f061119849", "fusion_lon": 0.0}, {"is_reserved": 0, "type": "electric_scooter", "bike_id": "4b7a9ee1a644ec7b21ddfd6b3f716cd0", "lat": 38.910547666666666, "lon": -77.03443566666667, "rental_uris": {"android": "https://dc.lft.to/lastmile_qr_scan", "ios": "https://dc.lft.to/lastmile_qr_scan"}, "is_disabled": 0, "fusion_lat": 0.0, "name": "4b7a9ee1a644ec7b21ddfd6b3f716cd0", "fusion_lon": 0.0}, {"is_reserved": 0, "type": "electric_bike", "bike_id": "654d7c73b6bf872794a0301a17ae5967", "lat": 38.823405, "lon": -77.05821966666667, "rental_uris": {"android": "https://dc.lft.to/lastmile_qr_scan", "ios": "https://dc.lft.to/lastmile_qr_scan"}, "is_disabled": 0, "fusion_lat": 0.0, "name": "654d7c73b6bf872794a0301a17ae5967", "fusion_lon": 0.0}, {"is_reserved": 0, "type": "electric_bike", "bike_id": "ad0759692c16feca09fea020009aba3f", "lat": 38.892444833333336, "lon": -77.00264133333333, "rental_uris": {"android": "https://dc.lft.to/lastmile_qr_scan", "ios": "https://dc.lft.to/lastmile_qr_scan"}, "is_disabled": 0, "fusion_lat": 0.0, "name": "ad0759692c16feca09fea020009aba3f", "fusion_lon": 0.0}, {"is_reserved": 0, "type": "electric_bike", "bike_id": "cfb22602bf60f3689045fcd5d1a7b453", "lat": 38.8839285, "lon": -76.95447516666667, "rental_uris": {"android": "https://dc.lft.to/lastmile_qr_scan", "ios": "https://dc.lft.to/lastmile_qr_scan"}, "is_disabled": 0, "fusion_lat": 0.0, "name": "cfb22602bf60f3689045fcd5d1a7b453", "fusion_lon": 0.0}, {"is_reserved": 0, "type": "electric_scooter", "bike_id": "b541276225e6df4d4787e39732d57db6", "lat": 38.91129, "lon": -76.99721333333333, "rental_uris": {"android": "https://dc.lft.to/lastmile_qr_scan", "ios": "https://dc.lft.to/lastmile_qr_scan"}, "is_disabled": 0, "fusion_lat": 0.0, "name": "b541276225e6df4d4787e39732d57db6", "fusion_lon": 0.0}, {"is_reserved": 0, "type": "electric_scooter", "bike_id": "ce857d0a70a386d705ec5b5ec5c659ad", "lat": 38.92605783333333, "lon": -77.07332133333334, "rental_uris": {"android": "https://dc.lft.to/lastmile_qr_scan", "ios": "https://dc.lft.to/lastmile_qr_scan"}, "is_disabled": 0, "fusion_lat": 0.0, "name": "ce857d0a70a386d705ec5b5ec5c659ad", "fusion_lon": 0.0}, {"is_reserved": 0, "type": "electric_bike", "bike_id": "09bc3da9cbac4360da4c307c7d52d750", "lat": 38.958521, "lon": -76.98602, "rental_uris": {"android": "https://dc.lft.to/lastmile_qr_scan", "ios": "https://dc.lft.to/lastmile_qr_scan"}, "is_disabled": 0, "fusion_lat": 0.0, "name": "09bc3da9cbac4360da4c307c7d52d750", "fusion_lon": 0.0}, {"is_reserved": 0, "type": "electric_scooter", "bike_id": "a24ad1240e86c6b7e839bd6a77193ece", "lat": 38.9245035, "lon": -77.02035733333334, "rental_uris": {"android": "https://dc.lft.to/lastmile_qr_scan", "ios": "https://dc.lft.to/lastmile_qr_scan"}, "is_disabled": 0, "fusion_lat": 0.0, "name": "a24ad1240e86c6b7e839bd6a77193ece", "fusion_lon": 0.0}, {"is_reserved": 0, "type": "electric_scooter", "bike_id": "c1d1a0cdbcf690b14966ff4591fb4196", "lat": 38.918297833333334, "lon": -77.04526316666667, "rental_uris": {"android": "https://dc.lft.to/lastmile_qr_scan", "ios": "https://dc.lft.to/lastmile_qr_scan"}, "is_disabled": 0, "fusion_lat": 0.0, "name": "c1d1a0cdbcf690b14966ff4591fb4196", "fusion_lon": 0.0}, {"is_reserved": 0, "type": "electric_scooter", "bike_id": "805251b76bc22754eaff556617acdaa1", "lat": 38.9202735, "lon": -77.0185095, "rental_uris": {"android": "https://dc.lft.to/lastmile_qr_scan", "ios": "https://dc.lft.to/lastmile_qr_scan"}, "is_disabled": 0, "fusion_lat": 0.0, "name": "805251b76bc22754eaff556617acdaa1", "fusion_lon": 0.0}, {"is_reserved": 0, "type": "electric_scooter", "bike_id": "52055b012214782158f6e1b13e82ad6e", "lat": 38.907253, "lon": -77.0224235, "rental_uris": {"android": "https://dc.lft.to/lastmile_qr_scan", "ios": "https://dc.lft.to/lastmile_qr_scan"}, "is_disabled": 0, "fusion_lat": 0.0, "name": "52055b012214782158f6e1b13e82ad6e", "fusion_lon": 0.0}, {"is_reserved": 0, "type": "electric_scooter", "bike_id": "91c9e013d22b0ccd6d6fb1b5e3e3c3ff", "lat": 38.89813316666667, "lon": -76.995038, "rental_uris": {"android": "https://dc.lft.to/lastmile_qr_scan", "ios": "https://dc.lft.to/lastmile_qr_scan"}, "is_disabled": 0, "fusion_lat": 0.0, "name": "91c9e013d22b0ccd6d6fb1b5e3e3c3ff", "fusion_lon": 0.0}, {"is_reserved": 0, "type": "electric_bike", "bike_id": "d7798da04c2853d0baf7ec861a3ed8ca", "lat": 38.9211575, "lon": -76.9887825, "rental_uris": {"android": "https://dc.lft.to/lastmile_qr_scan", "ios": "https://dc.lft.to/lastmile_qr_scan"}, "is_disabled": 0, "fusion_lat": 0.0, "name": "d7798da04c2853d0baf7ec861a3ed8ca", "fusion_lon": 0.0}, {"is_reserved": 0, "type": "electric_scooter", "bike_id": "4fb2c7400195b622de5dad2fb1f265d9", "lat": 38.90742383333333, "lon": -77.00748216666666, "rental_uris": {"android": "https://dc.lft.to/lastmile_qr_scan", "ios": "https://dc.lft.to/lastmile_qr_scan"}, "is_disabled": 0, "fusion_lat": 0.0, "name": "4fb2c7400195b622de5dad2fb1f265d9", "fusion_lon": 0.0}, {"is_reserved": 0, "type": "electric_scooter", "bike_id": "d74c8407bb77581ee05afb7e08bd82ea", "lat": 38.941856, "lon": -77.02564166666667, "rental_uris": {"android": "https://dc.lft.to/lastmile_qr_scan", "ios": "https://dc.lft.to/lastmile_qr_scan"}, "is_disabled": 0, "fusion_lat": 0.0, "name": "d74c8407bb77581ee05afb7e08bd82ea", "fusion_lon": 0.0}, {"is_reserved": 0, "type": "electric_scooter", "bike_id": "35d7ffd8da9e8d531a4e38afd9df7ef8", "lat": 38.90078783333333, "lon": -77.0496695, "rental_uris": {"android": "https://dc.lft.to/lastmile_qr_scan", "ios": "https://dc.lft.to/lastmile_qr_scan"}, "is_disabled": 0, "fusion_lat": 0.0, "name": "35d7ffd8da9e8d531a4e38afd9df7ef8", "fusion_lon": 0.0}, {"is_reserved": 0, "type": "electric_scooter", "bike_id": "422bbc5e24b091a0498c7369b1d5a4c8", "lat": 38.892457666666665, "lon": -77.03342816666667, "rental_uris": {"android": "https://dc.lft.to/lastmile_qr_scan", "ios": "https://dc.lft.to/lastmile_qr_scan"}, "is_disabled": 0, "fusion_lat": 0.0, "name": "422bbc5e24b091a0498c7369b1d5a4c8", "fusion_lon": 0.0}, {"is_reserved": 0, "type": "electric_bike", "bike_id": "e02f7edadc913eb2d8eebbd1b1bba03e", "lat": 38.883444, "lon": -76.93628033333333, "rental_uris": {"android": "https://dc.lft.to/lastmile_qr_scan", "ios": "https://dc.lft.to/lastmile_qr_scan"}, "is_disabled": 0, "fusion_lat": 0.0, "name": "e02f7edadc913eb2d8eebbd1b1bba03e", "fusion_lon": 0.0}, {"is_reserved": 0, "type": "electric_scooter", "bike_id": "55b060d42a426627bcbbfdf21b0c0c59", "lat": 38.93460483333333, "lon": -77.02956, "rental_uris": {"android": "https://dc.lft.to/lastmile_qr_scan", "ios": "https://dc.lft.to/lastmile_qr_scan"}, "is_disabled": 0, "fusion_lat": 0.0, "name": "55b060d42a426627bcbbfdf21b0c0c59", "fusion_lon": 0.0}, {"is_reserved": 0, "type": "electric_scooter", "bike_id": "257876da68728dd25b22943a7886b5ce", "lat": 38.92110233333333, "lon": -77.02216033333333, "rental_uris": {"android": "https://dc.lft.to/lastmile_qr_scan", "ios": "https://dc.lft.to/lastmile_qr_scan"}, "is_disabled": 0, "fusion_lat": 0.0, "name": "257876da68728dd25b22943a7886b5ce", "fusion_lon": 0.0}, {"is_reserved": 0, "type": "electric_scooter", "bike_id": "2090012e8c53aaf8a2e277d4b6681f4c", "lat": 38.89995366666667, "lon": -77.0270095, "rental_uris": {"android": "https://dc.lft.to/lastmile_qr_scan", "ios": "https://dc.lft.to/lastmile_qr_scan"}, "is_disabled": 0, "fusion_lat": 0.0, "name": "2090012e8c53aaf8a2e277d4b6681f4c", "fusion_lon": 0.0}, {"is_reserved": 0, "type": "electric_scooter", "bike_id": "bbdb01bb8c0feaa94f44b9072d5d10a2", "lat": 38.9306495, "lon": -77.038182, "rental_uris": {"android": "https://dc.lft.to/lastmile_qr_scan", "ios": "https://dc.lft.to/lastmile_qr_scan"}, "is_disabled": 0, "fusion_lat": 0.0, "name": "bbdb01bb8c0feaa94f44b9072d5d10a2", "fusion_lon": 0.0}, {"is_reserved": 0, "type": "electric_scooter", "bike_id": "9c2b4b09175b5450bc5dca5918a3a22c", "lat": 38.90728033333333, "lon": -77.0244455, "rental_uris": {"android": "https://dc.lft.to/lastmile_qr_scan", "ios": "https://dc.lft.to/lastmile_qr_scan"}, "is_disabled": 0, "fusion_lat": 0.0, "name": "9c2b4b09175b5450bc5dca5918a3a22c", "fusion_lon": 0.0}, {"is_reserved": 0, "type": "electric_scooter", "bike_id": "2fa82d5892b11196dfe29fc552c0f281", "lat": 38.923865666666664, "lon": -77.02955633333333, "rental_uris": {"android": "https://dc.lft.to/lastmile_qr_scan", "ios": "https://dc.lft.to/lastmile_qr_scan"}, "is_disabled": 0, "fusion_lat": 0.0, "name": "2fa82d5892b11196dfe29fc552c0f281", "fusion_lon": 0.0}, {"is_reserved": 0, "type": "electric_scooter", "bike_id": "f7077ad2387b0b67cd277d187fd9f5bf", "lat": 38.919197833333335, "lon": -77.03430033333333, "rental_uris": {"android": "https://dc.lft.to/lastmile_qr_scan", "ios": "https://dc.lft.to/lastmile_qr_scan"}, "is_disabled": 0, "fusion_lat": 0.0, "name": "f7077ad2387b0b67cd277d187fd9f5bf", "fusion_lon": 0.0}, {"is_reserved": 0, "type": "electric_scooter", "bike_id": "d070e3e6d003e181ca2616256298aa7d", "lat": 38.92242533333334, "lon": -77.035178, "rental_uris": {"android": "https://dc.lft.to/lastmile_qr_scan", "ios": "https://dc.lft.to/lastmile_qr_scan"}, "is_disabled": 0, "fusion_lat": 0.0, "name": "d070e3e6d003e181ca2616256298aa7d", "fusion_lon": 0.0}, {"is_reserved": 0, "type": "electric_scooter", "bike_id": "8a18e1ca2218fe0cc8255d37231fa86f", "lat": 38.937252666666666, "lon": -77.03630633333333, "rental_uris": {"android": "https://dc.lft.to/lastmile_qr_scan", "ios": "https://dc.lft.to/lastmile_qr_scan"}, "is_disabled": 0, "fusion_lat": 0.0, "name": "8a18e1ca2218fe0cc8255d37231fa86f", "fusion_lon": 0.0}, {"is_reserved": 0, "type": "electric_scooter", "bike_id": "04c64175fc4282b0c5cc04b2c9ce1625", "lat": 38.900762, "lon": -77.04932033333333, "rental_uris": {"android": "https://dc.lft.to/lastmile_qr_scan", "ios": "https://dc.lft.to/lastmile_qr_scan"}, "is_disabled": 0, "fusion_lat": 0.0, "name": "04c64175fc4282b0c5cc04b2c9ce1625", "fusion_lon": 0.0}, {"is_reserved": 0, "type": "electric_scooter", "bike_id": "8c85fec05b8084079d20e0de19c1feab", "lat": 38.901041666666664, "lon": -77.01623783333334, "rental_uris": {"android": "https://dc.lft.to/lastmile_qr_scan", "ios": "https://dc.lft.to/lastmile_qr_scan"}, "is_disabled": 0, "fusion_lat": 0.0, "name": "8c85fec05b8084079d20e0de19c1feab", "fusion_lon": 0.0}, {"is_reserved": 0, "type": "electric_scooter", "bike_id": "99b2bfc91728e8b078012511169503ef", "lat": 38.935252, "lon": -77.0195005, "rental_uris": {"android": "https://dc.lft.to/lastmile_qr_scan", "ios": "https://dc.lft.to/lastmile_qr_scan"}, "is_disabled": 0, "fusion_lat": 0.0, "name": "99b2bfc91728e8b078012511169503ef", "fusion_lon": 0.0}, {"is_reserved": 0, "type": "electric_scooter", "bike_id": "7161c404924afd177e73ba64781f0659", "lat": 38.90687166666667, "lon": -77.062568, "rental_uris": {"android": "https://dc.lft.to/lastmile_qr_scan", "ios": "https://dc.lft.to/lastmile_qr_scan"}, "is_disabled": 0, "fusion_lat": 0.0, "name": "7161c404924afd177e73ba64781f0659", "fusion_lon": 0.0}, {"is_reserved": 0, "type": "electric_scooter", "bike_id": "63da4826330f2e3ee55e7b5c325d48ec", "lat": 38.89380216666667, "lon": -77.028348, "rental_uris": {"android": "https://dc.lft.to/lastmile_qr_scan", "ios": "https://dc.lft.to/lastmile_qr_scan"}, "is_disabled": 0, "fusion_lat": 0.0, "name": "63da4826330f2e3ee55e7b5c325d48ec", "fusion_lon": 0.0}, {"is_reserved": 0, "type": "electric_scooter", "bike_id": "2dbf44c2d76ccfdaa2417c21af2a0918", "lat": 38.90594, "lon": -77.04163166666666, "rental_uris": {"android": "https://dc.lft.to/lastmile_qr_scan", "ios": "https://dc.lft.to/lastmile_qr_scan"}, "is_disabled": 0, "fusion_lat": 0.0, "name": "2dbf44c2d76ccfdaa2417c21af2a0918", "fusion_lon": 0.0}, {"is_reserved": 0, "type": "electric_bike", "bike_id": "9e23de1020867775fa7ab6ddbb31d3a8", "lat": 38.808666, "lon": -77.11256233333333, "rental_uris": {"android": "https://dc.lft.to/lastmile_qr_scan", "ios": "https://dc.lft.to/lastmile_qr_scan"}, "is_disabled": 0, "fusion_lat": 0.0, "name": "9e23de1020867775fa7ab6ddbb31d3a8", "fusion_lon": 0.0}, {"is_reserved": 0, "type": "electric_scooter", "bike_id": "59d89b37d256e2beb5b79e3b47bca989", "lat": 38.911243666666664, "lon": -77.03837733333333, "rental_uris": {"android": "https://dc.lft.to/lastmile_qr_scan", "ios": "https://dc.lft.to/lastmile_qr_scan"}, "is_disabled": 0, "fusion_lat": 0.0, "name": "59d89b37d256e2beb5b79e3b47bca989", "fusion_lon": 0.0}, {"is_reserved": 0, "type": "electric_bike", "bike_id": "3441bde1f7537d8a477a3258787085b8", "lat": 38.949680666666666, "lon": -76.96099066666666, "rental_uris": {"android": "https://dc.lft.to/lastmile_qr_scan", "ios": "https://dc.lft.to/lastmile_qr_scan"}, "is_disabled": 0, "fusion_lat": 0.0, "name": "3441bde1f7537d8a477a3258787085b8", "fusion_lon": 0.0}, {"is_reserved": 0, "type": "electric_scooter", "bike_id": "d6d5e2686cb6a00b298c9d04c296fe56", "lat": 38.87266016666667, "lon": -77.01704383333333, "rental_uris": {"android": "https://dc.lft.to/lastmile_qr_scan", "ios": "https://dc.lft.to/lastmile_qr_scan"}, "is_disabled": 0, "fusion_lat": 0.0, "name": "d6d5e2686cb6a00b298c9d04c296fe56", "fusion_lon": 0.0}, {"is_reserved": 0, "type": "electric_scooter", "bike_id": "dc03757aa84c4fb3dd8891cd28138ce0", "lat": 38.90520266666667, "lon": -77.05666083333334, "rental_uris": {"android": "https://dc.lft.to/lastmile_qr_scan", "ios": "https://dc.lft.to/lastmile_qr_scan"}, "is_disabled": 0, "fusion_lat": 0.0, "name": "dc03757aa84c4fb3dd8891cd28138ce0", "fusion_lon": 0.0}, {"is_reserved": 0, "type": "electric_scooter", "bike_id": "fd1ca0ef8dee8cec558c6e76a71429c5", "lat": 38.911218, "lon": -77.04382933333333, "rental_uris": {"android": "https://dc.lft.to/lastmile_qr_scan", "ios": "https://dc.lft.to/lastmile_qr_scan"}, "is_disabled": 0, "fusion_lat": 0.0, "name": "fd1ca0ef8dee8cec558c6e76a71429c5", "fusion_lon": 0.0}, {"is_reserved": 0, "type": "electric_scooter", "bike_id": "d6e6e34d99ff23839167edebe6da8505", "lat": 38.9008845, "lon": -77.05739983333333, "rental_uris": {"android": "https://dc.lft.to/lastmile_qr_scan", "ios": "https://dc.lft.to/lastmile_qr_scan"}, "is_disabled": 0, "fusion_lat": 0.0, "name": "d6e6e34d99ff23839167edebe6da8505", "fusion_lon": 0.0}, {"is_reserved": 0, "type": "electric_scooter", "bike_id": "8a8489dca11e72d88954ad432963fefb", "lat": 38.87163316666667, "lon": -77.01324883333334, "rental_uris": {"android": "https://dc.lft.to/lastmile_qr_scan", "ios": "https://dc.lft.to/lastmile_qr_scan"}, "is_disabled": 0, "fusion_lat": 0.0, "name": "8a8489dca11e72d88954ad432963fefb", "fusion_lon": 0.0}, {"is_reserved": 0, "type": "electric_scooter", "bike_id": "8dcdf0fa389b4b341eb623992c818f9f", "lat": 38.90350633333333, "lon": -77.010949, "rental_uris": {"android": "https://dc.lft.to/lastmile_qr_scan", "ios": "https://dc.lft.to/lastmile_qr_scan"}, "is_disabled": 0, "fusion_lat": 0.0, "name": "8dcdf0fa389b4b341eb623992c818f9f", "fusion_lon": 0.0}, {"is_reserved": 0, "type": "electric_scooter", "bike_id": "6753da4a045f8bb85549e40db699f96c", "lat": 38.89652483333333, "lon": -77.02624483333334, "rental_uris": {"android": "https://dc.lft.to/lastmile_qr_scan", "ios": "https://dc.lft.to/lastmile_qr_scan"}, "is_disabled": 0, "fusion_lat": 0.0, "name": "6753da4a045f8bb85549e40db699f96c", "fusion_lon": 0.0}, {"is_reserved": 0, "type": "electric_scooter", "bike_id": "a31756243f5bc2f1c4b0a57061091b3b", "lat": 38.921056666666665, "lon": -77.0179705, "rental_uris": {"android": "https://dc.lft.to/lastmile_qr_scan", "ios": "https://dc.lft.to/lastmile_qr_scan"}, "is_disabled": 0, "fusion_lat": 0.0, "name": "a31756243f5bc2f1c4b0a57061091b3b", "fusion_lon": 0.0}, {"is_reserved": 0, "type": "electric_scooter", "bike_id": "bbfd800f426e2f233b803f77db53524f", "lat": 38.917131, "lon": -77.03149216666667, "rental_uris": {"android": "https://dc.lft.to/lastmile_qr_scan", "ios": "https://dc.lft.to/lastmile_qr_scan"}, "is_disabled": 0, "fusion_lat": 0.0, "name": "bbfd800f426e2f233b803f77db53524f", "fusion_lon": 0.0}, {"is_reserved": 0, "type": "electric_bike", "bike_id": "d4846699ab755aeb0758211a9adbce18", "lat": 38.926480166666664, "lon": -76.98421116666667, "rental_uris": {"android": "https://dc.lft.to/lastmile_qr_scan", "ios": "https://dc.lft.to/lastmile_qr_scan"}, "is_disabled": 0, "fusion_lat": 0.0, "name": "d4846699ab755aeb0758211a9adbce18", "fusion_lon": 0.0}, {"is_reserved": 0, "type": "electric_bike", "bike_id": "974109ede2a428358e7e176381c654ec", "lat": 38.895664333333336, "lon": -77.12736733333334, "rental_uris": {"android": "https://dc.lft.to/lastmile_qr_scan", "ios": "https://dc.lft.to/lastmile_qr_scan"}, "is_disabled": 0, "fusion_lat": 0.0, "name": "974109ede2a428358e7e176381c654ec", "fusion_lon": 0.0}, {"is_reserved": 0, "type": "electric_scooter", "bike_id": "912323e3544dd519eea3de173b791580", "lat": 38.906333000000004, "lon": -77.05156916666667, "rental_uris": {"android": "https://dc.lft.to/lastmile_qr_scan", "ios": "https://dc.lft.to/lastmile_qr_scan"}, "is_disabled": 0, "fusion_lat": 0.0, "name": "912323e3544dd519eea3de173b791580", "fusion_lon": 0.0}, {"is_reserved": 0, "type": "electric_bike", "bike_id": "82e5505d70d8d5861f8af374762f3adb", "lat": 38.905899833333336, "lon": -77.01367466666666, "rental_uris": {"android": "https://dc.lft.to/lastmile_qr_scan", "ios": "https://dc.lft.to/lastmile_qr_scan"}, "is_disabled": 0, "fusion_lat": 0.0, "name": "82e5505d70d8d5861f8af374762f3adb", "fusion_lon": 0.0}, {"is_reserved": 0, "type": "electric_scooter", "bike_id": "ad89419ebfbe0109acb6ef9e4bcd999e", "lat": 38.940339, "lon": -77.02638816666666, "rental_uris": {"android": "https://dc.lft.to/lastmile_qr_scan", "ios": "https://dc.lft.to/lastmile_qr_scan"}, "is_disabled": 0, "fusion_lat": 0.0, "name": "ad89419ebfbe0109acb6ef9e4bcd999e", "fusion_lon": 0.0}, {"is_reserved": 0, "type": "electric_scooter", "bike_id": "12960094d0b04a3aca6f0661aee8904b", "lat": 38.909704166666664, "lon": -77.04501633333334, "rental_uris": {"android": "https://dc.lft.to/lastmile_qr_scan", "ios": "https://dc.lft.to/lastmile_qr_scan"}, "is_disabled": 0, "fusion_lat": 0.0, "name": "12960094d0b04a3aca6f0661aee8904b", "fusion_lon": 0.0}, {"is_reserved": 0, "type": "electric_scooter", "bike_id": "78dfc41a0ea432d5e31ca03192cb6b72", "lat": 38.8922475, "lon": -77.044873, "rental_uris": {"android": "https://dc.lft.to/lastmile_qr_scan", "ios": "https://dc.lft.to/lastmile_qr_scan"}, "is_disabled": 0, "fusion_lat": 0.0, "name": "78dfc41a0ea432d5e31ca03192cb6b72", "fusion_lon": 0.0}, {"is_reserved": 0, "type": "electric_scooter", "bike_id": "3993f5f33705ef81aacf1de9dfc368d1", "lat": 38.93757866666667, "lon": -77.03151566666666, "rental_uris": {"android": "https://dc.lft.to/lastmile_qr_scan", "ios": "https://dc.lft.to/lastmile_qr_scan"}, "is_disabled": 0, "fusion_lat": 0.0, "name": "3993f5f33705ef81aacf1de9dfc368d1", "fusion_lon": 0.0}, {"is_reserved": 0, "type": "electric_scooter", "bike_id": "25660ec1a3bef789fea0c719da5f8a32", "lat": 38.89185166666667, "lon": -77.01591833333333, "rental_uris": {"android": "https://dc.lft.to/lastmile_qr_scan", "ios": "https://dc.lft.to/lastmile_qr_scan"}, "is_disabled": 0, "fusion_lat": 0.0, "name": "25660ec1a3bef789fea0c719da5f8a32", "fusion_lon": 0.0}, {"is_reserved": 0, "type": "electric_scooter", "bike_id": "a65a3135cb26317fc9d2d50400208d6a", "lat": 38.907378666666666, "lon": -77.048893, "rental_uris": {"android": "https://dc.lft.to/lastmile_qr_scan", "ios": "https://dc.lft.to/lastmile_qr_scan"}, "is_disabled": 0, "fusion_lat": 0.0, "name": "a65a3135cb26317fc9d2d50400208d6a", "fusion_lon": 0.0}, {"is_reserved": 0, "type": "electric_bike", "bike_id": "f750526609cfcfa7ad823823225787f1", "lat": 38.80387266666666, "lon": -76.98811883333333, "rental_uris": {"android": "https://dc.lft.to/lastmile_qr_scan", "ios": "https://dc.lft.to/lastmile_qr_scan"}, "is_disabled": 0, "fusion_lat": 0.0, "name": "f750526609cfcfa7ad823823225787f1", "fusion_lon": 0.0}, {"is_reserved": 0, "type": "electric_scooter", "bike_id": "9e3fd383263907a20e4587f25fa87c17", "lat": 38.84817533333333, "lon": -76.97818516666666, "rental_uris": {"android": "https://dc.lft.to/lastmile_qr_scan", "ios": "https://dc.lft.to/lastmile_qr_scan"}, "is_disabled": 0, "fusion_lat": 0.0, "name": "9e3fd383263907a20e4587f25fa87c17", "fusion_lon": 0.0}, {"is_reserved": 0, "type": "electric_scooter", "bike_id": "9a3f9fecd04538b2bb14e38d251e4bf2", "lat": 38.927671333333336, "lon": -77.028756, "rental_uris": {"android": "https://dc.lft.to/lastmile_qr_scan", "ios": "https://dc.lft.to/lastmile_qr_scan"}, "is_disabled": 0, "fusion_lat": 0.0, "name": "9a3f9fecd04538b2bb14e38d251e4bf2", "fusion_lon": 0.0}, {"is_reserved": 0, "type": "electric_scooter", "bike_id": "88ee7a58c829bd6e292b7796c3dfe6c2", "lat": 38.90382816666666, "lon": -77.04172866666667, "rental_uris": {"android": "https://dc.lft.to/lastmile_qr_scan", "ios": "https://dc.lft.to/lastmile_qr_scan"}, "is_disabled": 0, "fusion_lat": 0.0, "name": "88ee7a58c829bd6e292b7796c3dfe6c2", "fusion_lon": 0.0}, {"is_reserved": 0, "type": "electric_scooter", "bike_id": "9b807e9d0f1b0ae8da9a28dcf6fd02b2", "lat": 38.9262375, "lon": -77.0377985, "rental_uris": {"android": "https://dc.lft.to/lastmile_qr_scan", "ios": "https://dc.lft.to/lastmile_qr_scan"}, "is_disabled": 0, "fusion_lat": 0.0, "name": "9b807e9d0f1b0ae8da9a28dcf6fd02b2", "fusion_lon": 0.0}, {"is_reserved": 0, "type": "electric_scooter", "bike_id": "35eae70179528f36552483c45a71900c", "lat": 38.925453, "lon": -77.03258933333333, "rental_uris": {"android": "https://dc.lft.to/lastmile_qr_scan", "ios": "https://dc.lft.to/lastmile_qr_scan"}, "is_disabled": 0, "fusion_lat": 0.0, "name": "35eae70179528f36552483c45a71900c", "fusion_lon": 0.0}, {"is_reserved": 0, "type": "electric_scooter", "bike_id": "fed6c8f98bbd86831c666fee734f7dc4", "lat": 38.884357666666666, "lon": -76.95767483333333, "rental_uris": {"android": "https://dc.lft.to/lastmile_qr_scan", "ios": "https://dc.lft.to/lastmile_qr_scan"}, "is_disabled": 0, "fusion_lat": 0.0, "name": "fed6c8f98bbd86831c666fee734f7dc4", "fusion_lon": 0.0}, {"is_reserved": 0, "type": "electric_bike", "bike_id": "a9b521906dfe918efefb1c0dbeb73d88", "lat": 38.83301933333333, "lon": -77.0840655, "rental_uris": {"android": "https://dc.lft.to/lastmile_qr_scan", "ios": "https://dc.lft.to/lastmile_qr_scan"}, "is_disabled": 0, "fusion_lat": 0.0, "name": "a9b521906dfe918efefb1c0dbeb73d88", "fusion_lon": 0.0}, {"is_reserved": 0, "type": "electric_bike", "bike_id": "4af530f157364cdc1bd8235078396dd4", "lat": 38.959529333333336, "lon": -77.01988016666667, "rental_uris": {"android": "https://dc.lft.to/lastmile_qr_scan", "ios": "https://dc.lft.to/lastmile_qr_scan"}, "is_disabled": 0, "fusion_lat": 0.0, "name": "4af530f157364cdc1bd8235078396dd4", "fusion_lon": 0.0}, {"is_reserved": 0, "type": "electric_scooter", "bike_id": "3a900a96c4cb9cd58777492eeefec4ec", "lat": 38.90091116666667, "lon": -77.02157083333333, "rental_uris": {"android": "https://dc.lft.to/lastmile_qr_scan", "ios": "https://dc.lft.to/lastmile_qr_scan"}, "is_disabled": 0, "fusion_lat": 0.0, "name": "3a900a96c4cb9cd58777492eeefec4ec", "fusion_lon": 0.0}, {"is_reserved": 0, "type": "electric_scooter", "bike_id": "744dd23f2b0d6e6b381ba6dd132220c5", "lat": 38.897538, "lon": -77.00780616666667, "rental_uris": {"android": "https://dc.lft.to/lastmile_qr_scan", "ios": "https://dc.lft.to/lastmile_qr_scan"}, "is_disabled": 0, "fusion_lat": 0.0, "name": "744dd23f2b0d6e6b381ba6dd132220c5", "fusion_lon": 0.0}, {"is_reserved": 0, "type": "electric_scooter", "bike_id": "d6ce43691409f7ceeb5e58b596c6967c", "lat": 38.90013283333333, "lon": -77.04021166666666, "rental_uris": {"android": "https://dc.lft.to/lastmile_qr_scan", "ios": "https://dc.lft.to/lastmile_qr_scan"}, "is_disabled": 0, "fusion_lat": 0.0, "name": "d6ce43691409f7ceeb5e58b596c6967c", "fusion_lon": 0.0}, {"is_reserved": 0, "type": "electric_scooter", "bike_id": "c21ece95c9e49a31106434cc75d146e7", "lat": 38.928172, "lon": -77.0284675, "rental_uris": {"android": "https://dc.lft.to/lastmile_qr_scan", "ios": "https://dc.lft.to/lastmile_qr_scan"}, "is_disabled": 0, "fusion_lat": 0.0, "name": "c21ece95c9e49a31106434cc75d146e7", "fusion_lon": 0.0}, {"is_reserved": 0, "type": "electric_scooter", "bike_id": "83e65e97d98524bc2f135ac42e25a3c1", "lat": 38.9283955, "lon": -77.00602133333334, "rental_uris": {"android": "https://dc.lft.to/lastmile_qr_scan", "ios": "https://dc.lft.to/lastmile_qr_scan"}, "is_disabled": 0, "fusion_lat": 0.0, "name": "83e65e97d98524bc2f135ac42e25a3c1", "fusion_lon": 0.0}, {"is_reserved": 0, "type": "electric_scooter", "bike_id": "449596d209a2dd77eb1c40c4fba4fc03", "lat": 38.9293015, "lon": -77.020095, "rental_uris": {"android": "https://dc.lft.to/lastmile_qr_scan", "ios": "https://dc.lft.to/lastmile_qr_scan"}, "is_disabled": 0, "fusion_lat": 0.0, "name": "449596d209a2dd77eb1c40c4fba4fc03", "fusion_lon": 0.0}, {"is_reserved": 0, "type": "electric_scooter", "bike_id": "90730e24d70579864e3d64408f3780dd", "lat": 38.90175383333333, "lon": -77.02489883333334, "rental_uris": {"android": "https://dc.lft.to/lastmile_qr_scan", "ios": "https://dc.lft.to/lastmile_qr_scan"}, "is_disabled": 0, "fusion_lat": 0.0, "name": "90730e24d70579864e3d64408f3780dd", "fusion_lon": 0.0}, {"is_reserved": 0, "type": "electric_scooter", "bike_id": "f835fd3fe0ce8c4fabe257dc73c948a3", "lat": 38.911164, "lon": -77.0450375, "rental_uris": {"android": "https://dc.lft.to/lastmile_qr_scan", "ios": "https://dc.lft.to/lastmile_qr_scan"}, "is_disabled": 0, "fusion_lat": 0.0, "name": "f835fd3fe0ce8c4fabe257dc73c948a3", "fusion_lon": 0.0}, {"is_reserved": 0, "type": "electric_scooter", "bike_id": "8454e07e5a7b7acafc0ece4216716174", "lat": 38.93528, "lon": -77.01940183333333, "rental_uris": {"android": "https://dc.lft.to/lastmile_qr_scan", "ios": "https://dc.lft.to/lastmile_qr_scan"}, "is_disabled": 0, "fusion_lat": 0.0, "name": "8454e07e5a7b7acafc0ece4216716174", "fusion_lon": 0.0}, {"is_reserved": 0, "type": "electric_scooter", "bike_id": "bfcda2140bb7d2d919a27a4a781980bf", "lat": 38.91111983333333, "lon": -77.03210733333333, "rental_uris": {"android": "https://dc.lft.to/lastmile_qr_scan", "ios": "https://dc.lft.to/lastmile_qr_scan"}, "is_disabled": 0, "fusion_lat": 0.0, "name": "bfcda2140bb7d2d919a27a4a781980bf", "fusion_lon": 0.0}, {"is_reserved": 0, "type": "electric_scooter", "bike_id": "28896410cf1c3f675566e6bcc061514c", "lat": 38.92704483333333, "lon": -77.02960066666667, "rental_uris": {"android": "https://dc.lft.to/lastmile_qr_scan", "ios": "https://dc.lft.to/lastmile_qr_scan"}, "is_disabled": 0, "fusion_lat": 0.0, "name": "28896410cf1c3f675566e6bcc061514c", "fusion_lon": 0.0}, {"is_reserved": 0, "type": "electric_scooter", "bike_id": "bbba6c48bc5b755c8afc1e3efb253335", "lat": 38.8657725, "lon": -76.9901975, "rental_uris": {"android": "https://dc.lft.to/lastmile_qr_scan", "ios": "https://dc.lft.to/lastmile_qr_scan"}, "is_disabled": 0, "fusion_lat": 0.0, "name": "bbba6c48bc5b755c8afc1e3efb253335", "fusion_lon": 0.0}, {"is_reserved": 0, "type": "electric_scooter", "bike_id": "bc80174cc8bc996258574a133303b48f", "lat": 38.8973565, "lon": -77.02168733333333, "rental_uris": {"android": "https://dc.lft.to/lastmile_qr_scan", "ios": "https://dc.lft.to/lastmile_qr_scan"}, "is_disabled": 0, "fusion_lat": 0.0, "name": "bc80174cc8bc996258574a133303b48f", "fusion_lon": 0.0}, {"is_reserved": 0, "type": "electric_scooter", "bike_id": "29a0e1786e7ee4e30707b27a0576924c", "lat": 38.924498, "lon": -77.02030666666667, "rental_uris": {"android": "https://dc.lft.to/lastmile_qr_scan", "ios": "https://dc.lft.to/lastmile_qr_scan"}, "is_disabled": 0, "fusion_lat": 0.0, "name": "29a0e1786e7ee4e30707b27a0576924c", "fusion_lon": 0.0}, {"is_reserved": 0, "type": "electric_scooter", "bike_id": "8804723585d47ba82852c1ff4151f27a", "lat": 38.913210166666666, "lon": -77.014464, "rental_uris": {"android": "https://dc.lft.to/lastmile_qr_scan", "ios": "https://dc.lft.to/lastmile_qr_scan"}, "is_disabled": 0, "fusion_lat": 0.0, "name": "8804723585d47ba82852c1ff4151f27a", "fusion_lon": 0.0}, {"is_reserved": 0, "type": "electric_scooter", "bike_id": "6e11fd9a3f7ced3dc2065dbd2a36890c", "lat": 38.900939, "lon": -77.0161485, "rental_uris": {"android": "https://dc.lft.to/lastmile_qr_scan", "ios": "https://dc.lft.to/lastmile_qr_scan"}, "is_disabled": 0, "fusion_lat": 0.0, "name": "6e11fd9a3f7ced3dc2065dbd2a36890c", "fusion_lon": 0.0}, {"is_reserved": 0, "type": "electric_scooter", "bike_id": "97b8c2853d6afb83ecf927450eb46f9a", "lat": 38.940069333333334, "lon": -77.0273705, "rental_uris": {"android": "https://dc.lft.to/lastmile_qr_scan", "ios": "https://dc.lft.to/lastmile_qr_scan"}, "is_disabled": 0, "fusion_lat": 0.0, "name": "97b8c2853d6afb83ecf927450eb46f9a", "fusion_lon": 0.0}, {"is_reserved": 0, "type": "electric_bike", "bike_id": "42c11e1550efa52e2fb5cac64c9c47c8", "lat": 38.90803833333333, "lon": -77.02391066666667, "rental_uris": {"android": "https://dc.lft.to/lastmile_qr_scan", "ios": "https://dc.lft.to/lastmile_qr_scan"}, "is_disabled": 0, "fusion_lat": 0.0, "name": "42c11e1550efa52e2fb5cac64c9c47c8", "fusion_lon": 0.0}, {"is_reserved": 0, "type": "electric_scooter", "bike_id": "ee09cc4a500ddb7de6851bdeda5a5fc6", "lat": 38.887469333333335, "lon": -77.01742033333333, "rental_uris": {"android": "https://dc.lft.to/lastmile_qr_scan", "ios": "https://dc.lft.to/lastmile_qr_scan"}, "is_disabled": 0, "fusion_lat": 0.0, "name": "ee09cc4a500ddb7de6851bdeda5a5fc6", "fusion_lon": 0.0}, {"is_reserved": 0, "type": "electric_scooter", "bike_id": "abc3b3ca72a3e772fe8ea456a136b9b1", "lat": 38.93784333333333, "lon": -77.07451916666666, "rental_uris": {"android": "https://dc.lft.to/lastmile_qr_scan", "ios": "https://dc.lft.to/lastmile_qr_scan"}, "is_disabled": 0, "fusion_lat": 0.0, "name": "abc3b3ca72a3e772fe8ea456a136b9b1", "fusion_lon": 0.0}, {"is_reserved": 0, "type": "electric_scooter", "bike_id": "379fc90b9a94709526a0ca790e4e88ce", "lat": 38.912423, "lon": -77.03855633333333, "rental_uris": {"android": "https://dc.lft.to/lastmile_qr_scan", "ios": "https://dc.lft.to/lastmile_qr_scan"}, "is_disabled": 0, "fusion_lat": 0.0, "name": "379fc90b9a94709526a0ca790e4e88ce", "fusion_lon": 0.0}, {"is_reserved": 0, "type": "electric_scooter", "bike_id": "aef9fb6ad34296b5ee27a2a957fd6466", "lat": 38.905676666666665, "lon": -76.99773266666666, "rental_uris": {"android": "https://dc.lft.to/lastmile_qr_scan", "ios": "https://dc.lft.to/lastmile_qr_scan"}, "is_disabled": 0, "fusion_lat": 0.0, "name": "aef9fb6ad34296b5ee27a2a957fd6466", "fusion_lon": 0.0}, {"is_reserved": 0, "type": "electric_scooter", "bike_id": "545264f4d70218997f5044689c229337", "lat": 38.94978833333333, "lon": -77.02449133333333, "rental_uris": {"android": "https://dc.lft.to/lastmile_qr_scan", "ios": "https://dc.lft.to/lastmile_qr_scan"}, "is_disabled": 0, "fusion_lat": 0.0, "name": "545264f4d70218997f5044689c229337", "fusion_lon": 0.0}, {"is_reserved": 0, "type": "electric_scooter", "bike_id": "7c44e4680a0c1edb54e60af9b6470fa5", "lat": 38.899552, "lon": -77.05390183333333, "rental_uris": {"android": "https://dc.lft.to/lastmile_qr_scan", "ios": "https://dc.lft.to/lastmile_qr_scan"}, "is_disabled": 0, "fusion_lat": 0.0, "name": "7c44e4680a0c1edb54e60af9b6470fa5", "fusion_lon": 0.0}, {"is_reserved": 0, "type": "electric_scooter", "bike_id": "14ba173a99f3eea9fb2490fc4f48ea34", "lat": 38.928802, "lon": -77.03444316666666, "rental_uris": {"android": "https://dc.lft.to/lastmile_qr_scan", "ios": "https://dc.lft.to/lastmile_qr_scan"}, "is_disabled": 0, "fusion_lat": 0.0, "name": "14ba173a99f3eea9fb2490fc4f48ea34", "fusion_lon": 0.0}, {"is_reserved": 0, "type": "electric_bike", "bike_id": "cc365595720c4bf9025b281e745c73cb", "lat": 38.956003333333335, "lon": -76.99534116666666, "rental_uris": {"android": "https://dc.lft.to/lastmile_qr_scan", "ios": "https://dc.lft.to/lastmile_qr_scan"}, "is_disabled": 0, "fusion_lat": 0.0, "name": "cc365595720c4bf9025b281e745c73cb", "fusion_lon": 0.0}, {"is_reserved": 0, "type": "electric_scooter", "bike_id": "975898ac8b5e8edd920e692a346b7acf", "lat": 38.904608333333336, "lon": -77.0032625, "rental_uris": {"android": "https://dc.lft.to/lastmile_qr_scan", "ios": "https://dc.lft.to/lastmile_qr_scan"}, "is_disabled": 0, "fusion_lat": 0.0, "name": "975898ac8b5e8edd920e692a346b7acf", "fusion_lon": 0.0}, {"is_reserved": 0, "type": "electric_scooter", "bike_id": "0ab9961d77f3424cfadfa358dd6fbff2", "lat": 38.8812075, "lon": -77.01972333333333, "rental_uris": {"android": "https://dc.lft.to/lastmile_qr_scan", "ios": "https://dc.lft.to/lastmile_qr_scan"}, "is_disabled": 0, "fusion_lat": 0.0, "name": "0ab9961d77f3424cfadfa358dd6fbff2", "fusion_lon": 0.0}, {"is_reserved": 0, "type": "electric_scooter", "bike_id": "829f3e1b52b8025588399e700ce24020", "lat": 38.887725833333334, "lon": -76.93262183333333, "rental_uris": {"android": "https://dc.lft.to/lastmile_qr_scan", "ios": "https://dc.lft.to/lastmile_qr_scan"}, "is_disabled": 0, "fusion_lat": 0.0, "name": "829f3e1b52b8025588399e700ce24020", "fusion_lon": 0.0}, {"is_reserved": 0, "type": "electric_bike", "bike_id": "057e5aecef3cecfaedde1cc4cb8aaa11", "lat": 38.92505933333333, "lon": -76.98226383333333, "rental_uris": {"android": "https://dc.lft.to/lastmile_qr_scan", "ios": "https://dc.lft.to/lastmile_qr_scan"}, "is_disabled": 0, "fusion_lat": 0.0, "name": "057e5aecef3cecfaedde1cc4cb8aaa11", "fusion_lon": 0.0}, {"is_reserved": 0, "type": "electric_scooter", "bike_id": "e495cd2279f8088d598150397d0771ff", "lat": 38.91915316666667, "lon": -77.009918, "rental_uris": {"android": "https://dc.lft.to/lastmile_qr_scan", "ios": "https://dc.lft.to/lastmile_qr_scan"}, "is_disabled": 0, "fusion_lat": 0.0, "name": "e495cd2279f8088d598150397d0771ff", "fusion_lon": 0.0}, {"is_reserved": 0, "type": "electric_scooter", "bike_id": "fd094d1bbdf3214b64842152f300733a", "lat": 38.90569216666667, "lon": -77.01848533333333, "rental_uris": {"android": "https://dc.lft.to/lastmile_qr_scan", "ios": "https://dc.lft.to/lastmile_qr_scan"}, "is_disabled": 0, "fusion_lat": 0.0, "name": "fd094d1bbdf3214b64842152f300733a", "fusion_lon": 0.0}, {"is_reserved": 0, "type": "electric_scooter", "bike_id": "297949a55af56421f82b168f1b48dfbe", "lat": 38.912718166666664, "lon": -77.0183785, "rental_uris": {"android": "https://dc.lft.to/lastmile_qr_scan", "ios": "https://dc.lft.to/lastmile_qr_scan"}, "is_disabled": 0, "fusion_lat": 0.0, "name": "297949a55af56421f82b168f1b48dfbe", "fusion_lon": 0.0}, {"is_reserved": 0, "type": "electric_scooter", "bike_id": "ca2672e44ce89ccb88760c037fa8c74d", "lat": 38.890884, "lon": -76.99935783333333, "rental_uris": {"android": "https://dc.lft.to/lastmile_qr_scan", "ios": "https://dc.lft.to/lastmile_qr_scan"}, "is_disabled": 0, "fusion_lat": 0.0, "name": "ca2672e44ce89ccb88760c037fa8c74d", "fusion_lon": 0.0}, {"is_reserved": 0, "type": "electric_scooter", "bike_id": "96446782cfa537116f59183800b3a6fd", "lat": 38.89220516666666, "lon": -77.024238, "rental_uris": {"android": "https://dc.lft.to/lastmile_qr_scan", "ios": "https://dc.lft.to/lastmile_qr_scan"}, "is_disabled": 0, "fusion_lat": 0.0, "name": "96446782cfa537116f59183800b3a6fd", "fusion_lon": 0.0}, {"is_reserved": 0, "type": "electric_bike", "bike_id": "34cb6bfa8e18646a7b309774cb6ccbb5", "lat": 38.867536666666666, "lon": -76.945335, "rental_uris": {"android": "https://dc.lft.to/lastmile_qr_scan", "ios": "https://dc.lft.to/lastmile_qr_scan"}, "is_disabled": 0, "fusion_lat": 0.0, "name": "34cb6bfa8e18646a7b309774cb6ccbb5", "fusion_lon": 0.0}, {"is_reserved": 0, "type": "electric_scooter", "bike_id": "5eaa63b72342225ce7a2bdf06c0be472", "lat": 38.8721265, "lon": -77.013519, "rental_uris": {"android": "https://dc.lft.to/lastmile_qr_scan", "ios": "https://dc.lft.to/lastmile_qr_scan"}, "is_disabled": 0, "fusion_lat": 0.0, "name": "5eaa63b72342225ce7a2bdf06c0be472", "fusion_lon": 0.0}, {"is_reserved": 0, "type": "electric_scooter", "bike_id": "cdcaeb2bba06623373098cb514337912", "lat": 38.90933033333334, "lon": -76.99633266666666, "rental_uris": {"android": "https://dc.lft.to/lastmile_qr_scan", "ios": "https://dc.lft.to/lastmile_qr_scan"}, "is_disabled": 0, "fusion_lat": 0.0, "name": "cdcaeb2bba06623373098cb514337912", "fusion_lon": 0.0}, {"is_reserved": 0, "type": "electric_scooter", "bike_id": "986735d74e83dbb552195a8535b8c992", "lat": 38.90731983333333, "lon": -77.01428116666666, "rental_uris": {"android": "https://dc.lft.to/lastmile_qr_scan", "ios": "https://dc.lft.to/lastmile_qr_scan"}, "is_disabled": 0, "fusion_lat": 0.0, "name": "986735d74e83dbb552195a8535b8c992", "fusion_lon": 0.0}, {"is_reserved": 0, "type": "electric_scooter", "bike_id": "c37a47522e0c13a4804802d4fc2f56ee", "lat": 38.913770166666666, "lon": -77.0271365, "rental_uris": {"android": "https://dc.lft.to/lastmile_qr_scan", "ios": "https://dc.lft.to/lastmile_qr_scan"}, "is_disabled": 0, "fusion_lat": 0.0, "name": "c37a47522e0c13a4804802d4fc2f56ee", "fusion_lon": 0.0}, {"is_reserved": 0, "type": "electric_scooter", "bike_id": "c1d107c2125de8dbcd03d375b6fe2ac5", "lat": 38.906491833333334, "lon": -76.98375016666667, "rental_uris": {"android": "https://dc.lft.to/lastmile_qr_scan", "ios": "https://dc.lft.to/lastmile_qr_scan"}, "is_disabled": 0, "fusion_lat": 0.0, "name": "c1d107c2125de8dbcd03d375b6fe2ac5", "fusion_lon": 0.0}, {"is_reserved": 0, "type": "electric_scooter", "bike_id": "7cce3b5903bd1a423f8afbf4886a7440", "lat": 38.935246666666664, "lon": -77.01940933333333, "rental_uris": {"android": "https://dc.lft.to/lastmile_qr_scan", "ios": "https://dc.lft.to/lastmile_qr_scan"}, "is_disabled": 0, "fusion_lat": 0.0, "name": "7cce3b5903bd1a423f8afbf4886a7440", "fusion_lon": 0.0}, {"is_reserved": 0, "type": "electric_scooter", "bike_id": "e5a2657d69f12f029c2e74a467d0c816", "lat": 38.90547316666667, "lon": -77.05698183333334, "rental_uris": {"android": "https://dc.lft.to/lastmile_qr_scan", "ios": "https://dc.lft.to/lastmile_qr_scan"}, "is_disabled": 0, "fusion_lat": 0.0, "name": "e5a2657d69f12f029c2e74a467d0c816", "fusion_lon": 0.0}, {"is_reserved": 0, "type": "electric_scooter", "bike_id": "8173ef85c9450abd668babc2f2e9717c", "lat": 38.91122, "lon": -77.038358, "rental_uris": {"android": "https://dc.lft.to/lastmile_qr_scan", "ios": "https://dc.lft.to/lastmile_qr_scan"}, "is_disabled": 0, "fusion_lat": 0.0, "name": "8173ef85c9450abd668babc2f2e9717c", "fusion_lon": 0.0}, {"is_reserved": 0, "type": "electric_scooter", "bike_id": "445964c2b938d3fa4da2b65646c96c47", "lat": 38.90860933333333, "lon": -77.04329266666667, "rental_uris": {"android": "https://dc.lft.to/lastmile_qr_scan", "ios": "https://dc.lft.to/lastmile_qr_scan"}, "is_disabled": 0, "fusion_lat": 0.0, "name": "445964c2b938d3fa4da2b65646c96c47", "fusion_lon": 0.0}, {"is_reserved": 0, "type": "electric_scooter", "bike_id": "db37dcbcdc3dbebf768819ca363e5ac1", "lat": 38.899527, "lon": -76.97905516666667, "rental_uris": {"android": "https://dc.lft.to/lastmile_qr_scan", "ios": "https://dc.lft.to/lastmile_qr_scan"}, "is_disabled": 0, "fusion_lat": 0.0, "name": "db37dcbcdc3dbebf768819ca363e5ac1", "fusion_lon": 0.0}, {"is_reserved": 0, "type": "electric_scooter", "bike_id": "4248df24261905c6eed8c86fb91e9364", "lat": 38.917299, "lon": -77.0321825, "rental_uris": {"android": "https://dc.lft.to/lastmile_qr_scan", "ios": "https://dc.lft.to/lastmile_qr_scan"}, "is_disabled": 0, "fusion_lat": 0.0, "name": "4248df24261905c6eed8c86fb91e9364", "fusion_lon": 0.0}, {"is_reserved": 0, "type": "electric_scooter", "bike_id": "d0e6cc8fc1d5ebf83ec4f231f1a710ad", "lat": 38.899114, "lon": -76.933665, "rental_uris": {"android": "https://dc.lft.to/lastmile_qr_scan", "ios": "https://dc.lft.to/lastmile_qr_scan"}, "is_disabled": 0, "fusion_lat": 0.0, "name": "d0e6cc8fc1d5ebf83ec4f231f1a710ad", "fusion_lon": 0.0}, {"is_reserved": 0, "type": "electric_scooter", "bike_id": "1a24f4baee56e0b57b4ee7e63668305d", "lat": 38.94660833333333, "lon": -77.03282266666666, "rental_uris": {"android": "https://dc.lft.to/lastmile_qr_scan", "ios": "https://dc.lft.to/lastmile_qr_scan"}, "is_disabled": 0, "fusion_lat": 0.0, "name": "1a24f4baee56e0b57b4ee7e63668305d", "fusion_lon": 0.0}, {"is_reserved": 0, "type": "electric_scooter", "bike_id": "0839e4da1deb7bd21a0d446904c301a9", "lat": 38.92596916666667, "lon": -77.055266, "rental_uris": {"android": "https://dc.lft.to/lastmile_qr_scan", "ios": "https://dc.lft.to/lastmile_qr_scan"}, "is_disabled": 0, "fusion_lat": 0.0, "name": "0839e4da1deb7bd21a0d446904c301a9", "fusion_lon": 0.0}, {"is_reserved": 0, "type": "electric_scooter", "bike_id": "6a52bf9f829558cec172e35bbc546a5c", "lat": 38.9004295, "lon": -76.99163283333333, "rental_uris": {"android": "https://dc.lft.to/lastmile_qr_scan", "ios": "https://dc.lft.to/lastmile_qr_scan"}, "is_disabled": 0, "fusion_lat": 0.0, "name": "6a52bf9f829558cec172e35bbc546a5c", "fusion_lon": 0.0}, {"is_reserved": 0, "type": "electric_scooter", "bike_id": "637453266328f60edf15944309028dee", "lat": 38.912063, "lon": -77.04590083333333, "rental_uris": {"android": "https://dc.lft.to/lastmile_qr_scan", "ios": "https://dc.lft.to/lastmile_qr_scan"}, "is_disabled": 0, "fusion_lat": 0.0, "name": "637453266328f60edf15944309028dee", "fusion_lon": 0.0}, {"is_reserved": 0, "type": "electric_scooter", "bike_id": "c898de00e7c64dd1c4d352e48987bd94", "lat": 38.93905216666667, "lon": -77.03334883333333, "rental_uris": {"android": "https://dc.lft.to/lastmile_qr_scan", "ios": "https://dc.lft.to/lastmile_qr_scan"}, "is_disabled": 0, "fusion_lat": 0.0, "name": "c898de00e7c64dd1c4d352e48987bd94", "fusion_lon": 0.0}, {"is_reserved": 0, "type": "electric_scooter", "bike_id": "e4289d1699cd02b6b5c32f1050929829", "lat": 38.90303566666667, "lon": -77.00214483333333, "rental_uris": {"android": "https://dc.lft.to/lastmile_qr_scan", "ios": "https://dc.lft.to/lastmile_qr_scan"}, "is_disabled": 0, "fusion_lat": 0.0, "name": "e4289d1699cd02b6b5c32f1050929829", "fusion_lon": 0.0}, {"is_reserved": 0, "type": "electric_bike", "bike_id": "0018062b6da945f627fd6cc81d21209d", "lat": 38.920232166666665, "lon": -76.99557266666666, "rental_uris": {"android": "https://dc.lft.to/lastmile_qr_scan", "ios": "https://dc.lft.to/lastmile_qr_scan"}, "is_disabled": 0, "fusion_lat": 0.0, "name": "0018062b6da945f627fd6cc81d21209d", "fusion_lon": 0.0}, {"is_reserved": 0, "type": "electric_scooter", "bike_id": "0ab1478a98d0c026208cb25709be25c5", "lat": 38.925517166666666, "lon": -76.9995465, "rental_uris": {"android": "https://dc.lft.to/lastmile_qr_scan", "ios": "https://dc.lft.to/lastmile_qr_scan"}, "is_disabled": 0, "fusion_lat": 0.0, "name": "0ab1478a98d0c026208cb25709be25c5", "fusion_lon": 0.0}, {"is_reserved": 0, "type": "electric_scooter", "bike_id": "622537d95138750d0072986da6f1ab91", "lat": 38.89858066666667, "lon": -77.0287905, "rental_uris": {"android": "https://dc.lft.to/lastmile_qr_scan", "ios": "https://dc.lft.to/lastmile_qr_scan"}, "is_disabled": 0, "fusion_lat": 0.0, "name": "622537d95138750d0072986da6f1ab91", "fusion_lon": 0.0}, {"is_reserved": 0, "type": "electric_scooter", "bike_id": "1646a5fc88e1711e181267e70571b81c", "lat": 38.919554833333336, "lon": -77.044565, "rental_uris": {"android": "https://dc.lft.to/lastmile_qr_scan", "ios": "https://dc.lft.to/lastmile_qr_scan"}, "is_disabled": 0, "fusion_lat": 0.0, "name": "1646a5fc88e1711e181267e70571b81c", "fusion_lon": 0.0}, {"is_reserved": 0, "type": "electric_scooter", "bike_id": "340ec6e318f502dced31393fa27de273", "lat": 38.891842833333335, "lon": -77.01590816666666, "rental_uris": {"android": "https://dc.lft.to/lastmile_qr_scan", "ios": "https://dc.lft.to/lastmile_qr_scan"}, "is_disabled": 0, "fusion_lat": 0.0, "name": "340ec6e318f502dced31393fa27de273", "fusion_lon": 0.0}, {"is_reserved": 0, "type": "electric_scooter", "bike_id": "897aa9a4ff279d5cbbba148f075acf21", "lat": 38.90383333333333, "lon": -77.03142783333334, "rental_uris": {"android": "https://dc.lft.to/lastmile_qr_scan", "ios": "https://dc.lft.to/lastmile_qr_scan"}, "is_disabled": 0, "fusion_lat": 0.0, "name": "897aa9a4ff279d5cbbba148f075acf21", "fusion_lon": 0.0}, {"is_reserved": 0, "type": "electric_scooter", "bike_id": "ebba70595a1dd0105ff31768fcafbe4b", "lat": 38.8968075, "lon": -77.01210716666667, "rental_uris": {"android": "https://dc.lft.to/lastmile_qr_scan", "ios": "https://dc.lft.to/lastmile_qr_scan"}, "is_disabled": 0, "fusion_lat": 0.0, "name": "ebba70595a1dd0105ff31768fcafbe4b", "fusion_lon": 0.0}, {"is_reserved": 0, "type": "electric_scooter", "bike_id": "31de247144cd242700b4752abd2db486", "lat": 38.90842633333333, "lon": -77.0344895, "rental_uris": {"android": "https://dc.lft.to/lastmile_qr_scan", "ios": "https://dc.lft.to/lastmile_qr_scan"}, "is_disabled": 0, "fusion_lat": 0.0, "name": "31de247144cd242700b4752abd2db486", "fusion_lon": 0.0}, {"is_reserved": 0, "type": "electric_scooter", "bike_id": "677aa0108160bf2d5bb5d09e89126867", "lat": 38.917994666666665, "lon": -77.027091, "rental_uris": {"android": "https://dc.lft.to/lastmile_qr_scan", "ios": "https://dc.lft.to/lastmile_qr_scan"}, "is_disabled": 0, "fusion_lat": 0.0, "name": "677aa0108160bf2d5bb5d09e89126867", "fusion_lon": 0.0}, {"is_reserved": 0, "type": "electric_scooter", "bike_id": "32b65f8e21b8beaad5238f5ea0b04921", "lat": 38.935709833333334, "lon": -77.0326395, "rental_uris": {"android": "https://dc.lft.to/lastmile_qr_scan", "ios": "https://dc.lft.to/lastmile_qr_scan"}, "is_disabled": 0, "fusion_lat": 0.0, "name": "32b65f8e21b8beaad5238f5ea0b04921", "fusion_lon": 0.0}, {"is_reserved": 0, "type": "electric_scooter", "bike_id": "b54ad27d03a10fbe87758f945b62f5f9", "lat": 38.905221, "lon": -77.06382166666667, "rental_uris": {"android": "https://dc.lft.to/lastmile_qr_scan", "ios": "https://dc.lft.to/lastmile_qr_scan"}, "is_disabled": 0, "fusion_lat": 0.0, "name": "b54ad27d03a10fbe87758f945b62f5f9", "fusion_lon": 0.0}, {"is_reserved": 0, "type": "electric_scooter", "bike_id": "e9104f0aaa29dca95b888100483425cf", "lat": 38.8992695, "lon": -77.03204383333333, "rental_uris": {"android": "https://dc.lft.to/lastmile_qr_scan", "ios": "https://dc.lft.to/lastmile_qr_scan"}, "is_disabled": 0, "fusion_lat": 0.0, "name": "e9104f0aaa29dca95b888100483425cf", "fusion_lon": 0.0}, {"is_reserved": 0, "type": "electric_scooter", "bike_id": "c11be1d538d9ad4933405ffedb96e622", "lat": 38.925878166666664, "lon": -77.01221616666666, "rental_uris": {"android": "https://dc.lft.to/lastmile_qr_scan", "ios": "https://dc.lft.to/lastmile_qr_scan"}, "is_disabled": 0, "fusion_lat": 0.0, "name": "c11be1d538d9ad4933405ffedb96e622", "fusion_lon": 0.0}, {"is_reserved": 0, "type": "electric_bike", "bike_id": "11fa1fff13920a882d4cba0ccfffcccb", "lat": 38.840559666666664, "lon": -77.0559685, "rental_uris": {"android": "https://dc.lft.to/lastmile_qr_scan", "ios": "https://dc.lft.to/lastmile_qr_scan"}, "is_disabled": 0, "fusion_lat": 0.0, "name": "11fa1fff13920a882d4cba0ccfffcccb", "fusion_lon": 0.0}, {"is_reserved": 0, "type": "electric_scooter", "bike_id": "6872d254e2a894ff637a07adf9467eb9", "lat": 38.92373416666667, "lon": -77.03663466666667, "rental_uris": {"android": "https://dc.lft.to/lastmile_qr_scan", "ios": "https://dc.lft.to/lastmile_qr_scan"}, "is_disabled": 0, "fusion_lat": 0.0, "name": "6872d254e2a894ff637a07adf9467eb9", "fusion_lon": 0.0}, {"is_reserved": 0, "type": "electric_scooter", "bike_id": "eb14f3c9ff65a72b91f65f7be17dabfb", "lat": 38.9210975, "lon": -77.0418815, "rental_uris": {"android": "https://dc.lft.to/lastmile_qr_scan", "ios": "https://dc.lft.to/lastmile_qr_scan"}, "is_disabled": 0, "fusion_lat": 0.0, "name": "eb14f3c9ff65a72b91f65f7be17dabfb", "fusion_lon": 0.0}, {"is_reserved": 0, "type": "electric_scooter", "bike_id": "12ce1b228f315a836724f7c24a735a42", "lat": 38.9215195, "lon": -77.03505833333334, "rental_uris": {"android": "https://dc.lft.to/lastmile_qr_scan", "ios": "https://dc.lft.to/lastmile_qr_scan"}, "is_disabled": 0, "fusion_lat": 0.0, "name": "12ce1b228f315a836724f7c24a735a42", "fusion_lon": 0.0}, {"is_reserved": 0, "type": "electric_scooter", "bike_id": "321074630371e3a198b7919d9bc027eb", "lat": 38.905779333333335, "lon": -77.00578733333333, "rental_uris": {"android": "https://dc.lft.to/lastmile_qr_scan", "ios": "https://dc.lft.to/lastmile_qr_scan"}, "is_disabled": 0, "fusion_lat": 0.0, "name": "321074630371e3a198b7919d9bc027eb", "fusion_lon": 0.0}, {"is_reserved": 0, "type": "electric_scooter", "bike_id": "f0f9b3f21fe6ecbedeb877c8526a6c94", "lat": 38.912612333333335, "lon": -77.03033116666667, "rental_uris": {"android": "https://dc.lft.to/lastmile_qr_scan", "ios": "https://dc.lft.to/lastmile_qr_scan"}, "is_disabled": 0, "fusion_lat": 0.0, "name": "f0f9b3f21fe6ecbedeb877c8526a6c94", "fusion_lon": 0.0}, {"is_reserved": 0, "type": "electric_scooter", "bike_id": "e987cc10b95dc9a16482956b1dc6b047", "lat": 38.895415, "lon": -77.01122366666667, "rental_uris": {"android": "https://dc.lft.to/lastmile_qr_scan", "ios": "https://dc.lft.to/lastmile_qr_scan"}, "is_disabled": 0, "fusion_lat": 0.0, "name": "e987cc10b95dc9a16482956b1dc6b047", "fusion_lon": 0.0}, {"is_reserved": 0, "type": "electric_scooter", "bike_id": "ff928e6190ac286da8a4ce07ef3eec81", "lat": 38.92089083333333, "lon": -77.03722, "rental_uris": {"android": "https://dc.lft.to/lastmile_qr_scan", "ios": "https://dc.lft.to/lastmile_qr_scan"}, "is_disabled": 0, "fusion_lat": 0.0, "name": "ff928e6190ac286da8a4ce07ef3eec81", "fusion_lon": 0.0}, {"is_reserved": 0, "type": "electric_scooter", "bike_id": "93e6407bc2d312567f6defaf7d192037", "lat": 38.899293, "lon": -77.02719816666666, "rental_uris": {"android": "https://dc.lft.to/lastmile_qr_scan", "ios": "https://dc.lft.to/lastmile_qr_scan"}, "is_disabled": 0, "fusion_lat": 0.0, "name": "93e6407bc2d312567f6defaf7d192037", "fusion_lon": 0.0}, {"is_reserved": 0, "type": "electric_scooter", "bike_id": "49c6fd92e2bec8cb740be7d1bb20f52c", "lat": 38.92411766666667, "lon": -77.02983683333333, "rental_uris": {"android": "https://dc.lft.to/lastmile_qr_scan", "ios": "https://dc.lft.to/lastmile_qr_scan"}, "is_disabled": 0, "fusion_lat": 0.0, "name": "49c6fd92e2bec8cb740be7d1bb20f52c", "fusion_lon": 0.0}, {"is_reserved": 0, "type": "electric_scooter", "bike_id": "a38e00d40ddf0d54562cc431fdf94f3e", "lat": 38.918184833333335, "lon": -77.03613316666667, "rental_uris": {"android": "https://dc.lft.to/lastmile_qr_scan", "ios": "https://dc.lft.to/lastmile_qr_scan"}, "is_disabled": 0, "fusion_lat": 0.0, "name": "a38e00d40ddf0d54562cc431fdf94f3e", "fusion_lon": 0.0}, {"is_reserved": 0, "type": "electric_scooter", "bike_id": "f1ecc3eaf2928df94e04e184ba0bf496", "lat": 38.88908716666667, "lon": -76.97732633333334, "rental_uris": {"android": "https://dc.lft.to/lastmile_qr_scan", "ios": "https://dc.lft.to/lastmile_qr_scan"}, "is_disabled": 0, "fusion_lat": 0.0, "name": "f1ecc3eaf2928df94e04e184ba0bf496", "fusion_lon": 0.0}, {"is_reserved": 0, "type": "electric_scooter", "bike_id": "f59ab5aebdb631eae6cf69504e07af9a", "lat": 38.90041566666667, "lon": -77.00201716666666, "rental_uris": {"android": "https://dc.lft.to/lastmile_qr_scan", "ios": "https://dc.lft.to/lastmile_qr_scan"}, "is_disabled": 0, "fusion_lat": 0.0, "name": "f59ab5aebdb631eae6cf69504e07af9a", "fusion_lon": 0.0},