{"data": {"bikes": [{"lat": 38.90944533333333, "is_disabled": 0, "type": "electric_scooter", "lon": -77.04484883333333, "bike_id": "864b86c5a776c67b8cc2e5d89924ee48", "fusion_lat": 0.0, "name": "864b86c5a776c67b8cc2e5d89924ee48", "is_reserved": 0, "rental_uris": {"android": "https://dc.lft.to/lastmile_qr_scan", "ios": "https://dc.lft.to/lastmile_qr_scan"}, "fusion_lon": 0.0}, {"lat": 38.93018933333333, "is_disabled": 0, "type": "electric_scooter", "lon": -77.0232595, "bike_id": "94ffd380aa3e88d256594cafd3280fed", "fusion_lat": 0.0, "name": "94ffd380aa3e88d256594cafd3280fed", "is_reserved": 0, "rental_uris": {"android": "https://dc.lft.to/lastmile_qr_scan", "ios": "https://dc.lft.to/lastmile_qr_scan"}, "fusion_lon": 0.0}, {"lat": 38.88489766666667, "is_disabled": 0, "type": "electric_scooter", "lon": -77.00707983333334, "bike_id": "2b77ffbb0f78c75f6f9cb7c0e4794979", "fusion_lat": 0.0, "name": "2b77ffbb0f78c75f6f9cb7c0e4794979", "is_reserved": 0, "rental_uris": {"android": "https://dc.lft.to/lastmile_qr_scan", "ios": "https://dc.lft.to/lastmile_qr_scan"}, "fusion_lon": 0.0}, {"lat": 38.9238315, "is_disabled": 0, "type": "electric_scooter", "lon": -77.027434, "bike_id": "d38e13d17000b1fb2846a66f16284b83", "fusion_lat": 0.0, "name": "d38e13d17000b1fb2846a66f16284b83", "is_reserved": 0, "rental_uris": {"android": "https://dc.lft.to/lastmile_qr_scan", "ios": "https://dc.lft.to/lastmile_qr_scan"}, "fusion_lon": 0.0}, {"lat": 38.879683, "is_disabled": 0, "type": "electric_scooter", "lon": -76.98739633333334, "bike_id": "c0218e1f9aad03e7440991dc519a4bdc", "fusion_lat": 0.0, "name": "c0218e1f9aad03e7440991dc519a4bdc", "is_reserved": 0, "rental_uris": {"android": "https://dc.lft.to/lastmile_qr_scan", "ios": "https://dc.lft.to/lastmile_qr_scan"}, "fusion_lon": 0.0}, {"lat": 38.92853983333333, "is_disabled": 0, "type": "electric_scooter", "lon": -77.031026, "bike_id": "3d0c8d024c290be0e037abf0b1a1fae6", "fusion_lat": 0.0, "name": "3d0c8d024c290be0e037abf0b1a1fae6", "is_reserved": 0, "rental_uris": {"android": "https://dc.lft.to/lastmile_qr_scan", "ios": "https://dc.lft.to/lastmile_qr_scan"}, "fusion_lon": 0.0}, {"lat": 38.9170695, "is_disabled": 0, "type": "electric_scooter", "lon": -77.03245066666666, "bike_id": "790f31f0c70ef03bc938870c559e5328", "fusion_lat": 0.0, "name": "790f31f0c70ef03bc938870c559e5328", "is_reserved": 0, "rental_uris": {"android": "https://dc.lft.to/lastmile_qr_scan", "ios": "https://dc.lft.to/lastmile_qr_scan"}, "fusion_lon": 0.0}, {"lat": 38.92496716666667, "is_disabled": 0, "type": "electric_scooter", "lon": -77.07321566666667, "bike_id": "94a5bf94d78632bab2b2e8fa10c94057", "fusion_lat": 0.0, "name": "94a5bf94d78632bab2b2e8fa10c94057", "is_reserved": 0, "rental_uris": {"android": "https://dc.lft.to/lastmile_qr_scan", "ios": "https://dc.lft.to/lastmile_qr_scan"}, "fusion_lon": 0.0}, {"lat": 38.84292966666667, "is_disabled": 0, "type": "electric_scooter", "lon": -76.999486, "bike_id": "4dff7995ad0a68b51f028123f0ba830b", "fusion_lat": 0.0, "name": "4dff7995ad0a68b51f028123f0ba830b", "is_reserved": 0, "rental_uris": {"android": "https://dc.lft.to/lastmile_qr_scan", "ios": "https://dc.lft.to/lastmile_qr_scan"}, "fusion_lon": 0.0}, {"lat": 38.9283895, "is_disabled": 0, "type": "electric_scooter", "lon": -77.01405283333334, "bike_id": "9eb8aecc99b7fc2e93c2b0663fb044a0", "fusion_lat": 0.0, "name": "9eb8aecc99b7fc2e93c2b0663fb044a0", "is_reserved": 0, "rental_uris": {"android": "https://dc.lft.to/lastmile_qr_scan", "ios": "https://dc.lft.to/lastmile_qr_scan"}, "fusion_lon": 0.0}, {"lat": 38.88448866666667, "is_disabled": 0, "type": "electric_scooter", "lon": -77.00055216666667, "bike_id": "a3bd04b36e738e3c288712abb244e47b", "fusion_lat": 0.0, "name": "a3bd04b36e738e3c288712abb244e47b", "is_reserved": 0, "rental_uris": {"android": "https://dc.lft.to/lastmile_qr_scan", "ios": "https://dc.lft.to/lastmile_qr_scan"}, "fusion_lon": 0.0}, {"lat": 38.905233333333335, "is_disabled": 0, "type": "electric_scooter", "lon": -77.06450416666667, "bike_id": "ea3f94ec32ea2fccc300c48aaf107d10", "fusion_lat": 0.0, "name": "ea3f94ec32ea2fccc300c48aaf107d10", "is_reserved": 0, "rental_uris": {"android": "https://dc.lft.to/lastmile_qr_scan", "ios": "https://dc.lft.to/lastmile_qr_scan"}, "fusion_lon": 0.0}, {"lat": 38.922104166666664, "is_disabled": 0, "type": "electric_scooter", "lon": -77.037799, "bike_id": "9a76b54b0b38e729e547d368326e5f54", "fusion_lat": 0.0, "name": "9a76b54b0b38e729e547d368326e5f54", "is_reserved": 0, "rental_uris": {"android": "https://dc.lft.to/lastmile_qr_scan", "ios": "https://dc.lft.to/lastmile_qr_scan"}, "fusion_lon": 0.0}, {"lat": 38.9155655, "is_disabled": 0, "type": "electric_scooter", "lon": -77.04177783333333, "bike_id": "6adbb8fbc03a2f9d553b4caae0da2fcf", "fusion_lat": 0.0, "name": "6adbb8fbc03a2f9d553b4caae0da2fcf", "is_reserved": 0, "rental_uris": {"android": "https://dc.lft.to/lastmile_qr_scan", "ios": "https://dc.lft.to/lastmile_qr_scan"}, "fusion_lon": 0.0}, {"lat": 38.91692716666667, "is_disabled": 0, "type": "electric_scooter", "lon": -77.0296425, "bike_id": "b152febc7fda87d184c034da1eb3b127", "fusion_lat": 0.0, "name": "b152febc7fda87d184c034da1eb3b127", "is_reserved": 0, "rental_uris": {"android": "https://dc.lft.to/lastmile_qr_scan", "ios": "https://dc.lft.to/lastmile_qr_scan"}, "fusion_lon": 0.0}, {"lat": 38.8670175, "is_disabled": 0, "type": "electric_scooter", "lon": -76.98712883333333, "bike_id": "509d68f0813cee45b8a0a22545facf22", "fusion_lat": 0.0, "name": "509d68f0813cee45b8a0a22545facf22", "is_reserved": 0, "rental_uris": {"android": "https://dc.lft.to/lastmile_qr_scan", "ios": "https://dc.lft.to/lastmile_qr_scan"}, "fusion_lon": 0.0}, {"lat": 38.899912, "is_disabled": 0, "type": "electric_scooter", "lon": -77.02153866666667, "bike_id": "ee805405e411e76507aec8f800cf3c21", "fusion_lat": 0.0, "name": "ee805405e411e76507aec8f800cf3c21", "is_reserved": 0, "rental_uris": {"android": "https://dc.lft.to/lastmile_qr_scan", "ios": "https://dc.lft.to/lastmile_qr_scan"}, "fusion_lon": 0.0}, {"lat": 38.925311666666666, "is_disabled": 0, "type": "electric_scooter", "lon": -77.04428916666667, "bike_id": "1e914fa48ead97bac05fef080d59338b", "fusion_lat": 0.0, "name": "1e914fa48ead97bac05fef080d59338b", "is_reserved": 0, "rental_uris": {"android": "https://dc.lft.to/lastmile_qr_scan", "ios": "https://dc.lft.to/lastmile_qr_scan"}, "fusion_lon": 0.0}, {"lat": 38.90087466666667, "is_disabled": 0, "type": "electric_scooter", "lon": -77.01808233333334, "bike_id": "bad9e25423d65f13d08335a83d33ea7d", "fusion_lat": 0.0, "name": "bad9e25423d65f13d08335a83d33ea7d", "is_reserved": 0, "rental_uris": {"android": "https://dc.lft.to/lastmile_qr_scan", "ios": "https://dc.lft.to/lastmile_qr_scan"}, "fusion_lon": 0.0}, {"lat": 38.90038066666666, "is_disabled": 0, "type": "electric_scooter", "lon": -76.9937935, "bike_id": "90973a91f1c2bc015b8422e48bb50aaa", "fusion_lat": 0.0, "name": "90973a91f1c2bc015b8422e48bb50aaa", "is_reserved": 0, "rental_uris": {"android": "https://dc.lft.to/lastmile_qr_scan", "ios": "https://dc.lft.to/lastmile_qr_scan"}, "fusion_lon": 0.0}, {"lat": 38.909048, "is_disabled": 0, "type": "electric_scooter", "lon": -77.031482, "bike_id": "cde4cf65b15a8a9a4a216d9ad3d2d11c", "fusion_lat": 0.0, "name": "cde4cf65b15a8a9a4a216d9ad3d2d11c", "is_reserved": 0, "rental_uris": {"android": "https://dc.lft.to/lastmile_qr_scan", "ios": "https://dc.lft.to/lastmile_qr_scan"}, "fusion_lon": 0.0}, {"lat": 38.92260616666667, "is_disabled": 0, "type": "electric_scooter", "lon": -77.04300816666667, "bike_id": "6a346f50658b55484a8b2e46c46477b2", "fusion_lat": 0.0, "name": "6a346f50658b55484a8b2e46c46477b2", "is_reserved": 0, "rental_uris": {"android": "https://dc.lft.to/lastmile_qr_scan", "ios": "https://dc.lft.to/lastmile_qr_scan"}, "fusion_lon": 0.0}, {"lat": 38.917940333333334, "is_disabled": 0, "type": "electric_scooter", "lon": -77.0404355, "bike_id": "40294c4b98370b8a0f131d2cf501b041", "fusion_lat": 0.0, "name": "40294c4b98370b8a0f131d2cf501b041", "is_reserved": 0, "rental_uris": {"android": "https://dc.lft.to/lastmile_qr_scan", "ios": "https://dc.lft.to/lastmile_qr_scan"}, "fusion_lon": 0.0}, {"lat": 38.914884666666666, "is_disabled": 0, "type": "electric_scooter", "lon": -77.03262483333333, "bike_id": "0c77104121c212138174e07a5c876994", "fusion_lat": 0.0, "name": "0c77104121c212138174e07a5c876994", "is_reserved": 0, "rental_uris": {"android": "https://dc.lft.to/lastmile_qr_scan", "ios": "https://dc.lft.to/lastmile_qr_scan"}, "fusion_lon": 0.0}, {"lat": 38.91646716666666, "is_disabled": 0, "type": "electric_scooter", "lon": -77.04783, "bike_id": "e836ffd44f7009246c358829ca46d9fa", "fusion_lat": 0.0, "name": "e836ffd44f7009246c358829ca46d9fa", "is_reserved": 0, "rental_uris": {"android": "https://dc.lft.to/lastmile_qr_scan", "ios": "https://dc.lft.to/lastmile_qr_scan"}, "fusion_lon": 0.0}, {"lat": 38.9112745, "is_disabled": 0, "type": "electric_scooter", "lon": -77.03844066666667, "bike_id": "a075dc9705e99a31095d446bafe2556c", "fusion_lat": 0.0, "name": "a075dc9705e99a31095d446bafe2556c", "is_reserved": 0, "rental_uris": {"android": "https://dc.lft.to/lastmile_qr_scan", "ios": "https://dc.lft.to/lastmile_qr_scan"}, "fusion_lon": 0.0}, {"lat": 38.93634516666667, "is_disabled": 0, "type": "electric_scooter", "lon": -77.02504316666666, "bike_id": "47a064620a2cb4eebedb190632394cb1", "fusion_lat": 0.0, "name": "47a064620a2cb4eebedb190632394cb1", "is_reserved": 0, "rental_uris": {"android": "https://dc.lft.to/lastmile_qr_scan", "ios": "https://dc.lft.to/lastmile_qr_scan"}, "fusion_lon": 0.0}, {"lat": 38.93084533333333, "is_disabled": 0, "type": "electric_scooter", "lon": -77.03741616666667, "bike_id": "27d479bb0d1b087efcaa2ee06affd2f5", "fusion_lat": 0.0, "name": "27d479bb0d1b087efcaa2ee06affd2f5", "is_reserved": 0, "rental_uris": {"android": "https://dc.lft.to/lastmile_qr_scan", "ios": "https://dc.lft.to/lastmile_qr_scan"}, "fusion_lon": 0.0}, {"lat": 38.89356216666667, "is_disabled": 0, "type": "electric_scooter", "lon": -77.04136066666666, "bike_id": "ca8450fce059e0cf2812e10cef037fd4", "fusion_lat": 0.0, "name": "ca8450fce059e0cf2812e10cef037fd4", "is_reserved": 0, "rental_uris": {"android": "https://dc.lft.to/lastmile_qr_scan", "ios": "https://dc.lft.to/lastmile_qr_scan"}, "fusion_lon": 0.0}, {"lat": 38.9007075, "is_disabled": 0, "type": "electric_scooter", "lon": -77.0260835, "bike_id": "cc29ba706b4e600994a43898fc4b2607", "fusion_lat": 0.0, "name": "cc29ba706b4e600994a43898fc4b2607", "is_reserved": 0, "rental_uris": {"android": "https://dc.lft.to/lastmile_qr_scan", "ios": "https://dc.lft.to/lastmile_qr_scan"}, "fusion_lon": 0.0}, {"lat": 38.91713, "is_disabled": 0, "type": "electric_scooter", "lon": -77.032519, "bike_id": "4c21936f954a4c0ab8690ea5d3a55b99", "fusion_lat": 0.0, "name": "4c21936f954a4c0ab8690ea5d3a55b99", "is_reserved": 0, "rental_uris": {"android": "https://dc.lft.to/lastmile_qr_scan", "ios": "https://dc.lft.to/lastmile_qr_scan"}, "fusion_lon": 0.0}, {"lat": 38.91120183333334, "is_disabled": 0, "type": "electric_scooter", "lon": -77.00330566666666, "bike_id": "236935cb231de517506e4eb3551e9a58", "fusion_lat": 0.0, "name": "236935cb231de517506e4eb3551e9a58", "is_reserved": 0, "rental_uris": {"android": "https://dc.lft.to/lastmile_qr_scan", "ios": "https://dc.lft.to/lastmile_qr_scan"}, "fusion_lon": 0.0}, {"lat": 38.9329975, "is_disabled": 0, "type": "electric_scooter", "lon": -77.02795066666667, "bike_id": "57160de6c30b4d2dd3e16532dbe9edae", "fusion_lat": 0.0, "name": "57160de6c30b4d2dd3e16532dbe9edae", "is_reserved": 0, "rental_uris": {"android": "https://dc.lft.to/lastmile_qr_scan", "ios": "https://dc.lft.to/lastmile_qr_scan"}, "fusion_lon": 0.0}, {"lat": 38.905320333333336, "is_disabled": 0, "type": "electric_scooter", "lon": -77.04177083333333, "bike_id": "f8c7fe44d87ba04bc5db657b464972ed", "fusion_lat": 0.0, "name": "f8c7fe44d87ba04bc5db657b464972ed", "is_reserved": 0, "rental_uris": {"android": "https://dc.lft.to/lastmile_qr_scan", "ios": "https://dc.lft.to/lastmile_qr_scan"}, "fusion_lon": 0.0}, {"lat": 38.9170005, "is_disabled": 0, "type": "electric_scooter", "lon": -77.04277366666666, "bike_id": "0d6b269ddd747c5f234a485c7f11f07a", "fusion_lat": 0.0, "name": "0d6b269ddd747c5f234a485c7f11f07a", "is_reserved": 0, "rental_uris": {"android": "https://dc.lft.to/lastmile_qr_scan", "ios": "https://dc.lft.to/lastmile_qr_scan"}, "fusion_lon": 0.0}, {"lat": 38.91004566666667, "is_disabled": 0, "type": "electric_scooter", "lon": -77.01509966666667, "bike_id": "a21975de2bf97004479f02260249035e", "fusion_lat": 0.0, "name": "a21975de2bf97004479f02260249035e", "is_reserved": 0, "rental_uris": {"android": "https://dc.lft.to/lastmile_qr_scan", "ios": "https://dc.lft.to/lastmile_qr_scan"}, "fusion_lon": 0.0}, {"lat": 38.936012166666664, "is_disabled": 0, "type": "electric_scooter", "lon": -77.03663533333334, "bike_id": "8749e251cf6f062d66ed7ed8fdd9d621", "fusion_lat": 0.0, "name": "8749e251cf6f062d66ed7ed8fdd9d621", "is_reserved": 0, "rental_uris": {"android": "https://dc.lft.to/lastmile_qr_scan", "ios": "https://dc.lft.to/lastmile_qr_scan"}, "fusion_lon": 0.0}, {"lat": 38.906879, "is_disabled": 0, "type": "electric_scooter", "lon": -77.01013333333333, "bike_id": "99fc3dcdc3b2ebbe4a192ebc24de5ca8", "fusion_lat": 0.0, "name": "99fc3dcdc3b2ebbe4a192ebc24de5ca8", "is_reserved": 0, "rental_uris": {"android": "https://dc.lft.to/lastmile_qr_scan", "ios": "https://dc.lft.to/lastmile_qr_scan"}, "fusion_lon": 0.0}, {"lat": 38.911035166666665, "is_disabled": 0, "type": "electric_scooter", "lon": -77.0420555, "bike_id": "f109f92303e8e788b0574e1902cdf31c", "fusion_lat": 0.0, "name": "f109f92303e8e788b0574e1902cdf31c", "is_reserved": 0, "rental_uris": {"android": "https://dc.lft.to/lastmile_qr_scan", "ios": "https://dc.lft.to/lastmile_qr_scan"}, "fusion_lon": 0.0}, {"lat": 38.924624333333334, "is_disabled": 0, "type": "electric_bike", "lon": -77.208463, "bike_id": "f296b0f4ac889a4ff3f3302c859ef825", "fusion_lat": 0.0, "name": "f296b0f4ac889a4ff3f3302c859ef825", "is_reserved": 0, "rental_uris": {"android": "https://dc.lft.to/lastmile_qr_scan", "ios": "https://dc.lft.to/lastmile_qr_scan"}, "fusion_lon": 0.0}, {"lat": 38.842552, "is_disabled": 0, "type": "electric_bike", "lon": -77.05832266666667, "bike_id": "780b57ead241b44f72ee63329f759934", "fusion_lat": 0.0, "name": "780b57ead241b44f72ee63329f759934", "is_reserved": 0, "rental_uris": {"android": "https://dc.lft.to/lastmile_qr_scan", "ios": "https://dc.lft.to/lastmile_qr_scan"}, "fusion_lon": 0.0}, {"lat": 38.9083125, "is_disabled": 0, "type": "electric_scooter", "lon": -76.99703333333333, "bike_id": "e1ac4c6fe30edd5d3bf9099083c16197", "fusion_lat": 0.0, "name": "e1ac4c6fe30edd5d3bf9099083c16197", "is_reserved": 0, "rental_uris": {"android": "https://dc.lft.to/lastmile_qr_scan", "ios": "https://dc.lft.to/lastmile_qr_scan"}, "fusion_lon": 0.0}, {"lat": 38.90783283333333, "is_disabled": 0, "type": "electric_scooter", "lon": -77.0422735, "bike_id": "d8749fcab662badc205fa9c2b44c583a", "fusion_lat": 0.0, "name": "d8749fcab662badc205fa9c2b44c583a", "is_reserved": 0, "rental_uris": {"android": "https://dc.lft.to/lastmile_qr_scan", "ios": "https://dc.lft.to/lastmile_qr_scan"}, "fusion_lon": 0.0}, {"lat": 38.8973315, "is_disabled": 0, "type": "electric_scooter", "lon": -77.02155516666667, "bike_id": "89e798cc06518590b071929e301cb79b", "fusion_lat": 0.0, "name": "89e798cc06518590b071929e301cb79b", "is_reserved": 0, "rental_uris": {"android": "https://dc.lft.to/lastmile_qr_scan", "ios": "https://dc.lft.to/lastmile_qr_scan"}, "fusion_lon": 0.0}, {"lat": 38.922105333333334, "is_disabled": 0, "type": "electric_scooter", "lon": -77.04019183333334, "bike_id": "d3dac926e112804c674e98b4b14c72df", "fusion_lat": 0.0, "name": "d3dac926e112804c674e98b4b14c72df", "is_reserved": 0, "rental_uris": {"android": "https://dc.lft.to/lastmile_qr_scan", "ios": "https://dc.lft.to/lastmile_qr_scan"}, "fusion_lon": 0.0}, {"lat": 38.907338833333334, "is_disabled": 0, "type": "electric_scooter", "lon": -77.029728, "bike_id": "6bbd70e89156c8bcf13adedcc4b46a8a", "fusion_lat": 0.0, "name": "6bbd70e89156c8bcf13adedcc4b46a8a", "is_reserved": 0, "rental_uris": {"android": "https://dc.lft.to/lastmile_qr_scan", "ios": "https://dc.lft.to/lastmile_qr_scan"}, "fusion_lon": 0.0}, {"lat": 38.890442666666665, "is_disabled": 0, "type": "electric_scooter", "lon": -76.95141183333334, "bike_id": "fbff43270b6f4408ccbb5d572c2e80fd", "fusion_lat": 0.0, "name": "fbff43270b6f4408ccbb5d572c2e80fd", "is_reserved": 0, "rental_uris": {"android": "https://dc.lft.to/lastmile_qr_scan", "ios": "https://dc.lft.to/lastmile_qr_scan"}, "fusion_lon": 0.0}, {"lat": 38.869066333333336, "is_disabled": 0, "type": "electric_bike", "lon": -77.13176333333334, "bike_id": "e4f0e832983c85812a4c67a740a19abf", "fusion_lat": 0.0, "name": "e4f0e832983c85812a4c67a740a19abf", "is_reserved": 0, "rental_uris": {"android": "https://dc.lft.to/lastmile_qr_scan", "ios": "https://dc.lft.to/lastmile_qr_scan"}, "fusion_lon": 0.0}, {"lat": 38.804671, "is_disabled": 0, "type": "electric_bike", "lon": -77.06077816666667, "bike_id": "915f9733bbf072b41af5be9288253d16", "fusion_lat": 0.0, "name": "915f9733bbf072b41af5be9288253d16", "is_reserved": 0, "rental_uris": {"android": "https://dc.lft.to/lastmile_qr_scan", "ios": "https://dc.lft.to/lastmile_qr_scan"}, "fusion_lon": 0.0}, {"lat": 38.90550183333333, "is_disabled": 0, "type": "electric_scooter", "lon": -77.05707933333333, "bike_id": "5aa87ba3460e6967518161c95e407437", "fusion_lat": 0.0, "name": "5aa87ba3460e6967518161c95e407437", "is_reserved": 0, "rental_uris": {"android": "https://dc.lft.to/lastmile_qr_scan", "ios": "https://dc.lft.to/lastmile_qr_scan"}, "fusion_lon": 0.0}, {"lat": 38.899038833333336, "is_disabled": 0, "type": "electric_scooter", "lon": -77.0327255, "bike_id": "20da75d655b574fd44fba02fa1fcf30e", "fusion_lat": 0.0, "name": "20da75d655b574fd44fba02fa1fcf30e", "is_reserved": 0, "rental_uris": {"android": "https://dc.lft.to/lastmile_qr_scan", "ios": "https://dc.lft.to/lastmile_qr_scan"}, "fusion_lon": 0.0}, {"lat": 39.015776333333335, "is_disabled": 0, "type": "electric_bike", "lon": -77.04239833333334, "bike_id": "6d0594a69902cb1ccb182a6d6205dd0d", "fusion_lat": 0.0, "name": "6d0594a69902cb1ccb182a6d6205dd0d", "is_reserved": 0, "rental_uris": {"android": "https://dc.lft.to/lastmile_qr_scan", "ios": "https://dc.lft.to/lastmile_qr_scan"}, "fusion_lon": 0.0}, {"lat": 38.91200533333333, "is_disabled": 0, "type": "electric_scooter", "lon": -77.04503016666666, "bike_id": "423e8781cdcfb632d14929531fa21fcb", "fusion_lat": 0.0, "name": "423e8781cdcfb632d14929531fa21fcb", "is_reserved": 0, "rental_uris": {"android": "https://dc.lft.to/lastmile_qr_scan", "ios": "https://dc.lft.to/lastmile_qr_scan"}, "fusion_lon": 0.0}, {"lat": 38.914129333333335, "is_disabled": 0, "type": "electric_scooter", "lon": -77.02564016666666, "bike_id": "48087ddeb428e7722e6b4f544bde8380", "fusion_lat": 0.0, "name": "48087ddeb428e7722e6b4f544bde8380", "is_reserved": 0, "rental_uris": {"android": "https://dc.lft.to/lastmile_qr_scan", "ios": "https://dc.lft.to/lastmile_qr_scan"}, "fusion_lon": 0.0}, {"lat": 38.920730166666665, "is_disabled": 0, "type": "electric_scooter", "lon": -77.03203616666667, "bike_id": "8dc5c4a8dd8b19172bf7d859fffc3c09", "fusion_lat": 0.0, "name": "8dc5c4a8dd8b19172bf7d859fffc3c09", "is_reserved": 0, "rental_uris": {"android": "https://dc.lft.to/lastmile_qr_scan", "ios": "https://dc.lft.to/lastmile_qr_scan"}, "fusion_lon": 0.0}, {"lat": 38.9588095, "is_disabled": 0, "type": "electric_bike", "lon": -77.01035483333334, "bike_id": "fa22de4418d6af60ccbfd9353587b4a7", "fusion_lat": 0.0, "name": "fa22de4418d6af60ccbfd9353587b4a7", "is_reserved": 0, "rental_uris": {"android": "https://dc.lft.to/lastmile_qr_scan", "ios": "https://dc.lft.to/lastmile_qr_scan"}, "fusion_lon": 0.0}, {"lat": 38.954024, "is_disabled": 0, "type": "electric_scooter", "lon": -77.036291, "bike_id": "c2adb9992a7f39cab8d6bb6e73244a60", "fusion_lat": 0.0, "name": "c2adb9992a7f39cab8d6bb6e73244a60", "is_reserved": 0, "rental_uris": {"android": "https://dc.lft.to/lastmile_qr_scan", "ios": "https://dc.lft.to/lastmile_qr_scan"}, "fusion_lon": 0.0}, {"lat": 38.92031683333333, "is_disabled": 0, "type": "electric_scooter", "lon": -77.01814983333334, "bike_id": "057ff02635d3d6d494392c17c9d64ac1", "fusion_lat": 0.0, "name": "057ff02635d3d6d494392c17c9d64ac1", "is_reserved": 0, "rental_uris": {"android": "https://dc.lft.to/lastmile_qr_scan", "ios": "https://dc.lft.to/lastmile_qr_scan"}, "fusion_lon": 0.0}, {"lat": 38.920955666666664, "is_disabled": 0, "type": "electric_scooter", "lon": -77.0423235, "bike_id": "ec677046ac4ffc80f96e4e0048a7f111", "fusion_lat": 0.0, "name": "ec677046ac4ffc80f96e4e0048a7f111", "is_reserved": 0, "rental_uris": {"android": "https://dc.lft.to/lastmile_qr_scan", "ios": "https://dc.lft.to/lastmile_qr_scan"}, "fusion_lon": 0.0}, {"lat": 38.905043, "is_disabled": 0, "type": "electric_scooter", "lon": -77.028125, "bike_id": "b32de6ebce8e80ff5fe310a910f5a4ba", "fusion_lat": 0.0, "name": "b32de6ebce8e80ff5fe310a910f5a4ba", "is_reserved": 0, "rental_uris": {"android": "https://dc.lft.to/lastmile_qr_scan", "ios": "https://dc.lft.to/lastmile_qr_scan"}, "fusion_lon": 0.0}, {"lat": 38.95573566666667, "is_disabled": 0, "type": "electric_scooter", "lon": -77.070082, "bike_id": "fe64b3c68a4e3986d101b1d7aa8bd186", "fusion_lat": 0.0, "name": "fe64b3c68a4e3986d101b1d7aa8bd186", "is_reserved": 0, "rental_uris": {"android": "https://dc.lft.to/lastmile_qr_scan", "ios": "https://dc.lft.to/lastmile_qr_scan"}, "fusion_lon": 0.0}, {"lat": 38.915635333333334, "is_disabled": 0, "type": "electric_scooter", "lon": -77.0317045, "bike_id": "11b13bb21ddb17a42f817d26ddc1f044", "fusion_lat": 0.0, "name": "11b13bb21ddb17a42f817d26ddc1f044", "is_reserved": 0, "rental_uris": {"android": "https://dc.lft.to/lastmile_qr_scan", "ios": "https://dc.lft.to/lastmile_qr_scan"}, "fusion_lon": 0.0}, {"lat": 38.91051383333333, "is_disabled": 0, "type": "electric_scooter", "lon": -77.01513883333334, "bike_id": "eb4da4dab473503923df8477ee21fc08", "fusion_lat": 0.0, "name": "eb4da4dab473503923df8477ee21fc08", "is_reserved": 0, "rental_uris": {"android": "https://dc.lft.to/lastmile_qr_scan", "ios": "https://dc.lft.to/lastmile_qr_scan"}, "fusion_lon": 0.0}, {"lat": 38.90140133333333, "is_disabled": 0, "type": "electric_scooter", "lon": -77.04195883333334, "bike_id": "0353a48e318c3f8f501ffefa4e5c4081", "fusion_lat": 0.0, "name": "0353a48e318c3f8f501ffefa4e5c4081", "is_reserved": 0, "rental_uris": {"android": "https://dc.lft.to/lastmile_qr_scan", "ios": "https://dc.lft.to/lastmile_qr_scan"}, "fusion_lon": 0.0}, {"lat": 38.859227, "is_disabled": 0, "type": "electric_scooter", "lon": -76.9898165, "bike_id": "8a34dbc3187fd797a3aaafcec56e6800", "fusion_lat": 0.0, "name": "8a34dbc3187fd797a3aaafcec56e6800", "is_reserved": 0, "rental_uris": {"android": "https://dc.lft.to/lastmile_qr_scan", "ios": "https://dc.lft.to/lastmile_qr_scan"}, "fusion_lon": 0.0}, {"lat": 38.920606166666666, "is_disabled": 0, "type": "electric_scooter", "lon": -77.03165666666666, "bike_id": "a0ea4c7387091122ef8ca4f759f2a369", "fusion_lat": 0.0, "name": "a0ea4c7387091122ef8ca4f759f2a369", "is_reserved": 0, "rental_uris": {"android": "https://dc.lft.to/lastmile_qr_scan", "ios": "https://dc.lft.to/lastmile_qr_scan"}, "fusion_lon": 0.0}, {"lat": 38.930666, "is_disabled": 0, "type": "electric_scooter", "lon": -77.04025466666667, "bike_id": "fafbabe7845b6af6be7e280810aabb52", "fusion_lat": 0.0, "name": "fafbabe7845b6af6be7e280810aabb52", "is_reserved": 0, "rental_uris": {"android": "https://dc.lft.to/lastmile_qr_scan", "ios": "https://dc.lft.to/lastmile_qr_scan"}, "fusion_lon": 0.0}, {"lat": 38.92360816666667, "is_disabled": 0, "type": "electric_scooter", "lon": -77.050239, "bike_id": "48549891f2afc17f96bd30e0f9569999", "fusion_lat": 0.0, "name": "48549891f2afc17f96bd30e0f9569999", "is_reserved": 0, "rental_uris": {"android": "https://dc.lft.to/lastmile_qr_scan", "ios": "https://dc.lft.to/lastmile_qr_scan"}, "fusion_lon": 0.0}, {"lat": 38.92767083333333, "is_disabled": 0, "type": "electric_scooter", "lon": -77.02794766666666, "bike_id": "046fd6ea854299c2a912d872ac75dd42", "fusion_lat": 0.0, "name": "046fd6ea854299c2a912d872ac75dd42", "is_reserved": 0, "rental_uris": {"android": "https://dc.lft.to/lastmile_qr_scan", "ios": "https://dc.lft.to/lastmile_qr_scan"}, "fusion_lon": 0.0}, {"lat": 38.915681666666664, "is_disabled": 0, "type": "electric_scooter", "lon": -77.031741, "bike_id": "9338e63126b71e13e49ef099ea9ff8cc", "fusion_lat": 0.0, "name": "9338e63126b71e13e49ef099ea9ff8cc", "is_reserved": 0, "rental_uris": {"android": "https://dc.lft.to/lastmile_qr_scan", "ios": "https://dc.lft.to/lastmile_qr_scan"}, "fusion_lon": 0.0}, {"lat": 38.870725166666666, "is_disabled": 0, "type": "electric_bike", "lon": -76.97841566666666, "bike_id": "f24fb6b900e28450e3f54f11bdb3e74d", "fusion_lat": 0.0, "name": "f24fb6b900e28450e3f54f11bdb3e74d", "is_reserved": 0, "rental_uris": {"android": "https://dc.lft.to/lastmile_qr_scan", "ios": "https://dc.lft.to/lastmile_qr_scan"}, "fusion_lon": 0.0}, {"lat": 38.920532333333334, "is_disabled": 0, "type": "electric_scooter", "lon": -77.04192816666666, "bike_id": "41f167049840f08f39268997b57b259b", "fusion_lat": 0.0, "name": "41f167049840f08f39268997b57b259b", "is_reserved": 0, "rental_uris": {"android": "https://dc.lft.to/lastmile_qr_scan", "ios": "https://dc.lft.to/lastmile_qr_scan"}, "fusion_lon": 0.0}, {"lat": 38.8903715, "is_disabled": 0, "type": "electric_scooter", "lon": -76.93753866666667, "bike_id": "a0acfd695a96607365a8b089bb44cb2b", "fusion_lat": 0.0, "name": "a0acfd695a96607365a8b089bb44cb2b", "is_reserved": 0, "rental_uris": {"android": "https://dc.lft.to/lastmile_qr_scan", "ios": "https://dc.lft.to/lastmile_qr_scan"}, "fusion_lon": 0.0}, {"lat": 38.91450233333333, "is_disabled": 0, "type": "electric_bike", "lon": -76.97276783333334, "bike_id": "d1f39fffbc4727d38a374182adc5d1a9", "fusion_lat": 0.0, "name": "d1f39fffbc4727d38a374182adc5d1a9", "is_reserved": 0, "rental_uris": {"android": "https://dc.lft.to/lastmile_qr_scan", "ios": "https://dc.lft.to/lastmile_qr_scan"}, "fusion_lon": 0.0}, {"lat": 38.932987, "is_disabled": 0, "type": "electric_scooter", "lon": -77.04534316666667, "bike_id": "6acb14c9fcaf3e9f2563730712b8f849", "fusion_lat": 0.0, "name": "6acb14c9fcaf3e9f2563730712b8f849", "is_reserved": 0, "rental_uris": {"android": "https://dc.lft.to/lastmile_qr_scan", "ios": "https://dc.lft.to/lastmile_qr_scan"}, "fusion_lon": 0.0}, {"lat": 38.928820333333334, "is_disabled": 0, "type": "electric_scooter", "lon": -77.03718866666667, "bike_id": "8c0dd5c45b8e946b2dd40e13f8f52c5b", "fusion_lat": 0.0, "name": "8c0dd5c45b8e946b2dd40e13f8f52c5b", "is_reserved": 0, "rental_uris": {"android": "https://dc.lft.to/lastmile_qr_scan", "ios": "https://dc.lft.to/lastmile_qr_scan"}, "fusion_lon": 0.0}, {"lat": 38.914621333333336, "is_disabled": 0, "type": "electric_scooter", "lon": -77.01431916666667, "bike_id": "a8aacbb4d55e9c673425b8357f568d15", "fusion_lat": 0.0, "name": "a8aacbb4d55e9c673425b8357f568d15", "is_reserved": 0, "rental_uris": {"android": "https://dc.lft.to/lastmile_qr_scan", "ios": "https://dc.lft.to/lastmile_qr_scan"}, "fusion_lon": 0.0}, {"lat": 38.878592, "is_disabled": 0, "type": "electric_scooter", "lon": -77.0176975, "bike_id": "4732a5cf3ac519bfba1843e3205bbbb4", "fusion_lat": 0.0, "name": "4732a5cf3ac519bfba1843e3205bbbb4", "is_reserved": 0, "rental_uris": {"android": "https://dc.lft.to/lastmile_qr_scan", "ios": "https://dc.lft.to/lastmile_qr_scan"}, "fusion_lon": 0.0}, {"lat": 38.88210633333333, "is_disabled": 0, "type": "electric_scooter", "lon": -76.989231, "bike_id": "2ad5a629abbc65e196a6f38e3d95189d", "fusion_lat": 0.0, "name": "2ad5a629abbc65e196a6f38e3d95189d", "is_reserved": 0, "rental_uris": {"android": "https://dc.lft.to/lastmile_qr_scan", "ios": "https://dc.lft.to/lastmile_qr_scan"}, "fusion_lon": 0.0}, {"lat": 38.90734283333333, "is_disabled": 0, "type": "electric_scooter", "lon": -77.02969866666666, "bike_id": "cd3cc391b95c5e30010f6a135bec5b20", "fusion_lat": 0.0, "name": "cd3cc391b95c5e30010f6a135bec5b20", "is_reserved": 0, "rental_uris": {"android": "https://dc.lft.to/lastmile_qr_scan", "ios": "https://dc.lft.to/lastmile_qr_scan"}, "fusion_lon": 0.0}, {"lat": 38.93323633333333, "is_disabled": 0, "type": "electric_scooter", "lon": -77.04527983333334, "bike_id": "9d55d177a12de64806fa4e2a29c36a7f", "fusion_lat": 0.0, "name": "9d55d177a12de64806fa4e2a29c36a7f", "is_reserved": 0, "rental_uris": {"android": "https://dc.lft.to/lastmile_qr_scan", "ios": "https://dc.lft.to/lastmile_qr_scan"}, "fusion_lon": 0.0}, {"lat": 38.903224333333334, "is_disabled": 0, "type": "electric_scooter", "lon": -77.03770083333333, "bike_id": "abdcdf3185f0f16cbbc6fa3580b96b50", "fusion_lat": 0.0, "name": "abdcdf3185f0f16cbbc6fa3580b96b50", "is_reserved": 0, "rental_uris": {"android": "https://dc.lft.to/lastmile_qr_scan", "ios": "https://dc.lft.to/lastmile_qr_scan"}, "fusion_lon": 0.0}, {"lat": 38.92340883333333, "is_disabled": 0, "type": "electric_scooter", "lon": -77.05029333333333, "bike_id": "7c1e445696d6e0713a9a3101bc5202d2", "fusion_lat": 0.0, "name": "7c1e445696d6e0713a9a3101bc5202d2", "is_reserved": 0, "rental_uris": {"android": "https://dc.lft.to/lastmile_qr_scan", "ios": "https://dc.lft.to/lastmile_qr_scan"}, "fusion_lon": 0.0}, {"lat": 38.920435499999996, "is_disabled": 0, "type": "electric_scooter", "lon": -77.04196166666667, "bike_id": "e2a9076fdfc932f0e3880b36150961d3", "fusion_lat": 0.0, "name": "e2a9076fdfc932f0e3880b36150961d3", "is_reserved": 0, "rental_uris": {"android": "https://dc.lft.to/lastmile_qr_scan", "ios": "https://dc.lft.to/lastmile_qr_scan"}, "fusion_lon": 0.0}, {"lat": 38.928417333333336, "is_disabled": 0, "type": "electric_scooter", "lon": -77.03325966666667, "bike_id": "3288c79cfa4c4bd3296e1a5888f9ccda", "fusion_lat": 0.0, "name": "3288c79cfa4c4bd3296e1a5888f9ccda", "is_reserved": 0, "rental_uris": {"android": "https://dc.lft.to/lastmile_qr_scan", "ios": "https://dc.lft.to/lastmile_qr_scan"}, "fusion_lon": 0.0}, {"lat": 38.908423666666664, "is_disabled": 0, "type": "electric_scooter", "lon": -76.99699683333333, "bike_id": "aad9e413b261bfdff41f289d22e075d7", "fusion_lat": 0.0, "name": "aad9e413b261bfdff41f289d22e075d7", "is_reserved": 0, "rental_uris": {"android": "https://dc.lft.to/lastmile_qr_scan", "ios": "https://dc.lft.to/lastmile_qr_scan"}, "fusion_lon": 0.0}, {"lat": 38.9224225, "is_disabled": 0, "type": "electric_scooter", "lon": -77.045753, "bike_id": "dbfa5ba898c346d2bcfc2a055a0abc83", "fusion_lat": 0.0, "name": "dbfa5ba898c346d2bcfc2a055a0abc83", "is_reserved": 0, "rental_uris": {"android": "https://dc.lft.to/lastmile_qr_scan", "ios": "https://dc.lft.to/lastmile_qr_scan"}, "fusion_lon": 0.0}, {"lat": 38.972327, "is_disabled": 0, "type": "electric_bike", "lon": -76.99341783333334, "bike_id": "66e5ed917f78b7f21354d3219b79651f", "fusion_lat": 0.0, "name": "66e5ed917f78b7f21354d3219b79651f", "is_reserved": 0, "rental_uris": {"android": "https://dc.lft.to/lastmile_qr_scan", "ios": "https://dc.lft.to/lastmile_qr_scan"}, "fusion_lon": 0.0}, {"lat": 38.93282166666667, "is_disabled": 0, "type": "electric_scooter", "lon": -77.0283015, "bike_id": "ea280ab61a566314fe6a72be2bebaaf3", "fusion_lat": 0.0, "name": "ea280ab61a566314fe6a72be2bebaaf3", "is_reserved": 0, "rental_uris": {"android": "https://dc.lft.to/lastmile_qr_scan", "ios": "https://dc.lft.to/lastmile_qr_scan"}, "fusion_lon": 0.0}, {"lat": 38.90853583333333, "is_disabled": 0, "type": "electric_scooter", "lon": -77.01970683333333, "bike_id": "563e3d0c4d791d666a57960aba37febf", "fusion_lat": 0.0, "name": "563e3d0c4d791d666a57960aba37febf", "is_reserved": 0, "rental_uris": {"android": "https://dc.lft.to/lastmile_qr_scan", "ios": "https://dc.lft.to/lastmile_qr_scan"}, "fusion_lon": 0.0}, {"lat": 38.89549733333333, "is_disabled": 0, "type": "electric_scooter", "lon": -77.00916, "bike_id": "085cfff978fd0690f47a2545fd6d0a45", "fusion_lat": 0.0, "name": "085cfff978fd0690f47a2545fd6d0a45", "is_reserved": 0, "rental_uris": {"android": "https://dc.lft.to/lastmile_qr_scan", "ios": "https://dc.lft.to/lastmile_qr_scan"}, "fusion_lon": 0.0}, {"lat": 38.8973855, "is_disabled": 0, "type": "electric_scooter", "lon": -77.02390483333333, "bike_id": "52050a34756c45506240412e67274576", "fusion_lat": 0.0, "name": "52050a34756c45506240412e67274576", "is_reserved": 0, "rental_uris": {"android": "https://dc.lft.to/lastmile_qr_scan", "ios": "https://dc.lft.to/lastmile_qr_scan"}, "fusion_lon": 0.0}, {"lat": 38.903768, "is_disabled": 0, "type": "electric_scooter", "lon": -76.99235416666667, "bike_id": "7741f05c2b74219cb65e58b8cc9d479c", "fusion_lat": 0.0, "name": "7741f05c2b74219cb65e58b8cc9d479c", "is_reserved": 0, "rental_uris": {"android": "https://dc.lft.to/lastmile_qr_scan", "ios": "https://dc.lft.to/lastmile_qr_scan"}, "fusion_lon": 0.0}, {"lat": 38.9347345, "is_disabled": 0, "type": "electric_scooter", "lon": -77.04115933333334, "bike_id": "cf159015fe9003f3e29cbe83a13c8400", "fusion_lat": 0.0, "name": "cf159015fe9003f3e29cbe83a13c8400", "is_reserved": 0, "rental_uris": {"android": "https://dc.lft.to/lastmile_qr_scan", "ios": "https://dc.lft.to/lastmile_qr_scan"}, "fusion_lon": 0.0}, {"lat": 38.924111833333335, "is_disabled": 0, "type": "electric_scooter", "lon": -77.04442483333334, "bike_id": "e68ddec45c4775bb5e8f29ac3dfb2f5c", "fusion_lat": 0.0, "name": "e68ddec45c4775bb5e8f29ac3dfb2f5c", "is_reserved": 0, "rental_uris": {"android": "https://dc.lft.to/lastmile_qr_scan", "ios": "https://dc.lft.to/lastmile_qr_scan"}, "fusion_lon": 0.0}, {"lat": 38.9154785, "is_disabled": 0, "type": "electric_scooter", "lon": -77.07423216666666, "bike_id": "d4ba7d1692106862e60ea193704a26c5", "fusion_lat": 0.0, "name": "d4ba7d1692106862e60ea193704a26c5", "is_reserved": 0, "rental_uris": {"android": "https://dc.lft.to/lastmile_qr_scan", "ios": "https://dc.lft.to/lastmile_qr_scan"}, "fusion_lon": 0.0}, {"lat": 38.909696833333335, "is_disabled": 0, "type": "electric_scooter", "lon": -76.996067, "bike_id": "087f259d2b7cea09333937d2faab6d73", "fusion_lat": 0.0, "name": "087f259d2b7cea09333937d2faab6d73", "is_reserved": 0, "rental_uris": {"android": "https://dc.lft.to/lastmile_qr_scan", "ios": "https://dc.lft.to/lastmile_qr_scan"}, "fusion_lon": 0.0}, {"lat": 38.89285516666666, "is_disabled": 0, "type": "electric_scooter", "lon": -76.95854033333333, "bike_id": "918fa3935abc531456ae1790b08bc145", "fusion_lat": 0.0, "name": "918fa3935abc531456ae1790b08bc145", "is_reserved": 0, "rental_uris": {"android": "https://dc.lft.to/lastmile_qr_scan", "ios": "https://dc.lft.to/lastmile_qr_scan"}, "fusion_lon": 0.0}, {"lat": 38.929532333333334, "is_disabled": 0, "type": "electric_scooter", "lon": -76.99088733333333, "bike_id": "3271052ae2415f6becd90431eaa9aeef", "fusion_lat": 0.0, "name": "3271052ae2415f6becd90431eaa9aeef", "is_reserved": 0, "rental_uris": {"android": "https://dc.lft.to/lastmile_qr_scan", "ios": "https://dc.lft.to/lastmile_qr_scan"}, "fusion_lon": 0.0}, {"lat": 38.887178166666665, "is_disabled": 0, "type": "electric_scooter", "lon": -76.99610866666667, "bike_id": "4d4703afd291e9532128635511c13a4d", "fusion_lat": 0.0, "name": "4d4703afd291e9532128635511c13a4d", "is_reserved": 0, "rental_uris": {"android": "https://dc.lft.to/lastmile_qr_scan", "ios": "https://dc.lft.to/lastmile_qr_scan"}, "fusion_lon": 0.0}, {"lat": 38.90681566666667, "is_disabled": 0, "type": "electric_scooter", "lon": -77.02716583333333, "bike_id": "c47b80e8574b6c1497c4c7e05ed5fe76", "fusion_lat": 0.0, "name": "c47b80e8574b6c1497c4c7e05ed5fe76", "is_reserved": 0, "rental_uris": {"android": "https://dc.lft.to/lastmile_qr_scan", "ios": "https://dc.lft.to/lastmile_qr_scan"}, "fusion_lon": 0.0}, {"lat": 38.89998683333334, "is_disabled": 0, "type": "electric_scooter", "lon": -76.99959383333334, "bike_id": "56d94ad42fdc4ecf493707aea3f5b91f", "fusion_lat": 0.0, "name": "56d94ad42fdc4ecf493707aea3f5b91f", "is_reserved": 0, "rental_uris": {"android": "https://dc.lft.to/lastmile_qr_scan", "ios": "https://dc.lft.to/lastmile_qr_scan"}, "fusion_lon": 0.0}, {"lat": 38.917668666666664, "is_disabled": 0, "type": "electric_scooter", "lon": -77.0149555, "bike_id": "8a546a7dd513571f369dadad3d5c56ea", "fusion_lat": 0.0, "name": "8a546a7dd513571f369dadad3d5c56ea", "is_reserved": 0, "rental_uris": {"android": "https://dc.lft.to/lastmile_qr_scan", "ios": "https://dc.lft.to/lastmile_qr_scan"}, "fusion_lon": 0.0}, {"lat": 38.9109985, "is_disabled": 0, "type": "electric_scooter", "lon": -77.03205433333333, "bike_id": "47053475daa7050563584c07e3d6e5fd", "fusion_lat": 0.0, "name": "47053475daa7050563584c07e3d6e5fd", "is_reserved": 0, "rental_uris": {"android": "https://dc.lft.to/lastmile_qr_scan", "ios": "https://dc.lft.to/lastmile_qr_scan"}, "fusion_lon": 0.0}, {"lat": 38.900419666666664, "is_disabled": 0, "type": "electric_scooter", "lon": -76.9950305, "bike_id": "1e6544435a62d8abff92c51a3f22827c", "fusion_lat": 0.0, "name": "1e6544435a62d8abff92c51a3f22827c", "is_reserved": 0, "rental_uris": {"android": "https://dc.lft.to/lastmile_qr_scan", "ios": "https://dc.lft.to/lastmile_qr_scan"}, "fusion_lon": 0.0}, {"lat": 38.83974633333333, "is_disabled": 0, "type": "electric_bike", "lon": -77.00571833333333, "bike_id": "b7be77b1f0b04b95c03b1530b8885aeb", "fusion_lat": 0.0, "name": "b7be77b1f0b04b95c03b1530b8885aeb", "is_reserved": 0, "rental_uris": {"android": "https://dc.lft.to/lastmile_qr_scan", "ios": "https://dc.lft.to/lastmile_qr_scan"}, "fusion_lon": 0.0}, {"lat": 38.90987033333333, "is_disabled": 0, "type": "electric_scooter", "lon": -76.98467883333333, "bike_id": "2e59d23ee7f1adaf4db2bbd947e197e5", "fusion_lat": 0.0, "name": "2e59d23ee7f1adaf4db2bbd947e197e5", "is_reserved": 0, "rental_uris": {"android": "https://dc.lft.to/lastmile_qr_scan", "ios": "https://dc.lft.to/lastmile_qr_scan"}, "fusion_lon": 0.0}, {"lat": 38.926824833333335, "is_disabled": 0, "type": "electric_scooter", "lon": -77.02116416666667, "bike_id": "bcfe2fe769d673ff6c3cff10f135215f", "fusion_lat": 0.0, "name": "bcfe2fe769d673ff6c3cff10f135215f", "is_reserved": 0, "rental_uris": {"android": "https://dc.lft.to/lastmile_qr_scan", "ios": "https://dc.lft.to/lastmile_qr_scan"}, "fusion_lon": 0.0}, {"lat": 38.90851766666667, "is_disabled": 0, "type": "electric_scooter", "lon": -76.9996365, "bike_id": "e8c62b41417823de40dfac0ebf268d4f", "fusion_lat": 0.0, "name": "e8c62b41417823de40dfac0ebf268d4f", "is_reserved": 0, "rental_uris": {"android": "https://dc.lft.to/lastmile_qr_scan", "ios": "https://dc.lft.to/lastmile_qr_scan"}, "fusion_lon": 0.0}, {"lat": 38.93341933333333, "is_disabled": 0, "type": "electric_scooter", "lon": -77.026239, "bike_id": "c5e8025922a9adda483ff3f470d9eec0", "fusion_lat": 0.0, "name": "c5e8025922a9adda483ff3f470d9eec0", "is_reserved": 0, "rental_uris": {"android": "https://dc.lft.to/lastmile_qr_scan", "ios": "https://dc.lft.to/lastmile_qr_scan"}, "fusion_lon": 0.0}, {"lat": 38.924035833333335, "is_disabled": 0, "type": "electric_scooter", "lon": -77.052556, "bike_id": "fad8fdc1940e186666ce98cef8c09f5d", "fusion_lat": 0.0, "name": "fad8fdc1940e186666ce98cef8c09f5d", "is_reserved": 0, "rental_uris": {"android": "https://dc.lft.to/lastmile_qr_scan", "ios": "https://dc.lft.to/lastmile_qr_scan"}, "fusion_lon": 0.0}, {"lat": 38.91602483333333, "is_disabled": 0, "type": "electric_scooter", "lon": -77.02151666666667, "bike_id": "a8693778e0928ac581480c2f434a009d", "fusion_lat": 0.0, "name": "a8693778e0928ac581480c2f434a009d", "is_reserved": 0, "rental_uris": {"android": "https://dc.lft.to/lastmile_qr_scan", "ios": "https://dc.lft.to/lastmile_qr_scan"}, "fusion_lon": 0.0}, {"lat": 38.876877666666665, "is_disabled": 0, "type": "electric_bike", "lon": -77.01760366666667, "bike_id": "0470c2805b1bd703ad66325f9df2ba82", "fusion_lat": 0.0, "name": "0470c2805b1bd703ad66325f9df2ba82", "is_reserved": 0, "rental_uris": {"android": "https://dc.lft.to/lastmile_qr_scan", "ios": "https://dc.lft.to/lastmile_qr_scan"}, "fusion_lon": 0.0}, {"lat": 38.89992433333333, "is_disabled": 0, "type": "electric_scooter", "lon": -77.05261183333333, "bike_id": "78b5744cb8e22cf201451f53f5946380", "fusion_lat": 0.0, "name": "78b5744cb8e22cf201451f53f5946380", "is_reserved": 0, "rental_uris": {"android": "https://dc.lft.to/lastmile_qr_scan", "ios": "https://dc.lft.to/lastmile_qr_scan"}, "fusion_lon": 0.0}, {"lat": 38.925319333333334, "is_disabled": 0, "type": "electric_scooter", "lon": -77.04134733333333, "bike_id": "7de73db0ab9e2ff2b278f4c1af947d77", "fusion_lat": 0.0, "name": "7de73db0ab9e2ff2b278f4c1af947d77", "is_reserved": 0, "rental_uris": {"android": "https://dc.lft.to/lastmile_qr_scan", "ios": "https://dc.lft.to/lastmile_qr_scan"}, "fusion_lon": 0.0}, {"lat": 38.85383483333333, "is_disabled": 0, "type": "electric_bike", "lon": -77.12429983333334, "bike_id": "4ac3ca7e46c32de15598d1df0d992d3b", "fusion_lat": 0.0, "name": "4ac3ca7e46c32de15598d1df0d992d3b", "is_reserved": 0, "rental_uris": {"android": "https://dc.lft.to/lastmile_qr_scan", "ios": "https://dc.lft.to/lastmile_qr_scan"}, "fusion_lon": 0.0}, {"lat": 38.89476716666667, "is_disabled": 0, "type": "electric_scooter", "lon": -77.02677533333333, "bike_id": "246eaa2fee03793e36a702033f97fdfd", "fusion_lat": 0.0, "name": "246eaa2fee03793e36a702033f97fdfd", "is_reserved": 0, "rental_uris": {"android": "https://dc.lft.to/lastmile_qr_scan", "ios": "https://dc.lft.to/lastmile_qr_scan"}, "fusion_lon": 0.0}, {"lat": 38.917683333333336, "is_disabled": 0, "type": "electric_scooter", "lon": -77.03188566666667, "bike_id": "c226314536c3df27c38e18cf196c6e14", "fusion_lat": 0.0, "name": "c226314536c3df27c38e18cf196c6e14", "is_reserved": 0, "rental_uris": {"android": "https://dc.lft.to/lastmile_qr_scan", "ios": "https://dc.lft.to/lastmile_qr_scan"}, "fusion_lon": 0.0}, {"lat": 38.895794, "is_disabled": 0, "type": "electric_scooter", "lon": -76.981775, "bike_id": "20ea748f3f994662dbf6c15ff46b81b9", "fusion_lat": 0.0, "name": "20ea748f3f994662dbf6c15ff46b81b9", "is_reserved": 0, "rental_uris": {"android": "https://dc.lft.to/lastmile_qr_scan", "ios": "https://dc.lft.to/lastmile_qr_scan"}, "fusion_lon": 0.0}, {"lat": 38.85086733333333, "is_disabled": 0, "type": "electric_bike", "lon": -76.95678783333334, "bike_id": "98c5a191b37382dd6414ea0fccc6e662", "fusion_lat": 0.0, "name": "98c5a191b37382dd6414ea0fccc6e662", "is_reserved": 0, "rental_uris": {"android": "https://dc.lft.to/lastmile_qr_scan", "ios": "https://dc.lft.to/lastmile_qr_scan"}, "fusion_lon": 0.0}, {"lat": 38.90034166666667, "is_disabled": 0, "type": "electric_scooter", "lon": -77.03289916666667, "bike_id": "fab066140ef5ab936fe128ff8ed3773c", "fusion_lat": 0.0, "name": "fab066140ef5ab936fe128ff8ed3773c", "is_reserved": 0, "rental_uris": {"android": "https://dc.lft.to/lastmile_qr_scan", "ios": "https://dc.lft.to/lastmile_qr_scan"}, "fusion_lon": 0.0}, {"lat": 38.90001933333333, "is_disabled": 0, "type": "electric_scooter", "lon": -77.026553, "bike_id": "29c6cdb083b8bec6e299f97b54657ed0", "fusion_lat": 0.0, "name": "29c6cdb083b8bec6e299f97b54657ed0", "is_reserved": 0, "rental_uris": {"android": "https://dc.lft.to/lastmile_qr_scan", "ios": "https://dc.lft.to/lastmile_qr_scan"}, "fusion_lon": 0.0}, {"lat": 38.900589833333335, "is_disabled": 0, "type": "electric_scooter", "lon": -77.00193933333334, "bike_id": "8552e5a070f891863e5b9cf0b9bf1da0", "fusion_lat": 0.0, "name": "8552e5a070f891863e5b9cf0b9bf1da0", "is_reserved": 0, "rental_uris": {"android": "https://dc.lft.to/lastmile_qr_scan", "ios": "https://dc.lft.to/lastmile_qr_scan"}, "fusion_lon": 0.0}, {"lat": 38.9056995, "is_disabled": 0, "type": "electric_scooter", "lon": -77.04666166666667, "bike_id": "7528fa81aa7f1fd4196c01669be542ee", "fusion_lat": 0.0, "name": "7528fa81aa7f1fd4196c01669be542ee", "is_reserved": 0, "rental_uris": {"android": "https://dc.lft.to/lastmile_qr_scan", "ios": "https://dc.lft.to/lastmile_qr_scan"}, "fusion_lon": 0.0}, {"lat": 38.90406266666667, "is_disabled": 0, "type": "electric_scooter", "lon": -76.98509483333333, "bike_id": "1fb0ca4c6fed1d92017b9b12abd26683", "fusion_lat": 0.0, "name": "1fb0ca4c6fed1d92017b9b12abd26683", "is_reserved": 0, "rental_uris": {"android": "https://dc.lft.to/lastmile_qr_scan", "ios": "https://dc.lft.to/lastmile_qr_scan"}, "fusion_lon": 0.0}, {"lat": 38.92250266666667, "is_disabled": 0, "type": "electric_scooter", "lon": -77.03142983333333, "bike_id": "970385ae652640e312b7676b202592d3", "fusion_lat": 0.0, "name": "970385ae652640e312b7676b202592d3", "is_reserved": 0, "rental_uris": {"android": "https://dc.lft.to/lastmile_qr_scan", "ios": "https://dc.lft.to/lastmile_qr_scan"}, "fusion_lon": 0.0}, {"lat": 38.9357205, "is_disabled": 0, "type": "electric_scooter", "lon": -77.0327275, "bike_id": "5d37ffdd1ec995afb22732f126c96053", "fusion_lat": 0.0, "name": "5d37ffdd1ec995afb22732f126c96053", "is_reserved": 0, "rental_uris": {"android": "https://dc.lft.to/lastmile_qr_scan", "ios": "https://dc.lft.to/lastmile_qr_scan"}, "fusion_lon": 0.0}, {"lat": 38.89550366666667, "is_disabled": 0, "type": "electric_scooter", "lon": -77.00922116666666, "bike_id": "98e358adc27aa779af1566a8d5387f1a", "fusion_lat": 0.0, "name": "98e358adc27aa779af1566a8d5387f1a", "is_reserved": 0, "rental_uris": {"android": "https://dc.lft.to/lastmile_qr_scan", "ios": "https://dc.lft.to/lastmile_qr_scan"}, "fusion_lon": 0.0}, {"lat": 38.91183216666667, "is_disabled": 0, "type": "electric_scooter", "lon": -77.01077466666666, "bike_id": "c8f7ea4a0bea0bc5ee343d7d849e349c", "fusion_lat": 0.0, "name": "c8f7ea4a0bea0bc5ee343d7d849e349c", "is_reserved": 0, "rental_uris": {"android": "https://dc.lft.to/lastmile_qr_scan", "ios": "https://dc.lft.to/lastmile_qr_scan"}, "fusion_lon": 0.0}, {"lat": 38.92577716666667, "is_disabled": 0, "type": "electric_scooter", "lon": -77.028359, "bike_id": "37d52dccc65813b36d333dc258294da2", "fusion_lat": 0.0, "name": "37d52dccc65813b36d333dc258294da2", "is_reserved": 0, "rental_uris": {"android": "https://dc.lft.to/lastmile_qr_scan", "ios": "https://dc.lft.to/lastmile_qr_scan"}, "fusion_lon": 0.0}, {"lat": 38.932553666666664, "is_disabled": 0, "type": "electric_scooter", "lon": -77.03464283333334, "bike_id": "e84c9e99939c844d120b13d1c5df9235", "fusion_lat": 0.0, "name": "e84c9e99939c844d120b13d1c5df9235", "is_reserved": 0, "rental_uris": {"android": "https://dc.lft.to/lastmile_qr_scan", "ios": "https://dc.lft.to/lastmile_qr_scan"}, "fusion_lon": 0.0}, {"lat": 38.921565, "is_disabled": 0, "type": "electric_scooter", "lon": -77.03516216666667, "bike_id": "f933964a057f125eb7a797d6c1deb29f", "fusion_lat": 0.0, "name": "f933964a057f125eb7a797d6c1deb29f", "is_reserved": 0, "rental_uris": {"android": "https://dc.lft.to/lastmile_qr_scan", "ios": "https://dc.lft.to/lastmile_qr_scan"}, "fusion_lon": 0.0}, {"lat": 38.914031, "is_disabled": 0, "type": "electric_scooter", "lon": -77.031558, "bike_id": "c1ed95a5ac39677a6fe4242128ab216b", "fusion_lat": 0.0, "name": "c1ed95a5ac39677a6fe4242128ab216b", "is_reserved": 0, "rental_uris": {"android": "https://dc.lft.to/lastmile_qr_scan", "ios": "https://dc.lft.to/lastmile_qr_scan"}, "fusion_lon": 0.0}, {"lat": 38.91926683333333, "is_disabled": 0, "type": "electric_scooter", "lon": -77.03183983333334, "bike_id": "127a95914f6cbdd2faa5165a754ed9e1", "fusion_lat": 0.0, "name": "127a95914f6cbdd2faa5165a754ed9e1", "is_reserved": 0, "rental_uris": {"android": "https://dc.lft.to/lastmile_qr_scan", "ios": "https://dc.lft.to/lastmile_qr_scan"}, "fusion_lon": 0.0}, {"lat": 38.93021, "is_disabled": 0, "type": "electric_scooter", "lon": -77.0445175, "bike_id": "77098a710af963e46a62adad0c9a1610", "fusion_lat": 0.0, "name": "77098a710af963e46a62adad0c9a1610", "is_reserved": 0, "rental_uris": {"android": "https://dc.lft.to/lastmile_qr_scan", "ios": "https://dc.lft.to/lastmile_qr_scan"}, "fusion_lon": 0.0}, {"lat": 38.8970935, "is_disabled": 0, "type": "electric_scooter", "lon": -77.0083995, "bike_id": "0a3b97272d005805f5a35f5df1f6789b", "fusion_lat": 0.0, "name": "0a3b97272d005805f5a35f5df1f6789b", "is_reserved": 0, "rental_uris": {"android": "https://dc.lft.to/lastmile_qr_scan", "ios": "https://dc.lft.to/lastmile_qr_scan"}, "fusion_lon": 0.0}, {"lat": 38.943541, "is_disabled": 0, "type": "electric_scooter", "lon": -77.0021355, "bike_id": "e0cce87345eecc448df5e85478e40ede", "fusion_lat": 0.0, "name": "e0cce87345eecc448df5e85478e40ede", "is_reserved": 0, "rental_uris": {"android": "https://dc.lft.to/lastmile_qr_scan", "ios": "https://dc.lft.to/lastmile_qr_scan"}, "fusion_lon": 0.0}, {"lat": 38.8970435, "is_disabled": 0, "type": "electric_scooter", "lon": -77.04893216666666, "bike_id": "5cdca2c7d930c76101808ae5b7ff1aac", "fusion_lat": 0.0, "name": "5cdca2c7d930c76101808ae5b7ff1aac", "is_reserved": 0, "rental_uris": {"android": "https://dc.lft.to/lastmile_qr_scan", "ios": "https://dc.lft.to/lastmile_qr_scan"}, "fusion_lon": 0.0}, {"lat": 38.93600216666667, "is_disabled": 0, "type": "electric_scooter", "lon": -77.036566, "bike_id": "190dfe7fdbbaa1dded4d9341d6bdfa00", "fusion_lat": 0.0, "name": "190dfe7fdbbaa1dded4d9341d6bdfa00", "is_reserved": 0, "rental_uris": {"android": "https://dc.lft.to/lastmile_qr_scan", "ios": "https://dc.lft.to/lastmile_qr_scan"}, "fusion_lon": 0.0}, {"lat": 38.89947866666667, "is_disabled": 0, "type": "electric_scooter", "lon": -77.05182633333334, "bike_id": "857d18e7a982bb99a57de67e1c7361ab", "fusion_lat": 0.0, "name": "857d18e7a982bb99a57de67e1c7361ab", "is_reserved": 0, "rental_uris": {"android": "https://dc.lft.to/lastmile_qr_scan", "ios": "https://dc.lft.to/lastmile_qr_scan"}, "fusion_lon": 0.0}, {"lat": 38.828776166666664, "is_disabled": 0, "type": "electric_bike", "lon": -77.11222683333334, "bike_id": "4db490fa8ae43d8bdcee7c54d750bcdf", "fusion_lat": 0.0, "name": "4db490fa8ae43d8bdcee7c54d750bcdf", "is_reserved": 0, "rental_uris": {"android": "https://dc.lft.to/lastmile_qr_scan", "ios": "https://dc.lft.to/lastmile_qr_scan"}, "fusion_lon": 0.0}, {"lat": 38.90073533333333, "is_disabled": 0, "type": "electric_scooter", "lon": -77.001999, "bike_id": "e744600fa9f856225a6a321d3845ee65", "fusion_lat": 0.0, "name": "e744600fa9f856225a6a321d3845ee65", "is_reserved": 0, "rental_uris": {"android": "https://dc.lft.to/lastmile_qr_scan", "ios": "https://dc.lft.to/lastmile_qr_scan"}, "fusion_lon": 0.0}, {"lat": 38.93280416666666, "is_disabled": 0, "type": "electric_scooter", "lon": -77.032685, "bike_id": "449130525235a1315e4474cd4c643d14", "fusion_lat": 0.0, "name": "449130525235a1315e4474cd4c643d14", "is_reserved": 0, "rental_uris": {"android": "https://dc.lft.to/lastmile_qr_scan", "ios": "https://dc.lft.to/lastmile_qr_scan"}, "fusion_lon": 0.0}, {"lat": 38.8922315, "is_disabled": 0, "type": "electric_scooter", "lon": -77.0315445, "bike_id": "e8bbc10f444d1c157a7ce337b909a196", "fusion_lat": 0.0, "name": "e8bbc10f444d1c157a7ce337b909a196", "is_reserved": 0, "rental_uris": {"android": "https://dc.lft.to/lastmile_qr_scan", "ios": "https://dc.lft.to/lastmile_qr_scan"}, "fusion_lon": 0.0}, {"lat": 38.930233333333334, "is_disabled": 0, "type": "electric_scooter", "lon": -77.04446033333333, "bike_id": "06b7028fc9bdb5b3650c8fce7a5c8710", "fusion_lat": 0.0, "name": "06b7028fc9bdb5b3650c8fce7a5c8710", "is_reserved": 0, "rental_uris": {"android": "https://dc.lft.to/lastmile_qr_scan", "ios": "https://dc.lft.to/lastmile_qr_scan"}, "fusion_lon": 0.0}, {"lat": 38.923253333333335, "is_disabled": 0, "type": "electric_scooter", "lon": -77.0280355, "bike_id": "890cb6dc2dc12cbd75cce8061e6ff82f", "fusion_lat": 0.0, "name": "890cb6dc2dc12cbd75cce8061e6ff82f", "is_reserved": 0, "rental_uris": {"android": "https://dc.lft.to/lastmile_qr_scan", "ios": "https://dc.lft.to/lastmile_qr_scan"}, "fusion_lon": 0.0}, {"lat": 38.92043066666667, "is_disabled": 0, "type": "electric_scooter", "lon": -77.03388716666667, "bike_id": "1bcfb224598e4760cbc16093ca969572", "fusion_lat": 0.0, "name": "1bcfb224598e4760cbc16093ca969572", "is_reserved": 0, "rental_uris": {"android": "https://dc.lft.to/lastmile_qr_scan", "ios": "https://dc.lft.to/lastmile_qr_scan"}, "fusion_lon": 0.0}, {"lat": 38.90990933333333, "is_disabled": 0, "type": "electric_scooter", "lon": -76.99739316666667, "bike_id": "c2ed504a1ba1be7e01182b1d2030fce9", "fusion_lat": 0.0, "name": "c2ed504a1ba1be7e01182b1d2030fce9", "is_reserved": 0, "rental_uris": {"android": "https://dc.lft.to/lastmile_qr_scan", "ios": "https://dc.lft.to/lastmile_qr_scan"}, "fusion_lon": 0.0}, {"lat": 39.00483633333333, "is_disabled": 0, "type": "electric_bike", "lon": -76.90131266666667, "bike_id": "faf1cf3dca0228f7b88d2db56ad6a0fb", "fusion_lat": 0.0, "name": "faf1cf3dca0228f7b88d2db56ad6a0fb", "is_reserved": 0, "rental_uris": {"android": "https://dc.lft.to/lastmile_qr_scan", "ios": "https://dc.lft.to/lastmile_qr_scan"}, "fusion_lon": 0.0}, {"lat": 38.916918, "is_disabled": 0, "type": "electric_scooter", "lon": -77.0327675, "bike_id": "d8aac810d7930aa4a683618d9e6113c1", "fusion_lat": 0.0, "name": "d8aac810d7930aa4a683618d9e6113c1", "is_reserved": 0, "rental_uris": {"android": "https://dc.lft.to/lastmile_qr_scan", "ios": "https://dc.lft.to/lastmile_qr_scan"}, "fusion_lon": 0.0}, {"lat": 38.86827983333333, "is_disabled": 0, "type": "electric_scooter", "lon": -76.97740833333333, "bike_id": "73a112f53c042bc0e1f0e56b8408bd4d", "fusion_lat": 0.0, "name": "73a112f53c042bc0e1f0e56b8408bd4d", "is_reserved": 0, "rental_uris": {"android": "https://dc.lft.to/lastmile_qr_scan", "ios": "https://dc.lft.to/lastmile_qr_scan"}, "fusion_lon": 0.0}, {"lat": 38.87147066666667, "is_disabled": 0, "type": "electric_bike", "lon": -76.93712266666667, "bike_id": "3d075636780e83b676c54884c51195ba", "fusion_lat": 0.0, "name": "3d075636780e83b676c54884c51195ba", "is_reserved": 0, "rental_uris": {"android": "https://dc.lft.to/lastmile_qr_scan", "ios": "https://dc.lft.to/lastmile_qr_scan"}, "fusion_lon": 0.0}, {"lat": 38.916152, "is_disabled": 0, "type": "electric_bike", "lon": -77.02154216666666, "bike_id": "5f95562d51fc84ed5dd4be57da7ce87b", "fusion_lat": 0.0, "name": "5f95562d51fc84ed5dd4be57da7ce87b", "is_reserved": 0, "rental_uris": {"android": "https://dc.lft.to/lastmile_qr_scan", "ios": "https://dc.lft.to/lastmile_qr_scan"}, "fusion_lon": 0.0}, {"lat": 38.928430166666665, "is_disabled": 0, "type": "electric_scooter", "lon": -77.033223, "bike_id": "fbebb793f47b27c4c7ffbf9876ff78fb", "fusion_lat": 0.0, "name": "fbebb793f47b27c4c7ffbf9876ff78fb", "is_reserved": 0, "rental_uris": {"android": "https://dc.lft.to/lastmile_qr_scan", "ios": "https://dc.lft.to/lastmile_qr_scan"}, "fusion_lon": 0.0}, {"lat": 38.91431766666667, "is_disabled": 0, "type": "electric_scooter", "lon": -77.046605, "bike_id": "da30b96d0a3197024e267a034825dc78", "fusion_lat": 0.0, "name": "da30b96d0a3197024e267a034825dc78", "is_reserved": 0, "rental_uris": {"android": "https://dc.lft.to/lastmile_qr_scan", "ios": "https://dc.lft.to/lastmile_qr_scan"}, "fusion_lon": 0.0}, {"lat": 38.92468133333333, "is_disabled": 0, "type": "electric_scooter", "lon": -77.02711883333333, "bike_id": "e780aca7bbd8952f20018aedac0a9a42", "fusion_lat": 0.0, "name": "e780aca7bbd8952f20018aedac0a9a42", "is_reserved": 0, "rental_uris": {"android": "https://dc.lft.to/lastmile_qr_scan", "ios": "https://dc.lft.to/lastmile_qr_scan"}, "fusion_lon": 0.0}, {"lat": 38.90091016666667, "is_disabled": 0, "type": "electric_scooter", "lon": -77.05065066666667, "bike_id": "9c00462276d1ce64be50009f567b13a8", "fusion_lat": 0.0, "name": "9c00462276d1ce64be50009f567b13a8", "is_reserved": 0, "rental_uris": {"android": "https://dc.lft.to/lastmile_qr_scan", "ios": "https://dc.lft.to/lastmile_qr_scan"}, "fusion_lon": 0.0}, {"lat": 38.916275, "is_disabled": 0, "type": "electric_scooter", "lon": -77.04876066666667, "bike_id": "c7f082c732797451c1d071ee0dd6225d", "fusion_lat": 0.0, "name": "c7f082c732797451c1d071ee0dd6225d", "is_reserved": 0, "rental_uris": {"android": "https://dc.lft.to/lastmile_qr_scan", "ios": "https://dc.lft.to/lastmile_qr_scan"}, "fusion_lon": 0.0}, {"lat": 38.906379333333334, "is_disabled": 0, "type": "electric_scooter", "lon": -77.02500783333333, "bike_id": "25c1b8d6413c4a78b3ce27db16444f8c", "fusion_lat": 0.0, "name": "25c1b8d6413c4a78b3ce27db16444f8c", "is_reserved": 0, "rental_uris": {"android": "https://dc.lft.to/lastmile_qr_scan", "ios": "https://dc.lft.to/lastmile_qr_scan"}, "fusion_lon": 0.0}, {"lat": 38.892177833333335, "is_disabled": 0, "type": "electric_scooter", "lon": -77.031562, "bike_id": "367cffe3cb54d46f3b85dc8e622dcd56", "fusion_lat": 0.0, "name": "367cffe3cb54d46f3b85dc8e622dcd56", "is_reserved": 0, "rental_uris": {"android": "https://dc.lft.to/lastmile_qr_scan", "ios": "https://dc.lft.to/lastmile_qr_scan"}, "fusion_lon": 0.0}, {"lat": 38.913339666666666, "is_disabled": 0, "type": "electric_scooter", "lon": -77.03266666666667, "bike_id": "d40ee3c183f3f67aaa41c18c36ee8daf", "fusion_lat": 0.0, "name": "d40ee3c183f3f67aaa41c18c36ee8daf", "is_reserved": 0, "rental_uris": {"android": "https://dc.lft.to/lastmile_qr_scan", "ios": "https://dc.lft.to/lastmile_qr_scan"}, "fusion_lon": 0.0}, {"lat": 38.92288966666667, "is_disabled": 0, "type": "electric_scooter", "lon": -77.01998216666667, "bike_id": "f034fbe11b6c59842a2b02c72e925f4b", "fusion_lat": 0.0, "name": "f034fbe11b6c59842a2b02c72e925f4b", "is_reserved": 0, "rental_uris": {"android": "https://dc.lft.to/lastmile_qr_scan", "ios": "https://dc.lft.to/lastmile_qr_scan"}, "fusion_lon": 0.0}, {"lat": 38.90551983333334, "is_disabled": 0, "type": "electric_scooter", "lon": -77.05714883333333, "bike_id": "ab73ab9c14fc252bfe1dbc201210b62d", "fusion_lat": 0.0, "name": "ab73ab9c14fc252bfe1dbc201210b62d", "is_reserved": 0, "rental_uris": {"android": "https://dc.lft.to/lastmile_qr_scan", "ios": "https://dc.lft.to/lastmile_qr_scan"}, "fusion_lon": 0.0}, {"lat": 38.91800383333333, "is_disabled": 0, "type": "electric_scooter", "lon": -77.03207133333333, "bike_id": "75d3c6b53d7199e71e8de63af2a5cd66", "fusion_lat": 0.0, "name": "75d3c6b53d7199e71e8de63af2a5cd66", "is_reserved": 0, "rental_uris": {"android": "https://dc.lft.to/lastmile_qr_scan", "ios": "https://dc.lft.to/lastmile_qr_scan"}, "fusion_lon": 0.0}, {"lat": 38.91926266666667, "is_disabled": 0, "type": "electric_scooter", "lon": -77.04818283333333, "bike_id": "b559fd39e8440f151fc6ca6b805ca779", "fusion_lat": 0.0, "name": "b559fd39e8440f151fc6ca6b805ca779", "is_reserved": 0, "rental_uris": {"android": "https://dc.lft.to/lastmile_qr_scan", "ios": "https://dc.lft.to/lastmile_qr_scan"}, "fusion_lon": 0.0}, {"lat": 38.8719195, "is_disabled": 0, "type": "electric_bike", "lon": -77.01220733333334, "bike_id": "677afd2145a930f5a634015a76befb62", "fusion_lat": 0.0, "name": "677afd2145a930f5a634015a76befb62", "is_reserved": 0, "rental_uris": {"android": "https://dc.lft.to/lastmile_qr_scan", "ios": "https://dc.lft.to/lastmile_qr_scan"}, "fusion_lon": 0.0}, {"lat": 38.9595855, "is_disabled": 0, "type": "electric_bike", "lon": -77.10091066666666, "bike_id": "462d14dccbacc4cf82dd0b0b9857cadd", "fusion_lat": 0.0, "name": "462d14dccbacc4cf82dd0b0b9857cadd", "is_reserved": 0, "rental_uris": {"android": "https://dc.lft.to/lastmile_qr_scan", "ios": "https://dc.lft.to/lastmile_qr_scan"}, "fusion_lon": 0.0}, {"lat": 38.916979166666664, "is_disabled": 0, "type": "electric_scooter", "lon": -77.0335385, "bike_id": "89582198fdd10e961bb8eded1f285e0a", "fusion_lat": 0.0, "name": "89582198fdd10e961bb8eded1f285e0a", "is_reserved": 0, "rental_uris": {"android": "https://dc.lft.to/lastmile_qr_scan", "ios": "https://dc.lft.to/lastmile_qr_scan"}, "fusion_lon": 0.0}, {"lat": 38.92064383333334, "is_disabled": 0, "type": "electric_scooter", "lon": -77.043359, "bike_id": "059da9f8c88a005d735b0712769d4cda", "fusion_lat": 0.0, "name": "059da9f8c88a005d735b0712769d4cda", "is_reserved": 0, "rental_uris": {"android": "https://dc.lft.to/lastmile_qr_scan", "ios": "https://dc.lft.to/lastmile_qr_scan"}, "fusion_lon": 0.0}, {"lat": 38.900497333333334, "is_disabled": 0, "type": "electric_scooter", "lon": -77.01877466666667, "bike_id": "81d5e1fa933df9c67b7178aac23409f2", "fusion_lat": 0.0, "name": "81d5e1fa933df9c67b7178aac23409f2", "is_reserved": 0, "rental_uris": {"android": "https://dc.lft.to/lastmile_qr_scan", "ios": "https://dc.lft.to/lastmile_qr_scan"}, "fusion_lon": 0.0}, {"lat": 38.884881166666666, "is_disabled": 0, "type": "electric_scooter", "lon": -77.03474316666667, "bike_id": "49f0de4d85ce0921b25d6a61f44fd5fd", "fusion_lat": 0.0, "name": "49f0de4d85ce0921b25d6a61f44fd5fd", "is_reserved": 0, "rental_uris": {"android": "https://dc.lft.to/lastmile_qr_scan", "ios": "https://dc.lft.to/lastmile_qr_scan"}, "fusion_lon": 0.0}, {"lat": 38.9596095, "is_disabled": 0, "type": "electric_scooter", "lon": -77.0331305, "bike_id": "b4192417dd45a134da26a9193419be3f", "fusion_lat": 0.0, "name": "b4192417dd45a134da26a9193419be3f", "is_reserved": 0, "rental_uris": {"android": "https://dc.lft.to/lastmile_qr_scan", "ios": "https://dc.lft.to/lastmile_qr_scan"}, "fusion_lon": 0.0}, {"lat": 39.05632466666667, "is_disabled": 0, "type": "electric_bike", "lon": -77.12526233333334, "bike_id": "6f20e713cc39563c7e03ef493c4e1fea", "fusion_lat": 0.0, "name": "6f20e713cc39563c7e03ef493c4e1fea", "is_reserved": 0, "rental_uris": {"android": "https://dc.lft.to/lastmile_qr_scan", "ios": "https://dc.lft.to/lastmile_qr_scan"}, "fusion_lon": 0.0}, {"lat": 38.918514, "is_disabled": 0, "type": "electric_scooter", "lon": -77.0317195, "bike_id": "f4d8674981fb3eb4c1f3e897bd7ce981", "fusion_lat": 0.0, "name": "f4d8674981fb3eb4c1f3e897bd7ce981", "is_reserved": 0, "rental_uris": {"android": "https://dc.lft.to/lastmile_qr_scan", "ios": "https://dc.lft.to/lastmile_qr_scan"}, "fusion_lon": 0.0}, {"lat": 38.91110316666666, "is_disabled": 0, "type": "electric_scooter", "lon": -77.03790616666667, "bike_id": "d5e393e2aa0fb08b821911623edf0ff5", "fusion_lat": 0.0, "name": "d5e393e2aa0fb08b821911623edf0ff5", "is_reserved": 0, "rental_uris": {"android": "https://dc.lft.to/lastmile_qr_scan", "ios": "https://dc.lft.to/lastmile_qr_scan"}, "fusion_lon": 0.0}, {"lat": 38.911950166666664, "is_disabled": 0, "type": "electric_scooter", "lon": -77.04300683333334, "bike_id": "549dca001e6df38bc5337b4abb059765", "fusion_lat": 0.0, "name": "549dca001e6df38bc5337b4abb059765", "is_reserved": 0, "rental_uris": {"android": "https://dc.lft.to/lastmile_qr_scan", "ios": "https://dc.lft.to/lastmile_qr_scan"}, "fusion_lon": 0.0}, {"lat": 38.9321155, "is_disabled": 0, "type": "electric_scooter", "lon": -77.02243633333333, "bike_id": "54cd37f575e42b9846083c097c0b7718", "fusion_lat": 0.0, "name": "54cd37f575e42b9846083c097c0b7718", "is_reserved": 0, "rental_uris": {"android": "https://dc.lft.to/lastmile_qr_scan", "ios": "https://dc.lft.to/lastmile_qr_scan"}, "fusion_lon": 0.0}, {"lat": 38.88400166666667, "is_disabled": 0, "type": "electric_bike", "lon": -76.95424183333333, "bike_id": "f79112201089da967a3998484050b46a", "fusion_lat": 0.0, "name": "f79112201089da967a3998484050b46a", "is_reserved": 0, "rental_uris": {"android": "https://dc.lft.to/lastmile_qr_scan", "ios": "https://dc.lft.to/lastmile_qr_scan"}, "fusion_lon": 0.0}, {"lat": 38.88741916666667, "is_disabled": 0, "type": "electric_scooter", "lon": -77.015344, "bike_id": "fae8ae2bb8164b0a3c158fdc1d7fb6fa", "fusion_lat": 0.0, "name": "fae8ae2bb8164b0a3c158fdc1d7fb6fa", "is_reserved": 0, "rental_uris": {"android": "https://dc.lft.to/lastmile_qr_scan", "ios": "https://dc.lft.to/lastmile_qr_scan"}, "fusion_lon": 0.0}, {"lat": 38.898202, "is_disabled": 0, "type": "electric_scooter", "lon": -77.03133166666667, "bike_id": "9585f848fb446b1bbb11b1ea9f9ecb71", "fusion_lat": 0.0, "name": "9585f848fb446b1bbb11b1ea9f9ecb71", "is_reserved": 0, "rental_uris": {"android": "https://dc.lft.to/lastmile_qr_scan", "ios": "https://dc.lft.to/lastmile_qr_scan"}, "fusion_lon": 0.0}, {"lat": 38.89042933333333, "is_disabled": 0, "type": "electric_scooter", "lon": -76.95246383333334, "bike_id": "57826deab240057dcad7ecefb2d6b5db", "fusion_lat": 0.0, "name": "57826deab240057dcad7ecefb2d6b5db", "is_reserved": 0, "rental_uris": {"android": "https://dc.lft.to/lastmile_qr_scan", "ios": "https://dc.lft.to/lastmile_qr_scan"}, "fusion_lon": 0.0}, {"lat": 38.90272933333333, "is_disabled": 0, "type": "electric_scooter", "lon": -77.04360083333333, "bike_id": "78cfd0034e1c7ca9abfea9f1251b3e13", "fusion_lat": 0.0, "name": "78cfd0034e1c7ca9abfea9f1251b3e13", "is_reserved": 0, "rental_uris": {"android": "https://dc.lft.to/lastmile_qr_scan", "ios": "https://dc.lft.to/lastmile_qr_scan"}, "fusion_lon": 0.0}, {"lat": 38.90695866666667, "is_disabled": 0, "type": "electric_scooter", "lon": -77.03828116666666, "bike_id": "989e4ae9ef604aab63210806d71b30a5", "fusion_lat": 0.0, "name": "989e4ae9ef604aab63210806d71b30a5", "is_reserved": 0, "rental_uris": {"android": "https://dc.lft.to/lastmile_qr_scan", "ios": "https://dc.lft.to/lastmile_qr_scan"}, "fusion_lon": 0.0}, {"lat": 38.897434833333335, "is_disabled": 0, "type": "electric_scooter", "lon": -77.00075133333333, "bike_id": "8df43930c221425da87f075a61386ba5", "fusion_lat": 0.0, "name": "8df43930c221425da87f075a61386ba5", "is_reserved": 0, "rental_uris": {"android": "https://dc.lft.to/lastmile_qr_scan", "ios": "https://dc.lft.to/lastmile_qr_scan"}, "fusion_lon": 0.0}, {"lat": 38.91782216666667, "is_disabled": 0, "type": "electric_scooter", "lon": -77.0366195, "bike_id": "a6574aab8f312daeaccd9b3c6e9488e8", "fusion_lat": 0.0, "name": "a6574aab8f312daeaccd9b3c6e9488e8", "is_reserved": 0, "rental_uris": {"android": "https://dc.lft.to/lastmile_qr_scan", "ios": "https://dc.lft.to/lastmile_qr_scan"}, "fusion_lon": 0.0}, {"lat": 38.9221785, "is_disabled": 0, "type": "electric_scooter", "lon": -77.04026333333333, "bike_id": "5a9809766ae5df02cc41e284621d31f2", "fusion_lat": 0.0, "name": "5a9809766ae5df02cc41e284621d31f2", "is_reserved": 0, "rental_uris": {"android": "https://dc.lft.to/lastmile_qr_scan", "ios": "https://dc.lft.to/lastmile_qr_scan"}, "fusion_lon": 0.0}, {"lat": 38.9097195, "is_disabled": 0, "type": "electric_scooter", "lon": -77.03870266666667, "bike_id": "e51761b9ae3d64288a21b763a02941e2", "fusion_lat": 0.0, "name": "e51761b9ae3d64288a21b763a02941e2", "is_reserved": 0, "rental_uris": {"android": "https://dc.lft.to/lastmile_qr_scan", "ios": "https://dc.lft.to/lastmile_qr_scan"}, "fusion_lon": 0.0}, {"lat": 38.933156833333335, "is_disabled": 0, "type": "electric_scooter", "lon": -77.0451585, "bike_id": "e249d548b3b8eb262d73b65664b3e9d2", "fusion_lat": 0.0, "name": "e249d548b3b8eb262d73b65664b3e9d2", "is_reserved": 0, "rental_uris": {"android": "https://dc.lft.to/lastmile_qr_scan", "ios": "https://dc.lft.to/lastmile_qr_scan"}, "fusion_lon": 0.0}, {"lat": 38.898743833333334, "is_disabled": 0, "type": "electric_scooter", "lon": -77.02033383333334, "bike_id": "e3e9439024f6c6a7de556e9bd7d1eef1", "fusion_lat": 0.0, "name": "e3e9439024f6c6a7de556e9bd7d1eef1", "is_reserved": 0, "rental_uris": {"android": "https://dc.lft.to/lastmile_qr_scan", "ios": "https://dc.lft.to/lastmile_qr_scan"}, "fusion_lon": 0.0}, {"lat": 38.905795, "is_disabled": 0, "type": "electric_scooter", "lon": -77.04873866666667, "bike_id": "8013cff53fd0dde13b1d7c43cf43205c", "fusion_lat": 0.0, "name": "8013cff53fd0dde13b1d7c43cf43205c", "is_reserved": 0, "rental_uris": {"android": "https://dc.lft.to/lastmile_qr_scan", "ios": "https://dc.lft.to/lastmile_qr_scan"}, "fusion_lon": 0.0}, {"lat": 38.87729183333333, "is_disabled": 0, "type": "electric_bike", "lon": -76.98107616666667, "bike_id": "960e20a799d4f820ac8db675d9f725d2", "fusion_lat": 0.0, "name": "960e20a799d4f820ac8db675d9f725d2", "is_reserved": 0, "rental_uris": {"android": "https://dc.lft.to/lastmile_qr_scan", "ios": "https://dc.lft.to/lastmile_qr_scan"}, "fusion_lon": 0.0}, {"lat": 38.916961666666666, "is_disabled": 0, "type": "electric_scooter", "lon": -77.024928, "bike_id": "0ec31d34e64bbb2198e3c373f5f5dc2c", "fusion_lat": 0.0, "name": "0ec31d34e64bbb2198e3c373f5f5dc2c", "is_reserved": 0, "rental_uris": {"android": "https://dc.lft.to/lastmile_qr_scan", "ios": "https://dc.lft.to/lastmile_qr_scan"}, "fusion_lon": 0.0}, {"lat": 38.866793333333334, "is_disabled": 0, "type": "electric_scooter", "lon": -76.98544216666667, "bike_id": "076de04548fd7da97398514433a8492e", "fusion_lat": 0.0, "name": "076de04548fd7da97398514433a8492e", "is_reserved": 0, "rental_uris": {"android": "https://dc.lft.to/lastmile_qr_scan", "ios": "https://dc.lft.to/lastmile_qr_scan"}, "fusion_lon": 0.0}, {"lat": 38.92476583333333, "is_disabled": 0, "type": "electric_scooter", "lon": -77.035067, "bike_id": "645d90a642cc20e0994016c6de9cbb8e", "fusion_lat": 0.0, "name": "645d90a642cc20e0994016c6de9cbb8e", "is_reserved": 0, "rental_uris": {"android": "https://dc.lft.to/lastmile_qr_scan", "ios": "https://dc.lft.to/lastmile_qr_scan"}, "fusion_lon": 0.0}, {"lat": 38.90847683333333, "is_disabled": 0, "type": "electric_scooter", "lon": -77.0426495, "bike_id": "92e71edf984e3ec16dde36d265fe4b7d", "fusion_lat": 0.0, "name": "92e71edf984e3ec16dde36d265fe4b7d", "is_reserved": 0, "rental_uris": {"android": "https://dc.lft.to/lastmile_qr_scan", "ios": "https://dc.lft.to/lastmile_qr_scan"}, "fusion_lon": 0.0}, {"lat": 38.903329666666664, "is_disabled": 0, "type": "electric_scooter", "lon": -77.06304516666667, "bike_id": "7b692484912b702ada1eeaa896136c1d", "fusion_lat": 0.0, "name": "7b692484912b702ada1eeaa896136c1d", "is_reserved": 0, "rental_uris": {"android": "https://dc.lft.to/lastmile_qr_scan", "ios": "https://dc.lft.to/lastmile_qr_scan"}, "fusion_lon": 0.0}, {"lat": 38.81341316666666, "is_disabled": 0, "type": "electric_bike", "lon": -77.04925883333334, "bike_id": "dbe4448c33481586ddc13d41e8e29f41", "fusion_lat": 0.0, "name": "dbe4448c33481586ddc13d41e8e29f41", "is_reserved": 0, "rental_uris": {"android": "https://dc.lft.to/lastmile_qr_scan", "ios": "https://dc.lft.to/lastmile_qr_scan"}, "fusion_lon": 0.0}, {"lat": 38.927816, "is_disabled": 0, "type": "electric_scooter", "lon": -77.03192766666666, "bike_id": "9c3b801f0e5a22d75a17544ca7bdd417", "fusion_lat": 0.0, "name": "9c3b801f0e5a22d75a17544ca7bdd417", "is_reserved": 0, "rental_uris": {"android": "https://dc.lft.to/lastmile_qr_scan", "ios": "https://dc.lft.to/lastmile_qr_scan"}, "fusion_lon": 0.0}, {"lat": 38.91112016666666, "is_disabled": 0, "type": "electric_scooter", "lon": -77.0481705, "bike_id": "26437738fc086cd933d98f606b083c47", "fusion_lat": 0.0, "name": "26437738fc086cd933d98f606b083c47", "is_reserved": 0, "rental_uris": {"android": "https://dc.lft.to/lastmile_qr_scan", "ios": "https://dc.lft.to/lastmile_qr_scan"}, "fusion_lon": 0.0}, {"lat": 38.91808116666667, "is_disabled": 0, "type": "electric_scooter", "lon": -77.03671083333333, "bike_id": "cb50224f305e2ede5846016b422b9ae8", "fusion_lat": 0.0, "name": "cb50224f305e2ede5846016b422b9ae8", "is_reserved": 0, "rental_uris": {"android": "https://dc.lft.to/lastmile_qr_scan", "ios": "https://dc.lft.to/lastmile_qr_scan"}, "fusion_lon": 0.0}, {"lat": 38.9342275, "is_disabled": 0, "type": "electric_scooter", "lon": -77.05557316666666, "bike_id": "5a71a46497a1fd539771e42cdafb6c01", "fusion_lat": 0.0, "name": "5a71a46497a1fd539771e42cdafb6c01", "is_reserved": 0, "rental_uris": {"android": "https://dc.lft.to/lastmile_qr_scan", "ios": "https://dc.lft.to/lastmile_qr_scan"}, "fusion_lon": 0.0}, {"lat": 38.911111, "is_disabled": 0, "type": "electric_scooter", "lon": -77.020209, "bike_id": "5194be36f79c9a8225f5aab66d4c785c", "fusion_lat": 0.0, "name": "5194be36f79c9a8225f5aab66d4c785c", "is_reserved": 0, "rental_uris": {"android": "https://dc.lft.to/lastmile_qr_scan", "ios": "https://dc.lft.to/lastmile_qr_scan"}, "fusion_lon": 0.0}, {"lat": 38.9003925, "is_disabled": 0, "type": "electric_scooter", "lon": -77.00191683333334, "bike_id": "2b4482c46ac1cdc05c52725b59bc0c6b", "fusion_lat": 0.0, "name": "2b4482c46ac1cdc05c52725b59bc0c6b", "is_reserved": 0, "rental_uris": {"android": "https://dc.lft.to/lastmile_qr_scan", "ios": "https://dc.lft.to/lastmile_qr_scan"}, "fusion_lon": 0.0}, {"lat": 38.9148395, "is_disabled": 0, "type": "electric_scooter", "lon": -77.01380683333333, "bike_id": "ea8cbb5a98e53f58b66d44ebc062304e", "fusion_lat": 0.0, "name": "ea8cbb5a98e53f58b66d44ebc062304e", "is_reserved": 0, "rental_uris": {"android": "https://dc.lft.to/lastmile_qr_scan", "ios": "https://dc.lft.to/lastmile_qr_scan"}, "fusion_lon": 0.0}, {"lat": 38.898566, "is_disabled": 0, "type": "electric_scooter", "lon": -76.97666566666666, "bike_id": "fe95798ef6ba5c2533057c3b6f0b1402", "fusion_lat": 0.0, "name": "fe95798ef6ba5c2533057c3b6f0b1402", "is_reserved": 0, "rental_uris": {"android": "https://dc.lft.to/lastmile_qr_scan", "ios": "https://dc.lft.to/lastmile_qr_scan"}, "fusion_lon": 0.0}, {"lat": 38.85520016666667, "is_disabled": 0, "type": "electric_bike", "lon": -76.9842675, "bike_id": "6318f6abb6f1e8276b419e4ffa1356cb", "fusion_lat": 0.0, "name": "6318f6abb6f1e8276b419e4ffa1356cb", "is_reserved": 0, "rental_uris": {"android": "https://dc.lft.to/lastmile_qr_scan", "ios": "https://dc.lft.to/lastmile_qr_scan"}, "fusion_lon": 0.0}, {"lat": 38.911236333333335, "is_disabled": 0, "type": "electric_scooter", "lon": -77.038376, "bike_id": "015116e82ade54eb7637f23bee1a82b1", "fusion_lat": 0.0, "name": "015116e82ade54eb7637f23bee1a82b1", "is_reserved": 0, "rental_uris": {"android": "https://dc.lft.to/lastmile_qr_scan", "ios": "https://dc.lft.to/lastmile_qr_scan"}, "fusion_lon": 0.0}, {"lat": 38.884732666666665, "is_disabled": 0, "type": "electric_scooter", "lon": -76.99284, "bike_id": "6331c79457b0d6e8f34717c94cee6a60", "fusion_lat": 0.0, "name": "6331c79457b0d6e8f34717c94cee6a60", "is_reserved": 0, "rental_uris": {"android": "https://dc.lft.to/lastmile_qr_scan", "ios": "https://dc.lft.to/lastmile_qr_scan"}, "fusion_lon": 0.0}, {"lat": 38.89218416666667, "is_disabled": 0, "type": "electric_scooter", "lon": -76.99586716666667, "bike_id": "ac4a01862516db32c797235b55aec64b", "fusion_lat": 0.0, "name": "ac4a01862516db32c797235b55aec64b", "is_reserved": 0, "rental_uris": {"android": "https://dc.lft.to/lastmile_qr_scan", "ios": "https://dc.lft.to/lastmile_qr_scan"}, "fusion_lon": 0.0}, {"lat": 38.80756216666666, "is_disabled": 0, "type": "electric_bike", "lon": -77.09453933333333, "bike_id": "6b4d22eba7b35cec9ae030f6973c4bb3", "fusion_lat": 0.0, "name": "6b4d22eba7b35cec9ae030f6973c4bb3", "is_reserved": 0, "rental_uris": {"android": "https://dc.lft.to/lastmile_qr_scan", "ios": "https://dc.lft.to/lastmile_qr_scan"}, "fusion_lon": 0.0}, {"lat": 38.915635333333334, "is_disabled": 0, "type": "electric_scooter", "lon": -77.02168533333334, "bike_id": "cab52281dc89cacff4fa5957b61a9292", "fusion_lat": 0.0, "name": "cab52281dc89cacff4fa5957b61a9292", "is_reserved": 0, "rental_uris": {"android": "https://dc.lft.to/lastmile_qr_scan", "ios": "https://dc.lft.to/lastmile_qr_scan"}, "fusion_lon": 0.0}, {"lat": 38.884905833333335, "is_disabled": 0, "type": "electric_scooter", "lon": -77.00712733333333, "bike_id": "643198179fb7c39b1e7e25d9100135e5", "fusion_lat": 0.0, "name": "643198179fb7c39b1e7e25d9100135e5", "is_reserved": 0, "rental_uris": {"android": "https://dc.lft.to/lastmile_qr_scan", "ios": "https://dc.lft.to/lastmile_qr_scan"}, "fusion_lon": 0.0}, {"lat": 38.91553016666667, "is_disabled": 0, "type": "electric_scooter", "lon": -77.04189316666667, "bike_id": "df7909e191a289260ea6186eb0b9e21f", "fusion_lat": 0.0, "name": "df7909e191a289260ea6186eb0b9e21f", "is_reserved": 0, "rental_uris": {"android": "https://dc.lft.to/lastmile_qr_scan", "ios": "https://dc.lft.to/lastmile_qr_scan"}, "fusion_lon": 0.0}, {"lat": 38.9247005, "is_disabled": 0, "type": "electric_scooter", "lon": -77.02710333333333, "bike_id": "732f84fbfe80e1f59c4cf60e03af5a9e", "fusion_lat": 0.0, "name": "732f84fbfe80e1f59c4cf60e03af5a9e", "is_reserved": 0, "rental_uris": {"android": "https://dc.lft.to/lastmile_qr_scan", "ios": "https://dc.lft.to/lastmile_qr_scan"}, "fusion_lon": 0.0}, {"lat": 38.905227, "is_disabled": 0, "type": "electric_bike", "lon": -77.03431033333334, "bike_id": "c5c6d8a212792d26e935249d5233d2e8", "fusion_lat": 0.0, "name": "c5c6d8a212792d26e935249d5233d2e8", "is_reserved": 0, "rental_uris": {"android": "https://dc.lft.to/lastmile_qr_scan", "ios": "https://dc.lft.to/lastmile_qr_scan"}, "fusion_lon": 0.0}, {"lat": 39.02936916666667, "is_disabled": 0, "type": "electric_bike", "lon": -77.0492935, "bike_id": "073dd147e932106ccdcdb321b396acb0", "fusion_lat": 0.0, "name": "073dd147e932106ccdcdb321b396acb0", "is_reserved": 0, "rental_uris": {"android": "https://dc.lft.to/lastmile_qr_scan", "ios": "https://dc.lft.to/lastmile_qr_scan"}, "fusion_lon": 0.0}, {"lat": 38.916382, "is_disabled": 0, "type": "electric_scooter", "lon": -77.03846333333334, "bike_id": "b0ff260a2494bedc962cdee9f502a3f8", "fusion_lat": 0.0, "name": "b0ff260a2494bedc962cdee9f502a3f8", "is_reserved": 0, "rental_uris": {"android": "https://dc.lft.to/lastmile_qr_scan", "ios": "https://dc.lft.to/lastmile_qr_scan"}, "fusion_lon": 0.0}, {"lat": 38.921719333333336, "is_disabled": 0, "type": "electric_scooter", "lon": -77.04016833333333, "bike_id": "ed51e24ccd9836b4a800bfad5fa18c7a", "fusion_lat": 0.0, "name": "ed51e24ccd9836b4a800bfad5fa18c7a", "is_reserved": 0, "rental_uris": {"android": "https://dc.lft.to/lastmile_qr_scan", "ios": "https://dc.lft.to/lastmile_qr_scan"}, "fusion_lon": 0.0}, {"lat": 38.90069533333333, "is_disabled": 0, "type": "electric_scooter", "lon": -77.0074315, "bike_id": "d8591968be94c5604394837a83ef8642", "fusion_lat": 0.0, "name": "d8591968be94c5604394837a83ef8642", "is_reserved": 0, "rental_uris": {"android": "https://dc.lft.to/lastmile_qr_scan", "ios": "https://dc.lft.to/lastmile_qr_scan"}, "fusion_lon": 0.0}, {"lat": 38.82009333333333, "is_disabled": 0, "type": "electric_bike", "lon": -77.05763133333333, "bike_id": "b532c3e9062fe343844eb875673e7023", "fusion_lat": 0.0, "name": "b532c3e9062fe343844eb875673e7023", "is_reserved": 0, "rental_uris": {"android": "https://dc.lft.to/lastmile_qr_scan", "ios": "https://dc.lft.to/lastmile_qr_scan"}, "fusion_lon": 0.0}, {"lat": 38.85225033333333, "is_disabled": 0, "type": "electric_bike", "lon": -77.129601, "bike_id": "19fc634492bfdacff913df66e66102b7", "fusion_lat": 0.0, "name": "19fc634492bfdacff913df66e66102b7", "is_reserved": 0, "rental_uris": {"android": "https://dc.lft.to/lastmile_qr_scan", "ios": "https://dc.lft.to/lastmile_qr_scan"}, "fusion_lon": 0.0}, {"lat": 38.93225783333333, "is_disabled": 0, "type": "electric_scooter", "lon": -77.04413233333334, "bike_id": "78ec829d390137c65a8ad0b026fd2561", "fusion_lat": 0.0, "name": "78ec829d390137c65a8ad0b026fd2561", "is_reserved": 0, "rental_uris": {"android": "https://dc.lft.to/lastmile_qr_scan", "ios": "https://dc.lft.to/lastmile_qr_scan"}, "fusion_lon": 0.0}, {"lat": 38.91762716666667, "is_disabled": 0, "type": "electric_scooter", "lon": -77.00448683333333, "bike_id": "6cf82c54c6d5ee230fdcc64be0c220f3", "fusion_lat": 0.0, "name": "6cf82c54c6d5ee230fdcc64be0c220f3", "is_reserved": 0, "rental_uris": {"android": "https://dc.lft.to/lastmile_qr_scan", "ios": "https://dc.lft.to/lastmile_qr_scan"}, "fusion_lon": 0.0}, {"lat": 38.885338, "is_disabled": 0, "type": "electric_scooter", "lon": -77.01522383333334, "bike_id": "b9f3a12ec154eeeffcf353235f898e9d", "fusion_lat": 0.0, "name": "b9f3a12ec154eeeffcf353235f898e9d", "is_reserved": 0, "rental_uris": {"android": "https://dc.lft.to/lastmile_qr_scan", "ios": "https://dc.lft.to/lastmile_qr_scan"}, "fusion_lon": 0.0}, {"lat": 38.915861666666665, "is_disabled": 0, "type": "electric_scooter", "lon": -77.02081266666667, "bike_id": "6ac51b3bc3b6232fff3b00601e4551f8", "fusion_lat": 0.0, "name": "6ac51b3bc3b6232fff3b00601e4551f8", "is_reserved": 0, "rental_uris": {"android": "https://dc.lft.to/lastmile_qr_scan", "ios": "https://dc.lft.to/lastmile_qr_scan"}, "fusion_lon": 0.0}, {"lat": 38.9193025, "is_disabled": 0, "type": "electric_scooter", "lon": -77.03206633333333, "bike_id": "8daaa54b9ed7aa01661095af08220ec4", "fusion_lat": 0.0, "name": "8daaa54b9ed7aa01661095af08220ec4", "is_reserved": 0, "rental_uris": {"android": "https://dc.lft.to/lastmile_qr_scan", "ios": "https://dc.lft.to/lastmile_qr_scan"}, "fusion_lon": 0.0}, {"lat": 38.865212, "is_disabled": 0, "type": "electric_scooter", "lon": -76.990312, "bike_id": "78cdc3eb0f5b1f2a335528f342e0041b", "fusion_lat": 0.0, "name": "78cdc3eb0f5b1f2a335528f342e0041b", "is_reserved": 0, "rental_uris": {"android": "https://dc.lft.to/lastmile_qr_scan", "ios": "https://dc.lft.to/lastmile_qr_scan"}, "fusion_lon": 0.0}, {"lat": 38.921702333333336, "is_disabled": 0, "type": "electric_scooter", "lon": -77.05135466666667, "bike_id": "dcb360251f33a85b5993c5d019e1e718", "fusion_lat": 0.0, "name": "dcb360251f33a85b5993c5d019e1e718", "is_reserved": 0, "rental_uris": {"android": "https://dc.lft.to/lastmile_qr_scan", "ios": "https://dc.lft.to/lastmile_qr_scan"}, "fusion_lon": 0.0}, {"lat": 38.9247455, "is_disabled": 0, "type": "electric_scooter", "lon": -77.035432, "bike_id": "989e6ef911b625c9de1ecf4ed280ac5a", "fusion_lat": 0.0, "name": "989e6ef911b625c9de1ecf4ed280ac5a", "is_reserved": 0, "rental_uris": {"android": "https://dc.lft.to/lastmile_qr_scan", "ios": "https://dc.lft.to/lastmile_qr_scan"}, "fusion_lon": 0.0}, {"lat": 38.892247166666664, "is_disabled": 0, "type": "electric_scooter", "lon": -77.04870466666667, "bike_id": "eb61e5d4d291450339f9383daed63323", "fusion_lat": 0.0, "name": "eb61e5d4d291450339f9383daed63323", "is_reserved": 0, "rental_uris": {"android": "https://dc.lft.to/lastmile_qr_scan", "ios": "https://dc.lft.to/lastmile_qr_scan"}, "fusion_lon": 0.0}, {"lat": 38.95742883333333, "is_disabled": 0, "type": "electric_bike", "lon": -77.0216955, "bike_id": "9a4738207058812dfb23f077e4fc6b0e", "fusion_lat": 0.0, "name": "9a4738207058812dfb23f077e4fc6b0e", "is_reserved": 0, "rental_uris": {"android": "https://dc.lft.to/lastmile_qr_scan", "ios": "https://dc.lft.to/lastmile_qr_scan"}, "fusion_lon": 0.0}, {"lat": 38.910047, "is_disabled": 0, "type": "electric_scooter", "lon": -77.04006283333334, "bike_id": "a471096c03cdf4036a9b0bf8694ab3a4", "fusion_lat": 0.0, "name": "a471096c03cdf4036a9b0bf8694ab3a4", "is_reserved": 0, "rental_uris": {"android": "https://dc.lft.to/lastmile_qr_scan", "ios": "https://dc.lft.to/lastmile_qr_scan"}, "fusion_lon": 0.0}, {"lat": 38.914037666666665, "is_disabled": 0, "type": "electric_scooter", "lon": -77.03187933333334, "bike_id": "1d0d6f00e7869ac60256758c3abfbd99", "fusion_lat": 0.0, "name": "1d0d6f00e7869ac60256758c3abfbd99", "is_reserved": 0, "rental_uris": {"android": "https://dc.lft.to/lastmile_qr_scan", "ios": "https://dc.lft.to/lastmile_qr_scan"}, "fusion_lon": 0.0}, {"lat": 38.8659925, "is_disabled": 0, "type": "electric_bike", "lon": -76.93231433333334, "bike_id": "005406629940d349736c5981441b1a9a", "fusion_lat": 0.0, "name": "005406629940d349736c5981441b1a9a", "is_reserved": 0, "rental_uris": {"android": "https://dc.lft.to/lastmile_qr_scan", "ios": "https://dc.lft.to/lastmile_qr_scan"}, "fusion_lon": 0.0}, {"lat": 38.90895, "is_disabled": 0, "type": "electric_scooter", "lon": -77.03207633333334, "bike_id": "4611c583455f1a926d36576e303b0b3c", "fusion_lat": 0.0, "name": "4611c583455f1a926d36576e303b0b3c", "is_reserved": 0, "rental_uris": {"android": "https://dc.lft.to/lastmile_qr_scan", "ios": "https://dc.lft.to/lastmile_qr_scan"}, "fusion_lon": 0.0}, {"lat": 38.917139, "is_disabled": 0, "type": "electric_scooter", "lon": -77.03345716666666, "bike_id": "ccc4ea56f318c9969c167bcce2d7db89", "fusion_lat": 0.0, "name": "ccc4ea56f318c9969c167bcce2d7db89", "is_reserved": 0, "rental_uris": {"android": "https://dc.lft.to/lastmile_qr_scan", "ios": "https://dc.lft.to/lastmile_qr_scan"}, "fusion_lon": 0.0}, {"lat": 38.8892725, "is_disabled": 0, "type": "electric_scooter", "lon": -76.97373733333333, "bike_id": "d993998f26f75f3d9b8499ee38c10364", "fusion_lat": 0.0, "name": "d993998f26f75f3d9b8499ee38c10364", "is_reserved": 0, "rental_uris": {"android": "https://dc.lft.to/lastmile_qr_scan", "ios": "https://dc.lft.to/lastmile_qr_scan"}, "fusion_lon": 0.0}, {"lat": 38.944094666666665, "is_disabled": 0, "type": "electric_scooter", "lon": -77.02646833333333, "bike_id": "ba58914f06f5b33b85a0facfe8e6e5ed", "fusion_lat": 0.0, "name": "ba58914f06f5b33b85a0facfe8e6e5ed", "is_reserved": 0, "rental_uris": {"android": "https://dc.lft.to/lastmile_qr_scan", "ios": "https://dc.lft.to/lastmile_qr_scan"}, "fusion_lon": 0.0}, {"lat": 38.87245166666666, "is_disabled": 0, "type": "electric_scooter", "lon": -76.97726466666667, "bike_id": "c88f5dc685c6062cf29745e417a647f0", "fusion_lat": 0.0, "name": "c88f5dc685c6062cf29745e417a647f0", "is_reserved": 0, "rental_uris": {"android": "https://dc.lft.to/lastmile_qr_scan", "ios": "https://dc.lft.to/lastmile_qr_scan"}, "fusion_lon": 0.0}, {"lat": 38.9005855, "is_disabled": 0, "type": "electric_scooter", "lon": -77.001991, "bike_id": "1c05b19799ea043c39f40c2781d1d0be", "fusion_lat": 0.0, "name": "1c05b19799ea043c39f40c2781d1d0be", "is_reserved": 0, "rental_uris": {"android": "https://dc.lft.to/lastmile_qr_scan", "ios": "https://dc.lft.to/lastmile_qr_scan"}, "fusion_lon": 0.0}, {"lat": 38.93925083333333, "is_disabled": 0, "type": "electric_scooter", "lon": -77.02799283333333, "bike_id": "3c94cb4c93e7b5bfb5c5449b2c5bada2", "fusion_lat": 0.0, "name": "3c94cb4c93e7b5bfb5c5449b2c5bada2", "is_reserved": 0, "rental_uris": {"android": "https://dc.lft.to/lastmile_qr_scan", "ios": "https://dc.lft.to/lastmile_qr_scan"}, "fusion_lon": 0.0}, {"lat": 38.91289183333333, "is_disabled": 0, "type": "electric_bike", "lon": -77.04483, "bike_id": "bc4f0a981f71f586ca61ad3a023eafd8", "fusion_lat": 0.0, "name": "bc4f0a981f71f586ca61ad3a023eafd8", "is_reserved": 0, "rental_uris": {"android": "https://dc.lft.to/lastmile_qr_scan", "ios": "https://dc.lft.to/lastmile_qr_scan"}, "fusion_lon": 0.0}, {"lat": 38.90856733333333, "is_disabled": 0, "type": "electric_scooter", "lon": -77.0476385, "bike_id": "a62db59a2c1ecc7d3e3576f86bab67a4", "fusion_lat": 0.0, "name": "a62db59a2c1ecc7d3e3576f86bab67a4", "is_reserved": 0, "rental_uris": {"android": "https://dc.lft.to/lastmile_qr_scan", "ios": "https://dc.lft.to/lastmile_qr_scan"}, "fusion_lon": 0.0}, {"lat": 38.956343, "is_disabled": 0, "type": "electric_bike", "lon": -77.01958133333333, "bike_id": "71afc3163368c759bf456bf51d907150", "fusion_lat": 0.0, "name": "71afc3163368c759bf456bf51d907150", "is_reserved": 0, "rental_uris": {"android": "https://dc.lft.to/lastmile_qr_scan", "ios": "https://dc.lft.to/lastmile_qr_scan"}, "fusion_lon": 0.0}, {"lat": 38.903634333333336, "is_disabled": 0, "type": "electric_scooter", "lon": -77.01111083333333, "bike_id": "6db08036c716c93bb4a93f7c6befc24a", "fusion_lat": 0.0, "name": "6db08036c716c93bb4a93f7c6befc24a", "is_reserved": 0, "rental_uris": {"android": "https://dc.lft.to/lastmile_qr_scan", "ios": "https://dc.lft.to/lastmile_qr_scan"}, "fusion_lon": 0.0}, {"lat": 38.902805, "is_disabled": 0, "type": "electric_scooter", "lon": -77.05814083333334, "bike_id": "9daebf6564ef20dd6bcd476ba76f3b52", "fusion_lat": 0.0, "name": "9daebf6564ef20dd6bcd476ba76f3b52", "is_reserved": 0, "rental_uris": {"android": "https://dc.lft.to/lastmile_qr_scan", "ios": "https://dc.lft.to/lastmile_qr_scan"}, "fusion_lon": 0.0}, {"lat": 38.9056445, "is_disabled": 0, "type": "electric_scooter", "lon": -77.0168005, "bike_id": "db799d2e8f957cc1b08d6a9898b9ebf5", "fusion_lat": 0.0, "name": "db799d2e8f957cc1b08d6a9898b9ebf5", "is_reserved": 0, "rental_uris": {"android": "https://dc.lft.to/lastmile_qr_scan", "ios": "https://dc.lft.to/lastmile_qr_scan"}, "fusion_lon": 0.0}, {"lat": 38.93090933333333, "is_disabled": 0, "type": "electric_scooter", "lon": -77.0774815, "bike_id": "c59e49f9fb62156e9fc88475354003fb", "fusion_lat": 0.0, "name": "c59e49f9fb62156e9fc88475354003fb", "is_reserved": 0, "rental_uris": {"android": "https://dc.lft.to/lastmile_qr_scan", "ios": "https://dc.lft.to/lastmile_qr_scan"}, "fusion_lon": 0.0}, {"lat": 38.840329833333335, "is_disabled": 0, "type": "electric_bike", "lon": -76.97585, "bike_id": "8e60a7025ffabb5867b863cee13e6dcb", "fusion_lat": 0.0, "name": "8e60a7025ffabb5867b863cee13e6dcb", "is_reserved": 0, "rental_uris": {"android": "https://dc.lft.to/lastmile_qr_scan", "ios": "https://dc.lft.to/lastmile_qr_scan"}, "fusion_lon": 0.0}, {"lat": 38.909448833333336, "is_disabled": 0, "type": "electric_scooter", "lon": -76.98962816666666, "bike_id": "1537b0d1e7c6b0da3cdd2ac86984060f", "fusion_lat": 0.0, "name": "1537b0d1e7c6b0da3cdd2ac86984060f", "is_reserved": 0, "rental_uris": {"android": "https://dc.lft.to/lastmile_qr_scan", "ios": "https://dc.lft.to/lastmile_qr_scan"}, "fusion_lon": 0.0}, {"lat": 38.867016, "is_disabled": 0, "type": "electric_scooter", "lon": -76.98715483333334, "bike_id": "c0a42b857a0a2f4f611032683b5b7433", "fusion_lat": 0.0, "name": "c0a42b857a0a2f4f611032683b5b7433", "is_reserved": 0, "rental_uris": {"android": "https://dc.lft.to/lastmile_qr_scan", "ios": "https://dc.lft.to/lastmile_qr_scan"}, "fusion_lon": 0.0}, {"lat": 38.90064, "is_disabled": 0, "type": "electric_scooter", "lon": -77.0502615, "bike_id": "8c3a75c52bd46b06e583bc281e9345dd", "fusion_lat": 0.0, "name": "8c3a75c52bd46b06e583bc281e9345dd", "is_reserved": 0, "rental_uris": {"android": "https://dc.lft.to/lastmile_qr_scan", "ios": "https://dc.lft.to/lastmile_qr_scan"}, "fusion_lon": 0.0}, {"lat": 38.9007305, "is_disabled": 0, "type": "electric_scooter", "lon": -77.02714633333333, "bike_id": "1baa88a9a9068c7fd834937b136d2fa4", "fusion_lat": 0.0, "name": "1baa88a9a9068c7fd834937b136d2fa4", "is_reserved": 0, "rental_uris": {"android": "https://dc.lft.to/lastmile_qr_scan", "ios": "https://dc.lft.to/lastmile_qr_scan"}, "fusion_lon": 0.0}, {"lat": 38.87416366666667, "is_disabled": 0, "type": "electric_bike", "lon": -76.96572083333334, "bike_id": "c85f908b444dcd48cb966f687e81851c", "fusion_lat": 0.0, "name": "c85f908b444dcd48cb966f687e81851c", "is_reserved": 0, "rental_uris": {"android": "https://dc.lft.to/lastmile_qr_scan", "ios": "https://dc.lft.to/lastmile_qr_scan"}, "fusion_lon": 0.0}, {"lat": 38.88744483333333, "is_disabled": 0, "type": "electric_scooter", "lon": -76.98356633333333, "bike_id": "518c169c288f504abd5b9db04125e9c2", "fusion_lat": 0.0, "name": "518c169c288f504abd5b9db04125e9c2", "is_reserved": 0, "rental_uris": {"android": "https://dc.lft.to/lastmile_qr_scan", "ios": "https://dc.lft.to/lastmile_qr_scan"}, "fusion_lon": 0.0}, {"lat": 38.919346166666664, "is_disabled": 0, "type": "electric_scooter", "lon": -77.02303, "bike_id": "f6719bb41d63174ee139e5389064c628", "fusion_lat": 0.0, "name": "f6719bb41d63174ee139e5389064c628", "is_reserved": 0, "rental_uris": {"android": "https://dc.lft.to/lastmile_qr_scan", "ios": "https://dc.lft.to/lastmile_qr_scan"}, "fusion_lon": 0.0}, {"lat": 38.9052215, "is_disabled": 0, "type": "electric_scooter", "lon": -77.05767933333334, "bike_id": "5f88b113de3c86cf44f9fc4a81353ff8", "fusion_lat": 0.0, "name": "5f88b113de3c86cf44f9fc4a81353ff8", "is_reserved": 0, "rental_uris": {"android": "https://dc.lft.to/lastmile_qr_scan", "ios": "https://dc.lft.to/lastmile_qr_scan"}, "fusion_lon": 0.0}, {"lat": 38.8503405, "is_disabled": 0, "type": "electric_bike", "lon": -76.97296716666666, "bike_id": "5fdd06bbf041865c15ac80a3fa4e569a", "fusion_lat": 0.0, "name": "5fdd06bbf041865c15ac80a3fa4e569a", "is_reserved": 0, "rental_uris": {"android": "https://dc.lft.to/lastmile_qr_scan", "ios": "https://dc.lft.to/lastmile_qr_scan"}, "fusion_lon": 0.0}, {"lat": 38.8971725, "is_disabled": 0, "type": "electric_scooter", "lon": -77.00798383333333, "bike_id": "fe2bea2bba38f584c018e53052df2a3a", "fusion_lat": 0.0, "name": "fe2bea2bba38f584c018e53052df2a3a", "is_reserved": 0, "rental_uris": {"android": "https://dc.lft.to/lastmile_qr_scan", "ios": "https://dc.lft.to/lastmile_qr_scan"}, "fusion_lon": 0.0}, {"lat": 38.917596333333336, "is_disabled": 0, "type": "electric_scooter", "lon": -77.04419883333334, "bike_id": "20700af0e9b901bd3c7aa2bf85cac993", "fusion_lat": 0.0, "name": "20700af0e9b901bd3c7aa2bf85cac993", "is_reserved": 0, "rental_uris": {"android": "https://dc.lft.to/lastmile_qr_scan", "ios": "https://dc.lft.to/lastmile_qr_scan"}, "fusion_lon": 0.0}, {"lat": 38.902695333333334, "is_disabled": 0, "type": "electric_scooter", "lon": -77.05261466666667, "bike_id": "7493d17c3d1730a7f4bb940a3cf9cb10", "fusion_lat": 0.0, "name": "7493d17c3d1730a7f4bb940a3cf9cb10", "is_reserved": 0, "rental_uris": {"android": "https://dc.lft.to/lastmile_qr_scan", "ios": "https://dc.lft.to/lastmile_qr_scan"}, "fusion_lon": 0.0}, {"lat": 38.908193, "is_disabled": 0, "type": "electric_scooter", "lon": -77.01844183333333, "bike_id": "b5ef4d7eefd6ae8b7d65e6e527e855b1", "fusion_lat": 0.0, "name": "b5ef4d7eefd6ae8b7d65e6e527e855b1", "is_reserved": 0, "rental_uris": {"android": "https://dc.lft.to/lastmile_qr_scan", "ios": "https://dc.lft.to/lastmile_qr_scan"}, "fusion_lon": 0.0}, {"lat": 38.90453133333333, "is_disabled": 0, "type": "electric_scooter", "lon": -77.034612, "bike_id": "4206a6f1e6c0be3eff8003a7e30523d0", "fusion_lat": 0.0, "name": "4206a6f1e6c0be3eff8003a7e30523d0", "is_reserved": 0, "rental_uris": {"android": "https://dc.lft.to/lastmile_qr_scan", "ios": "https://dc.lft.to/lastmile_qr_scan"}, "fusion_lon": 0.0}, {"lat": 38.922402, "is_disabled": 0, "type": "electric_scooter", "lon": -77.0457775, "bike_id": "7f1cd5fa009e2a5e10c10a18464e2d88", "fusion_lat": 0.0, "name": "7f1cd5fa009e2a5e10c10a18464e2d88", "is_reserved": 0, "rental_uris": {"android": "https://dc.lft.to/lastmile_qr_scan", "ios": "https://dc.lft.to/lastmile_qr_scan"}, "fusion_lon": 0.0}, {"lat": 38.919069, "is_disabled": 0, "type": "electric_scooter", "lon": -77.0708005, "bike_id": "6b848270941413bb32a525759cb1147b", "fusion_lat": 0.0, "name": "6b848270941413bb32a525759cb1147b", "is_reserved": 0, "rental_uris": {"android": "https://dc.lft.to/lastmile_qr_scan", "ios": "https://dc.lft.to/lastmile_qr_scan"}, "fusion_lon": 0.0}, {"lat": 38.91219183333333, "is_disabled": 0, "type": "electric_scooter", "lon": -77.02800916666666, "bike_id": "fcd10176c15f3674ae06a4194e487a4f", "fusion_lat": 0.0, "name": "fcd10176c15f3674ae06a4194e487a4f", "is_reserved": 0, "rental_uris": {"android": "https://dc.lft.to/lastmile_qr_scan", "ios": "https://dc.lft.to/lastmile_qr_scan"}, "fusion_lon": 0.0}, {"lat": 38.93864133333334, "is_disabled": 0, "type": "electric_scooter", "lon": -77.025941, "bike_id": "fbd21bc34ff30d05935ea03e25cc59c4", "fusion_lat": 0.0, "name": "fbd21bc34ff30d05935ea03e25cc59c4", "is_reserved": 0, "rental_uris": {"android": "https://dc.lft.to/lastmile_qr_scan", "ios": "https://dc.lft.to/lastmile_qr_scan"}, "fusion_lon": 0.0}, {"lat": 38.94437666666666, "is_disabled": 0, "type": "electric_scooter", "lon": -77.06348116666666, "bike_id": "86a037659039b75e99119bf0283c34d2", "fusion_lat": 0.0, "name": "86a037659039b75e99119bf0283c34d2", "is_reserved": 0, "rental_uris": {"android": "https://dc.lft.to/lastmile_qr_scan", "ios": "https://dc.lft.to/lastmile_qr_scan"}, "fusion_lon": 0.0}, {"lat": 38.918176833333334, "is_disabled": 0, "type": "electric_scooter", "lon": -77.02956333333333, "bike_id": "9ee1a0e769973a05f3495c6eb6d1f574", "fusion_lat": 0.0, "name": "9ee1a0e769973a05f3495c6eb6d1f574", "is_reserved": 0, "rental_uris": {"android": "https://dc.lft.to/lastmile_qr_scan", "ios": "https://dc.lft.to/lastmile_qr_scan"}, "fusion_lon": 0.0}, {"lat": 38.92558, "is_disabled": 0, "type": "electric_scooter", "lon": -77.03225333333333, "bike_id": "58b7e87b31a487cedaf3dc5b69e3314c", "fusion_lat": 0.0, "name": "58b7e87b31a487cedaf3dc5b69e3314c", "is_reserved": 0, "rental_uris": {"android": "https://dc.lft.to/lastmile_qr_scan", "ios": "https://dc.lft.to/lastmile_qr_scan"}, "fusion_lon": 0.0}, {"lat": 38.9072915, "is_disabled": 0, "type": "electric_scooter", "lon": -77.00059483333334, "bike_id": "de823fb3127c19c1ba93db7051735812", "fusion_lat": 0.0, "name": "de823fb3127c19c1ba93db7051735812", "is_reserved": 0, "rental_uris": {"android": "https://dc.lft.to/lastmile_qr_scan", "ios": "https://dc.lft.to/lastmile_qr_scan"}, "fusion_lon": 0.0}, {"lat": 38.84432816666666, "is_disabled": 0, "type": "electric_scooter", "lon": -76.99814816666667, "bike_id": "78fadce2c7cf5e1a63d7864693f18871", "fusion_lat": 0.0, "name": "78fadce2c7cf5e1a63d7864693f18871", "is_reserved": 0, "rental_uris": {"android": "https://dc.lft.to/lastmile_qr_scan", "ios": "https://dc.lft.to/lastmile_qr_scan"}, "fusion_lon": 0.0}, {"lat": 38.92319, "is_disabled": 0, "type": "electric_scooter", "lon": -77.04656266666667, "bike_id": "33688b950b3efa19e263b390435cef45", "fusion_lat": 0.0, "name": "33688b950b3efa19e263b390435cef45", "is_reserved": 0, "rental_uris": {"android": "https://dc.lft.to/lastmile_qr_scan", "ios": "https://dc.lft.to/lastmile_qr_scan"}, "fusion_lon": 0.0}, {"lat": 38.854328333333335, "is_disabled": 0, "type": "electric_bike", "lon": -76.9097035, "bike_id": "0c0bc3988090e5ef7c48872f5c6a601d", "fusion_lat": 0.0, "name": "0c0bc3988090e5ef7c48872f5c6a601d", "is_reserved": 0, "rental_uris": {"android": "https://dc.lft.to/lastmile_qr_scan", "ios": "https://dc.lft.to/lastmile_qr_scan"}, "fusion_lon": 0.0}, {"lat": 38.90567016666667, "is_disabled": 0, "type": "electric_scooter", "lon": -76.98150116666666, "bike_id": "6157496becea0ca80c9173e116b0d96d", "fusion_lat": 0.0, "name": "6157496becea0ca80c9173e116b0d96d", "is_reserved": 0, "rental_uris": {"android": "https://dc.lft.to/lastmile_qr_scan", "ios": "https://dc.lft.to/lastmile_qr_scan"}, "fusion_lon": 0.0}, {"lat": 38.9026225, "is_disabled": 0, "type": "electric_scooter", "lon": -77.01764016666667, "bike_id": "e3c4f885f06786c1868bca683fb983c5", "fusion_lat": 0.0, "name": "e3c4f885f06786c1868bca683fb983c5", "is_reserved": 0, "rental_uris": {"android": "https://dc.lft.to/lastmile_qr_scan", "ios": "https://dc.lft.to/lastmile_qr_scan"}, "fusion_lon": 0.0}, {"lat": 38.91259983333333, "is_disabled": 0, "type": "electric_scooter", "lon": -77.0183705, "bike_id": "f84d972c141f1e47b89e971a04fb82de", "fusion_lat": 0.0, "name": "f84d972c141f1e47b89e971a04fb82de", "is_reserved": 0, "rental_uris": {"android": "https://dc.lft.to/lastmile_qr_scan", "ios": "https://dc.lft.to/lastmile_qr_scan"}, "fusion_lon": 0.0}, {"lat": 38.92074566666667, "is_disabled": 0, "type": "electric_scooter", "lon": -77.025366, "bike_id": "f44f8d6969522bc3d19bb0b267c954b0", "fusion_lat": 0.0, "name": "f44f8d6969522bc3d19bb0b267c954b0", "is_reserved": 0, "rental_uris": {"android": "https://dc.lft.to/lastmile_qr_scan", "ios": "https://dc.lft.to/lastmile_qr_scan"}, "fusion_lon": 0.0}, {"lat": 38.866543166666666, "is_disabled": 0, "type": "electric_scooter", "lon": -76.98884733333334, "bike_id": "4ad133aa85bf2345abe3c0e19d26ba28", "fusion_lat": 0.0, "name": "4ad133aa85bf2345abe3c0e19d26ba28", "is_reserved": 0, "rental_uris": {"android": "https://dc.lft.to/lastmile_qr_scan", "ios": "https://dc.lft.to/lastmile_qr_scan"}, "fusion_lon": 0.0}, {"lat": 38.80059116666666, "is_disabled": 0, "type": "electric_bike", "lon": -77.07115716666667, "bike_id": "98e8b718566c87f9212510568451de4d", "fusion_lat": 0.0, "name": "98e8b718566c87f9212510568451de4d", "is_reserved": 0, "rental_uris": {"android": "https://dc.lft.to/lastmile_qr_scan", "ios": "https://dc.lft.to/lastmile_qr_scan"}, "fusion_lon": 0.0}, {"lat": 38.940411166666664, "is_disabled": 0, "type": "electric_bike", "lon": -76.988206, "bike_id": "dbce8b5f29cd51273c57dd7714edc874", "fusion_lat": 0.0, "name": "dbce8b5f29cd51273c57dd7714edc874", "is_reserved": 0, "rental_uris": {"android": "https://dc.lft.to/lastmile_qr_scan", "ios": "https://dc.lft.to/lastmile_qr_scan"}, "fusion_lon": 0.0}, {"lat": 38.88496, "is_disabled": 0, "type": "electric_scooter", "lon": -77.00706483333333, "bike_id": "c60d4b77f6f4be848c33ae3a625e6513", "fusion_lat": 0.0, "name": "c60d4b77f6f4be848c33ae3a625e6513", "is_reserved": 0, "rental_uris": {"android": "https://dc.lft.to/lastmile_qr_scan", "ios": "https://dc.lft.to/lastmile_qr_scan"}, "fusion_lon": 0.0},