{"data": {"bikes": [{"lat": 38.859382333333336, "fusion_lat": 0.0, "is_reserved": 0, "is_disabled": 0, "type": "electric_scooter", "name": "d103cf54c6ae6d7e351d781e3d3aec72", "lon": -76.98685266666666, "fusion_lon": 0.0, "rental_uris": {"android": "https://dc.lft.to/lastmile_qr_scan", "ios": "https://dc.lft.to/lastmile_qr_scan"}, "bike_id": "d103cf54c6ae6d7e351d781e3d3aec72"}, {"lat": 38.903809833333334, "fusion_lat": 0.0, "is_reserved": 0, "is_disabled": 0, "type": "electric_scooter", "name": "d2918e68169680d0469c65f5a5337794", "lon": -77.04489216666667, "fusion_lon": 0.0, "rental_uris": {"android": "https://dc.lft.to/lastmile_qr_scan", "ios": "https://dc.lft.to/lastmile_qr_scan"}, "bike_id": "d2918e68169680d0469c65f5a5337794"}, {"lat": 38.91807766666667, "fusion_lat": 0.0, "is_reserved": 0, "is_disabled": 0, "type": "electric_scooter", "name": "77b4a40845c4f063b378ed28465fb349", "lon": -77.03722183333333, "fusion_lon": 0.0, "rental_uris": {"android": "https://dc.lft.to/lastmile_qr_scan", "ios": "https://dc.lft.to/lastmile_qr_scan"}, "bike_id": "77b4a40845c4f063b378ed28465fb349"}, {"lat": 38.896823166666664, "fusion_lat": 0.0, "is_reserved": 0, "is_disabled": 0, "type": "electric_scooter", "name": "b922dea4fcedb55ccc68bc9c1447043e", "lon": -76.93907633333333, "fusion_lon": 0.0, "rental_uris": {"android": "https://dc.lft.to/lastmile_qr_scan", "ios": "https://dc.lft.to/lastmile_qr_scan"}, "bike_id": "b922dea4fcedb55ccc68bc9c1447043e"}, {"lat": 38.91846016666667, "fusion_lat": 0.0, "is_reserved": 0, "is_disabled": 0, "type": "electric_scooter", "name": "91e88562cff7e29fc6df9d4cfde4c776", "lon": -77.03913883333334, "fusion_lon": 0.0, "rental_uris": {"android": "https://dc.lft.to/lastmile_qr_scan", "ios": "https://dc.lft.to/lastmile_qr_scan"}, "bike_id": "91e88562cff7e29fc6df9d4cfde4c776"}, {"lat": 38.919849666666664, "fusion_lat": 0.0, "is_reserved": 0, "is_disabled": 0, "type": "electric_scooter", "name": "2f2252d21b210aa9f3bcbaed702ba855", "lon": -77.04160733333333, "fusion_lon": 0.0, "rental_uris": {"android": "https://dc.lft.to/lastmile_qr_scan", "ios": "https://dc.lft.to/lastmile_qr_scan"}, "bike_id": "2f2252d21b210aa9f3bcbaed702ba855"}, {"lat": 38.9545345, "fusion_lat": 0.0, "is_reserved": 0, "is_disabled": 0, "type": "electric_bike", "name": "0c457e8f1f610adc0d396ce0d633702f", "lon": -76.98778716666666, "fusion_lon": 0.0, "rental_uris": {"android": "https://dc.lft.to/lastmile_qr_scan", "ios": "https://dc.lft.to/lastmile_qr_scan"}, "bike_id": "0c457e8f1f610adc0d396ce0d633702f"}, {"lat": 38.911280833333336, "fusion_lat": 0.0, "is_reserved": 0, "is_disabled": 0, "type": "electric_scooter", "name": "829e5f5dd7ed703e4ee6e0ee1f2c30cb", "lon": -77.02198666666666, "fusion_lon": 0.0, "rental_uris": {"android": "https://dc.lft.to/lastmile_qr_scan", "ios": "https://dc.lft.to/lastmile_qr_scan"}, "bike_id": "829e5f5dd7ed703e4ee6e0ee1f2c30cb"}, {"lat": 38.910164333333334, "fusion_lat": 0.0, "is_reserved": 0, "is_disabled": 0, "type": "electric_scooter", "name": "15ec45f8f3b03f0db67485877f4f98e9", "lon": -77.04454883333334, "fusion_lon": 0.0, "rental_uris": {"android": "https://dc.lft.to/lastmile_qr_scan", "ios": "https://dc.lft.to/lastmile_qr_scan"}, "bike_id": "15ec45f8f3b03f0db67485877f4f98e9"}, {"lat": 38.885021333333334, "fusion_lat": 0.0, "is_reserved": 0, "is_disabled": 0, "type": "electric_scooter", "name": "3be0f86a805a5c69b5648499c20a7338", "lon": -77.00566166666667, "fusion_lon": 0.0, "rental_uris": {"android": "https://dc.lft.to/lastmile_qr_scan", "ios": "https://dc.lft.to/lastmile_qr_scan"}, "bike_id": "3be0f86a805a5c69b5648499c20a7338"}, {"lat": 38.87468783333333, "fusion_lat": 0.0, "is_reserved": 0, "is_disabled": 0, "type": "electric_scooter", "name": "bc40dce0c2550b685fdc022952f3d99b", "lon": -77.00405783333333, "fusion_lon": 0.0, "rental_uris": {"android": "https://dc.lft.to/lastmile_qr_scan", "ios": "https://dc.lft.to/lastmile_qr_scan"}, "bike_id": "bc40dce0c2550b685fdc022952f3d99b"}, {"lat": 38.92096033333333, "fusion_lat": 0.0, "is_reserved": 0, "is_disabled": 0, "type": "electric_scooter", "name": "1da6a452d6b58c7bde09124ce8a28b4f", "lon": -77.04114616666666, "fusion_lon": 0.0, "rental_uris": {"android": "https://dc.lft.to/lastmile_qr_scan", "ios": "https://dc.lft.to/lastmile_qr_scan"}, "bike_id": "1da6a452d6b58c7bde09124ce8a28b4f"}, {"lat": 38.935202333333336, "fusion_lat": 0.0, "is_reserved": 0, "is_disabled": 0, "type": "electric_scooter", "name": "9fd38a0525bf9de7a4dcf11b6307641c", "lon": -77.07290783333333, "fusion_lon": 0.0, "rental_uris": {"android": "https://dc.lft.to/lastmile_qr_scan", "ios": "https://dc.lft.to/lastmile_qr_scan"}, "bike_id": "9fd38a0525bf9de7a4dcf11b6307641c"}, {"lat": 38.966188833333334, "fusion_lat": 0.0, "is_reserved": 0, "is_disabled": 0, "type": "electric_bike", "name": "63c60ebdd3aabb68e8e5b0a332a7ecc1", "lon": -77.03431583333334, "fusion_lon": 0.0, "rental_uris": {"android": "https://dc.lft.to/lastmile_qr_scan", "ios": "https://dc.lft.to/lastmile_qr_scan"}, "bike_id": "63c60ebdd3aabb68e8e5b0a332a7ecc1"}, {"lat": 38.96174883333333, "fusion_lat": 0.0, "is_reserved": 0, "is_disabled": 0, "type": "electric_scooter", "name": "9989c25a963a0a85cf98d40ee54e2057", "lon": -77.03226283333333, "fusion_lon": 0.0, "rental_uris": {"android": "https://dc.lft.to/lastmile_qr_scan", "ios": "https://dc.lft.to/lastmile_qr_scan"}, "bike_id": "9989c25a963a0a85cf98d40ee54e2057"}, {"lat": 38.8950645, "fusion_lat": 0.0, "is_reserved": 0, "is_disabled": 0, "type": "electric_scooter", "name": "4ed4e8dc03431ea571ea79b29cf76b13", "lon": -77.04183083333334, "fusion_lon": 0.0, "rental_uris": {"android": "https://dc.lft.to/lastmile_qr_scan", "ios": "https://dc.lft.to/lastmile_qr_scan"}, "bike_id": "4ed4e8dc03431ea571ea79b29cf76b13"}, {"lat": 38.941814666666666, "fusion_lat": 0.0, "is_reserved": 0, "is_disabled": 0, "type": "electric_scooter", "name": "a93ef760d280ef45736c855b6f6832b6", "lon": -77.03150883333333, "fusion_lon": 0.0, "rental_uris": {"android": "https://dc.lft.to/lastmile_qr_scan", "ios": "https://dc.lft.to/lastmile_qr_scan"}, "bike_id": "a93ef760d280ef45736c855b6f6832b6"}, {"lat": 38.899638333333336, "fusion_lat": 0.0, "is_reserved": 0, "is_disabled": 0, "type": "electric_scooter", "name": "01ef42a77741b7539e110f23fca520ce", "lon": -77.03073533333334, "fusion_lon": 0.0, "rental_uris": {"android": "https://dc.lft.to/lastmile_qr_scan", "ios": "https://dc.lft.to/lastmile_qr_scan"}, "bike_id": "01ef42a77741b7539e110f23fca520ce"}, {"lat": 38.922643666666666, "fusion_lat": 0.0, "is_reserved": 0, "is_disabled": 0, "type": "electric_scooter", "name": "d1240182c975dc987dd210f0a756b1fa", "lon": -77.01894916666667, "fusion_lon": 0.0, "rental_uris": {"android": "https://dc.lft.to/lastmile_qr_scan", "ios": "https://dc.lft.to/lastmile_qr_scan"}, "bike_id": "d1240182c975dc987dd210f0a756b1fa"}, {"lat": 38.889560833333334, "fusion_lat": 0.0, "is_reserved": 0, "is_disabled": 0, "type": "electric_scooter", "name": "32dc2d2456e4914180911fbc9b2d3c1b", "lon": -76.9360315, "fusion_lon": 0.0, "rental_uris": {"android": "https://dc.lft.to/lastmile_qr_scan", "ios": "https://dc.lft.to/lastmile_qr_scan"}, "bike_id": "32dc2d2456e4914180911fbc9b2d3c1b"}, {"lat": 38.9112855, "fusion_lat": 0.0, "is_reserved": 0, "is_disabled": 0, "type": "electric_scooter", "name": "ff8972d14bf5afb819f0cb3ed024adec", "lon": -77.02201983333333, "fusion_lon": 0.0, "rental_uris": {"android": "https://dc.lft.to/lastmile_qr_scan", "ios": "https://dc.lft.to/lastmile_qr_scan"}, "bike_id": "ff8972d14bf5afb819f0cb3ed024adec"}, {"lat": 38.89450716666666, "fusion_lat": 0.0, "is_reserved": 0, "is_disabled": 0, "type": "electric_bike", "name": "84d49ad426d25497dbaba9b3d8b0706f", "lon": -77.15830483333333, "fusion_lon": 0.0, "rental_uris": {"android": "https://dc.lft.to/lastmile_qr_scan", "ios": "https://dc.lft.to/lastmile_qr_scan"}, "bike_id": "84d49ad426d25497dbaba9b3d8b0706f"}, {"lat": 38.935262333333334, "fusion_lat": 0.0, "is_reserved": 0, "is_disabled": 0, "type": "electric_scooter", "name": "c05bcbaee36add10814c0f76b4832805", "lon": -77.03810916666667, "fusion_lon": 0.0, "rental_uris": {"android": "https://dc.lft.to/lastmile_qr_scan", "ios": "https://dc.lft.to/lastmile_qr_scan"}, "bike_id": "c05bcbaee36add10814c0f76b4832805"}, {"lat": 38.922565666666664, "fusion_lat": 0.0, "is_reserved": 0, "is_disabled": 0, "type": "electric_scooter", "name": "5bc08af0913fbc1a2b9d7600c11364c4", "lon": -77.0195225, "fusion_lon": 0.0, "rental_uris": {"android": "https://dc.lft.to/lastmile_qr_scan", "ios": "https://dc.lft.to/lastmile_qr_scan"}, "bike_id": "5bc08af0913fbc1a2b9d7600c11364c4"}, {"lat": 38.904409333333334, "fusion_lat": 0.0, "is_reserved": 0, "is_disabled": 0, "type": "electric_scooter", "name": "d20249d97e0cb7882492a0129c00b786", "lon": -77.046623, "fusion_lon": 0.0, "rental_uris": {"android": "https://dc.lft.to/lastmile_qr_scan", "ios": "https://dc.lft.to/lastmile_qr_scan"}, "bike_id": "d20249d97e0cb7882492a0129c00b786"}, {"lat": 38.96512633333333, "fusion_lat": 0.0, "is_reserved": 0, "is_disabled": 0, "type": "electric_bike", "name": "8c0e441e38d7712cf2b21a3e8eac3b9e", "lon": -77.03368233333333, "fusion_lon": 0.0, "rental_uris": {"android": "https://dc.lft.to/lastmile_qr_scan", "ios": "https://dc.lft.to/lastmile_qr_scan"}, "bike_id": "8c0e441e38d7712cf2b21a3e8eac3b9e"}, {"lat": 38.876527333333335, "fusion_lat": 0.0, "is_reserved": 0, "is_disabled": 0, "type": "electric_scooter", "name": "9d187b5ac3497ccf37472c98dbfa2ee5", "lon": -77.005859, "fusion_lon": 0.0, "rental_uris": {"android": "https://dc.lft.to/lastmile_qr_scan", "ios": "https://dc.lft.to/lastmile_qr_scan"}, "bike_id": "9d187b5ac3497ccf37472c98dbfa2ee5"}, {"lat": 38.892216166666664, "fusion_lat": 0.0, "is_reserved": 0, "is_disabled": 0, "type": "electric_scooter", "name": "5cf7da3b03fbc34457a0e44bc735ae16", "lon": -77.0486275, "fusion_lon": 0.0, "rental_uris": {"android": "https://dc.lft.to/lastmile_qr_scan", "ios": "https://dc.lft.to/lastmile_qr_scan"}, "bike_id": "5cf7da3b03fbc34457a0e44bc735ae16"}, {"lat": 38.91807, "fusion_lat": 0.0, "is_reserved": 0, "is_disabled": 0, "type": "electric_scooter", "name": "365044ce4fc6adf3d09e75be0522cae0", "lon": -77.02496233333333, "fusion_lon": 0.0, "rental_uris": {"android": "https://dc.lft.to/lastmile_qr_scan", "ios": "https://dc.lft.to/lastmile_qr_scan"}, "bike_id": "365044ce4fc6adf3d09e75be0522cae0"}, {"lat": 38.90785616666667, "fusion_lat": 0.0, "is_reserved": 0, "is_disabled": 0, "type": "electric_scooter", "name": "54d5e43370388735167b35908647ea34", "lon": -77.0726015, "fusion_lon": 0.0, "rental_uris": {"android": "https://dc.lft.to/lastmile_qr_scan", "ios": "https://dc.lft.to/lastmile_qr_scan"}, "bike_id": "54d5e43370388735167b35908647ea34"}, {"lat": 38.90250533333333, "fusion_lat": 0.0, "is_reserved": 0, "is_disabled": 0, "type": "electric_scooter", "name": "62c91d7a79c562e24b538845a6da5d4e", "lon": -77.026476, "fusion_lon": 0.0, "rental_uris": {"android": "https://dc.lft.to/lastmile_qr_scan", "ios": "https://dc.lft.to/lastmile_qr_scan"}, "bike_id": "62c91d7a79c562e24b538845a6da5d4e"}, {"lat": 38.9056985, "fusion_lat": 0.0, "is_reserved": 0, "is_disabled": 0, "type": "electric_scooter", "name": "17dc32858b7b050799be1dae9b5179c4", "lon": -77.06278766666667, "fusion_lon": 0.0, "rental_uris": {"android": "https://dc.lft.to/lastmile_qr_scan", "ios": "https://dc.lft.to/lastmile_qr_scan"}, "bike_id": "17dc32858b7b050799be1dae9b5179c4"}, {"lat": 38.902679666666664, "fusion_lat": 0.0, "is_reserved": 0, "is_disabled": 0, "type": "electric_scooter", "name": "df6330724ec635e769dd63b477ea0136", "lon": -77.03817866666667, "fusion_lon": 0.0, "rental_uris": {"android": "https://dc.lft.to/lastmile_qr_scan", "ios": "https://dc.lft.to/lastmile_qr_scan"}, "bike_id": "df6330724ec635e769dd63b477ea0136"}, {"lat": 38.89964783333333, "fusion_lat": 0.0, "is_reserved": 0, "is_disabled": 0, "type": "electric_scooter", "name": "d84ea69deee9812b4866745f43e5f697", "lon": -77.04499516666667, "fusion_lon": 0.0, "rental_uris": {"android": "https://dc.lft.to/lastmile_qr_scan", "ios": "https://dc.lft.to/lastmile_qr_scan"}, "bike_id": "d84ea69deee9812b4866745f43e5f697"}, {"lat": 38.90512916666667, "fusion_lat": 0.0, "is_reserved": 0, "is_disabled": 0, "type": "electric_scooter", "name": "353e2926daa0ff43cb82f84c591070bc", "lon": -76.95208666666667, "fusion_lon": 0.0, "rental_uris": {"android": "https://dc.lft.to/lastmile_qr_scan", "ios": "https://dc.lft.to/lastmile_qr_scan"}, "bike_id": "353e2926daa0ff43cb82f84c591070bc"}, {"lat": 38.900135, "fusion_lat": 0.0, "is_reserved": 0, "is_disabled": 0, "type": "electric_scooter", "name": "51a92632ac5dade82db106f304934518", "lon": -77.02730066666666, "fusion_lon": 0.0, "rental_uris": {"android": "https://dc.lft.to/lastmile_qr_scan", "ios": "https://dc.lft.to/lastmile_qr_scan"}, "bike_id": "51a92632ac5dade82db106f304934518"}, {"lat": 38.91119616666667, "fusion_lat": 0.0, "is_reserved": 0, "is_disabled": 0, "type": "electric_scooter", "name": "bde1abb9c6a4ac4108b2a56e9098c8e0", "lon": -77.04379, "fusion_lon": 0.0, "rental_uris": {"android": "https://dc.lft.to/lastmile_qr_scan", "ios": "https://dc.lft.to/lastmile_qr_scan"}, "bike_id": "bde1abb9c6a4ac4108b2a56e9098c8e0"}, {"lat": 38.9175125, "fusion_lat": 0.0, "is_reserved": 0, "is_disabled": 0, "type": "electric_scooter", "name": "9d8aabdc3ea4ab93c67b99b0a1126f53", "lon": -77.0211995, "fusion_lon": 0.0, "rental_uris": {"android": "https://dc.lft.to/lastmile_qr_scan", "ios": "https://dc.lft.to/lastmile_qr_scan"}, "bike_id": "9d8aabdc3ea4ab93c67b99b0a1126f53"}, {"lat": 38.949777166666664, "fusion_lat": 0.0, "is_reserved": 0, "is_disabled": 0, "type": "electric_scooter", "name": "135d148c74233d14cddfa3ea741a0580", "lon": -77.02430916666667, "fusion_lon": 0.0, "rental_uris": {"android": "https://dc.lft.to/lastmile_qr_scan", "ios": "https://dc.lft.to/lastmile_qr_scan"}, "bike_id": "135d148c74233d14cddfa3ea741a0580"}, {"lat": 38.91019133333333, "fusion_lat": 0.0, "is_reserved": 0, "is_disabled": 0, "type": "electric_scooter", "name": "081488a6e08a2f5c67d185c0fb40a4d9", "lon": -77.04652433333334, "fusion_lon": 0.0, "rental_uris": {"android": "https://dc.lft.to/lastmile_qr_scan", "ios": "https://dc.lft.to/lastmile_qr_scan"}, "bike_id": "081488a6e08a2f5c67d185c0fb40a4d9"}, {"lat": 38.88410566666667, "fusion_lat": 0.0, "is_reserved": 0, "is_disabled": 0, "type": "electric_bike", "name": "101673cd2a281abf0c47ee88d4b91a99", "lon": -77.03009233333333, "fusion_lon": 0.0, "rental_uris": {"android": "https://dc.lft.to/lastmile_qr_scan", "ios": "https://dc.lft.to/lastmile_qr_scan"}, "bike_id": "101673cd2a281abf0c47ee88d4b91a99"}, {"lat": 38.911545, "fusion_lat": 0.0, "is_reserved": 0, "is_disabled": 0, "type": "electric_scooter", "name": "1b07e20ed86f6fd7b681eddef9432dbe", "lon": -77.01086183333334, "fusion_lon": 0.0, "rental_uris": {"android": "https://dc.lft.to/lastmile_qr_scan", "ios": "https://dc.lft.to/lastmile_qr_scan"}, "bike_id": "1b07e20ed86f6fd7b681eddef9432dbe"}, {"lat": 38.91783433333333, "fusion_lat": 0.0, "is_reserved": 0, "is_disabled": 0, "type": "electric_scooter", "name": "ba0356cf6ee27758259c01ffdbb24361", "lon": -77.02307566666667, "fusion_lon": 0.0, "rental_uris": {"android": "https://dc.lft.to/lastmile_qr_scan", "ios": "https://dc.lft.to/lastmile_qr_scan"}, "bike_id": "ba0356cf6ee27758259c01ffdbb24361"}, {"lat": 38.92652266666666, "fusion_lat": 0.0, "is_reserved": 0, "is_disabled": 0, "type": "electric_bike", "name": "10570422d24430242f76c29db0404be9", "lon": -77.09018233333333, "fusion_lon": 0.0, "rental_uris": {"android": "https://dc.lft.to/lastmile_qr_scan", "ios": "https://dc.lft.to/lastmile_qr_scan"}, "bike_id": "10570422d24430242f76c29db0404be9"}, {"lat": 38.90192666666667, "fusion_lat": 0.0, "is_reserved": 0, "is_disabled": 0, "type": "electric_scooter", "name": "41a89db549ddcf0377a61a9d5596f040", "lon": -77.022077, "fusion_lon": 0.0, "rental_uris": {"android": "https://dc.lft.to/lastmile_qr_scan", "ios": "https://dc.lft.to/lastmile_qr_scan"}, "bike_id": "41a89db549ddcf0377a61a9d5596f040"}, {"lat": 38.880390166666665, "fusion_lat": 0.0, "is_reserved": 0, "is_disabled": 0, "type": "electric_scooter", "name": "08153538fe386d898982ef139667cb08", "lon": -76.92721183333333, "fusion_lon": 0.0, "rental_uris": {"android": "https://dc.lft.to/lastmile_qr_scan", "ios": "https://dc.lft.to/lastmile_qr_scan"}, "bike_id": "08153538fe386d898982ef139667cb08"}, {"lat": 38.92651466666667, "fusion_lat": 0.0, "is_reserved": 0, "is_disabled": 0, "type": "electric_scooter", "name": "0d14f41343984d2b4518dba26b7ed7da", "lon": -77.03841133333333, "fusion_lon": 0.0, "rental_uris": {"android": "https://dc.lft.to/lastmile_qr_scan", "ios": "https://dc.lft.to/lastmile_qr_scan"}, "bike_id": "0d14f41343984d2b4518dba26b7ed7da"}, {"lat": 38.89709416666667, "fusion_lat": 0.0, "is_reserved": 0, "is_disabled": 0, "type": "electric_scooter", "name": "c227eb9be03325e1ee494f15e095c19c", "lon": -76.93917566666667, "fusion_lon": 0.0, "rental_uris": {"android": "https://dc.lft.to/lastmile_qr_scan", "ios": "https://dc.lft.to/lastmile_qr_scan"}, "bike_id": "c227eb9be03325e1ee494f15e095c19c"}, {"lat": 38.907956166666665, "fusion_lat": 0.0, "is_reserved": 0, "is_disabled": 0, "type": "electric_scooter", "name": "3f8ce67643e38ce9c952d7c997c743f9", "lon": -77.0424965, "fusion_lon": 0.0, "rental_uris": {"android": "https://dc.lft.to/lastmile_qr_scan", "ios": "https://dc.lft.to/lastmile_qr_scan"}, "bike_id": "3f8ce67643e38ce9c952d7c997c743f9"}, {"lat": 38.971562, "fusion_lat": 0.0, "is_reserved": 0, "is_disabled": 0, "type": "electric_bike", "name": "030d6fabec242390a496c98c7040e6f9", "lon": -76.983654, "fusion_lon": 0.0, "rental_uris": {"android": "https://dc.lft.to/lastmile_qr_scan", "ios": "https://dc.lft.to/lastmile_qr_scan"}, "bike_id": "030d6fabec242390a496c98c7040e6f9"}, {"lat": 38.886628, "fusion_lat": 0.0, "is_reserved": 0, "is_disabled": 0, "type": "electric_bike", "name": "9ef85d364e3e880821421bea474dd549", "lon": -77.16234483333334, "fusion_lon": 0.0, "rental_uris": {"android": "https://dc.lft.to/lastmile_qr_scan", "ios": "https://dc.lft.to/lastmile_qr_scan"}, "bike_id": "9ef85d364e3e880821421bea474dd549"}, {"lat": 38.92329616666667, "fusion_lat": 0.0, "is_reserved": 0, "is_disabled": 0, "type": "electric_scooter", "name": "937a66cbeb33718540d24a653cad5de9", "lon": -77.03669183333334, "fusion_lon": 0.0, "rental_uris": {"android": "https://dc.lft.to/lastmile_qr_scan", "ios": "https://dc.lft.to/lastmile_qr_scan"}, "bike_id": "937a66cbeb33718540d24a653cad5de9"}, {"lat": 38.9012065, "fusion_lat": 0.0, "is_reserved": 0, "is_disabled": 0, "type": "electric_scooter", "name": "057e718afdddf32702ff1ac0917e7c8e", "lon": -77.04998966666666, "fusion_lon": 0.0, "rental_uris": {"android": "https://dc.lft.to/lastmile_qr_scan", "ios": "https://dc.lft.to/lastmile_qr_scan"}, "bike_id": "057e718afdddf32702ff1ac0917e7c8e"}, {"lat": 38.9255565, "fusion_lat": 0.0, "is_reserved": 0, "is_disabled": 0, "type": "electric_scooter", "name": "af31870c66486e110313580572df1102", "lon": -77.0298205, "fusion_lon": 0.0, "rental_uris": {"android": "https://dc.lft.to/lastmile_qr_scan", "ios": "https://dc.lft.to/lastmile_qr_scan"}, "bike_id": "af31870c66486e110313580572df1102"}, {"lat": 38.89618316666667, "fusion_lat": 0.0, "is_reserved": 0, "is_disabled": 0, "type": "electric_scooter", "name": "598bff661c6bf3cc666cb74d066b6fca", "lon": -77.04049033333334, "fusion_lon": 0.0, "rental_uris": {"android": "https://dc.lft.to/lastmile_qr_scan", "ios": "https://dc.lft.to/lastmile_qr_scan"}, "bike_id": "598bff661c6bf3cc666cb74d066b6fca"}, {"lat": 38.91915933333333, "fusion_lat": 0.0, "is_reserved": 0, "is_disabled": 0, "type": "electric_scooter", "name": "68623b120dcbda71a71dc822668e8e09", "lon": -77.03180583333334, "fusion_lon": 0.0, "rental_uris": {"android": "https://dc.lft.to/lastmile_qr_scan", "ios": "https://dc.lft.to/lastmile_qr_scan"}, "bike_id": "68623b120dcbda71a71dc822668e8e09"}, {"lat": 38.83611583333333, "fusion_lat": 0.0, "is_reserved": 0, "is_disabled": 0, "type": "electric_bike", "name": "f77656a8dfef125e81218e1f2adf5031", "lon": -77.00383, "fusion_lon": 0.0, "rental_uris": {"android": "https://dc.lft.to/lastmile_qr_scan", "ios": "https://dc.lft.to/lastmile_qr_scan"}, "bike_id": "f77656a8dfef125e81218e1f2adf5031"}, {"lat": 38.89470033333333, "fusion_lat": 0.0, "is_reserved": 0, "is_disabled": 0, "type": "electric_scooter", "name": "5965cc20f4a65159c9af7b609d558dcf", "lon": -76.992635, "fusion_lon": 0.0, "rental_uris": {"android": "https://dc.lft.to/lastmile_qr_scan", "ios": "https://dc.lft.to/lastmile_qr_scan"}, "bike_id": "5965cc20f4a65159c9af7b609d558dcf"}, {"lat": 38.91321033333333, "fusion_lat": 0.0, "is_reserved": 0, "is_disabled": 0, "type": "electric_scooter", "name": "c51617924f2506565c4415303f5e1831", "lon": -77.02001433333334, "fusion_lon": 0.0, "rental_uris": {"android": "https://dc.lft.to/lastmile_qr_scan", "ios": "https://dc.lft.to/lastmile_qr_scan"}, "bike_id": "c51617924f2506565c4415303f5e1831"}, {"lat": 38.891973666666665, "fusion_lat": 0.0, "is_reserved": 0, "is_disabled": 0, "type": "electric_scooter", "name": "facf257a5f2db7f353143eaac64f8ed4", "lon": -77.00297566666667, "fusion_lon": 0.0, "rental_uris": {"android": "https://dc.lft.to/lastmile_qr_scan", "ios": "https://dc.lft.to/lastmile_qr_scan"}, "bike_id": "facf257a5f2db7f353143eaac64f8ed4"}, {"lat": 38.92524266666667, "fusion_lat": 0.0, "is_reserved": 0, "is_disabled": 0, "type": "electric_scooter", "name": "c1b3ecab884bc1a2c8800287ca67ad92", "lon": -77.03880483333333, "fusion_lon": 0.0, "rental_uris": {"android": "https://dc.lft.to/lastmile_qr_scan", "ios": "https://dc.lft.to/lastmile_qr_scan"}, "bike_id": "c1b3ecab884bc1a2c8800287ca67ad92"}, {"lat": 38.9087885, "fusion_lat": 0.0, "is_reserved": 0, "is_disabled": 0, "type": "electric_bike", "name": "c21bd2f80fc706a36f61aef0bc1e94ad", "lon": -77.07525633333333, "fusion_lon": 0.0, "rental_uris": {"android": "https://dc.lft.to/lastmile_qr_scan", "ios": "https://dc.lft.to/lastmile_qr_scan"}, "bike_id": "c21bd2f80fc706a36f61aef0bc1e94ad"}, {"lat": 38.8402925, "fusion_lat": 0.0, "is_reserved": 0, "is_disabled": 0, "type": "electric_bike", "name": "c06e57b95a2658f3365c58c7f63af10f", "lon": -76.98856016666667, "fusion_lon": 0.0, "rental_uris": {"android": "https://dc.lft.to/lastmile_qr_scan", "ios": "https://dc.lft.to/lastmile_qr_scan"}, "bike_id": "c06e57b95a2658f3365c58c7f63af10f"}, {"lat": 38.8854975, "fusion_lat": 0.0, "is_reserved": 0, "is_disabled": 0, "type": "electric_bike", "name": "e086963ef4af071bff307a1c6d60c70a", "lon": -77.1169155, "fusion_lon": 0.0, "rental_uris": {"android": "https://dc.lft.to/lastmile_qr_scan", "ios": "https://dc.lft.to/lastmile_qr_scan"}, "bike_id": "e086963ef4af071bff307a1c6d60c70a"}, {"lat": 38.917928333333336, "fusion_lat": 0.0, "is_reserved": 0, "is_disabled": 0, "type": "electric_scooter", "name": "c2cd03d61dbbd3772d90d1f2e620992d", "lon": -77.02826616666667, "fusion_lon": 0.0, "rental_uris": {"android": "https://dc.lft.to/lastmile_qr_scan", "ios": "https://dc.lft.to/lastmile_qr_scan"}, "bike_id": "c2cd03d61dbbd3772d90d1f2e620992d"}, {"lat": 38.8927995, "fusion_lat": 0.0, "is_reserved": 0, "is_disabled": 0, "type": "electric_scooter", "name": "467901058f763375ce27b4380bd5d8b9", "lon": -77.0503775, "fusion_lon": 0.0, "rental_uris": {"android": "https://dc.lft.to/lastmile_qr_scan", "ios": "https://dc.lft.to/lastmile_qr_scan"}, "bike_id": "467901058f763375ce27b4380bd5d8b9"}, {"lat": 38.92419533333333, "fusion_lat": 0.0, "is_reserved": 0, "is_disabled": 0, "type": "electric_scooter", "name": "7b5526e35776d2cdeb70f45471352d09", "lon": -77.0200905, "fusion_lon": 0.0, "rental_uris": {"android": "https://dc.lft.to/lastmile_qr_scan", "ios": "https://dc.lft.to/lastmile_qr_scan"}, "bike_id": "7b5526e35776d2cdeb70f45471352d09"}, {"lat": 38.908914833333334, "fusion_lat": 0.0, "is_reserved": 0, "is_disabled": 0, "type": "electric_scooter", "name": "1ef6595797e4c0e0d7c3c3d145e1133f", "lon": -77.03392316666667, "fusion_lon": 0.0, "rental_uris": {"android": "https://dc.lft.to/lastmile_qr_scan", "ios": "https://dc.lft.to/lastmile_qr_scan"}, "bike_id": "1ef6595797e4c0e0d7c3c3d145e1133f"}, {"lat": 38.92129166666667, "fusion_lat": 0.0, "is_reserved": 0, "is_disabled": 0, "type": "electric_scooter", "name": "95b19254b7c6ea22440a57ec9d3841e3", "lon": -77.01805083333333, "fusion_lon": 0.0, "rental_uris": {"android": "https://dc.lft.to/lastmile_qr_scan", "ios": "https://dc.lft.to/lastmile_qr_scan"}, "bike_id": "95b19254b7c6ea22440a57ec9d3841e3"}, {"lat": 38.923328833333336, "fusion_lat": 0.0, "is_reserved": 0, "is_disabled": 0, "type": "electric_scooter", "name": "0e729766443524dd4ffc3485c09f3fbd", "lon": -77.01954583333334, "fusion_lon": 0.0, "rental_uris": {"android": "https://dc.lft.to/lastmile_qr_scan", "ios": "https://dc.lft.to/lastmile_qr_scan"}, "bike_id": "0e729766443524dd4ffc3485c09f3fbd"}, {"lat": 38.935233333333336, "fusion_lat": 0.0, "is_reserved": 0, "is_disabled": 0, "type": "electric_scooter", "name": "30220e9251a46c54487f4cb655e46491", "lon": -77.07288383333334, "fusion_lon": 0.0, "rental_uris": {"android": "https://dc.lft.to/lastmile_qr_scan", "ios": "https://dc.lft.to/lastmile_qr_scan"}, "bike_id": "30220e9251a46c54487f4cb655e46491"}, {"lat": 38.900054, "fusion_lat": 0.0, "is_reserved": 0, "is_disabled": 0, "type": "electric_scooter", "name": "a751ceeda7f85d0b60037adcca4fcc6d", "lon": -77.040329, "fusion_lon": 0.0, "rental_uris": {"android": "https://dc.lft.to/lastmile_qr_scan", "ios": "https://dc.lft.to/lastmile_qr_scan"}, "bike_id": "a751ceeda7f85d0b60037adcca4fcc6d"}, {"lat": 38.90952733333334, "fusion_lat": 0.0, "is_reserved": 0, "is_disabled": 0, "type": "electric_scooter", "name": "dc4907046dd562453f93fabde9a15bfe", "lon": -77.01135566666666, "fusion_lon": 0.0, "rental_uris": {"android": "https://dc.lft.to/lastmile_qr_scan", "ios": "https://dc.lft.to/lastmile_qr_scan"}, "bike_id": "dc4907046dd562453f93fabde9a15bfe"}, {"lat": 38.830427, "fusion_lat": 0.0, "is_reserved": 0, "is_disabled": 0, "type": "electric_bike", "name": "fa5cd7350978bf8d960e7dceaaecb8ee", "lon": -77.008187, "fusion_lon": 0.0, "rental_uris": {"android": "https://dc.lft.to/lastmile_qr_scan", "ios": "https://dc.lft.to/lastmile_qr_scan"}, "bike_id": "fa5cd7350978bf8d960e7dceaaecb8ee"}, {"lat": 38.88679066666667, "fusion_lat": 0.0, "is_reserved": 0, "is_disabled": 0, "type": "electric_scooter", "name": "f4cbb3b486030fe8fee74ef02f2b6367", "lon": -77.04797266666667, "fusion_lon": 0.0, "rental_uris": {"android": "https://dc.lft.to/lastmile_qr_scan", "ios": "https://dc.lft.to/lastmile_qr_scan"}, "bike_id": "f4cbb3b486030fe8fee74ef02f2b6367"}, {"lat": 38.917886, "fusion_lat": 0.0, "is_reserved": 0, "is_disabled": 0, "type": "electric_scooter", "name": "2efa4ab599f16e083c45028d0d58ce53", "lon": -77.04667433333333, "fusion_lon": 0.0, "rental_uris": {"android": "https://dc.lft.to/lastmile_qr_scan", "ios": "https://dc.lft.to/lastmile_qr_scan"}, "bike_id": "2efa4ab599f16e083c45028d0d58ce53"}, {"lat": 38.90479533333333, "fusion_lat": 0.0, "is_reserved": 0, "is_disabled": 0, "type": "electric_scooter", "name": "4cac90396912ef79afdd1e3077a514e2", "lon": -77.00884833333333, "fusion_lon": 0.0, "rental_uris": {"android": "https://dc.lft.to/lastmile_qr_scan", "ios": "https://dc.lft.to/lastmile_qr_scan"}, "bike_id": "4cac90396912ef79afdd1e3077a514e2"}, {"lat": 38.9267995, "fusion_lat": 0.0, "is_reserved": 0, "is_disabled": 0, "type": "electric_scooter", "name": "4528e44b76d427a46fed1b5db7a6a2f1", "lon": -77.0149, "fusion_lon": 0.0, "rental_uris": {"android": "https://dc.lft.to/lastmile_qr_scan", "ios": "https://dc.lft.to/lastmile_qr_scan"}, "bike_id": "4528e44b76d427a46fed1b5db7a6a2f1"}, {"lat": 38.92558533333333, "fusion_lat": 0.0, "is_reserved": 0, "is_disabled": 0, "type": "electric_scooter", "name": "2c17e460d99dd47fc8ddda9b1b6ff2f7", "lon": -77.02981666666666, "fusion_lon": 0.0, "rental_uris": {"android": "https://dc.lft.to/lastmile_qr_scan", "ios": "https://dc.lft.to/lastmile_qr_scan"}, "bike_id": "2c17e460d99dd47fc8ddda9b1b6ff2f7"}, {"lat": 38.930184, "fusion_lat": 0.0, "is_reserved": 0, "is_disabled": 0, "type": "electric_scooter", "name": "034910833deed649717d72ae41590cf7", "lon": -77.02338516666667, "fusion_lon": 0.0, "rental_uris": {"android": "https://dc.lft.to/lastmile_qr_scan", "ios": "https://dc.lft.to/lastmile_qr_scan"}, "bike_id": "034910833deed649717d72ae41590cf7"}, {"lat": 38.927472, "fusion_lat": 0.0, "is_reserved": 0, "is_disabled": 0, "type": "electric_scooter", "name": "7c67144b87e90004865ef128dffa42ec", "lon": -77.06466183333333, "fusion_lon": 0.0, "rental_uris": {"android": "https://dc.lft.to/lastmile_qr_scan", "ios": "https://dc.lft.to/lastmile_qr_scan"}, "bike_id": "7c67144b87e90004865ef128dffa42ec"}, {"lat": 38.88746, "fusion_lat": 0.0, "is_reserved": 0, "is_disabled": 0, "type": "electric_scooter", "name": "4798e50cf8f40fa8a79ad7235224c4dd", "lon": -77.02230533333334, "fusion_lon": 0.0, "rental_uris": {"android": "https://dc.lft.to/lastmile_qr_scan", "ios": "https://dc.lft.to/lastmile_qr_scan"}, "bike_id": "4798e50cf8f40fa8a79ad7235224c4dd"}, {"lat": 38.84689683333333, "fusion_lat": 0.0, "is_reserved": 0, "is_disabled": 0, "type": "electric_scooter", "name": "559ffa65e6d3549bcc010460cfd1907a", "lon": -76.96855183333334, "fusion_lon": 0.0, "rental_uris": {"android": "https://dc.lft.to/lastmile_qr_scan", "ios": "https://dc.lft.to/lastmile_qr_scan"}, "bike_id": "559ffa65e6d3549bcc010460cfd1907a"}, {"lat": 38.90580833333333, "fusion_lat": 0.0, "is_reserved": 0, "is_disabled": 0, "type": "electric_scooter", "name": "71a8be9fd75e78991d899396894a500d", "lon": -77.00657666666666, "fusion_lon": 0.0, "rental_uris": {"android": "https://dc.lft.to/lastmile_qr_scan", "ios": "https://dc.lft.to/lastmile_qr_scan"}, "bike_id": "71a8be9fd75e78991d899396894a500d"}, {"lat": 38.89170583333333, "fusion_lat": 0.0, "is_reserved": 0, "is_disabled": 0, "type": "electric_scooter", "name": "94ea16984e3fe08afa9d0051e152a4ad", "lon": -77.01552216666667, "fusion_lon": 0.0, "rental_uris": {"android": "https://dc.lft.to/lastmile_qr_scan", "ios": "https://dc.lft.to/lastmile_qr_scan"}, "bike_id": "94ea16984e3fe08afa9d0051e152a4ad"}, {"lat": 38.91275316666667, "fusion_lat": 0.0, "is_reserved": 0, "is_disabled": 0, "type": "electric_scooter", "name": "497a5b5db16c5c817a692e0c15d081cb", "lon": -77.02300333333334, "fusion_lon": 0.0, "rental_uris": {"android": "https://dc.lft.to/lastmile_qr_scan", "ios": "https://dc.lft.to/lastmile_qr_scan"}, "bike_id": "497a5b5db16c5c817a692e0c15d081cb"}, {"lat": 38.92076766666667, "fusion_lat": 0.0, "is_reserved": 0, "is_disabled": 0, "type": "electric_scooter", "name": "81488adab45c6545fe792c567bf81bcf", "lon": -77.0230505, "fusion_lon": 0.0, "rental_uris": {"android": "https://dc.lft.to/lastmile_qr_scan", "ios": "https://dc.lft.to/lastmile_qr_scan"}, "bike_id": "81488adab45c6545fe792c567bf81bcf"}, {"lat": 38.903662833333335, "fusion_lat": 0.0, "is_reserved": 0, "is_disabled": 0, "type": "electric_scooter", "name": "472a2b8be6f4b1a55393d6d8972ec471", "lon": -77.03729166666666, "fusion_lon": 0.0, "rental_uris": {"android": "https://dc.lft.to/lastmile_qr_scan", "ios": "https://dc.lft.to/lastmile_qr_scan"}, "bike_id": "472a2b8be6f4b1a55393d6d8972ec471"}, {"lat": 38.91110616666667, "fusion_lat": 0.0, "is_reserved": 0, "is_disabled": 0, "type": "electric_scooter", "name": "2c3d34c0dabdfb1940567af2783183e6", "lon": -77.03829166666667, "fusion_lon": 0.0, "rental_uris": {"android": "https://dc.lft.to/lastmile_qr_scan", "ios": "https://dc.lft.to/lastmile_qr_scan"}, "bike_id": "2c3d34c0dabdfb1940567af2783183e6"}, {"lat": 38.89174883333333, "fusion_lat": 0.0, "is_reserved": 0, "is_disabled": 0, "type": "electric_scooter", "name": "b11c24eaa883d32fb61a3cce1aa4136e", "lon": -77.015645, "fusion_lon": 0.0, "rental_uris": {"android": "https://dc.lft.to/lastmile_qr_scan", "ios": "https://dc.lft.to/lastmile_qr_scan"}, "bike_id": "b11c24eaa883d32fb61a3cce1aa4136e"}, {"lat": 38.908274, "fusion_lat": 0.0, "is_reserved": 0, "is_disabled": 0, "type": "electric_scooter", "name": "9feb027564ab82708be76d59c3a5b3b0", "lon": -77.03983466666666, "fusion_lon": 0.0, "rental_uris": {"android": "https://dc.lft.to/lastmile_qr_scan", "ios": "https://dc.lft.to/lastmile_qr_scan"}, "bike_id": "9feb027564ab82708be76d59c3a5b3b0"}, {"lat": 38.897433166666666, "fusion_lat": 0.0, "is_reserved": 0, "is_disabled": 0, "type": "electric_scooter", "name": "6042fd63d4d723e08929435bad7d096a", "lon": -76.99042483333334, "fusion_lon": 0.0, "rental_uris": {"android": "https://dc.lft.to/lastmile_qr_scan", "ios": "https://dc.lft.to/lastmile_qr_scan"}, "bike_id": "6042fd63d4d723e08929435bad7d096a"}, {"lat": 38.910008833333336, "fusion_lat": 0.0, "is_reserved": 0, "is_disabled": 0, "type": "electric_scooter", "name": "e54b7dd42ac3eff952df35af5ebb0d57", "lon": -77.04170666666667, "fusion_lon": 0.0, "rental_uris": {"android": "https://dc.lft.to/lastmile_qr_scan", "ios": "https://dc.lft.to/lastmile_qr_scan"}, "bike_id": "e54b7dd42ac3eff952df35af5ebb0d57"}, {"lat": 38.908803166666665, "fusion_lat": 0.0, "is_reserved": 0, "is_disabled": 0, "type": "electric_scooter", "name": "e0c614fa9b2352a0c66134f6ede7f45b", "lon": -77.04344083333334, "fusion_lon": 0.0, "rental_uris": {"android": "https://dc.lft.to/lastmile_qr_scan", "ios": "https://dc.lft.to/lastmile_qr_scan"}, "bike_id": "e0c614fa9b2352a0c66134f6ede7f45b"}, {"lat": 38.909339, "fusion_lat": 0.0, "is_reserved": 0, "is_disabled": 0, "type": "electric_scooter", "name": "84e39ecad3ab905cc9ded908433c9553", "lon": -77.04167733333334, "fusion_lon": 0.0, "rental_uris": {"android": "https://dc.lft.to/lastmile_qr_scan", "ios": "https://dc.lft.to/lastmile_qr_scan"}, "bike_id": "84e39ecad3ab905cc9ded908433c9553"}, {"lat": 38.91976733333333, "fusion_lat": 0.0, "is_reserved": 0, "is_disabled": 0, "type": "electric_scooter", "name": "c2ba6f079b2a0b1dd115b8f66a1512c4", "lon": -77.022985, "fusion_lon": 0.0, "rental_uris": {"android": "https://dc.lft.to/lastmile_qr_scan", "ios": "https://dc.lft.to/lastmile_qr_scan"}, "bike_id": "c2ba6f079b2a0b1dd115b8f66a1512c4"}, {"lat": 38.90219916666667, "fusion_lat": 0.0, "is_reserved": 0, "is_disabled": 0, "type": "electric_scooter", "name": "8d5437b1c2e9a782b0e9bd19b031f5b5", "lon": -77.02376633333333, "fusion_lon": 0.0, "rental_uris": {"android": "https://dc.lft.to/lastmile_qr_scan", "ios": "https://dc.lft.to/lastmile_qr_scan"}, "bike_id": "8d5437b1c2e9a782b0e9bd19b031f5b5"}, {"lat": 38.916823, "fusion_lat": 0.0, "is_reserved": 0, "is_disabled": 0, "type": "electric_scooter", "name": "86d8b29daa6d5f5be61ef10d910baccf", "lon": -77.02971766666667, "fusion_lon": 0.0, "rental_uris": {"android": "https://dc.lft.to/lastmile_qr_scan", "ios": "https://dc.lft.to/lastmile_qr_scan"}, "bike_id": "86d8b29daa6d5f5be61ef10d910baccf"}, {"lat": 38.89222616666667, "fusion_lat": 0.0, "is_reserved": 0, "is_disabled": 0, "type": "electric_scooter", "name": "878aceac8d5087552a3a1ba23992d6cb", "lon": -77.04197833333333, "fusion_lon": 0.0, "rental_uris": {"android": "https://dc.lft.to/lastmile_qr_scan", "ios": "https://dc.lft.to/lastmile_qr_scan"}, "bike_id": "878aceac8d5087552a3a1ba23992d6cb"}, {"lat": 38.900523, "fusion_lat": 0.0, "is_reserved": 0, "is_disabled": 0, "type": "electric_scooter", "name": "88a256d6f7451086fc9e17c60a8dffe0", "lon": -76.99153933333334, "fusion_lon": 0.0, "rental_uris": {"android": "https://dc.lft.to/lastmile_qr_scan", "ios": "https://dc.lft.to/lastmile_qr_scan"}, "bike_id": "88a256d6f7451086fc9e17c60a8dffe0"}, {"lat": 38.89639233333333, "fusion_lat": 0.0, "is_reserved": 0, "is_disabled": 0, "type": "electric_scooter", "name": "6e496f7405e92f89793cd965aa88fec7", "lon": -77.02690183333333, "fusion_lon": 0.0, "rental_uris": {"android": "https://dc.lft.to/lastmile_qr_scan", "ios": "https://dc.lft.to/lastmile_qr_scan"}, "bike_id": "6e496f7405e92f89793cd965aa88fec7"}, {"lat": 38.92065766666666, "fusion_lat": 0.0, "is_reserved": 0, "is_disabled": 0, "type": "electric_scooter", "name": "448c9380246802f57c7306f7745c5ffb", "lon": -77.02607983333333, "fusion_lon": 0.0, "rental_uris": {"android": "https://dc.lft.to/lastmile_qr_scan", "ios": "https://dc.lft.to/lastmile_qr_scan"}, "bike_id": "448c9380246802f57c7306f7745c5ffb"}, {"lat": 38.86284216666667, "fusion_lat": 0.0, "is_reserved": 0, "is_disabled": 0, "type": "electric_bike", "name": "37a7dec9eed9086468202a7824f1d691", "lon": -76.94527666666667, "fusion_lon": 0.0, "rental_uris": {"android": "https://dc.lft.to/lastmile_qr_scan", "ios": "https://dc.lft.to/lastmile_qr_scan"}, "bike_id": "37a7dec9eed9086468202a7824f1d691"}, {"lat": 38.939785, "fusion_lat": 0.0, "is_reserved": 0, "is_disabled": 0, "type": "electric_scooter", "name": "d0a80323ad2615b163b38c60dd185f56", "lon": -77.03068333333333, "fusion_lon": 0.0, "rental_uris": {"android": "https://dc.lft.to/lastmile_qr_scan", "ios": "https://dc.lft.to/lastmile_qr_scan"}, "bike_id": "d0a80323ad2615b163b38c60dd185f56"}, {"lat": 38.930115, "fusion_lat": 0.0, "is_reserved": 0, "is_disabled": 0, "type": "electric_scooter", "name": "258b41efe03272378b497e8a5b8967fe", "lon": -77.05550216666667, "fusion_lon": 0.0, "rental_uris": {"android": "https://dc.lft.to/lastmile_qr_scan", "ios": "https://dc.lft.to/lastmile_qr_scan"}, "bike_id": "258b41efe03272378b497e8a5b8967fe"}, {"lat": 38.894815333333334, "fusion_lat": 0.0, "is_reserved": 0, "is_disabled": 0, "type": "electric_scooter", "name": "0db639d27e0b1ea45320a733d093fb54", "lon": -77.02101466666667, "fusion_lon": 0.0, "rental_uris": {"android": "https://dc.lft.to/lastmile_qr_scan", "ios": "https://dc.lft.to/lastmile_qr_scan"}, "bike_id": "0db639d27e0b1ea45320a733d093fb54"}, {"lat": 38.93874316666667, "fusion_lat": 0.0, "is_reserved": 0, "is_disabled": 0, "type": "electric_scooter", "name": "1fce81949cfe2dfaf7b017854c060ee9", "lon": -77.06020483333333, "fusion_lon": 0.0, "rental_uris": {"android": "https://dc.lft.to/lastmile_qr_scan", "ios": "https://dc.lft.to/lastmile_qr_scan"}, "bike_id": "1fce81949cfe2dfaf7b017854c060ee9"}, {"lat": 38.93059783333333, "fusion_lat": 0.0, "is_reserved": 0, "is_disabled": 0, "type": "electric_scooter", "name": "f42f76e4ed73d270bb7b788ff9afa838", "lon": -77.04329516666667, "fusion_lon": 0.0, "rental_uris": {"android": "https://dc.lft.to/lastmile_qr_scan", "ios": "https://dc.lft.to/lastmile_qr_scan"}, "bike_id": "f42f76e4ed73d270bb7b788ff9afa838"}, {"lat": 38.921288, "fusion_lat": 0.0, "is_reserved": 0, "is_disabled": 0, "type": "electric_scooter", "name": "6e8ad0d5aa32bd83ee55c0dbe7b4019d", "lon": -77.01799083333333, "fusion_lon": 0.0, "rental_uris": {"android": "https://dc.lft.to/lastmile_qr_scan", "ios": "https://dc.lft.to/lastmile_qr_scan"}, "bike_id": "6e8ad0d5aa32bd83ee55c0dbe7b4019d"}, {"lat": 38.9297255, "fusion_lat": 0.0, "is_reserved": 0, "is_disabled": 0, "type": "electric_scooter", "name": "6a5a9655b1d1e9488b005e3617d61650", "lon": -77.02795683333333, "fusion_lon": 0.0, "rental_uris": {"android": "https://dc.lft.to/lastmile_qr_scan", "ios": "https://dc.lft.to/lastmile_qr_scan"}, "bike_id": "6a5a9655b1d1e9488b005e3617d61650"}, {"lat": 38.9604835, "fusion_lat": 0.0, "is_reserved": 0, "is_disabled": 0, "type": "electric_scooter", "name": "6849c3c46601284f72e77508826317a9", "lon": -77.00509033333333, "fusion_lon": 0.0, "rental_uris": {"android": "https://dc.lft.to/lastmile_qr_scan", "ios": "https://dc.lft.to/lastmile_qr_scan"}, "bike_id": "6849c3c46601284f72e77508826317a9"}, {"lat": 38.899631, "fusion_lat": 0.0, "is_reserved": 0, "is_disabled": 0, "type": "electric_scooter", "name": "30b1d18800e4f65c14e7aa2c4f4b49e9", "lon": -77.04504783333333, "fusion_lon": 0.0, "rental_uris": {"android": "https://dc.lft.to/lastmile_qr_scan", "ios": "https://dc.lft.to/lastmile_qr_scan"}, "bike_id": "30b1d18800e4f65c14e7aa2c4f4b49e9"}, {"lat": 38.878849833333334, "fusion_lat": 0.0, "is_reserved": 0, "is_disabled": 0, "type": "electric_scooter", "name": "177c64a5f64f175da18b14ad4d484765", "lon": -76.96544616666667, "fusion_lon": 0.0, "rental_uris": {"android": "https://dc.lft.to/lastmile_qr_scan", "ios": "https://dc.lft.to/lastmile_qr_scan"}, "bike_id": "177c64a5f64f175da18b14ad4d484765"}, {"lat": 38.896226666666664, "fusion_lat": 0.0, "is_reserved": 0, "is_disabled": 0, "type": "electric_bike", "name": "bd3dd0ae5c88882bd216b4c45f2188c8", "lon": -76.90750466666667, "fusion_lon": 0.0, "rental_uris": {"android": "https://dc.lft.to/lastmile_qr_scan", "ios": "https://dc.lft.to/lastmile_qr_scan"}, "bike_id": "bd3dd0ae5c88882bd216b4c45f2188c8"}, {"lat": 38.92850133333334, "fusion_lat": 0.0, "is_reserved": 0, "is_disabled": 0, "type": "electric_scooter", "name": "08c0405109e0e7bb46e197d33e73f57c", "lon": -77.03295766666666, "fusion_lon": 0.0, "rental_uris": {"android": "https://dc.lft.to/lastmile_qr_scan", "ios": "https://dc.lft.to/lastmile_qr_scan"}, "bike_id": "08c0405109e0e7bb46e197d33e73f57c"}, {"lat": 38.95877316666667, "fusion_lat": 0.0, "is_reserved": 0, "is_disabled": 0, "type": "electric_bike", "name": "67367f243d6b5c37ab51fac37eb9fc7f", "lon": -77.01402716666666, "fusion_lon": 0.0, "rental_uris": {"android": "https://dc.lft.to/lastmile_qr_scan", "ios": "https://dc.lft.to/lastmile_qr_scan"}, "bike_id": "67367f243d6b5c37ab51fac37eb9fc7f"}, {"lat": 38.956883833333336, "fusion_lat": 0.0, "is_reserved": 0, "is_disabled": 0, "type": "electric_scooter", "name": "90c0dddd8c1a78a705f888e6ac2bb9c5", "lon": -77.02235133333333, "fusion_lon": 0.0, "rental_uris": {"android": "https://dc.lft.to/lastmile_qr_scan", "ios": "https://dc.lft.to/lastmile_qr_scan"}, "bike_id": "90c0dddd8c1a78a705f888e6ac2bb9c5"}, {"lat": 38.91780983333334, "fusion_lat": 0.0, "is_reserved": 0, "is_disabled": 0, "type": "electric_scooter", "name": "8cd93754e6d39e5691659825413a6a80", "lon": -77.0231215, "fusion_lon": 0.0, "rental_uris": {"android": "https://dc.lft.to/lastmile_qr_scan", "ios": "https://dc.lft.to/lastmile_qr_scan"}, "bike_id": "8cd93754e6d39e5691659825413a6a80"}, {"lat": 38.9370305, "fusion_lat": 0.0, "is_reserved": 0, "is_disabled": 0, "type": "electric_scooter", "name": "33ad3c7c261c0e2daa36c6d05c445a94", "lon": -77.0240255, "fusion_lon": 0.0, "rental_uris": {"android": "https://dc.lft.to/lastmile_qr_scan", "ios": "https://dc.lft.to/lastmile_qr_scan"}, "bike_id": "33ad3c7c261c0e2daa36c6d05c445a94"}, {"lat": 38.92247966666667, "fusion_lat": 0.0, "is_reserved": 0, "is_disabled": 0, "type": "electric_scooter", "name": "ad16dc622a227add67b8fc3436a98e0c", "lon": -77.03436116666667, "fusion_lon": 0.0, "rental_uris": {"android": "https://dc.lft.to/lastmile_qr_scan", "ios": "https://dc.lft.to/lastmile_qr_scan"}, "bike_id": "ad16dc622a227add67b8fc3436a98e0c"}, {"lat": 38.922559166666666, "fusion_lat": 0.0, "is_reserved": 0, "is_disabled": 0, "type": "electric_scooter", "name": "3102876d10a8b9dcd7f0b2a034c7822e", "lon": -77.02964, "fusion_lon": 0.0, "rental_uris": {"android": "https://dc.lft.to/lastmile_qr_scan", "ios": "https://dc.lft.to/lastmile_qr_scan"}, "bike_id": "3102876d10a8b9dcd7f0b2a034c7822e"}, {"lat": 38.88617933333333, "fusion_lat": 0.0, "is_reserved": 0, "is_disabled": 0, "type": "electric_scooter", "name": "ec59bc75ca7a5c0539d6952d08aa280a", "lon": -77.02204566666667, "fusion_lon": 0.0, "rental_uris": {"android": "https://dc.lft.to/lastmile_qr_scan", "ios": "https://dc.lft.to/lastmile_qr_scan"}, "bike_id": "ec59bc75ca7a5c0539d6952d08aa280a"}, {"lat": 38.9531695, "fusion_lat": 0.0, "is_reserved": 0, "is_disabled": 0, "type": "electric_scooter", "name": "5a9783d328afcc5380a6fb30857661fc", "lon": -76.99460233333333, "fusion_lon": 0.0, "rental_uris": {"android": "https://dc.lft.to/lastmile_qr_scan", "ios": "https://dc.lft.to/lastmile_qr_scan"}, "bike_id": "5a9783d328afcc5380a6fb30857661fc"}, {"lat": 38.980228, "fusion_lat": 0.0, "is_reserved": 0, "is_disabled": 0, "type": "electric_bike", "name": "fb947a9e94069e84bbf4b877a2beb4b1", "lon": -76.942395, "fusion_lon": 0.0, "rental_uris": {"android": "https://dc.lft.to/lastmile_qr_scan", "ios": "https://dc.lft.to/lastmile_qr_scan"}, "bike_id": "fb947a9e94069e84bbf4b877a2beb4b1"}, {"lat": 38.930914333333334, "fusion_lat": 0.0, "is_reserved": 0, "is_disabled": 0, "type": "electric_scooter", "name": "83d59f2104aa95f4021bb9c5ffa1208b", "lon": -77.03437733333334, "fusion_lon": 0.0, "rental_uris": {"android": "https://dc.lft.to/lastmile_qr_scan", "ios": "https://dc.lft.to/lastmile_qr_scan"}, "bike_id": "83d59f2104aa95f4021bb9c5ffa1208b"}, {"lat": 38.890514333333336, "fusion_lat": 0.0, "is_reserved": 0, "is_disabled": 0, "type": "electric_scooter", "name": "c3b53cc55b7de3346afe3fa81a76711c", "lon": -76.93738716666667, "fusion_lon": 0.0, "rental_uris": {"android": "https://dc.lft.to/lastmile_qr_scan", "ios": "https://dc.lft.to/lastmile_qr_scan"}, "bike_id": "c3b53cc55b7de3346afe3fa81a76711c"}, {"lat": 38.9264825, "fusion_lat": 0.0, "is_reserved": 0, "is_disabled": 0, "type": "electric_scooter", "name": "9e97f86ca3bcacf0cbd1f5f54b85c2ed", "lon": -77.0385905, "fusion_lon": 0.0, "rental_uris": {"android": "https://dc.lft.to/lastmile_qr_scan", "ios": "https://dc.lft.to/lastmile_qr_scan"}, "bike_id": "9e97f86ca3bcacf0cbd1f5f54b85c2ed"}, {"lat": 38.944330666666666, "fusion_lat": 0.0, "is_reserved": 0, "is_disabled": 0, "type": "electric_bike", "name": "c62b6822b6cd4658e7346e5153adc0e9", "lon": -77.0138555, "fusion_lon": 0.0, "rental_uris": {"android": "https://dc.lft.to/lastmile_qr_scan", "ios": "https://dc.lft.to/lastmile_qr_scan"}, "bike_id": "c62b6822b6cd4658e7346e5153adc0e9"}, {"lat": 38.87175766666667, "fusion_lat": 0.0, "is_reserved": 0, "is_disabled": 0, "type": "electric_bike", "name": "6054bc1ee9882f23b5a099036dfcc8e0", "lon": -77.233917, "fusion_lon": 0.0, "rental_uris": {"android": "https://dc.lft.to/lastmile_qr_scan", "ios": "https://dc.lft.to/lastmile_qr_scan"}, "bike_id": "6054bc1ee9882f23b5a099036dfcc8e0"}, {"lat": 38.899119666666664, "fusion_lat": 0.0, "is_reserved": 0, "is_disabled": 0, "type": "electric_scooter", "name": "19a629d018142cff4ba16d7790f0b0d2", "lon": -77.03289483333333, "fusion_lon": 0.0, "rental_uris": {"android": "https://dc.lft.to/lastmile_qr_scan", "ios": "https://dc.lft.to/lastmile_qr_scan"}, "bike_id": "19a629d018142cff4ba16d7790f0b0d2"}, {"lat": 38.885224, "fusion_lat": 0.0, "is_reserved": 0, "is_disabled": 0, "type": "electric_scooter", "name": "573b03b5aa3d7be3e0c431c98e59b4e6", "lon": -76.9771275, "fusion_lon": 0.0, "rental_uris": {"android": "https://dc.lft.to/lastmile_qr_scan", "ios": "https://dc.lft.to/lastmile_qr_scan"}, "bike_id": "573b03b5aa3d7be3e0c431c98e59b4e6"}, {"lat": 38.90600466666667, "fusion_lat": 0.0, "is_reserved": 0, "is_disabled": 0, "type": "electric_scooter", "name": "1d6aa26a9063f996981b7f1828c69c46", "lon": -77.02982666666666, "fusion_lon": 0.0, "rental_uris": {"android": "https://dc.lft.to/lastmile_qr_scan", "ios": "https://dc.lft.to/lastmile_qr_scan"}, "bike_id": "1d6aa26a9063f996981b7f1828c69c46"}, {"lat": 38.93701266666667, "fusion_lat": 0.0, "is_reserved": 0, "is_disabled": 0, "type": "electric_scooter", "name": "b7fdb3254a3b69a68d7c4a5f909d21d3", "lon": -77.0559935, "fusion_lon": 0.0, "rental_uris": {"android": "https://dc.lft.to/lastmile_qr_scan", "ios": "https://dc.lft.to/lastmile_qr_scan"}, "bike_id": "b7fdb3254a3b69a68d7c4a5f909d21d3"}, {"lat": 38.903694333333334, "fusion_lat": 0.0, "is_reserved": 0, "is_disabled": 0, "type": "electric_scooter", "name": "30558c6e287ce765024d26b7a4c40a26", "lon": -77.04836516666667, "fusion_lon": 0.0, "rental_uris": {"android": "https://dc.lft.to/lastmile_qr_scan", "ios": "https://dc.lft.to/lastmile_qr_scan"}, "bike_id": "30558c6e287ce765024d26b7a4c40a26"}, {"lat": 38.90437216666667, "fusion_lat": 0.0, "is_reserved": 0, "is_disabled": 0, "type": "electric_scooter", "name": "ebbb0a3b9835f9fa141e6c4e98aed809", "lon": -77.02589283333333, "fusion_lon": 0.0, "rental_uris": {"android": "https://dc.lft.to/lastmile_qr_scan", "ios": "https://dc.lft.to/lastmile_qr_scan"}, "bike_id": "ebbb0a3b9835f9fa141e6c4e98aed809"}, {"lat": 38.8668915, "fusion_lat": 0.0, "is_reserved": 0, "is_disabled": 0, "type": "electric_scooter", "name": "6958dbd9e4c72d8d67208fefcdc22201", "lon": -76.94854316666667, "fusion_lon": 0.0, "rental_uris": {"android": "https://dc.lft.to/lastmile_qr_scan", "ios": "https://dc.lft.to/lastmile_qr_scan"}, "bike_id": "6958dbd9e4c72d8d67208fefcdc22201"}, {"lat": 38.80771266666667, "fusion_lat": 0.0, "is_reserved": 0, "is_disabled": 0, "type": "electric_bike", "name": "7a8dad5c34d70a55d50533450160c104", "lon": -77.05742533333333, "fusion_lon": 0.0, "rental_uris": {"android": "https://dc.lft.to/lastmile_qr_scan", "ios": "https://dc.lft.to/lastmile_qr_scan"}, "bike_id": "7a8dad5c34d70a55d50533450160c104"}, {"lat": 38.90493033333333, "fusion_lat": 0.0, "is_reserved": 0, "is_disabled": 0, "type": "electric_scooter", "name": "0df67e2dcd3358babda34e08868b94a1", "lon": -76.94961, "fusion_lon": 0.0, "rental_uris": {"android": "https://dc.lft.to/lastmile_qr_scan", "ios": "https://dc.lft.to/lastmile_qr_scan"}, "bike_id": "0df67e2dcd3358babda34e08868b94a1"}, {"lat": 38.87668516666667, "fusion_lat": 0.0, "is_reserved": 0, "is_disabled": 0, "type": "electric_scooter", "name": "b3cb9ec19e3ebcc307f4c5e4825f8ffc", "lon": -77.00432583333334, "fusion_lon": 0.0, "rental_uris": {"android": "https://dc.lft.to/lastmile_qr_scan", "ios": "https://dc.lft.to/lastmile_qr_scan"}, "bike_id": "b3cb9ec19e3ebcc307f4c5e4825f8ffc"}, {"lat": 38.90771866666667, "fusion_lat": 0.0, "is_reserved": 0, "is_disabled": 0, "type": "electric_scooter", "name": "712a19f355675cd159e0cb8c4d5d36d2", "lon": -77.04237333333333, "fusion_lon": 0.0, "rental_uris": {"android": "https://dc.lft.to/lastmile_qr_scan", "ios": "https://dc.lft.to/lastmile_qr_scan"}, "bike_id": "712a19f355675cd159e0cb8c4d5d36d2"}, {"lat": 38.8562155, "fusion_lat": 0.0, "is_reserved": 0, "is_disabled": 0, "type": "electric_scooter", "name": "6c4f418dcd76e41490d49049a7573b6a", "lon": -76.9821935, "fusion_lon": 0.0, "rental_uris": {"android": "https://dc.lft.to/lastmile_qr_scan", "ios": "https://dc.lft.to/lastmile_qr_scan"}, "bike_id": "6c4f418dcd76e41490d49049a7573b6a"}, {"lat": 38.8922305, "fusion_lat": 0.0, "is_reserved": 0, "is_disabled": 0, "type": "electric_scooter", "name": "22e58aec82e678b3e92cd1d9e971b576", "lon": -77.02371366666667, "fusion_lon": 0.0, "rental_uris": {"android": "https://dc.lft.to/lastmile_qr_scan", "ios": "https://dc.lft.to/lastmile_qr_scan"}, "bike_id": "22e58aec82e678b3e92cd1d9e971b576"}, {"lat": 38.88477016666667, "fusion_lat": 0.0, "is_reserved": 0, "is_disabled": 0, "type": "electric_scooter", "name": "058c4f22f2a87569ffb6edb636845e26", "lon": -77.026507, "fusion_lon": 0.0, "rental_uris": {"android": "https://dc.lft.to/lastmile_qr_scan", "ios": "https://dc.lft.to/lastmile_qr_scan"}, "bike_id": "058c4f22f2a87569ffb6edb636845e26"}, {"lat": 38.910348, "fusion_lat": 0.0, "is_reserved": 0, "is_disabled": 0, "type": "electric_scooter", "name": "606661f50ab556880f9b3dc268ead95e", "lon": -77.042711, "fusion_lon": 0.0, "rental_uris": {"android": "https://dc.lft.to/lastmile_qr_scan", "ios": "https://dc.lft.to/lastmile_qr_scan"}, "bike_id": "606661f50ab556880f9b3dc268ead95e"}, {"lat": 38.90781366666667, "fusion_lat": 0.0, "is_reserved": 0, "is_disabled": 0, "type": "electric_scooter", "name": "c903a0133b732f3a925f9b0e50422583", "lon": -77.04511433333333, "fusion_lon": 0.0, "rental_uris": {"android": "https://dc.lft.to/lastmile_qr_scan", "ios": "https://dc.lft.to/lastmile_qr_scan"}, "bike_id": "c903a0133b732f3a925f9b0e50422583"}, {"lat": 38.8960955, "fusion_lat": 0.0, "is_reserved": 0, "is_disabled": 0, "type": "electric_scooter", "name": "11afa1f7a0c5c811b2188122c0c45734", "lon": -77.04544433333334, "fusion_lon": 0.0, "rental_uris": {"android": "https://dc.lft.to/lastmile_qr_scan", "ios": "https://dc.lft.to/lastmile_qr_scan"}, "bike_id": "11afa1f7a0c5c811b2188122c0c45734"}, {"lat": 38.90782333333333, "fusion_lat": 0.0, "is_reserved": 0, "is_disabled": 0, "type": "electric_scooter", "name": "a4479e7895785a264b87e0cf0fdeab60", "lon": -77.04502266666667, "fusion_lon": 0.0, "rental_uris": {"android": "https://dc.lft.to/lastmile_qr_scan", "ios": "https://dc.lft.to/lastmile_qr_scan"}, "bike_id": "a4479e7895785a264b87e0cf0fdeab60"}, {"lat": 38.905524166666666, "fusion_lat": 0.0, "is_reserved": 0, "is_disabled": 0, "type": "electric_scooter", "name": "a9515691aede2e18fd11fedbbaa7b4fa", "lon": -77.007079, "fusion_lon": 0.0, "rental_uris": {"android": "https://dc.lft.to/lastmile_qr_scan", "ios": "https://dc.lft.to/lastmile_qr_scan"}, "bike_id": "a9515691aede2e18fd11fedbbaa7b4fa"}, {"lat": 38.949221, "fusion_lat": 0.0, "is_reserved": 0, "is_disabled": 0, "type": "electric_scooter", "name": "65735462462890b8263929ca0194a0e2", "lon": -77.0231515, "fusion_lon": 0.0, "rental_uris": {"android": "https://dc.lft.to/lastmile_qr_scan", "ios": "https://dc.lft.to/lastmile_qr_scan"}, "bike_id": "65735462462890b8263929ca0194a0e2"}, {"lat": 38.884895666666665, "fusion_lat": 0.0, "is_reserved": 0, "is_disabled": 0, "type": "electric_scooter", "name": "32bd93d6eb2916e08b1e724cf9a46445", "lon": -77.007112, "fusion_lon": 0.0, "rental_uris": {"android": "https://dc.lft.to/lastmile_qr_scan", "ios": "https://dc.lft.to/lastmile_qr_scan"}, "bike_id": "32bd93d6eb2916e08b1e724cf9a46445"}, {"lat": 38.89250533333333, "fusion_lat": 0.0, "is_reserved": 0, "is_disabled": 0, "type": "electric_scooter", "name": "d3e9d84dada16f65cd79c6fc24ecb072", "lon": -77.04662633333334, "fusion_lon": 0.0, "rental_uris": {"android": "https://dc.lft.to/lastmile_qr_scan", "ios": "https://dc.lft.to/lastmile_qr_scan"}, "bike_id": "d3e9d84dada16f65cd79c6fc24ecb072"}, {"lat": 38.89219083333333, "fusion_lat": 0.0, "is_reserved": 0, "is_disabled": 0, "type": "electric_scooter", "name": "cac9b2d78d27a3956df490aa013a11f8", "lon": -77.0237355, "fusion_lon": 0.0, "rental_uris": {"android": "https://dc.lft.to/lastmile_qr_scan", "ios": "https://dc.lft.to/lastmile_qr_scan"}, "bike_id": "cac9b2d78d27a3956df490aa013a11f8"}, {"lat": 38.91751983333333, "fusion_lat": 0.0, "is_reserved": 0, "is_disabled": 0, "type": "electric_scooter", "name": "6c480b658a82dd2b9833565adc447c43", "lon": -77.0406755, "fusion_lon": 0.0, "rental_uris": {"android": "https://dc.lft.to/lastmile_qr_scan", "ios": "https://dc.lft.to/lastmile_qr_scan"}, "bike_id": "6c480b658a82dd2b9833565adc447c43"}, {"lat": 38.929928833333335, "fusion_lat": 0.0, "is_reserved": 0, "is_disabled": 0, "type": "electric_scooter", "name": "335b744a60ee08a70766069106680d43", "lon": -77.01477216666666, "fusion_lon": 0.0, "rental_uris": {"android": "https://dc.lft.to/lastmile_qr_scan", "ios": "https://dc.lft.to/lastmile_qr_scan"}, "bike_id": "335b744a60ee08a70766069106680d43"}, {"lat": 38.90523133333333, "fusion_lat": 0.0, "is_reserved": 0, "is_disabled": 0, "type": "electric_scooter", "name": "545437d09f83fcee358c968d6d63026d", "lon": -77.02951783333333, "fusion_lon": 0.0, "rental_uris": {"android": "https://dc.lft.to/lastmile_qr_scan", "ios": "https://dc.lft.to/lastmile_qr_scan"}, "bike_id": "545437d09f83fcee358c968d6d63026d"}, {"lat": 38.94276133333334, "fusion_lat": 0.0, "is_reserved": 0, "is_disabled": 0, "type": "electric_scooter", "name": "e985498c96459cd0ca318b907d72184b", "lon": -77.029385, "fusion_lon": 0.0, "rental_uris": {"android": "https://dc.lft.to/lastmile_qr_scan", "ios": "https://dc.lft.to/lastmile_qr_scan"}, "bike_id": "e985498c96459cd0ca318b907d72184b"}, {"lat": 38.892209666666666, "fusion_lat": 0.0, "is_reserved": 0, "is_disabled": 0, "type": "electric_scooter", "name": "df6ca14da21af1fcf34fc6e1a192b31a", "lon": -77.03169333333334, "fusion_lon": 0.0, "rental_uris": {"android": "https://dc.lft.to/lastmile_qr_scan", "ios": "https://dc.lft.to/lastmile_qr_scan"}, "bike_id": "df6ca14da21af1fcf34fc6e1a192b31a"}, {"lat": 38.91442, "fusion_lat": 0.0, "is_reserved": 0, "is_disabled": 0, "type": "electric_bike", "name": "082adc777d85d0d0d585ec03c018157b", "lon": -77.004663, "fusion_lon": 0.0, "rental_uris": {"android": "https://dc.lft.to/lastmile_qr_scan", "ios": "https://dc.lft.to/lastmile_qr_scan"}, "bike_id": "082adc777d85d0d0d585ec03c018157b"}, {"lat": 38.924678166666666, "fusion_lat": 0.0, "is_reserved": 0, "is_disabled": 0, "type": "electric_scooter", "name": "91d9f747ab9cb99bf9816af11c3bf8b0", "lon": -77.038178, "fusion_lon": 0.0, "rental_uris": {"android": "https://dc.lft.to/lastmile_qr_scan", "ios": "https://dc.lft.to/lastmile_qr_scan"}, "bike_id": "91d9f747ab9cb99bf9816af11c3bf8b0"}, {"lat": 38.92043916666667, "fusion_lat": 0.0, "is_reserved": 0, "is_disabled": 0, "type": "electric_scooter", "name": "9102d9dc50ef3b30afa044c40779123f", "lon": -77.01680383333333, "fusion_lon": 0.0, "rental_uris": {"android": "https://dc.lft.to/lastmile_qr_scan", "ios": "https://dc.lft.to/lastmile_qr_scan"}, "bike_id": "9102d9dc50ef3b30afa044c40779123f"}, {"lat": 38.93115233333333, "fusion_lat": 0.0, "is_reserved": 0, "is_disabled": 0, "type": "electric_scooter", "name": "649ed4eb80f0db04093b0c92aba5f766", "lon": -77.0327855, "fusion_lon": 0.0, "rental_uris": {"android": "https://dc.lft.to/lastmile_qr_scan", "ios": "https://dc.lft.to/lastmile_qr_scan"}, "bike_id": "649ed4eb80f0db04093b0c92aba5f766"}, {"lat": 38.88743916666667, "fusion_lat": 0.0, "is_reserved": 0, "is_disabled": 0, "type": "electric_scooter", "name": "8005fd9ec9dd47e71c2ddd2c1137e3f3", "lon": -77.02841666666667, "fusion_lon": 0.0, "rental_uris": {"android": "https://dc.lft.to/lastmile_qr_scan", "ios": "https://dc.lft.to/lastmile_qr_scan"}, "bike_id": "8005fd9ec9dd47e71c2ddd2c1137e3f3"}, {"lat": 38.911690166666666, "fusion_lat": 0.0, "is_reserved": 0, "is_disabled": 0, "type": "electric_bike", "name": "6b1ee3bad1c1fcf15e691250c12bb963", "lon": -77.00289183333334, "fusion_lon": 0.0, "rental_uris": {"android": "https://dc.lft.to/lastmile_qr_scan", "ios": "https://dc.lft.to/lastmile_qr_scan"}, "bike_id": "6b1ee3bad1c1fcf15e691250c12bb963"}, {"lat": 38.9021685, "fusion_lat": 0.0, "is_reserved": 0, "is_disabled": 0, "type": "electric_bike", "name": "b5a3d1659ee12a5300a25357e07374b0", "lon": -76.93173116666667, "fusion_lon": 0.0, "rental_uris": {"android": "https://dc.lft.to/lastmile_qr_scan", "ios": "https://dc.lft.to/lastmile_qr_scan"}, "bike_id": "b5a3d1659ee12a5300a25357e07374b0"}, {"lat": 38.8386835, "fusion_lat": 0.0, "is_reserved": 0, "is_disabled": 0, "type": "electric_bike", "name": "7225110e5a5853a8fea7480a832b7263", "lon": -76.99696633333333, "fusion_lon": 0.0, "rental_uris": {"android": "https://dc.lft.to/lastmile_qr_scan", "ios": "https://dc.lft.to/lastmile_qr_scan"}, "bike_id": "7225110e5a5853a8fea7480a832b7263"}, {"lat": 38.90552183333333, "fusion_lat": 0.0, "is_reserved": 0, "is_disabled": 0, "type": "electric_scooter", "name": "c26c1c81c7032a47fecdbfa12ec2d13f", "lon": -77.04170783333333, "fusion_lon": 0.0, "rental_uris": {"android": "https://dc.lft.to/lastmile_qr_scan", "ios": "https://dc.lft.to/lastmile_qr_scan"}, "bike_id": "c26c1c81c7032a47fecdbfa12ec2d13f"}, {"lat": 38.87997333333333, "fusion_lat": 0.0, "is_reserved": 0, "is_disabled": 0, "type": "electric_scooter", "name": "7c1d4bd454b20c6a7a0cd697108462ba", "lon": -77.03741183333334, "fusion_lon": 0.0, "rental_uris": {"android": "https://dc.lft.to/lastmile_qr_scan", "ios": "https://dc.lft.to/lastmile_qr_scan"}, "bike_id": "7c1d4bd454b20c6a7a0cd697108462ba"}, {"lat": 38.9078465, "fusion_lat": 0.0, "is_reserved": 0, "is_disabled": 0, "type": "electric_scooter", "name": "958a9e8f7e0a42481248c07adff91bb1", "lon": -77.0353995, "fusion_lon": 0.0, "rental_uris": {"android": "https://dc.lft.to/lastmile_qr_scan", "ios": "https://dc.lft.to/lastmile_qr_scan"}, "bike_id": "958a9e8f7e0a42481248c07adff91bb1"}, {"lat": 38.9216255, "fusion_lat": 0.0, "is_reserved": 0, "is_disabled": 0, "type": "electric_scooter", "name": "c25ff73477253c14648058250bbe469b", "lon": -77.02097716666667, "fusion_lon": 0.0, "rental_uris": {"android": "https://dc.lft.to/lastmile_qr_scan", "ios": "https://dc.lft.to/lastmile_qr_scan"}, "bike_id": "c25ff73477253c14648058250bbe469b"}, {"lat": 38.90680283333333, "fusion_lat": 0.0, "is_reserved": 0, "is_disabled": 0, "type": "electric_scooter", "name": "83420d193eb53773350cf167fae7f45d", "lon": -76.97938766666667, "fusion_lon": 0.0, "rental_uris": {"android": "https://dc.lft.to/lastmile_qr_scan", "ios": "https://dc.lft.to/lastmile_qr_scan"}, "bike_id": "83420d193eb53773350cf167fae7f45d"}, {"lat": 38.920930166666665, "fusion_lat": 0.0, "is_reserved": 0, "is_disabled": 0, "type": "electric_scooter", "name": "48da740bd435f3f09b0d7c0fe7100180", "lon": -77.02594016666667, "fusion_lon": 0.0, "rental_uris": {"android": "https://dc.lft.to/lastmile_qr_scan", "ios": "https://dc.lft.to/lastmile_qr_scan"}, "bike_id": "48da740bd435f3f09b0d7c0fe7100180"}, {"lat": 38.8913345, "fusion_lat": 0.0, "is_reserved": 0, "is_disabled": 0, "type": "electric_scooter", "name": "2daaf21d427f2ab52032f1df33a30447", "lon": -76.99937316666667, "fusion_lon": 0.0, "rental_uris": {"android": "https://dc.lft.to/lastmile_qr_scan", "ios": "https://dc.lft.to/lastmile_qr_scan"}, "bike_id": "2daaf21d427f2ab52032f1df33a30447"}, {"lat": 38.899550833333336, "fusion_lat": 0.0, "is_reserved": 0, "is_disabled": 0, "type": "electric_scooter", "name": "8220c5e02e7f6330865edfc85e2bbf88", "lon": -77.0468445, "fusion_lon": 0.0, "rental_uris": {"android": "https://dc.lft.to/lastmile_qr_scan", "ios": "https://dc.lft.to/lastmile_qr_scan"}, "bike_id": "8220c5e02e7f6330865edfc85e2bbf88"}, {"lat": 38.898895833333334, "fusion_lat": 0.0, "is_reserved": 0, "is_disabled": 0, "type": "electric_scooter", "name": "e3186912e0294287854b5baee281c026", "lon": -77.0282295, "fusion_lon": 0.0, "rental_uris": {"android": "https://dc.lft.to/lastmile_qr_scan", "ios": "https://dc.lft.to/lastmile_qr_scan"}, "bike_id": "e3186912e0294287854b5baee281c026"}, {"lat": 38.91738816666667, "fusion_lat": 0.0, "is_reserved": 0, "is_disabled": 0, "type": "electric_bike", "name": "55deb13f18003e2bfd1bffb72f16efe9", "lon": -77.06892366666666, "fusion_lon": 0.0, "rental_uris": {"android": "https://dc.lft.to/lastmile_qr_scan", "ios": "https://dc.lft.to/lastmile_qr_scan"}, "bike_id": "55deb13f18003e2bfd1bffb72f16efe9"}, {"lat": 38.9065255, "fusion_lat": 0.0, "is_reserved": 0, "is_disabled": 0, "type": "electric_scooter", "name": "25bb11d95f8556bbbcecd7a4ed6ea45f", "lon": -77.01413066666667, "fusion_lon": 0.0, "rental_uris": {"android": "https://dc.lft.to/lastmile_qr_scan", "ios": "https://dc.lft.to/lastmile_qr_scan"}, "bike_id": "25bb11d95f8556bbbcecd7a4ed6ea45f"}, {"lat": 38.900666, "fusion_lat": 0.0, "is_reserved": 0, "is_disabled": 0, "type": "electric_scooter", "name": "64dd1313811a406a3c6af9c325a9793a", "lon": -77.047803, "fusion_lon": 0.0, "rental_uris": {"android": "https://dc.lft.to/lastmile_qr_scan", "ios": "https://dc.lft.to/lastmile_qr_scan"}, "bike_id": "64dd1313811a406a3c6af9c325a9793a"}, {"lat": 38.9023495, "fusion_lat": 0.0, "is_reserved": 0, "is_disabled": 0, "type": "electric_scooter", "name": "660b229bb6a8b59101720195d9d36a3b", "lon": -77.01582016666667, "fusion_lon": 0.0, "rental_uris": {"android": "https://dc.lft.to/lastmile_qr_scan", "ios": "https://dc.lft.to/lastmile_qr_scan"}, "bike_id": "660b229bb6a8b59101720195d9d36a3b"}, {"lat": 38.919082, "fusion_lat": 0.0, "is_reserved": 0, "is_disabled": 0, "type": "electric_scooter", "name": "c26bf69cffcdf1128076e67669057514", "lon": -77.03443766666666, "fusion_lon": 0.0, "rental_uris": {"android": "https://dc.lft.to/lastmile_qr_scan", "ios": "https://dc.lft.to/lastmile_qr_scan"}, "bike_id": "c26bf69cffcdf1128076e67669057514"}, {"lat": 38.90592083333333, "fusion_lat": 0.0, "is_reserved": 0, "is_disabled": 0, "type": "electric_scooter", "name": "d923946f1c1e9b5b95f65e4c159ac18a", "lon": -77.0653785, "fusion_lon": 0.0, "rental_uris": {"android": "https://dc.lft.to/lastmile_qr_scan", "ios": "https://dc.lft.to/lastmile_qr_scan"}, "bike_id": "d923946f1c1e9b5b95f65e4c159ac18a"}, {"lat": 38.922355833333334, "fusion_lat": 0.0, "is_reserved": 0, "is_disabled": 0, "type": "electric_scooter", "name": "9cc712ec84ccc729b0a1e2db47a22f63", "lon": -77.04247966666667, "fusion_lon": 0.0, "rental_uris": {"android": "https://dc.lft.to/lastmile_qr_scan", "ios": "https://dc.lft.to/lastmile_qr_scan"}, "bike_id": "9cc712ec84ccc729b0a1e2db47a22f63"}, {"lat": 38.914174, "fusion_lat": 0.0, "is_reserved": 0, "is_disabled": 0, "type": "electric_scooter", "name": "c9be95858cf8ee153c11c37178d63455", "lon": -77.03175166666666, "fusion_lon": 0.0, "rental_uris": {"android": "https://dc.lft.to/lastmile_qr_scan", "ios": "https://dc.lft.to/lastmile_qr_scan"}, "bike_id": "c9be95858cf8ee153c11c37178d63455"}, {"lat": 38.876394, "fusion_lat": 0.0, "is_reserved": 0, "is_disabled": 0, "type": "electric_scooter", "name": "dd35ac963b8fe3ef224fcdeb0e0f887c", "lon": -76.99294683333333, "fusion_lon": 0.0, "rental_uris": {"android": "https://dc.lft.to/lastmile_qr_scan", "ios": "https://dc.lft.to/lastmile_qr_scan"}, "bike_id": "dd35ac963b8fe3ef224fcdeb0e0f887c"}, {"lat": 38.89609, "fusion_lat": 0.0, "is_reserved": 0, "is_disabled": 0, "type": "electric_scooter", "name": "a501486698890a9b7022e5728cbe0577", "lon": -77.022129, "fusion_lon": 0.0, "rental_uris": {"android": "https://dc.lft.to/lastmile_qr_scan", "ios": "https://dc.lft.to/lastmile_qr_scan"}, "bike_id": "a501486698890a9b7022e5728cbe0577"}, {"lat": 38.89512366666666, "fusion_lat": 0.0, "is_reserved": 0, "is_disabled": 0, "type": "electric_scooter", "name": "1c3d0d327bb2f0a7b68bcc7f71f19bfb", "lon": -76.99505283333333, "fusion_lon": 0.0, "rental_uris": {"android": "https://dc.lft.to/lastmile_qr_scan", "ios": "https://dc.lft.to/lastmile_qr_scan"}, "bike_id": "1c3d0d327bb2f0a7b68bcc7f71f19bfb"}, {"lat": 38.9212665, "fusion_lat": 0.0, "is_reserved": 0, "is_disabled": 0, "type": "electric_scooter", "name": "a5771463f248dfe72c5d39c81d3997da", "lon": -77.00938183333334, "fusion_lon": 0.0, "rental_uris": {"android": "https://dc.lft.to/lastmile_qr_scan", "ios": "https://dc.lft.to/lastmile_qr_scan"}, "bike_id": "a5771463f248dfe72c5d39c81d3997da"}, {"lat": 38.915888, "fusion_lat": 0.0, "is_reserved": 0, "is_disabled": 0, "type": "electric_scooter", "name": "a32092f69641b83d9abe57dc70f77ca2", "lon": -77.020036, "fusion_lon": 0.0, "rental_uris": {"android": "https://dc.lft.to/lastmile_qr_scan", "ios": "https://dc.lft.to/lastmile_qr_scan"}, "bike_id": "a32092f69641b83d9abe57dc70f77ca2"}, {"lat": 39.01077133333333, "fusion_lat": 0.0, "is_reserved": 0, "is_disabled": 0, "type": "electric_bike", "name": "18a054ff7a3cef1de858ebb7f9cf5cd6", "lon": -76.91067333333334, "fusion_lon": 0.0, "rental_uris": {"android": "https://dc.lft.to/lastmile_qr_scan", "ios": "https://dc.lft.to/lastmile_qr_scan"}, "bike_id": "18a054ff7a3cef1de858ebb7f9cf5cd6"}, {"lat": 38.922459, "fusion_lat": 0.0, "is_reserved": 0, "is_disabled": 0, "type": "electric_scooter", "name": "20684e1af4c3e18ea4066c8b94368118", "lon": -77.03067766666666, "fusion_lon": 0.0, "rental_uris": {"android": "https://dc.lft.to/lastmile_qr_scan", "ios": "https://dc.lft.to/lastmile_qr_scan"}, "bike_id": "20684e1af4c3e18ea4066c8b94368118"}, {"lat": 38.870383333333336, "fusion_lat": 0.0, "is_reserved": 0, "is_disabled": 0, "type": "electric_bike", "name": "641a3cf67956e01340e66bec6b09dda0", "lon": -77.22907616666667, "fusion_lon": 0.0, "rental_uris": {"android": "https://dc.lft.to/lastmile_qr_scan", "ios": "https://dc.lft.to/lastmile_qr_scan"}, "bike_id": "641a3cf67956e01340e66bec6b09dda0"}, {"lat": 38.89927766666667, "fusion_lat": 0.0, "is_reserved": 0, "is_disabled": 0, "type": "electric_scooter", "name": "8be9484221f5440e2ffd77c00d88ac09", "lon": -77.02388583333334, "fusion_lon": 0.0, "rental_uris": {"android": "https://dc.lft.to/lastmile_qr_scan", "ios": "https://dc.lft.to/lastmile_qr_scan"}, "bike_id": "8be9484221f5440e2ffd77c00d88ac09"}, {"lat": 38.91439833333333, "fusion_lat": 0.0, "is_reserved": 0, "is_disabled": 0, "type": "electric_bike", "name": "899177b7e826fd96e646de75c27ea10f", "lon": -77.01710766666666, "fusion_lon": 0.0, "rental_uris": {"android": "https://dc.lft.to/lastmile_qr_scan", "ios": "https://dc.lft.to/lastmile_qr_scan"}, "bike_id": "899177b7e826fd96e646de75c27ea10f"}, {"lat": 38.9211105, "fusion_lat": 0.0, "is_reserved": 0, "is_disabled": 0, "type": "electric_scooter", "name": "b84bbd7aab04c61d52dbd91f047a2000", "lon": -77.02224216666667, "fusion_lon": 0.0, "rental_uris": {"android": "https://dc.lft.to/lastmile_qr_scan", "ios": "https://dc.lft.to/lastmile_qr_scan"}, "bike_id": "b84bbd7aab04c61d52dbd91f047a2000"}, {"lat": 38.92474466666667, "fusion_lat": 0.0, "is_reserved": 0, "is_disabled": 0, "type": "electric_scooter", "name": "21974c3bb25c013b7e39a6affc2bdc5d", "lon": -77.02208716666667, "fusion_lon": 0.0, "rental_uris": {"android": "https://dc.lft.to/lastmile_qr_scan", "ios": "https://dc.lft.to/lastmile_qr_scan"}, "bike_id": "21974c3bb25c013b7e39a6affc2bdc5d"}, {"lat": 38.902635333333336, "fusion_lat": 0.0, "is_reserved": 0, "is_disabled": 0, "type": "electric_scooter", "name": "74b8724d009c0a821da4f4a01cd47cc3", "lon": -77.02643433333333, "fusion_lon": 0.0, "rental_uris": {"android": "https://dc.lft.to/lastmile_qr_scan", "ios": "https://dc.lft.to/lastmile_qr_scan"}, "bike_id": "74b8724d009c0a821da4f4a01cd47cc3"}, {"lat": 38.89848283333333, "fusion_lat": 0.0, "is_reserved": 0, "is_disabled": 0, "type": "electric_scooter", "name": "da6e1d9de1b4175d11ed280a689115cc", "lon": -77.02855883333334, "fusion_lon": 0.0, "rental_uris": {"android": "https://dc.lft.to/lastmile_qr_scan", "ios": "https://dc.lft.to/lastmile_qr_scan"}, "bike_id": "da6e1d9de1b4175d11ed280a689115cc"}, {"lat": 38.89221583333333, "fusion_lat": 0.0, "is_reserved": 0, "is_disabled": 0, "type": "electric_scooter", "name": "54801ee98ec86894bad91421e8389b39", "lon": -77.03022733333333, "fusion_lon": 0.0, "rental_uris": {"android": "https://dc.lft.to/lastmile_qr_scan", "ios": "https://dc.lft.to/lastmile_qr_scan"}, "bike_id": "54801ee98ec86894bad91421e8389b39"}, {"lat": 38.875622166666666, "fusion_lat": 0.0, "is_reserved": 0, "is_disabled": 0, "type": "electric_scooter", "name": "5c4a16fe9e7045f7c7ede67dbe96d2a9", "lon": -77.006016, "fusion_lon": 0.0, "rental_uris": {"android": "https://dc.lft.to/lastmile_qr_scan", "ios": "https://dc.lft.to/lastmile_qr_scan"}, "bike_id": "5c4a16fe9e7045f7c7ede67dbe96d2a9"}, {"lat": 38.95099166666667, "fusion_lat": 0.0, "is_reserved": 0, "is_disabled": 0, "type": "electric_scooter", "name": "6b7ced5aa498c698cfd17bf578c51063", "lon": -77.029649, "fusion_lon": 0.0, "rental_uris": {"android": "https://dc.lft.to/lastmile_qr_scan", "ios": "https://dc.lft.to/lastmile_qr_scan"}, "bike_id": "6b7ced5aa498c698cfd17bf578c51063"}, {"lat": 38.941429, "fusion_lat": 0.0, "is_reserved": 0, "is_disabled": 0, "type": "electric_scooter", "name": "a47041b0ba5a6ee9d5d4e54fbba385b6", "lon": -77.0233385, "fusion_lon": 0.0, "rental_uris": {"android": "https://dc.lft.to/lastmile_qr_scan", "ios": "https://dc.lft.to/lastmile_qr_scan"}, "bike_id": "a47041b0ba5a6ee9d5d4e54fbba385b6"}, {"lat": 38.89809866666667, "fusion_lat": 0.0, "is_reserved": 0, "is_disabled": 0, "type": "electric_scooter", "name": "751f5f564a19e5cfa1fefa3ab62156ea", "lon": -77.03006916666666, "fusion_lon": 0.0, "rental_uris": {"android": "https://dc.lft.to/lastmile_qr_scan", "ios": "https://dc.lft.to/lastmile_qr_scan"}, "bike_id": "751f5f564a19e5cfa1fefa3ab62156ea"}, {"lat": 38.89610583333334, "fusion_lat": 0.0, "is_reserved": 0, "is_disabled": 0, "type": "electric_scooter", "name": "b5eb2bc5f5488750e83e35b04a1fe23e", "lon": -77.05075983333333, "fusion_lon": 0.0, "rental_uris": {"android": "https://dc.lft.to/lastmile_qr_scan", "ios": "https://dc.lft.to/lastmile_qr_scan"}, "bike_id": "b5eb2bc5f5488750e83e35b04a1fe23e"}, {"lat": 38.89224766666667, "fusion_lat": 0.0, "is_reserved": 0, "is_disabled": 0, "type": "electric_scooter", "name": "5ef0004ea99dd98de1d453523f5208d9", "lon": -77.04340566666667, "fusion_lon": 0.0, "rental_uris": {"android": "https://dc.lft.to/lastmile_qr_scan", "ios": "https://dc.lft.to/lastmile_qr_scan"}, "bike_id": "5ef0004ea99dd98de1d453523f5208d9"}, {"lat": 38.90043883333333, "fusion_lat": 0.0, "is_reserved": 0, "is_disabled": 0, "type": "electric_scooter", "name": "9c56bbdfad04c5410ba80bfc6f20a28a", "lon": -76.98830583333333, "fusion_lon": 0.0, "rental_uris": {"android": "https://dc.lft.to/lastmile_qr_scan", "ios": "https://dc.lft.to/lastmile_qr_scan"}, "bike_id": "9c56bbdfad04c5410ba80bfc6f20a28a"}, {"lat": 38.921267, "fusion_lat": 0.0, "is_reserved": 0, "is_disabled": 0, "type": "electric_scooter", "name": "788611948c266710030dcf70a1b54bdd", "lon": -77.00940483333333, "fusion_lon": 0.0, "rental_uris": {"android": "https://dc.lft.to/lastmile_qr_scan", "ios": "https://dc.lft.to/lastmile_qr_scan"}, "bike_id": "788611948c266710030dcf70a1b54bdd"}, {"lat": 38.895002, "fusion_lat": 0.0, "is_reserved": 0, "is_disabled": 0, "type": "electric_scooter", "name": "f7cbe504ad4948d1bf7e0ba65d3f0ace", "lon": -77.02292283333334, "fusion_lon": 0.0, "rental_uris": {"android": "https://dc.lft.to/lastmile_qr_scan", "ios": "https://dc.lft.to/lastmile_qr_scan"}, "bike_id": "f7cbe504ad4948d1bf7e0ba65d3f0ace"}, {"lat": 38.933457, "fusion_lat": 0.0, "is_reserved": 0, "is_disabled": 0, "type": "electric_scooter", "name": "01dee2a2860527a5b65b10f43c490b8f", "lon": -77.0726305, "fusion_lon": 0.0, "rental_uris": {"android": "https://dc.lft.to/lastmile_qr_scan", "ios": "https://dc.lft.to/lastmile_qr_scan"}, "bike_id": "01dee2a2860527a5b65b10f43c490b8f"}, {"lat": 38.92178333333333, "fusion_lat": 0.0, "is_reserved": 0, "is_disabled": 0, "type": "electric_scooter", "name": "07db6fe8940e394cd374e8c0d29bd128", "lon": -77.04227783333333, "fusion_lon": 0.0, "rental_uris": {"android": "https://dc.lft.to/lastmile_qr_scan", "ios": "https://dc.lft.to/lastmile_qr_scan"}, "bike_id": "07db6fe8940e394cd374e8c0d29bd128"}, {"lat": 38.90590516666666, "fusion_lat": 0.0, "is_reserved": 0, "is_disabled": 0, "type": "electric_scooter", "name": "1df7d3c960c049bb590163c6ba3d2ff1", "lon": -77.07017833333333, "fusion_lon": 0.0, "rental_uris": {"android": "https://dc.lft.to/lastmile_qr_scan", "ios": "https://dc.lft.to/lastmile_qr_scan"}, "bike_id": "1df7d3c960c049bb590163c6ba3d2ff1"}, {"lat": 38.882217833333335, "fusion_lat": 0.0, "is_reserved": 0, "is_disabled": 0, "type": "electric_scooter", "name": "0d60b109127354194960ec7ca924c1d4", "lon": -76.9974195, "fusion_lon": 0.0, "rental_uris": {"android": "https://dc.lft.to/lastmile_qr_scan", "ios": "https://dc.lft.to/lastmile_qr_scan"}, "bike_id": "0d60b109127354194960ec7ca924c1d4"}, {"lat": 38.865569, "fusion_lat": 0.0, "is_reserved": 0, "is_disabled": 0, "type": "electric_bike", "name": "3a48bad60c405b541a46623f442d542f", "lon": -76.97481966666666, "fusion_lon": 0.0, "rental_uris": {"android": "https://dc.lft.to/lastmile_qr_scan", "ios": "https://dc.lft.to/lastmile_qr_scan"}, "bike_id": "3a48bad60c405b541a46623f442d542f"}, {"lat": 38.8242995, "fusion_lat": 0.0, "is_reserved": 0, "is_disabled": 0, "type": "electric_bike", "name": "456dcb63030196a65ccd306b61edb283", "lon": -77.12037433333333, "fusion_lon": 0.0, "rental_uris": {"android": "https://dc.lft.to/lastmile_qr_scan", "ios": "https://dc.lft.to/lastmile_qr_scan"}, "bike_id": "456dcb63030196a65ccd306b61edb283"}, {"lat": 38.9236095, "fusion_lat": 0.0, "is_reserved": 0, "is_disabled": 0, "type": "electric_scooter", "name": "74d6e1e22482da7a2b06781f4c33807d", "lon": -77.020573, "fusion_lon": 0.0, "rental_uris": {"android": "https://dc.lft.to/lastmile_qr_scan", "ios": "https://dc.lft.to/lastmile_qr_scan"}, "bike_id": "74d6e1e22482da7a2b06781f4c33807d"}, {"lat": 38.90091616666667, "fusion_lat": 0.0, "is_reserved": 0, "is_disabled": 0, "type": "electric_scooter", "name": "dd9557cf98823b79eb1427c715074e7f", "lon": -77.03821916666666, "fusion_lon": 0.0, "rental_uris": {"android": "https://dc.lft.to/lastmile_qr_scan", "ios": "https://dc.lft.to/lastmile_qr_scan"}, "bike_id": "dd9557cf98823b79eb1427c715074e7f"}, {"lat": 38.9233515, "fusion_lat": 0.0, "is_reserved": 0, "is_disabled": 0, "type": "electric_scooter", "name": "95f18159a50518fc22ab98b7ebbc9576", "lon": -77.04304766666667, "fusion_lon": 0.0, "rental_uris": {"android": "https://dc.lft.to/lastmile_qr_scan", "ios": "https://dc.lft.to/lastmile_qr_scan"}, "bike_id": "95f18159a50518fc22ab98b7ebbc9576"}, {"lat": 38.89827283333333, "fusion_lat": 0.0, "is_reserved": 0, "is_disabled": 0, "type": "electric_scooter", "name": "225c6fcc507a18b1b64c743108999134", "lon": -77.02638883333333, "fusion_lon": 0.0, "rental_uris": {"android": "https://dc.lft.to/lastmile_qr_scan", "ios": "https://dc.lft.to/lastmile_qr_scan"}, "bike_id": "225c6fcc507a18b1b64c743108999134"}, {"lat": 38.89218483333333, "fusion_lat": 0.0, "is_reserved": 0, "is_disabled": 0, "type": "electric_scooter", "name": "b2dad7176cb8779c1e1b1509917dc37f", "lon": -77.02370583333334, "fusion_lon": 0.0, "rental_uris": {"android": "https://dc.lft.to/lastmile_qr_scan", "ios": "https://dc.lft.to/lastmile_qr_scan"}, "bike_id": "b2dad7176cb8779c1e1b1509917dc37f"}, {"lat": 38.8563995, "fusion_lat": 0.0, "is_reserved": 0, "is_disabled": 0, "type": "electric_bike", "name": "09b897685be296ebb799566585ce309a", "lon": -77.06835883333333, "fusion_lon": 0.0, "rental_uris": {"android": "https://dc.lft.to/lastmile_qr_scan", "ios": "https://dc.lft.to/lastmile_qr_scan"}, "bike_id": "09b897685be296ebb799566585ce309a"}, {"lat": 38.916639833333335, "fusion_lat": 0.0, "is_reserved": 0, "is_disabled": 0, "type": "electric_scooter", "name": "4683a42bc4e69f8b31abc3fc06b32369", "lon": -77.037043, "fusion_lon": 0.0, "rental_uris": {"android": "https://dc.lft.to/lastmile_qr_scan", "ios": "https://dc.lft.to/lastmile_qr_scan"}, "bike_id": "4683a42bc4e69f8b31abc3fc06b32369"}, {"lat": 38.92328283333333, "fusion_lat": 0.0, "is_reserved": 0, "is_disabled": 0, "type": "electric_scooter", "name": "de45b353c66fec69dd2a2811b6066b21", "lon": -77.01962783333333, "fusion_lon": 0.0, "rental_uris": {"android": "https://dc.lft.to/lastmile_qr_scan", "ios": "https://dc.lft.to/lastmile_qr_scan"}, "bike_id": "de45b353c66fec69dd2a2811b6066b21"}, {"lat": 38.84673, "fusion_lat": 0.0, "is_reserved": 0, "is_disabled": 0, "type": "electric_bike", "name": "9dc3d329ffba9d87f405330ad0e27a81", "lon": -77.13937, "fusion_lon": 0.0, "rental_uris": {"android": "https://dc.lft.to/lastmile_qr_scan", "ios": "https://dc.lft.to/lastmile_qr_scan"}, "bike_id": "9dc3d329ffba9d87f405330ad0e27a81"}, {"lat": 38.9155525, "fusion_lat": 0.0, "is_reserved": 0, "is_disabled": 0, "type": "electric_scooter", "name": "d567580357e379d6c887397b6a9e5ec6", "lon": -77.05108066666666, "fusion_lon": 0.0, "rental_uris": {"android": "https://dc.lft.to/lastmile_qr_scan", "ios": "https://dc.lft.to/lastmile_qr_scan"}, "bike_id": "d567580357e379d6c887397b6a9e5ec6"}, {"lat": 38.9104035, "fusion_lat": 0.0, "is_reserved": 0, "is_disabled": 0, "type": "electric_scooter", "name": "de83835809b9351bd6628e97bbf9408e", "lon": -77.0100435, "fusion_lon": 0.0, "rental_uris": {"android": "https://dc.lft.to/lastmile_qr_scan", "ios": "https://dc.lft.to/lastmile_qr_scan"}, "bike_id": "de83835809b9351bd6628e97bbf9408e"}, {"lat": 38.919092, "fusion_lat": 0.0, "is_reserved": 0, "is_disabled": 0, "type": "electric_scooter", "name": "a5e8b38f2a034e6d695cfddac2f355d1", "lon": -77.0344995, "fusion_lon": 0.0, "rental_uris": {"android": "https://dc.lft.to/lastmile_qr_scan", "ios": "https://dc.lft.to/lastmile_qr_scan"}, "bike_id": "a5e8b38f2a034e6d695cfddac2f355d1"}, {"lat": 38.89225366666667, "fusion_lat": 0.0, "is_reserved": 0, "is_disabled": 0, "type": "electric_scooter", "name": "39206742a4bed8c761136caeedef616e", "lon": -77.026174, "fusion_lon": 0.0, "rental_uris": {"android": "https://dc.lft.to/lastmile_qr_scan", "ios": "https://dc.lft.to/lastmile_qr_scan"}, "bike_id": "39206742a4bed8c761136caeedef616e"}, {"lat": 38.8848695, "fusion_lat": 0.0, "is_reserved": 0, "is_disabled": 0, "type": "electric_scooter", "name": "3238e3b50891e95c3b8dbf7a8939b07c", "lon": -77.03476966666666, "fusion_lon": 0.0, "rental_uris": {"android": "https://dc.lft.to/lastmile_qr_scan", "ios": "https://dc.lft.to/lastmile_qr_scan"}, "bike_id": "3238e3b50891e95c3b8dbf7a8939b07c"}, {"lat": 38.928372833333334, "fusion_lat": 0.0, "is_reserved": 0, "is_disabled": 0, "type": "electric_scooter", "name": "543de63f00404b3302dfcc4ac81a7908", "lon": -77.0542, "fusion_lon": 0.0, "rental_uris": {"android": "https://dc.lft.to/lastmile_qr_scan", "ios": "https://dc.lft.to/lastmile_qr_scan"}, "bike_id": "543de63f00404b3302dfcc4ac81a7908"}, {"lat": 38.9141665, "fusion_lat": 0.0, "is_reserved": 0, "is_disabled": 0, "type": "electric_scooter", "name": "c8efdde66417a6441c88ed58151ef07b", "lon": -77.02231383333333, "fusion_lon": 0.0, "rental_uris": {"android": "https://dc.lft.to/lastmile_qr_scan", "ios": "https://dc.lft.to/lastmile_qr_scan"}, "bike_id": "c8efdde66417a6441c88ed58151ef07b"}, {"lat": 38.889686, "fusion_lat": 0.0, "is_reserved": 0, "is_disabled": 0, "type": "electric_scooter", "name": "023ec87bcad4b4924e113cf8111b995e", "lon": -76.98037666666667, "fusion_lon": 0.0, "rental_uris": {"android": "https://dc.lft.to/lastmile_qr_scan", "ios": "https://dc.lft.to/lastmile_qr_scan"}, "bike_id": "023ec87bcad4b4924e113cf8111b995e"}, {"lat": 38.878735666666664, "fusion_lat": 0.0, "is_reserved": 0, "is_disabled": 0, "type": "electric_bike", "name": "b225bc17425eaee40cbfabc4f55bb7dd", "lon": -76.99019383333334, "fusion_lon": 0.0, "rental_uris": {"android": "https://dc.lft.to/lastmile_qr_scan", "ios": "https://dc.lft.to/lastmile_qr_scan"}, "bike_id": "b225bc17425eaee40cbfabc4f55bb7dd"}, {"lat": 38.901512, "fusion_lat": 0.0, "is_reserved": 0, "is_disabled": 0, "type": "electric_scooter", "name": "d597329cc3eaff82413d38c9d1906634", "lon": -76.97424333333333, "fusion_lon": 0.0, "rental_uris": {"android": "https://dc.lft.to/lastmile_qr_scan", "ios": "https://dc.lft.to/lastmile_qr_scan"}, "bike_id": "d597329cc3eaff82413d38c9d1906634"}, {"lat": 38.8292345, "fusion_lat": 0.0, "is_reserved": 0, "is_disabled": 0, "type": "electric_bike", "name": "d87f79e32defbce937c8ad8235640435", "lon": -77.0687925, "fusion_lon": 0.0, "rental_uris": {"android": "https://dc.lft.to/lastmile_qr_scan", "ios": "https://dc.lft.to/lastmile_qr_scan"}, "bike_id": "d87f79e32defbce937c8ad8235640435"}, {"lat": 38.92257566666667, "fusion_lat": 0.0, "is_reserved": 0, "is_disabled": 0, "type": "electric_scooter", "name": "002b819a73555a4bfbaf8af19a496e84", "lon": -77.07279066666666, "fusion_lon": 0.0, "rental_uris": {"android": "https://dc.lft.to/lastmile_qr_scan", "ios": "https://dc.lft.to/lastmile_qr_scan"}, "bike_id": "002b819a73555a4bfbaf8af19a496e84"}, {"lat": 38.901375333333334, "fusion_lat": 0.0, "is_reserved": 0, "is_disabled": 0, "type": "electric_scooter", "name": "0743445368cda5a871d22cb47695af34", "lon": -77.02955566666667, "fusion_lon": 0.0, "rental_uris": {"android": "https://dc.lft.to/lastmile_qr_scan", "ios": "https://dc.lft.to/lastmile_qr_scan"}, "bike_id": "0743445368cda5a871d22cb47695af34"}, {"lat": 38.928691, "fusion_lat": 0.0, "is_reserved": 0, "is_disabled": 0, "type": "electric_scooter", "name": "a45592527c462b736825643604dbd12d", "lon": -77.05659216666666, "fusion_lon": 0.0, "rental_uris": {"android": "https://dc.lft.to/lastmile_qr_scan", "ios": "https://dc.lft.to/lastmile_qr_scan"}, "bike_id": "a45592527c462b736825643604dbd12d"}, {"lat": 38.88036733333333, "fusion_lat": 0.0, "is_reserved": 0, "is_disabled": 0, "type": "electric_scooter", "name": "965f90396a48d218b9359fa472adf7b7", "lon": -76.92722716666667, "fusion_lon": 0.0, "rental_uris": {"android": "https://dc.lft.to/lastmile_qr_scan", "ios": "https://dc.lft.to/lastmile_qr_scan"}, "bike_id": "965f90396a48d218b9359fa472adf7b7"}, {"lat": 38.910689833333336, "fusion_lat": 0.0, "is_reserved": 0, "is_disabled": 0, "type": "electric_scooter", "name": "bacc21de8a107487c8395ccfafabb538", "lon": -77.04118366666667, "fusion_lon": 0.0, "rental_uris": {"android": "https://dc.lft.to/lastmile_qr_scan", "ios": "https://dc.lft.to/lastmile_qr_scan"}, "bike_id": "bacc21de8a107487c8395ccfafabb538"}, {"lat": 38.892262, "fusion_lat": 0.0, "is_reserved": 0, "is_disabled": 0, "type": "electric_scooter", "name": "1a678d616a222e9fc62c8154f61125c2", "lon": -77.05008233333334, "fusion_lon": 0.0, "rental_uris": {"android": "https://dc.lft.to/lastmile_qr_scan", "ios": "https://dc.lft.to/lastmile_qr_scan"}, "bike_id": "1a678d616a222e9fc62c8154f61125c2"}, {"lat": 38.91575533333334, "fusion_lat": 0.0, "is_reserved": 0, "is_disabled": 0, "type": "electric_scooter", "name": "a0add45a19ab4781c5af46a9d541c3b2", "lon": -77.02002916666666, "fusion_lon": 0.0, "rental_uris": {"android": "https://dc.lft.to/lastmile_qr_scan", "ios": "https://dc.lft.to/lastmile_qr_scan"}, "bike_id": "a0add45a19ab4781c5af46a9d541c3b2"}, {"lat": 38.892309833333336, "fusion_lat": 0.0, "is_reserved": 0, "is_disabled": 0, "type": "electric_scooter", "name": "2a00f7033d7f26bac05f12e9eaa4bcac", "lon": -77.0316395, "fusion_lon": 0.0, "rental_uris": {"android": "https://dc.lft.to/lastmile_qr_scan", "ios": "https://dc.lft.to/lastmile_qr_scan"}, "bike_id": "2a00f7033d7f26bac05f12e9eaa4bcac"}, {"lat": 38.892232666666665, "fusion_lat": 0.0, "is_reserved": 0, "is_disabled": 0, "type": "electric_scooter", "name": "110f9c6a1d63708941d9d921cc125dd0", "lon": -77.01373533333333, "fusion_lon": 0.0, "rental_uris": {"android": "https://dc.lft.to/lastmile_qr_scan", "ios": "https://dc.lft.to/lastmile_qr_scan"}, "bike_id": "110f9c6a1d63708941d9d921cc125dd0"}, {"lat": 38.92362466666667, "fusion_lat": 0.0, "is_reserved": 0, "is_disabled": 0, "type": "electric_scooter", "name": "491c7880081bd9d30ecc6c64573af3ee", "lon": -77.0432225, "fusion_lon": 0.0, "rental_uris": {"android": "https://dc.lft.to/lastmile_qr_scan", "ios": "https://dc.lft.to/lastmile_qr_scan"}, "bike_id": "491c7880081bd9d30ecc6c64573af3ee"}, {"lat": 38.899078333333335, "fusion_lat": 0.0, "is_reserved": 0, "is_disabled": 0, "type": "electric_scooter", "name": "15cb309e7182ad25511b53df9df0a274", "lon": -76.93393233333333, "fusion_lon": 0.0, "rental_uris": {"android": "https://dc.lft.to/lastmile_qr_scan", "ios": "https://dc.lft.to/lastmile_qr_scan"}, "bike_id": "15cb309e7182ad25511b53df9df0a274"}, {"lat": 38.915201333333336, "fusion_lat": 0.0, "is_reserved": 0, "is_disabled": 0, "type": "electric_scooter", "name": "5503b4efd9dbf73c7e007a9b0fec9493", "lon": -77.018535, "fusion_lon": 0.0, "rental_uris": {"android": "https://dc.lft.to/lastmile_qr_scan", "ios": "https://dc.lft.to/lastmile_qr_scan"}, "bike_id": "5503b4efd9dbf73c7e007a9b0fec9493"}, {"lat": 38.928372333333336, "fusion_lat": 0.0, "is_reserved": 0, "is_disabled": 0, "type": "electric_scooter", "name": "2e33c63b55f1333c8df83c8f559a7032", "lon": -77.05423366666666, "fusion_lon": 0.0, "rental_uris": {"android": "https://dc.lft.to/lastmile_qr_scan", "ios": "https://dc.lft.to/lastmile_qr_scan"}, "bike_id": "2e33c63b55f1333c8df83c8f559a7032"}, {"lat": 38.87631183333333, "fusion_lat": 0.0, "is_reserved": 0, "is_disabled": 0, "type": "electric_scooter", "name": "f58912d8c6aca5e20873df93cee74c2f", "lon": -77.008581, "fusion_lon": 0.0, "rental_uris": {"android": "https://dc.lft.to/lastmile_qr_scan", "ios": "https://dc.lft.to/lastmile_qr_scan"}, "bike_id": "f58912d8c6aca5e20873df93cee74c2f"}, {"lat": 38.915875, "fusion_lat": 0.0, "is_reserved": 0, "is_disabled": 0, "type": "electric_scooter", "name": "31c9637a65d61f915bfb733a8a0f6af5", "lon": -77.04537383333333, "fusion_lon": 0.0, "rental_uris": {"android": "https://dc.lft.to/lastmile_qr_scan", "ios": "https://dc.lft.to/lastmile_qr_scan"}, "bike_id": "31c9637a65d61f915bfb733a8a0f6af5"}, {"lat": 38.93224516666667, "fusion_lat": 0.0, "is_reserved": 0, "is_disabled": 0, "type": "electric_scooter", "name": "b3c15e8a7b59df060f6adee871f2782f", "lon": -76.982643, "fusion_lon": 0.0, "rental_uris": {"android": "https://dc.lft.to/lastmile_qr_scan", "ios": "https://dc.lft.to/lastmile_qr_scan"}, "bike_id": "b3c15e8a7b59df060f6adee871f2782f"}, {"lat": 38.92277383333333, "fusion_lat": 0.0, "is_reserved": 0, "is_disabled": 0, "type": "electric_scooter", "name": "d177f5b6e317be484e0c936b74cec2ac", "lon": -77.04239816666667, "fusion_lon": 0.0, "rental_uris": {"android": "https://dc.lft.to/lastmile_qr_scan", "ios": "https://dc.lft.to/lastmile_qr_scan"}, "bike_id": "d177f5b6e317be484e0c936b74cec2ac"}, {"lat": 38.8874425, "fusion_lat": 0.0, "is_reserved": 0, "is_disabled": 0, "type": "electric_scooter", "name": "2078efe8e4af3745d41e5b5dff64382d", "lon": -77.02844166666667, "fusion_lon": 0.0, "rental_uris": {"android": "https://dc.lft.to/lastmile_qr_scan", "ios": "https://dc.lft.to/lastmile_qr_scan"}, "bike_id": "2078efe8e4af3745d41e5b5dff64382d"}, {"lat": 38.89556283333334, "fusion_lat": 0.0, "is_reserved": 0, "is_disabled": 0, "type": "electric_scooter", "name": "b75d1eefb38f1ad2841a4370a361dc50", "lon": -77.04273, "fusion_lon": 0.0, "rental_uris": {"android": "https://dc.lft.to/lastmile_qr_scan", "ios": "https://dc.lft.to/lastmile_qr_scan"}, "bike_id": "b75d1eefb38f1ad2841a4370a361dc50"}, {"lat": 38.920661833333334, "fusion_lat": 0.0, "is_reserved": 0, "is_disabled": 0, "type": "electric_scooter", "name": "2e29466e2c84949abd51f889653df81c", "lon": -77.02609833333334, "fusion_lon": 0.0, "rental_uris": {"android": "https://dc.lft.to/lastmile_qr_scan", "ios": "https://dc.lft.to/lastmile_qr_scan"}, "bike_id": "2e29466e2c84949abd51f889653df81c"}, {"lat": 38.90506766666667, "fusion_lat": 0.0, "is_reserved": 0, "is_disabled": 0, "type": "electric_scooter", "name": "92a53fb8e1f3d44956ccc2bbe05e50e3", "lon": -77.06571716666667, "fusion_lon": 0.0, "rental_uris": {"android": "https://dc.lft.to/lastmile_qr_scan", "ios": "https://dc.lft.to/lastmile_qr_scan"}, "bike_id": "92a53fb8e1f3d44956ccc2bbe05e50e3"}, {"lat": 38.92972616666667, "fusion_lat": 0.0, "is_reserved": 0, "is_disabled": 0, "type": "electric_scooter", "name": "63e2f7c9e0daa5ddd9a99a795ac086e1", "lon": -77.02818733333334, "fusion_lon": 0.0, "rental_uris": {"android": "https://dc.lft.to/lastmile_qr_scan", "ios": "https://dc.lft.to/lastmile_qr_scan"}, "bike_id": "63e2f7c9e0daa5ddd9a99a795ac086e1"}, {"lat": 38.90394166666667, "fusion_lat": 0.0, "is_reserved": 0, "is_disabled": 0, "type": "electric_scooter", "name": "bc13f34e17788bfe03b774f1c72cb03a", "lon": -76.990074, "fusion_lon": 0.0, "rental_uris": {"android": "https://dc.lft.to/lastmile_qr_scan", "ios": "https://dc.lft.to/lastmile_qr_scan"}, "bike_id": "bc13f34e17788bfe03b774f1c72cb03a"}, {"lat": 38.892228333333335, "fusion_lat": 0.0, "is_reserved": 0, "is_disabled": 0, "type": "electric_scooter", "name": "6d0053c4922387fa38b8a214b31bafd3", "lon": -77.03167633333334, "fusion_lon": 0.0, "rental_uris": {"android": "https://dc.lft.to/lastmile_qr_scan", "ios": "https://dc.lft.to/lastmile_qr_scan"}, "bike_id": "6d0053c4922387fa38b8a214b31bafd3"}, {"lat": 38.924019666666666, "fusion_lat": 0.0, "is_reserved": 0, "is_disabled": 0, "type": "electric_scooter", "name": "2968f736a3b0aac135b2e50107bb113f", "lon": -77.0006825, "fusion_lon": 0.0, "rental_uris": {"android": "https://dc.lft.to/lastmile_qr_scan", "ios": "https://dc.lft.to/lastmile_qr_scan"}, "bike_id": "2968f736a3b0aac135b2e50107bb113f"}, {"lat": 38.900818, "fusion_lat": 0.0, "is_reserved": 0, "is_disabled": 0, "type": "electric_scooter", "name": "928ed9f50d9701395095dd8d947632f3", "lon": -77.059065, "fusion_lon": 0.0, "rental_uris": {"android": "https://dc.lft.to/lastmile_qr_scan", "ios": "https://dc.lft.to/lastmile_qr_scan"}, "bike_id": "928ed9f50d9701395095dd8d947632f3"}, {"lat": 38.90972083333333, "fusion_lat": 0.0, "is_reserved": 0, "is_disabled": 0, "type": "electric_scooter", "name": "38b6f71451a4727a11c1ba35e09adcfe", "lon": -77.0241225, "fusion_lon": 0.0, "rental_uris": {"android": "https://dc.lft.to/lastmile_qr_scan", "ios": "https://dc.lft.to/lastmile_qr_scan"}, "bike_id": "38b6f71451a4727a11c1ba35e09adcfe"}, {"lat": 38.88503083333333, "fusion_lat": 0.0, "is_reserved": 0, "is_disabled": 0, "type": "electric_scooter", "name": "ddd4b55ea01f5da50fc0d2a9f6697ea4", "lon": -77.005643, "fusion_lon": 0.0, "rental_uris": {"android": "https://dc.lft.to/lastmile_qr_scan", "ios": "https://dc.lft.to/lastmile_qr_scan"}, "bike_id": "ddd4b55ea01f5da50fc0d2a9f6697ea4"}, {"lat": 38.900661166666666, "fusion_lat": 0.0, "is_reserved": 0, "is_disabled": 0, "type": "electric_scooter", "name": "fed81322a8b25a0f6bc49635ec5570c7", "lon": -77.04527966666667, "fusion_lon": 0.0, "rental_uris": {"android": "https://dc.lft.to/lastmile_qr_scan", "ios": "https://dc.lft.to/lastmile_qr_scan"}, "bike_id": "fed81322a8b25a0f6bc49635ec5570c7"}, {"lat": 38.892255166666665, "fusion_lat": 0.0, "is_reserved": 0, "is_disabled": 0, "type": "electric_scooter", "name": "a13ac4af75fbcfc2320b9abec0124857", "lon": -77.04336066666667, "fusion_lon": 0.0, "rental_uris": {"android": "https://dc.lft.to/lastmile_qr_scan", "ios": "https://dc.lft.to/lastmile_qr_scan"}, "bike_id": "a13ac4af75fbcfc2320b9abec0124857"}, {"lat": 38.90414716666667, "fusion_lat": 0.0, "is_reserved": 0, "is_disabled": 0, "type": "electric_scooter", "name": "46b8c60d9bd11a799f645994f93074a5", "lon": -77.0534115, "fusion_lon": 0.0, "rental_uris": {"android": "https://dc.lft.to/lastmile_qr_scan", "ios": "https://dc.lft.to/lastmile_qr_scan"}, "bike_id": "46b8c60d9bd11a799f645994f93074a5"}, {"lat": 38.9067775, "fusion_lat": 0.0, "is_reserved": 0, "is_disabled": 0, "type": "electric_scooter", "name": "17a58ea03f2cc28cb0feda5ab27dfd24", "lon": -76.97930816666667, "fusion_lon": 0.0, "rental_uris": {"android": "https://dc.lft.to/lastmile_qr_scan", "ios": "https://dc.lft.to/lastmile_qr_scan"}, "bike_id": "17a58ea03f2cc28cb0feda5ab27dfd24"}, {"lat": 38.9471845, "fusion_lat": 0.0, "is_reserved": 0, "is_disabled": 0, "type": "electric_scooter", "name": "9be6ba2498fc7c1cebe1aa85fb2cdd0d", "lon": -77.02264516666666, "fusion_lon": 0.0, "rental_uris": {"android": "https://dc.lft.to/lastmile_qr_scan", "ios": "https://dc.lft.to/lastmile_qr_scan"}, "bike_id": "9be6ba2498fc7c1cebe1aa85fb2cdd0d"}, {"lat": 38.8923015, "fusion_lat": 0.0, "is_reserved": 0, "is_disabled": 0, "type": "electric_scooter", "name": "945880684012ead9c56b4f209a3eeebe", "lon": -77.02807433333334, "fusion_lon": 0.0, "rental_uris": {"android": "https://dc.lft.to/lastmile_qr_scan", "ios": "https://dc.lft.to/lastmile_qr_scan"}, "bike_id": "945880684012ead9c56b4f209a3eeebe"}, {"lat": 38.959231, "fusion_lat": 0.0, "is_reserved": 0, "is_disabled": 0, "type": "electric_scooter", "name": "2fb39eb5c0b84519cfda28955301cf2d", "lon": -77.030885, "fusion_lon": 0.0, "rental_uris": {"android": "https://dc.lft.to/lastmile_qr_scan", "ios": "https://dc.lft.to/lastmile_qr_scan"}, "bike_id": "2fb39eb5c0b84519cfda28955301cf2d"}, {"lat": 38.900537666666665, "fusion_lat": 0.0, "is_reserved": 0, "is_disabled": 0, "type": "electric_scooter", "name": "bccb4ee0aa2382bff128fd3776dcf969", "lon": -77.0483155, "fusion_lon": 0.0, "rental_uris": {"android": "https://dc.lft.to/lastmile_qr_scan", "ios": "https://dc.lft.to/lastmile_qr_scan"}, "bike_id": "bccb4ee0aa2382bff128fd3776dcf969"}, {"lat": 38.942477833333335, "fusion_lat": 0.0, "is_reserved": 0, "is_disabled": 0, "type": "electric_scooter", "name": "d04b47e1076421c4c4a360c02eb7953d", "lon": -77.02171716666666, "fusion_lon": 0.0, "rental_uris": {"android": "https://dc.lft.to/lastmile_qr_scan", "ios": "https://dc.lft.to/lastmile_qr_scan"}, "bike_id": "d04b47e1076421c4c4a360c02eb7953d"}, {"lat": 38.93525483333333, "fusion_lat": 0.0, "is_reserved": 0, "is_disabled": 0, "type": "electric_scooter", "name": "c452114b46b07d295b3726ab4b7366b3", "lon": -77.0326725, "fusion_lon": 0.0, "rental_uris": {"android": "https://dc.lft.to/lastmile_qr_scan", "ios": "https://dc.lft.to/lastmile_qr_scan"}, "bike_id": "c452114b46b07d295b3726ab4b7366b3"}, {"lat": 38.8971795, "fusion_lat": 0.0, "is_reserved": 0, "is_disabled": 0, "type": "electric_scooter", "name": "a15adc3e3f7a2d61c1ef6d7bdf7db060", "lon": -77.023001, "fusion_lon": 0.0, "rental_uris": {"android": "https://dc.lft.to/lastmile_qr_scan", "ios": "https://dc.lft.to/lastmile_qr_scan"}, "bike_id": "a15adc3e3f7a2d61c1ef6d7bdf7db060"}, {"lat": 38.897114333333334, "fusion_lat": 0.0, "is_reserved": 0, "is_disabled": 0, "type": "electric_scooter", "name": "b2e732ee8e605ac48fde2c0a130016d3", "lon": -77.02697533333334, "fusion_lon": 0.0, "rental_uris": {"android": "https://dc.lft.to/lastmile_qr_scan", "ios": "https://dc.lft.to/lastmile_qr_scan"}, "bike_id": "b2e732ee8e605ac48fde2c0a130016d3"}, {"lat": 38.95667616666667, "fusion_lat": 0.0, "is_reserved": 0, "is_disabled": 0, "type": "electric_scooter", "name": "24f6d3d6dc5a9647665c743d62f000af", "lon": -77.03630366666667, "fusion_lon": 0.0, "rental_uris": {"android": "https://dc.lft.to/lastmile_qr_scan", "ios": "https://dc.lft.to/lastmile_qr_scan"}, "bike_id": "24f6d3d6dc5a9647665c743d62f000af"}, {"lat": 38.91192616666667, "fusion_lat": 0.0, "is_reserved": 0, "is_disabled": 0, "type": "electric_scooter", "name": "9d32e536bc52bb1bbe9cffeccf3a790c", "lon": -77.00659866666666, "fusion_lon": 0.0, "rental_uris": {"android": "https://dc.lft.to/lastmile_qr_scan", "ios": "https://dc.lft.to/lastmile_qr_scan"}, "bike_id": "9d32e536bc52bb1bbe9cffeccf3a790c"}, {"lat": 38.89237716666667, "fusion_lat": 0.0, "is_reserved": 0, "is_disabled": 0, "type": "electric_scooter", "name": "c3da05059509be3abcb0ed5735202c91", "lon": -77.03184816666666, "fusion_lon": 0.0, "rental_uris": {"android": "https://dc.lft.to/lastmile_qr_scan", "ios": "https://dc.lft.to/lastmile_qr_scan"}, "bike_id": "c3da05059509be3abcb0ed5735202c91"}, {"lat": 38.8621445, "fusion_lat": 0.0, "is_reserved": 0, "is_disabled": 0, "type": "electric_scooter", "name": "5407157f0006752f608d3d84ea21f623", "lon": -76.99481283333333, "fusion_lon": 0.0, "rental_uris": {"android": "https://dc.lft.to/lastmile_qr_scan", "ios": "https://dc.lft.to/lastmile_qr_scan"}, "bike_id": "5407157f0006752f608d3d84ea21f623"}, {"lat": 38.900058333333334, "fusion_lat": 0.0, "is_reserved": 0, "is_disabled": 0, "type": "electric_scooter", "name": "7bf4762e37e0bc7fa8f650d095c556ad", "lon": -77.01207233333334, "fusion_lon": 0.0, "rental_uris": {"android": "https://dc.lft.to/lastmile_qr_scan", "ios": "https://dc.lft.to/lastmile_qr_scan"}, "bike_id": "7bf4762e37e0bc7fa8f650d095c556ad"}, {"lat": 38.908810333333335, "fusion_lat": 0.0, "is_reserved": 0, "is_disabled": 0, "type": "electric_scooter", "name": "238b2ae0e73aba9bc4b1ed9e11a5f1fc", "lon": -77.0434175, "fusion_lon": 0.0, "rental_uris": {"android": "https://dc.lft.to/lastmile_qr_scan", "ios": "https://dc.lft.to/lastmile_qr_scan"}, "bike_id": "238b2ae0e73aba9bc4b1ed9e11a5f1fc"}, {"lat": 38.906596, "fusion_lat": 0.0, "is_reserved": 0, "is_disabled": 0, "type": "electric_scooter", "name": "702e9f87b8127133f7cae175c70b5b8e", "lon": -77.0059495, "fusion_lon": 0.0, "rental_uris": {"android": "https://dc.lft.to/lastmile_qr_scan", "ios": "https://dc.lft.to/lastmile_qr_scan"}, "bike_id": "702e9f87b8127133f7cae175c70b5b8e"}, {"lat": 38.93395833333334, "fusion_lat": 0.0, "is_reserved": 0, "is_disabled": 0, "type": "electric_scooter", "name": "ffa1e7d76fa44609d9ba3355c20f3084", "lon": -77.04142066666667, "fusion_lon": 0.0, "rental_uris": {"android": "https://dc.lft.to/lastmile_qr_scan", "ios": "https://dc.lft.to/lastmile_qr_scan"}, "bike_id": "ffa1e7d76fa44609d9ba3355c20f3084"}, {"lat": 38.87641966666666, "fusion_lat": 0.0, "is_reserved": 0, "is_disabled": 0, "type": "electric_scooter", "name": "144a2f8e2d8c96e7d0c6078df9c4666f", "lon": -77.02080833333333, "fusion_lon": 0.0, "rental_uris": {"android": "https://dc.lft.to/lastmile_qr_scan", "ios": "https://dc.lft.to/lastmile_qr_scan"}, "bike_id": "144a2f8e2d8c96e7d0c6078df9c4666f"}, {"lat": 38.91687016666667, "fusion_lat": 0.0, "is_reserved": 0, "is_disabled": 0, "type": "electric_scooter", "name": "1fc299573ed38c3a50e6333215bdabfe", "lon": -77.029536, "fusion_lon": 0.0, "rental_uris": {"android": "https://dc.lft.to/lastmile_qr_scan", "ios": "https://dc.lft.to/lastmile_qr_scan"}, "bike_id": "1fc299573ed38c3a50e6333215bdabfe"},