{"data": {"bikes": [{"is_disabled": 0, "fusion_lon": 0.0, "fusion_lat": 0.0, "lat": 38.90212566666667, "type": "electric_scooter", "lon": -76.982207, "bike_id": "ccf781f7d6ac24e4b140352df83519c4", "rental_uris": {"android": "https://dc.lft.to/lastmile_qr_scan", "ios": "https://dc.lft.to/lastmile_qr_scan"}, "name": "ccf781f7d6ac24e4b140352df83519c4", "is_reserved": 0}, {"is_disabled": 0, "fusion_lon": 0.0, "fusion_lat": 0.0, "lat": 38.911225333333334, "type": "electric_scooter", "lon": -77.03618333333333, "bike_id": "65e24c83da11b9b6fa541fdba6ce7c01", "rental_uris": {"android": "https://dc.lft.to/lastmile_qr_scan", "ios": "https://dc.lft.to/lastmile_qr_scan"}, "name": "65e24c83da11b9b6fa541fdba6ce7c01", "is_reserved": 0}, {"is_disabled": 0, "fusion_lon": 0.0, "fusion_lat": 0.0, "lat": 38.880449, "type": "electric_bike", "lon": -76.99015133333333, "bike_id": "11019904f004ea830bd3257ab4191931", "rental_uris": {"android": "https://dc.lft.to/lastmile_qr_scan", "ios": "https://dc.lft.to/lastmile_qr_scan"}, "name": "11019904f004ea830bd3257ab4191931", "is_reserved": 0}, {"is_disabled": 0, "fusion_lon": 0.0, "fusion_lat": 0.0, "lat": 38.900341166666664, "type": "electric_scooter", "lon": -76.99938466666667, "bike_id": "5b090eec248a36469220f9bef2885837", "rental_uris": {"android": "https://dc.lft.to/lastmile_qr_scan", "ios": "https://dc.lft.to/lastmile_qr_scan"}, "name": "5b090eec248a36469220f9bef2885837", "is_reserved": 0}, {"is_disabled": 0, "fusion_lon": 0.0, "fusion_lat": 0.0, "lat": 38.84300066666667, "type": "electric_bike", "lon": -77.0763975, "bike_id": "c84648385224b16f7fd2fa4df73a837f", "rental_uris": {"android": "https://dc.lft.to/lastmile_qr_scan", "ios": "https://dc.lft.to/lastmile_qr_scan"}, "name": "c84648385224b16f7fd2fa4df73a837f", "is_reserved": 0}, {"is_disabled": 0, "fusion_lon": 0.0, "fusion_lat": 0.0, "lat": 38.924228166666666, "type": "electric_scooter", "lon": -77.05067116666666, "bike_id": "f4baabd850a0928f84de379b6c376557", "rental_uris": {"android": "https://dc.lft.to/lastmile_qr_scan", "ios": "https://dc.lft.to/lastmile_qr_scan"}, "name": "f4baabd850a0928f84de379b6c376557", "is_reserved": 0}, {"is_disabled": 0, "fusion_lon": 0.0, "fusion_lat": 0.0, "lat": 38.87689666666667, "type": "electric_scooter", "lon": -77.01603833333333, "bike_id": "7d0fdce626d08bfed5c7e372db2bc4e2", "rental_uris": {"android": "https://dc.lft.to/lastmile_qr_scan", "ios": "https://dc.lft.to/lastmile_qr_scan"}, "name": "7d0fdce626d08bfed5c7e372db2bc4e2", "is_reserved": 0}, {"is_disabled": 0, "fusion_lon": 0.0, "fusion_lat": 0.0, "lat": 38.897394, "type": "electric_scooter", "lon": -77.04681116666667, "bike_id": "deedcdec181d3e67bf84d2b5ae9a6c5f", "rental_uris": {"android": "https://dc.lft.to/lastmile_qr_scan", "ios": "https://dc.lft.to/lastmile_qr_scan"}, "name": "deedcdec181d3e67bf84d2b5ae9a6c5f", "is_reserved": 0}, {"is_disabled": 0, "fusion_lon": 0.0, "fusion_lat": 0.0, "lat": 38.86632483333333, "type": "electric_scooter", "lon": -76.98715416666667, "bike_id": "0f6d6b146333a6b00b3caea10ec5e392", "rental_uris": {"android": "https://dc.lft.to/lastmile_qr_scan", "ios": "https://dc.lft.to/lastmile_qr_scan"}, "name": "0f6d6b146333a6b00b3caea10ec5e392", "is_reserved": 0}, {"is_disabled": 0, "fusion_lon": 0.0, "fusion_lat": 0.0, "lat": 38.938734333333336, "type": "electric_scooter", "lon": -77.02847716666666, "bike_id": "6ffc6061288c125a5f016f686c4c5c97", "rental_uris": {"android": "https://dc.lft.to/lastmile_qr_scan", "ios": "https://dc.lft.to/lastmile_qr_scan"}, "name": "6ffc6061288c125a5f016f686c4c5c97", "is_reserved": 0}, {"is_disabled": 0, "fusion_lon": 0.0, "fusion_lat": 0.0, "lat": 38.9680515, "type": "electric_scooter", "lon": -77.02121183333334, "bike_id": "05926f87310b4459718c72209a45fac1", "rental_uris": {"android": "https://dc.lft.to/lastmile_qr_scan", "ios": "https://dc.lft.to/lastmile_qr_scan"}, "name": "05926f87310b4459718c72209a45fac1", "is_reserved": 0}, {"is_disabled": 0, "fusion_lon": 0.0, "fusion_lat": 0.0, "lat": 38.91635083333333, "type": "electric_scooter", "lon": -77.02690683333333, "bike_id": "bf5c81d2051a47506ae109dbe5c09f9b", "rental_uris": {"android": "https://dc.lft.to/lastmile_qr_scan", "ios": "https://dc.lft.to/lastmile_qr_scan"}, "name": "bf5c81d2051a47506ae109dbe5c09f9b", "is_reserved": 0}, {"is_disabled": 0, "fusion_lon": 0.0, "fusion_lat": 0.0, "lat": 38.9542065, "type": "electric_scooter", "lon": -77.02174033333333, "bike_id": "cefd8b439dcdb9f064b437acc8ebf42c", "rental_uris": {"android": "https://dc.lft.to/lastmile_qr_scan", "ios": "https://dc.lft.to/lastmile_qr_scan"}, "name": "cefd8b439dcdb9f064b437acc8ebf42c", "is_reserved": 0}, {"is_disabled": 0, "fusion_lon": 0.0, "fusion_lat": 0.0, "lat": 38.880239, "type": "electric_scooter", "lon": -76.98236733333333, "bike_id": "009e4f7c5370be45cbaa7970d655aabe", "rental_uris": {"android": "https://dc.lft.to/lastmile_qr_scan", "ios": "https://dc.lft.to/lastmile_qr_scan"}, "name": "009e4f7c5370be45cbaa7970d655aabe", "is_reserved": 0}, {"is_disabled": 0, "fusion_lon": 0.0, "fusion_lat": 0.0, "lat": 38.912747, "type": "electric_scooter", "lon": -77.047345, "bike_id": "7c4c41c051b1a36b19981a96eff7e997", "rental_uris": {"android": "https://dc.lft.to/lastmile_qr_scan", "ios": "https://dc.lft.to/lastmile_qr_scan"}, "name": "7c4c41c051b1a36b19981a96eff7e997", "is_reserved": 0}, {"is_disabled": 0, "fusion_lon": 0.0, "fusion_lat": 0.0, "lat": 38.9073165, "type": "electric_scooter", "lon": -77.02540183333333, "bike_id": "4060c537bb2a120529c73bfc88c51876", "rental_uris": {"android": "https://dc.lft.to/lastmile_qr_scan", "ios": "https://dc.lft.to/lastmile_qr_scan"}, "name": "4060c537bb2a120529c73bfc88c51876", "is_reserved": 0}, {"is_disabled": 0, "fusion_lon": 0.0, "fusion_lat": 0.0, "lat": 38.87470366666667, "type": "electric_scooter", "lon": -77.00516116666667, "bike_id": "c483777b498f2de9b4c6e0da0029b699", "rental_uris": {"android": "https://dc.lft.to/lastmile_qr_scan", "ios": "https://dc.lft.to/lastmile_qr_scan"}, "name": "c483777b498f2de9b4c6e0da0029b699", "is_reserved": 0}, {"is_disabled": 0, "fusion_lon": 0.0, "fusion_lat": 0.0, "lat": 38.89617233333333, "type": "electric_scooter", "lon": -77.02592966666667, "bike_id": "b5a9b0aa273e19ce869d819f22f90b6a", "rental_uris": {"android": "https://dc.lft.to/lastmile_qr_scan", "ios": "https://dc.lft.to/lastmile_qr_scan"}, "name": "b5a9b0aa273e19ce869d819f22f90b6a", "is_reserved": 0}, {"is_disabled": 0, "fusion_lon": 0.0, "fusion_lat": 0.0, "lat": 38.917099, "type": "electric_scooter", "lon": -77.03764216666667, "bike_id": "1ffc5abcd4e3bbcf7f2446e5ae76a258", "rental_uris": {"android": "https://dc.lft.to/lastmile_qr_scan", "ios": "https://dc.lft.to/lastmile_qr_scan"}, "name": "1ffc5abcd4e3bbcf7f2446e5ae76a258", "is_reserved": 0}, {"is_disabled": 0, "fusion_lon": 0.0, "fusion_lat": 0.0, "lat": 38.94091916666667, "type": "electric_scooter", "lon": -77.03815233333333, "bike_id": "0197378e63cec188bcf41a183b64da9f", "rental_uris": {"android": "https://dc.lft.to/lastmile_qr_scan", "ios": "https://dc.lft.to/lastmile_qr_scan"}, "name": "0197378e63cec188bcf41a183b64da9f", "is_reserved": 0}, {"is_disabled": 0, "fusion_lon": 0.0, "fusion_lat": 0.0, "lat": 38.971688, "type": "electric_bike", "lon": -76.98021333333334, "bike_id": "e8c10f0f66f81ba267d3480b3200af9c", "rental_uris": {"android": "https://dc.lft.to/lastmile_qr_scan", "ios": "https://dc.lft.to/lastmile_qr_scan"}, "name": "e8c10f0f66f81ba267d3480b3200af9c", "is_reserved": 0}, {"is_disabled": 0, "fusion_lon": 0.0, "fusion_lat": 0.0, "lat": 38.880295333333336, "type": "electric_scooter", "lon": -76.99506216666667, "bike_id": "98a3d14aeec2ad3de83a6a6cff52f1a1", "rental_uris": {"android": "https://dc.lft.to/lastmile_qr_scan", "ios": "https://dc.lft.to/lastmile_qr_scan"}, "name": "98a3d14aeec2ad3de83a6a6cff52f1a1", "is_reserved": 0}, {"is_disabled": 0, "fusion_lon": 0.0, "fusion_lat": 0.0, "lat": 38.895013166666665, "type": "electric_scooter", "lon": -76.94878216666666, "bike_id": "dfe290d2c864d7c5536c77a56bcfab70", "rental_uris": {"android": "https://dc.lft.to/lastmile_qr_scan", "ios": "https://dc.lft.to/lastmile_qr_scan"}, "name": "dfe290d2c864d7c5536c77a56bcfab70", "is_reserved": 0}, {"is_disabled": 0, "fusion_lon": 0.0, "fusion_lat": 0.0, "lat": 38.918157, "type": "electric_scooter", "lon": -77.02712116666666, "bike_id": "d21eab20c8d28e856ecf80dfc192f95d", "rental_uris": {"android": "https://dc.lft.to/lastmile_qr_scan", "ios": "https://dc.lft.to/lastmile_qr_scan"}, "name": "d21eab20c8d28e856ecf80dfc192f95d", "is_reserved": 0}, {"is_disabled": 0, "fusion_lon": 0.0, "fusion_lat": 0.0, "lat": 38.91256716666667, "type": "electric_scooter", "lon": -77.03863283333334, "bike_id": "0fc57d297fd9f2acc81cee45221cbf78", "rental_uris": {"android": "https://dc.lft.to/lastmile_qr_scan", "ios": "https://dc.lft.to/lastmile_qr_scan"}, "name": "0fc57d297fd9f2acc81cee45221cbf78", "is_reserved": 0}, {"is_disabled": 0, "fusion_lon": 0.0, "fusion_lat": 0.0, "lat": 38.8979395, "type": "electric_scooter", "lon": -77.04757933333333, "bike_id": "907a10fe0317a147ae0704727f28947d", "rental_uris": {"android": "https://dc.lft.to/lastmile_qr_scan", "ios": "https://dc.lft.to/lastmile_qr_scan"}, "name": "907a10fe0317a147ae0704727f28947d", "is_reserved": 0}, {"is_disabled": 0, "fusion_lon": 0.0, "fusion_lat": 0.0, "lat": 38.901491, "type": "electric_scooter", "lon": -76.98661416666667, "bike_id": "e371fa012982377b2ab579c156deb4fd", "rental_uris": {"android": "https://dc.lft.to/lastmile_qr_scan", "ios": "https://dc.lft.to/lastmile_qr_scan"}, "name": "e371fa012982377b2ab579c156deb4fd", "is_reserved": 0}, {"is_disabled": 0, "fusion_lon": 0.0, "fusion_lat": 0.0, "lat": 38.8272805, "type": "electric_bike", "lon": -77.008636, "bike_id": "1dfe0bb465c54eb7d6d1da2c3a548cc3", "rental_uris": {"android": "https://dc.lft.to/lastmile_qr_scan", "ios": "https://dc.lft.to/lastmile_qr_scan"}, "name": "1dfe0bb465c54eb7d6d1da2c3a548cc3", "is_reserved": 0}, {"is_disabled": 0, "fusion_lon": 0.0, "fusion_lat": 0.0, "lat": 38.931288333333335, "type": "electric_scooter", "lon": -77.0570635, "bike_id": "c5e94ba060c1ce7d34a5b87068c40ca9", "rental_uris": {"android": "https://dc.lft.to/lastmile_qr_scan", "ios": "https://dc.lft.to/lastmile_qr_scan"}, "name": "c5e94ba060c1ce7d34a5b87068c40ca9", "is_reserved": 0}, {"is_disabled": 0, "fusion_lon": 0.0, "fusion_lat": 0.0, "lat": 38.9151185, "type": "electric_scooter", "lon": -77.023023, "bike_id": "a5358cdafda8c7d847bb7961dd90b715", "rental_uris": {"android": "https://dc.lft.to/lastmile_qr_scan", "ios": "https://dc.lft.to/lastmile_qr_scan"}, "name": "a5358cdafda8c7d847bb7961dd90b715", "is_reserved": 0}, {"is_disabled": 0, "fusion_lon": 0.0, "fusion_lat": 0.0, "lat": 38.9352925, "type": "electric_scooter", "lon": -77.02373466666667, "bike_id": "0fb5c0d36a1f4ba0725aaf97aa6371fa", "rental_uris": {"android": "https://dc.lft.to/lastmile_qr_scan", "ios": "https://dc.lft.to/lastmile_qr_scan"}, "name": "0fb5c0d36a1f4ba0725aaf97aa6371fa", "is_reserved": 0}, {"is_disabled": 0, "fusion_lon": 0.0, "fusion_lat": 0.0, "lat": 38.94420383333333, "type": "electric_scooter", "lon": -77.02621316666666, "bike_id": "439c6061c06e149c224e9dd29d825e1e", "rental_uris": {"android": "https://dc.lft.to/lastmile_qr_scan", "ios": "https://dc.lft.to/lastmile_qr_scan"}, "name": "439c6061c06e149c224e9dd29d825e1e", "is_reserved": 0}, {"is_disabled": 0, "fusion_lon": 0.0, "fusion_lat": 0.0, "lat": 38.8921985, "type": "electric_scooter", "lon": -76.95742733333333, "bike_id": "0fcbb250faa7daa9691c471dd8bd60c2", "rental_uris": {"android": "https://dc.lft.to/lastmile_qr_scan", "ios": "https://dc.lft.to/lastmile_qr_scan"}, "name": "0fcbb250faa7daa9691c471dd8bd60c2", "is_reserved": 0}, {"is_disabled": 0, "fusion_lon": 0.0, "fusion_lat": 0.0, "lat": 38.89795133333333, "type": "electric_scooter", "lon": -77.01192133333333, "bike_id": "6c69d0244a7972d7bd96645df023b074", "rental_uris": {"android": "https://dc.lft.to/lastmile_qr_scan", "ios": "https://dc.lft.to/lastmile_qr_scan"}, "name": "6c69d0244a7972d7bd96645df023b074", "is_reserved": 0}, {"is_disabled": 0, "fusion_lon": 0.0, "fusion_lat": 0.0, "lat": 38.880513, "type": "electric_scooter", "lon": -77.00364016666667, "bike_id": "b21c3ca0d44b0075e2269f93c006a6ce", "rental_uris": {"android": "https://dc.lft.to/lastmile_qr_scan", "ios": "https://dc.lft.to/lastmile_qr_scan"}, "name": "b21c3ca0d44b0075e2269f93c006a6ce", "is_reserved": 0}, {"is_disabled": 0, "fusion_lon": 0.0, "fusion_lat": 0.0, "lat": 38.91100433333333, "type": "electric_scooter", "lon": -77.02720116666667, "bike_id": "6b2b236301fe8cdd23a3573c9d681dd6", "rental_uris": {"android": "https://dc.lft.to/lastmile_qr_scan", "ios": "https://dc.lft.to/lastmile_qr_scan"}, "name": "6b2b236301fe8cdd23a3573c9d681dd6", "is_reserved": 0}, {"is_disabled": 0, "fusion_lon": 0.0, "fusion_lat": 0.0, "lat": 38.90652883333333, "type": "electric_scooter", "lon": -77.04128833333333, "bike_id": "1dd3ae9a828a972da6ceb905024076dd", "rental_uris": {"android": "https://dc.lft.to/lastmile_qr_scan", "ios": "https://dc.lft.to/lastmile_qr_scan"}, "name": "1dd3ae9a828a972da6ceb905024076dd", "is_reserved": 0}, {"is_disabled": 0, "fusion_lon": 0.0, "fusion_lat": 0.0, "lat": 38.93962916666667, "type": "electric_scooter", "lon": -77.032803, "bike_id": "b25c8f863fc006b903cec2c1c1bf870f", "rental_uris": {"android": "https://dc.lft.to/lastmile_qr_scan", "ios": "https://dc.lft.to/lastmile_qr_scan"}, "name": "b25c8f863fc006b903cec2c1c1bf870f", "is_reserved": 0}, {"is_disabled": 0, "fusion_lon": 0.0, "fusion_lat": 0.0, "lat": 38.901084, "type": "electric_scooter", "lon": -77.020011, "bike_id": "492d068cee5872f8150ba78e39c878be", "rental_uris": {"android": "https://dc.lft.to/lastmile_qr_scan", "ios": "https://dc.lft.to/lastmile_qr_scan"}, "name": "492d068cee5872f8150ba78e39c878be", "is_reserved": 0}, {"is_disabled": 0, "fusion_lon": 0.0, "fusion_lat": 0.0, "lat": 38.936618333333335, "type": "electric_scooter", "lon": -77.032611, "bike_id": "cf01001532c1370665cea83bc106629a", "rental_uris": {"android": "https://dc.lft.to/lastmile_qr_scan", "ios": "https://dc.lft.to/lastmile_qr_scan"}, "name": "cf01001532c1370665cea83bc106629a", "is_reserved": 0}, {"is_disabled": 0, "fusion_lon": 0.0, "fusion_lat": 0.0, "lat": 38.905384166666664, "type": "electric_scooter", "lon": -77.02206133333334, "bike_id": "b0cf7b8effba39899487aa9467b0aa7f", "rental_uris": {"android": "https://dc.lft.to/lastmile_qr_scan", "ios": "https://dc.lft.to/lastmile_qr_scan"}, "name": "b0cf7b8effba39899487aa9467b0aa7f", "is_reserved": 0}, {"is_disabled": 0, "fusion_lon": 0.0, "fusion_lat": 0.0, "lat": 38.897276166666664, "type": "electric_scooter", "lon": -77.02693033333334, "bike_id": "14d6ef3898b38eecbea41e960e2603d2", "rental_uris": {"android": "https://dc.lft.to/lastmile_qr_scan", "ios": "https://dc.lft.to/lastmile_qr_scan"}, "name": "14d6ef3898b38eecbea41e960e2603d2", "is_reserved": 0}, {"is_disabled": 0, "fusion_lon": 0.0, "fusion_lat": 0.0, "lat": 38.895707333333334, "type": "electric_bike", "lon": -76.97622183333333, "bike_id": "de352f3ed1eb6b411de685451ede768d", "rental_uris": {"android": "https://dc.lft.to/lastmile_qr_scan", "ios": "https://dc.lft.to/lastmile_qr_scan"}, "name": "de352f3ed1eb6b411de685451ede768d", "is_reserved": 0}, {"is_disabled": 0, "fusion_lon": 0.0, "fusion_lat": 0.0, "lat": 38.91873066666667, "type": "electric_bike", "lon": -76.96123966666667, "bike_id": "1f39ea76bf833a8b8a6f39e09d845125", "rental_uris": {"android": "https://dc.lft.to/lastmile_qr_scan", "ios": "https://dc.lft.to/lastmile_qr_scan"}, "name": "1f39ea76bf833a8b8a6f39e09d845125", "is_reserved": 0}, {"is_disabled": 0, "fusion_lon": 0.0, "fusion_lat": 0.0, "lat": 38.89619483333333, "type": "electric_scooter", "lon": -76.99462416666667, "bike_id": "2c537e012cb85679f1831b815faf6848", "rental_uris": {"android": "https://dc.lft.to/lastmile_qr_scan", "ios": "https://dc.lft.to/lastmile_qr_scan"}, "name": "2c537e012cb85679f1831b815faf6848", "is_reserved": 0}, {"is_disabled": 0, "fusion_lon": 0.0, "fusion_lat": 0.0, "lat": 38.92070916666667, "type": "electric_scooter", "lon": -77.01815866666666, "bike_id": "1b672bf937b01cae67abbaa0893e212a", "rental_uris": {"android": "https://dc.lft.to/lastmile_qr_scan", "ios": "https://dc.lft.to/lastmile_qr_scan"}, "name": "1b672bf937b01cae67abbaa0893e212a", "is_reserved": 0}, {"is_disabled": 0, "fusion_lon": 0.0, "fusion_lat": 0.0, "lat": 38.89231366666667, "type": "electric_scooter", "lon": -77.0220555, "bike_id": "3034a6482fa32bdad4a10ab289c1a658", "rental_uris": {"android": "https://dc.lft.to/lastmile_qr_scan", "ios": "https://dc.lft.to/lastmile_qr_scan"}, "name": "3034a6482fa32bdad4a10ab289c1a658", "is_reserved": 0}, {"is_disabled": 0, "fusion_lon": 0.0, "fusion_lat": 0.0, "lat": 38.8988105, "type": "electric_scooter", "lon": -76.93155266666666, "bike_id": "92dc8142c24daaa8eb3ef53ed142e199", "rental_uris": {"android": "https://dc.lft.to/lastmile_qr_scan", "ios": "https://dc.lft.to/lastmile_qr_scan"}, "name": "92dc8142c24daaa8eb3ef53ed142e199", "is_reserved": 0}, {"is_disabled": 0, "fusion_lon": 0.0, "fusion_lat": 0.0, "lat": 38.889807, "type": "electric_scooter", "lon": -76.98747133333333, "bike_id": "03c225099df376e6ce4b522c82c77a3e", "rental_uris": {"android": "https://dc.lft.to/lastmile_qr_scan", "ios": "https://dc.lft.to/lastmile_qr_scan"}, "name": "03c225099df376e6ce4b522c82c77a3e", "is_reserved": 0}, {"is_disabled": 0, "fusion_lon": 0.0, "fusion_lat": 0.0, "lat": 38.901423666666666, "type": "electric_scooter", "lon": -77.04366883333333, "bike_id": "776661246bc1e6aaa56a85860d813802", "rental_uris": {"android": "https://dc.lft.to/lastmile_qr_scan", "ios": "https://dc.lft.to/lastmile_qr_scan"}, "name": "776661246bc1e6aaa56a85860d813802", "is_reserved": 0}, {"is_disabled": 0, "fusion_lon": 0.0, "fusion_lat": 0.0, "lat": 38.865849, "type": "electric_scooter", "lon": -76.99031566666666, "bike_id": "21f1fc3d8b6486f091aecbc3fdbfed5d", "rental_uris": {"android": "https://dc.lft.to/lastmile_qr_scan", "ios": "https://dc.lft.to/lastmile_qr_scan"}, "name": "21f1fc3d8b6486f091aecbc3fdbfed5d", "is_reserved": 0}, {"is_disabled": 0, "fusion_lon": 0.0, "fusion_lat": 0.0, "lat": 38.92608283333333, "type": "electric_scooter", "lon": -77.02310516666667, "bike_id": "df315f217c1d7ef203a953b1975188e2", "rental_uris": {"android": "https://dc.lft.to/lastmile_qr_scan", "ios": "https://dc.lft.to/lastmile_qr_scan"}, "name": "df315f217c1d7ef203a953b1975188e2", "is_reserved": 0}, {"is_disabled": 0, "fusion_lon": 0.0, "fusion_lat": 0.0, "lat": 38.96307733333333, "type": "electric_bike", "lon": -77.011011, "bike_id": "e6f7514d7847ef7f90f7c1597f8d5f68", "rental_uris": {"android": "https://dc.lft.to/lastmile_qr_scan", "ios": "https://dc.lft.to/lastmile_qr_scan"}, "name": "e6f7514d7847ef7f90f7c1597f8d5f68", "is_reserved": 0}, {"is_disabled": 0, "fusion_lon": 0.0, "fusion_lat": 0.0, "lat": 38.937849166666666, "type": "electric_scooter", "lon": -77.018776, "bike_id": "ee515e83d0da2995f21a9dc6a77266d4", "rental_uris": {"android": "https://dc.lft.to/lastmile_qr_scan", "ios": "https://dc.lft.to/lastmile_qr_scan"}, "name": "ee515e83d0da2995f21a9dc6a77266d4", "is_reserved": 0}, {"is_disabled": 0, "fusion_lon": 0.0, "fusion_lat": 0.0, "lat": 38.88749516666667, "type": "electric_scooter", "lon": -77.01541283333333, "bike_id": "e8eb6ca2048b0498e215fcb1e5bde2f0", "rental_uris": {"android": "https://dc.lft.to/lastmile_qr_scan", "ios": "https://dc.lft.to/lastmile_qr_scan"}, "name": "e8eb6ca2048b0498e215fcb1e5bde2f0", "is_reserved": 0}, {"is_disabled": 0, "fusion_lon": 0.0, "fusion_lat": 0.0, "lat": 38.88749216666667, "type": "electric_scooter", "lon": -77.01609233333333, "bike_id": "2495b5283cd04a1972355012af7d4906", "rental_uris": {"android": "https://dc.lft.to/lastmile_qr_scan", "ios": "https://dc.lft.to/lastmile_qr_scan"}, "name": "2495b5283cd04a1972355012af7d4906", "is_reserved": 0}, {"is_disabled": 0, "fusion_lon": 0.0, "fusion_lat": 0.0, "lat": 38.90232, "type": "electric_scooter", "lon": -77.0192, "bike_id": "15c99faa1e4c667db89edda5a3f58bd4", "rental_uris": {"android": "https://dc.lft.to/lastmile_qr_scan", "ios": "https://dc.lft.to/lastmile_qr_scan"}, "name": "15c99faa1e4c667db89edda5a3f58bd4", "is_reserved": 0}, {"is_disabled": 0, "fusion_lon": 0.0, "fusion_lat": 0.0, "lat": 38.90626783333333, "type": "electric_scooter", "lon": -77.02463283333333, "bike_id": "b48a6a4576cf6a4157cd4067f607f858", "rental_uris": {"android": "https://dc.lft.to/lastmile_qr_scan", "ios": "https://dc.lft.to/lastmile_qr_scan"}, "name": "b48a6a4576cf6a4157cd4067f607f858", "is_reserved": 0}, {"is_disabled": 0, "fusion_lon": 0.0, "fusion_lat": 0.0, "lat": 38.949836166666664, "type": "electric_scooter", "lon": -77.06694083333333, "bike_id": "49bea34f6c0207072843a1d52a6ac0a3", "rental_uris": {"android": "https://dc.lft.to/lastmile_qr_scan", "ios": "https://dc.lft.to/lastmile_qr_scan"}, "name": "49bea34f6c0207072843a1d52a6ac0a3", "is_reserved": 0}, {"is_disabled": 0, "fusion_lon": 0.0, "fusion_lat": 0.0, "lat": 38.88656966666667, "type": "electric_bike", "lon": -77.16228866666667, "bike_id": "da9a9fb99a9b37040190738a8444e896", "rental_uris": {"android": "https://dc.lft.to/lastmile_qr_scan", "ios": "https://dc.lft.to/lastmile_qr_scan"}, "name": "da9a9fb99a9b37040190738a8444e896", "is_reserved": 0}, {"is_disabled": 0, "fusion_lon": 0.0, "fusion_lat": 0.0, "lat": 38.92369166666667, "type": "electric_scooter", "lon": -77.02817366666666, "bike_id": "0196ff5318fd0ea9ad9f092b45677bf5", "rental_uris": {"android": "https://dc.lft.to/lastmile_qr_scan", "ios": "https://dc.lft.to/lastmile_qr_scan"}, "name": "0196ff5318fd0ea9ad9f092b45677bf5", "is_reserved": 0}, {"is_disabled": 0, "fusion_lon": 0.0, "fusion_lat": 0.0, "lat": 38.961184833333334, "type": "electric_scooter", "lon": -77.08520416666667, "bike_id": "bdfab356e88ce19403e4c12cc9fb889e", "rental_uris": {"android": "https://dc.lft.to/lastmile_qr_scan", "ios": "https://dc.lft.to/lastmile_qr_scan"}, "name": "bdfab356e88ce19403e4c12cc9fb889e", "is_reserved": 0}, {"is_disabled": 0, "fusion_lon": 0.0, "fusion_lat": 0.0, "lat": 38.922553, "type": "electric_scooter", "lon": -77.04142383333334, "bike_id": "899883b8b13211a3445364887c5aba2e", "rental_uris": {"android": "https://dc.lft.to/lastmile_qr_scan", "ios": "https://dc.lft.to/lastmile_qr_scan"}, "name": "899883b8b13211a3445364887c5aba2e", "is_reserved": 0}, {"is_disabled": 0, "fusion_lon": 0.0, "fusion_lat": 0.0, "lat": 38.91235133333333, "type": "electric_scooter", "lon": -77.048732, "bike_id": "132bbd309e618009c3d8f677c5e7c449", "rental_uris": {"android": "https://dc.lft.to/lastmile_qr_scan", "ios": "https://dc.lft.to/lastmile_qr_scan"}, "name": "132bbd309e618009c3d8f677c5e7c449", "is_reserved": 0}, {"is_disabled": 0, "fusion_lon": 0.0, "fusion_lat": 0.0, "lat": 38.8843905, "type": "electric_scooter", "lon": -77.02962616666667, "bike_id": "b76522868a4ef2bfcf88af60a418b9f2", "rental_uris": {"android": "https://dc.lft.to/lastmile_qr_scan", "ios": "https://dc.lft.to/lastmile_qr_scan"}, "name": "b76522868a4ef2bfcf88af60a418b9f2", "is_reserved": 0}, {"is_disabled": 0, "fusion_lon": 0.0, "fusion_lat": 0.0, "lat": 38.894929, "type": "electric_scooter", "lon": -77.009535, "bike_id": "a7873fbf5159043395a8bb73659c57ec", "rental_uris": {"android": "https://dc.lft.to/lastmile_qr_scan", "ios": "https://dc.lft.to/lastmile_qr_scan"}, "name": "a7873fbf5159043395a8bb73659c57ec", "is_reserved": 0}, {"is_disabled": 0, "fusion_lon": 0.0, "fusion_lat": 0.0, "lat": 38.776223, "type": "electric_bike", "lon": -77.083504, "bike_id": "794ac97bf0db7a238f44747ba324368d", "rental_uris": {"android": "https://dc.lft.to/lastmile_qr_scan", "ios": "https://dc.lft.to/lastmile_qr_scan"}, "name": "794ac97bf0db7a238f44747ba324368d", "is_reserved": 0}, {"is_disabled": 0, "fusion_lon": 0.0, "fusion_lat": 0.0, "lat": 39.054554, "type": "electric_bike", "lon": -77.14322466666667, "bike_id": "161c793504ea65c14353bd3f29fd2d98", "rental_uris": {"android": "https://dc.lft.to/lastmile_qr_scan", "ios": "https://dc.lft.to/lastmile_qr_scan"}, "name": "161c793504ea65c14353bd3f29fd2d98", "is_reserved": 0}, {"is_disabled": 0, "fusion_lon": 0.0, "fusion_lat": 0.0, "lat": 38.88140933333333, "type": "electric_scooter", "lon": -77.02709883333333, "bike_id": "9e961aa6565feeee2b24f743ba0d33d3", "rental_uris": {"android": "https://dc.lft.to/lastmile_qr_scan", "ios": "https://dc.lft.to/lastmile_qr_scan"}, "name": "9e961aa6565feeee2b24f743ba0d33d3", "is_reserved": 0}, {"is_disabled": 0, "fusion_lon": 0.0, "fusion_lat": 0.0, "lat": 38.90553216666667, "type": "electric_scooter", "lon": -76.98140883333333, "bike_id": "2810263231d0c7534eb6e2639b72cec6", "rental_uris": {"android": "https://dc.lft.to/lastmile_qr_scan", "ios": "https://dc.lft.to/lastmile_qr_scan"}, "name": "2810263231d0c7534eb6e2639b72cec6", "is_reserved": 0}, {"is_disabled": 0, "fusion_lon": 0.0, "fusion_lat": 0.0, "lat": 38.881913833333336, "type": "electric_scooter", "lon": -76.9950415, "bike_id": "917dde9950f45b0a883f667459c318d3", "rental_uris": {"android": "https://dc.lft.to/lastmile_qr_scan", "ios": "https://dc.lft.to/lastmile_qr_scan"}, "name": "917dde9950f45b0a883f667459c318d3", "is_reserved": 0}, {"is_disabled": 0, "fusion_lon": 0.0, "fusion_lat": 0.0, "lat": 38.90014816666667, "type": "electric_scooter", "lon": -77.0525465, "bike_id": "c67e1f10a26100efd221d071c068d553", "rental_uris": {"android": "https://dc.lft.to/lastmile_qr_scan", "ios": "https://dc.lft.to/lastmile_qr_scan"}, "name": "c67e1f10a26100efd221d071c068d553", "is_reserved": 0}, {"is_disabled": 0, "fusion_lon": 0.0, "fusion_lat": 0.0, "lat": 38.893923, "type": "electric_scooter", "lon": -76.94998616666666, "bike_id": "27dbbfbe39f88b817cff6bf7cadaddbf", "rental_uris": {"android": "https://dc.lft.to/lastmile_qr_scan", "ios": "https://dc.lft.to/lastmile_qr_scan"}, "name": "27dbbfbe39f88b817cff6bf7cadaddbf", "is_reserved": 0}, {"is_disabled": 0, "fusion_lon": 0.0, "fusion_lat": 0.0, "lat": 38.934609333333334, "type": "electric_scooter", "lon": -77.0305615, "bike_id": "6ac32afd613367564571a84b947cabc9", "rental_uris": {"android": "https://dc.lft.to/lastmile_qr_scan", "ios": "https://dc.lft.to/lastmile_qr_scan"}, "name": "6ac32afd613367564571a84b947cabc9", "is_reserved": 0}, {"is_disabled": 0, "fusion_lon": 0.0, "fusion_lat": 0.0, "lat": 38.90517166666667, "type": "electric_scooter", "lon": -77.01708633333334, "bike_id": "9b408af80739e45ad2c62443f174cd4f", "rental_uris": {"android": "https://dc.lft.to/lastmile_qr_scan", "ios": "https://dc.lft.to/lastmile_qr_scan"}, "name": "9b408af80739e45ad2c62443f174cd4f", "is_reserved": 0}, {"is_disabled": 0, "fusion_lon": 0.0, "fusion_lat": 0.0, "lat": 38.94596166666667, "type": "electric_bike", "lon": -77.34410983333333, "bike_id": "b577e5b41f96676a1a7311582b09ccca", "rental_uris": {"android": "https://dc.lft.to/lastmile_qr_scan", "ios": "https://dc.lft.to/lastmile_qr_scan"}, "name": "b577e5b41f96676a1a7311582b09ccca", "is_reserved": 0}, {"is_disabled": 0, "fusion_lon": 0.0, "fusion_lat": 0.0, "lat": 38.91047316666667, "type": "electric_scooter", "lon": -77.04809716666666, "bike_id": "09b30fe758f035b61e20b8b56826b8b0", "rental_uris": {"android": "https://dc.lft.to/lastmile_qr_scan", "ios": "https://dc.lft.to/lastmile_qr_scan"}, "name": "09b30fe758f035b61e20b8b56826b8b0", "is_reserved": 0}, {"is_disabled": 0, "fusion_lon": 0.0, "fusion_lat": 0.0, "lat": 39.008729, "type": "electric_bike", "lon": -77.07901166666667, "bike_id": "7ee80443ca45c2395156c5aadf9e485b", "rental_uris": {"android": "https://dc.lft.to/lastmile_qr_scan", "ios": "https://dc.lft.to/lastmile_qr_scan"}, "name": "7ee80443ca45c2395156c5aadf9e485b", "is_reserved": 0}, {"is_disabled": 0, "fusion_lon": 0.0, "fusion_lat": 0.0, "lat": 38.89372633333333, "type": "electric_scooter", "lon": -76.94995633333333, "bike_id": "5dce7da171289fe0ae2ab3fcaf75a261", "rental_uris": {"android": "https://dc.lft.to/lastmile_qr_scan", "ios": "https://dc.lft.to/lastmile_qr_scan"}, "name": "5dce7da171289fe0ae2ab3fcaf75a261", "is_reserved": 0}, {"is_disabled": 0, "fusion_lon": 0.0, "fusion_lat": 0.0, "lat": 38.89834783333333, "type": "electric_scooter", "lon": -76.98053116666667, "bike_id": "a2eb22770b304c74b7a7b9c5abe6e3ff", "rental_uris": {"android": "https://dc.lft.to/lastmile_qr_scan", "ios": "https://dc.lft.to/lastmile_qr_scan"}, "name": "a2eb22770b304c74b7a7b9c5abe6e3ff", "is_reserved": 0}, {"is_disabled": 0, "fusion_lon": 0.0, "fusion_lat": 0.0, "lat": 38.90358416666667, "type": "electric_scooter", "lon": -77.02368616666666, "bike_id": "cdaa9b7b2f6e6ad686d52225167b55cc", "rental_uris": {"android": "https://dc.lft.to/lastmile_qr_scan", "ios": "https://dc.lft.to/lastmile_qr_scan"}, "name": "cdaa9b7b2f6e6ad686d52225167b55cc", "is_reserved": 0}, {"is_disabled": 0, "fusion_lon": 0.0, "fusion_lat": 0.0, "lat": 38.911167, "type": "electric_scooter", "lon": -77.04501533333334, "bike_id": "15304b93b1ab827f202df8af80f28725", "rental_uris": {"android": "https://dc.lft.to/lastmile_qr_scan", "ios": "https://dc.lft.to/lastmile_qr_scan"}, "name": "15304b93b1ab827f202df8af80f28725", "is_reserved": 0}, {"is_disabled": 0, "fusion_lon": 0.0, "fusion_lat": 0.0, "lat": 38.9404365, "type": "electric_scooter", "lon": -77.02891633333333, "bike_id": "b86adda88e2365ece2ec7ac971098c69", "rental_uris": {"android": "https://dc.lft.to/lastmile_qr_scan", "ios": "https://dc.lft.to/lastmile_qr_scan"}, "name": "b86adda88e2365ece2ec7ac971098c69", "is_reserved": 0}, {"is_disabled": 0, "fusion_lon": 0.0, "fusion_lat": 0.0, "lat": 38.89221, "type": "electric_scooter", "lon": -77.02644216666667, "bike_id": "b6da0ec70c10e3807411e4b61512162e", "rental_uris": {"android": "https://dc.lft.to/lastmile_qr_scan", "ios": "https://dc.lft.to/lastmile_qr_scan"}, "name": "b6da0ec70c10e3807411e4b61512162e", "is_reserved": 0}, {"is_disabled": 0, "fusion_lon": 0.0, "fusion_lat": 0.0, "lat": 38.88800166666667, "type": "electric_bike", "lon": -76.92996933333333, "bike_id": "1e282edf247207e5256ec7d31ac3a9b7", "rental_uris": {"android": "https://dc.lft.to/lastmile_qr_scan", "ios": "https://dc.lft.to/lastmile_qr_scan"}, "name": "1e282edf247207e5256ec7d31ac3a9b7", "is_reserved": 0}, {"is_disabled": 0, "fusion_lon": 0.0, "fusion_lat": 0.0, "lat": 38.827478666666664, "type": "electric_bike", "lon": -77.00857566666667, "bike_id": "eab52d698b18a1a6f5fde1d6980b723a", "rental_uris": {"android": "https://dc.lft.to/lastmile_qr_scan", "ios": "https://dc.lft.to/lastmile_qr_scan"}, "name": "eab52d698b18a1a6f5fde1d6980b723a", "is_reserved": 0}, {"is_disabled": 0, "fusion_lon": 0.0, "fusion_lat": 0.0, "lat": 38.8580805, "type": "electric_scooter", "lon": -76.98655983333333, "bike_id": "b910df6294b608a8f0fcae530e9c5be6", "rental_uris": {"android": "https://dc.lft.to/lastmile_qr_scan", "ios": "https://dc.lft.to/lastmile_qr_scan"}, "name": "b910df6294b608a8f0fcae530e9c5be6", "is_reserved": 0}, {"is_disabled": 0, "fusion_lon": 0.0, "fusion_lat": 0.0, "lat": 38.91696866666667, "type": "electric_scooter", "lon": -77.02438316666667, "bike_id": "9cb807e20d1a7ebb4e23a51f195c6ada", "rental_uris": {"android": "https://dc.lft.to/lastmile_qr_scan", "ios": "https://dc.lft.to/lastmile_qr_scan"}, "name": "9cb807e20d1a7ebb4e23a51f195c6ada", "is_reserved": 0}, {"is_disabled": 0, "fusion_lon": 0.0, "fusion_lat": 0.0, "lat": 38.8473305, "type": "electric_bike", "lon": -77.09531083333333, "bike_id": "9dd4a1895549e2476c48a57f56c6fb4e", "rental_uris": {"android": "https://dc.lft.to/lastmile_qr_scan", "ios": "https://dc.lft.to/lastmile_qr_scan"}, "name": "9dd4a1895549e2476c48a57f56c6fb4e", "is_reserved": 0}, {"is_disabled": 0, "fusion_lon": 0.0, "fusion_lat": 0.0, "lat": 38.86318, "type": "electric_scooter", "lon": -76.99062016666667, "bike_id": "3d2a528e143fb57325e4b18bd8c153de", "rental_uris": {"android": "https://dc.lft.to/lastmile_qr_scan", "ios": "https://dc.lft.to/lastmile_qr_scan"}, "name": "3d2a528e143fb57325e4b18bd8c153de", "is_reserved": 0}, {"is_disabled": 0, "fusion_lon": 0.0, "fusion_lat": 0.0, "lat": 38.911140833333334, "type": "electric_scooter", "lon": -77.04497666666667, "bike_id": "61fdbe4d87b974a7882f8e256c1ef5d7", "rental_uris": {"android": "https://dc.lft.to/lastmile_qr_scan", "ios": "https://dc.lft.to/lastmile_qr_scan"}, "name": "61fdbe4d87b974a7882f8e256c1ef5d7", "is_reserved": 0}, {"is_disabled": 0, "fusion_lon": 0.0, "fusion_lat": 0.0, "lat": 38.912784333333335, "type": "electric_scooter", "lon": -77.047312, "bike_id": "6e2c1b365aeb2665b3ceffd481108fce", "rental_uris": {"android": "https://dc.lft.to/lastmile_qr_scan", "ios": "https://dc.lft.to/lastmile_qr_scan"}, "name": "6e2c1b365aeb2665b3ceffd481108fce", "is_reserved": 0}, {"is_disabled": 0, "fusion_lon": 0.0, "fusion_lat": 0.0, "lat": 38.92860233333333, "type": "electric_scooter", "lon": -77.01405366666667, "bike_id": "7f0c2c0b3e3eec00301e2903322dbf21", "rental_uris": {"android": "https://dc.lft.to/lastmile_qr_scan", "ios": "https://dc.lft.to/lastmile_qr_scan"}, "name": "7f0c2c0b3e3eec00301e2903322dbf21", "is_reserved": 0}, {"is_disabled": 0, "fusion_lon": 0.0, "fusion_lat": 0.0, "lat": 38.905480833333336, "type": "electric_scooter", "lon": -77.0570715, "bike_id": "61ccb25d85983a7d570757c27630c3c5", "rental_uris": {"android": "https://dc.lft.to/lastmile_qr_scan", "ios": "https://dc.lft.to/lastmile_qr_scan"}, "name": "61ccb25d85983a7d570757c27630c3c5", "is_reserved": 0}, {"is_disabled": 0, "fusion_lon": 0.0, "fusion_lat": 0.0, "lat": 38.8360605, "type": "electric_scooter", "lon": -77.0036185, "bike_id": "ee64740650b20a15dde02a3bed97d4c6", "rental_uris": {"android": "https://dc.lft.to/lastmile_qr_scan", "ios": "https://dc.lft.to/lastmile_qr_scan"}, "name": "ee64740650b20a15dde02a3bed97d4c6", "is_reserved": 0}, {"is_disabled": 0, "fusion_lon": 0.0, "fusion_lat": 0.0, "lat": 38.932446166666665, "type": "electric_scooter", "lon": -77.0285205, "bike_id": "827a1de414ab83b454490a826b410f11", "rental_uris": {"android": "https://dc.lft.to/lastmile_qr_scan", "ios": "https://dc.lft.to/lastmile_qr_scan"}, "name": "827a1de414ab83b454490a826b410f11", "is_reserved": 0}, {"is_disabled": 0, "fusion_lon": 0.0, "fusion_lat": 0.0, "lat": 38.967619, "type": "electric_bike", "lon": -77.09161533333334, "bike_id": "086acbf202588d0a9edaa8783e01c6db", "rental_uris": {"android": "https://dc.lft.to/lastmile_qr_scan", "ios": "https://dc.lft.to/lastmile_qr_scan"}, "name": "086acbf202588d0a9edaa8783e01c6db", "is_reserved": 0}, {"is_disabled": 0, "fusion_lon": 0.0, "fusion_lat": 0.0, "lat": 38.914806166666665, "type": "electric_scooter", "lon": -76.98359583333334, "bike_id": "dd6735b0572ca2c72caa5005a9d9c733", "rental_uris": {"android": "https://dc.lft.to/lastmile_qr_scan", "ios": "https://dc.lft.to/lastmile_qr_scan"}, "name": "dd6735b0572ca2c72caa5005a9d9c733", "is_reserved": 0}, {"is_disabled": 0, "fusion_lon": 0.0, "fusion_lat": 0.0, "lat": 38.912747333333336, "type": "electric_scooter", "lon": -77.0434885, "bike_id": "b01e82eb0b4b858bb43382bee01132d5", "rental_uris": {"android": "https://dc.lft.to/lastmile_qr_scan", "ios": "https://dc.lft.to/lastmile_qr_scan"}, "name": "b01e82eb0b4b858bb43382bee01132d5", "is_reserved": 0}, {"is_disabled": 0, "fusion_lon": 0.0, "fusion_lat": 0.0, "lat": 38.928964, "type": "electric_scooter", "lon": -77.03265533333334, "bike_id": "a07a255c6c20530af393bc7b9bf1f590", "rental_uris": {"android": "https://dc.lft.to/lastmile_qr_scan", "ios": "https://dc.lft.to/lastmile_qr_scan"}, "name": "a07a255c6c20530af393bc7b9bf1f590", "is_reserved": 0}, {"is_disabled": 0, "fusion_lon": 0.0, "fusion_lat": 0.0, "lat": 38.92065916666667, "type": "electric_scooter", "lon": -77.04335383333333, "bike_id": "bad719b5244e69fa9d7003d033ecaa86", "rental_uris": {"android": "https://dc.lft.to/lastmile_qr_scan", "ios": "https://dc.lft.to/lastmile_qr_scan"}, "name": "bad719b5244e69fa9d7003d033ecaa86", "is_reserved": 0}, {"is_disabled": 0, "fusion_lon": 0.0, "fusion_lat": 0.0, "lat": 38.90667883333333, "type": "electric_scooter", "lon": -77.03753616666667, "bike_id": "ec5090b0dcc5a64a6b0aa3c437089b05", "rental_uris": {"android": "https://dc.lft.to/lastmile_qr_scan", "ios": "https://dc.lft.to/lastmile_qr_scan"}, "name": "ec5090b0dcc5a64a6b0aa3c437089b05", "is_reserved": 0}, {"is_disabled": 0, "fusion_lon": 0.0, "fusion_lat": 0.0, "lat": 38.916972666666666, "type": "electric_scooter", "lon": -77.00524183333333, "bike_id": "bbbfd613b23c959f4c58d18f0c2f9728", "rental_uris": {"android": "https://dc.lft.to/lastmile_qr_scan", "ios": "https://dc.lft.to/lastmile_qr_scan"}, "name": "bbbfd613b23c959f4c58d18f0c2f9728", "is_reserved": 0}, {"is_disabled": 0, "fusion_lon": 0.0, "fusion_lat": 0.0, "lat": 38.9198815, "type": "electric_scooter", "lon": -77.03874433333333, "bike_id": "dc142e11e60cd22635d568f97351dc4c", "rental_uris": {"android": "https://dc.lft.to/lastmile_qr_scan", "ios": "https://dc.lft.to/lastmile_qr_scan"}, "name": "dc142e11e60cd22635d568f97351dc4c", "is_reserved": 0}, {"is_disabled": 0, "fusion_lon": 0.0, "fusion_lat": 0.0, "lat": 38.94562466666667, "type": "electric_bike", "lon": -77.051179, "bike_id": "00a81fc1ec96a8c423f4e10e5d734d47", "rental_uris": {"android": "https://dc.lft.to/lastmile_qr_scan", "ios": "https://dc.lft.to/lastmile_qr_scan"}, "name": "00a81fc1ec96a8c423f4e10e5d734d47", "is_reserved": 0}, {"is_disabled": 0, "fusion_lon": 0.0, "fusion_lat": 0.0, "lat": 38.90045533333333, "type": "electric_scooter", "lon": -76.9226745, "bike_id": "c791776da4726c221e82221dabbf8c56", "rental_uris": {"android": "https://dc.lft.to/lastmile_qr_scan", "ios": "https://dc.lft.to/lastmile_qr_scan"}, "name": "c791776da4726c221e82221dabbf8c56", "is_reserved": 0}, {"is_disabled": 0, "fusion_lon": 0.0, "fusion_lat": 0.0, "lat": 38.895615, "type": "electric_scooter", "lon": -77.046701, "bike_id": "7b15cc368bfdca42d74da4ce97348d5a", "rental_uris": {"android": "https://dc.lft.to/lastmile_qr_scan", "ios": "https://dc.lft.to/lastmile_qr_scan"}, "name": "7b15cc368bfdca42d74da4ce97348d5a", "is_reserved": 0}, {"is_disabled": 0, "fusion_lon": 0.0, "fusion_lat": 0.0, "lat": 38.909469666666666, "type": "electric_scooter", "lon": -77.03848116666667, "bike_id": "3467cedc01f87fdd44dff709ad0c5cfb", "rental_uris": {"android": "https://dc.lft.to/lastmile_qr_scan", "ios": "https://dc.lft.to/lastmile_qr_scan"}, "name": "3467cedc01f87fdd44dff709ad0c5cfb", "is_reserved": 0}, {"is_disabled": 0, "fusion_lon": 0.0, "fusion_lat": 0.0, "lat": 38.930487166666666, "type": "electric_scooter", "lon": -77.023274, "bike_id": "be33e1c813e3f831900994497a28d685", "rental_uris": {"android": "https://dc.lft.to/lastmile_qr_scan", "ios": "https://dc.lft.to/lastmile_qr_scan"}, "name": "be33e1c813e3f831900994497a28d685", "is_reserved": 0}, {"is_disabled": 0, "fusion_lon": 0.0, "fusion_lat": 0.0, "lat": 38.91017033333333, "type": "electric_scooter", "lon": -77.03851916666666, "bike_id": "55e8722e83e1b16ad9e242eeaf098ef9", "rental_uris": {"android": "https://dc.lft.to/lastmile_qr_scan", "ios": "https://dc.lft.to/lastmile_qr_scan"}, "name": "55e8722e83e1b16ad9e242eeaf098ef9", "is_reserved": 0}, {"is_disabled": 0, "fusion_lon": 0.0, "fusion_lat": 0.0, "lat": 38.935324, "type": "electric_scooter", "lon": -77.023771, "bike_id": "c185908f8877844233d06a97ff0a0865", "rental_uris": {"android": "https://dc.lft.to/lastmile_qr_scan", "ios": "https://dc.lft.to/lastmile_qr_scan"}, "name": "c185908f8877844233d06a97ff0a0865", "is_reserved": 0}, {"is_disabled": 0, "fusion_lon": 0.0, "fusion_lat": 0.0, "lat": 38.862481833333334, "type": "electric_scooter", "lon": -76.9950285, "bike_id": "c864fa043ad86dbfda721388516dcc65", "rental_uris": {"android": "https://dc.lft.to/lastmile_qr_scan", "ios": "https://dc.lft.to/lastmile_qr_scan"}, "name": "c864fa043ad86dbfda721388516dcc65", "is_reserved": 0}, {"is_disabled": 0, "fusion_lon": 0.0, "fusion_lat": 0.0, "lat": 38.89374883333333, "type": "electric_scooter", "lon": -76.949962, "bike_id": "1c729022aed03def37a412bd5bba69ec", "rental_uris": {"android": "https://dc.lft.to/lastmile_qr_scan", "ios": "https://dc.lft.to/lastmile_qr_scan"}, "name": "1c729022aed03def37a412bd5bba69ec", "is_reserved": 0}, {"is_disabled": 0, "fusion_lon": 0.0, "fusion_lat": 0.0, "lat": 38.892527333333334, "type": "electric_scooter", "lon": -77.02831983333333, "bike_id": "baffa3ebe49ffda4938a67f3b6f5eba2", "rental_uris": {"android": "https://dc.lft.to/lastmile_qr_scan", "ios": "https://dc.lft.to/lastmile_qr_scan"}, "name": "baffa3ebe49ffda4938a67f3b6f5eba2", "is_reserved": 0}, {"is_disabled": 0, "fusion_lon": 0.0, "fusion_lat": 0.0, "lat": 38.88745316666667, "type": "electric_scooter", "lon": -77.0032165, "bike_id": "c532eeea2548a8482d9b37d278c6fd14", "rental_uris": {"android": "https://dc.lft.to/lastmile_qr_scan", "ios": "https://dc.lft.to/lastmile_qr_scan"}, "name": "c532eeea2548a8482d9b37d278c6fd14", "is_reserved": 0}, {"is_disabled": 0, "fusion_lon": 0.0, "fusion_lat": 0.0, "lat": 38.9023875, "type": "electric_scooter", "lon": -77.045975, "bike_id": "7babfa89ceb002e98ce919585b895039", "rental_uris": {"android": "https://dc.lft.to/lastmile_qr_scan", "ios": "https://dc.lft.to/lastmile_qr_scan"}, "name": "7babfa89ceb002e98ce919585b895039", "is_reserved": 0}, {"is_disabled": 0, "fusion_lon": 0.0, "fusion_lat": 0.0, "lat": 38.90986766666666, "type": "electric_scooter", "lon": -77.02182516666667, "bike_id": "fb84fd0fd97e1894b6946daefe5fe238", "rental_uris": {"android": "https://dc.lft.to/lastmile_qr_scan", "ios": "https://dc.lft.to/lastmile_qr_scan"}, "name": "fb84fd0fd97e1894b6946daefe5fe238", "is_reserved": 0}, {"is_disabled": 0, "fusion_lon": 0.0, "fusion_lat": 0.0, "lat": 38.93458833333333, "type": "electric_scooter", "lon": -77.072352, "bike_id": "979a77dbf80e80c289a0f1da22b82487", "rental_uris": {"android": "https://dc.lft.to/lastmile_qr_scan", "ios": "https://dc.lft.to/lastmile_qr_scan"}, "name": "979a77dbf80e80c289a0f1da22b82487", "is_reserved": 0}, {"is_disabled": 0, "fusion_lon": 0.0, "fusion_lat": 0.0, "lat": 38.928286166666666, "type": "electric_scooter", "lon": -77.01416266666666, "bike_id": "52ae9a4dae832e2eac36002897e3e347", "rental_uris": {"android": "https://dc.lft.to/lastmile_qr_scan", "ios": "https://dc.lft.to/lastmile_qr_scan"}, "name": "52ae9a4dae832e2eac36002897e3e347", "is_reserved": 0}, {"is_disabled": 0, "fusion_lon": 0.0, "fusion_lat": 0.0, "lat": 38.92975466666667, "type": "electric_scooter", "lon": -77.04147766666667, "bike_id": "61b2b7ab9659bfc78e2ba2350b0660e6", "rental_uris": {"android": "https://dc.lft.to/lastmile_qr_scan", "ios": "https://dc.lft.to/lastmile_qr_scan"}, "name": "61b2b7ab9659bfc78e2ba2350b0660e6", "is_reserved": 0}, {"is_disabled": 0, "fusion_lon": 0.0, "fusion_lat": 0.0, "lat": 38.94982066666667, "type": "electric_scooter", "lon": -77.02701366666666, "bike_id": "29976c7ae689d0871eb47cd4fd790790", "rental_uris": {"android": "https://dc.lft.to/lastmile_qr_scan", "ios": "https://dc.lft.to/lastmile_qr_scan"}, "name": "29976c7ae689d0871eb47cd4fd790790", "is_reserved": 0}, {"is_disabled": 0, "fusion_lon": 0.0, "fusion_lat": 0.0, "lat": 38.91639266666667, "type": "electric_scooter", "lon": -77.02278083333333, "bike_id": "413a763abf5233b2fff7a3246824c9bc", "rental_uris": {"android": "https://dc.lft.to/lastmile_qr_scan", "ios": "https://dc.lft.to/lastmile_qr_scan"}, "name": "413a763abf5233b2fff7a3246824c9bc", "is_reserved": 0}, {"is_disabled": 0, "fusion_lon": 0.0, "fusion_lat": 0.0, "lat": 38.9206785, "type": "electric_scooter", "lon": -77.04360233333334, "bike_id": "0a15b52a88cb4e67855c2019f494dc77", "rental_uris": {"android": "https://dc.lft.to/lastmile_qr_scan", "ios": "https://dc.lft.to/lastmile_qr_scan"}, "name": "0a15b52a88cb4e67855c2019f494dc77", "is_reserved": 0}, {"is_disabled": 0, "fusion_lon": 0.0, "fusion_lat": 0.0, "lat": 38.900208, "type": "electric_scooter", "lon": -77.02673183333333, "bike_id": "c0176aafb7b31f5f42821826a9b12021", "rental_uris": {"android": "https://dc.lft.to/lastmile_qr_scan", "ios": "https://dc.lft.to/lastmile_qr_scan"}, "name": "c0176aafb7b31f5f42821826a9b12021", "is_reserved": 0}, {"is_disabled": 0, "fusion_lon": 0.0, "fusion_lat": 0.0, "lat": 38.92387333333333, "type": "electric_scooter", "lon": -77.028828, "bike_id": "5ec0052c69db478197dd6241cc41823d", "rental_uris": {"android": "https://dc.lft.to/lastmile_qr_scan", "ios": "https://dc.lft.to/lastmile_qr_scan"}, "name": "5ec0052c69db478197dd6241cc41823d", "is_reserved": 0}, {"is_disabled": 0, "fusion_lon": 0.0, "fusion_lat": 0.0, "lat": 38.90993133333333, "type": "electric_scooter", "lon": -77.03727433333333, "bike_id": "7332383bf46c73bc8263be999146cc8c", "rental_uris": {"android": "https://dc.lft.to/lastmile_qr_scan", "ios": "https://dc.lft.to/lastmile_qr_scan"}, "name": "7332383bf46c73bc8263be999146cc8c", "is_reserved": 0}, {"is_disabled": 0, "fusion_lon": 0.0, "fusion_lat": 0.0, "lat": 38.941883833333335, "type": "electric_scooter", "lon": -77.02486616666667, "bike_id": "afb984c9fe0c8d148d760b8ffeb9a15e", "rental_uris": {"android": "https://dc.lft.to/lastmile_qr_scan", "ios": "https://dc.lft.to/lastmile_qr_scan"}, "name": "afb984c9fe0c8d148d760b8ffeb9a15e", "is_reserved": 0}, {"is_disabled": 0, "fusion_lon": 0.0, "fusion_lat": 0.0, "lat": 38.9198135, "type": "electric_scooter", "lon": -77.041628, "bike_id": "88fcd2f1c8e036f6479f2fea52f735f1", "rental_uris": {"android": "https://dc.lft.to/lastmile_qr_scan", "ios": "https://dc.lft.to/lastmile_qr_scan"}, "name": "88fcd2f1c8e036f6479f2fea52f735f1", "is_reserved": 0}, {"is_disabled": 0, "fusion_lon": 0.0, "fusion_lat": 0.0, "lat": 38.943220333333336, "type": "electric_scooter", "lon": -77.08577416666667, "bike_id": "6dcdfb10d266da09625f515253105648", "rental_uris": {"android": "https://dc.lft.to/lastmile_qr_scan", "ios": "https://dc.lft.to/lastmile_qr_scan"}, "name": "6dcdfb10d266da09625f515253105648", "is_reserved": 0}, {"is_disabled": 0, "fusion_lon": 0.0, "fusion_lat": 0.0, "lat": 38.8729, "type": "electric_scooter", "lon": -77.00984266666667, "bike_id": "79c3b1add85974a348259f7621262f3b", "rental_uris": {"android": "https://dc.lft.to/lastmile_qr_scan", "ios": "https://dc.lft.to/lastmile_qr_scan"}, "name": "79c3b1add85974a348259f7621262f3b", "is_reserved": 0}, {"is_disabled": 0, "fusion_lon": 0.0, "fusion_lat": 0.0, "lat": 38.89272116666667, "type": "electric_scooter", "lon": -76.937151, "bike_id": "aca094b734b3073f5f091e9932b999f9", "rental_uris": {"android": "https://dc.lft.to/lastmile_qr_scan", "ios": "https://dc.lft.to/lastmile_qr_scan"}, "name": "aca094b734b3073f5f091e9932b999f9", "is_reserved": 0}, {"is_disabled": 0, "fusion_lon": 0.0, "fusion_lat": 0.0, "lat": 38.908657166666664, "type": "electric_scooter", "lon": -77.04847933333333, "bike_id": "2aae3ea0b3dad72c6afa91935fb0bef8", "rental_uris": {"android": "https://dc.lft.to/lastmile_qr_scan", "ios": "https://dc.lft.to/lastmile_qr_scan"}, "name": "2aae3ea0b3dad72c6afa91935fb0bef8", "is_reserved": 0}, {"is_disabled": 0, "fusion_lon": 0.0, "fusion_lat": 0.0, "lat": 38.8923105, "type": "electric_scooter", "lon": -77.04656666666666, "bike_id": "2fbcaca67789dde2ebc1f8080fdf36df", "rental_uris": {"android": "https://dc.lft.to/lastmile_qr_scan", "ios": "https://dc.lft.to/lastmile_qr_scan"}, "name": "2fbcaca67789dde2ebc1f8080fdf36df", "is_reserved": 0}, {"is_disabled": 0, "fusion_lon": 0.0, "fusion_lat": 0.0, "lat": 38.93102716666667, "type": "electric_scooter", "lon": -77.0326235, "bike_id": "98da963b2348e80edc8a6e7a3806f40d", "rental_uris": {"android": "https://dc.lft.to/lastmile_qr_scan", "ios": "https://dc.lft.to/lastmile_qr_scan"}, "name": "98da963b2348e80edc8a6e7a3806f40d", "is_reserved": 0}, {"is_disabled": 0, "fusion_lon": 0.0, "fusion_lat": 0.0, "lat": 38.989909833333336, "type": "electric_scooter", "lon": -77.03362483333333, "bike_id": "6011d853456bf9f34359a2081ad0d8ce", "rental_uris": {"android": "https://dc.lft.to/lastmile_qr_scan", "ios": "https://dc.lft.to/lastmile_qr_scan"}, "name": "6011d853456bf9f34359a2081ad0d8ce", "is_reserved": 0}, {"is_disabled": 0, "fusion_lon": 0.0, "fusion_lat": 0.0, "lat": 38.884817166666664, "type": "electric_scooter", "lon": -77.02367216666667, "bike_id": "808b3171d667265a5a99e26522d90744", "rental_uris": {"android": "https://dc.lft.to/lastmile_qr_scan", "ios": "https://dc.lft.to/lastmile_qr_scan"}, "name": "808b3171d667265a5a99e26522d90744", "is_reserved": 0}, {"is_disabled": 0, "fusion_lon": 0.0, "fusion_lat": 0.0, "lat": 38.946042166666665, "type": "electric_scooter", "lon": -77.02979516666667, "bike_id": "7d2b83b47a1407e5f047c3c7d7021587", "rental_uris": {"android": "https://dc.lft.to/lastmile_qr_scan", "ios": "https://dc.lft.to/lastmile_qr_scan"}, "name": "7d2b83b47a1407e5f047c3c7d7021587", "is_reserved": 0}, {"is_disabled": 0, "fusion_lon": 0.0, "fusion_lat": 0.0, "lat": 38.920381666666664, "type": "electric_bike", "lon": -77.0256505, "bike_id": "84c69474a58f5a844d85638d5babfdaa", "rental_uris": {"android": "https://dc.lft.to/lastmile_qr_scan", "ios": "https://dc.lft.to/lastmile_qr_scan"}, "name": "84c69474a58f5a844d85638d5babfdaa", "is_reserved": 0}, {"is_disabled": 0, "fusion_lon": 0.0, "fusion_lat": 0.0, "lat": 38.92570216666667, "type": "electric_scooter", "lon": -77.03774233333333, "bike_id": "4fb6c23ac07b5b00990d878fbfb08ef6", "rental_uris": {"android": "https://dc.lft.to/lastmile_qr_scan", "ios": "https://dc.lft.to/lastmile_qr_scan"}, "name": "4fb6c23ac07b5b00990d878fbfb08ef6", "is_reserved": 0}, {"is_disabled": 0, "fusion_lon": 0.0, "fusion_lat": 0.0, "lat": 38.91266, "type": "electric_scooter", "lon": -77.03368183333333, "bike_id": "1a103ab877689fe231b85c4476cea0eb", "rental_uris": {"android": "https://dc.lft.to/lastmile_qr_scan", "ios": "https://dc.lft.to/lastmile_qr_scan"}, "name": "1a103ab877689fe231b85c4476cea0eb", "is_reserved": 0}, {"is_disabled": 0, "fusion_lon": 0.0, "fusion_lat": 0.0, "lat": 38.913078166666665, "type": "electric_scooter", "lon": -77.0084675, "bike_id": "b9f8cbad5d542579b16ec60fbcb361d3", "rental_uris": {"android": "https://dc.lft.to/lastmile_qr_scan", "ios": "https://dc.lft.to/lastmile_qr_scan"}, "name": "b9f8cbad5d542579b16ec60fbcb361d3", "is_reserved": 0}, {"is_disabled": 0, "fusion_lon": 0.0, "fusion_lat": 0.0, "lat": 38.9180675, "type": "electric_scooter", "lon": -77.034426, "bike_id": "10b789af0682794cb76c794ec6d2ff16", "rental_uris": {"android": "https://dc.lft.to/lastmile_qr_scan", "ios": "https://dc.lft.to/lastmile_qr_scan"}, "name": "10b789af0682794cb76c794ec6d2ff16", "is_reserved": 0}, {"is_disabled": 0, "fusion_lon": 0.0, "fusion_lat": 0.0, "lat": 38.92239433333334, "type": "electric_scooter", "lon": -77.03351816666667, "bike_id": "f4ed1a566029b6261647f97f4e8349e9", "rental_uris": {"android": "https://dc.lft.to/lastmile_qr_scan", "ios": "https://dc.lft.to/lastmile_qr_scan"}, "name": "f4ed1a566029b6261647f97f4e8349e9", "is_reserved": 0}, {"is_disabled": 0, "fusion_lon": 0.0, "fusion_lat": 0.0, "lat": 38.88747466666667, "type": "electric_scooter", "lon": -77.01540483333333, "bike_id": "c92289f197458479ad603547a946928d", "rental_uris": {"android": "https://dc.lft.to/lastmile_qr_scan", "ios": "https://dc.lft.to/lastmile_qr_scan"}, "name": "c92289f197458479ad603547a946928d", "is_reserved": 0}, {"is_disabled": 0, "fusion_lon": 0.0, "fusion_lat": 0.0, "lat": 38.9141545, "type": "electric_scooter", "lon": -77.03093233333334, "bike_id": "5f6ea10ed64746c4824d4b0a6cc4e429", "rental_uris": {"android": "https://dc.lft.to/lastmile_qr_scan", "ios": "https://dc.lft.to/lastmile_qr_scan"}, "name": "5f6ea10ed64746c4824d4b0a6cc4e429", "is_reserved": 0}, {"is_disabled": 0, "fusion_lon": 0.0, "fusion_lat": 0.0, "lat": 38.872887166666665, "type": "electric_scooter", "lon": -76.9772925, "bike_id": "db96112e6f2fc1a8070f1a65a6ca9fc9", "rental_uris": {"android": "https://dc.lft.to/lastmile_qr_scan", "ios": "https://dc.lft.to/lastmile_qr_scan"}, "name": "db96112e6f2fc1a8070f1a65a6ca9fc9", "is_reserved": 0}, {"is_disabled": 0, "fusion_lon": 0.0, "fusion_lat": 0.0, "lat": 38.82469533333333, "type": "electric_bike", "lon": -77.070774, "bike_id": "eea53f4d3d26deeb9c73a1eba9f39b9d", "rental_uris": {"android": "https://dc.lft.to/lastmile_qr_scan", "ios": "https://dc.lft.to/lastmile_qr_scan"}, "name": "eea53f4d3d26deeb9c73a1eba9f39b9d", "is_reserved": 0}, {"is_disabled": 0, "fusion_lon": 0.0, "fusion_lat": 0.0, "lat": 38.92251433333333, "type": "electric_scooter", "lon": -77.02978516666667, "bike_id": "e489517ac4d3d01538b8efcdb68da6e0", "rental_uris": {"android": "https://dc.lft.to/lastmile_qr_scan", "ios": "https://dc.lft.to/lastmile_qr_scan"}, "name": "e489517ac4d3d01538b8efcdb68da6e0", "is_reserved": 0}, {"is_disabled": 0, "fusion_lon": 0.0, "fusion_lat": 0.0, "lat": 38.92589866666667, "type": "electric_bike", "lon": -76.889011, "bike_id": "cfee01b02f8dc2f3cecb2f32954a2df0", "rental_uris": {"android": "https://dc.lft.to/lastmile_qr_scan", "ios": "https://dc.lft.to/lastmile_qr_scan"}, "name": "cfee01b02f8dc2f3cecb2f32954a2df0", "is_reserved": 0}, {"is_disabled": 0, "fusion_lon": 0.0, "fusion_lat": 0.0, "lat": 38.93868416666667, "type": "electric_scooter", "lon": -77.02649683333334, "bike_id": "30267497634ba62f7caa29f5bdaf4a06", "rental_uris": {"android": "https://dc.lft.to/lastmile_qr_scan", "ios": "https://dc.lft.to/lastmile_qr_scan"}, "name": "30267497634ba62f7caa29f5bdaf4a06", "is_reserved": 0}, {"is_disabled": 0, "fusion_lon": 0.0, "fusion_lat": 0.0, "lat": 38.894789333333335, "type": "electric_scooter", "lon": -77.021307, "bike_id": "026d4783b6c654a39d970d19e34986e7", "rental_uris": {"android": "https://dc.lft.to/lastmile_qr_scan", "ios": "https://dc.lft.to/lastmile_qr_scan"}, "name": "026d4783b6c654a39d970d19e34986e7", "is_reserved": 0}, {"is_disabled": 0, "fusion_lon": 0.0, "fusion_lat": 0.0, "lat": 38.90853766666667, "type": "electric_scooter", "lon": -77.071563, "bike_id": "adc092b1b053e707f0954f9a443e7c2d", "rental_uris": {"android": "https://dc.lft.to/lastmile_qr_scan", "ios": "https://dc.lft.to/lastmile_qr_scan"}, "name": "adc092b1b053e707f0954f9a443e7c2d", "is_reserved": 0}, {"is_disabled": 0, "fusion_lon": 0.0, "fusion_lat": 0.0, "lat": 38.892370666666665, "type": "electric_bike", "lon": -76.952225, "bike_id": "7a4aa6a6246f5e9f09387558e9da12f8", "rental_uris": {"android": "https://dc.lft.to/lastmile_qr_scan", "ios": "https://dc.lft.to/lastmile_qr_scan"}, "name": "7a4aa6a6246f5e9f09387558e9da12f8", "is_reserved": 0}, {"is_disabled": 0, "fusion_lon": 0.0, "fusion_lat": 0.0, "lat": 38.92056216666667, "type": "electric_scooter", "lon": -77.04261033333333, "bike_id": "184f7e81080489acdb385a49bb0f8d1f", "rental_uris": {"android": "https://dc.lft.to/lastmile_qr_scan", "ios": "https://dc.lft.to/lastmile_qr_scan"}, "name": "184f7e81080489acdb385a49bb0f8d1f", "is_reserved": 0}, {"is_disabled": 0, "fusion_lon": 0.0, "fusion_lat": 0.0, "lat": 38.911783166666666, "type": "electric_scooter", "lon": -77.00449833333333, "bike_id": "ff9f227394a67a2e284493c79c83af31", "rental_uris": {"android": "https://dc.lft.to/lastmile_qr_scan", "ios": "https://dc.lft.to/lastmile_qr_scan"}, "name": "ff9f227394a67a2e284493c79c83af31", "is_reserved": 0}, {"is_disabled": 0, "fusion_lon": 0.0, "fusion_lat": 0.0, "lat": 38.91767933333333, "type": "electric_scooter", "lon": -77.01469433333334, "bike_id": "882d580c5b16f018a1cd7c325b433451", "rental_uris": {"android": "https://dc.lft.to/lastmile_qr_scan", "ios": "https://dc.lft.to/lastmile_qr_scan"}, "name": "882d580c5b16f018a1cd7c325b433451", "is_reserved": 0}, {"is_disabled": 0, "fusion_lon": 0.0, "fusion_lat": 0.0, "lat": 38.91278, "type": "electric_scooter", "lon": -77.0370095, "bike_id": "3af0e366a445edab3b376d575c6a0eaa", "rental_uris": {"android": "https://dc.lft.to/lastmile_qr_scan", "ios": "https://dc.lft.to/lastmile_qr_scan"}, "name": "3af0e366a445edab3b376d575c6a0eaa", "is_reserved": 0}, {"is_disabled": 0, "fusion_lon": 0.0, "fusion_lat": 0.0, "lat": 38.89675066666667, "type": "electric_bike", "lon": -77.024816, "bike_id": "0272a665022a91722d52d5692fb02781", "rental_uris": {"android": "https://dc.lft.to/lastmile_qr_scan", "ios": "https://dc.lft.to/lastmile_qr_scan"}, "name": "0272a665022a91722d52d5692fb02781", "is_reserved": 0}, {"is_disabled": 0, "fusion_lon": 0.0, "fusion_lat": 0.0, "lat": 38.91252883333333, "type": "electric_scooter", "lon": -77.04350516666666, "bike_id": "d50440ac7a014ec1bee2fba63cd16fbe", "rental_uris": {"android": "https://dc.lft.to/lastmile_qr_scan", "ios": "https://dc.lft.to/lastmile_qr_scan"}, "name": "d50440ac7a014ec1bee2fba63cd16fbe", "is_reserved": 0}, {"is_disabled": 0, "fusion_lon": 0.0, "fusion_lat": 0.0, "lat": 38.9155205, "type": "electric_scooter", "lon": -77.02044133333334, "bike_id": "6bfd31b703f6188473cc06ee72c31f41", "rental_uris": {"android": "https://dc.lft.to/lastmile_qr_scan", "ios": "https://dc.lft.to/lastmile_qr_scan"}, "name": "6bfd31b703f6188473cc06ee72c31f41", "is_reserved": 0}, {"is_disabled": 0, "fusion_lon": 0.0, "fusion_lat": 0.0, "lat": 38.89854316666667, "type": "electric_scooter", "lon": -77.022861, "bike_id": "96013617aa258dbaf88a0538660a378d", "rental_uris": {"android": "https://dc.lft.to/lastmile_qr_scan", "ios": "https://dc.lft.to/lastmile_qr_scan"}, "name": "96013617aa258dbaf88a0538660a378d", "is_reserved": 0}, {"is_disabled": 0, "fusion_lon": 0.0, "fusion_lat": 0.0, "lat": 38.8874285, "type": "electric_scooter", "lon": -77.00331183333333, "bike_id": "09465d3e1b77869c916f0fceaa906750", "rental_uris": {"android": "https://dc.lft.to/lastmile_qr_scan", "ios": "https://dc.lft.to/lastmile_qr_scan"}, "name": "09465d3e1b77869c916f0fceaa906750", "is_reserved": 0}, {"is_disabled": 0, "fusion_lon": 0.0, "fusion_lat": 0.0, "lat": 38.9046935, "type": "electric_scooter", "lon": -77.03829166666667, "bike_id": "d79df08d8024c2ff7e996e89466754b8", "rental_uris": {"android": "https://dc.lft.to/lastmile_qr_scan", "ios": "https://dc.lft.to/lastmile_qr_scan"}, "name": "d79df08d8024c2ff7e996e89466754b8", "is_reserved": 0}, {"is_disabled": 0, "fusion_lon": 0.0, "fusion_lat": 0.0, "lat": 38.91864833333333, "type": "electric_bike", "lon": -76.96087183333333, "bike_id": "4d751894f14fe9de07fe4d326d1f825b", "rental_uris": {"android": "https://dc.lft.to/lastmile_qr_scan", "ios": "https://dc.lft.to/lastmile_qr_scan"}, "name": "4d751894f14fe9de07fe4d326d1f825b", "is_reserved": 0}, {"is_disabled": 0, "fusion_lon": 0.0, "fusion_lat": 0.0, "lat": 38.91413816666667, "type": "electric_scooter", "lon": -77.02565833333334, "bike_id": "4cc0f7d6a2b61a9c4ab8c5e04d3d0f65", "rental_uris": {"android": "https://dc.lft.to/lastmile_qr_scan", "ios": "https://dc.lft.to/lastmile_qr_scan"}, "name": "4cc0f7d6a2b61a9c4ab8c5e04d3d0f65", "is_reserved": 0}, {"is_disabled": 0, "fusion_lon": 0.0, "fusion_lat": 0.0, "lat": 38.86850333333334, "type": "electric_bike", "lon": -77.09726866666666, "bike_id": "a002ee5723608db630ba233f031fffd2", "rental_uris": {"android": "https://dc.lft.to/lastmile_qr_scan", "ios": "https://dc.lft.to/lastmile_qr_scan"}, "name": "a002ee5723608db630ba233f031fffd2", "is_reserved": 0}, {"is_disabled": 0, "fusion_lon": 0.0, "fusion_lat": 0.0, "lat": 38.8937095, "type": "electric_scooter", "lon": -76.97817133333334, "bike_id": "8771d8edeba49b5be6e37d1f18507490", "rental_uris": {"android": "https://dc.lft.to/lastmile_qr_scan", "ios": "https://dc.lft.to/lastmile_qr_scan"}, "name": "8771d8edeba49b5be6e37d1f18507490", "is_reserved": 0}, {"is_disabled": 0, "fusion_lon": 0.0, "fusion_lat": 0.0, "lat": 38.895275, "type": "electric_scooter", "lon": -77.00207316666666, "bike_id": "4a9f12a058b0351e3b9af16f482b27f1", "rental_uris": {"android": "https://dc.lft.to/lastmile_qr_scan", "ios": "https://dc.lft.to/lastmile_qr_scan"}, "name": "4a9f12a058b0351e3b9af16f482b27f1", "is_reserved": 0}, {"is_disabled": 0, "fusion_lon": 0.0, "fusion_lat": 0.0, "lat": 38.898183333333336, "type": "electric_scooter", "lon": -77.02805533333333, "bike_id": "4b0a13fbc24f441bfd9a4041513fdbc4", "rental_uris": {"android": "https://dc.lft.to/lastmile_qr_scan", "ios": "https://dc.lft.to/lastmile_qr_scan"}, "name": "4b0a13fbc24f441bfd9a4041513fdbc4", "is_reserved": 0}, {"is_disabled": 0, "fusion_lon": 0.0, "fusion_lat": 0.0, "lat": 38.960374333333334, "type": "electric_bike", "lon": -76.92706866666667, "bike_id": "14d862bcdd0e3df6ef2e7e51c25fc0ba", "rental_uris": {"android": "https://dc.lft.to/lastmile_qr_scan", "ios": "https://dc.lft.to/lastmile_qr_scan"}, "name": "14d862bcdd0e3df6ef2e7e51c25fc0ba", "is_reserved": 0}, {"is_disabled": 0, "fusion_lon": 0.0, "fusion_lat": 0.0, "lat": 38.91691683333333, "type": "electric_scooter", "lon": -77.03781216666667, "bike_id": "05ca176f91d9a508421e7d2c762b7369", "rental_uris": {"android": "https://dc.lft.to/lastmile_qr_scan", "ios": "https://dc.lft.to/lastmile_qr_scan"}, "name": "05ca176f91d9a508421e7d2c762b7369", "is_reserved": 0}, {"is_disabled": 0, "fusion_lon": 0.0, "fusion_lat": 0.0, "lat": 38.90843733333333, "type": "electric_scooter", "lon": -77.0634185, "bike_id": "4dc33e2ff5415f7060792cc43eb45182", "rental_uris": {"android": "https://dc.lft.to/lastmile_qr_scan", "ios": "https://dc.lft.to/lastmile_qr_scan"}, "name": "4dc33e2ff5415f7060792cc43eb45182", "is_reserved": 0}, {"is_disabled": 0, "fusion_lon": 0.0, "fusion_lat": 0.0, "lat": 38.94043516666667, "type": "electric_scooter", "lon": -77.02895516666666, "bike_id": "2349c8e0333fab4812397d65986435fe", "rental_uris": {"android": "https://dc.lft.to/lastmile_qr_scan", "ios": "https://dc.lft.to/lastmile_qr_scan"}, "name": "2349c8e0333fab4812397d65986435fe", "is_reserved": 0}, {"is_disabled": 0, "fusion_lon": 0.0, "fusion_lat": 0.0, "lat": 38.858710333333335, "type": "electric_scooter", "lon": -76.99025133333333, "bike_id": "4246f7c8a7015439f0dcf1d96ed7be1e", "rental_uris": {"android": "https://dc.lft.to/lastmile_qr_scan", "ios": "https://dc.lft.to/lastmile_qr_scan"}, "name": "4246f7c8a7015439f0dcf1d96ed7be1e", "is_reserved": 0}, {"is_disabled": 0, "fusion_lon": 0.0, "fusion_lat": 0.0, "lat": 38.90265266666667, "type": "electric_scooter", "lon": -77.03879716666667, "bike_id": "59c27e9893502290144b8fb2edb7799f", "rental_uris": {"android": "https://dc.lft.to/lastmile_qr_scan", "ios": "https://dc.lft.to/lastmile_qr_scan"}, "name": "59c27e9893502290144b8fb2edb7799f", "is_reserved": 0}, {"is_disabled": 0, "fusion_lon": 0.0, "fusion_lat": 0.0, "lat": 38.90544583333333, "type": "electric_scooter", "lon": -77.05713016666667, "bike_id": "0072629abd29f7b231f8b662fadcf394", "rental_uris": {"android": "https://dc.lft.to/lastmile_qr_scan", "ios": "https://dc.lft.to/lastmile_qr_scan"}, "name": "0072629abd29f7b231f8b662fadcf394", "is_reserved": 0}, {"is_disabled": 0, "fusion_lon": 0.0, "fusion_lat": 0.0, "lat": 38.89474083333333, "type": "electric_scooter", "lon": -77.02137766666667, "bike_id": "4374510058f5cdf4c599e993e5ebe738", "rental_uris": {"android": "https://dc.lft.to/lastmile_qr_scan", "ios": "https://dc.lft.to/lastmile_qr_scan"}, "name": "4374510058f5cdf4c599e993e5ebe738", "is_reserved": 0}, {"is_disabled": 0, "fusion_lon": 0.0, "fusion_lat": 0.0, "lat": 38.9261265, "type": "electric_scooter", "lon": -77.02164266666666, "bike_id": "1e41bf9f1c12daa7989d6f77145d9429", "rental_uris": {"android": "https://dc.lft.to/lastmile_qr_scan", "ios": "https://dc.lft.to/lastmile_qr_scan"}, "name": "1e41bf9f1c12daa7989d6f77145d9429", "is_reserved": 0}, {"is_disabled": 0, "fusion_lon": 0.0, "fusion_lat": 0.0, "lat": 38.92177866666667, "type": "electric_scooter", "lon": -77.04228283333333, "bike_id": "07fc72ae6a1300eee4844b618f256fd9", "rental_uris": {"android": "https://dc.lft.to/lastmile_qr_scan", "ios": "https://dc.lft.to/lastmile_qr_scan"}, "name": "07fc72ae6a1300eee4844b618f256fd9", "is_reserved": 0}, {"is_disabled": 0, "fusion_lon": 0.0, "fusion_lat": 0.0, "lat": 38.918176333333335, "type": "electric_scooter", "lon": -77.02528883333333, "bike_id": "f6de41f638f96ea29faac861418bb28f", "rental_uris": {"android": "https://dc.lft.to/lastmile_qr_scan", "ios": "https://dc.lft.to/lastmile_qr_scan"}, "name": "f6de41f638f96ea29faac861418bb28f", "is_reserved": 0}, {"is_disabled": 0, "fusion_lon": 0.0, "fusion_lat": 0.0, "lat": 38.9013555, "type": "electric_scooter", "lon": -77.00068283333333, "bike_id": "adeff2894a94ac662b7f352dbb637b10", "rental_uris": {"android": "https://dc.lft.to/lastmile_qr_scan", "ios": "https://dc.lft.to/lastmile_qr_scan"}, "name": "adeff2894a94ac662b7f352dbb637b10", "is_reserved": 0}, {"is_disabled": 0, "fusion_lon": 0.0, "fusion_lat": 0.0, "lat": 38.92025233333333, "type": "electric_scooter", "lon": -77.031246, "bike_id": "fb28d3eda404d7b711d603d06623cf54", "rental_uris": {"android": "https://dc.lft.to/lastmile_qr_scan", "ios": "https://dc.lft.to/lastmile_qr_scan"}, "name": "fb28d3eda404d7b711d603d06623cf54", "is_reserved": 0}, {"is_disabled": 0, "fusion_lon": 0.0, "fusion_lat": 0.0, "lat": 38.91986983333334, "type": "electric_scooter", "lon": -76.973144, "bike_id": "850f0d4750f175cffdb8ed1ba3a40cfc", "rental_uris": {"android": "https://dc.lft.to/lastmile_qr_scan", "ios": "https://dc.lft.to/lastmile_qr_scan"}, "name": "850f0d4750f175cffdb8ed1ba3a40cfc", "is_reserved": 0}, {"is_disabled": 0, "fusion_lon": 0.0, "fusion_lat": 0.0, "lat": 38.8949605, "type": "electric_scooter", "lon": -77.00946966666666, "bike_id": "a76a1c46763c3c95037b79a1dc7979b0", "rental_uris": {"android": "https://dc.lft.to/lastmile_qr_scan", "ios": "https://dc.lft.to/lastmile_qr_scan"}, "name": "a76a1c46763c3c95037b79a1dc7979b0", "is_reserved": 0}, {"is_disabled": 0, "fusion_lon": 0.0, "fusion_lat": 0.0, "lat": 38.93000716666667, "type": "electric_scooter", "lon": -77.02404433333334, "bike_id": "f91fbb22c3b89d1ce28b5c269f0b632f", "rental_uris": {"android": "https://dc.lft.to/lastmile_qr_scan", "ios": "https://dc.lft.to/lastmile_qr_scan"}, "name": "f91fbb22c3b89d1ce28b5c269f0b632f", "is_reserved": 0}, {"is_disabled": 0, "fusion_lon": 0.0, "fusion_lat": 0.0, "lat": 38.90047233333333, "type": "electric_scooter", "lon": -76.98318483333334, "bike_id": "287b3c679be39a579d2ed328cd6af48c", "rental_uris": {"android": "https://dc.lft.to/lastmile_qr_scan", "ios": "https://dc.lft.to/lastmile_qr_scan"}, "name": "287b3c679be39a579d2ed328cd6af48c", "is_reserved": 0}, {"is_disabled": 0, "fusion_lon": 0.0, "fusion_lat": 0.0, "lat": 38.92119483333333, "type": "electric_scooter", "lon": -77.0120875, "bike_id": "be79c350c9cacab2031242debfc82b0b", "rental_uris": {"android": "https://dc.lft.to/lastmile_qr_scan", "ios": "https://dc.lft.to/lastmile_qr_scan"}, "name": "be79c350c9cacab2031242debfc82b0b", "is_reserved": 0}, {"is_disabled": 0, "fusion_lon": 0.0, "fusion_lat": 0.0, "lat": 38.88741816666667, "type": "electric_scooter", "lon": -77.02623533333333, "bike_id": "6eec6b6c58e3ec70a69cbe968c995a3d", "rental_uris": {"android": "https://dc.lft.to/lastmile_qr_scan", "ios": "https://dc.lft.to/lastmile_qr_scan"}, "name": "6eec6b6c58e3ec70a69cbe968c995a3d", "is_reserved": 0}, {"is_disabled": 0, "fusion_lon": 0.0, "fusion_lat": 0.0, "lat": 38.904325666666665, "type": "electric_scooter", "lon": -77.0189805, "bike_id": "e8fad682e84bafdde0216c25a9f9074d", "rental_uris": {"android": "https://dc.lft.to/lastmile_qr_scan", "ios": "https://dc.lft.to/lastmile_qr_scan"}, "name": "e8fad682e84bafdde0216c25a9f9074d", "is_reserved": 0}, {"is_disabled": 0, "fusion_lon": 0.0, "fusion_lat": 0.0, "lat": 38.9011835, "type": "electric_scooter", "lon": -77.023848, "bike_id": "926e0c02a2cc39a80ee073ff64f30ab2", "rental_uris": {"android": "https://dc.lft.to/lastmile_qr_scan", "ios": "https://dc.lft.to/lastmile_qr_scan"}, "name": "926e0c02a2cc39a80ee073ff64f30ab2", "is_reserved": 0}, {"is_disabled": 0, "fusion_lon": 0.0, "fusion_lat": 0.0, "lat": 38.905340333333335, "type": "electric_scooter", "lon": -77.02226783333333, "bike_id": "eab6736c5a0afa7cf8fcd39b26102e77", "rental_uris": {"android": "https://dc.lft.to/lastmile_qr_scan", "ios": "https://dc.lft.to/lastmile_qr_scan"}, "name": "eab6736c5a0afa7cf8fcd39b26102e77", "is_reserved": 0}, {"is_disabled": 0, "fusion_lon": 0.0, "fusion_lat": 0.0, "lat": 38.923425333333334, "type": "electric_scooter", "lon": -77.05061016666667, "bike_id": "ab12ec35a5eb3f6d42092fbc05069020", "rental_uris": {"android": "https://dc.lft.to/lastmile_qr_scan", "ios": "https://dc.lft.to/lastmile_qr_scan"}, "name": "ab12ec35a5eb3f6d42092fbc05069020", "is_reserved": 0}, {"is_disabled": 0, "fusion_lon": 0.0, "fusion_lat": 0.0, "lat": 38.936393, "type": "electric_bike", "lon": -76.95453283333333, "bike_id": "6f922ab677359dbc7b3fa3bb124ed495", "rental_uris": {"android": "https://dc.lft.to/lastmile_qr_scan", "ios": "https://dc.lft.to/lastmile_qr_scan"}, "name": "6f922ab677359dbc7b3fa3bb124ed495", "is_reserved": 0}, {"is_disabled": 0, "fusion_lon": 0.0, "fusion_lat": 0.0, "lat": 38.913500166666665, "type": "electric_scooter", "lon": -77.03180916666666, "bike_id": "73f4f8d1b9b73537e18778bce1d5bec5", "rental_uris": {"android": "https://dc.lft.to/lastmile_qr_scan", "ios": "https://dc.lft.to/lastmile_qr_scan"}, "name": "73f4f8d1b9b73537e18778bce1d5bec5", "is_reserved": 0}, {"is_disabled": 0, "fusion_lon": 0.0, "fusion_lat": 0.0, "lat": 38.87881383333333, "type": "electric_scooter", "lon": -77.02324283333333, "bike_id": "4c71c8d04bbb815d13d01de0a6da0ced", "rental_uris": {"android": "https://dc.lft.to/lastmile_qr_scan", "ios": "https://dc.lft.to/lastmile_qr_scan"}, "name": "4c71c8d04bbb815d13d01de0a6da0ced", "is_reserved": 0}, {"is_disabled": 0, "fusion_lon": 0.0, "fusion_lat": 0.0, "lat": 38.912558833333335, "type": "electric_scooter", "lon": -77.0386525, "bike_id": "162b28fbaded5fd6c6f48641f9e329f7", "rental_uris": {"android": "https://dc.lft.to/lastmile_qr_scan", "ios": "https://dc.lft.to/lastmile_qr_scan"}, "name": "162b28fbaded5fd6c6f48641f9e329f7", "is_reserved": 0}, {"is_disabled": 0, "fusion_lon": 0.0, "fusion_lat": 0.0, "lat": 38.832887666666664, "type": "electric_scooter", "lon": -77.00824533333333, "bike_id": "b575e667e7283447e4c55272cefd0bfd", "rental_uris": {"android": "https://dc.lft.to/lastmile_qr_scan", "ios": "https://dc.lft.to/lastmile_qr_scan"}, "name": "b575e667e7283447e4c55272cefd0bfd", "is_reserved": 0}, {"is_disabled": 0, "fusion_lon": 0.0, "fusion_lat": 0.0, "lat": 38.94577433333333, "type": "electric_bike", "lon": -76.98774666666667, "bike_id": "80923edabe5ae29ed043785b1cad3894", "rental_uris": {"android": "https://dc.lft.to/lastmile_qr_scan", "ios": "https://dc.lft.to/lastmile_qr_scan"}, "name": "80923edabe5ae29ed043785b1cad3894", "is_reserved": 0}, {"is_disabled": 0, "fusion_lon": 0.0, "fusion_lat": 0.0, "lat": 38.91055383333333, "type": "electric_scooter", "lon": -77.05445683333333, "bike_id": "722c60ebd448098d6ce8fc18ea35ad24", "rental_uris": {"android": "https://dc.lft.to/lastmile_qr_scan", "ios": "https://dc.lft.to/lastmile_qr_scan"}, "name": "722c60ebd448098d6ce8fc18ea35ad24", "is_reserved": 0}, {"is_disabled": 0, "fusion_lon": 0.0, "fusion_lat": 0.0, "lat": 38.962823, "type": "electric_bike", "lon": -77.0287145, "bike_id": "2912b27a3d1f328a1e394901809f0dc4", "rental_uris": {"android": "https://dc.lft.to/lastmile_qr_scan", "ios": "https://dc.lft.to/lastmile_qr_scan"}, "name": "2912b27a3d1f328a1e394901809f0dc4", "is_reserved": 0}, {"is_disabled": 0, "fusion_lon": 0.0, "fusion_lat": 0.0, "lat": 38.90510116666667, "type": "electric_scooter", "lon": -77.060243, "bike_id": "dc5119ee8ffc22790c2a8bc793247ed6", "rental_uris": {"android": "https://dc.lft.to/lastmile_qr_scan", "ios": "https://dc.lft.to/lastmile_qr_scan"}, "name": "dc5119ee8ffc22790c2a8bc793247ed6", "is_reserved": 0}, {"is_disabled": 0, "fusion_lon": 0.0, "fusion_lat": 0.0, "lat": 38.898944666666665, "type": "electric_scooter", "lon": -76.93181266666667, "bike_id": "6732c881e5b655aff342d4d0117ad1f7", "rental_uris": {"android": "https://dc.lft.to/lastmile_qr_scan", "ios": "https://dc.lft.to/lastmile_qr_scan"}, "name": "6732c881e5b655aff342d4d0117ad1f7", "is_reserved": 0}, {"is_disabled": 0, "fusion_lon": 0.0, "fusion_lat": 0.0, "lat": 38.93454716666667, "type": "electric_scooter", "lon": -77.03013833333333, "bike_id": "6aa87780863593f19bedfb4b348f55b3", "rental_uris": {"android": "https://dc.lft.to/lastmile_qr_scan", "ios": "https://dc.lft.to/lastmile_qr_scan"}, "name": "6aa87780863593f19bedfb4b348f55b3", "is_reserved": 0}, {"is_disabled": 0, "fusion_lon": 0.0, "fusion_lat": 0.0, "lat": 38.88406166666667, "type": "electric_scooter", "lon": -77.01975683333333, "bike_id": "2009d9e2d68d640f4a8d2c80e8fe4962", "rental_uris": {"android": "https://dc.lft.to/lastmile_qr_scan", "ios": "https://dc.lft.to/lastmile_qr_scan"}, "name": "2009d9e2d68d640f4a8d2c80e8fe4962", "is_reserved": 0}, {"is_disabled": 0, "fusion_lon": 0.0, "fusion_lat": 0.0, "lat": 38.90346433333333, "type": "electric_scooter", "lon": -77.025882, "bike_id": "8fdcf611b8998513d6bb6684c1ec9d7e", "rental_uris": {"android": "https://dc.lft.to/lastmile_qr_scan", "ios": "https://dc.lft.to/lastmile_qr_scan"}, "name": "8fdcf611b8998513d6bb6684c1ec9d7e", "is_reserved": 0}, {"is_disabled": 0, "fusion_lon": 0.0, "fusion_lat": 0.0, "lat": 38.9256915, "type": "electric_scooter", "lon": -77.03767733333333, "bike_id": "77826c30f0a5058e25dc2c89ff9eb375", "rental_uris": {"android": "https://dc.lft.to/lastmile_qr_scan", "ios": "https://dc.lft.to/lastmile_qr_scan"}, "name": "77826c30f0a5058e25dc2c89ff9eb375", "is_reserved": 0}, {"is_disabled": 0, "fusion_lon": 0.0, "fusion_lat": 0.0, "lat": 38.91726466666667, "type": "electric_scooter", "lon": -77.0297055, "bike_id": "d903d1a60a0a7b33d24f0c510204daae", "rental_uris": {"android": "https://dc.lft.to/lastmile_qr_scan", "ios": "https://dc.lft.to/lastmile_qr_scan"}, "name": "d903d1a60a0a7b33d24f0c510204daae", "is_reserved": 0}, {"is_disabled": 0, "fusion_lon": 0.0, "fusion_lat": 0.0, "lat": 38.90963583333333, "type": "electric_scooter", "lon": -77.04847166666667, "bike_id": "29ee9fdacb5dfde0d30e7caf8ae8fc40", "rental_uris": {"android": "https://dc.lft.to/lastmile_qr_scan", "ios": "https://dc.lft.to/lastmile_qr_scan"}, "name": "29ee9fdacb5dfde0d30e7caf8ae8fc40", "is_reserved": 0}, {"is_disabled": 0, "fusion_lon": 0.0, "fusion_lat": 0.0, "lat": 38.8947165, "type": "electric_scooter", "lon": -76.93304516666667, "bike_id": "7f919a19a91c8a71f7fd3423cb3dc564", "rental_uris": {"android": "https://dc.lft.to/lastmile_qr_scan", "ios": "https://dc.lft.to/lastmile_qr_scan"}, "name": "7f919a19a91c8a71f7fd3423cb3dc564", "is_reserved": 0}, {"is_disabled": 0, "fusion_lon": 0.0, "fusion_lat": 0.0, "lat": 38.8947845, "type": "electric_scooter", "lon": -77.0216715, "bike_id": "e97b3af3c49efa5e6403ff9d5f77a009", "rental_uris": {"android": "https://dc.lft.to/lastmile_qr_scan", "ios": "https://dc.lft.to/lastmile_qr_scan"}, "name": "e97b3af3c49efa5e6403ff9d5f77a009", "is_reserved": 0}, {"is_disabled": 0, "fusion_lon": 0.0, "fusion_lat": 0.0, "lat": 38.89800916666667, "type": "electric_scooter", "lon": -77.011836, "bike_id": "35519f996b0f6dec2a061cde4896492a", "rental_uris": {"android": "https://dc.lft.to/lastmile_qr_scan", "ios": "https://dc.lft.to/lastmile_qr_scan"}, "name": "35519f996b0f6dec2a061cde4896492a", "is_reserved": 0}, {"is_disabled": 0, "fusion_lon": 0.0, "fusion_lat": 0.0, "lat": 38.87896333333333, "type": "electric_scooter", "lon": -76.93524216666667, "bike_id": "5f25eab7713bb7d67f4db8bcaa38cbe9", "rental_uris": {"android": "https://dc.lft.to/lastmile_qr_scan", "ios": "https://dc.lft.to/lastmile_qr_scan"}, "name": "5f25eab7713bb7d67f4db8bcaa38cbe9", "is_reserved": 0}, {"is_disabled": 0, "fusion_lon": 0.0, "fusion_lat": 0.0, "lat": 38.94301033333333, "type": "electric_scooter", "lon": -77.025307, "bike_id": "30ce38e0bdd8123d583fe915f83a2158", "rental_uris": {"android": "https://dc.lft.to/lastmile_qr_scan", "ios": "https://dc.lft.to/lastmile_qr_scan"}, "name": "30ce38e0bdd8123d583fe915f83a2158", "is_reserved": 0}, {"is_disabled": 0, "fusion_lon": 0.0, "fusion_lat": 0.0, "lat": 38.88600183333333, "type": "electric_scooter", "lon": -76.99721766666667, "bike_id": "dc8c449df7f0c73b8275c4b2779f6d05", "rental_uris": {"android": "https://dc.lft.to/lastmile_qr_scan", "ios": "https://dc.lft.to/lastmile_qr_scan"}, "name": "dc8c449df7f0c73b8275c4b2779f6d05", "is_reserved": 0}, {"is_disabled": 0, "fusion_lon": 0.0, "fusion_lat": 0.0, "lat": 38.91603833333333, "type": "electric_scooter", "lon": -77.02343283333333, "bike_id": "0b9f493d1ee07c5859c7c0e55b6cdfca", "rental_uris": {"android": "https://dc.lft.to/lastmile_qr_scan", "ios": "https://dc.lft.to/lastmile_qr_scan"}, "name": "0b9f493d1ee07c5859c7c0e55b6cdfca", "is_reserved": 0}, {"is_disabled": 0, "fusion_lon": 0.0, "fusion_lat": 0.0, "lat": 38.858695833333336, "type": "electric_scooter", "lon": -76.990218, "bike_id": "6fb95dfcc601bed8ac6a97495e51cab8", "rental_uris": {"android": "https://dc.lft.to/lastmile_qr_scan", "ios": "https://dc.lft.to/lastmile_qr_scan"}, "name": "6fb95dfcc601bed8ac6a97495e51cab8", "is_reserved": 0}, {"is_disabled": 0, "fusion_lon": 0.0, "fusion_lat": 0.0, "lat": 38.905374, "type": "electric_bike", "lon": -77.05338116666667, "bike_id": "2bd7a096492a8d868328be4b3dbd7903", "rental_uris": {"android": "https://dc.lft.to/lastmile_qr_scan", "ios": "https://dc.lft.to/lastmile_qr_scan"}, "name": "2bd7a096492a8d868328be4b3dbd7903", "is_reserved": 0}, {"is_disabled": 0, "fusion_lon": 0.0, "fusion_lat": 0.0, "lat": 38.936658333333334, "type": "electric_scooter", "lon": -77.03263683333333, "bike_id": "6fb4a60f6f6c639ed57c7881307b89ec", "rental_uris": {"android": "https://dc.lft.to/lastmile_qr_scan", "ios": "https://dc.lft.to/lastmile_qr_scan"}, "name": "6fb4a60f6f6c639ed57c7881307b89ec", "is_reserved": 0}, {"is_disabled": 0, "fusion_lon": 0.0, "fusion_lat": 0.0, "lat": 38.9062035, "type": "electric_scooter", "lon": -77.03209966666667, "bike_id": "272dc97a8656f0dfb53007ec936a5ea9", "rental_uris": {"android": "https://dc.lft.to/lastmile_qr_scan", "ios": "https://dc.lft.to/lastmile_qr_scan"}, "name": "272dc97a8656f0dfb53007ec936a5ea9", "is_reserved": 0}, {"is_disabled": 0, "fusion_lon": 0.0, "fusion_lat": 0.0, "lat": 38.90563083333333, "type": "electric_scooter", "lon": -77.06597, "bike_id": "4af9d59d9b0b3489ee6eb01be6e9d804", "rental_uris": {"android": "https://dc.lft.to/lastmile_qr_scan", "ios": "https://dc.lft.to/lastmile_qr_scan"}, "name": "4af9d59d9b0b3489ee6eb01be6e9d804", "is_reserved": 0}, {"is_disabled": 0, "fusion_lon": 0.0, "fusion_lat": 0.0, "lat": 38.9132485, "type": "electric_scooter", "lon": -77.04162866666667, "bike_id": "a9efba1d4bb5a6c134ba6b28ef2cd728", "rental_uris": {"android": "https://dc.lft.to/lastmile_qr_scan", "ios": "https://dc.lft.to/lastmile_qr_scan"}, "name": "a9efba1d4bb5a6c134ba6b28ef2cd728", "is_reserved": 0}, {"is_disabled": 0, "fusion_lon": 0.0, "fusion_lat": 0.0, "lat": 38.91240966666667, "type": "electric_scooter", "lon": -76.9844825, "bike_id": "1fdeaa3b7ebe0841be6647158418f291", "rental_uris": {"android": "https://dc.lft.to/lastmile_qr_scan", "ios": "https://dc.lft.to/lastmile_qr_scan"}, "name": "1fdeaa3b7ebe0841be6647158418f291", "is_reserved": 0}, {"is_disabled": 0, "fusion_lon": 0.0, "fusion_lat": 0.0, "lat": 38.87075766666667, "type": "electric_bike", "lon": -77.14341933333333, "bike_id": "4f1ab980444c50a4c4a57cd8bc122871", "rental_uris": {"android": "https://dc.lft.to/lastmile_qr_scan", "ios": "https://dc.lft.to/lastmile_qr_scan"}, "name": "4f1ab980444c50a4c4a57cd8bc122871", "is_reserved": 0}, {"is_disabled": 0, "fusion_lon": 0.0, "fusion_lat": 0.0, "lat": 38.8796925, "type": "electric_scooter", "lon": -77.02425416666667, "bike_id": "32f82a2569f51b0315c63c8e47d96780", "rental_uris": {"android": "https://dc.lft.to/lastmile_qr_scan", "ios": "https://dc.lft.to/lastmile_qr_scan"}, "name": "32f82a2569f51b0315c63c8e47d96780", "is_reserved": 0}, {"is_disabled": 0, "fusion_lon": 0.0, "fusion_lat": 0.0, "lat": 38.913143, "type": "electric_scooter", "lon": -77.03210416666667, "bike_id": "5a7fa5b52e6e9fe4b6aa1b8f0a1e34f5", "rental_uris": {"android": "https://dc.lft.to/lastmile_qr_scan", "ios": "https://dc.lft.to/lastmile_qr_scan"}, "name": "5a7fa5b52e6e9fe4b6aa1b8f0a1e34f5", "is_reserved": 0}, {"is_disabled": 0, "fusion_lon": 0.0, "fusion_lat": 0.0, "lat": 38.949259833333336, "type": "electric_scooter", "lon": -77.01866183333334, "bike_id": "a614929bbd8b6f9d403067f59b8ed063", "rental_uris": {"android": "https://dc.lft.to/lastmile_qr_scan", "ios": "https://dc.lft.to/lastmile_qr_scan"}, "name": "a614929bbd8b6f9d403067f59b8ed063", "is_reserved": 0}, {"is_disabled": 0, "fusion_lon": 0.0, "fusion_lat": 0.0, "lat": 38.92172733333334, "type": "electric_scooter", "lon": -77.05526483333334, "bike_id": "da8373d9a4b3103572fcb1910ba8774c", "rental_uris": {"android": "https://dc.lft.to/lastmile_qr_scan", "ios": "https://dc.lft.to/lastmile_qr_scan"}, "name": "da8373d9a4b3103572fcb1910ba8774c", "is_reserved": 0}, {"is_disabled": 0, "fusion_lon": 0.0, "fusion_lat": 0.0, "lat": 38.893550166666664, "type": "electric_scooter", "lon": -76.949448, "bike_id": "ef5d44f4ee53569d807e9e58fdd170d5", "rental_uris": {"android": "https://dc.lft.to/lastmile_qr_scan", "ios": "https://dc.lft.to/lastmile_qr_scan"}, "name": "ef5d44f4ee53569d807e9e58fdd170d5", "is_reserved": 0}, {"is_disabled": 0, "fusion_lon": 0.0, "fusion_lat": 0.0, "lat": 38.91762833333333, "type": "electric_scooter", "lon": -77.00495783333334, "bike_id": "31c2c6cf1823e518d2b79684341a3d16", "rental_uris": {"android": "https://dc.lft.to/lastmile_qr_scan", "ios": "https://dc.lft.to/lastmile_qr_scan"}, "name": "31c2c6cf1823e518d2b79684341a3d16", "is_reserved": 0}, {"is_disabled": 0, "fusion_lon": 0.0, "fusion_lat": 0.0, "lat": 38.89539366666666, "type": "electric_scooter", "lon": -77.00900866666667, "bike_id": "fd4ee6b268bcc00082abf1dde3f0cd52", "rental_uris": {"android": "https://dc.lft.to/lastmile_qr_scan", "ios": "https://dc.lft.to/lastmile_qr_scan"}, "name": "fd4ee6b268bcc00082abf1dde3f0cd52", "is_reserved": 0}, {"is_disabled": 0, "fusion_lon": 0.0, "fusion_lat": 0.0, "lat": 38.92886266666667, "type": "electric_scooter", "lon": -77.03333633333334, "bike_id": "0916887a2c9f51a45a2dd69c01aecc5a", "rental_uris": {"android": "https://dc.lft.to/lastmile_qr_scan", "ios": "https://dc.lft.to/lastmile_qr_scan"}, "name": "0916887a2c9f51a45a2dd69c01aecc5a", "is_reserved": 0}, {"is_disabled": 0, "fusion_lon": 0.0, "fusion_lat": 0.0, "lat": 38.90157216666667, "type": "electric_scooter", "lon": -77.0592355, "bike_id": "22736fd319ffc2c477e314ce3711f812", "rental_uris": {"android": "https://dc.lft.to/lastmile_qr_scan", "ios": "https://dc.lft.to/lastmile_qr_scan"}, "name": "22736fd319ffc2c477e314ce3711f812", "is_reserved": 0}, {"is_disabled": 0, "fusion_lon": 0.0, "fusion_lat": 0.0, "lat": 38.920572166666666, "type": "electric_scooter", "lon": -77.02438666666667, "bike_id": "d8ca2597f260457133fc335910f1cca5", "rental_uris": {"android": "https://dc.lft.to/lastmile_qr_scan", "ios": "https://dc.lft.to/lastmile_qr_scan"}, "name": "d8ca2597f260457133fc335910f1cca5", "is_reserved": 0}, {"is_disabled": 0, "fusion_lon": 0.0, "fusion_lat": 0.0, "lat": 38.9945535, "type": "electric_bike", "lon": -76.90813666666666, "bike_id": "7608340960f58a51998ee93f7e1e8fe5", "rental_uris": {"android": "https://dc.lft.to/lastmile_qr_scan", "ios": "https://dc.lft.to/lastmile_qr_scan"}, "name": "7608340960f58a51998ee93f7e1e8fe5", "is_reserved": 0}, {"is_disabled": 0, "fusion_lon": 0.0, "fusion_lat": 0.0, "lat": 38.85988316666667, "type": "electric_bike", "lon": -76.97053683333333, "bike_id": "af906b136b5d43628229c3f622f64ed3", "rental_uris": {"android": "https://dc.lft.to/lastmile_qr_scan", "ios": "https://dc.lft.to/lastmile_qr_scan"}, "name": "af906b136b5d43628229c3f622f64ed3", "is_reserved": 0}, {"is_disabled": 0, "fusion_lon": 0.0, "fusion_lat": 0.0, "lat": 38.9006415, "type": "electric_scooter", "lon": -77.04891116666667, "bike_id": "8239ff31b5080c57b7194d51d59bbea9", "rental_uris": {"android": "https://dc.lft.to/lastmile_qr_scan", "ios": "https://dc.lft.to/lastmile_qr_scan"}, "name": "8239ff31b5080c57b7194d51d59bbea9", "is_reserved": 0}, {"is_disabled": 0, "fusion_lon": 0.0, "fusion_lat": 0.0, "lat": 38.932549333333334, "type": "electric_scooter", "lon": -77.04009583333334, "bike_id": "7f9b99ba403cd05c1a0ad3b3c404d6b9", "rental_uris": {"android": "https://dc.lft.to/lastmile_qr_scan", "ios": "https://dc.lft.to/lastmile_qr_scan"}, "name": "7f9b99ba403cd05c1a0ad3b3c404d6b9", "is_reserved": 0}, {"is_disabled": 0, "fusion_lon": 0.0, "fusion_lat": 0.0, "lat": 38.91910133333333, "type": "electric_scooter", "lon": -77.02968816666667, "bike_id": "3ef01f74f1aff90374ad5789da61a39e", "rental_uris": {"android": "https://dc.lft.to/lastmile_qr_scan", "ios": "https://dc.lft.to/lastmile_qr_scan"}, "name": "3ef01f74f1aff90374ad5789da61a39e", "is_reserved": 0}, {"is_disabled": 0, "fusion_lon": 0.0, "fusion_lat": 0.0, "lat": 38.88008816666667, "type": "electric_bike", "lon": -76.9159445, "bike_id": "8ec5a138ba0092417850d83e978c6e75", "rental_uris": {"android": "https://dc.lft.to/lastmile_qr_scan", "ios": "https://dc.lft.to/lastmile_qr_scan"}, "name": "8ec5a138ba0092417850d83e978c6e75", "is_reserved": 0}, {"is_disabled": 0, "fusion_lon": 0.0, "fusion_lat": 0.0, "lat": 38.9256325, "type": "electric_scooter", "lon": -77.02281316666667, "bike_id": "943c00a0e878e5a622b07a34f4bdc8eb", "rental_uris": {"android": "https://dc.lft.to/lastmile_qr_scan", "ios": "https://dc.lft.to/lastmile_qr_scan"}, "name": "943c00a0e878e5a622b07a34f4bdc8eb", "is_reserved": 0}, {"is_disabled": 0, "fusion_lon": 0.0, "fusion_lat": 0.0, "lat": 38.8624645, "type": "electric_scooter", "lon": -76.994993, "bike_id": "d62633d14ab9b6b79966b6390991aea8", "rental_uris": {"android": "https://dc.lft.to/lastmile_qr_scan", "ios": "https://dc.lft.to/lastmile_qr_scan"}, "name": "d62633d14ab9b6b79966b6390991aea8", "is_reserved": 0}, {"is_disabled": 0, "fusion_lon": 0.0, "fusion_lat": 0.0, "lat": 38.8860425, "type": "electric_scooter", "lon": -76.99723966666667, "bike_id": "897850f1859c863b6cef59bed7b70bb6", "rental_uris": {"android": "https://dc.lft.to/lastmile_qr_scan", "ios": "https://dc.lft.to/lastmile_qr_scan"}, "name": "897850f1859c863b6cef59bed7b70bb6", "is_reserved": 0}, {"is_disabled": 0, "fusion_lon": 0.0, "fusion_lat": 0.0, "lat": 38.91109566666667, "type": "electric_scooter", "lon": -77.028578, "bike_id": "9cfe36ba92ab5b8ed27f226978956de5", "rental_uris": {"android": "https://dc.lft.to/lastmile_qr_scan", "ios": "https://dc.lft.to/lastmile_qr_scan"}, "name": "9cfe36ba92ab5b8ed27f226978956de5", "is_reserved": 0}, {"is_disabled": 0, "fusion_lon": 0.0, "fusion_lat": 0.0, "lat": 38.950443666666665, "type": "electric_scooter", "lon": -77.022951, "bike_id": "f3b9fea309cde4a6173a74d9c43b00f6", "rental_uris": {"android": "https://dc.lft.to/lastmile_qr_scan", "ios": "https://dc.lft.to/lastmile_qr_scan"}, "name": "f3b9fea309cde4a6173a74d9c43b00f6", "is_reserved": 0}, {"is_disabled": 0, "fusion_lon": 0.0, "fusion_lat": 0.0, "lat": 38.8834685, "type": "electric_scooter", "lon": -76.92784133333333, "bike_id": "de270dd673a685506ce21dbbdeea74bd", "rental_uris": {"android": "https://dc.lft.to/lastmile_qr_scan", "ios": "https://dc.lft.to/lastmile_qr_scan"}, "name": "de270dd673a685506ce21dbbdeea74bd", "is_reserved": 0}, {"is_disabled": 0, "fusion_lon": 0.0, "fusion_lat": 0.0, "lat": 38.901331666666664, "type": "electric_scooter", "lon": -77.040683, "bike_id": "808b5e16debc89060a0f83e73ec02108", "rental_uris": {"android": "https://dc.lft.to/lastmile_qr_scan", "ios": "https://dc.lft.to/lastmile_qr_scan"}, "name": "808b5e16debc89060a0f83e73ec02108", "is_reserved": 0}, {"is_disabled": 0, "fusion_lon": 0.0, "fusion_lat": 0.0, "lat": 38.913829166666666, "type": "electric_scooter", "lon": -77.02975566666667, "bike_id": "5acbb31f8ec70518f87e37e8686eb487", "rental_uris": {"android": "https://dc.lft.to/lastmile_qr_scan", "ios": "https://dc.lft.to/lastmile_qr_scan"}, "name": "5acbb31f8ec70518f87e37e8686eb487", "is_reserved": 0}, {"is_disabled": 0, "fusion_lon": 0.0, "fusion_lat": 0.0, "lat": 38.927111, "type": "electric_scooter", "lon": -76.972061, "bike_id": "b112cadaf354c8f48a6a203e6815abbd", "rental_uris": {"android": "https://dc.lft.to/lastmile_qr_scan", "ios": "https://dc.lft.to/lastmile_qr_scan"}, "name": "b112cadaf354c8f48a6a203e6815abbd", "is_reserved": 0}, {"is_disabled": 0, "fusion_lon": 0.0, "fusion_lat": 0.0, "lat": 38.898289, "type": "electric_scooter", "lon": -77.028169, "bike_id": "011b46c787ab914da1b488c5e4465fd9", "rental_uris": {"android": "https://dc.lft.to/lastmile_qr_scan", "ios": "https://dc.lft.to/lastmile_qr_scan"}, "name": "011b46c787ab914da1b488c5e4465fd9", "is_reserved": 0}, {"is_disabled": 0, "fusion_lon": 0.0, "fusion_lat": 0.0, "lat": 38.92941116666667, "type": "electric_scooter", "lon": -77.032754, "bike_id": "3012a653810d3142348ef1e839438d49", "rental_uris": {"android": "https://dc.lft.to/lastmile_qr_scan", "ios": "https://dc.lft.to/lastmile_qr_scan"}, "name": "3012a653810d3142348ef1e839438d49", "is_reserved": 0}, {"is_disabled": 0, "fusion_lon": 0.0, "fusion_lat": 0.0, "lat": 38.908295833333334, "type": "electric_scooter", "lon": -77.03350133333333, "bike_id": "7cf8f33aa49c34d735b689c8dc65ba48", "rental_uris": {"android": "https://dc.lft.to/lastmile_qr_scan", "ios": "https://dc.lft.to/lastmile_qr_scan"}, "name": "7cf8f33aa49c34d735b689c8dc65ba48", "is_reserved": 0}, {"is_disabled": 0, "fusion_lon": 0.0, "fusion_lat": 0.0, "lat": 38.90655533333333, "type": "electric_scooter", "lon": -77.02526316666666, "bike_id": "fdd8d2e1485c3ab6b7279d6e57a02fd1", "rental_uris": {"android": "https://dc.lft.to/lastmile_qr_scan", "ios": "https://dc.lft.to/lastmile_qr_scan"}, "name": "fdd8d2e1485c3ab6b7279d6e57a02fd1", "is_reserved": 0}, {"is_disabled": 0, "fusion_lon": 0.0, "fusion_lat": 0.0, "lat": 38.892618666666664, "type": "electric_scooter", "lon": -76.94153733333333, "bike_id": "d6252620e46b38a4938298a6854bb4dd", "rental_uris": {"android": "https://dc.lft.to/lastmile_qr_scan", "ios": "https://dc.lft.to/lastmile_qr_scan"}, "name": "d6252620e46b38a4938298a6854bb4dd", "is_reserved": 0}, {"is_disabled": 0, "fusion_lon": 0.0, "fusion_lat": 0.0, "lat": 38.928333333333335, "type": "electric_scooter", "lon": -77.01409433333333, "bike_id": "cfa17bef24a33b4f6a29a5f6a0abcdfa", "rental_uris": {"android": "https://dc.lft.to/lastmile_qr_scan", "ios": "https://dc.lft.to/lastmile_qr_scan"}, "name": "cfa17bef24a33b4f6a29a5f6a0abcdfa", "is_reserved": 0}, {"is_disabled": 0, "fusion_lon": 0.0, "fusion_lat": 0.0, "lat": 38.91122266666667, "type": "electric_scooter", "lon": -77.04717733333334, "bike_id": "4ea4a0212cbf24ab5c1afdf7e3529f34", "rental_uris": {"android": "https://dc.lft.to/lastmile_qr_scan", "ios": "https://dc.lft.to/lastmile_qr_scan"}, "name": "4ea4a0212cbf24ab5c1afdf7e3529f34", "is_reserved": 0}, {"is_disabled": 0, "fusion_lon": 0.0, "fusion_lat": 0.0, "lat": 38.908700333333336, "type": "electric_scooter", "lon": -77.032214, "bike_id": "06581cae2290971be52e70634fde329e", "rental_uris": {"android": "https://dc.lft.to/lastmile_qr_scan", "ios": "https://dc.lft.to/lastmile_qr_scan"}, "name": "06581cae2290971be52e70634fde329e", "is_reserved": 0}, {"is_disabled": 0, "fusion_lon": 0.0, "fusion_lat": 0.0, "lat": 38.8591635, "type": "electric_scooter", "lon": -76.987743, "bike_id": "a567a0f2734af4f60a90e2dc67c0cc5f", "rental_uris": {"android": "https://dc.lft.to/lastmile_qr_scan", "ios": "https://dc.lft.to/lastmile_qr_scan"}, "name": "a567a0f2734af4f60a90e2dc67c0cc5f", "is_reserved": 0}, {"is_disabled": 0, "fusion_lon": 0.0, "fusion_lat": 0.0, "lat": 38.924639666666664, "type": "electric_scooter", "lon": -77.0508235, "bike_id": "8cd4ad93ab4e6b75b4aede52ec1bd213", "rental_uris": {"android": "https://dc.lft.to/lastmile_qr_scan", "ios": "https://dc.lft.to/lastmile_qr_scan"}, "name": "8cd4ad93ab4e6b75b4aede52ec1bd213", "is_reserved": 0}, {"is_disabled": 0, "fusion_lon": 0.0, "fusion_lat": 0.0, "lat": 38.926058166666664, "type": "electric_scooter", "lon": -77.02155016666667, "bike_id": "8ccbaf662a10c336e05351293f9fe086", "rental_uris": {"android": "https://dc.lft.to/lastmile_qr_scan", "ios": "https://dc.lft.to/lastmile_qr_scan"}, "name": "8ccbaf662a10c336e05351293f9fe086", "is_reserved": 0}, {"is_disabled": 0, "fusion_lon": 0.0, "fusion_lat": 0.0, "lat": 38.87234566666667, "type": "electric_scooter", "lon": -77.00572866666667, "bike_id": "33384beadfcfa43b86f3f3a003773807", "rental_uris": {"android": "https://dc.lft.to/lastmile_qr_scan", "ios": "https://dc.lft.to/lastmile_qr_scan"}, "name": "33384beadfcfa43b86f3f3a003773807", "is_reserved": 0}, {"is_disabled": 0, "fusion_lon": 0.0, "fusion_lat": 0.0, "lat": 38.915502833333335, "type": "electric_scooter", "lon": -77.04157316666667, "bike_id": "bd207c51a59ffb8b9696eb120255678e", "rental_uris": {"android": "https://dc.lft.to/lastmile_qr_scan", "ios": "https://dc.lft.to/lastmile_qr_scan"}, "name": "bd207c51a59ffb8b9696eb120255678e", "is_reserved": 0}, {"is_disabled": 0, "fusion_lon": 0.0, "fusion_lat": 0.0, "lat": 38.929779833333335, "type": "electric_scooter", "lon": -77.03468583333333, "bike_id": "d331d8f1bde993a59a34b31a85355d34", "rental_uris": {"android": "https://dc.lft.to/lastmile_qr_scan", "ios": "https://dc.lft.to/lastmile_qr_scan"}, "name": "d331d8f1bde993a59a34b31a85355d34", "is_reserved": 0}, {"is_disabled": 0, "fusion_lon": 0.0, "fusion_lat": 0.0, "lat": 38.934355, "type": "electric_scooter", "lon": -77.07259266666667, "bike_id": "af14452f82c9ccc5bbd1fe9dffc22687", "rental_uris": {"android": "https://dc.lft.to/lastmile_qr_scan", "ios": "https://dc.lft.to/lastmile_qr_scan"}, "name": "af14452f82c9ccc5bbd1fe9dffc22687", "is_reserved": 0}, {"is_disabled": 0, "fusion_lon": 0.0, "fusion_lat": 0.0, "lat": 38.92826316666667, "type": "electric_scooter", "lon": -77.05436783333333, "bike_id": "05d60f71ffbd785ac95269cb2c676418", "rental_uris": {"android": "https://dc.lft.to/lastmile_qr_scan", "ios": "https://dc.lft.to/lastmile_qr_scan"}, "name": "05d60f71ffbd785ac95269cb2c676418", "is_reserved": 0}, {"is_disabled": 0, "fusion_lon": 0.0, "fusion_lat": 0.0, "lat": 38.915641666666666, "type": "electric_scooter", "lon": -77.0324895, "bike_id": "4fa4fc3b1ea4ad5f2f13b7a2fef53828", "rental_uris": {"android": "https://dc.lft.to/lastmile_qr_scan", "ios": "https://dc.lft.to/lastmile_qr_scan"}, "name": "4fa4fc3b1ea4ad5f2f13b7a2fef53828", "is_reserved": 0}, {"is_disabled": 0, "fusion_lon": 0.0, "fusion_lat": 0.0, "lat": 38.90132233333333, "type": "electric_scooter", "lon": -76.98839566666666, "bike_id": "12552fe8116441665c2bd90c4d468982", "rental_uris": {"android": "https://dc.lft.to/lastmile_qr_scan", "ios": "https://dc.lft.to/lastmile_qr_scan"}, "name": "12552fe8116441665c2bd90c4d468982", "is_reserved": 0}, {"is_disabled": 0, "fusion_lon": 0.0, "fusion_lat": 0.0, "lat": 38.9430415, "type": "electric_scooter", "lon": -77.0275935, "bike_id": "dd4e6de57b00e067ff51a39ad05c8e5e", "rental_uris": {"android": "https://dc.lft.to/lastmile_qr_scan", "ios": "https://dc.lft.to/lastmile_qr_scan"}, "name": "dd4e6de57b00e067ff51a39ad05c8e5e", "is_reserved": 0}, {"is_disabled": 0, "fusion_lon": 0.0, "fusion_lat": 0.0, "lat": 38.91939033333333, "type": "electric_bike", "lon": -76.97503883333333, "bike_id": "e58a64290240aeed0cd273abad17cbef", "rental_uris": {"android": "https://dc.lft.to/lastmile_qr_scan", "ios": "https://dc.lft.to/lastmile_qr_scan"}, "name": "e58a64290240aeed0cd273abad17cbef", "is_reserved": 0}, {"is_disabled": 0, "fusion_lon": 0.0, "fusion_lat": 0.0, "lat": 38.92063666666667, "type": "electric_scooter", "lon": -77.04356066666666, "bike_id": "c286d53a4a1b0acac1436a89d9e57363", "rental_uris": {"android": "https://dc.lft.to/lastmile_qr_scan", "ios": "https://dc.lft.to/lastmile_qr_scan"}, "name": "c286d53a4a1b0acac1436a89d9e57363", "is_reserved": 0}, {"is_disabled": 0, "fusion_lon": 0.0, "fusion_lat": 0.0, "lat": 38.90573883333333, "type": "electric_scooter", "lon": -77.03078516666666, "bike_id": "40982056db6bd5166754e57abca371b9", "rental_uris": {"android": "https://dc.lft.to/lastmile_qr_scan", "ios": "https://dc.lft.to/lastmile_qr_scan"}, "name": "40982056db6bd5166754e57abca371b9", "is_reserved": 0}, {"is_disabled": 0, "fusion_lon": 0.0, "fusion_lat": 0.0, "lat": 38.9189665, "type": "electric_scooter", "lon": -77.07116933333333, "bike_id": "2f004ec03fb5381e3e2bd1e54a6fee08", "rental_uris": {"android": "https://dc.lft.to/lastmile_qr_scan", "ios": "https://dc.lft.to/lastmile_qr_scan"}, "name": "2f004ec03fb5381e3e2bd1e54a6fee08", "is_reserved": 0}, {"is_disabled": 0, "fusion_lon": 0.0, "fusion_lat": 0.0, "lat": 38.869594666666664, "type": "electric_scooter", "lon": -76.96031683333334, "bike_id": "1a75bbb17afd6ca6e293522c44b12ed9", "rental_uris": {"android": "https://dc.lft.to/lastmile_qr_scan", "ios": "https://dc.lft.to/lastmile_qr_scan"}, "name": "1a75bbb17afd6ca6e293522c44b12ed9", "is_reserved": 0}, {"is_disabled": 0, "fusion_lon": 0.0, "fusion_lat": 0.0, "lat": 38.95542316666667, "type": "electric_bike", "lon": -76.935214, "bike_id": "5f5ed4788b810ce6a88e9f59e085a55c", "rental_uris": {"android": "https://dc.lft.to/lastmile_qr_scan", "ios": "https://dc.lft.to/lastmile_qr_scan"}, "name": "5f5ed4788b810ce6a88e9f59e085a55c", "is_reserved": 0}, {"is_disabled": 0, "fusion_lon": 0.0, "fusion_lat": 0.0, "lat": 38.92029566666667, "type": "electric_scooter", "lon": -77.03706283333334, "bike_id": "7b887fabb1c64cd2ce89e5d77ea7e404", "rental_uris": {"android": "https://dc.lft.to/lastmile_qr_scan", "ios": "https://dc.lft.to/lastmile_qr_scan"}, "name": "7b887fabb1c64cd2ce89e5d77ea7e404", "is_reserved": 0}, {"is_disabled": 0, "fusion_lon": 0.0, "fusion_lat": 0.0, "lat": 38.916863166666666, "type": "electric_scooter", "lon": -77.02694566666666, "bike_id": "adadad471be400b3a9e2b902a23722d3", "rental_uris": {"android": "https://dc.lft.to/lastmile_qr_scan", "ios": "https://dc.lft.to/lastmile_qr_scan"}, "name": "adadad471be400b3a9e2b902a23722d3", "is_reserved": 0}, {"is_disabled": 0, "fusion_lon": 0.0, "fusion_lat": 0.0, "lat": 38.916910666666666, "type": "electric_scooter", "lon": -77.03741966666666, "bike_id": "9a76a1ca3d60f2bccd1a3b4f5ae17d12", "rental_uris": {"android": "https://dc.lft.to/lastmile_qr_scan", "ios": "https://dc.lft.to/lastmile_qr_scan"}, "name": "9a76a1ca3d60f2bccd1a3b4f5ae17d12", "is_reserved": 0}, {"is_disabled": 0, "fusion_lon": 0.0, "fusion_lat": 0.0, "lat": 38.898511166666665, "type": "electric_scooter", "lon": -76.99032733333334, "bike_id": "6228e0c213a54ab71119887c57a953f3", "rental_uris": {"android": "https://dc.lft.to/lastmile_qr_scan", "ios": "https://dc.lft.to/lastmile_qr_scan"}, "name": "6228e0c213a54ab71119887c57a953f3", "is_reserved": 0}, {"is_disabled": 0, "fusion_lon": 0.0, "fusion_lat": 0.0, "lat": 38.82874116666667, "type": "electric_bike", "lon": -77.11224666666666, "bike_id": "cf9b64ee30bace2f0ae4fdabf83e9424", "rental_uris": {"android": "https://dc.lft.to/lastmile_qr_scan", "ios": "https://dc.lft.to/lastmile_qr_scan"}, "name": "cf9b64ee30bace2f0ae4fdabf83e9424", "is_reserved": 0}, {"is_disabled": 0, "fusion_lon": 0.0, "fusion_lat": 0.0, "lat": 38.96557383333333, "type": "electric_scooter", "lon": -77.0027325, "bike_id": "cff9e522e4d679d9deef51e40a9ce8a8", "rental_uris": {"android": "https://dc.lft.to/lastmile_qr_scan", "ios": "https://dc.lft.to/lastmile_qr_scan"}, "name": "cff9e522e4d679d9deef51e40a9ce8a8", "is_reserved": 0}, {"is_disabled": 0, "fusion_lon": 0.0, "fusion_lat": 0.0, "lat": 38.882696333333335, "type": "electric_scooter", "lon": -76.98541083333333, "bike_id": "d9b0986ebdf11a2b3e5927ac01921878", "rental_uris": {"android": "https://dc.lft.to/lastmile_qr_scan", "ios": "https://dc.lft.to/lastmile_qr_scan"}, "name": "d9b0986ebdf11a2b3e5927ac01921878", "is_reserved": 0}, {"is_disabled": 0, "fusion_lon": 0.0, "fusion_lat": 0.0, "lat": 38.932782, "type": "electric_scooter", "lon": -77.03978616666667, "bike_id": "f0e2f76fb35a4c99dfad80d8500f1e88", "rental_uris": {"android": "https://dc.lft.to/lastmile_qr_scan", "ios": "https://dc.lft.to/lastmile_qr_scan"}, "name": "f0e2f76fb35a4c99dfad80d8500f1e88", "is_reserved": 0}, {"is_disabled": 0, "fusion_lon": 0.0, "fusion_lat": 0.0, "lat": 38.90327083333333, "type": "electric_scooter", "lon": -77.02504966666666, "bike_id": "800614991b218b46c7263d15788ec352", "rental_uris": {"android": "https://dc.lft.to/lastmile_qr_scan", "ios": "https://dc.lft.to/lastmile_qr_scan"}, "name": "800614991b218b46c7263d15788ec352", "is_reserved": 0},