{"data": {"bikes": [{"lon": -76.978426, "bike_id": "4e8314019f97f18f86b3576ce5911644", "lat": 38.8658145, "fusion_lon": 0.0, "fusion_lat": 0.0, "type": "electric_bike", "name": "4e8314019f97f18f86b3576ce5911644", "is_disabled": 0, "rental_uris": {"ios": "https://dc.lft.to/lastmile_qr_scan", "android": "https://dc.lft.to/lastmile_qr_scan"}, "is_reserved": 0}, {"lon": -77.0585745, "bike_id": "c5bd10c0f766ef636f0724259fde1e4e", "lat": 38.936085, "fusion_lon": 0.0, "fusion_lat": 0.0, "type": "electric_scooter", "name": "c5bd10c0f766ef636f0724259fde1e4e", "is_disabled": 0, "rental_uris": {"ios": "https://dc.lft.to/lastmile_qr_scan", "android": "https://dc.lft.to/lastmile_qr_scan"}, "is_reserved": 0}, {"lon": -77.05030683333334, "bike_id": "d0cde2b132dbe64463c44c1e63d1dfbf", "lat": 38.89785766666667, "fusion_lon": 0.0, "fusion_lat": 0.0, "type": "electric_scooter", "name": "d0cde2b132dbe64463c44c1e63d1dfbf", "is_disabled": 0, "rental_uris": {"ios": "https://dc.lft.to/lastmile_qr_scan", "android": "https://dc.lft.to/lastmile_qr_scan"}, "is_reserved": 0}, {"lon": -77.0512605, "bike_id": "c3332e544de86259556ad2eb78a9a0cc", "lat": 38.923682166666666, "fusion_lon": 0.0, "fusion_lat": 0.0, "type": "electric_scooter", "name": "c3332e544de86259556ad2eb78a9a0cc", "is_disabled": 0, "rental_uris": {"ios": "https://dc.lft.to/lastmile_qr_scan", "android": "https://dc.lft.to/lastmile_qr_scan"}, "is_reserved": 0}, {"lon": -77.04141483333333, "bike_id": "4535dfc736ff4ce7b353851edd3da794", "lat": 38.92261083333333, "fusion_lon": 0.0, "fusion_lat": 0.0, "type": "electric_scooter", "name": "4535dfc736ff4ce7b353851edd3da794", "is_disabled": 0, "rental_uris": {"ios": "https://dc.lft.to/lastmile_qr_scan", "android": "https://dc.lft.to/lastmile_qr_scan"}, "is_reserved": 0}, {"lon": -77.03073866666666, "bike_id": "a3ac210809d6146c4218d5d3dc96e574", "lat": 38.88593316666667, "fusion_lon": 0.0, "fusion_lat": 0.0, "type": "electric_scooter", "name": "a3ac210809d6146c4218d5d3dc96e574", "is_disabled": 0, "rental_uris": {"ios": "https://dc.lft.to/lastmile_qr_scan", "android": "https://dc.lft.to/lastmile_qr_scan"}, "is_reserved": 0}, {"lon": -77.04864766666667, "bike_id": "838326389255ba7829eea604861000ad", "lat": 38.892259, "fusion_lon": 0.0, "fusion_lat": 0.0, "type": "electric_scooter", "name": "838326389255ba7829eea604861000ad", "is_disabled": 0, "rental_uris": {"ios": "https://dc.lft.to/lastmile_qr_scan", "android": "https://dc.lft.to/lastmile_qr_scan"}, "is_reserved": 0}, {"lon": -76.99773116666667, "bike_id": "126e3309fe8b3b83da1d11d310ac52d6", "lat": 38.92452516666667, "fusion_lon": 0.0, "fusion_lat": 0.0, "type": "electric_scooter", "name": "126e3309fe8b3b83da1d11d310ac52d6", "is_disabled": 0, "rental_uris": {"ios": "https://dc.lft.to/lastmile_qr_scan", "android": "https://dc.lft.to/lastmile_qr_scan"}, "is_reserved": 0}, {"lon": -77.0002995, "bike_id": "726d523d3e223c833103664d5c5c9a02", "lat": 38.873948, "fusion_lon": 0.0, "fusion_lat": 0.0, "type": "electric_scooter", "name": "726d523d3e223c833103664d5c5c9a02", "is_disabled": 0, "rental_uris": {"ios": "https://dc.lft.to/lastmile_qr_scan", "android": "https://dc.lft.to/lastmile_qr_scan"}, "is_reserved": 0}, {"lon": -77.0033675, "bike_id": "1d9983e13fe103d34ae6d4241111026b", "lat": 38.8952715, "fusion_lon": 0.0, "fusion_lat": 0.0, "type": "electric_scooter", "name": "1d9983e13fe103d34ae6d4241111026b", "is_disabled": 0, "rental_uris": {"ios": "https://dc.lft.to/lastmile_qr_scan", "android": "https://dc.lft.to/lastmile_qr_scan"}, "is_reserved": 0}, {"lon": -77.02988833333333, "bike_id": "eee1737c6d11f89f54f7c3287b43b257", "lat": 38.974412, "fusion_lon": 0.0, "fusion_lat": 0.0, "type": "electric_bike", "name": "eee1737c6d11f89f54f7c3287b43b257", "is_disabled": 0, "rental_uris": {"ios": "https://dc.lft.to/lastmile_qr_scan", "android": "https://dc.lft.to/lastmile_qr_scan"}, "is_reserved": 0}, {"lon": -77.023056, "bike_id": "178f95dce3cb2c7a90c0b1aa27453c80", "lat": 38.90959133333333, "fusion_lon": 0.0, "fusion_lat": 0.0, "type": "electric_scooter", "name": "178f95dce3cb2c7a90c0b1aa27453c80", "is_disabled": 0, "rental_uris": {"ios": "https://dc.lft.to/lastmile_qr_scan", "android": "https://dc.lft.to/lastmile_qr_scan"}, "is_reserved": 0}, {"lon": -77.0488275, "bike_id": "ab2daf2dea92cf78ad424d25add06d68", "lat": 38.904437, "fusion_lon": 0.0, "fusion_lat": 0.0, "type": "electric_scooter", "name": "ab2daf2dea92cf78ad424d25add06d68", "is_disabled": 0, "rental_uris": {"ios": "https://dc.lft.to/lastmile_qr_scan", "android": "https://dc.lft.to/lastmile_qr_scan"}, "is_reserved": 0}, {"lon": -76.98105516666666, "bike_id": "966f0d6d791f5fc1e43631b77e7b5186", "lat": 38.90406216666667, "fusion_lon": 0.0, "fusion_lat": 0.0, "type": "electric_scooter", "name": "966f0d6d791f5fc1e43631b77e7b5186", "is_disabled": 0, "rental_uris": {"ios": "https://dc.lft.to/lastmile_qr_scan", "android": "https://dc.lft.to/lastmile_qr_scan"}, "is_reserved": 0}, {"lon": -77.04108483333333, "bike_id": "8d27f92f9d7764e0a4b1997f41c03377", "lat": 38.934733, "fusion_lon": 0.0, "fusion_lat": 0.0, "type": "electric_scooter", "name": "8d27f92f9d7764e0a4b1997f41c03377", "is_disabled": 0, "rental_uris": {"ios": "https://dc.lft.to/lastmile_qr_scan", "android": "https://dc.lft.to/lastmile_qr_scan"}, "is_reserved": 0}, {"lon": -77.03631733333333, "bike_id": "c41b5ab6a9a1508563e151fc61cd713f", "lat": 38.94499483333333, "fusion_lon": 0.0, "fusion_lat": 0.0, "type": "electric_scooter", "name": "c41b5ab6a9a1508563e151fc61cd713f", "is_disabled": 0, "rental_uris": {"ios": "https://dc.lft.to/lastmile_qr_scan", "android": "https://dc.lft.to/lastmile_qr_scan"}, "is_reserved": 0}, {"lon": -77.02845416666666, "bike_id": "7c41a3583c6eddd6916e062fe553a162", "lat": 38.92758083333333, "fusion_lon": 0.0, "fusion_lat": 0.0, "type": "electric_scooter", "name": "7c41a3583c6eddd6916e062fe553a162", "is_disabled": 0, "rental_uris": {"ios": "https://dc.lft.to/lastmile_qr_scan", "android": "https://dc.lft.to/lastmile_qr_scan"}, "is_reserved": 0}, {"lon": -76.98631616666667, "bike_id": "322f4eebd50e14e401b6e9dd4363a9d9", "lat": 38.9016895, "fusion_lon": 0.0, "fusion_lat": 0.0, "type": "electric_scooter", "name": "322f4eebd50e14e401b6e9dd4363a9d9", "is_disabled": 0, "rental_uris": {"ios": "https://dc.lft.to/lastmile_qr_scan", "android": "https://dc.lft.to/lastmile_qr_scan"}, "is_reserved": 0}, {"lon": -77.0335515, "bike_id": "e18421d38b3910ed73886f0865cb6e53", "lat": 38.935846166666664, "fusion_lon": 0.0, "fusion_lat": 0.0, "type": "electric_scooter", "name": "e18421d38b3910ed73886f0865cb6e53", "is_disabled": 0, "rental_uris": {"ios": "https://dc.lft.to/lastmile_qr_scan", "android": "https://dc.lft.to/lastmile_qr_scan"}, "is_reserved": 0}, {"lon": -76.9771235, "bike_id": "d52c37801fff5402cfd375f323e33daf", "lat": 38.8877715, "fusion_lon": 0.0, "fusion_lat": 0.0, "type": "electric_scooter", "name": "d52c37801fff5402cfd375f323e33daf", "is_disabled": 0, "rental_uris": {"ios": "https://dc.lft.to/lastmile_qr_scan", "android": "https://dc.lft.to/lastmile_qr_scan"}, "is_reserved": 0}, {"lon": -77.0079465, "bike_id": "10a5df014ece3bb483476e9b7da6dcdc", "lat": 38.89645683333333, "fusion_lon": 0.0, "fusion_lat": 0.0, "type": "electric_scooter", "name": "10a5df014ece3bb483476e9b7da6dcdc", "is_disabled": 0, "rental_uris": {"ios": "https://dc.lft.to/lastmile_qr_scan", "android": "https://dc.lft.to/lastmile_qr_scan"}, "is_reserved": 0}, {"lon": -77.01105583333333, "bike_id": "2516f13697543c6965f6ec37660a5964", "lat": 38.8985495, "fusion_lon": 0.0, "fusion_lat": 0.0, "type": "electric_scooter", "name": "2516f13697543c6965f6ec37660a5964", "is_disabled": 0, "rental_uris": {"ios": "https://dc.lft.to/lastmile_qr_scan", "android": "https://dc.lft.to/lastmile_qr_scan"}, "is_reserved": 0}, {"lon": -77.02647133333333, "bike_id": "9bf4862703c47e75c162a63aa59a3470", "lat": 38.978043666666665, "fusion_lon": 0.0, "fusion_lat": 0.0, "type": "electric_scooter", "name": "9bf4862703c47e75c162a63aa59a3470", "is_disabled": 0, "rental_uris": {"ios": "https://dc.lft.to/lastmile_qr_scan", "android": "https://dc.lft.to/lastmile_qr_scan"}, "is_reserved": 0}, {"lon": -77.04505216666666, "bike_id": "c3500a3884a28c86c7ba9fb2a9368400", "lat": 38.90346266666667, "fusion_lon": 0.0, "fusion_lat": 0.0, "type": "electric_scooter", "name": "c3500a3884a28c86c7ba9fb2a9368400", "is_disabled": 0, "rental_uris": {"ios": "https://dc.lft.to/lastmile_qr_scan", "android": "https://dc.lft.to/lastmile_qr_scan"}, "is_reserved": 0}, {"lon": -76.97871083333334, "bike_id": "2bbe4d1752b920c3784177d795aae6c0", "lat": 38.88304516666667, "fusion_lon": 0.0, "fusion_lat": 0.0, "type": "electric_scooter", "name": "2bbe4d1752b920c3784177d795aae6c0", "is_disabled": 0, "rental_uris": {"ios": "https://dc.lft.to/lastmile_qr_scan", "android": "https://dc.lft.to/lastmile_qr_scan"}, "is_reserved": 0}, {"lon": -77.0216915, "bike_id": "01471c67abdd0fffb3d35d4da06dc4cb", "lat": 38.9113805, "fusion_lon": 0.0, "fusion_lat": 0.0, "type": "electric_scooter", "name": "01471c67abdd0fffb3d35d4da06dc4cb", "is_disabled": 0, "rental_uris": {"ios": "https://dc.lft.to/lastmile_qr_scan", "android": "https://dc.lft.to/lastmile_qr_scan"}, "is_reserved": 0}, {"lon": -77.03636933333334, "bike_id": "81298344c1cf6cc507da39ed7ecb4588", "lat": 38.9246495, "fusion_lon": 0.0, "fusion_lat": 0.0, "type": "electric_scooter", "name": "81298344c1cf6cc507da39ed7ecb4588", "is_disabled": 0, "rental_uris": {"ios": "https://dc.lft.to/lastmile_qr_scan", "android": "https://dc.lft.to/lastmile_qr_scan"}, "is_reserved": 0}, {"lon": -76.988786, "bike_id": "159f40d5e45b31f5b8431baddfa920a4", "lat": 38.86660716666667, "fusion_lon": 0.0, "fusion_lat": 0.0, "type": "electric_scooter", "name": "159f40d5e45b31f5b8431baddfa920a4", "is_disabled": 0, "rental_uris": {"ios": "https://dc.lft.to/lastmile_qr_scan", "android": "https://dc.lft.to/lastmile_qr_scan"}, "is_reserved": 0}, {"lon": -77.02402683333334, "bike_id": "7f930843ef439e4a3e9ec82417f55734", "lat": 38.919984666666664, "fusion_lon": 0.0, "fusion_lat": 0.0, "type": "electric_scooter", "name": "7f930843ef439e4a3e9ec82417f55734", "is_disabled": 0, "rental_uris": {"ios": "https://dc.lft.to/lastmile_qr_scan", "android": "https://dc.lft.to/lastmile_qr_scan"}, "is_reserved": 0}, {"lon": -77.02301666666666, "bike_id": "b4d056518653bc1e32bef971341af738", "lat": 38.940902, "fusion_lon": 0.0, "fusion_lat": 0.0, "type": "electric_scooter", "name": "b4d056518653bc1e32bef971341af738", "is_disabled": 0, "rental_uris": {"ios": "https://dc.lft.to/lastmile_qr_scan", "android": "https://dc.lft.to/lastmile_qr_scan"}, "is_reserved": 0}, {"lon": -77.03992516666666, "bike_id": "26539336a473fbfe7a0eb089639afd5f", "lat": 38.924578, "fusion_lon": 0.0, "fusion_lat": 0.0, "type": "electric_scooter", "name": "26539336a473fbfe7a0eb089639afd5f", "is_disabled": 0, "rental_uris": {"ios": "https://dc.lft.to/lastmile_qr_scan", "android": "https://dc.lft.to/lastmile_qr_scan"}, "is_reserved": 0}, {"lon": -77.0215575, "bike_id": "e228d11962e241e02316961b7792caa4", "lat": 38.89218316666667, "fusion_lon": 0.0, "fusion_lat": 0.0, "type": "electric_scooter", "name": "e228d11962e241e02316961b7792caa4", "is_disabled": 0, "rental_uris": {"ios": "https://dc.lft.to/lastmile_qr_scan", "android": "https://dc.lft.to/lastmile_qr_scan"}, "is_reserved": 0}, {"lon": -77.04661633333333, "bike_id": "5e246fb70e06e800110f0826a4769775", "lat": 38.903256999999996, "fusion_lon": 0.0, "fusion_lat": 0.0, "type": "electric_scooter", "name": "5e246fb70e06e800110f0826a4769775", "is_disabled": 0, "rental_uris": {"ios": "https://dc.lft.to/lastmile_qr_scan", "android": "https://dc.lft.to/lastmile_qr_scan"}, "is_reserved": 0}, {"lon": -77.0421235, "bike_id": "29995c2cf1e54b0f251e7bc05ca33a51", "lat": 38.92134716666666, "fusion_lon": 0.0, "fusion_lat": 0.0, "type": "electric_scooter", "name": "29995c2cf1e54b0f251e7bc05ca33a51", "is_disabled": 0, "rental_uris": {"ios": "https://dc.lft.to/lastmile_qr_scan", "android": "https://dc.lft.to/lastmile_qr_scan"}, "is_reserved": 0}, {"lon": -77.028569, "bike_id": "630296aff6131582d2fc248fbfe1da3c", "lat": 38.9258095, "fusion_lon": 0.0, "fusion_lat": 0.0, "type": "electric_scooter", "name": "630296aff6131582d2fc248fbfe1da3c", "is_disabled": 0, "rental_uris": {"ios": "https://dc.lft.to/lastmile_qr_scan", "android": "https://dc.lft.to/lastmile_qr_scan"}, "is_reserved": 0}, {"lon": -77.02605433333333, "bike_id": "f5109cb71891323af7bbfd06f45a6ca9", "lat": 38.92659833333333, "fusion_lon": 0.0, "fusion_lat": 0.0, "type": "electric_scooter", "name": "f5109cb71891323af7bbfd06f45a6ca9", "is_disabled": 0, "rental_uris": {"ios": "https://dc.lft.to/lastmile_qr_scan", "android": "https://dc.lft.to/lastmile_qr_scan"}, "is_reserved": 0}, {"lon": -77.02342766666666, "bike_id": "c45841bb456d3ff049c81fc9c05ec46c", "lat": 38.89618883333333, "fusion_lon": 0.0, "fusion_lat": 0.0, "type": "electric_scooter", "name": "c45841bb456d3ff049c81fc9c05ec46c", "is_disabled": 0, "rental_uris": {"ios": "https://dc.lft.to/lastmile_qr_scan", "android": "https://dc.lft.to/lastmile_qr_scan"}, "is_reserved": 0}, {"lon": -77.00381266666666, "bike_id": "45059ff0782450e2935a87f5e908459a", "lat": 38.90614266666667, "fusion_lon": 0.0, "fusion_lat": 0.0, "type": "electric_scooter", "name": "45059ff0782450e2935a87f5e908459a", "is_disabled": 0, "rental_uris": {"ios": "https://dc.lft.to/lastmile_qr_scan", "android": "https://dc.lft.to/lastmile_qr_scan"}, "is_reserved": 0}, {"lon": -77.05089, "bike_id": "c8d7a5059b042c1d6b4092fe62397c96", "lat": 39.03678516666667, "fusion_lon": 0.0, "fusion_lat": 0.0, "type": "electric_bike", "name": "c8d7a5059b042c1d6b4092fe62397c96", "is_disabled": 0, "rental_uris": {"ios": "https://dc.lft.to/lastmile_qr_scan", "android": "https://dc.lft.to/lastmile_qr_scan"}, "is_reserved": 0}, {"lon": -77.04451183333333, "bike_id": "ca45f132dcfc7235b8b71bac1ae8cac5", "lat": 38.918844666666665, "fusion_lon": 0.0, "fusion_lat": 0.0, "type": "electric_scooter", "name": "ca45f132dcfc7235b8b71bac1ae8cac5", "is_disabled": 0, "rental_uris": {"ios": "https://dc.lft.to/lastmile_qr_scan", "android": "https://dc.lft.to/lastmile_qr_scan"}, "is_reserved": 0}, {"lon": -77.02170983333333, "bike_id": "540c9433f608c5994c87610da3a9f24e", "lat": 38.88750983333333, "fusion_lon": 0.0, "fusion_lat": 0.0, "type": "electric_scooter", "name": "540c9433f608c5994c87610da3a9f24e", "is_disabled": 0, "rental_uris": {"ios": "https://dc.lft.to/lastmile_qr_scan", "android": "https://dc.lft.to/lastmile_qr_scan"}, "is_reserved": 0}, {"lon": -77.0192675, "bike_id": "e3b4352b7d91a1feb681f5e4dfc0ccc2", "lat": 38.89246083333333, "fusion_lon": 0.0, "fusion_lat": 0.0, "type": "electric_scooter", "name": "e3b4352b7d91a1feb681f5e4dfc0ccc2", "is_disabled": 0, "rental_uris": {"ios": "https://dc.lft.to/lastmile_qr_scan", "android": "https://dc.lft.to/lastmile_qr_scan"}, "is_reserved": 0}, {"lon": -76.9801195, "bike_id": "9af520d1f868be7dd7eb15a7a77bccec", "lat": 38.853226666666664, "fusion_lon": 0.0, "fusion_lat": 0.0, "type": "electric_bike", "name": "9af520d1f868be7dd7eb15a7a77bccec", "is_disabled": 0, "rental_uris": {"ios": "https://dc.lft.to/lastmile_qr_scan", "android": "https://dc.lft.to/lastmile_qr_scan"}, "is_reserved": 0}, {"lon": -77.022418, "bike_id": "2719961d6d4e2f21f52cb75cf858966c", "lat": 38.922616, "fusion_lon": 0.0, "fusion_lat": 0.0, "type": "electric_bike", "name": "2719961d6d4e2f21f52cb75cf858966c", "is_disabled": 0, "rental_uris": {"ios": "https://dc.lft.to/lastmile_qr_scan", "android": "https://dc.lft.to/lastmile_qr_scan"}, "is_reserved": 0}, {"lon": -76.98988983333334, "bike_id": "d6b62bdd7ea08404300c09d03ff739f7", "lat": 38.93361516666667, "fusion_lon": 0.0, "fusion_lat": 0.0, "type": "electric_scooter", "name": "d6b62bdd7ea08404300c09d03ff739f7", "is_disabled": 0, "rental_uris": {"ios": "https://dc.lft.to/lastmile_qr_scan", "android": "https://dc.lft.to/lastmile_qr_scan"}, "is_reserved": 0}, {"lon": -77.00756366666667, "bike_id": "07f9e5b84d9219d84d282ad515005d64", "lat": 38.89913116666666, "fusion_lon": 0.0, "fusion_lat": 0.0, "type": "electric_scooter", "name": "07f9e5b84d9219d84d282ad515005d64", "is_disabled": 0, "rental_uris": {"ios": "https://dc.lft.to/lastmile_qr_scan", "android": "https://dc.lft.to/lastmile_qr_scan"}, "is_reserved": 0}, {"lon": -77.02000983333333, "bike_id": "97964243d4adb0ddc1426d0639c10b46", "lat": 38.924133, "fusion_lon": 0.0, "fusion_lat": 0.0, "type": "electric_scooter", "name": "97964243d4adb0ddc1426d0639c10b46", "is_disabled": 0, "rental_uris": {"ios": "https://dc.lft.to/lastmile_qr_scan", "android": "https://dc.lft.to/lastmile_qr_scan"}, "is_reserved": 0}, {"lon": -77.01730433333333, "bike_id": "00f9996cc99b2ad340e1f6be1be568ba", "lat": 38.91683316666666, "fusion_lon": 0.0, "fusion_lat": 0.0, "type": "electric_scooter", "name": "00f9996cc99b2ad340e1f6be1be568ba", "is_disabled": 0, "rental_uris": {"ios": "https://dc.lft.to/lastmile_qr_scan", "android": "https://dc.lft.to/lastmile_qr_scan"}, "is_reserved": 0}, {"lon": -77.0234495, "bike_id": "835454f711d837da55c4c16f5b9f8613", "lat": 38.89618166666666, "fusion_lon": 0.0, "fusion_lat": 0.0, "type": "electric_scooter", "name": "835454f711d837da55c4c16f5b9f8613", "is_disabled": 0, "rental_uris": {"ios": "https://dc.lft.to/lastmile_qr_scan", "android": "https://dc.lft.to/lastmile_qr_scan"}, "is_reserved": 0}, {"lon": -77.00306783333333, "bike_id": "c284872cfbd28ad6e87375dc1bc2dedc", "lat": 38.9090435, "fusion_lon": 0.0, "fusion_lat": 0.0, "type": "electric_scooter", "name": "c284872cfbd28ad6e87375dc1bc2dedc", "is_disabled": 0, "rental_uris": {"ios": "https://dc.lft.to/lastmile_qr_scan", "android": "https://dc.lft.to/lastmile_qr_scan"}, "is_reserved": 0}, {"lon": -77.02152583333333, "bike_id": "514e34766bf63080202a7d59239f8e45", "lat": 38.95082683333333, "fusion_lon": 0.0, "fusion_lat": 0.0, "type": "electric_scooter", "name": "514e34766bf63080202a7d59239f8e45", "is_disabled": 0, "rental_uris": {"ios": "https://dc.lft.to/lastmile_qr_scan", "android": "https://dc.lft.to/lastmile_qr_scan"}, "is_reserved": 0}, {"lon": -77.02166883333334, "bike_id": "f1f2bd6d3c1a2fe506c594dd8fd358df", "lat": 38.92611316666667, "fusion_lon": 0.0, "fusion_lat": 0.0, "type": "electric_scooter", "name": "f1f2bd6d3c1a2fe506c594dd8fd358df", "is_disabled": 0, "rental_uris": {"ios": "https://dc.lft.to/lastmile_qr_scan", "android": "https://dc.lft.to/lastmile_qr_scan"}, "is_reserved": 0}, {"lon": -77.05811033333333, "bike_id": "dc06384b663cd55af991b3aa5fb1c5de", "lat": 38.93453916666667, "fusion_lon": 0.0, "fusion_lat": 0.0, "type": "electric_scooter", "name": "dc06384b663cd55af991b3aa5fb1c5de", "is_disabled": 0, "rental_uris": {"ios": "https://dc.lft.to/lastmile_qr_scan", "android": "https://dc.lft.to/lastmile_qr_scan"}, "is_reserved": 0}, {"lon": -77.03849033333333, "bike_id": "dbcb5c4c69b994433d80ca67e51a4ad0", "lat": 38.93134383333334, "fusion_lon": 0.0, "fusion_lat": 0.0, "type": "electric_scooter", "name": "dbcb5c4c69b994433d80ca67e51a4ad0", "is_disabled": 0, "rental_uris": {"ios": "https://dc.lft.to/lastmile_qr_scan", "android": "https://dc.lft.to/lastmile_qr_scan"}, "is_reserved": 0}, {"lon": -77.04905666666667, "bike_id": "6315dd4a8555289263f22a52899cff2f", "lat": 38.90349783333333, "fusion_lon": 0.0, "fusion_lat": 0.0, "type": "electric_scooter", "name": "6315dd4a8555289263f22a52899cff2f", "is_disabled": 0, "rental_uris": {"ios": "https://dc.lft.to/lastmile_qr_scan", "android": "https://dc.lft.to/lastmile_qr_scan"}, "is_reserved": 0}, {"lon": -77.023136, "bike_id": "4e885d1fd5153bc8becf49feb534909a", "lat": 38.8874095, "fusion_lon": 0.0, "fusion_lat": 0.0, "type": "electric_scooter", "name": "4e885d1fd5153bc8becf49feb534909a", "is_disabled": 0, "rental_uris": {"ios": "https://dc.lft.to/lastmile_qr_scan", "android": "https://dc.lft.to/lastmile_qr_scan"}, "is_reserved": 0}, {"lon": -77.0162925, "bike_id": "f85c239fd663cbc9985f2690b105390b", "lat": 38.92904716666666, "fusion_lon": 0.0, "fusion_lat": 0.0, "type": "electric_scooter", "name": "f85c239fd663cbc9985f2690b105390b", "is_disabled": 0, "rental_uris": {"ios": "https://dc.lft.to/lastmile_qr_scan", "android": "https://dc.lft.to/lastmile_qr_scan"}, "is_reserved": 0}, {"lon": -77.00067333333334, "bike_id": "6a92832d0a0b3cf5bf1e2f298692d191", "lat": 38.901380333333336, "fusion_lon": 0.0, "fusion_lat": 0.0, "type": "electric_scooter", "name": "6a92832d0a0b3cf5bf1e2f298692d191", "is_disabled": 0, "rental_uris": {"ios": "https://dc.lft.to/lastmile_qr_scan", "android": "https://dc.lft.to/lastmile_qr_scan"}, "is_reserved": 0}, {"lon": -77.0326465, "bike_id": "375d06ae98e1749db477770252d22b24", "lat": 38.936992833333335, "fusion_lon": 0.0, "fusion_lat": 0.0, "type": "electric_scooter", "name": "375d06ae98e1749db477770252d22b24", "is_disabled": 0, "rental_uris": {"ios": "https://dc.lft.to/lastmile_qr_scan", "android": "https://dc.lft.to/lastmile_qr_scan"}, "is_reserved": 0}, {"lon": -76.93730333333333, "bike_id": "4e4e2e2c8e185a31719a43d4ad20fa75", "lat": 38.89011883333333, "fusion_lon": 0.0, "fusion_lat": 0.0, "type": "electric_scooter", "name": "4e4e2e2c8e185a31719a43d4ad20fa75", "is_disabled": 0, "rental_uris": {"ios": "https://dc.lft.to/lastmile_qr_scan", "android": "https://dc.lft.to/lastmile_qr_scan"}, "is_reserved": 0}, {"lon": -77.03669683333334, "bike_id": "5f7eb6326e81418652bd336031f6d9a7", "lat": 38.90960183333333, "fusion_lon": 0.0, "fusion_lat": 0.0, "type": "electric_scooter", "name": "5f7eb6326e81418652bd336031f6d9a7", "is_disabled": 0, "rental_uris": {"ios": "https://dc.lft.to/lastmile_qr_scan", "android": "https://dc.lft.to/lastmile_qr_scan"}, "is_reserved": 0}, {"lon": -77.04204416666667, "bike_id": "f3576ceee7dfd672e40441a8c4d1d4a3", "lat": 38.892764166666666, "fusion_lon": 0.0, "fusion_lat": 0.0, "type": "electric_scooter", "name": "f3576ceee7dfd672e40441a8c4d1d4a3", "is_disabled": 0, "rental_uris": {"ios": "https://dc.lft.to/lastmile_qr_scan", "android": "https://dc.lft.to/lastmile_qr_scan"}, "is_reserved": 0}, {"lon": -76.93134133333334, "bike_id": "f452e2aa66c0f1dfcd4ac7ec76525494", "lat": 38.876135, "fusion_lon": 0.0, "fusion_lat": 0.0, "type": "electric_scooter", "name": "f452e2aa66c0f1dfcd4ac7ec76525494", "is_disabled": 0, "rental_uris": {"ios": "https://dc.lft.to/lastmile_qr_scan", "android": "https://dc.lft.to/lastmile_qr_scan"}, "is_reserved": 0}, {"lon": -77.05240066666667, "bike_id": "7794b5e198df5f80fec9e9c36009d9e5", "lat": 38.92460783333333, "fusion_lon": 0.0, "fusion_lat": 0.0, "type": "electric_scooter", "name": "7794b5e198df5f80fec9e9c36009d9e5", "is_disabled": 0, "rental_uris": {"ios": "https://dc.lft.to/lastmile_qr_scan", "android": "https://dc.lft.to/lastmile_qr_scan"}, "is_reserved": 0}, {"lon": -77.03186033333333, "bike_id": "667b1d12f931694bd29603a0d7497822", "lat": 38.913322, "fusion_lon": 0.0, "fusion_lat": 0.0, "type": "electric_scooter", "name": "667b1d12f931694bd29603a0d7497822", "is_disabled": 0, "rental_uris": {"ios": "https://dc.lft.to/lastmile_qr_scan", "android": "https://dc.lft.to/lastmile_qr_scan"}, "is_reserved": 0}, {"lon": -76.99543066666666, "bike_id": "8e4b172bd564736d659b35bb16cb381f", "lat": 38.86260433333333, "fusion_lon": 0.0, "fusion_lat": 0.0, "type": "electric_scooter", "name": "8e4b172bd564736d659b35bb16cb381f", "is_disabled": 0, "rental_uris": {"ios": "https://dc.lft.to/lastmile_qr_scan", "android": "https://dc.lft.to/lastmile_qr_scan"}, "is_reserved": 0}, {"lon": -77.03325333333333, "bike_id": "73496c150b61d32bb85e2f9d32d973a2", "lat": 38.89010433333333, "fusion_lon": 0.0, "fusion_lat": 0.0, "type": "electric_scooter", "name": "73496c150b61d32bb85e2f9d32d973a2", "is_disabled": 0, "rental_uris": {"ios": "https://dc.lft.to/lastmile_qr_scan", "android": "https://dc.lft.to/lastmile_qr_scan"}, "is_reserved": 0}, {"lon": -77.0235035, "bike_id": "69a47e1f55b72bfd976a0560e58ae8ca", "lat": 38.9225015, "fusion_lon": 0.0, "fusion_lat": 0.0, "type": "electric_scooter", "name": "69a47e1f55b72bfd976a0560e58ae8ca", "is_disabled": 0, "rental_uris": {"ios": "https://dc.lft.to/lastmile_qr_scan", "android": "https://dc.lft.to/lastmile_qr_scan"}, "is_reserved": 0}, {"lon": -76.9868815, "bike_id": "401c8091a4fcc0adc22f29da6b84e555", "lat": 38.91216983333333, "fusion_lon": 0.0, "fusion_lat": 0.0, "type": "electric_scooter", "name": "401c8091a4fcc0adc22f29da6b84e555", "is_disabled": 0, "rental_uris": {"ios": "https://dc.lft.to/lastmile_qr_scan", "android": "https://dc.lft.to/lastmile_qr_scan"}, "is_reserved": 0}, {"lon": -77.02161116666667, "bike_id": "c2a185ba5c4c1a982e6b8bab5450dab4", "lat": 38.909729, "fusion_lon": 0.0, "fusion_lat": 0.0, "type": "electric_scooter", "name": "c2a185ba5c4c1a982e6b8bab5450dab4", "is_disabled": 0, "rental_uris": {"ios": "https://dc.lft.to/lastmile_qr_scan", "android": "https://dc.lft.to/lastmile_qr_scan"}, "is_reserved": 0}, {"lon": -77.02393483333333, "bike_id": "7210d5272550dcea91f3fbf46adf7017", "lat": 38.9094245, "fusion_lon": 0.0, "fusion_lat": 0.0, "type": "electric_scooter", "name": "7210d5272550dcea91f3fbf46adf7017", "is_disabled": 0, "rental_uris": {"ios": "https://dc.lft.to/lastmile_qr_scan", "android": "https://dc.lft.to/lastmile_qr_scan"}, "is_reserved": 0}, {"lon": -77.02149433333334, "bike_id": "d2c10665a38ee601247ff8fc33b74f14", "lat": 38.87921516666667, "fusion_lon": 0.0, "fusion_lat": 0.0, "type": "electric_scooter", "name": "d2c10665a38ee601247ff8fc33b74f14", "is_disabled": 0, "rental_uris": {"ios": "https://dc.lft.to/lastmile_qr_scan", "android": "https://dc.lft.to/lastmile_qr_scan"}, "is_reserved": 0}, {"lon": -76.98171183333334, "bike_id": "fcdd53f899ceac1dd0914bb71b176e08", "lat": 38.90440816666667, "fusion_lon": 0.0, "fusion_lat": 0.0, "type": "electric_scooter", "name": "fcdd53f899ceac1dd0914bb71b176e08", "is_disabled": 0, "rental_uris": {"ios": "https://dc.lft.to/lastmile_qr_scan", "android": "https://dc.lft.to/lastmile_qr_scan"}, "is_reserved": 0}, {"lon": -77.0337775, "bike_id": "caa2fb8a1bf5c277a3b488b35ab1f2ef", "lat": 38.8923495, "fusion_lon": 0.0, "fusion_lat": 0.0, "type": "electric_scooter", "name": "caa2fb8a1bf5c277a3b488b35ab1f2ef", "is_disabled": 0, "rental_uris": {"ios": "https://dc.lft.to/lastmile_qr_scan", "android": "https://dc.lft.to/lastmile_qr_scan"}, "is_reserved": 0}, {"lon": -76.98107133333333, "bike_id": "c10e1f4d3818b948af206d1fcdfc4650", "lat": 38.90406883333333, "fusion_lon": 0.0, "fusion_lat": 0.0, "type": "electric_scooter", "name": "c10e1f4d3818b948af206d1fcdfc4650", "is_disabled": 0, "rental_uris": {"ios": "https://dc.lft.to/lastmile_qr_scan", "android": "https://dc.lft.to/lastmile_qr_scan"}, "is_reserved": 0}, {"lon": -77.01739616666667, "bike_id": "92a723f61fffa0bc5b78d5cc0ed85fb7", "lat": 38.91364816666667, "fusion_lon": 0.0, "fusion_lat": 0.0, "type": "electric_scooter", "name": "92a723f61fffa0bc5b78d5cc0ed85fb7", "is_disabled": 0, "rental_uris": {"ios": "https://dc.lft.to/lastmile_qr_scan", "android": "https://dc.lft.to/lastmile_qr_scan"}, "is_reserved": 0}, {"lon": -77.01417516666666, "bike_id": "d43b6d54bbe761b5227ce617f489673d", "lat": 38.928431833333335, "fusion_lon": 0.0, "fusion_lat": 0.0, "type": "electric_scooter", "name": "d43b6d54bbe761b5227ce617f489673d", "is_disabled": 0, "rental_uris": {"ios": "https://dc.lft.to/lastmile_qr_scan", "android": "https://dc.lft.to/lastmile_qr_scan"}, "is_reserved": 0}, {"lon": -77.02423216666666, "bike_id": "b5833f0f6f2aecc065a58d0a9c78a22d", "lat": 38.9040355, "fusion_lon": 0.0, "fusion_lat": 0.0, "type": "electric_scooter", "name": "b5833f0f6f2aecc065a58d0a9c78a22d", "is_disabled": 0, "rental_uris": {"ios": "https://dc.lft.to/lastmile_qr_scan", "android": "https://dc.lft.to/lastmile_qr_scan"}, "is_reserved": 0}, {"lon": -76.9690925, "bike_id": "e98b1ef8c77b3ac880a8c19d9e738938", "lat": 38.846144333333335, "fusion_lon": 0.0, "fusion_lat": 0.0, "type": "electric_bike", "name": "e98b1ef8c77b3ac880a8c19d9e738938", "is_disabled": 0, "rental_uris": {"ios": "https://dc.lft.to/lastmile_qr_scan", "android": "https://dc.lft.to/lastmile_qr_scan"}, "is_reserved": 0}, {"lon": -77.03345366666667, "bike_id": "e9c13e4404de61efa185fec97f1143b2", "lat": 38.94512366666667, "fusion_lon": 0.0, "fusion_lat": 0.0, "type": "electric_bike", "name": "e9c13e4404de61efa185fec97f1143b2", "is_disabled": 0, "rental_uris": {"ios": "https://dc.lft.to/lastmile_qr_scan", "android": "https://dc.lft.to/lastmile_qr_scan"}, "is_reserved": 0}, {"lon": -77.02281716666667, "bike_id": "20d2cdd91e4b49873f169b8755794c35", "lat": 38.926884333333334, "fusion_lon": 0.0, "fusion_lat": 0.0, "type": "electric_scooter", "name": "20d2cdd91e4b49873f169b8755794c35", "is_disabled": 0, "rental_uris": {"ios": "https://dc.lft.to/lastmile_qr_scan", "android": "https://dc.lft.to/lastmile_qr_scan"}, "is_reserved": 0}, {"lon": -76.997015, "bike_id": "3e81022769aed816d4a74010dbe5f123", "lat": 38.9080135, "fusion_lon": 0.0, "fusion_lat": 0.0, "type": "electric_scooter", "name": "3e81022769aed816d4a74010dbe5f123", "is_disabled": 0, "rental_uris": {"ios": "https://dc.lft.to/lastmile_qr_scan", "android": "https://dc.lft.to/lastmile_qr_scan"}, "is_reserved": 0}, {"lon": -77.02373783333333, "bike_id": "14475e034c08d9ff698efa41cf9eba0d", "lat": 38.89980383333334, "fusion_lon": 0.0, "fusion_lat": 0.0, "type": "electric_scooter", "name": "14475e034c08d9ff698efa41cf9eba0d", "is_disabled": 0, "rental_uris": {"ios": "https://dc.lft.to/lastmile_qr_scan", "android": "https://dc.lft.to/lastmile_qr_scan"}, "is_reserved": 0}, {"lon": -76.976587, "bike_id": "5f84e2da086bef9a0e98f3ad1ba63f71", "lat": 38.874418, "fusion_lon": 0.0, "fusion_lat": 0.0, "type": "electric_scooter", "name": "5f84e2da086bef9a0e98f3ad1ba63f71", "is_disabled": 0, "rental_uris": {"ios": "https://dc.lft.to/lastmile_qr_scan", "android": "https://dc.lft.to/lastmile_qr_scan"}, "is_reserved": 0}, {"lon": -77.1159205, "bike_id": "0df1f961db782cd10a5e04983c1780bc", "lat": 39.07490416666667, "fusion_lon": 0.0, "fusion_lat": 0.0, "type": "electric_bike", "name": "0df1f961db782cd10a5e04983c1780bc", "is_disabled": 0, "rental_uris": {"ios": "https://dc.lft.to/lastmile_qr_scan", "android": "https://dc.lft.to/lastmile_qr_scan"}, "is_reserved": 0}, {"lon": -76.99353683333334, "bike_id": "c2fec0a6da3c3d0ad1d4889954343121", "lat": 38.84508916666667, "fusion_lon": 0.0, "fusion_lat": 0.0, "type": "electric_bike", "name": "c2fec0a6da3c3d0ad1d4889954343121", "is_disabled": 0, "rental_uris": {"ios": "https://dc.lft.to/lastmile_qr_scan", "android": "https://dc.lft.to/lastmile_qr_scan"}, "is_reserved": 0}, {"lon": -77.01370933333334, "bike_id": "c7e76ec472120d5d1dac6293a5dc5563", "lat": 38.8870665, "fusion_lon": 0.0, "fusion_lat": 0.0, "type": "electric_scooter", "name": "c7e76ec472120d5d1dac6293a5dc5563", "is_disabled": 0, "rental_uris": {"ios": "https://dc.lft.to/lastmile_qr_scan", "android": "https://dc.lft.to/lastmile_qr_scan"}, "is_reserved": 0}, {"lon": -77.045793, "bike_id": "d0d4b18ceace5410d7d5266786223552", "lat": 38.9212425, "fusion_lon": 0.0, "fusion_lat": 0.0, "type": "electric_scooter", "name": "d0d4b18ceace5410d7d5266786223552", "is_disabled": 0, "rental_uris": {"ios": "https://dc.lft.to/lastmile_qr_scan", "android": "https://dc.lft.to/lastmile_qr_scan"}, "is_reserved": 0}, {"lon": -76.94398533333333, "bike_id": "7d95ecb6ad306eacd0d7fd222958e77e", "lat": 38.88143433333333, "fusion_lon": 0.0, "fusion_lat": 0.0, "type": "electric_scooter", "name": "7d95ecb6ad306eacd0d7fd222958e77e", "is_disabled": 0, "rental_uris": {"ios": "https://dc.lft.to/lastmile_qr_scan", "android": "https://dc.lft.to/lastmile_qr_scan"}, "is_reserved": 0}, {"lon": -77.03287666666667, "bike_id": "e11d52de2f7321d5c716b9c679cc9bc1", "lat": 38.923470333333334, "fusion_lon": 0.0, "fusion_lat": 0.0, "type": "electric_scooter", "name": "e11d52de2f7321d5c716b9c679cc9bc1", "is_disabled": 0, "rental_uris": {"ios": "https://dc.lft.to/lastmile_qr_scan", "android": "https://dc.lft.to/lastmile_qr_scan"}, "is_reserved": 0}, {"lon": -77.06300233333333, "bike_id": "1d31a13ca5c1f1219f272e4dbd7d371e", "lat": 38.90398916666667, "fusion_lon": 0.0, "fusion_lat": 0.0, "type": "electric_scooter", "name": "1d31a13ca5c1f1219f272e4dbd7d371e", "is_disabled": 0, "rental_uris": {"ios": "https://dc.lft.to/lastmile_qr_scan", "android": "https://dc.lft.to/lastmile_qr_scan"}, "is_reserved": 0}, {"lon": -77.02508316666666, "bike_id": "ce107141b76ed7cc7dedbf86504e706a", "lat": 38.92105266666667, "fusion_lon": 0.0, "fusion_lat": 0.0, "type": "electric_scooter", "name": "ce107141b76ed7cc7dedbf86504e706a", "is_disabled": 0, "rental_uris": {"ios": "https://dc.lft.to/lastmile_qr_scan", "android": "https://dc.lft.to/lastmile_qr_scan"}, "is_reserved": 0}, {"lon": -77.02168066666667, "bike_id": "c706ab1d692d38f3fce70e5953cced08", "lat": 38.9000985, "fusion_lon": 0.0, "fusion_lat": 0.0, "type": "electric_scooter", "name": "c706ab1d692d38f3fce70e5953cced08", "is_disabled": 0, "rental_uris": {"ios": "https://dc.lft.to/lastmile_qr_scan", "android": "https://dc.lft.to/lastmile_qr_scan"}, "is_reserved": 0}, {"lon": -77.022739, "bike_id": "200b25614d12f90d50195c2ab997c117", "lat": 38.927333, "fusion_lon": 0.0, "fusion_lat": 0.0, "type": "electric_scooter", "name": "200b25614d12f90d50195c2ab997c117", "is_disabled": 0, "rental_uris": {"ios": "https://dc.lft.to/lastmile_qr_scan", "android": "https://dc.lft.to/lastmile_qr_scan"}, "is_reserved": 0}, {"lon": -76.9749835, "bike_id": "4b5e419a567d44036c3457cdb0c05c60", "lat": 38.91926566666667, "fusion_lon": 0.0, "fusion_lat": 0.0, "type": "electric_scooter", "name": "4b5e419a567d44036c3457cdb0c05c60", "is_disabled": 0, "rental_uris": {"ios": "https://dc.lft.to/lastmile_qr_scan", "android": "https://dc.lft.to/lastmile_qr_scan"}, "is_reserved": 0}, {"lon": -76.9519775, "bike_id": "2462baba82e8591b39152df76a5a2da7", "lat": 38.9000865, "fusion_lon": 0.0, "fusion_lat": 0.0, "type": "electric_scooter", "name": "2462baba82e8591b39152df76a5a2da7", "is_disabled": 0, "rental_uris": {"ios": "https://dc.lft.to/lastmile_qr_scan", "android": "https://dc.lft.to/lastmile_qr_scan"}, "is_reserved": 0}, {"lon": -77.03279583333334, "bike_id": "8afb11871cf1a993994469ce3bf0b248", "lat": 38.905649833333335, "fusion_lon": 0.0, "fusion_lat": 0.0, "type": "electric_scooter", "name": "8afb11871cf1a993994469ce3bf0b248", "is_disabled": 0, "rental_uris": {"ios": "https://dc.lft.to/lastmile_qr_scan", "android": "https://dc.lft.to/lastmile_qr_scan"}, "is_reserved": 0}, {"lon": -77.0416255, "bike_id": "3a3fdb88a0cf9803dfcad6cec4776453", "lat": 38.917431, "fusion_lon": 0.0, "fusion_lat": 0.0, "type": "electric_scooter", "name": "3a3fdb88a0cf9803dfcad6cec4776453", "is_disabled": 0, "rental_uris": {"ios": "https://dc.lft.to/lastmile_qr_scan", "android": "https://dc.lft.to/lastmile_qr_scan"}, "is_reserved": 0}, {"lon": -77.0219965, "bike_id": "51a4ed93cc65917aabf3e4fc9f035684", "lat": 38.91138, "fusion_lon": 0.0, "fusion_lat": 0.0, "type": "electric_scooter", "name": "51a4ed93cc65917aabf3e4fc9f035684", "is_disabled": 0, "rental_uris": {"ios": "https://dc.lft.to/lastmile_qr_scan", "android": "https://dc.lft.to/lastmile_qr_scan"}, "is_reserved": 0}, {"lon": -77.03479333333334, "bike_id": "9ef5b4036ba4c8fd75110fff5f322580", "lat": 38.928724833333334, "fusion_lon": 0.0, "fusion_lat": 0.0, "type": "electric_scooter", "name": "9ef5b4036ba4c8fd75110fff5f322580", "is_disabled": 0, "rental_uris": {"ios": "https://dc.lft.to/lastmile_qr_scan", "android": "https://dc.lft.to/lastmile_qr_scan"}, "is_reserved": 0}, {"lon": -77.0385285, "bike_id": "2f76bed6e2ee9df4781d887aea9c13c6", "lat": 38.9313025, "fusion_lon": 0.0, "fusion_lat": 0.0, "type": "electric_scooter", "name": "2f76bed6e2ee9df4781d887aea9c13c6", "is_disabled": 0, "rental_uris": {"ios": "https://dc.lft.to/lastmile_qr_scan", "android": "https://dc.lft.to/lastmile_qr_scan"}, "is_reserved": 0}, {"lon": -77.012116, "bike_id": "f868959e1c667e5641ec28494804890d", "lat": 38.912491833333334, "fusion_lon": 0.0, "fusion_lat": 0.0, "type": "electric_scooter", "name": "f868959e1c667e5641ec28494804890d", "is_disabled": 0, "rental_uris": {"ios": "https://dc.lft.to/lastmile_qr_scan", "android": "https://dc.lft.to/lastmile_qr_scan"}, "is_reserved": 0}, {"lon": -76.98811666666667, "bike_id": "63168d88d092a77dd583592201d7c8b9", "lat": 38.8583195, "fusion_lon": 0.0, "fusion_lat": 0.0, "type": "electric_scooter", "name": "63168d88d092a77dd583592201d7c8b9", "is_disabled": 0, "rental_uris": {"ios": "https://dc.lft.to/lastmile_qr_scan", "android": "https://dc.lft.to/lastmile_qr_scan"}, "is_reserved": 0}, {"lon": -77.0338665, "bike_id": "90761eb6f05eaf24000dd1f8a69bd233", "lat": 38.90961633333333, "fusion_lon": 0.0, "fusion_lat": 0.0, "type": "electric_scooter", "name": "90761eb6f05eaf24000dd1f8a69bd233", "is_disabled": 0, "rental_uris": {"ios": "https://dc.lft.to/lastmile_qr_scan", "android": "https://dc.lft.to/lastmile_qr_scan"}, "is_reserved": 0}, {"lon": -76.93173866666666, "bike_id": "be53e685d44c154884f7f353b9115615", "lat": 38.89885733333333, "fusion_lon": 0.0, "fusion_lat": 0.0, "type": "electric_scooter", "name": "be53e685d44c154884f7f353b9115615", "is_disabled": 0, "rental_uris": {"ios": "https://dc.lft.to/lastmile_qr_scan", "android": "https://dc.lft.to/lastmile_qr_scan"}, "is_reserved": 0}, {"lon": -77.021739, "bike_id": "9b25490f6c5ea6158414c0ea17357b93", "lat": 38.91484716666667, "fusion_lon": 0.0, "fusion_lat": 0.0, "type": "electric_scooter", "name": "9b25490f6c5ea6158414c0ea17357b93", "is_disabled": 0, "rental_uris": {"ios": "https://dc.lft.to/lastmile_qr_scan", "android": "https://dc.lft.to/lastmile_qr_scan"}, "is_reserved": 0}, {"lon": -76.9496045, "bike_id": "78f4b51dee76a197b83f3bfe3115ef92", "lat": 38.894493, "fusion_lon": 0.0, "fusion_lat": 0.0, "type": "electric_scooter", "name": "78f4b51dee76a197b83f3bfe3115ef92", "is_disabled": 0, "rental_uris": {"ios": "https://dc.lft.to/lastmile_qr_scan", "android": "https://dc.lft.to/lastmile_qr_scan"}, "is_reserved": 0}, {"lon": -76.99564433333333, "bike_id": "d18df985ba302e160bebb0af2b9e5556", "lat": 38.85185466666667, "fusion_lon": 0.0, "fusion_lat": 0.0, "type": "electric_bike", "name": "d18df985ba302e160bebb0af2b9e5556", "is_disabled": 0, "rental_uris": {"ios": "https://dc.lft.to/lastmile_qr_scan", "android": "https://dc.lft.to/lastmile_qr_scan"}, "is_reserved": 0}, {"lon": -76.99607816666666, "bike_id": "c0073e34b43c6ea0cafb50d0b88ca07b", "lat": 38.883158, "fusion_lon": 0.0, "fusion_lat": 0.0, "type": "electric_scooter", "name": "c0073e34b43c6ea0cafb50d0b88ca07b", "is_disabled": 0, "rental_uris": {"ios": "https://dc.lft.to/lastmile_qr_scan", "android": "https://dc.lft.to/lastmile_qr_scan"}, "is_reserved": 0}, {"lon": -76.93364916666667, "bike_id": "6f81b9096c9580c340ae2fb4736b9802", "lat": 38.8991565, "fusion_lon": 0.0, "fusion_lat": 0.0, "type": "electric_scooter", "name": "6f81b9096c9580c340ae2fb4736b9802", "is_disabled": 0, "rental_uris": {"ios": "https://dc.lft.to/lastmile_qr_scan", "android": "https://dc.lft.to/lastmile_qr_scan"}, "is_reserved": 0}, {"lon": -76.9608935, "bike_id": "dc3eef806e2a6c5d066a2255cdadf76a", "lat": 38.91862033333334, "fusion_lon": 0.0, "fusion_lat": 0.0, "type": "electric_bike", "name": "dc3eef806e2a6c5d066a2255cdadf76a", "is_disabled": 0, "rental_uris": {"ios": "https://dc.lft.to/lastmile_qr_scan", "android": "https://dc.lft.to/lastmile_qr_scan"}, "is_reserved": 0}, {"lon": -76.99873183333334, "bike_id": "28bcd17d6940e11088ce03ee0d76dff2", "lat": 38.907562166666665, "fusion_lon": 0.0, "fusion_lat": 0.0, "type": "electric_scooter", "name": "28bcd17d6940e11088ce03ee0d76dff2", "is_disabled": 0, "rental_uris": {"ios": "https://dc.lft.to/lastmile_qr_scan", "android": "https://dc.lft.to/lastmile_qr_scan"}, "is_reserved": 0}, {"lon": -77.02968416666667, "bike_id": "3a2c0a8a5a6f4f5cfd25216d8c7a9b56", "lat": 38.912502, "fusion_lon": 0.0, "fusion_lat": 0.0, "type": "electric_scooter", "name": "3a2c0a8a5a6f4f5cfd25216d8c7a9b56", "is_disabled": 0, "rental_uris": {"ios": "https://dc.lft.to/lastmile_qr_scan", "android": "https://dc.lft.to/lastmile_qr_scan"}, "is_reserved": 0}, {"lon": -77.03868783333333, "bike_id": "5152c70a1b1701fc9e194fba05f03443", "lat": 38.9077205, "fusion_lon": 0.0, "fusion_lat": 0.0, "type": "electric_scooter", "name": "5152c70a1b1701fc9e194fba05f03443", "is_disabled": 0, "rental_uris": {"ios": "https://dc.lft.to/lastmile_qr_scan", "android": "https://dc.lft.to/lastmile_qr_scan"}, "is_reserved": 0}, {"lon": -77.04448733333334, "bike_id": "ab4ff6f8dff7dee4ae91310cfa0f1385", "lat": 38.91944316666667, "fusion_lon": 0.0, "fusion_lat": 0.0, "type": "electric_scooter", "name": "ab4ff6f8dff7dee4ae91310cfa0f1385", "is_disabled": 0, "rental_uris": {"ios": "https://dc.lft.to/lastmile_qr_scan", "android": "https://dc.lft.to/lastmile_qr_scan"}, "is_reserved": 0}, {"lon": -77.04353583333334, "bike_id": "6f3b672525e153aaacf06f3aabde62e4", "lat": 38.9216015, "fusion_lon": 0.0, "fusion_lat": 0.0, "type": "electric_scooter", "name": "6f3b672525e153aaacf06f3aabde62e4", "is_disabled": 0, "rental_uris": {"ios": "https://dc.lft.to/lastmile_qr_scan", "android": "https://dc.lft.to/lastmile_qr_scan"}, "is_reserved": 0}, {"lon": -77.02679933333333, "bike_id": "5969968919fe5877b8937a4778c2d123", "lat": 38.9126045, "fusion_lon": 0.0, "fusion_lat": 0.0, "type": "electric_scooter", "name": "5969968919fe5877b8937a4778c2d123", "is_disabled": 0, "rental_uris": {"ios": "https://dc.lft.to/lastmile_qr_scan", "android": "https://dc.lft.to/lastmile_qr_scan"}, "is_reserved": 0}, {"lon": -77.0409855, "bike_id": "6a777071b682fd95dcbf3e86ef38f392", "lat": 38.925288333333334, "fusion_lon": 0.0, "fusion_lat": 0.0, "type": "electric_scooter", "name": "6a777071b682fd95dcbf3e86ef38f392", "is_disabled": 0, "rental_uris": {"ios": "https://dc.lft.to/lastmile_qr_scan", "android": "https://dc.lft.to/lastmile_qr_scan"}, "is_reserved": 0}, {"lon": -76.97904666666666, "bike_id": "277cdd306d8506f878ffd8f404161b31", "lat": 38.92461466666666, "fusion_lon": 0.0, "fusion_lat": 0.0, "type": "electric_bike", "name": "277cdd306d8506f878ffd8f404161b31", "is_disabled": 0, "rental_uris": {"ios": "https://dc.lft.to/lastmile_qr_scan", "android": "https://dc.lft.to/lastmile_qr_scan"}, "is_reserved": 0}, {"lon": -77.03212016666667, "bike_id": "d6bcbd5e4e23e5a876efeb806709bd6f", "lat": 38.89691883333333, "fusion_lon": 0.0, "fusion_lat": 0.0, "type": "electric_scooter", "name": "d6bcbd5e4e23e5a876efeb806709bd6f", "is_disabled": 0, "rental_uris": {"ios": "https://dc.lft.to/lastmile_qr_scan", "android": "https://dc.lft.to/lastmile_qr_scan"}, "is_reserved": 0}, {"lon": -77.00480416666667, "bike_id": "53fe28fce9cad831f9ff69dae94f4c70", "lat": 38.87474133333333, "fusion_lon": 0.0, "fusion_lat": 0.0, "type": "electric_scooter", "name": "53fe28fce9cad831f9ff69dae94f4c70", "is_disabled": 0, "rental_uris": {"ios": "https://dc.lft.to/lastmile_qr_scan", "android": "https://dc.lft.to/lastmile_qr_scan"}, "is_reserved": 0}, {"lon": -77.05725533333333, "bike_id": "5a99d6522e1783202f75ee76a641829e", "lat": 38.9336185, "fusion_lon": 0.0, "fusion_lat": 0.0, "type": "electric_scooter", "name": "5a99d6522e1783202f75ee76a641829e", "is_disabled": 0, "rental_uris": {"ios": "https://dc.lft.to/lastmile_qr_scan", "android": "https://dc.lft.to/lastmile_qr_scan"}, "is_reserved": 0}, {"lon": -77.038637, "bike_id": "455637a1eedc943c733230b5f50ccf3f", "lat": 38.906786833333335, "fusion_lon": 0.0, "fusion_lat": 0.0, "type": "electric_scooter", "name": "455637a1eedc943c733230b5f50ccf3f", "is_disabled": 0, "rental_uris": {"ios": "https://dc.lft.to/lastmile_qr_scan", "android": "https://dc.lft.to/lastmile_qr_scan"}, "is_reserved": 0}, {"lon": -77.03464283333334, "bike_id": "7760620e8bb344d39668f40ed2fca0c0", "lat": 38.918743, "fusion_lon": 0.0, "fusion_lat": 0.0, "type": "electric_scooter", "name": "7760620e8bb344d39668f40ed2fca0c0", "is_disabled": 0, "rental_uris": {"ios": "https://dc.lft.to/lastmile_qr_scan", "android": "https://dc.lft.to/lastmile_qr_scan"}, "is_reserved": 0}, {"lon": -77.02367966666667, "bike_id": "9f0c3a5fb27a51f6d5f1881cf90fac0e", "lat": 38.920540833333334, "fusion_lon": 0.0, "fusion_lat": 0.0, "type": "electric_scooter", "name": "9f0c3a5fb27a51f6d5f1881cf90fac0e", "is_disabled": 0, "rental_uris": {"ios": "https://dc.lft.to/lastmile_qr_scan", "android": "https://dc.lft.to/lastmile_qr_scan"}, "is_reserved": 0}, {"lon": -77.02610683333333, "bike_id": "38503323161e2b5638d5bcdc0beb8b57", "lat": 38.900416, "fusion_lon": 0.0, "fusion_lat": 0.0, "type": "electric_scooter", "name": "38503323161e2b5638d5bcdc0beb8b57", "is_disabled": 0, "rental_uris": {"ios": "https://dc.lft.to/lastmile_qr_scan", "android": "https://dc.lft.to/lastmile_qr_scan"}, "is_reserved": 0}, {"lon": -76.98840616666666, "bike_id": "02d79904399e780110db6bf2adc8c8e6", "lat": 38.89669833333333, "fusion_lon": 0.0, "fusion_lat": 0.0, "type": "electric_scooter", "name": "02d79904399e780110db6bf2adc8c8e6", "is_disabled": 0, "rental_uris": {"ios": "https://dc.lft.to/lastmile_qr_scan", "android": "https://dc.lft.to/lastmile_qr_scan"}, "is_reserved": 0}, {"lon": -77.0651975, "bike_id": "945a3c68d140231e18681953d39e5d16", "lat": 38.90890616666667, "fusion_lon": 0.0, "fusion_lat": 0.0, "type": "electric_scooter", "name": "945a3c68d140231e18681953d39e5d16", "is_disabled": 0, "rental_uris": {"ios": "https://dc.lft.to/lastmile_qr_scan", "android": "https://dc.lft.to/lastmile_qr_scan"}, "is_reserved": 0}, {"lon": -76.98494066666666, "bike_id": "797eb07dc8115bf0921d19987193c5be", "lat": 38.89356733333334, "fusion_lon": 0.0, "fusion_lat": 0.0, "type": "electric_scooter", "name": "797eb07dc8115bf0921d19987193c5be", "is_disabled": 0, "rental_uris": {"ios": "https://dc.lft.to/lastmile_qr_scan", "android": "https://dc.lft.to/lastmile_qr_scan"}, "is_reserved": 0}, {"lon": -77.03860733333333, "bike_id": "587bb9019f95155d4e65e773c64b8801", "lat": 38.925256166666664, "fusion_lon": 0.0, "fusion_lat": 0.0, "type": "electric_scooter", "name": "587bb9019f95155d4e65e773c64b8801", "is_disabled": 0, "rental_uris": {"ios": "https://dc.lft.to/lastmile_qr_scan", "android": "https://dc.lft.to/lastmile_qr_scan"}, "is_reserved": 0}, {"lon": -76.97331016666666, "bike_id": "e76889b2504aa484369d84e9d19403f1", "lat": 38.90482816666667, "fusion_lon": 0.0, "fusion_lat": 0.0, "type": "electric_bike", "name": "e76889b2504aa484369d84e9d19403f1", "is_disabled": 0, "rental_uris": {"ios": "https://dc.lft.to/lastmile_qr_scan", "android": "https://dc.lft.to/lastmile_qr_scan"}, "is_reserved": 0}, {"lon": -76.99795483333334, "bike_id": "c88d606c87a32cd3e2381b7da28bb4aa", "lat": 38.9564635, "fusion_lon": 0.0, "fusion_lat": 0.0, "type": "electric_bike", "name": "c88d606c87a32cd3e2381b7da28bb4aa", "is_disabled": 0, "rental_uris": {"ios": "https://dc.lft.to/lastmile_qr_scan", "android": "https://dc.lft.to/lastmile_qr_scan"}, "is_reserved": 0}, {"lon": -76.95531316666667, "bike_id": "b28d36a09559035091c6b31798e9837e", "lat": 38.887689, "fusion_lon": 0.0, "fusion_lat": 0.0, "type": "electric_scooter", "name": "b28d36a09559035091c6b31798e9837e", "is_disabled": 0, "rental_uris": {"ios": "https://dc.lft.to/lastmile_qr_scan", "android": "https://dc.lft.to/lastmile_qr_scan"}, "is_reserved": 0}, {"lon": -77.00341316666666, "bike_id": "b70845915cf592e076bd8b6adc7b5d9a", "lat": 38.89527116666667, "fusion_lon": 0.0, "fusion_lat": 0.0, "type": "electric_scooter", "name": "b70845915cf592e076bd8b6adc7b5d9a", "is_disabled": 0, "rental_uris": {"ios": "https://dc.lft.to/lastmile_qr_scan", "android": "https://dc.lft.to/lastmile_qr_scan"}, "is_reserved": 0}, {"lon": -76.97856766666666, "bike_id": "1da1c0aed6f90f052b2064e33b8b52d7", "lat": 38.925603333333335, "fusion_lon": 0.0, "fusion_lat": 0.0, "type": "electric_bike", "name": "1da1c0aed6f90f052b2064e33b8b52d7", "is_disabled": 0, "rental_uris": {"ios": "https://dc.lft.to/lastmile_qr_scan", "android": "https://dc.lft.to/lastmile_qr_scan"}, "is_reserved": 0}, {"lon": -77.04152133333334, "bike_id": "12a7b283679d7f1b062e497a21590f42", "lat": 38.915569166666664, "fusion_lon": 0.0, "fusion_lat": 0.0, "type": "electric_scooter", "name": "12a7b283679d7f1b062e497a21590f42", "is_disabled": 0, "rental_uris": {"ios": "https://dc.lft.to/lastmile_qr_scan", "android": "https://dc.lft.to/lastmile_qr_scan"}, "is_reserved": 0}, {"lon": -77.07006033333333, "bike_id": "993faa29511b0284d6a0fc1cf3aa398b", "lat": 38.95855233333333, "fusion_lon": 0.0, "fusion_lat": 0.0, "type": "electric_scooter", "name": "993faa29511b0284d6a0fc1cf3aa398b", "is_disabled": 0, "rental_uris": {"ios": "https://dc.lft.to/lastmile_qr_scan", "android": "https://dc.lft.to/lastmile_qr_scan"}, "is_reserved": 0}, {"lon": -76.9487315, "bike_id": "43cd285ec086b4c83cf04b3ef99e1c32", "lat": 38.895464, "fusion_lon": 0.0, "fusion_lat": 0.0, "type": "electric_scooter", "name": "43cd285ec086b4c83cf04b3ef99e1c32", "is_disabled": 0, "rental_uris": {"ios": "https://dc.lft.to/lastmile_qr_scan", "android": "https://dc.lft.to/lastmile_qr_scan"}, "is_reserved": 0}, {"lon": -77.05254416666666, "bike_id": "416c4e77ac41da093d57713ba9cc4a81", "lat": 38.9237895, "fusion_lon": 0.0, "fusion_lat": 0.0, "type": "electric_scooter", "name": "416c4e77ac41da093d57713ba9cc4a81", "is_disabled": 0, "rental_uris": {"ios": "https://dc.lft.to/lastmile_qr_scan", "android": "https://dc.lft.to/lastmile_qr_scan"}, "is_reserved": 0}, {"lon": -77.0393795, "bike_id": "d2c424603a01a50e8422a32f239c491d", "lat": 38.90059216666667, "fusion_lon": 0.0, "fusion_lat": 0.0, "type": "electric_scooter", "name": "d2c424603a01a50e8422a32f239c491d", "is_disabled": 0, "rental_uris": {"ios": "https://dc.lft.to/lastmile_qr_scan", "android": "https://dc.lft.to/lastmile_qr_scan"}, "is_reserved": 0}, {"lon": -77.020846, "bike_id": "d7f0085bee7fa73a827916035c45d2bd", "lat": 38.94521133333333, "fusion_lon": 0.0, "fusion_lat": 0.0, "type": "electric_scooter", "name": "d7f0085bee7fa73a827916035c45d2bd", "is_disabled": 0, "rental_uris": {"ios": "https://dc.lft.to/lastmile_qr_scan", "android": "https://dc.lft.to/lastmile_qr_scan"}, "is_reserved": 0}, {"lon": -77.0480385, "bike_id": "83edc110e526738e38c29ec284ae9b54", "lat": 38.90976933333334, "fusion_lon": 0.0, "fusion_lat": 0.0, "type": "electric_scooter", "name": "83edc110e526738e38c29ec284ae9b54", "is_disabled": 0, "rental_uris": {"ios": "https://dc.lft.to/lastmile_qr_scan", "android": "https://dc.lft.to/lastmile_qr_scan"}, "is_reserved": 0}, {"lon": -76.99374883333333, "bike_id": "a9ebfe1ebf9c535f88822fd83611253a", "lat": 38.97187616666667, "fusion_lon": 0.0, "fusion_lat": 0.0, "type": "electric_bike", "name": "a9ebfe1ebf9c535f88822fd83611253a", "is_disabled": 0, "rental_uris": {"ios": "https://dc.lft.to/lastmile_qr_scan", "android": "https://dc.lft.to/lastmile_qr_scan"}, "is_reserved": 0}, {"lon": -77.02438483333333, "bike_id": "3becb6c1daa2e4e551f9aa639fdab932", "lat": 38.9169835, "fusion_lon": 0.0, "fusion_lat": 0.0, "type": "electric_scooter", "name": "3becb6c1daa2e4e551f9aa639fdab932", "is_disabled": 0, "rental_uris": {"ios": "https://dc.lft.to/lastmile_qr_scan", "android": "https://dc.lft.to/lastmile_qr_scan"}, "is_reserved": 0}, {"lon": -77.08071933333333, "bike_id": "f7340912a851d3475b928af3a6ab5fc8", "lat": 38.963195166666665, "fusion_lon": 0.0, "fusion_lat": 0.0, "type": "electric_bike", "name": "f7340912a851d3475b928af3a6ab5fc8", "is_disabled": 0, "rental_uris": {"ios": "https://dc.lft.to/lastmile_qr_scan", "android": "https://dc.lft.to/lastmile_qr_scan"}, "is_reserved": 0}, {"lon": -77.02612, "bike_id": "1ef6c9386f9c9e390c4afd09d2397a18", "lat": 38.91694666666667, "fusion_lon": 0.0, "fusion_lat": 0.0, "type": "electric_scooter", "name": "1ef6c9386f9c9e390c4afd09d2397a18", "is_disabled": 0, "rental_uris": {"ios": "https://dc.lft.to/lastmile_qr_scan", "android": "https://dc.lft.to/lastmile_qr_scan"}, "is_reserved": 0}, {"lon": -77.0271765, "bike_id": "d52a0ccaff67f35dcd2fe2a7f41d911f", "lat": 38.89661616666667, "fusion_lon": 0.0, "fusion_lat": 0.0, "type": "electric_scooter", "name": "d52a0ccaff67f35dcd2fe2a7f41d911f", "is_disabled": 0, "rental_uris": {"ios": "https://dc.lft.to/lastmile_qr_scan", "android": "https://dc.lft.to/lastmile_qr_scan"}, "is_reserved": 0}, {"lon": -77.00888466666666, "bike_id": "81d2904de33236f3a47b28aee440e5ae", "lat": 38.917178, "fusion_lon": 0.0, "fusion_lat": 0.0, "type": "electric_scooter", "name": "81d2904de33236f3a47b28aee440e5ae", "is_disabled": 0, "rental_uris": {"ios": "https://dc.lft.to/lastmile_qr_scan", "android": "https://dc.lft.to/lastmile_qr_scan"}, "is_reserved": 0}, {"lon": -77.03164366666667, "bike_id": "40f2399c582016f5059c0031583d76d0", "lat": 38.91570733333333, "fusion_lon": 0.0, "fusion_lat": 0.0, "type": "electric_scooter", "name": "40f2399c582016f5059c0031583d76d0", "is_disabled": 0, "rental_uris": {"ios": "https://dc.lft.to/lastmile_qr_scan", "android": "https://dc.lft.to/lastmile_qr_scan"}, "is_reserved": 0}, {"lon": -77.01118233333334, "bike_id": "8e595247059cb45cfa6d1ace5dcf78a3", "lat": 38.900057833333335, "fusion_lon": 0.0, "fusion_lat": 0.0, "type": "electric_scooter", "name": "8e595247059cb45cfa6d1ace5dcf78a3", "is_disabled": 0, "rental_uris": {"ios": "https://dc.lft.to/lastmile_qr_scan", "android": "https://dc.lft.to/lastmile_qr_scan"}, "is_reserved": 0}, {"lon": -76.9946295, "bike_id": "2ef1b081fe66073eae076e818006daa6", "lat": 38.86224683333333, "fusion_lon": 0.0, "fusion_lat": 0.0, "type": "electric_scooter", "name": "2ef1b081fe66073eae076e818006daa6", "is_disabled": 0, "rental_uris": {"ios": "https://dc.lft.to/lastmile_qr_scan", "android": "https://dc.lft.to/lastmile_qr_scan"}, "is_reserved": 0}, {"lon": -77.04814166666667, "bike_id": "59d6af4da410d3ee7808d56642ee8f37", "lat": 38.91645, "fusion_lon": 0.0, "fusion_lat": 0.0, "type": "electric_scooter", "name": "59d6af4da410d3ee7808d56642ee8f37", "is_disabled": 0, "rental_uris": {"ios": "https://dc.lft.to/lastmile_qr_scan", "android": "https://dc.lft.to/lastmile_qr_scan"}, "is_reserved": 0}, {"lon": -77.02227166666667, "bike_id": "bef1c5e5f2cd75f5984ee593dd0ea4c9", "lat": 38.91411983333333, "fusion_lon": 0.0, "fusion_lat": 0.0, "type": "electric_scooter", "name": "bef1c5e5f2cd75f5984ee593dd0ea4c9", "is_disabled": 0, "rental_uris": {"ios": "https://dc.lft.to/lastmile_qr_scan", "android": "https://dc.lft.to/lastmile_qr_scan"}, "is_reserved": 0}, {"lon": -77.03405683333334, "bike_id": "7fe0c6a014b35f0bb39884d6bcdcc23a", "lat": 38.931253833333336, "fusion_lon": 0.0, "fusion_lat": 0.0, "type": "electric_scooter", "name": "7fe0c6a014b35f0bb39884d6bcdcc23a", "is_disabled": 0, "rental_uris": {"ios": "https://dc.lft.to/lastmile_qr_scan", "android": "https://dc.lft.to/lastmile_qr_scan"}, "is_reserved": 0}, {"lon": -77.02148933333334, "bike_id": "b6ed06cbe86ed5540874b8ba05ecad00", "lat": 38.93309816666667, "fusion_lon": 0.0, "fusion_lat": 0.0, "type": "electric_scooter", "name": "b6ed06cbe86ed5540874b8ba05ecad00", "is_disabled": 0, "rental_uris": {"ios": "https://dc.lft.to/lastmile_qr_scan", "android": "https://dc.lft.to/lastmile_qr_scan"}, "is_reserved": 0}, {"lon": -77.03065866666667, "bike_id": "6218d4ae4108cfa70b74cceb5dacbbbb", "lat": 38.90817583333333, "fusion_lon": 0.0, "fusion_lat": 0.0, "type": "electric_scooter", "name": "6218d4ae4108cfa70b74cceb5dacbbbb", "is_disabled": 0, "rental_uris": {"ios": "https://dc.lft.to/lastmile_qr_scan", "android": "https://dc.lft.to/lastmile_qr_scan"}, "is_reserved": 0}, {"lon": -77.0234065, "bike_id": "8960f58294710364d1eb88d09e99fb0e", "lat": 38.904124833333334, "fusion_lon": 0.0, "fusion_lat": 0.0, "type": "electric_scooter", "name": "8960f58294710364d1eb88d09e99fb0e", "is_disabled": 0, "rental_uris": {"ios": "https://dc.lft.to/lastmile_qr_scan", "android": "https://dc.lft.to/lastmile_qr_scan"}, "is_reserved": 0}, {"lon": -77.064898, "bike_id": "3b90e87f84c451ce4f11d665a464843c", "lat": 38.92905116666667, "fusion_lon": 0.0, "fusion_lat": 0.0, "type": "electric_scooter", "name": "3b90e87f84c451ce4f11d665a464843c", "is_disabled": 0, "rental_uris": {"ios": "https://dc.lft.to/lastmile_qr_scan", "android": "https://dc.lft.to/lastmile_qr_scan"}, "is_reserved": 0}, {"lon": -77.02671533333333, "bike_id": "aba48520d0852d14273cc695153b449a", "lat": 38.984328166666664, "fusion_lon": 0.0, "fusion_lat": 0.0, "type": "electric_scooter", "name": "aba48520d0852d14273cc695153b449a", "is_disabled": 0, "rental_uris": {"ios": "https://dc.lft.to/lastmile_qr_scan", "android": "https://dc.lft.to/lastmile_qr_scan"}, "is_reserved": 0}, {"lon": -77.0320615, "bike_id": "e7acff737fcd502eeb78719537ac1460", "lat": 38.915484666666664, "fusion_lon": 0.0, "fusion_lat": 0.0, "type": "electric_scooter", "name": "e7acff737fcd502eeb78719537ac1460", "is_disabled": 0, "rental_uris": {"ios": "https://dc.lft.to/lastmile_qr_scan", "android": "https://dc.lft.to/lastmile_qr_scan"}, "is_reserved": 0}, {"lon": -77.00199383333333, "bike_id": "a5bdc2cded69df8aee943635ad197b34", "lat": 38.900249333333335, "fusion_lon": 0.0, "fusion_lat": 0.0, "type": "electric_scooter", "name": "a5bdc2cded69df8aee943635ad197b34", "is_disabled": 0, "rental_uris": {"ios": "https://dc.lft.to/lastmile_qr_scan", "android": "https://dc.lft.to/lastmile_qr_scan"}, "is_reserved": 0}, {"lon": -76.98033883333333, "bike_id": "68c6e38cadd226202fce94d136284ea5", "lat": 38.8897055, "fusion_lon": 0.0, "fusion_lat": 0.0, "type": "electric_scooter", "name": "68c6e38cadd226202fce94d136284ea5", "is_disabled": 0, "rental_uris": {"ios": "https://dc.lft.to/lastmile_qr_scan", "android": "https://dc.lft.to/lastmile_qr_scan"}, "is_reserved": 0}, {"lon": -76.99015366666667, "bike_id": "8f73cd7304b05bd887fe8e1a1571d14e", "lat": 38.8941705, "fusion_lon": 0.0, "fusion_lat": 0.0, "type": "electric_scooter", "name": "8f73cd7304b05bd887fe8e1a1571d14e", "is_disabled": 0, "rental_uris": {"ios": "https://dc.lft.to/lastmile_qr_scan", "android": "https://dc.lft.to/lastmile_qr_scan"}, "is_reserved": 0}, {"lon": -77.02615783333333, "bike_id": "f093806f5080dc882e1767202e078b33", "lat": 38.9056595, "fusion_lon": 0.0, "fusion_lat": 0.0, "type": "electric_scooter", "name": "f093806f5080dc882e1767202e078b33", "is_disabled": 0, "rental_uris": {"ios": "https://dc.lft.to/lastmile_qr_scan", "android": "https://dc.lft.to/lastmile_qr_scan"}, "is_reserved": 0}, {"lon": -77.00726833333333, "bike_id": "dc93462399bd589dc910de7845481eb1", "lat": 38.959623666666666, "fusion_lon": 0.0, "fusion_lat": 0.0, "type": "electric_scooter", "name": "dc93462399bd589dc910de7845481eb1", "is_disabled": 0, "rental_uris": {"ios": "https://dc.lft.to/lastmile_qr_scan", "android": "https://dc.lft.to/lastmile_qr_scan"}, "is_reserved": 0}, {"lon": -77.04631516666667, "bike_id": "66840354d9f35ea33174e2498c339861", "lat": 38.919071833333334, "fusion_lon": 0.0, "fusion_lat": 0.0, "type": "electric_scooter", "name": "66840354d9f35ea33174e2498c339861", "is_disabled": 0, "rental_uris": {"ios": "https://dc.lft.to/lastmile_qr_scan", "android": "https://dc.lft.to/lastmile_qr_scan"}, "is_reserved": 0}, {"lon": -77.0163065, "bike_id": "662939c65a2959f13fc4aa8225899ea6", "lat": 38.90709983333333, "fusion_lon": 0.0, "fusion_lat": 0.0, "type": "electric_scooter", "name": "662939c65a2959f13fc4aa8225899ea6", "is_disabled": 0, "rental_uris": {"ios": "https://dc.lft.to/lastmile_qr_scan", "android": "https://dc.lft.to/lastmile_qr_scan"}, "is_reserved": 0}, {"lon": -77.0416255, "bike_id": "22e7d862b5c07993aaddce1b743afd26", "lat": 38.90349233333333, "fusion_lon": 0.0, "fusion_lat": 0.0, "type": "electric_scooter", "name": "22e7d862b5c07993aaddce1b743afd26", "is_disabled": 0, "rental_uris": {"ios": "https://dc.lft.to/lastmile_qr_scan", "android": "https://dc.lft.to/lastmile_qr_scan"}, "is_reserved": 0}, {"lon": -77.02487716666667, "bike_id": "b702c0617f0d45440cff8448b0b6b4c9", "lat": 38.93867066666667, "fusion_lon": 0.0, "fusion_lat": 0.0, "type": "electric_scooter", "name": "b702c0617f0d45440cff8448b0b6b4c9", "is_disabled": 0, "rental_uris": {"ios": "https://dc.lft.to/lastmile_qr_scan", "android": "https://dc.lft.to/lastmile_qr_scan"}, "is_reserved": 0}, {"lon": -77.06715933333334, "bike_id": "115d83dd23ddbe126b5b06281e3feee1", "lat": 38.90351583333333, "fusion_lon": 0.0, "fusion_lat": 0.0, "type": "electric_scooter", "name": "115d83dd23ddbe126b5b06281e3feee1", "is_disabled": 0, "rental_uris": {"ios": "https://dc.lft.to/lastmile_qr_scan", "android": "https://dc.lft.to/lastmile_qr_scan"}, "is_reserved": 0}, {"lon": -77.02753133333333, "bike_id": "4d79d1c1ba2123d9bc60c8cef63b5c3b", "lat": 38.8922315, "fusion_lon": 0.0, "fusion_lat": 0.0, "type": "electric_scooter", "name": "4d79d1c1ba2123d9bc60c8cef63b5c3b", "is_disabled": 0, "rental_uris": {"ios": "https://dc.lft.to/lastmile_qr_scan", "android": "https://dc.lft.to/lastmile_qr_scan"}, "is_reserved": 0}, {"lon": -77.04374333333334, "bike_id": "515c58be138984f8913656b0f31f1a9b", "lat": 38.92129, "fusion_lon": 0.0, "fusion_lat": 0.0, "type": "electric_scooter", "name": "515c58be138984f8913656b0f31f1a9b", "is_disabled": 0, "rental_uris": {"ios": "https://dc.lft.to/lastmile_qr_scan", "android": "https://dc.lft.to/lastmile_qr_scan"}, "is_reserved": 0}, {"lon": -77.02168683333333, "bike_id": "146d7f33cd13a1e0ae0dce87df8cd6d5", "lat": 38.914910666666664, "fusion_lon": 0.0, "fusion_lat": 0.0, "type": "electric_scooter", "name": "146d7f33cd13a1e0ae0dce87df8cd6d5", "is_disabled": 0, "rental_uris": {"ios": "https://dc.lft.to/lastmile_qr_scan", "android": "https://dc.lft.to/lastmile_qr_scan"}, "is_reserved": 0}, {"lon": -77.02973683333333, "bike_id": "8a5a45de1eeeedd8380a15fb60d9b42f", "lat": 38.91678733333333, "fusion_lon": 0.0, "fusion_lat": 0.0, "type": "electric_scooter", "name": "8a5a45de1eeeedd8380a15fb60d9b42f", "is_disabled": 0, "rental_uris": {"ios": "https://dc.lft.to/lastmile_qr_scan", "android": "https://dc.lft.to/lastmile_qr_scan"}, "is_reserved": 0}, {"lon": -77.0177205, "bike_id": "02fc523cf15afd90f4bddc1673565929", "lat": 38.88588716666667, "fusion_lon": 0.0, "fusion_lat": 0.0, "type": "electric_scooter", "name": "02fc523cf15afd90f4bddc1673565929", "is_disabled": 0, "rental_uris": {"ios": "https://dc.lft.to/lastmile_qr_scan", "android": "https://dc.lft.to/lastmile_qr_scan"}, "is_reserved": 0}, {"lon": -77.034155, "bike_id": "db1c274fafc5f6a51adc98ae17653822", "lat": 38.92744916666667, "fusion_lon": 0.0, "fusion_lat": 0.0, "type": "electric_scooter", "name": "db1c274fafc5f6a51adc98ae17653822", "is_disabled": 0, "rental_uris": {"ios": "https://dc.lft.to/lastmile_qr_scan", "android": "https://dc.lft.to/lastmile_qr_scan"}, "is_reserved": 0}, {"lon": -77.03629916666667, "bike_id": "0ce7f7c0a803ee48ea957b5b81ddc8d7", "lat": 38.9233555, "fusion_lon": 0.0, "fusion_lat": 0.0, "type": "electric_scooter", "name": "0ce7f7c0a803ee48ea957b5b81ddc8d7", "is_disabled": 0, "rental_uris": {"ios": "https://dc.lft.to/lastmile_qr_scan", "android": "https://dc.lft.to/lastmile_qr_scan"}, "is_reserved": 0}, {"lon": -77.0307305, "bike_id": "64f6a9e78d8202446083c417204c5209", "lat": 38.905747166666664, "fusion_lon": 0.0, "fusion_lat": 0.0, "type": "electric_scooter", "name": "64f6a9e78d8202446083c417204c5209", "is_disabled": 0, "rental_uris": {"ios": "https://dc.lft.to/lastmile_qr_scan", "android": "https://dc.lft.to/lastmile_qr_scan"}, "is_reserved": 0}, {"lon": -77.03358416666667, "bike_id": "ebc62c6bddcd42feec26328b3b6785c3", "lat": 38.9625175, "fusion_lon": 0.0, "fusion_lat": 0.0, "type": "electric_scooter", "name": "ebc62c6bddcd42feec26328b3b6785c3", "is_disabled": 0, "rental_uris": {"ios": "https://dc.lft.to/lastmile_qr_scan", "android": "https://dc.lft.to/lastmile_qr_scan"}, "is_reserved": 0}, {"lon": -77.0438945, "bike_id": "2a4a6fd4d7c020be1ba38838a4b56e15", "lat": 39.0472055, "fusion_lon": 0.0, "fusion_lat": 0.0, "type": "electric_bike", "name": "2a4a6fd4d7c020be1ba38838a4b56e15", "is_disabled": 0, "rental_uris": {"ios": "https://dc.lft.to/lastmile_qr_scan", "android": "https://dc.lft.to/lastmile_qr_scan"}, "is_reserved": 0}, {"lon": -77.03947166666667, "bike_id": "9ec1de433f4b3a47a245248ab4fbfde5", "lat": 38.902466, "fusion_lon": 0.0, "fusion_lat": 0.0, "type": "electric_scooter", "name": "9ec1de433f4b3a47a245248ab4fbfde5", "is_disabled": 0, "rental_uris": {"ios": "https://dc.lft.to/lastmile_qr_scan", "android": "https://dc.lft.to/lastmile_qr_scan"}, "is_reserved": 0}, {"lon": -76.99270566666667, "bike_id": "c5baa0fad792fadf7541116e430934a2", "lat": 38.899481333333334, "fusion_lon": 0.0, "fusion_lat": 0.0, "type": "electric_scooter", "name": "c5baa0fad792fadf7541116e430934a2", "is_disabled": 0, "rental_uris": {"ios": "https://dc.lft.to/lastmile_qr_scan", "android": "https://dc.lft.to/lastmile_qr_scan"}, "is_reserved": 0}, {"lon": -77.02235116666667, "bike_id": "3f2c8dc03cfc4e21dfdf61b19f39f97c", "lat": 38.92612883333334, "fusion_lon": 0.0, "fusion_lat": 0.0, "type": "electric_scooter", "name": "3f2c8dc03cfc4e21dfdf61b19f39f97c", "is_disabled": 0, "rental_uris": {"ios": "https://dc.lft.to/lastmile_qr_scan", "android": "https://dc.lft.to/lastmile_qr_scan"}, "is_reserved": 0}, {"lon": -77.04410316666667, "bike_id": "309dd5e19d0aec4b5dfff2bc9490168d", "lat": 38.924499, "fusion_lon": 0.0, "fusion_lat": 0.0, "type": "electric_scooter", "name": "309dd5e19d0aec4b5dfff2bc9490168d", "is_disabled": 0, "rental_uris": {"ios": "https://dc.lft.to/lastmile_qr_scan", "android": "https://dc.lft.to/lastmile_qr_scan"}, "is_reserved": 0}, {"lon": -77.02181766666666, "bike_id": "601448298dab181a1640f442c1c0f39e", "lat": 38.93952133333333, "fusion_lon": 0.0, "fusion_lat": 0.0, "type": "electric_scooter", "name": "601448298dab181a1640f442c1c0f39e", "is_disabled": 0, "rental_uris": {"ios": "https://dc.lft.to/lastmile_qr_scan", "android": "https://dc.lft.to/lastmile_qr_scan"}, "is_reserved": 0}, {"lon": -77.04210783333333, "bike_id": "97894ad8880315fa8384b7656f351bbd", "lat": 38.921318, "fusion_lon": 0.0, "fusion_lat": 0.0, "type": "electric_scooter", "name": "97894ad8880315fa8384b7656f351bbd", "is_disabled": 0, "rental_uris": {"ios": "https://dc.lft.to/lastmile_qr_scan", "android": "https://dc.lft.to/lastmile_qr_scan"}, "is_reserved": 0}, {"lon": -77.08185083333333, "bike_id": "52b230d08126f18b54bc52b452dc459b", "lat": 38.933387, "fusion_lon": 0.0, "fusion_lat": 0.0, "type": "electric_bike", "name": "52b230d08126f18b54bc52b452dc459b", "is_disabled": 0, "rental_uris": {"ios": "https://dc.lft.to/lastmile_qr_scan", "android": "https://dc.lft.to/lastmile_qr_scan"}, "is_reserved": 0}, {"lon": -77.03580033333333, "bike_id": "4a97293d4c33b6a32c89e3a1ae05a9d2", "lat": 38.9075795, "fusion_lon": 0.0, "fusion_lat": 0.0, "type": "electric_scooter", "name": "4a97293d4c33b6a32c89e3a1ae05a9d2", "is_disabled": 0, "rental_uris": {"ios": "https://dc.lft.to/lastmile_qr_scan", "android": "https://dc.lft.to/lastmile_qr_scan"}, "is_reserved": 0}, {"lon": -76.98923433333333, "bike_id": "c69fc450dd7f0ce9f19a04e435ea23aa", "lat": 38.85810016666667, "fusion_lon": 0.0, "fusion_lat": 0.0, "type": "electric_scooter", "name": "c69fc450dd7f0ce9f19a04e435ea23aa", "is_disabled": 0, "rental_uris": {"ios": "https://dc.lft.to/lastmile_qr_scan", "android": "https://dc.lft.to/lastmile_qr_scan"}, "is_reserved": 0}, {"lon": -77.02111433333333, "bike_id": "06902638d5d51e0630f739e33eb6eb7d", "lat": 38.90606283333334, "fusion_lon": 0.0, "fusion_lat": 0.0, "type": "electric_scooter", "name": "06902638d5d51e0630f739e33eb6eb7d", "is_disabled": 0, "rental_uris": {"ios": "https://dc.lft.to/lastmile_qr_scan", "android": "https://dc.lft.to/lastmile_qr_scan"}, "is_reserved": 0}, {"lon": -77.0499785, "bike_id": "e4a6b22258a2e5dc58f589645f78ce50", "lat": 38.892320833333336, "fusion_lon": 0.0, "fusion_lat": 0.0, "type": "electric_scooter", "name": "e4a6b22258a2e5dc58f589645f78ce50", "is_disabled": 0, "rental_uris": {"ios": "https://dc.lft.to/lastmile_qr_scan", "android": "https://dc.lft.to/lastmile_qr_scan"}, "is_reserved": 0}, {"lon": -77.06262, "bike_id": "aded5ff84923532841e231585cdaf49d", "lat": 38.905307, "fusion_lon": 0.0, "fusion_lat": 0.0, "type": "electric_scooter", "name": "aded5ff84923532841e231585cdaf49d", "is_disabled": 0, "rental_uris": {"ios": "https://dc.lft.to/lastmile_qr_scan", "android": "https://dc.lft.to/lastmile_qr_scan"}, "is_reserved": 0}, {"lon": -77.00200983333333, "bike_id": "97f8ca8d33e2ff6b060d32d66174cead", "lat": 38.902424, "fusion_lon": 0.0, "fusion_lat": 0.0, "type": "electric_scooter", "name": "97f8ca8d33e2ff6b060d32d66174cead", "is_disabled": 0, "rental_uris": {"ios": "https://dc.lft.to/lastmile_qr_scan", "android": "https://dc.lft.to/lastmile_qr_scan"}, "is_reserved": 0}, {"lon": -77.05022316666667, "bike_id": "f071543788d00f8b1d531073ba97b708", "lat": 38.898133, "fusion_lon": 0.0, "fusion_lat": 0.0, "type": "electric_scooter", "name": "f071543788d00f8b1d531073ba97b708", "is_disabled": 0, "rental_uris": {"ios": "https://dc.lft.to/lastmile_qr_scan", "android": "https://dc.lft.to/lastmile_qr_scan"}, "is_reserved": 0}, {"lon": -77.0434275, "bike_id": "abf82a2626417518cf20b057b27e5b2a", "lat": 38.898609, "fusion_lon": 0.0, "fusion_lat": 0.0, "type": "electric_scooter", "name": "abf82a2626417518cf20b057b27e5b2a", "is_disabled": 0, "rental_uris": {"ios": "https://dc.lft.to/lastmile_qr_scan", "android": "https://dc.lft.to/lastmile_qr_scan"}, "is_reserved": 0}, {"lon": -76.94125966666667, "bike_id": "de2fbd64313993ad8d59bb0799b745a6", "lat": 38.88606733333334, "fusion_lon": 0.0, "fusion_lat": 0.0, "type": "electric_scooter", "name": "de2fbd64313993ad8d59bb0799b745a6", "is_disabled": 0, "rental_uris": {"ios": "https://dc.lft.to/lastmile_qr_scan", "android": "https://dc.lft.to/lastmile_qr_scan"}, "is_reserved": 0}, {"lon": -77.03843966666666, "bike_id": "43f675e38c91c107dd8fc72534c9ca83", "lat": 38.925489166666665, "fusion_lon": 0.0, "fusion_lat": 0.0, "type": "electric_scooter", "name": "43f675e38c91c107dd8fc72534c9ca83", "is_disabled": 0, "rental_uris": {"ios": "https://dc.lft.to/lastmile_qr_scan", "android": "https://dc.lft.to/lastmile_qr_scan"}, "is_reserved": 0}, {"lon": -77.05036033333333, "bike_id": "3b654a71d66ccb484f4aad865324602d", "lat": 38.923663833333336, "fusion_lon": 0.0, "fusion_lat": 0.0, "type": "electric_scooter", "name": "3b654a71d66ccb484f4aad865324602d", "is_disabled": 0, "rental_uris": {"ios": "https://dc.lft.to/lastmile_qr_scan", "android": "https://dc.lft.to/lastmile_qr_scan"}, "is_reserved": 0}, {"lon": -77.02244666666667, "bike_id": "766b0180d7f03aee27f76a25e3ecd7cd", "lat": 38.92268216666667, "fusion_lon": 0.0, "fusion_lat": 0.0, "type": "electric_scooter", "name": "766b0180d7f03aee27f76a25e3ecd7cd", "is_disabled": 0, "rental_uris": {"ios": "https://dc.lft.to/lastmile_qr_scan", "android": "https://dc.lft.to/lastmile_qr_scan"}, "is_reserved": 0}, {"lon": -77.05210466666666, "bike_id": "f21ec0dbf8817a33bc30d8593a0043f2", "lat": 38.915673, "fusion_lon": 0.0, "fusion_lat": 0.0, "type": "electric_scooter", "name": "f21ec0dbf8817a33bc30d8593a0043f2", "is_disabled": 0, "rental_uris": {"ios": "https://dc.lft.to/lastmile_qr_scan", "android": "https://dc.lft.to/lastmile_qr_scan"}, "is_reserved": 0}, {"lon": -77.027092, "bike_id": "d2d44585279b5540074dda72201b1704", "lat": 38.91676866666667, "fusion_lon": 0.0, "fusion_lat": 0.0, "type": "electric_scooter", "name": "d2d44585279b5540074dda72201b1704", "is_disabled": 0, "rental_uris": {"ios": "https://dc.lft.to/lastmile_qr_scan", "android": "https://dc.lft.to/lastmile_qr_scan"}, "is_reserved": 0}, {"lon": -76.98493233333333, "bike_id": "5fea9c8bd8b123db92ee3d9773a76349", "lat": 38.878373333333336, "fusion_lon": 0.0, "fusion_lat": 0.0, "type": "electric_scooter", "name": "5fea9c8bd8b123db92ee3d9773a76349", "is_disabled": 0, "rental_uris": {"ios": "https://dc.lft.to/lastmile_qr_scan", "android": "https://dc.lft.to/lastmile_qr_scan"}, "is_reserved": 0}, {"lon": -77.0354235, "bike_id": "705d1823e9b96f3e8509baafd1c99acc", "lat": 38.90772366666667, "fusion_lon": 0.0, "fusion_lat": 0.0, "type": "electric_scooter", "name": "705d1823e9b96f3e8509baafd1c99acc", "is_disabled": 0, "rental_uris": {"ios": "https://dc.lft.to/lastmile_qr_scan", "android": "https://dc.lft.to/lastmile_qr_scan"}, "is_reserved": 0}, {"lon": -77.00428283333333, "bike_id": "857c1b45745a2f9fc9d59dc8ea5747cb", "lat": 38.913339666666666, "fusion_lon": 0.0, "fusion_lat": 0.0, "type": "electric_scooter", "name": "857c1b45745a2f9fc9d59dc8ea5747cb", "is_disabled": 0, "rental_uris": {"ios": "https://dc.lft.to/lastmile_qr_scan", "android": "https://dc.lft.to/lastmile_qr_scan"}, "is_reserved": 0}, {"lon": -77.02007916666666, "bike_id": "4455e34428afa854e0410a1efc8c46da", "lat": 38.901506, "fusion_lon": 0.0, "fusion_lat": 0.0, "type": "electric_scooter", "name": "4455e34428afa854e0410a1efc8c46da", "is_disabled": 0, "rental_uris": {"ios": "https://dc.lft.to/lastmile_qr_scan", "android": "https://dc.lft.to/lastmile_qr_scan"}, "is_reserved": 0}, {"lon": -77.032629, "bike_id": "64881603ed400cee426285f2b2994f66", "lat": 38.920694833333336, "fusion_lon": 0.0, "fusion_lat": 0.0, "type": "electric_scooter", "name": "64881603ed400cee426285f2b2994f66", "is_disabled": 0, "rental_uris": {"ios": "https://dc.lft.to/lastmile_qr_scan", "android": "https://dc.lft.to/lastmile_qr_scan"}, "is_reserved": 0}, {"lon": -77.03348433333333, "bike_id": "78515a3135f83dd5c3264bbd742a332e", "lat": 38.887092333333335, "fusion_lon": 0.0, "fusion_lat": 0.0, "type": "electric_scooter", "name": "78515a3135f83dd5c3264bbd742a332e", "is_disabled": 0, "rental_uris": {"ios": "https://dc.lft.to/lastmile_qr_scan", "android": "https://dc.lft.to/lastmile_qr_scan"}, "is_reserved": 0}, {"lon": -76.946344, "bike_id": "5930c1d7cd8b36d81c069f38745742ef", "lat": 38.898347, "fusion_lon": 0.0, "fusion_lat": 0.0, "type": "electric_scooter", "name": "5930c1d7cd8b36d81c069f38745742ef", "is_disabled": 0, "rental_uris": {"ios": "https://dc.lft.to/lastmile_qr_scan", "android": "https://dc.lft.to/lastmile_qr_scan"}, "is_reserved": 0}, {"lon": -77.04497016666667, "bike_id": "b0ad7f7d860c92024dcada3099913977", "lat": 38.913286666666664, "fusion_lon": 0.0, "fusion_lat": 0.0, "type": "electric_scooter", "name": "b0ad7f7d860c92024dcada3099913977", "is_disabled": 0, "rental_uris": {"ios": "https://dc.lft.to/lastmile_qr_scan", "android": "https://dc.lft.to/lastmile_qr_scan"}, "is_reserved": 0}, {"lon": -77.0320935, "bike_id": "f108ca6ec4bbca158e398be87350472f", "lat": 38.916781666666665, "fusion_lon": 0.0, "fusion_lat": 0.0, "type": "electric_scooter", "name": "f108ca6ec4bbca158e398be87350472f", "is_disabled": 0, "rental_uris": {"ios": "https://dc.lft.to/lastmile_qr_scan", "android": "https://dc.lft.to/lastmile_qr_scan"}, "is_reserved": 0}, {"lon": -77.02941066666666, "bike_id": "353ededac2a3af16299f5d497acd9521", "lat": 38.89808016666667, "fusion_lon": 0.0, "fusion_lat": 0.0, "type": "electric_scooter", "name": "353ededac2a3af16299f5d497acd9521", "is_disabled": 0, "rental_uris": {"ios": "https://dc.lft.to/lastmile_qr_scan", "android": "https://dc.lft.to/lastmile_qr_scan"}, "is_reserved": 0}, {"lon": -77.04944266666666, "bike_id": "ea4fe056bb5000266b0ed045c57ed25b", "lat": 38.90856483333334, "fusion_lon": 0.0, "fusion_lat": 0.0, "type": "electric_scooter", "name": "ea4fe056bb5000266b0ed045c57ed25b", "is_disabled": 0, "rental_uris": {"ios": "https://dc.lft.to/lastmile_qr_scan", "android": "https://dc.lft.to/lastmile_qr_scan"}, "is_reserved": 0}, {"lon": -76.983627, "bike_id": "f1266febcd9e76727ab0d91c72b486de", "lat": 38.91605783333333, "fusion_lon": 0.0, "fusion_lat": 0.0, "type": "electric_scooter", "name": "f1266febcd9e76727ab0d91c72b486de", "is_disabled": 0, "rental_uris": {"ios": "https://dc.lft.to/lastmile_qr_scan", "android": "https://dc.lft.to/lastmile_qr_scan"}, "is_reserved": 0}, {"lon": -77.02541283333333, "bike_id": "05cf27b7562c1d04a4bc69ea205872cc", "lat": 38.919895, "fusion_lon": 0.0, "fusion_lat": 0.0, "type": "electric_scooter", "name": "05cf27b7562c1d04a4bc69ea205872cc", "is_disabled": 0, "rental_uris": {"ios": "https://dc.lft.to/lastmile_qr_scan", "android": "https://dc.lft.to/lastmile_qr_scan"}, "is_reserved": 0}, {"lon": -77.00914416666667, "bike_id": "14bfb1221e47c0614b18f327a5aa6a4d", "lat": 38.8278755, "fusion_lon": 0.0, "fusion_lat": 0.0, "type": "electric_bike", "name": "14bfb1221e47c0614b18f327a5aa6a4d", "is_disabled": 0, "rental_uris": {"ios": "https://dc.lft.to/lastmile_qr_scan", "android": "https://dc.lft.to/lastmile_qr_scan"}, "is_reserved": 0}, {"lon": -76.986608, "bike_id": "9ddf803e7b95e6f8ba5692f5e7744d41", "lat": 38.90253283333333, "fusion_lon": 0.0, "fusion_lat": 0.0, "type": "electric_scooter", "name": "9ddf803e7b95e6f8ba5692f5e7744d41", "is_disabled": 0, "rental_uris": {"ios": "https://dc.lft.to/lastmile_qr_scan", "android": "https://dc.lft.to/lastmile_qr_scan"}, "is_reserved": 0}, {"lon": -77.04720216666666, "bike_id": "c7c3fd9ab9efe508c5b016227f041583", "lat": 38.92234366666667, "fusion_lon": 0.0, "fusion_lat": 0.0, "type": "electric_scooter", "name": "c7c3fd9ab9efe508c5b016227f041583", "is_disabled": 0, "rental_uris": {"ios": "https://dc.lft.to/lastmile_qr_scan", "android": "https://dc.lft.to/lastmile_qr_scan"}, "is_reserved": 0}, {"lon": -77.04153366666667, "bike_id": "19f9cb7a85b434faacd2c0c363ead666", "lat": 38.915597, "fusion_lon": 0.0, "fusion_lat": 0.0, "type": "electric_scooter", "name": "19f9cb7a85b434faacd2c0c363ead666", "is_disabled": 0, "rental_uris": {"ios": "https://dc.lft.to/lastmile_qr_scan", "android": "https://dc.lft.to/lastmile_qr_scan"}, "is_reserved": 0}, {"lon": -76.99950966666667, "bike_id": "235fce1f4dc636af9af8c8cb86f976c7", "lat": 38.90861616666667, "fusion_lon": 0.0, "fusion_lat": 0.0, "type": "electric_scooter", "name": "235fce1f4dc636af9af8c8cb86f976c7", "is_disabled": 0, "rental_uris": {"ios": "https://dc.lft.to/lastmile_qr_scan", "android": "https://dc.lft.to/lastmile_qr_scan"}, "is_reserved": 0}, {"lon": -77.03857166666667, "bike_id": "eee932eff938ad26f4966bba0ac28b7c", "lat": 38.90679866666667, "fusion_lon": 0.0, "fusion_lat": 0.0, "type": "electric_scooter", "name": "eee932eff938ad26f4966bba0ac28b7c", "is_disabled": 0, "rental_uris": {"ios": "https://dc.lft.to/lastmile_qr_scan", "android": "https://dc.lft.to/lastmile_qr_scan"}, "is_reserved": 0}, {"lon": -77.06944816666666, "bike_id": "440b014f4a1d37e5658af93d6e315d23", "lat": 38.904272666666664, "fusion_lon": 0.0, "fusion_lat": 0.0, "type": "electric_bike", "name": "440b014f4a1d37e5658af93d6e315d23", "is_disabled": 0, "rental_uris": {"ios": "https://dc.lft.to/lastmile_qr_scan", "android": "https://dc.lft.to/lastmile_qr_scan"}, "is_reserved": 0}, {"lon": -76.93609333333333, "bike_id": "e9654d716aa3632340153e01ec5b0142", "lat": 38.89687833333333, "fusion_lon": 0.0, "fusion_lat": 0.0, "type": "electric_scooter", "name": "e9654d716aa3632340153e01ec5b0142", "is_disabled": 0, "rental_uris": {"ios": "https://dc.lft.to/lastmile_qr_scan", "android": "https://dc.lft.to/lastmile_qr_scan"}, "is_reserved": 0}, {"lon": -77.0513035, "bike_id": "f0a6e604d422d9cafde6cbc094793c02", "lat": 38.90428433333334, "fusion_lon": 0.0, "fusion_lat": 0.0, "type": "electric_scooter", "name": "f0a6e604d422d9cafde6cbc094793c02", "is_disabled": 0, "rental_uris": {"ios": "https://dc.lft.to/lastmile_qr_scan", "android": "https://dc.lft.to/lastmile_qr_scan"}, "is_reserved": 0}, {"lon": -77.00068266666666, "bike_id": "5036f2101fe1a1b73a85b1f758386d05", "lat": 38.92431033333333, "fusion_lon": 0.0, "fusion_lat": 0.0, "type": "electric_scooter", "name": "5036f2101fe1a1b73a85b1f758386d05", "is_disabled": 0, "rental_uris": {"ios": "https://dc.lft.to/lastmile_qr_scan", "android": "https://dc.lft.to/lastmile_qr_scan"}, "is_reserved": 0}, {"lon": -77.04271633333333, "bike_id": "9717efc2e78c4a1299c155cdb0e70bb6", "lat": 38.917886333333335, "fusion_lon": 0.0, "fusion_lat": 0.0, "type": "electric_scooter", "name": "9717efc2e78c4a1299c155cdb0e70bb6", "is_disabled": 0, "rental_uris": {"ios": "https://dc.lft.to/lastmile_qr_scan", "android": "https://dc.lft.to/lastmile_qr_scan"}, "is_reserved": 0}, {"lon": -77.02896416666667, "bike_id": "a355a279d308be491002262d02250908", "lat": 38.90385233333333, "fusion_lon": 0.0, "fusion_lat": 0.0, "type": "electric_scooter", "name": "a355a279d308be491002262d02250908", "is_disabled": 0, "rental_uris": {"ios": "https://dc.lft.to/lastmile_qr_scan", "android": "https://dc.lft.to/lastmile_qr_scan"}, "is_reserved": 0}, {"lon": -76.976124, "bike_id": "03c956d585497f778b16f837b70501e6", "lat": 38.90384816666667, "fusion_lon": 0.0, "fusion_lat": 0.0, "type": "electric_scooter", "name": "03c956d585497f778b16f837b70501e6", "is_disabled": 0, "rental_uris": {"ios": "https://dc.lft.to/lastmile_qr_scan", "android": "https://dc.lft.to/lastmile_qr_scan"}, "is_reserved": 0}, {"lon": -77.028073, "bike_id": "9f04eb17a213a1864240be4fb45688a2", "lat": 38.931405833333336, "fusion_lon": 0.0, "fusion_lat": 0.0, "type": "electric_scooter", "name": "9f04eb17a213a1864240be4fb45688a2", "is_disabled": 0, "rental_uris": {"ios": "https://dc.lft.to/lastmile_qr_scan", "android": "https://dc.lft.to/lastmile_qr_scan"}, "is_reserved": 0}, {"lon": -77.011966, "bike_id": "07f42d0716aaeb92d2bd3d1c689e7c7d", "lat": 38.908629, "fusion_lon": 0.0, "fusion_lat": 0.0, "type": "electric_scooter", "name": "07f42d0716aaeb92d2bd3d1c689e7c7d", "is_disabled": 0, "rental_uris": {"ios": "https://dc.lft.to/lastmile_qr_scan", "android": "https://dc.lft.to/lastmile_qr_scan"}, "is_reserved": 0}, {"lon": -77.037975, "bike_id": "7cc5a6c65438bda14ae86b2149f27c3a", "lat": 38.912692166666666, "fusion_lon": 0.0, "fusion_lat": 0.0, "type": "electric_scooter", "name": "7cc5a6c65438bda14ae86b2149f27c3a", "is_disabled": 0, "rental_uris": {"ios": "https://dc.lft.to/lastmile_qr_scan", "android": "https://dc.lft.to/lastmile_qr_scan"}, "is_reserved": 0}, {"lon": -77.08077466666667, "bike_id": "ba7b3dddf1e053e90b1fe5178e178bb4", "lat": 39.052852, "fusion_lon": 0.0, "fusion_lat": 0.0, "type": "electric_bike", "name": "ba7b3dddf1e053e90b1fe5178e178bb4", "is_disabled": 0, "rental_uris": {"ios": "https://dc.lft.to/lastmile_qr_scan", "android": "https://dc.lft.to/lastmile_qr_scan"}, "is_reserved": 0}, {"lon": -76.99083616666667, "bike_id": "50105c76b73e2e7b396c5810c7d43c05", "lat": 38.86236933333333, "fusion_lon": 0.0, "fusion_lat": 0.0, "type": "electric_bike", "name": "50105c76b73e2e7b396c5810c7d43c05", "is_disabled": 0, "rental_uris": {"ios": "https://dc.lft.to/lastmile_qr_scan", "android": "https://dc.lft.to/lastmile_qr_scan"}, "is_reserved": 0}, {"lon": -76.97477616666667, "bike_id": "771b363c0b4d836755b84b0f909cc811", "lat": 38.903549166666664, "fusion_lon": 0.0, "fusion_lat": 0.0, "type": "electric_scooter", "name": "771b363c0b4d836755b84b0f909cc811", "is_disabled": 0, "rental_uris": {"ios": "https://dc.lft.to/lastmile_qr_scan", "android": "https://dc.lft.to/lastmile_qr_scan"}, "is_reserved": 0}, {"lon": -77.0206675, "bike_id": "6151d49536d15981ade8cdbee6885b43", "lat": 38.897286, "fusion_lon": 0.0, "fusion_lat": 0.0, "type": "electric_scooter", "name": "6151d49536d15981ade8cdbee6885b43", "is_disabled": 0, "rental_uris": {"ios": "https://dc.lft.to/lastmile_qr_scan", "android": "https://dc.lft.to/lastmile_qr_scan"}, "is_reserved": 0}, {"lon": -77.04201733333333, "bike_id": "120837f0ebbf74098005009b30158fa7", "lat": 38.9067705, "fusion_lon": 0.0, "fusion_lat": 0.0, "type": "electric_scooter", "name": "120837f0ebbf74098005009b30158fa7", "is_disabled": 0, "rental_uris": {"ios": "https://dc.lft.to/lastmile_qr_scan", "android": "https://dc.lft.to/lastmile_qr_scan"}, "is_reserved": 0}, {"lon": -77.0295475, "bike_id": "525cb03c5b12d22d67d064555e25d749", "lat": 38.911874833333336, "fusion_lon": 0.0, "fusion_lat": 0.0, "type": "electric_scooter", "name": "525cb03c5b12d22d67d064555e25d749", "is_disabled": 0, "rental_uris": {"ios": "https://dc.lft.to/lastmile_qr_scan", "android": "https://dc.lft.to/lastmile_qr_scan"}, "is_reserved": 0}, {"lon": -77.02087783333333, "bike_id": "0aef7eebfa7f2e88344310dbd9de6372", "lat": 38.927075333333335, "fusion_lon": 0.0, "fusion_lat": 0.0, "type": "electric_scooter", "name": "0aef7eebfa7f2e88344310dbd9de6372", "is_disabled": 0, "rental_uris": {"ios": "https://dc.lft.to/lastmile_qr_scan", "android": "https://dc.lft.to/lastmile_qr_scan"}, "is_reserved": 0}, {"lon": -76.99018866666667, "bike_id": "413fae1f68af161fe8266ca18164ae55", "lat": 38.866443333333336, "fusion_lon": 0.0, "fusion_lat": 0.0, "type": "electric_scooter", "name": "413fae1f68af161fe8266ca18164ae55", "is_disabled": 0, "rental_uris": {"ios": "https://dc.lft.to/lastmile_qr_scan", "android": "https://dc.lft.to/lastmile_qr_scan"}, "is_reserved": 0}, {"lon": -77.02850666666667, "bike_id": "4bb6bdeb5fe954dc3917fb918fe1714d", "lat": 38.95629616666667, "fusion_lon": 0.0, "fusion_lat": 0.0, "type": "electric_scooter", "name": "4bb6bdeb5fe954dc3917fb918fe1714d", "is_disabled": 0, "rental_uris": {"ios": "https://dc.lft.to/lastmile_qr_scan", "android": "https://dc.lft.to/lastmile_qr_scan"}, "is_reserved": 0}, {"lon": -77.0320685, "bike_id": "e237d4b8647468d7f3496c49fb3e8c1f", "lat": 38.9078575, "fusion_lon": 0.0, "fusion_lat": 0.0, "type": "electric_scooter", "name": "e237d4b8647468d7f3496c49fb3e8c1f", "is_disabled": 0, "rental_uris": {"ios": "https://dc.lft.to/lastmile_qr_scan", "android": "https://dc.lft.to/lastmile_qr_scan"}, "is_reserved": 0}, {"lon": -77.064013, "bike_id": "ccd753f4bde9f16d601644bb1d0271d7", "lat": 38.9029525, "fusion_lon": 0.0, "fusion_lat": 0.0, "type": "electric_scooter", "name": "ccd753f4bde9f16d601644bb1d0271d7", "is_disabled": 0, "rental_uris": {"ios": "https://dc.lft.to/lastmile_qr_scan", "android": "https://dc.lft.to/lastmile_qr_scan"}, "is_reserved": 0}, {"lon": -77.03635416666667, "bike_id": "0fafb18dd8ca002b925196b6bc504c89", "lat": 38.903931166666666, "fusion_lon": 0.0, "fusion_lat": 0.0, "type": "electric_scooter", "name": "0fafb18dd8ca002b925196b6bc504c89", "is_disabled": 0, "rental_uris": {"ios": "https://dc.lft.to/lastmile_qr_scan", "android": "https://dc.lft.to/lastmile_qr_scan"}, "is_reserved": 0}, {"lon": -77.00672883333333, "bike_id": "2462f87589ab5c19b1fb643cf4c10e47", "lat": 38.900303, "fusion_lon": 0.0, "fusion_lat": 0.0, "type": "electric_scooter", "name": "2462f87589ab5c19b1fb643cf4c10e47", "is_disabled": 0, "rental_uris": {"ios": "https://dc.lft.to/lastmile_qr_scan", "android": "https://dc.lft.to/lastmile_qr_scan"}, "is_reserved": 0}, {"lon": -77.02460716666667, "bike_id": "294c2d8ba73352dfbc9b6554429e4ab1", "lat": 38.9388025, "fusion_lon": 0.0, "fusion_lat": 0.0, "type": "electric_scooter", "name": "294c2d8ba73352dfbc9b6554429e4ab1", "is_disabled": 0, "rental_uris": {"ios": "https://dc.lft.to/lastmile_qr_scan", "android": "https://dc.lft.to/lastmile_qr_scan"}, "is_reserved": 0}, {"lon": -76.986963, "bike_id": "b71b5d4b013cf317ccb18d74299d052b", "lat": 38.909374666666665, "fusion_lon": 0.0, "fusion_lat": 0.0, "type": "electric_scooter", "name": "b71b5d4b013cf317ccb18d74299d052b", "is_disabled": 0, "rental_uris": {"ios": "https://dc.lft.to/lastmile_qr_scan", "android": "https://dc.lft.to/lastmile_qr_scan"}, "is_reserved": 0}, {"lon": -77.02824433333333, "bike_id": "46b5ead916517540fdc66320cca1b645", "lat": 38.917088666666665, "fusion_lon": 0.0, "fusion_lat": 0.0, "type": "electric_scooter", "name": "46b5ead916517540fdc66320cca1b645", "is_disabled": 0, "rental_uris": {"ios": "https://dc.lft.to/lastmile_qr_scan", "android": "https://dc.lft.to/lastmile_qr_scan"}, "is_reserved": 0}, {"lon": -77.00976266666666, "bike_id": "2b4159fbc8b12e5b54661b588832378a", "lat": 38.8973435, "fusion_lon": 0.0, "fusion_lat": 0.0, "type": "electric_scooter", "name": "2b4159fbc8b12e5b54661b588832378a", "is_disabled": 0, "rental_uris": {"ios": "https://dc.lft.to/lastmile_qr_scan", "android": "https://dc.lft.to/lastmile_qr_scan"}, "is_reserved": 0}, {"lon": -77.049, "bike_id": "0d3e21f61bdbd916503ced71e047dd4a", "lat": 38.903552166666664, "fusion_lon": 0.0, "fusion_lat": 0.0, "type": "electric_scooter", "name": "0d3e21f61bdbd916503ced71e047dd4a", "is_disabled": 0, "rental_uris": {"ios": "https://dc.lft.to/lastmile_qr_scan", "android": "https://dc.lft.to/lastmile_qr_scan"}, "is_reserved": 0}, {"lon": -77.0100045, "bike_id": "d5601370ee230c36369ae1e91f159043", "lat": 38.919233166666665, "fusion_lon": 0.0, "fusion_lat": 0.0, "type": "electric_scooter", "name": "d5601370ee230c36369ae1e91f159043", "is_disabled": 0, "rental_uris": {"ios": "https://dc.lft.to/lastmile_qr_scan", "android": "https://dc.lft.to/lastmile_qr_scan"}, "is_reserved": 0}, {"lon": -77.05067166666667, "bike_id": "c073708b35f972b13e18278d5e313e40", "lat": 38.896806166666664, "fusion_lon": 0.0, "fusion_lat": 0.0, "type": "electric_scooter", "name": "c073708b35f972b13e18278d5e313e40", "is_disabled": 0, "rental_uris": {"ios": "https://dc.lft.to/lastmile_qr_scan", "android": "https://dc.lft.to/lastmile_qr_scan"}, "is_reserved": 0}, {"lon": -77.04719016666667, "bike_id": "3e09bf2015a65c16c4b67daa70cb11be", "lat": 38.911201, "fusion_lon": 0.0, "fusion_lat": 0.0, "type": "electric_scooter", "name": "3e09bf2015a65c16c4b67daa70cb11be", "is_disabled": 0, "rental_uris": {"ios": "https://dc.lft.to/lastmile_qr_scan", "android": "https://dc.lft.to/lastmile_qr_scan"}, "is_reserved": 0}, {"lon": -76.9336145, "bike_id": "bbba2e7739b88360639f0277bb6b9a52", "lat": 38.88796416666667, "fusion_lon": 0.0, "fusion_lat": 0.0, "type": "electric_scooter", "name": "bbba2e7739b88360639f0277bb6b9a52", "is_disabled": 0, "rental_uris": {"ios": "https://dc.lft.to/lastmile_qr_scan", "android": "https://dc.lft.to/lastmile_qr_scan"}, "is_reserved": 0}, {"lon": -77.0328735, "bike_id": "6416203048d04d3e5e8dc0cd71a354c8", "lat": 38.93883116666667, "fusion_lon": 0.0, "fusion_lat": 0.0, "type": "electric_scooter", "name": "6416203048d04d3e5e8dc0cd71a354c8", "is_disabled": 0, "rental_uris": {"ios": "https://dc.lft.to/lastmile_qr_scan", "android": "https://dc.lft.to/lastmile_qr_scan"}, "is_reserved": 0}, {"lon": -77.03370333333334, "bike_id": "8904bfc18e9aba0d1fc6f4f5f86ebab3", "lat": 38.902702166666664, "fusion_lon": 0.0, "fusion_lat": 0.0, "type": "electric_scooter", "name": "8904bfc18e9aba0d1fc6f4f5f86ebab3", "is_disabled": 0, "rental_uris": {"ios": "https://dc.lft.to/lastmile_qr_scan", "android": "https://dc.lft.to/lastmile_qr_scan"}, "is_reserved": 0}, {"lon": -76.94873466666667, "bike_id": "23552c7cca65bf38ec5953a31f74f6a6", "lat": 38.89552716666667, "fusion_lon": 0.0, "fusion_lat": 0.0, "type": "electric_scooter", "name": "23552c7cca65bf38ec5953a31f74f6a6", "is_disabled": 0, "rental_uris": {"ios": "https://dc.lft.to/lastmile_qr_scan", "android": "https://dc.lft.to/lastmile_qr_scan"}, "is_reserved": 0}, {"lon": -76.961537, "bike_id": "c16bbfdf6aff77e6216fb38c81283d8d", "lat": 38.88360216666667, "fusion_lon": 0.0, "fusion_lat": 0.0, "type": "electric_scooter", "name": "c16bbfdf6aff77e6216fb38c81283d8d", "is_disabled": 0, "rental_uris": {"ios": "https://dc.lft.to/lastmile_qr_scan", "android": "https://dc.lft.to/lastmile_qr_scan"}, "is_reserved": 0}, {"lon": -77.04201, "bike_id": "30fc0e275dff33f1bb4010f3e70a7ac7", "lat": 38.912752166666664, "fusion_lon": 0.0, "fusion_lat": 0.0, "type": "electric_scooter", "name": "30fc0e275dff33f1bb4010f3e70a7ac7", "is_disabled": 0, "rental_uris": {"ios": "https://dc.lft.to/lastmile_qr_scan", "android": "https://dc.lft.to/lastmile_qr_scan"}, "is_reserved": 0}, {"lon": -77.045878, "bike_id": "411753de340aa1843dc998b2c154807b", "lat": 38.903721833333336, "fusion_lon": 0.0, "fusion_lat": 0.0, "type": "electric_scooter", "name": "411753de340aa1843dc998b2c154807b", "is_disabled": 0, "rental_uris": {"ios": "https://dc.lft.to/lastmile_qr_scan", "android": "https://dc.lft.to/lastmile_qr_scan"}, "is_reserved": 0}, {"lon": -77.03867916666667, "bike_id": "9678fb488941702d7132c7109ecb27ca", "lat": 38.945028666666666, "fusion_lon": 0.0, "fusion_lat": 0.0, "type": "electric_scooter", "name": "9678fb488941702d7132c7109ecb27ca", "is_disabled": 0, "rental_uris": {"ios": "https://dc.lft.to/lastmile_qr_scan", "android": "https://dc.lft.to/lastmile_qr_scan"}, "is_reserved": 0}, {"lon": -77.00576816666667, "bike_id": "62d854635356d4abe0857af5fd98dab5", "lat": 38.8844155, "fusion_lon": 0.0, "fusion_lat": 0.0, "type": "electric_scooter", "name": "62d854635356d4abe0857af5fd98dab5", "is_disabled": 0, "rental_uris": {"ios": "https://dc.lft.to/lastmile_qr_scan", "android": "https://dc.lft.to/lastmile_qr_scan"}, "is_reserved": 0}, {"lon": -76.98097433333334, "bike_id": "a789ae6975e5052ffd1aafd15bbb4f65", "lat": 38.895587166666665, "fusion_lon": 0.0, "fusion_lat": 0.0, "type": "electric_scooter", "name": "a789ae6975e5052ffd1aafd15bbb4f65", "is_disabled": 0, "rental_uris": {"ios": "https://dc.lft.to/lastmile_qr_scan", "android": "https://dc.lft.to/lastmile_qr_scan"}, "is_reserved": 0}, {"lon": -76.9677905, "bike_id": "d73255d8ffe48527eeaa2e04b811b04a", "lat": 38.868510666666666, "fusion_lon": 0.0, "fusion_lat": 0.0, "type": "electric_scooter", "name": "d73255d8ffe48527eeaa2e04b811b04a", "is_disabled": 0, "rental_uris": {"ios": "https://dc.lft.to/lastmile_qr_scan", "android": "https://dc.lft.to/lastmile_qr_scan"}, "is_reserved": 0}, {"lon": -77.03714866666667, "bike_id": "a069bc6857a2918482e98d846eaa8129", "lat": 38.926419, "fusion_lon": 0.0, "fusion_lat": 0.0, "type": "electric_scooter", "name": "a069bc6857a2918482e98d846eaa8129", "is_disabled": 0, "rental_uris": {"ios": "https://dc.lft.to/lastmile_qr_scan", "android": "https://dc.lft.to/lastmile_qr_scan"}, "is_reserved": 0}, {"lon": -76.99843, "bike_id": "a006b3350a0f9693747a8785c4282fda", "lat": 38.902158666666665, "fusion_lon": 0.0, "fusion_lat": 0.0, "type": "electric_scooter", "name": "a006b3350a0f9693747a8785c4282fda", "is_disabled": 0, "rental_uris": {"ios": "https://dc.lft.to/lastmile_qr_scan", "android": "https://dc.lft.to/lastmile_qr_scan"}, "is_reserved": 0}, {"lon": -77.034756, "bike_id": "97d3548b80567252dc92273f6fa0a276", "lat": 38.92878016666667, "fusion_lon": 0.0, "fusion_lat": 0.0, "type": "electric_scooter", "name": "97d3548b80567252dc92273f6fa0a276", "is_disabled": 0, "rental_uris": {"ios": "https://dc.lft.to/lastmile_qr_scan", "android": "https://dc.lft.to/lastmile_qr_scan"}, "is_reserved": 0}, {"lon": -77.03884, "bike_id": "49eb09d69c07f0ce8f0a7b97b2fbe39b", "lat": 38.9100605, "fusion_lon": 0.0, "fusion_lat": 0.0, "type": "electric_scooter", "name": "49eb09d69c07f0ce8f0a7b97b2fbe39b", "is_disabled": 0, "rental_uris": {"ios": "https://dc.lft.to/lastmile_qr_scan", "android": "https://dc.lft.to/lastmile_qr_scan"}, "is_reserved": 0}, {"lon": -76.99858416666666, "bike_id": "5c01b9c18238272fa2f2257812ab2cf4", "lat": 38.9003165, "fusion_lon": 0.0, "fusion_lat": 0.0, "type": "electric_scooter", "name": "5c01b9c18238272fa2f2257812ab2cf4", "is_disabled": 0, "rental_uris": {"ios": "https://dc.lft.to/lastmile_qr_scan", "android": "https://dc.lft.to/lastmile_qr_scan"}, "is_reserved": 0}, {"lon": -76.953682, "bike_id": "d4ae205b20e601fba01e484881eb3ee9", "lat": 38.892087833333335, "fusion_lon": 0.0, "fusion_lat": 0.0, "type": "electric_scooter", "name": "d4ae205b20e601fba01e484881eb3ee9", "is_disabled": 0, "rental_uris": {"ios": "https://dc.lft.to/lastmile_qr_scan", "android": "https://dc.lft.to/lastmile_qr_scan"}, "is_reserved": 0}, {"lon": -77.04207466666666, "bike_id": "9de44389e4f9061167167bfbe9271692", "lat": 38.8927115, "fusion_lon": 0.0, "fusion_lat": 0.0, "type": "electric_scooter", "name": "9de44389e4f9061167167bfbe9271692", "is_disabled": 0, "rental_uris": {"ios": "https://dc.lft.to/lastmile_qr_scan", "android": "https://dc.lft.to/lastmile_qr_scan"}, "is_reserved": 0}, {"lon": -76.947895, "bike_id": "0e508bddf487b9053257893df221d8fc", "lat": 38.86203066666667, "fusion_lon": 0.0, "fusion_lat": 0.0, "type": "electric_bike", "name": "0e508bddf487b9053257893df221d8fc", "is_disabled": 0, "rental_uris": {"ios": "https://dc.lft.to/lastmile_qr_scan", "android": "https://dc.lft.to/lastmile_qr_scan"}, "is_reserved": 0}, {"lon": -77.03183983333334, "bike_id": "b132a8bdf9c690c687b078ce74b4d4cb", "lat": 38.8923155, "fusion_lon": 0.0, "fusion_lat": 0.0, "type": "electric_scooter", "name": "b132a8bdf9c690c687b078ce74b4d4cb", "is_disabled": 0, "rental_uris": {"ios": "https://dc.lft.to/lastmile_qr_scan", "android": "https://dc.lft.to/lastmile_qr_scan"}, "is_reserved": 0}, {"lon": -77.00341266666666, "bike_id": "d56b00b3bf098b3e954a46463e023e02", "lat": 38.903678166666666, "fusion_lon": 0.0, "fusion_lat": 0.0, "type": "electric_scooter", "name": "d56b00b3bf098b3e954a46463e023e02", "is_disabled": 0, "rental_uris": {"ios": "https://dc.lft.to/lastmile_qr_scan", "android": "https://dc.lft.to/lastmile_qr_scan"}, "is_reserved": 0}, {"lon": -76.94125933333333, "bike_id": "ca6ecddd7708cc3d7743869d16f7b95f", "lat": 38.90828916666667, "fusion_lon": 0.0, "fusion_lat": 0.0, "type": "electric_scooter", "name": "ca6ecddd7708cc3d7743869d16f7b95f", "is_disabled": 0, "rental_uris": {"ios": "https://dc.lft.to/lastmile_qr_scan", "android": "https://dc.lft.to/lastmile_qr_scan"}, "is_reserved": 0}, {"lon": -77.03386383333333, "bike_id": "ce3a4a42baf0602577ccc0edd2dff7d1", "lat": 38.938699, "fusion_lon": 0.0, "fusion_lat": 0.0, "type": "electric_scooter", "name": "ce3a4a42baf0602577ccc0edd2dff7d1", "is_disabled": 0, "rental_uris": {"ios": "https://dc.lft.to/lastmile_qr_scan", "android": "https://dc.lft.to/lastmile_qr_scan"}, "is_reserved": 0}, {"lon": -77.00712716666666, "bike_id": "249fef31e86e0d1cb7ef7226d9581390", "lat": 38.88488266666667, "fusion_lon": 0.0, "fusion_lat": 0.0, "type": "electric_scooter", "name": "249fef31e86e0d1cb7ef7226d9581390", "is_disabled": 0, "rental_uris": {"ios": "https://dc.lft.to/lastmile_qr_scan", "android": "https://dc.lft.to/lastmile_qr_scan"}, "is_reserved": 0}, {"lon": -76.99770433333333, "bike_id": "37e31e0f788cfda1aa46eaece8e3c40e", "lat": 38.843006, "fusion_lon": 0.0, "fusion_lat": 0.0, "type": "electric_scooter", "name": "37e31e0f788cfda1aa46eaece8e3c40e", "is_disabled": 0, "rental_uris": {"ios": "https://dc.lft.to/lastmile_qr_scan", "android": "https://dc.lft.to/lastmile_qr_scan"}, "is_reserved": 0}, {"lon": -77.03848733333334, "bike_id": "c325093984087d2895021e0571d9b624", "lat": 38.915789, "fusion_lon": 0.0, "fusion_lat": 0.0, "type": "electric_scooter", "name": "c325093984087d2895021e0571d9b624", "is_disabled": 0, "rental_uris": {"ios": "https://dc.lft.to/lastmile_qr_scan", "android": "https://dc.lft.to/lastmile_qr_scan"}, "is_reserved": 0}, {"lon": -77.05000516666666, "bike_id": "22d5b82bff5e0b40a208c16b41bd1ad3", "lat": 38.9008565, "fusion_lon": 0.0, "fusion_lat": 0.0, "type": "electric_scooter", "name": "22d5b82bff5e0b40a208c16b41bd1ad3", "is_disabled": 0, "rental_uris": {"ios": "https://dc.lft.to/lastmile_qr_scan", "android": "https://dc.lft.to/lastmile_qr_scan"}, "is_reserved": 0}, {"lon": -77.04071183333333, "bike_id": "4b7cc31885b752e87814ffd045372af2", "lat": 38.912716833333334, "fusion_lon": 0.0, "fusion_lat": 0.0, "type": "electric_scooter", "name": "4b7cc31885b752e87814ffd045372af2", "is_disabled": 0, "rental_uris": {"ios": "https://dc.lft.to/lastmile_qr_scan", "android": "https://dc.lft.to/lastmile_qr_scan"}, "is_reserved": 0}, {"lon": -77.02235766666666, "bike_id": "becfc95217c4dc0d5ab4634509b67792", "lat": 38.908638833333335, "fusion_lon": 0.0, "fusion_lat": 0.0, "type": "electric_scooter", "name": "becfc95217c4dc0d5ab4634509b67792", "is_disabled": 0, "rental_uris": {"ios": "https://dc.lft.to/lastmile_qr_scan", "android": "https://dc.lft.to/lastmile_qr_scan"}, "is_reserved": 0}, {"lon": -77.03190916666667, "bike_id": "d2e44f0f53c37a93fec61155139ff640", "lat": 38.897192833333335, "fusion_lon": 0.0, "fusion_lat": 0.0, "type": "electric_scooter", "name": "d2e44f0f53c37a93fec61155139ff640", "is_disabled": 0, "rental_uris": {"ios": "https://dc.lft.to/lastmile_qr_scan", "android": "https://dc.lft.to/lastmile_qr_scan"}, "is_reserved": 0}, {"lon": -77.03021, "bike_id": "99475da92e4a18faeeefb93a2a34deae", "lat": 38.93111733333333, "fusion_lon": 0.0, "fusion_lat": 0.0, "type": "electric_scooter", "name": "99475da92e4a18faeeefb93a2a34deae", "is_disabled": 0, "rental_uris": {"ios": "https://dc.lft.to/lastmile_qr_scan", "android": "https://dc.lft.to/lastmile_qr_scan"}, "is_reserved": 0},