{"data": {"bikes": [{"name": "ec4926f85bbab4b2f45ada9bbebf7d98", "fusion_lat": 0.0, "type": "electric_scooter", "lat": 38.87148083333334, "is_reserved": 0, "is_disabled": 0, "fusion_lon": 0.0, "bike_id": "ec4926f85bbab4b2f45ada9bbebf7d98", "lon": -77.00696883333333, "rental_uris": {"ios": "https://dc.lft.to/lastmile_qr_scan", "android": "https://dc.lft.to/lastmile_qr_scan"}}, {"name": "3d52c9a38a8ca71932a0918702d3ed63", "fusion_lat": 0.0, "type": "electric_bike", "lat": 38.89440033333333, "is_reserved": 0, "is_disabled": 0, "fusion_lon": 0.0, "bike_id": "3d52c9a38a8ca71932a0918702d3ed63", "lon": -76.98359133333334, "rental_uris": {"ios": "https://dc.lft.to/lastmile_qr_scan", "android": "https://dc.lft.to/lastmile_qr_scan"}}, {"name": "d843fab54511431d6fed5e81b1de7d7d", "fusion_lat": 0.0, "type": "electric_scooter", "lat": 38.883596833333335, "is_reserved": 0, "is_disabled": 0, "fusion_lon": 0.0, "bike_id": "d843fab54511431d6fed5e81b1de7d7d", "lon": -77.03169266666667, "rental_uris": {"ios": "https://dc.lft.to/lastmile_qr_scan", "android": "https://dc.lft.to/lastmile_qr_scan"}}, {"name": "bc3abf83e4818f2270e5e9dab6156280", "fusion_lat": 0.0, "type": "electric_scooter", "lat": 38.89982583333333, "is_reserved": 0, "is_disabled": 0, "fusion_lon": 0.0, "bike_id": "bc3abf83e4818f2270e5e9dab6156280", "lon": -77.00930016666666, "rental_uris": {"ios": "https://dc.lft.to/lastmile_qr_scan", "android": "https://dc.lft.to/lastmile_qr_scan"}}, {"name": "992f614f844879ea4c81b55854e9a8e1", "fusion_lat": 0.0, "type": "electric_scooter", "lat": 38.8923235, "is_reserved": 0, "is_disabled": 0, "fusion_lon": 0.0, "bike_id": "992f614f844879ea4c81b55854e9a8e1", "lon": -77.05001066666667, "rental_uris": {"ios": "https://dc.lft.to/lastmile_qr_scan", "android": "https://dc.lft.to/lastmile_qr_scan"}}, {"name": "a9eae050bf9bacc61a82f9da144e87b0", "fusion_lat": 0.0, "type": "electric_bike", "lat": 38.96593416666666, "is_reserved": 0, "is_disabled": 0, "fusion_lon": 0.0, "bike_id": "a9eae050bf9bacc61a82f9da144e87b0", "lon": -76.97956116666667, "rental_uris": {"ios": "https://dc.lft.to/lastmile_qr_scan", "android": "https://dc.lft.to/lastmile_qr_scan"}}, {"name": "c7514ff412238571d9f7a92ff056b61f", "fusion_lat": 0.0, "type": "electric_scooter", "lat": 38.9067065, "is_reserved": 0, "is_disabled": 0, "fusion_lon": 0.0, "bike_id": "c7514ff412238571d9f7a92ff056b61f", "lon": -77.07035566666667, "rental_uris": {"ios": "https://dc.lft.to/lastmile_qr_scan", "android": "https://dc.lft.to/lastmile_qr_scan"}}, {"name": "83138ad24e00b3d58bf5c94ed087cf1f", "fusion_lat": 0.0, "type": "electric_scooter", "lat": 38.912538166666664, "is_reserved": 0, "is_disabled": 0, "fusion_lon": 0.0, "bike_id": "83138ad24e00b3d58bf5c94ed087cf1f", "lon": -77.00956283333333, "rental_uris": {"ios": "https://dc.lft.to/lastmile_qr_scan", "android": "https://dc.lft.to/lastmile_qr_scan"}}, {"name": "398915ce595f1167146ee79e7d065e45", "fusion_lat": 0.0, "type": "electric_scooter", "lat": 38.936867, "is_reserved": 0, "is_disabled": 0, "fusion_lon": 0.0, "bike_id": "398915ce595f1167146ee79e7d065e45", "lon": -77.03164616666666, "rental_uris": {"ios": "https://dc.lft.to/lastmile_qr_scan", "android": "https://dc.lft.to/lastmile_qr_scan"}}, {"name": "a002f0ae4a11694bcfee751d9775fc06", "fusion_lat": 0.0, "type": "electric_scooter", "lat": 38.935323333333336, "is_reserved": 0, "is_disabled": 0, "fusion_lon": 0.0, "bike_id": "a002f0ae4a11694bcfee751d9775fc06", "lon": -77.028556, "rental_uris": {"ios": "https://dc.lft.to/lastmile_qr_scan", "android": "https://dc.lft.to/lastmile_qr_scan"}}, {"name": "1ee36fe69cc2cdc037dcbfd6b5cb3d4b", "fusion_lat": 0.0, "type": "electric_scooter", "lat": 38.9480505, "is_reserved": 0, "is_disabled": 0, "fusion_lon": 0.0, "bike_id": "1ee36fe69cc2cdc037dcbfd6b5cb3d4b", "lon": -77.07908883333333, "rental_uris": {"ios": "https://dc.lft.to/lastmile_qr_scan", "android": "https://dc.lft.to/lastmile_qr_scan"}}, {"name": "12397f037ee7530159c04d16f0f3e7be", "fusion_lat": 0.0, "type": "electric_bike", "lat": 38.90910133333333, "is_reserved": 0, "is_disabled": 0, "fusion_lon": 0.0, "bike_id": "12397f037ee7530159c04d16f0f3e7be", "lon": -77.07273333333333, "rental_uris": {"ios": "https://dc.lft.to/lastmile_qr_scan", "android": "https://dc.lft.to/lastmile_qr_scan"}}, {"name": "e23dd617f7f5c91fe84196626618ec9a", "fusion_lat": 0.0, "type": "electric_scooter", "lat": 38.921372833333336, "is_reserved": 0, "is_disabled": 0, "fusion_lon": 0.0, "bike_id": "e23dd617f7f5c91fe84196626618ec9a", "lon": -77.03901416666666, "rental_uris": {"ios": "https://dc.lft.to/lastmile_qr_scan", "android": "https://dc.lft.to/lastmile_qr_scan"}}, {"name": "95048f20fb3121162f4d1acf029fc0ed", "fusion_lat": 0.0, "type": "electric_scooter", "lat": 38.919333, "is_reserved": 0, "is_disabled": 0, "fusion_lon": 0.0, "bike_id": "95048f20fb3121162f4d1acf029fc0ed", "lon": -77.04530566666666, "rental_uris": {"ios": "https://dc.lft.to/lastmile_qr_scan", "android": "https://dc.lft.to/lastmile_qr_scan"}}, {"name": "2e43051c75cddd5c7a7af8cbec5e65f2", "fusion_lat": 0.0, "type": "electric_bike", "lat": 38.89945083333333, "is_reserved": 0, "is_disabled": 0, "fusion_lon": 0.0, "bike_id": "2e43051c75cddd5c7a7af8cbec5e65f2", "lon": -77.04714683333333, "rental_uris": {"ios": "https://dc.lft.to/lastmile_qr_scan", "android": "https://dc.lft.to/lastmile_qr_scan"}}, {"name": "adf3895382055c164aec7708427f6d6b", "fusion_lat": 0.0, "type": "electric_scooter", "lat": 38.93358033333333, "is_reserved": 0, "is_disabled": 0, "fusion_lon": 0.0, "bike_id": "adf3895382055c164aec7708427f6d6b", "lon": -77.03450933333333, "rental_uris": {"ios": "https://dc.lft.to/lastmile_qr_scan", "android": "https://dc.lft.to/lastmile_qr_scan"}}, {"name": "82729b77ba8da3ff67270e72b7c54977", "fusion_lat": 0.0, "type": "electric_scooter", "lat": 38.90498866666667, "is_reserved": 0, "is_disabled": 0, "fusion_lon": 0.0, "bike_id": "82729b77ba8da3ff67270e72b7c54977", "lon": -77.04657733333333, "rental_uris": {"ios": "https://dc.lft.to/lastmile_qr_scan", "android": "https://dc.lft.to/lastmile_qr_scan"}}, {"name": "171c3c14cc1713b467da58812b6bcd1d", "fusion_lat": 0.0, "type": "electric_scooter", "lat": 38.892153666666665, "is_reserved": 0, "is_disabled": 0, "fusion_lon": 0.0, "bike_id": "171c3c14cc1713b467da58812b6bcd1d", "lon": -77.0309355, "rental_uris": {"ios": "https://dc.lft.to/lastmile_qr_scan", "android": "https://dc.lft.to/lastmile_qr_scan"}}, {"name": "4f74c9d316749aed0702f60ad0f996ad", "fusion_lat": 0.0, "type": "electric_scooter", "lat": 38.90249933333333, "is_reserved": 0, "is_disabled": 0, "fusion_lon": 0.0, "bike_id": "4f74c9d316749aed0702f60ad0f996ad", "lon": -77.04470133333334, "rental_uris": {"ios": "https://dc.lft.to/lastmile_qr_scan", "android": "https://dc.lft.to/lastmile_qr_scan"}}, {"name": "1935e77e1561e0c80d1bc68cc0ca43b5", "fusion_lat": 0.0, "type": "electric_scooter", "lat": 38.89982083333334, "is_reserved": 0, "is_disabled": 0, "fusion_lon": 0.0, "bike_id": "1935e77e1561e0c80d1bc68cc0ca43b5", "lon": -77.02952183333333, "rental_uris": {"ios": "https://dc.lft.to/lastmile_qr_scan", "android": "https://dc.lft.to/lastmile_qr_scan"}}, {"name": "3896850937b44cef89ccf66c663c1f23", "fusion_lat": 0.0, "type": "electric_scooter", "lat": 38.86076383333333, "is_reserved": 0, "is_disabled": 0, "fusion_lon": 0.0, "bike_id": "3896850937b44cef89ccf66c663c1f23", "lon": -76.9673705, "rental_uris": {"ios": "https://dc.lft.to/lastmile_qr_scan", "android": "https://dc.lft.to/lastmile_qr_scan"}}, {"name": "215f46bdc4bfc7130ea4b5818ef3fd76", "fusion_lat": 0.0, "type": "electric_scooter", "lat": 38.895827, "is_reserved": 0, "is_disabled": 0, "fusion_lon": 0.0, "bike_id": "215f46bdc4bfc7130ea4b5818ef3fd76", "lon": -77.00910083333333, "rental_uris": {"ios": "https://dc.lft.to/lastmile_qr_scan", "android": "https://dc.lft.to/lastmile_qr_scan"}}, {"name": "97c0a5125555dc0743431f0745d17795", "fusion_lat": 0.0, "type": "electric_scooter", "lat": 38.906067166666666, "is_reserved": 0, "is_disabled": 0, "fusion_lon": 0.0, "bike_id": "97c0a5125555dc0743431f0745d17795", "lon": -77.04171966666667, "rental_uris": {"ios": "https://dc.lft.to/lastmile_qr_scan", "android": "https://dc.lft.to/lastmile_qr_scan"}}, {"name": "622f0d11c951d0c89ee03aa095811e9b", "fusion_lat": 0.0, "type": "electric_scooter", "lat": 38.90428966666666, "is_reserved": 0, "is_disabled": 0, "fusion_lon": 0.0, "bike_id": "622f0d11c951d0c89ee03aa095811e9b", "lon": -77.05319, "rental_uris": {"ios": "https://dc.lft.to/lastmile_qr_scan", "android": "https://dc.lft.to/lastmile_qr_scan"}}, {"name": "4b5a63e530313c29826b150bb634ac99", "fusion_lat": 0.0, "type": "electric_bike", "lat": 38.85792333333333, "is_reserved": 0, "is_disabled": 0, "fusion_lon": 0.0, "bike_id": "4b5a63e530313c29826b150bb634ac99", "lon": -76.9874415, "rental_uris": {"ios": "https://dc.lft.to/lastmile_qr_scan", "android": "https://dc.lft.to/lastmile_qr_scan"}}, {"name": "e516ceed52b4dce24d72a2e66af2f73f", "fusion_lat": 0.0, "type": "electric_scooter", "lat": 38.90032216666667, "is_reserved": 0, "is_disabled": 0, "fusion_lon": 0.0, "bike_id": "e516ceed52b4dce24d72a2e66af2f73f", "lon": -76.99824083333333, "rental_uris": {"ios": "https://dc.lft.to/lastmile_qr_scan", "android": "https://dc.lft.to/lastmile_qr_scan"}}, {"name": "0e328a280884d59fe6320c8b74e46882", "fusion_lat": 0.0, "type": "electric_scooter", "lat": 38.90444816666667, "is_reserved": 0, "is_disabled": 0, "fusion_lon": 0.0, "bike_id": "0e328a280884d59fe6320c8b74e46882", "lon": -77.02389966666667, "rental_uris": {"ios": "https://dc.lft.to/lastmile_qr_scan", "android": "https://dc.lft.to/lastmile_qr_scan"}}, {"name": "3139dff475c919862434a3f13eb8a954", "fusion_lat": 0.0, "type": "electric_scooter", "lat": 38.92127883333333, "is_reserved": 0, "is_disabled": 0, "fusion_lon": 0.0, "bike_id": "3139dff475c919862434a3f13eb8a954", "lon": -77.042074, "rental_uris": {"ios": "https://dc.lft.to/lastmile_qr_scan", "android": "https://dc.lft.to/lastmile_qr_scan"}}, {"name": "b646f2b357087728e40a1df91abfd225", "fusion_lat": 0.0, "type": "electric_bike", "lat": 38.95955383333333, "is_reserved": 0, "is_disabled": 0, "fusion_lon": 0.0, "bike_id": "b646f2b357087728e40a1df91abfd225", "lon": -77.10092283333333, "rental_uris": {"ios": "https://dc.lft.to/lastmile_qr_scan", "android": "https://dc.lft.to/lastmile_qr_scan"}}, {"name": "c0d6274ef68506a6daccb5c2067c5b7f", "fusion_lat": 0.0, "type": "electric_scooter", "lat": 38.9296165, "is_reserved": 0, "is_disabled": 0, "fusion_lon": 0.0, "bike_id": "c0d6274ef68506a6daccb5c2067c5b7f", "lon": -77.023436, "rental_uris": {"ios": "https://dc.lft.to/lastmile_qr_scan", "android": "https://dc.lft.to/lastmile_qr_scan"}}, {"name": "8d8f83abcfe47305f5eeb78ca47b98da", "fusion_lat": 0.0, "type": "electric_scooter", "lat": 38.907262833333334, "is_reserved": 0, "is_disabled": 0, "fusion_lon": 0.0, "bike_id": "8d8f83abcfe47305f5eeb78ca47b98da", "lon": -77.00537816666667, "rental_uris": {"ios": "https://dc.lft.to/lastmile_qr_scan", "android": "https://dc.lft.to/lastmile_qr_scan"}}, {"name": "39c09e284a5ce649492c3718aa7caf22", "fusion_lat": 0.0, "type": "electric_scooter", "lat": 38.904613833333336, "is_reserved": 0, "is_disabled": 0, "fusion_lon": 0.0, "bike_id": "39c09e284a5ce649492c3718aa7caf22", "lon": -77.01429683333333, "rental_uris": {"ios": "https://dc.lft.to/lastmile_qr_scan", "android": "https://dc.lft.to/lastmile_qr_scan"}}, {"name": "4157f560e9734f7ec3f763fdaecaba11", "fusion_lat": 0.0, "type": "electric_scooter", "lat": 38.923106833333335, "is_reserved": 0, "is_disabled": 0, "fusion_lon": 0.0, "bike_id": "4157f560e9734f7ec3f763fdaecaba11", "lon": -77.04276333333334, "rental_uris": {"ios": "https://dc.lft.to/lastmile_qr_scan", "android": "https://dc.lft.to/lastmile_qr_scan"}}, {"name": "77d8cd698dc73b098c0960279c1279d4", "fusion_lat": 0.0, "type": "electric_scooter", "lat": 38.90393616666667, "is_reserved": 0, "is_disabled": 0, "fusion_lon": 0.0, "bike_id": "77d8cd698dc73b098c0960279c1279d4", "lon": -77.043409, "rental_uris": {"ios": "https://dc.lft.to/lastmile_qr_scan", "android": "https://dc.lft.to/lastmile_qr_scan"}}, {"name": "18b2eb718a011568210cf0e0f1ba9145", "fusion_lat": 0.0, "type": "electric_scooter", "lat": 38.918473, "is_reserved": 0, "is_disabled": 0, "fusion_lon": 0.0, "bike_id": "18b2eb718a011568210cf0e0f1ba9145", "lon": -77.02599433333333, "rental_uris": {"ios": "https://dc.lft.to/lastmile_qr_scan", "android": "https://dc.lft.to/lastmile_qr_scan"}}, {"name": "a0e890aafedbaf3dd74894dc5530bf6d", "fusion_lat": 0.0, "type": "electric_scooter", "lat": 38.91888733333333, "is_reserved": 0, "is_disabled": 0, "fusion_lon": 0.0, "bike_id": "a0e890aafedbaf3dd74894dc5530bf6d", "lon": -77.03755966666667, "rental_uris": {"ios": "https://dc.lft.to/lastmile_qr_scan", "android": "https://dc.lft.to/lastmile_qr_scan"}}, {"name": "3a2771363070f6393c9c014c07b463f5", "fusion_lat": 0.0, "type": "electric_scooter", "lat": 38.85801383333333, "is_reserved": 0, "is_disabled": 0, "fusion_lon": 0.0, "bike_id": "3a2771363070f6393c9c014c07b463f5", "lon": -76.98649983333334, "rental_uris": {"ios": "https://dc.lft.to/lastmile_qr_scan", "android": "https://dc.lft.to/lastmile_qr_scan"}}, {"name": "3a0539fc6b58dbc210be43f0e5531c4e", "fusion_lat": 0.0, "type": "electric_scooter", "lat": 38.899921666666664, "is_reserved": 0, "is_disabled": 0, "fusion_lon": 0.0, "bike_id": "3a0539fc6b58dbc210be43f0e5531c4e", "lon": -77.02720566666666, "rental_uris": {"ios": "https://dc.lft.to/lastmile_qr_scan", "android": "https://dc.lft.to/lastmile_qr_scan"}}, {"name": "802432f6cc21ef1086db855de9f1bb42", "fusion_lat": 0.0, "type": "electric_scooter", "lat": 38.90402516666666, "is_reserved": 0, "is_disabled": 0, "fusion_lon": 0.0, "bike_id": "802432f6cc21ef1086db855de9f1bb42", "lon": -77.03989216666666, "rental_uris": {"ios": "https://dc.lft.to/lastmile_qr_scan", "android": "https://dc.lft.to/lastmile_qr_scan"}}, {"name": "30e6ba003fc6e46a0decc8915b3cbbc8", "fusion_lat": 0.0, "type": "electric_scooter", "lat": 38.906809333333335, "is_reserved": 0, "is_disabled": 0, "fusion_lon": 0.0, "bike_id": "30e6ba003fc6e46a0decc8915b3cbbc8", "lon": -77.03859266666667, "rental_uris": {"ios": "https://dc.lft.to/lastmile_qr_scan", "android": "https://dc.lft.to/lastmile_qr_scan"}}, {"name": "712a3132c6807017d82d100f09acda2c", "fusion_lat": 0.0, "type": "electric_bike", "lat": 38.9905955, "is_reserved": 0, "is_disabled": 0, "fusion_lon": 0.0, "bike_id": "712a3132c6807017d82d100f09acda2c", "lon": -77.10026633333334, "rental_uris": {"ios": "https://dc.lft.to/lastmile_qr_scan", "android": "https://dc.lft.to/lastmile_qr_scan"}}, {"name": "f50207b179b1436804466a40e04e1eac", "fusion_lat": 0.0, "type": "electric_scooter", "lat": 38.92945, "is_reserved": 0, "is_disabled": 0, "fusion_lon": 0.0, "bike_id": "f50207b179b1436804466a40e04e1eac", "lon": -77.0347445, "rental_uris": {"ios": "https://dc.lft.to/lastmile_qr_scan", "android": "https://dc.lft.to/lastmile_qr_scan"}}, {"name": "a12d9966eff58c09ac1b0fff5a773d69", "fusion_lat": 0.0, "type": "electric_scooter", "lat": 38.93947983333333, "is_reserved": 0, "is_disabled": 0, "fusion_lon": 0.0, "bike_id": "a12d9966eff58c09ac1b0fff5a773d69", "lon": -77.03263866666667, "rental_uris": {"ios": "https://dc.lft.to/lastmile_qr_scan", "android": "https://dc.lft.to/lastmile_qr_scan"}}, {"name": "a7cd9585156a029fc95ced774e1b1568", "fusion_lat": 0.0, "type": "electric_scooter", "lat": 38.911189666666665, "is_reserved": 0, "is_disabled": 0, "fusion_lon": 0.0, "bike_id": "a7cd9585156a029fc95ced774e1b1568", "lon": -77.037149, "rental_uris": {"ios": "https://dc.lft.to/lastmile_qr_scan", "android": "https://dc.lft.to/lastmile_qr_scan"}}, {"name": "b7f2cc437b4d4c5aad794697975a76dd", "fusion_lat": 0.0, "type": "electric_scooter", "lat": 38.902489333333335, "is_reserved": 0, "is_disabled": 0, "fusion_lon": 0.0, "bike_id": "b7f2cc437b4d4c5aad794697975a76dd", "lon": -77.04354583333334, "rental_uris": {"ios": "https://dc.lft.to/lastmile_qr_scan", "android": "https://dc.lft.to/lastmile_qr_scan"}}, {"name": "2c66e6259ddd41e4c585f7333b780573", "fusion_lat": 0.0, "type": "electric_scooter", "lat": 38.905966, "is_reserved": 0, "is_disabled": 0, "fusion_lon": 0.0, "bike_id": "2c66e6259ddd41e4c585f7333b780573", "lon": -77.07004983333333, "rental_uris": {"ios": "https://dc.lft.to/lastmile_qr_scan", "android": "https://dc.lft.to/lastmile_qr_scan"}}, {"name": "cd35d9ccfe712f4553eeb73ac2fe6d11", "fusion_lat": 0.0, "type": "electric_scooter", "lat": 38.9221075, "is_reserved": 0, "is_disabled": 0, "fusion_lon": 0.0, "bike_id": "cd35d9ccfe712f4553eeb73ac2fe6d11", "lon": -77.04255166666667, "rental_uris": {"ios": "https://dc.lft.to/lastmile_qr_scan", "android": "https://dc.lft.to/lastmile_qr_scan"}}, {"name": "d9883772a6607e4898ae8ffbcb252e48", "fusion_lat": 0.0, "type": "electric_scooter", "lat": 38.93787916666667, "is_reserved": 0, "is_disabled": 0, "fusion_lon": 0.0, "bike_id": "d9883772a6607e4898ae8ffbcb252e48", "lon": -77.05990316666667, "rental_uris": {"ios": "https://dc.lft.to/lastmile_qr_scan", "android": "https://dc.lft.to/lastmile_qr_scan"}}, {"name": "54b077a9f1dc9f422df417d918a22ef2", "fusion_lat": 0.0, "type": "electric_scooter", "lat": 38.87648433333333, "is_reserved": 0, "is_disabled": 0, "fusion_lon": 0.0, "bike_id": "54b077a9f1dc9f422df417d918a22ef2", "lon": -76.96505683333334, "rental_uris": {"ios": "https://dc.lft.to/lastmile_qr_scan", "android": "https://dc.lft.to/lastmile_qr_scan"}}, {"name": "5d089b1192a8c650119291f3ed27663e", "fusion_lat": 0.0, "type": "electric_scooter", "lat": 38.8852975, "is_reserved": 0, "is_disabled": 0, "fusion_lon": 0.0, "bike_id": "5d089b1192a8c650119291f3ed27663e", "lon": -77.005794, "rental_uris": {"ios": "https://dc.lft.to/lastmile_qr_scan", "android": "https://dc.lft.to/lastmile_qr_scan"}}, {"name": "1f5a0cb05eac423ebca12d5029cb3597", "fusion_lat": 0.0, "type": "electric_scooter", "lat": 38.938419833333334, "is_reserved": 0, "is_disabled": 0, "fusion_lon": 0.0, "bike_id": "1f5a0cb05eac423ebca12d5029cb3597", "lon": -77.02483366666667, "rental_uris": {"ios": "https://dc.lft.to/lastmile_qr_scan", "android": "https://dc.lft.to/lastmile_qr_scan"}}, {"name": "dfda82a44eb8fd5c8f690fe841151bb4", "fusion_lat": 0.0, "type": "electric_scooter", "lat": 38.94312383333333, "is_reserved": 0, "is_disabled": 0, "fusion_lon": 0.0, "bike_id": "dfda82a44eb8fd5c8f690fe841151bb4", "lon": -77.05907466666666, "rental_uris": {"ios": "https://dc.lft.to/lastmile_qr_scan", "android": "https://dc.lft.to/lastmile_qr_scan"}}, {"name": "725c04d078587de3df0180a53ec0546f", "fusion_lat": 0.0, "type": "electric_scooter", "lat": 38.92570883333333, "is_reserved": 0, "is_disabled": 0, "fusion_lon": 0.0, "bike_id": "725c04d078587de3df0180a53ec0546f", "lon": -77.0283065, "rental_uris": {"ios": "https://dc.lft.to/lastmile_qr_scan", "android": "https://dc.lft.to/lastmile_qr_scan"}}, {"name": "a3db5879280bd37041d5f195df381f4f", "fusion_lat": 0.0, "type": "electric_scooter", "lat": 38.883407166666665, "is_reserved": 0, "is_disabled": 0, "fusion_lon": 0.0, "bike_id": "a3db5879280bd37041d5f195df381f4f", "lon": -77.0317055, "rental_uris": {"ios": "https://dc.lft.to/lastmile_qr_scan", "android": "https://dc.lft.to/lastmile_qr_scan"}}, {"name": "4bae8ee2bfbc44e8c8ceba297ba44774", "fusion_lat": 0.0, "type": "electric_scooter", "lat": 38.886105, "is_reserved": 0, "is_disabled": 0, "fusion_lon": 0.0, "bike_id": "4bae8ee2bfbc44e8c8ceba297ba44774", "lon": -77.007354, "rental_uris": {"ios": "https://dc.lft.to/lastmile_qr_scan", "android": "https://dc.lft.to/lastmile_qr_scan"}}, {"name": "fcd75f3a8c12eeb238ddbc934d183fc5", "fusion_lat": 0.0, "type": "electric_bike", "lat": 38.851591166666665, "is_reserved": 0, "is_disabled": 0, "fusion_lon": 0.0, "bike_id": "fcd75f3a8c12eeb238ddbc934d183fc5", "lon": -77.128771, "rental_uris": {"ios": "https://dc.lft.to/lastmile_qr_scan", "android": "https://dc.lft.to/lastmile_qr_scan"}}, {"name": "b7dc9864703787ce5e4e204fb7e50161", "fusion_lat": 0.0, "type": "electric_scooter", "lat": 38.93075483333333, "is_reserved": 0, "is_disabled": 0, "fusion_lon": 0.0, "bike_id": "b7dc9864703787ce5e4e204fb7e50161", "lon": -77.03396516666666, "rental_uris": {"ios": "https://dc.lft.to/lastmile_qr_scan", "android": "https://dc.lft.to/lastmile_qr_scan"}}, {"name": "14cd4f057213a5a6a11c3817671c2584", "fusion_lat": 0.0, "type": "electric_scooter", "lat": 38.899202, "is_reserved": 0, "is_disabled": 0, "fusion_lon": 0.0, "bike_id": "14cd4f057213a5a6a11c3817671c2584", "lon": -76.93379, "rental_uris": {"ios": "https://dc.lft.to/lastmile_qr_scan", "android": "https://dc.lft.to/lastmile_qr_scan"}}, {"name": "82ca48302b5877907ea26066def6db06", "fusion_lat": 0.0, "type": "electric_bike", "lat": 38.8721925, "is_reserved": 0, "is_disabled": 0, "fusion_lon": 0.0, "bike_id": "82ca48302b5877907ea26066def6db06", "lon": -77.01635833333333, "rental_uris": {"ios": "https://dc.lft.to/lastmile_qr_scan", "android": "https://dc.lft.to/lastmile_qr_scan"}}, {"name": "7fbea5c405d0e826abef31a7e00b1422", "fusion_lat": 0.0, "type": "electric_scooter", "lat": 38.86518233333334, "is_reserved": 0, "is_disabled": 0, "fusion_lon": 0.0, "bike_id": "7fbea5c405d0e826abef31a7e00b1422", "lon": -76.973444, "rental_uris": {"ios": "https://dc.lft.to/lastmile_qr_scan", "android": "https://dc.lft.to/lastmile_qr_scan"}}, {"name": "e22225f0fbd28500429e6eac27e05fbf", "fusion_lat": 0.0, "type": "electric_scooter", "lat": 38.865720333333336, "is_reserved": 0, "is_disabled": 0, "fusion_lon": 0.0, "bike_id": "e22225f0fbd28500429e6eac27e05fbf", "lon": -76.989515, "rental_uris": {"ios": "https://dc.lft.to/lastmile_qr_scan", "android": "https://dc.lft.to/lastmile_qr_scan"}}, {"name": "5567b0fd6b4d4fe1a2d5348ef5c75565", "fusion_lat": 0.0, "type": "electric_scooter", "lat": 38.90149666666667, "is_reserved": 0, "is_disabled": 0, "fusion_lon": 0.0, "bike_id": "5567b0fd6b4d4fe1a2d5348ef5c75565", "lon": -77.04504716666666, "rental_uris": {"ios": "https://dc.lft.to/lastmile_qr_scan", "android": "https://dc.lft.to/lastmile_qr_scan"}}, {"name": "5ccd6a0e36235ae33410881e778ee04c", "fusion_lat": 0.0, "type": "electric_scooter", "lat": 38.8947495, "is_reserved": 0, "is_disabled": 0, "fusion_lon": 0.0, "bike_id": "5ccd6a0e36235ae33410881e778ee04c", "lon": -76.98402233333333, "rental_uris": {"ios": "https://dc.lft.to/lastmile_qr_scan", "android": "https://dc.lft.to/lastmile_qr_scan"}}, {"name": "0c4eb002371da04d4d393b6ccd41555d", "fusion_lat": 0.0, "type": "electric_scooter", "lat": 38.9021065, "is_reserved": 0, "is_disabled": 0, "fusion_lon": 0.0, "bike_id": "0c4eb002371da04d4d393b6ccd41555d", "lon": -76.98206216666667, "rental_uris": {"ios": "https://dc.lft.to/lastmile_qr_scan", "android": "https://dc.lft.to/lastmile_qr_scan"}}, {"name": "d4d0dec2736ce9431438ef2b2f3fd880", "fusion_lat": 0.0, "type": "electric_scooter", "lat": 38.961149666666664, "is_reserved": 0, "is_disabled": 0, "fusion_lon": 0.0, "bike_id": "d4d0dec2736ce9431438ef2b2f3fd880", "lon": -77.0281375, "rental_uris": {"ios": "https://dc.lft.to/lastmile_qr_scan", "android": "https://dc.lft.to/lastmile_qr_scan"}}, {"name": "4a5273920c045e7ce94dbf2dfd01dc35", "fusion_lat": 0.0, "type": "electric_scooter", "lat": 38.896899166666664, "is_reserved": 0, "is_disabled": 0, "fusion_lon": 0.0, "bike_id": "4a5273920c045e7ce94dbf2dfd01dc35", "lon": -77.01884433333333, "rental_uris": {"ios": "https://dc.lft.to/lastmile_qr_scan", "android": "https://dc.lft.to/lastmile_qr_scan"}}, {"name": "fdc845b76b04d6b1cebc3d6d215c6fe9", "fusion_lat": 0.0, "type": "electric_scooter", "lat": 38.905119666666664, "is_reserved": 0, "is_disabled": 0, "fusion_lon": 0.0, "bike_id": "fdc845b76b04d6b1cebc3d6d215c6fe9", "lon": -77.07015916666667, "rental_uris": {"ios": "https://dc.lft.to/lastmile_qr_scan", "android": "https://dc.lft.to/lastmile_qr_scan"}}, {"name": "c9be2e92f93ee5c141979b3443929486", "fusion_lat": 0.0, "type": "electric_scooter", "lat": 38.876838666666664, "is_reserved": 0, "is_disabled": 0, "fusion_lon": 0.0, "bike_id": "c9be2e92f93ee5c141979b3443929486", "lon": -77.000735, "rental_uris": {"ios": "https://dc.lft.to/lastmile_qr_scan", "android": "https://dc.lft.to/lastmile_qr_scan"}}, {"name": "dd309ed89de7840d10ee0e7ad7729a37", "fusion_lat": 0.0, "type": "electric_scooter", "lat": 38.90989316666667, "is_reserved": 0, "is_disabled": 0, "fusion_lon": 0.0, "bike_id": "dd309ed89de7840d10ee0e7ad7729a37", "lon": -77.00889933333333, "rental_uris": {"ios": "https://dc.lft.to/lastmile_qr_scan", "android": "https://dc.lft.to/lastmile_qr_scan"}}, {"name": "11b706973adbd9bdaf4c85b8717b9cd8", "fusion_lat": 0.0, "type": "electric_scooter", "lat": 38.89852666666667, "is_reserved": 0, "is_disabled": 0, "fusion_lon": 0.0, "bike_id": "11b706973adbd9bdaf4c85b8717b9cd8", "lon": -77.0161545, "rental_uris": {"ios": "https://dc.lft.to/lastmile_qr_scan", "android": "https://dc.lft.to/lastmile_qr_scan"}}, {"name": "7a2612bb43c57186925e6d879d1a3ad6", "fusion_lat": 0.0, "type": "electric_bike", "lat": 38.8834705, "is_reserved": 0, "is_disabled": 0, "fusion_lon": 0.0, "bike_id": "7a2612bb43c57186925e6d879d1a3ad6", "lon": -77.18292816666667, "rental_uris": {"ios": "https://dc.lft.to/lastmile_qr_scan", "android": "https://dc.lft.to/lastmile_qr_scan"}}, {"name": "2cbbd134b8eb3affe7f72907ea8e459c", "fusion_lat": 0.0, "type": "electric_scooter", "lat": 38.93489866666667, "is_reserved": 0, "is_disabled": 0, "fusion_lon": 0.0, "bike_id": "2cbbd134b8eb3affe7f72907ea8e459c", "lon": -77.03285516666666, "rental_uris": {"ios": "https://dc.lft.to/lastmile_qr_scan", "android": "https://dc.lft.to/lastmile_qr_scan"}}, {"name": "18ca034bd1d957663b772ecafd4d2249", "fusion_lat": 0.0, "type": "electric_scooter", "lat": 38.94283583333333, "is_reserved": 0, "is_disabled": 0, "fusion_lon": 0.0, "bike_id": "18ca034bd1d957663b772ecafd4d2249", "lon": -77.0250435, "rental_uris": {"ios": "https://dc.lft.to/lastmile_qr_scan", "android": "https://dc.lft.to/lastmile_qr_scan"}}, {"name": "c80da77445080962b15599e63719f922", "fusion_lat": 0.0, "type": "electric_scooter", "lat": 38.8996135, "is_reserved": 0, "is_disabled": 0, "fusion_lon": 0.0, "bike_id": "c80da77445080962b15599e63719f922", "lon": -76.93771116666667, "rental_uris": {"ios": "https://dc.lft.to/lastmile_qr_scan", "android": "https://dc.lft.to/lastmile_qr_scan"}}, {"name": "a4c4af91be24b18ecb71c70a191d170e", "fusion_lat": 0.0, "type": "electric_bike", "lat": 38.89905783333333, "is_reserved": 0, "is_disabled": 0, "fusion_lon": 0.0, "bike_id": "a4c4af91be24b18ecb71c70a191d170e", "lon": -77.03968116666667, "rental_uris": {"ios": "https://dc.lft.to/lastmile_qr_scan", "android": "https://dc.lft.to/lastmile_qr_scan"}}, {"name": "f236fd8cb8b48478278909fcc4741286", "fusion_lat": 0.0, "type": "electric_scooter", "lat": 38.910480166666666, "is_reserved": 0, "is_disabled": 0, "fusion_lon": 0.0, "bike_id": "f236fd8cb8b48478278909fcc4741286", "lon": -77.04371366666666, "rental_uris": {"ios": "https://dc.lft.to/lastmile_qr_scan", "android": "https://dc.lft.to/lastmile_qr_scan"}}, {"name": "4cef48c99f8c1f24c7db0cb111bb6dcd", "fusion_lat": 0.0, "type": "electric_scooter", "lat": 38.90202083333333, "is_reserved": 0, "is_disabled": 0, "fusion_lon": 0.0, "bike_id": "4cef48c99f8c1f24c7db0cb111bb6dcd", "lon": -76.98208916666667, "rental_uris": {"ios": "https://dc.lft.to/lastmile_qr_scan", "android": "https://dc.lft.to/lastmile_qr_scan"}}, {"name": "144c3c13afb62565419c6c0d65cc2db9", "fusion_lat": 0.0, "type": "electric_scooter", "lat": 38.903444, "is_reserved": 0, "is_disabled": 0, "fusion_lon": 0.0, "bike_id": "144c3c13afb62565419c6c0d65cc2db9", "lon": -77.05311983333333, "rental_uris": {"ios": "https://dc.lft.to/lastmile_qr_scan", "android": "https://dc.lft.to/lastmile_qr_scan"}}, {"name": "abcf76da1037abbc291b898b0c93c146", "fusion_lat": 0.0, "type": "electric_scooter", "lat": 38.9355795, "is_reserved": 0, "is_disabled": 0, "fusion_lon": 0.0, "bike_id": "abcf76da1037abbc291b898b0c93c146", "lon": -77.02362616666667, "rental_uris": {"ios": "https://dc.lft.to/lastmile_qr_scan", "android": "https://dc.lft.to/lastmile_qr_scan"}}, {"name": "900bdd56d91da4d196fb66ea6c70ff00", "fusion_lat": 0.0, "type": "electric_scooter", "lat": 38.924539833333334, "is_reserved": 0, "is_disabled": 0, "fusion_lon": 0.0, "bike_id": "900bdd56d91da4d196fb66ea6c70ff00", "lon": -77.0328355, "rental_uris": {"ios": "https://dc.lft.to/lastmile_qr_scan", "android": "https://dc.lft.to/lastmile_qr_scan"}}, {"name": "a60525d8f0f6796c2ac605941aa9afc7", "fusion_lat": 0.0, "type": "electric_scooter", "lat": 38.893569166666666, "is_reserved": 0, "is_disabled": 0, "fusion_lon": 0.0, "bike_id": "a60525d8f0f6796c2ac605941aa9afc7", "lon": -77.00334816666667, "rental_uris": {"ios": "https://dc.lft.to/lastmile_qr_scan", "android": "https://dc.lft.to/lastmile_qr_scan"}}, {"name": "2dd32f51f84a47aeea402c9f359c0f79", "fusion_lat": 0.0, "type": "electric_scooter", "lat": 38.90734483333333, "is_reserved": 0, "is_disabled": 0, "fusion_lon": 0.0, "bike_id": "2dd32f51f84a47aeea402c9f359c0f79", "lon": -77.0005705, "rental_uris": {"ios": "https://dc.lft.to/lastmile_qr_scan", "android": "https://dc.lft.to/lastmile_qr_scan"}}, {"name": "4eb1ee0fd94d50bb8528f0b7952b57a7", "fusion_lat": 0.0, "type": "electric_scooter", "lat": 38.908637666666664, "is_reserved": 0, "is_disabled": 0, "fusion_lon": 0.0, "bike_id": "4eb1ee0fd94d50bb8528f0b7952b57a7", "lon": -77.085927, "rental_uris": {"ios": "https://dc.lft.to/lastmile_qr_scan", "android": "https://dc.lft.to/lastmile_qr_scan"}}, {"name": "809cc5d520be0132fa03e80dde352e4a", "fusion_lat": 0.0, "type": "electric_scooter", "lat": 38.938874166666665, "is_reserved": 0, "is_disabled": 0, "fusion_lon": 0.0, "bike_id": "809cc5d520be0132fa03e80dde352e4a", "lon": -77.02469366666666, "rental_uris": {"ios": "https://dc.lft.to/lastmile_qr_scan", "android": "https://dc.lft.to/lastmile_qr_scan"}}, {"name": "4d07adfe82c8792e7bd80fc693364822", "fusion_lat": 0.0, "type": "electric_scooter", "lat": 38.93606716666667, "is_reserved": 0, "is_disabled": 0, "fusion_lon": 0.0, "bike_id": "4d07adfe82c8792e7bd80fc693364822", "lon": -77.05591366666667, "rental_uris": {"ios": "https://dc.lft.to/lastmile_qr_scan", "android": "https://dc.lft.to/lastmile_qr_scan"}}, {"name": "55425491ff9c5d9b6e9d047aee219e64", "fusion_lat": 0.0, "type": "electric_bike", "lat": 38.945820166666664, "is_reserved": 0, "is_disabled": 0, "fusion_lon": 0.0, "bike_id": "55425491ff9c5d9b6e9d047aee219e64", "lon": -77.00269183333333, "rental_uris": {"ios": "https://dc.lft.to/lastmile_qr_scan", "android": "https://dc.lft.to/lastmile_qr_scan"}}, {"name": "85692371618c1cdb8da37c0db9574739", "fusion_lat": 0.0, "type": "electric_scooter", "lat": 38.900221333333334, "is_reserved": 0, "is_disabled": 0, "fusion_lon": 0.0, "bike_id": "85692371618c1cdb8da37c0db9574739", "lon": -76.99866966666667, "rental_uris": {"ios": "https://dc.lft.to/lastmile_qr_scan", "android": "https://dc.lft.to/lastmile_qr_scan"}}, {"name": "d770caf5e8481c8abfef5d30d1322c04", "fusion_lat": 0.0, "type": "electric_scooter", "lat": 38.92860666666667, "is_reserved": 0, "is_disabled": 0, "fusion_lon": 0.0, "bike_id": "d770caf5e8481c8abfef5d30d1322c04", "lon": -77.0333885, "rental_uris": {"ios": "https://dc.lft.to/lastmile_qr_scan", "android": "https://dc.lft.to/lastmile_qr_scan"}}, {"name": "7fc80c27b2a2793f9232321a6d8e3170", "fusion_lat": 0.0, "type": "electric_scooter", "lat": 38.905951333333334, "is_reserved": 0, "is_disabled": 0, "fusion_lon": 0.0, "bike_id": "7fc80c27b2a2793f9232321a6d8e3170", "lon": -77.04160133333333, "rental_uris": {"ios": "https://dc.lft.to/lastmile_qr_scan", "android": "https://dc.lft.to/lastmile_qr_scan"}}, {"name": "8b3b6d71f450ebac53428f1f5fb1d79e", "fusion_lat": 0.0, "type": "electric_scooter", "lat": 38.93727783333333, "is_reserved": 0, "is_disabled": 0, "fusion_lon": 0.0, "bike_id": "8b3b6d71f450ebac53428f1f5fb1d79e", "lon": -77.03269516666667, "rental_uris": {"ios": "https://dc.lft.to/lastmile_qr_scan", "android": "https://dc.lft.to/lastmile_qr_scan"}}, {"name": "ba199a5ccd18748f2bbc22596f54d666", "fusion_lat": 0.0, "type": "electric_scooter", "lat": 38.877227, "is_reserved": 0, "is_disabled": 0, "fusion_lon": 0.0, "bike_id": "ba199a5ccd18748f2bbc22596f54d666", "lon": -76.99384083333334, "rental_uris": {"ios": "https://dc.lft.to/lastmile_qr_scan", "android": "https://dc.lft.to/lastmile_qr_scan"}}, {"name": "c5ac47ec9dd8cc35f1eddc9481680978", "fusion_lat": 0.0, "type": "electric_scooter", "lat": 38.9024075, "is_reserved": 0, "is_disabled": 0, "fusion_lon": 0.0, "bike_id": "c5ac47ec9dd8cc35f1eddc9481680978", "lon": -77.026415, "rental_uris": {"ios": "https://dc.lft.to/lastmile_qr_scan", "android": "https://dc.lft.to/lastmile_qr_scan"}}, {"name": "89b8bfaa035ee05a6a178d67138315b8", "fusion_lat": 0.0, "type": "electric_scooter", "lat": 38.907314166666666, "is_reserved": 0, "is_disabled": 0, "fusion_lon": 0.0, "bike_id": "89b8bfaa035ee05a6a178d67138315b8", "lon": -77.01075866666666, "rental_uris": {"ios": "https://dc.lft.to/lastmile_qr_scan", "android": "https://dc.lft.to/lastmile_qr_scan"}}, {"name": "571096ce189a33762541e54cea443f40", "fusion_lat": 0.0, "type": "electric_scooter", "lat": 38.862504, "is_reserved": 0, "is_disabled": 0, "fusion_lon": 0.0, "bike_id": "571096ce189a33762541e54cea443f40", "lon": -76.99531733333333, "rental_uris": {"ios": "https://dc.lft.to/lastmile_qr_scan", "android": "https://dc.lft.to/lastmile_qr_scan"}}, {"name": "dd87af9acac8220b30dab65a3cd16cf0", "fusion_lat": 0.0, "type": "electric_scooter", "lat": 38.9156305, "is_reserved": 0, "is_disabled": 0, "fusion_lon": 0.0, "bike_id": "dd87af9acac8220b30dab65a3cd16cf0", "lon": -77.03832133333333, "rental_uris": {"ios": "https://dc.lft.to/lastmile_qr_scan", "android": "https://dc.lft.to/lastmile_qr_scan"}}, {"name": "6d8847cab25a9d04fe23009ba1edf334", "fusion_lat": 0.0, "type": "electric_scooter", "lat": 38.90280966666667, "is_reserved": 0, "is_disabled": 0, "fusion_lon": 0.0, "bike_id": "6d8847cab25a9d04fe23009ba1edf334", "lon": -77.03988616666666, "rental_uris": {"ios": "https://dc.lft.to/lastmile_qr_scan", "android": "https://dc.lft.to/lastmile_qr_scan"}}, {"name": "89abae22de23313ec868e0c41ea93d20", "fusion_lat": 0.0, "type": "electric_scooter", "lat": 38.93487183333333, "is_reserved": 0, "is_disabled": 0, "fusion_lon": 0.0, "bike_id": "89abae22de23313ec868e0c41ea93d20", "lon": -77.03285966666667, "rental_uris": {"ios": "https://dc.lft.to/lastmile_qr_scan", "android": "https://dc.lft.to/lastmile_qr_scan"}}, {"name": "02cbee8e5b9108e2c244382b90a5c7b0", "fusion_lat": 0.0, "type": "electric_bike", "lat": 38.861623333333334, "is_reserved": 0, "is_disabled": 0, "fusion_lon": 0.0, "bike_id": "02cbee8e5b9108e2c244382b90a5c7b0", "lon": -77.13093783333333, "rental_uris": {"ios": "https://dc.lft.to/lastmile_qr_scan", "android": "https://dc.lft.to/lastmile_qr_scan"}}, {"name": "5c1ca76657a0b859b370c889e83ae445", "fusion_lat": 0.0, "type": "electric_bike", "lat": 38.967611833333336, "is_reserved": 0, "is_disabled": 0, "fusion_lon": 0.0, "bike_id": "5c1ca76657a0b859b370c889e83ae445", "lon": -77.091667, "rental_uris": {"ios": "https://dc.lft.to/lastmile_qr_scan", "android": "https://dc.lft.to/lastmile_qr_scan"}}, {"name": "67d98582a3b6bc805a92fc3c1074e12a", "fusion_lat": 0.0, "type": "electric_scooter", "lat": 38.927126, "is_reserved": 0, "is_disabled": 0, "fusion_lon": 0.0, "bike_id": "67d98582a3b6bc805a92fc3c1074e12a", "lon": -77.02086866666667, "rental_uris": {"ios": "https://dc.lft.to/lastmile_qr_scan", "android": "https://dc.lft.to/lastmile_qr_scan"}}, {"name": "2995c345877791831f3db23b21952cac", "fusion_lat": 0.0, "type": "electric_scooter", "lat": 38.916361333333334, "is_reserved": 0, "is_disabled": 0, "fusion_lon": 0.0, "bike_id": "2995c345877791831f3db23b21952cac", "lon": -77.02696983333334, "rental_uris": {"ios": "https://dc.lft.to/lastmile_qr_scan", "android": "https://dc.lft.to/lastmile_qr_scan"}}, {"name": "c4458fc7df24c5ccaa96484b6fb1a9ea", "fusion_lat": 0.0, "type": "electric_scooter", "lat": 38.934648, "is_reserved": 0, "is_disabled": 0, "fusion_lon": 0.0, "bike_id": "c4458fc7df24c5ccaa96484b6fb1a9ea", "lon": -77.03402066666666, "rental_uris": {"ios": "https://dc.lft.to/lastmile_qr_scan", "android": "https://dc.lft.to/lastmile_qr_scan"}}, {"name": "77af960bf2079d73448843350b3bcf40", "fusion_lat": 0.0, "type": "electric_scooter", "lat": 38.892406, "is_reserved": 0, "is_disabled": 0, "fusion_lon": 0.0, "bike_id": "77af960bf2079d73448843350b3bcf40", "lon": -77.01782633333333, "rental_uris": {"ios": "https://dc.lft.to/lastmile_qr_scan", "android": "https://dc.lft.to/lastmile_qr_scan"}}, {"name": "395f39238b1dd2973f3135af5c735d05", "fusion_lat": 0.0, "type": "electric_scooter", "lat": 38.90234616666667, "is_reserved": 0, "is_disabled": 0, "fusion_lon": 0.0, "bike_id": "395f39238b1dd2973f3135af5c735d05", "lon": -76.97416283333334, "rental_uris": {"ios": "https://dc.lft.to/lastmile_qr_scan", "android": "https://dc.lft.to/lastmile_qr_scan"}}, {"name": "622b2bbffcea15b2304051b102023daf", "fusion_lat": 0.0, "type": "electric_scooter", "lat": 38.921787, "is_reserved": 0, "is_disabled": 0, "fusion_lon": 0.0, "bike_id": "622b2bbffcea15b2304051b102023daf", "lon": -77.026591, "rental_uris": {"ios": "https://dc.lft.to/lastmile_qr_scan", "android": "https://dc.lft.to/lastmile_qr_scan"}}, {"name": "4702bfbf9dbb0d6188a228482634ba09", "fusion_lat": 0.0, "type": "electric_scooter", "lat": 38.89919833333333, "is_reserved": 0, "is_disabled": 0, "fusion_lon": 0.0, "bike_id": "4702bfbf9dbb0d6188a228482634ba09", "lon": -77.04013216666667, "rental_uris": {"ios": "https://dc.lft.to/lastmile_qr_scan", "android": "https://dc.lft.to/lastmile_qr_scan"}}, {"name": "6baedd48481792ff9527f62e3df7e048", "fusion_lat": 0.0, "type": "electric_scooter", "lat": 38.91406383333333, "is_reserved": 0, "is_disabled": 0, "fusion_lon": 0.0, "bike_id": "6baedd48481792ff9527f62e3df7e048", "lon": -77.008041, "rental_uris": {"ios": "https://dc.lft.to/lastmile_qr_scan", "android": "https://dc.lft.to/lastmile_qr_scan"}}, {"name": "051afe88d7f5e614d47209a65370c0c7", "fusion_lat": 0.0, "type": "electric_scooter", "lat": 38.92338866666667, "is_reserved": 0, "is_disabled": 0, "fusion_lon": 0.0, "bike_id": "051afe88d7f5e614d47209a65370c0c7", "lon": -77.05096216666666, "rental_uris": {"ios": "https://dc.lft.to/lastmile_qr_scan", "android": "https://dc.lft.to/lastmile_qr_scan"}}, {"name": "1841d2e59db3421dea874e5675956340", "fusion_lat": 0.0, "type": "electric_bike", "lat": 38.96124316666667, "is_reserved": 0, "is_disabled": 0, "fusion_lon": 0.0, "bike_id": "1841d2e59db3421dea874e5675956340", "lon": -77.0327475, "rental_uris": {"ios": "https://dc.lft.to/lastmile_qr_scan", "android": "https://dc.lft.to/lastmile_qr_scan"}}, {"name": "52db38f9ae978830349d4943152be59f", "fusion_lat": 0.0, "type": "electric_scooter", "lat": 38.918132166666666, "is_reserved": 0, "is_disabled": 0, "fusion_lon": 0.0, "bike_id": "52db38f9ae978830349d4943152be59f", "lon": -77.04000416666666, "rental_uris": {"ios": "https://dc.lft.to/lastmile_qr_scan", "android": "https://dc.lft.to/lastmile_qr_scan"}}, {"name": "29ae29dac3d479ab2258f784ee4eb90c", "fusion_lat": 0.0, "type": "electric_scooter", "lat": 38.919122, "is_reserved": 0, "is_disabled": 0, "fusion_lon": 0.0, "bike_id": "29ae29dac3d479ab2258f784ee4eb90c", "lon": -77.02163783333333, "rental_uris": {"ios": "https://dc.lft.to/lastmile_qr_scan", "android": "https://dc.lft.to/lastmile_qr_scan"}}, {"name": "bd55daa29f1852fb75c0579ef289cb97", "fusion_lat": 0.0, "type": "electric_scooter", "lat": 38.92978133333333, "is_reserved": 0, "is_disabled": 0, "fusion_lon": 0.0, "bike_id": "bd55daa29f1852fb75c0579ef289cb97", "lon": -77.0327325, "rental_uris": {"ios": "https://dc.lft.to/lastmile_qr_scan", "android": "https://dc.lft.to/lastmile_qr_scan"}}, {"name": "fe4a070f8fc9175e97cab9e374eb21f3", "fusion_lat": 0.0, "type": "electric_scooter", "lat": 38.917298333333335, "is_reserved": 0, "is_disabled": 0, "fusion_lon": 0.0, "bike_id": "fe4a070f8fc9175e97cab9e374eb21f3", "lon": -77.01024133333334, "rental_uris": {"ios": "https://dc.lft.to/lastmile_qr_scan", "android": "https://dc.lft.to/lastmile_qr_scan"}}, {"name": "1e78468b4c63c16e9d07eaa9d3d6f5bc", "fusion_lat": 0.0, "type": "electric_scooter", "lat": 38.928032333333334, "is_reserved": 0, "is_disabled": 0, "fusion_lon": 0.0, "bike_id": "1e78468b4c63c16e9d07eaa9d3d6f5bc", "lon": -77.03972933333333, "rental_uris": {"ios": "https://dc.lft.to/lastmile_qr_scan", "android": "https://dc.lft.to/lastmile_qr_scan"}}, {"name": "010213113db20a83f02cf050c3929a7f", "fusion_lat": 0.0, "type": "electric_scooter", "lat": 38.91929, "is_reserved": 0, "is_disabled": 0, "fusion_lon": 0.0, "bike_id": "010213113db20a83f02cf050c3929a7f", "lon": -77.04503333333334, "rental_uris": {"ios": "https://dc.lft.to/lastmile_qr_scan", "android": "https://dc.lft.to/lastmile_qr_scan"}}, {"name": "ec1fdc968cb8a967b97c80a9441df9a2", "fusion_lat": 0.0, "type": "electric_scooter", "lat": 38.9088875, "is_reserved": 0, "is_disabled": 0, "fusion_lon": 0.0, "bike_id": "ec1fdc968cb8a967b97c80a9441df9a2", "lon": -77.00576316666667, "rental_uris": {"ios": "https://dc.lft.to/lastmile_qr_scan", "android": "https://dc.lft.to/lastmile_qr_scan"}}, {"name": "3aae119bdb21d82b75b83060d8f6467b", "fusion_lat": 0.0, "type": "electric_scooter", "lat": 38.89875283333333, "is_reserved": 0, "is_disabled": 0, "fusion_lon": 0.0, "bike_id": "3aae119bdb21d82b75b83060d8f6467b", "lon": -76.93156366666666, "rental_uris": {"ios": "https://dc.lft.to/lastmile_qr_scan", "android": "https://dc.lft.to/lastmile_qr_scan"}}, {"name": "45aec6625475fbd6dd2db9218a79c85a", "fusion_lat": 0.0, "type": "electric_scooter", "lat": 38.89485533333333, "is_reserved": 0, "is_disabled": 0, "fusion_lon": 0.0, "bike_id": "45aec6625475fbd6dd2db9218a79c85a", "lon": -77.02307383333333, "rental_uris": {"ios": "https://dc.lft.to/lastmile_qr_scan", "android": "https://dc.lft.to/lastmile_qr_scan"}}, {"name": "f564f56b45943b9656a30f855fd3ec09", "fusion_lat": 0.0, "type": "electric_scooter", "lat": 38.917571, "is_reserved": 0, "is_disabled": 0, "fusion_lon": 0.0, "bike_id": "f564f56b45943b9656a30f855fd3ec09", "lon": -77.01879616666666, "rental_uris": {"ios": "https://dc.lft.to/lastmile_qr_scan", "android": "https://dc.lft.to/lastmile_qr_scan"}}, {"name": "5a86f5e2e17cf90211cd9cdebe078299", "fusion_lat": 0.0, "type": "electric_scooter", "lat": 38.90857883333334, "is_reserved": 0, "is_disabled": 0, "fusion_lon": 0.0, "bike_id": "5a86f5e2e17cf90211cd9cdebe078299", "lon": -77.01325183333333, "rental_uris": {"ios": "https://dc.lft.to/lastmile_qr_scan", "android": "https://dc.lft.to/lastmile_qr_scan"}}, {"name": "2981ad9759c76bf1b891e644f346ee7f", "fusion_lat": 0.0, "type": "electric_scooter", "lat": 38.903659833333336, "is_reserved": 0, "is_disabled": 0, "fusion_lon": 0.0, "bike_id": "2981ad9759c76bf1b891e644f346ee7f", "lon": -77.01869583333334, "rental_uris": {"ios": "https://dc.lft.to/lastmile_qr_scan", "android": "https://dc.lft.to/lastmile_qr_scan"}}, {"name": "b3ac7d5420e16e90cede75ac3bad7467", "fusion_lat": 0.0, "type": "electric_scooter", "lat": 38.9418775, "is_reserved": 0, "is_disabled": 0, "fusion_lon": 0.0, "bike_id": "b3ac7d5420e16e90cede75ac3bad7467", "lon": -77.02492583333333, "rental_uris": {"ios": "https://dc.lft.to/lastmile_qr_scan", "android": "https://dc.lft.to/lastmile_qr_scan"}}, {"name": "77365fd8d931c282c60d27152fff5a03", "fusion_lat": 0.0, "type": "electric_scooter", "lat": 38.924444666666666, "is_reserved": 0, "is_disabled": 0, "fusion_lon": 0.0, "bike_id": "77365fd8d931c282c60d27152fff5a03", "lon": -76.99331633333334, "rental_uris": {"ios": "https://dc.lft.to/lastmile_qr_scan", "android": "https://dc.lft.to/lastmile_qr_scan"}}, {"name": "c6580c5295f8f9de9b448afeb75212e7", "fusion_lat": 0.0, "type": "electric_scooter", "lat": 38.89878683333333, "is_reserved": 0, "is_disabled": 0, "fusion_lon": 0.0, "bike_id": "c6580c5295f8f9de9b448afeb75212e7", "lon": -77.03317983333334, "rental_uris": {"ios": "https://dc.lft.to/lastmile_qr_scan", "android": "https://dc.lft.to/lastmile_qr_scan"}}, {"name": "2b035025451a4b5c65da46539d3fa853", "fusion_lat": 0.0, "type": "electric_scooter", "lat": 38.92360733333334, "is_reserved": 0, "is_disabled": 0, "fusion_lon": 0.0, "bike_id": "2b035025451a4b5c65da46539d3fa853", "lon": -77.0524735, "rental_uris": {"ios": "https://dc.lft.to/lastmile_qr_scan", "android": "https://dc.lft.to/lastmile_qr_scan"}}, {"name": "769fc0f803cba79694db8203c5a59928", "fusion_lat": 0.0, "type": "electric_scooter", "lat": 38.937882, "is_reserved": 0, "is_disabled": 0, "fusion_lon": 0.0, "bike_id": "769fc0f803cba79694db8203c5a59928", "lon": -77.05995233333333, "rental_uris": {"ios": "https://dc.lft.to/lastmile_qr_scan", "android": "https://dc.lft.to/lastmile_qr_scan"}}, {"name": "a87a376f189c9ff98f573a85f9101568", "fusion_lat": 0.0, "type": "electric_scooter", "lat": 38.89739316666667, "is_reserved": 0, "is_disabled": 0, "fusion_lon": 0.0, "bike_id": "a87a376f189c9ff98f573a85f9101568", "lon": -76.93846166666667, "rental_uris": {"ios": "https://dc.lft.to/lastmile_qr_scan", "android": "https://dc.lft.to/lastmile_qr_scan"}}, {"name": "7b98dbe85fc7903ebc8dd5a366c4fa0f", "fusion_lat": 0.0, "type": "electric_scooter", "lat": 38.8948175, "is_reserved": 0, "is_disabled": 0, "fusion_lon": 0.0, "bike_id": "7b98dbe85fc7903ebc8dd5a366c4fa0f", "lon": -76.99517883333333, "rental_uris": {"ios": "https://dc.lft.to/lastmile_qr_scan", "android": "https://dc.lft.to/lastmile_qr_scan"}}, {"name": "c6f3057632311c1f39e6098a0e0e35de", "fusion_lat": 0.0, "type": "electric_scooter", "lat": 38.9215935, "is_reserved": 0, "is_disabled": 0, "fusion_lon": 0.0, "bike_id": "c6f3057632311c1f39e6098a0e0e35de", "lon": -77.04220616666667, "rental_uris": {"ios": "https://dc.lft.to/lastmile_qr_scan", "android": "https://dc.lft.to/lastmile_qr_scan"}}, {"name": "2e212979177d4f2a0db9cf59fd97d805", "fusion_lat": 0.0, "type": "electric_bike", "lat": 38.838262, "is_reserved": 0, "is_disabled": 0, "fusion_lon": 0.0, "bike_id": "2e212979177d4f2a0db9cf59fd97d805", "lon": -76.99683966666667, "rental_uris": {"ios": "https://dc.lft.to/lastmile_qr_scan", "android": "https://dc.lft.to/lastmile_qr_scan"}}, {"name": "65d35fd495a50837cb3414765c10f0a7", "fusion_lat": 0.0, "type": "electric_scooter", "lat": 38.90034516666667, "is_reserved": 0, "is_disabled": 0, "fusion_lon": 0.0, "bike_id": "65d35fd495a50837cb3414765c10f0a7", "lon": -77.00213883333333, "rental_uris": {"ios": "https://dc.lft.to/lastmile_qr_scan", "android": "https://dc.lft.to/lastmile_qr_scan"}}, {"name": "7669973f8c7fb70c65e34f2e1c6619b4", "fusion_lat": 0.0, "type": "electric_scooter", "lat": 38.9328245, "is_reserved": 0, "is_disabled": 0, "fusion_lon": 0.0, "bike_id": "7669973f8c7fb70c65e34f2e1c6619b4", "lon": -77.03979966666667, "rental_uris": {"ios": "https://dc.lft.to/lastmile_qr_scan", "android": "https://dc.lft.to/lastmile_qr_scan"}}, {"name": "d850b4dcc583e80e360e8d235d86176d", "fusion_lat": 0.0, "type": "electric_scooter", "lat": 38.8868625, "is_reserved": 0, "is_disabled": 0, "fusion_lon": 0.0, "bike_id": "d850b4dcc583e80e360e8d235d86176d", "lon": -76.95756566666667, "rental_uris": {"ios": "https://dc.lft.to/lastmile_qr_scan", "android": "https://dc.lft.to/lastmile_qr_scan"}}, {"name": "2ae63a715da34a5256d88106fc56b497", "fusion_lat": 0.0, "type": "electric_scooter", "lat": 38.9111005, "is_reserved": 0, "is_disabled": 0, "fusion_lon": 0.0, "bike_id": "2ae63a715da34a5256d88106fc56b497", "lon": -77.03148683333333, "rental_uris": {"ios": "https://dc.lft.to/lastmile_qr_scan", "android": "https://dc.lft.to/lastmile_qr_scan"}}, {"name": "67dec43f60dc34738fee886b84292f4b", "fusion_lat": 0.0, "type": "electric_scooter", "lat": 38.907784166666666, "is_reserved": 0, "is_disabled": 0, "fusion_lon": 0.0, "bike_id": "67dec43f60dc34738fee886b84292f4b", "lon": -77.07165483333333, "rental_uris": {"ios": "https://dc.lft.to/lastmile_qr_scan", "android": "https://dc.lft.to/lastmile_qr_scan"}}, {"name": "dc53b3c4453b44ba950bee7aa1528a2c", "fusion_lat": 0.0, "type": "electric_scooter", "lat": 38.89451233333333, "is_reserved": 0, "is_disabled": 0, "fusion_lon": 0.0, "bike_id": "dc53b3c4453b44ba950bee7aa1528a2c", "lon": -77.01922766666667, "rental_uris": {"ios": "https://dc.lft.to/lastmile_qr_scan", "android": "https://dc.lft.to/lastmile_qr_scan"}}, {"name": "91c0fbb92531259160b5da557db4fe12", "fusion_lat": 0.0, "type": "electric_scooter", "lat": 38.936064333333334, "is_reserved": 0, "is_disabled": 0, "fusion_lon": 0.0, "bike_id": "91c0fbb92531259160b5da557db4fe12", "lon": -77.05860316666667, "rental_uris": {"ios": "https://dc.lft.to/lastmile_qr_scan", "android": "https://dc.lft.to/lastmile_qr_scan"}}, {"name": "d95a5f4540e9a277e76d6bb38074feaf", "fusion_lat": 0.0, "type": "electric_scooter", "lat": 38.90044316666667, "is_reserved": 0, "is_disabled": 0, "fusion_lon": 0.0, "bike_id": "d95a5f4540e9a277e76d6bb38074feaf", "lon": -77.0073995, "rental_uris": {"ios": "https://dc.lft.to/lastmile_qr_scan", "android": "https://dc.lft.to/lastmile_qr_scan"}}, {"name": "e22b9f9d12124c5785603dbd48db84a8", "fusion_lat": 0.0, "type": "electric_scooter", "lat": 38.923319666666664, "is_reserved": 0, "is_disabled": 0, "fusion_lon": 0.0, "bike_id": "e22b9f9d12124c5785603dbd48db84a8", "lon": -77.041773, "rental_uris": {"ios": "https://dc.lft.to/lastmile_qr_scan", "android": "https://dc.lft.to/lastmile_qr_scan"}}, {"name": "8d7057aeaa979480f63f30068f8364a8", "fusion_lat": 0.0, "type": "electric_scooter", "lat": 38.903444666666665, "is_reserved": 0, "is_disabled": 0, "fusion_lon": 0.0, "bike_id": "8d7057aeaa979480f63f30068f8364a8", "lon": -77.05313383333333, "rental_uris": {"ios": "https://dc.lft.to/lastmile_qr_scan", "android": "https://dc.lft.to/lastmile_qr_scan"}}, {"name": "a2a7c9bebfb86502e2078cb9fe2e220a", "fusion_lat": 0.0, "type": "electric_scooter", "lat": 38.906353833333334, "is_reserved": 0, "is_disabled": 0, "fusion_lon": 0.0, "bike_id": "a2a7c9bebfb86502e2078cb9fe2e220a", "lon": -77.0386795, "rental_uris": {"ios": "https://dc.lft.to/lastmile_qr_scan", "android": "https://dc.lft.to/lastmile_qr_scan"}}, {"name": "e1334454759fe5d01f2a9fada1542660", "fusion_lat": 0.0, "type": "electric_scooter", "lat": 38.887419, "is_reserved": 0, "is_disabled": 0, "fusion_lon": 0.0, "bike_id": "e1334454759fe5d01f2a9fada1542660", "lon": -77.03205783333334, "rental_uris": {"ios": "https://dc.lft.to/lastmile_qr_scan", "android": "https://dc.lft.to/lastmile_qr_scan"}}, {"name": "553477003fc4ca64cffebbba02cd5e09", "fusion_lat": 0.0, "type": "electric_scooter", "lat": 38.929291666666664, "is_reserved": 0, "is_disabled": 0, "fusion_lon": 0.0, "bike_id": "553477003fc4ca64cffebbba02cd5e09", "lon": -77.0362385, "rental_uris": {"ios": "https://dc.lft.to/lastmile_qr_scan", "android": "https://dc.lft.to/lastmile_qr_scan"}}, {"name": "10a731a20af1de66d2bb958c91505fbc", "fusion_lat": 0.0, "type": "electric_scooter", "lat": 38.90129683333333, "is_reserved": 0, "is_disabled": 0, "fusion_lon": 0.0, "bike_id": "10a731a20af1de66d2bb958c91505fbc", "lon": -77.04209316666666, "rental_uris": {"ios": "https://dc.lft.to/lastmile_qr_scan", "android": "https://dc.lft.to/lastmile_qr_scan"}}, {"name": "5407dfbbe7624528a8e19baa22d176bb", "fusion_lat": 0.0, "type": "electric_scooter", "lat": 38.920420666666665, "is_reserved": 0, "is_disabled": 0, "fusion_lon": 0.0, "bike_id": "5407dfbbe7624528a8e19baa22d176bb", "lon": -77.07144883333333, "rental_uris": {"ios": "https://dc.lft.to/lastmile_qr_scan", "android": "https://dc.lft.to/lastmile_qr_scan"}}, {"name": "5f246b21de06291915aa8f17f46d2952", "fusion_lat": 0.0, "type": "electric_scooter", "lat": 38.917246666666664, "is_reserved": 0, "is_disabled": 0, "fusion_lon": 0.0, "bike_id": "5f246b21de06291915aa8f17f46d2952", "lon": -77.041733, "rental_uris": {"ios": "https://dc.lft.to/lastmile_qr_scan", "android": "https://dc.lft.to/lastmile_qr_scan"}}, {"name": "c119afe8085e1eb2803f38de53bd73e7", "fusion_lat": 0.0, "type": "electric_scooter", "lat": 38.946042166666665, "is_reserved": 0, "is_disabled": 0, "fusion_lon": 0.0, "bike_id": "c119afe8085e1eb2803f38de53bd73e7", "lon": -77.029763, "rental_uris": {"ios": "https://dc.lft.to/lastmile_qr_scan", "android": "https://dc.lft.to/lastmile_qr_scan"}}, {"name": "cf5dae4e2048a08f46db09fb405c8585", "fusion_lat": 0.0, "type": "electric_scooter", "lat": 38.90052216666667, "is_reserved": 0, "is_disabled": 0, "fusion_lon": 0.0, "bike_id": "cf5dae4e2048a08f46db09fb405c8585", "lon": -77.00065583333334, "rental_uris": {"ios": "https://dc.lft.to/lastmile_qr_scan", "android": "https://dc.lft.to/lastmile_qr_scan"}}, {"name": "496cb73dad5961c67b9704414acc008d", "fusion_lat": 0.0, "type": "electric_scooter", "lat": 38.9257315, "is_reserved": 0, "is_disabled": 0, "fusion_lon": 0.0, "bike_id": "496cb73dad5961c67b9704414acc008d", "lon": -77.04373883333334, "rental_uris": {"ios": "https://dc.lft.to/lastmile_qr_scan", "android": "https://dc.lft.to/lastmile_qr_scan"}}, {"name": "3212751708d41ca86cef666d0cdcd037", "fusion_lat": 0.0, "type": "electric_scooter", "lat": 38.903923, "is_reserved": 0, "is_disabled": 0, "fusion_lon": 0.0, "bike_id": "3212751708d41ca86cef666d0cdcd037", "lon": -77.038737, "rental_uris": {"ios": "https://dc.lft.to/lastmile_qr_scan", "android": "https://dc.lft.to/lastmile_qr_scan"}}, {"name": "f021cf2d614fc34ecea2758fe73c0574", "fusion_lat": 0.0, "type": "electric_scooter", "lat": 38.91605, "is_reserved": 0, "is_disabled": 0, "fusion_lon": 0.0, "bike_id": "f021cf2d614fc34ecea2758fe73c0574", "lon": -77.04159266666667, "rental_uris": {"ios": "https://dc.lft.to/lastmile_qr_scan", "android": "https://dc.lft.to/lastmile_qr_scan"}}, {"name": "3a34b56f8ca77243e88d94f91d0e4cb7", "fusion_lat": 0.0, "type": "electric_scooter", "lat": 38.92359916666667, "is_reserved": 0, "is_disabled": 0, "fusion_lon": 0.0, "bike_id": "3a34b56f8ca77243e88d94f91d0e4cb7", "lon": -77.0508435, "rental_uris": {"ios": "https://dc.lft.to/lastmile_qr_scan", "android": "https://dc.lft.to/lastmile_qr_scan"}}, {"name": "02bf379f5e05d7b8031a307a2505fe9d", "fusion_lat": 0.0, "type": "electric_scooter", "lat": 38.88357233333333, "is_reserved": 0, "is_disabled": 0, "fusion_lon": 0.0, "bike_id": "02bf379f5e05d7b8031a307a2505fe9d", "lon": -76.99615766666666, "rental_uris": {"ios": "https://dc.lft.to/lastmile_qr_scan", "android": "https://dc.lft.to/lastmile_qr_scan"}}, {"name": "7892909e5bddc5edc301ba52f4e81336", "fusion_lat": 0.0, "type": "electric_scooter", "lat": 38.956519166666666, "is_reserved": 0, "is_disabled": 0, "fusion_lon": 0.0, "bike_id": "7892909e5bddc5edc301ba52f4e81336", "lon": -77.032908, "rental_uris": {"ios": "https://dc.lft.to/lastmile_qr_scan", "android": "https://dc.lft.to/lastmile_qr_scan"}}, {"name": "af13dcb88cd34f10a5b082664420b46b", "fusion_lat": 0.0, "type": "electric_scooter", "lat": 38.902739833333335, "is_reserved": 0, "is_disabled": 0, "fusion_lon": 0.0, "bike_id": "af13dcb88cd34f10a5b082664420b46b", "lon": -77.03640683333333, "rental_uris": {"ios": "https://dc.lft.to/lastmile_qr_scan", "android": "https://dc.lft.to/lastmile_qr_scan"}}, {"name": "551f4b769a1faee6fa7d46063c3aae8f", "fusion_lat": 0.0, "type": "electric_scooter", "lat": 38.8579215, "is_reserved": 0, "is_disabled": 0, "fusion_lon": 0.0, "bike_id": "551f4b769a1faee6fa7d46063c3aae8f", "lon": -76.99087616666667, "rental_uris": {"ios": "https://dc.lft.to/lastmile_qr_scan", "android": "https://dc.lft.to/lastmile_qr_scan"}}, {"name": "74b00e1d5a8ed726eda4345e4c8446ee", "fusion_lat": 0.0, "type": "electric_scooter", "lat": 38.91575433333333, "is_reserved": 0, "is_disabled": 0, "fusion_lon": 0.0, "bike_id": "74b00e1d5a8ed726eda4345e4c8446ee", "lon": -77.031889, "rental_uris": {"ios": "https://dc.lft.to/lastmile_qr_scan", "android": "https://dc.lft.to/lastmile_qr_scan"}}, {"name": "3efa4f499287dcbb515f3ca94e614c5e", "fusion_lat": 0.0, "type": "electric_bike", "lat": 39.003844, "is_reserved": 0, "is_disabled": 0, "fusion_lon": 0.0, "bike_id": "3efa4f499287dcbb515f3ca94e614c5e", "lon": -77.01288283333334, "rental_uris": {"ios": "https://dc.lft.to/lastmile_qr_scan", "android": "https://dc.lft.to/lastmile_qr_scan"}}, {"name": "1ffc49b5685eff05718cc4c9d66b16fd", "fusion_lat": 0.0, "type": "electric_scooter", "lat": 38.894274333333335, "is_reserved": 0, "is_disabled": 0, "fusion_lon": 0.0, "bike_id": "1ffc49b5685eff05718cc4c9d66b16fd", "lon": -76.9326035, "rental_uris": {"ios": "https://dc.lft.to/lastmile_qr_scan", "android": "https://dc.lft.to/lastmile_qr_scan"}}, {"name": "38908c481c16e2fea91c8f52cd938f41", "fusion_lat": 0.0, "type": "electric_scooter", "lat": 38.903079, "is_reserved": 0, "is_disabled": 0, "fusion_lon": 0.0, "bike_id": "38908c481c16e2fea91c8f52cd938f41", "lon": -77.02361783333333, "rental_uris": {"ios": "https://dc.lft.to/lastmile_qr_scan", "android": "https://dc.lft.to/lastmile_qr_scan"}}, {"name": "70ed08baeb02fb23a70810b19057de9a", "fusion_lat": 0.0, "type": "electric_scooter", "lat": 38.924836166666665, "is_reserved": 0, "is_disabled": 0, "fusion_lon": 0.0, "bike_id": "70ed08baeb02fb23a70810b19057de9a", "lon": -77.05208083333333, "rental_uris": {"ios": "https://dc.lft.to/lastmile_qr_scan", "android": "https://dc.lft.to/lastmile_qr_scan"}}, {"name": "ce0a8ebbde7e3df227a66d383c9d2d93", "fusion_lat": 0.0, "type": "electric_scooter", "lat": 38.90275533333333, "is_reserved": 0, "is_disabled": 0, "fusion_lon": 0.0, "bike_id": "ce0a8ebbde7e3df227a66d383c9d2d93", "lon": -77.0385015, "rental_uris": {"ios": "https://dc.lft.to/lastmile_qr_scan", "android": "https://dc.lft.to/lastmile_qr_scan"}}, {"name": "2ca1efe084f9409f09a2fafe6e581164", "fusion_lat": 0.0, "type": "electric_scooter", "lat": 38.95911916666667, "is_reserved": 0, "is_disabled": 0, "fusion_lon": 0.0, "bike_id": "2ca1efe084f9409f09a2fafe6e581164", "lon": -77.08079516666666, "rental_uris": {"ios": "https://dc.lft.to/lastmile_qr_scan", "android": "https://dc.lft.to/lastmile_qr_scan"}}, {"name": "540c853408411d04bebe6eec4bad8c73", "fusion_lat": 0.0, "type": "electric_scooter", "lat": 38.89532333333333, "is_reserved": 0, "is_disabled": 0, "fusion_lon": 0.0, "bike_id": "540c853408411d04bebe6eec4bad8c73", "lon": -77.03208683333334, "rental_uris": {"ios": "https://dc.lft.to/lastmile_qr_scan", "android": "https://dc.lft.to/lastmile_qr_scan"}}, {"name": "6a6e2285464f9f2aa1e61b4559a5899d", "fusion_lat": 0.0, "type": "electric_scooter", "lat": 38.88489966666667, "is_reserved": 0, "is_disabled": 0, "fusion_lon": 0.0, "bike_id": "6a6e2285464f9f2aa1e61b4559a5899d", "lon": -77.00712916666667, "rental_uris": {"ios": "https://dc.lft.to/lastmile_qr_scan", "android": "https://dc.lft.to/lastmile_qr_scan"}}, {"name": "bf491d7ded32afada4e88728128c43ca", "fusion_lat": 0.0, "type": "electric_scooter", "lat": 38.90315583333334, "is_reserved": 0, "is_disabled": 0, "fusion_lon": 0.0, "bike_id": "bf491d7ded32afada4e88728128c43ca", "lon": -77.0386505, "rental_uris": {"ios": "https://dc.lft.to/lastmile_qr_scan", "android": "https://dc.lft.to/lastmile_qr_scan"}}, {"name": "d4454603eb5eea3a746cc88f555783de", "fusion_lat": 0.0, "type": "electric_scooter", "lat": 38.901415666666665, "is_reserved": 0, "is_disabled": 0, "fusion_lon": 0.0, "bike_id": "d4454603eb5eea3a746cc88f555783de", "lon": -77.00041083333333, "rental_uris": {"ios": "https://dc.lft.to/lastmile_qr_scan", "android": "https://dc.lft.to/lastmile_qr_scan"}}, {"name": "ba6a4d5f1717cba59a64508660b40236", "fusion_lat": 0.0, "type": "electric_scooter", "lat": 38.930895166666666, "is_reserved": 0, "is_disabled": 0, "fusion_lon": 0.0, "bike_id": "ba6a4d5f1717cba59a64508660b40236", "lon": -77.02395716666666, "rental_uris": {"ios": "https://dc.lft.to/lastmile_qr_scan", "android": "https://dc.lft.to/lastmile_qr_scan"}}, {"name": "124b16a7192ca1de1f1ffb7c0f45395f", "fusion_lat": 0.0, "type": "electric_scooter", "lat": 38.91806116666667, "is_reserved": 0, "is_disabled": 0, "fusion_lon": 0.0, "bike_id": "124b16a7192ca1de1f1ffb7c0f45395f", "lon": -77.02812266666666, "rental_uris": {"ios": "https://dc.lft.to/lastmile_qr_scan", "android": "https://dc.lft.to/lastmile_qr_scan"}}, {"name": "9212ea306720b0be4b3eb77774857129", "fusion_lat": 0.0, "type": "electric_scooter", "lat": 38.903839, "is_reserved": 0, "is_disabled": 0, "fusion_lon": 0.0, "bike_id": "9212ea306720b0be4b3eb77774857129", "lon": -77.04482116666667, "rental_uris": {"ios": "https://dc.lft.to/lastmile_qr_scan", "android": "https://dc.lft.to/lastmile_qr_scan"}}, {"name": "cf9616b1d95b484f39bd69e60abb7f62", "fusion_lat": 0.0, "type": "electric_scooter", "lat": 38.92213666666667, "is_reserved": 0, "is_disabled": 0, "fusion_lon": 0.0, "bike_id": "cf9616b1d95b484f39bd69e60abb7f62", "lon": -77.0423695, "rental_uris": {"ios": "https://dc.lft.to/lastmile_qr_scan", "android": "https://dc.lft.to/lastmile_qr_scan"}}, {"name": "7df354d7d285a2a7afb2c9a00387ceb4", "fusion_lat": 0.0, "type": "electric_bike", "lat": 38.8386245, "is_reserved": 0, "is_disabled": 0, "fusion_lon": 0.0, "bike_id": "7df354d7d285a2a7afb2c9a00387ceb4", "lon": -77.08866083333334, "rental_uris": {"ios": "https://dc.lft.to/lastmile_qr_scan", "android": "https://dc.lft.to/lastmile_qr_scan"}}, {"name": "d1f1e80847c33792b55804803360b1fd", "fusion_lat": 0.0, "type": "electric_scooter", "lat": 38.9030305, "is_reserved": 0, "is_disabled": 0, "fusion_lon": 0.0, "bike_id": "d1f1e80847c33792b55804803360b1fd", "lon": -77.03202433333334, "rental_uris": {"ios": "https://dc.lft.to/lastmile_qr_scan", "android": "https://dc.lft.to/lastmile_qr_scan"}}, {"name": "22da9f2949ffe9623e2aab9243bca792", "fusion_lat": 0.0, "type": "electric_scooter", "lat": 38.93963166666666, "is_reserved": 0, "is_disabled": 0, "fusion_lon": 0.0, "bike_id": "22da9f2949ffe9623e2aab9243bca792", "lon": -77.032884, "rental_uris": {"ios": "https://dc.lft.to/lastmile_qr_scan", "android": "https://dc.lft.to/lastmile_qr_scan"}}, {"name": "c43b802ddc79c7c40c60427023227e07", "fusion_lat": 0.0, "type": "electric_bike", "lat": 38.973267, "is_reserved": 0, "is_disabled": 0, "fusion_lon": 0.0, "bike_id": "c43b802ddc79c7c40c60427023227e07", "lon": -77.02149016666667, "rental_uris": {"ios": "https://dc.lft.to/lastmile_qr_scan", "android": "https://dc.lft.to/lastmile_qr_scan"}}, {"name": "d2449c434259d18034c840e468519833", "fusion_lat": 0.0, "type": "electric_scooter", "lat": 38.889299333333334, "is_reserved": 0, "is_disabled": 0, "fusion_lon": 0.0, "bike_id": "d2449c434259d18034c840e468519833", "lon": -76.94781133333333, "rental_uris": {"ios": "https://dc.lft.to/lastmile_qr_scan", "android": "https://dc.lft.to/lastmile_qr_scan"}}, {"name": "362296cb513818c20200b365a8557911", "fusion_lat": 0.0, "type": "electric_bike", "lat": 38.905357, "is_reserved": 0, "is_disabled": 0, "fusion_lon": 0.0, "bike_id": "362296cb513818c20200b365a8557911", "lon": -76.99804233333333, "rental_uris": {"ios": "https://dc.lft.to/lastmile_qr_scan", "android": "https://dc.lft.to/lastmile_qr_scan"}}, {"name": "1c96c0fb1ac7cb895574182886807487", "fusion_lat": 0.0, "type": "electric_scooter", "lat": 38.908659666666665, "is_reserved": 0, "is_disabled": 0, "fusion_lon": 0.0, "bike_id": "1c96c0fb1ac7cb895574182886807487", "lon": -77.02715, "rental_uris": {"ios": "https://dc.lft.to/lastmile_qr_scan", "android": "https://dc.lft.to/lastmile_qr_scan"}}, {"name": "37222efb921497c13908de0fe2d7d42c", "fusion_lat": 0.0, "type": "electric_scooter", "lat": 38.9167445, "is_reserved": 0, "is_disabled": 0, "fusion_lon": 0.0, "bike_id": "37222efb921497c13908de0fe2d7d42c", "lon": -77.03896266666666, "rental_uris": {"ios": "https://dc.lft.to/lastmile_qr_scan", "android": "https://dc.lft.to/lastmile_qr_scan"}}, {"name": "515bf8290b063f2e4b079798c962f825", "fusion_lat": 0.0, "type": "electric_scooter", "lat": 38.91914333333333, "is_reserved": 0, "is_disabled": 0, "fusion_lon": 0.0, "bike_id": "515bf8290b063f2e4b079798c962f825", "lon": -77.03217133333334, "rental_uris": {"ios": "https://dc.lft.to/lastmile_qr_scan", "android": "https://dc.lft.to/lastmile_qr_scan"}}, {"name": "db7a4555851475788822eff3fbe41cc9", "fusion_lat": 0.0, "type": "electric_scooter", "lat": 38.90540933333333, "is_reserved": 0, "is_disabled": 0, "fusion_lon": 0.0, "bike_id": "db7a4555851475788822eff3fbe41cc9", "lon": -77.0411525, "rental_uris": {"ios": "https://dc.lft.to/lastmile_qr_scan", "android": "https://dc.lft.to/lastmile_qr_scan"}}, {"name": "3b478f0d381b299077b2837ee9f8c709", "fusion_lat": 0.0, "type": "electric_scooter", "lat": 38.93715533333334, "is_reserved": 0, "is_disabled": 0, "fusion_lon": 0.0, "bike_id": "3b478f0d381b299077b2837ee9f8c709", "lon": -77.03650466666667, "rental_uris": {"ios": "https://dc.lft.to/lastmile_qr_scan", "android": "https://dc.lft.to/lastmile_qr_scan"}}, {"name": "64650835777d7488b552270f5c055304", "fusion_lat": 0.0, "type": "electric_bike", "lat": 38.990918, "is_reserved": 0, "is_disabled": 0, "fusion_lon": 0.0, "bike_id": "64650835777d7488b552270f5c055304", "lon": -76.87496433333334, "rental_uris": {"ios": "https://dc.lft.to/lastmile_qr_scan", "android": "https://dc.lft.to/lastmile_qr_scan"}}, {"name": "cd26de5e6ac54720b0fb78adf8daff3a", "fusion_lat": 0.0, "type": "electric_scooter", "lat": 38.90000916666666, "is_reserved": 0, "is_disabled": 0, "fusion_lon": 0.0, "bike_id": "cd26de5e6ac54720b0fb78adf8daff3a", "lon": -77.02720816666667, "rental_uris": {"ios": "https://dc.lft.to/lastmile_qr_scan", "android": "https://dc.lft.to/lastmile_qr_scan"}}, {"name": "1b9441d2d47c534b04998dbfba54e7a3", "fusion_lat": 0.0, "type": "electric_scooter", "lat": 38.911216, "is_reserved": 0, "is_disabled": 0, "fusion_lon": 0.0, "bike_id": "1b9441d2d47c534b04998dbfba54e7a3", "lon": -77.04412166666667, "rental_uris": {"ios": "https://dc.lft.to/lastmile_qr_scan", "android": "https://dc.lft.to/lastmile_qr_scan"}}, {"name": "25ccd5e8a0dc3ccaf4d74dd98bbcb223", "fusion_lat": 0.0, "type": "electric_scooter", "lat": 38.90045833333333, "is_reserved": 0, "is_disabled": 0, "fusion_lon": 0.0, "bike_id": "25ccd5e8a0dc3ccaf4d74dd98bbcb223", "lon": -77.04333783333334, "rental_uris": {"ios": "https://dc.lft.to/lastmile_qr_scan", "android": "https://dc.lft.to/lastmile_qr_scan"}}, {"name": "3afe26d7bb39711470f68d2806555591", "fusion_lat": 0.0, "type": "electric_scooter", "lat": 38.92291433333333, "is_reserved": 0, "is_disabled": 0, "fusion_lon": 0.0, "bike_id": "3afe26d7bb39711470f68d2806555591", "lon": -77.02068133333333, "rental_uris": {"ios": "https://dc.lft.to/lastmile_qr_scan", "android": "https://dc.lft.to/lastmile_qr_scan"}}, {"name": "eb03f479be9a614606d54b11faa62b47", "fusion_lat": 0.0, "type": "electric_scooter", "lat": 38.922554, "is_reserved": 0, "is_disabled": 0, "fusion_lon": 0.0, "bike_id": "eb03f479be9a614606d54b11faa62b47", "lon": -77.03474833333334, "rental_uris": {"ios": "https://dc.lft.to/lastmile_qr_scan", "android": "https://dc.lft.to/lastmile_qr_scan"}}, {"name": "77375c448e1afe28e35766c88ba5fbad", "fusion_lat": 0.0, "type": "electric_scooter", "lat": 38.926395, "is_reserved": 0, "is_disabled": 0, "fusion_lon": 0.0, "bike_id": "77375c448e1afe28e35766c88ba5fbad", "lon": -77.03462733333333, "rental_uris": {"ios": "https://dc.lft.to/lastmile_qr_scan", "android": "https://dc.lft.to/lastmile_qr_scan"}}, {"name": "4ad29e3f58a30b23d2f5172c74ce484a", "fusion_lat": 0.0, "type": "electric_scooter", "lat": 38.9297245, "is_reserved": 0, "is_disabled": 0, "fusion_lon": 0.0, "bike_id": "4ad29e3f58a30b23d2f5172c74ce484a", "lon": -77.00537633333333, "rental_uris": {"ios": "https://dc.lft.to/lastmile_qr_scan", "android": "https://dc.lft.to/lastmile_qr_scan"}}, {"name": "b0b9d20067e485648a7a8ee67e248cf5", "fusion_lat": 0.0, "type": "electric_scooter", "lat": 38.89901, "is_reserved": 0, "is_disabled": 0, "fusion_lon": 0.0, "bike_id": "b0b9d20067e485648a7a8ee67e248cf5", "lon": -76.93305116666667, "rental_uris": {"ios": "https://dc.lft.to/lastmile_qr_scan", "android": "https://dc.lft.to/lastmile_qr_scan"}}, {"name": "71e5bebe85be4023ad6988c1c70eda47", "fusion_lat": 0.0, "type": "electric_scooter", "lat": 38.9011045, "is_reserved": 0, "is_disabled": 0, "fusion_lon": 0.0, "bike_id": "71e5bebe85be4023ad6988c1c70eda47", "lon": -77.0501915, "rental_uris": {"ios": "https://dc.lft.to/lastmile_qr_scan", "android": "https://dc.lft.to/lastmile_qr_scan"}}, {"name": "bcc9649ad77c4e800f7b89d64263c7fe", "fusion_lat": 0.0, "type": "electric_scooter", "lat": 38.89015233333333, "is_reserved": 0, "is_disabled": 0, "fusion_lon": 0.0, "bike_id": "bcc9649ad77c4e800f7b89d64263c7fe", "lon": -76.93717433333333, "rental_uris": {"ios": "https://dc.lft.to/lastmile_qr_scan", "android": "https://dc.lft.to/lastmile_qr_scan"}}, {"name": "ac90d5188e8167ad850b483583724ef5", "fusion_lat": 0.0, "type": "electric_scooter", "lat": 38.918184333333336, "is_reserved": 0, "is_disabled": 0, "fusion_lon": 0.0, "bike_id": "ac90d5188e8167ad850b483583724ef5", "lon": -77.034409, "rental_uris": {"ios": "https://dc.lft.to/lastmile_qr_scan", "android": "https://dc.lft.to/lastmile_qr_scan"}}, {"name": "600e2e779d470191925927f28d378972", "fusion_lat": 0.0, "type": "electric_scooter", "lat": 38.901995666666664, "is_reserved": 0, "is_disabled": 0, "fusion_lon": 0.0, "bike_id": "600e2e779d470191925927f28d378972", "lon": -77.02253066666667, "rental_uris": {"ios": "https://dc.lft.to/lastmile_qr_scan", "android": "https://dc.lft.to/lastmile_qr_scan"}}, {"name": "1fbc159e38e90d1df49e7cc4dca64cab", "fusion_lat": 0.0, "type": "electric_scooter", "lat": 38.9066335, "is_reserved": 0, "is_disabled": 0, "fusion_lon": 0.0, "bike_id": "1fbc159e38e90d1df49e7cc4dca64cab", "lon": -77.03865, "rental_uris": {"ios": "https://dc.lft.to/lastmile_qr_scan", "android": "https://dc.lft.to/lastmile_qr_scan"}}, {"name": "0bc4018ae274a1aad7e3f088b79588f5", "fusion_lat": 0.0, "type": "electric_scooter", "lat": 38.896038833333336, "is_reserved": 0, "is_disabled": 0, "fusion_lon": 0.0, "bike_id": "0bc4018ae274a1aad7e3f088b79588f5", "lon": -77.0112005, "rental_uris": {"ios": "https://dc.lft.to/lastmile_qr_scan", "android": "https://dc.lft.to/lastmile_qr_scan"}}, {"name": "3f74f35faac1e90957d2e4a38ff1b9e8", "fusion_lat": 0.0, "type": "electric_scooter", "lat": 38.926290333333334, "is_reserved": 0, "is_disabled": 0, "fusion_lon": 0.0, "bike_id": "3f74f35faac1e90957d2e4a38ff1b9e8", "lon": -77.03786116666667, "rental_uris": {"ios": "https://dc.lft.to/lastmile_qr_scan", "android": "https://dc.lft.to/lastmile_qr_scan"}}, {"name": "91f18cc8d5a11d6ae3970e43d6fc72f6", "fusion_lat": 0.0, "type": "electric_scooter", "lat": 38.905154, "is_reserved": 0, "is_disabled": 0, "fusion_lon": 0.0, "bike_id": "91f18cc8d5a11d6ae3970e43d6fc72f6", "lon": -77.034646, "rental_uris": {"ios": "https://dc.lft.to/lastmile_qr_scan", "android": "https://dc.lft.to/lastmile_qr_scan"}}, {"name": "a148273be90a049933bec4983841e2cc", "fusion_lat": 0.0, "type": "electric_bike", "lat": 38.97091116666667, "is_reserved": 0, "is_disabled": 0, "fusion_lon": 0.0, "bike_id": "a148273be90a049933bec4983841e2cc", "lon": -77.06966166666666, "rental_uris": {"ios": "https://dc.lft.to/lastmile_qr_scan", "android": "https://dc.lft.to/lastmile_qr_scan"}}, {"name": "81331dd4bc0509cdfb85c34eff392e3f", "fusion_lat": 0.0, "type": "electric_scooter", "lat": 38.89900216666667, "is_reserved": 0, "is_disabled": 0, "fusion_lon": 0.0, "bike_id": "81331dd4bc0509cdfb85c34eff392e3f", "lon": -77.00879933333333, "rental_uris": {"ios": "https://dc.lft.to/lastmile_qr_scan", "android": "https://dc.lft.to/lastmile_qr_scan"}}, {"name": "a10c9b74c97ad09c6bab6440722f5c1b", "fusion_lat": 0.0, "type": "electric_scooter", "lat": 38.902576, "is_reserved": 0, "is_disabled": 0, "fusion_lon": 0.0, "bike_id": "a10c9b74c97ad09c6bab6440722f5c1b", "lon": -77.04612016666667, "rental_uris": {"ios": "https://dc.lft.to/lastmile_qr_scan", "android": "https://dc.lft.to/lastmile_qr_scan"}}, {"name": "07259b0ce64ecc88b7f2907df28a2505", "fusion_lat": 0.0, "type": "electric_scooter", "lat": 38.91330116666666, "is_reserved": 0, "is_disabled": 0, "fusion_lon": 0.0, "bike_id": "07259b0ce64ecc88b7f2907df28a2505", "lon": -77.048728, "rental_uris": {"ios": "https://dc.lft.to/lastmile_qr_scan", "android": "https://dc.lft.to/lastmile_qr_scan"}}, {"name": "fd1e5a4d837f8ceae57deb25a2d3fb23", "fusion_lat": 0.0, "type": "electric_scooter", "lat": 38.926942, "is_reserved": 0, "is_disabled": 0, "fusion_lon": 0.0, "bike_id": "fd1e5a4d837f8ceae57deb25a2d3fb23", "lon": -77.02425716666667, "rental_uris": {"ios": "https://dc.lft.to/lastmile_qr_scan", "android": "https://dc.lft.to/lastmile_qr_scan"}}, {"name": "8739989bda1aaaacdc3a1dbd4647c1c5", "fusion_lat": 0.0, "type": "electric_scooter", "lat": 38.9058765, "is_reserved": 0, "is_disabled": 0, "fusion_lon": 0.0, "bike_id": "8739989bda1aaaacdc3a1dbd4647c1c5", "lon": -77.00264283333334, "rental_uris": {"ios": "https://dc.lft.to/lastmile_qr_scan", "android": "https://dc.lft.to/lastmile_qr_scan"}}, {"name": "16572117c8cc73dc57910e134fef9988", "fusion_lat": 0.0, "type": "electric_bike", "lat": 38.89688666666667, "is_reserved": 0, "is_disabled": 0, "fusion_lon": 0.0, "bike_id": "16572117c8cc73dc57910e134fef9988", "lon": -77.0151895, "rental_uris": {"ios": "https://dc.lft.to/lastmile_qr_scan", "android": "https://dc.lft.to/lastmile_qr_scan"}}, {"name": "609a60d5823875ef2e9a3c1648f623ea", "fusion_lat": 0.0, "type": "electric_scooter", "lat": 38.876615, "is_reserved": 0, "is_disabled": 0, "fusion_lon": 0.0, "bike_id": "609a60d5823875ef2e9a3c1648f623ea", "lon": -77.00459, "rental_uris": {"ios": "https://dc.lft.to/lastmile_qr_scan", "android": "https://dc.lft.to/lastmile_qr_scan"}}, {"name": "df3c69de4b986e99d249ef8845df7824", "fusion_lat": 0.0, "type": "electric_scooter", "lat": 38.895137166666665, "is_reserved": 0, "is_disabled": 0, "fusion_lon": 0.0, "bike_id": "df3c69de4b986e99d249ef8845df7824", "lon": -77.01122516666666, "rental_uris": {"ios": "https://dc.lft.to/lastmile_qr_scan", "android": "https://dc.lft.to/lastmile_qr_scan"}}, {"name": "fea2160ad90812a53bd9e6cb173844ca", "fusion_lat": 0.0, "type": "electric_scooter", "lat": 38.906702833333334, "is_reserved": 0, "is_disabled": 0, "fusion_lon": 0.0, "bike_id": "fea2160ad90812a53bd9e6cb173844ca", "lon": -77.03815366666667, "rental_uris": {"ios": "https://dc.lft.to/lastmile_qr_scan", "android": "https://dc.lft.to/lastmile_qr_scan"}}, {"name": "dead789623ae942d695819b3e4f93bd7", "fusion_lat": 0.0, "type": "electric_scooter", "lat": 38.9027055, "is_reserved": 0, "is_disabled": 0, "fusion_lon": 0.0, "bike_id": "dead789623ae942d695819b3e4f93bd7", "lon": -77.05311533333334, "rental_uris": {"ios": "https://dc.lft.to/lastmile_qr_scan", "android": "https://dc.lft.to/lastmile_qr_scan"}}, {"name": "fa3df1af831f7bad97371b4a7c7bd847", "fusion_lat": 0.0, "type": "electric_scooter", "lat": 38.899817666666664, "is_reserved": 0, "is_disabled": 0, "fusion_lon": 0.0, "bike_id": "fa3df1af831f7bad97371b4a7c7bd847", "lon": -77.05551783333334, "rental_uris": {"ios": "https://dc.lft.to/lastmile_qr_scan", "android": "https://dc.lft.to/lastmile_qr_scan"}}, {"name": "24123f116945ae5ecb0d11d68f69c508", "fusion_lat": 0.0, "type": "electric_scooter", "lat": 38.93534283333334, "is_reserved": 0, "is_disabled": 0, "fusion_lon": 0.0, "bike_id": "24123f116945ae5ecb0d11d68f69c508", "lon": -77.03410683333334, "rental_uris": {"ios": "https://dc.lft.to/lastmile_qr_scan", "android": "https://dc.lft.to/lastmile_qr_scan"}}, {"name": "e689dc4e0c275703010e537624c3f523", "fusion_lat": 0.0, "type": "electric_bike", "lat": 38.96505283333333, "is_reserved": 0, "is_disabled": 0, "fusion_lon": 0.0, "bike_id": "e689dc4e0c275703010e537624c3f523", "lon": -77.10333733333333, "rental_uris": {"ios": "https://dc.lft.to/lastmile_qr_scan", "android": "https://dc.lft.to/lastmile_qr_scan"}}, {"name": "bdf6660a0b9141c5aed87960f929595f", "fusion_lat": 0.0, "type": "electric_scooter", "lat": 38.90414216666667, "is_reserved": 0, "is_disabled": 0, "fusion_lon": 0.0, "bike_id": "bdf6660a0b9141c5aed87960f929595f", "lon": -77.04664616666666, "rental_uris": {"ios": "https://dc.lft.to/lastmile_qr_scan", "android": "https://dc.lft.to/lastmile_qr_scan"}}, {"name": "777333a91d109a02d87c81f75c395fb3", "fusion_lat": 0.0, "type": "electric_scooter", "lat": 38.90110466666667, "is_reserved": 0, "is_disabled": 0, "fusion_lon": 0.0, "bike_id": "777333a91d109a02d87c81f75c395fb3", "lon": -77.02536566666667, "rental_uris": {"ios": "https://dc.lft.to/lastmile_qr_scan", "android": "https://dc.lft.to/lastmile_qr_scan"}}, {"name": "f892e2975a8e09bbc13c2a407103d866", "fusion_lat": 0.0, "type": "electric_scooter", "lat": 38.900298666666664, "is_reserved": 0, "is_disabled": 0, "fusion_lon": 0.0, "bike_id": "f892e2975a8e09bbc13c2a407103d866", "lon": -77.03284133333334, "rental_uris": {"ios": "https://dc.lft.to/lastmile_qr_scan", "android": "https://dc.lft.to/lastmile_qr_scan"}}, {"name": "11f6e43583e2bdccbab5dc62c2d7602e", "fusion_lat": 0.0, "type": "electric_scooter", "lat": 38.907990166666664, "is_reserved": 0, "is_disabled": 0, "fusion_lon": 0.0, "bike_id": "11f6e43583e2bdccbab5dc62c2d7602e", "lon": -77.0482185, "rental_uris": {"ios": "https://dc.lft.to/lastmile_qr_scan", "android": "https://dc.lft.to/lastmile_qr_scan"}}, {"name": "556f8e81b4ac7216eb8ba1373aff304f", "fusion_lat": 0.0, "type": "electric_scooter", "lat": 38.897374666666664, "is_reserved": 0, "is_disabled": 0, "fusion_lon": 0.0, "bike_id": "556f8e81b4ac7216eb8ba1373aff304f", "lon": -76.94254016666666, "rental_uris": {"ios": "https://dc.lft.to/lastmile_qr_scan", "android": "https://dc.lft.to/lastmile_qr_scan"}}, {"name": "fef7e52e96e841f4c0e1d3344582a4c4", "fusion_lat": 0.0, "type": "electric_scooter", "lat": 38.9037395, "is_reserved": 0, "is_disabled": 0, "fusion_lon": 0.0, "bike_id": "fef7e52e96e841f4c0e1d3344582a4c4", "lon": -77.043381, "rental_uris": {"ios": "https://dc.lft.to/lastmile_qr_scan", "android": "https://dc.lft.to/lastmile_qr_scan"}}, {"name": "fab2c0326ba441077df79f81ef676acf", "fusion_lat": 0.0, "type": "electric_scooter", "lat": 38.901112, "is_reserved": 0, "is_disabled": 0, "fusion_lon": 0.0, "bike_id": "fab2c0326ba441077df79f81ef676acf", "lon": -77.03210566666667, "rental_uris": {"ios": "https://dc.lft.to/lastmile_qr_scan", "android": "https://dc.lft.to/lastmile_qr_scan"}}, {"name": "b8df3e9aab6ca12de2e9fb97dc558d3f", "fusion_lat": 0.0, "type": "electric_scooter", "lat": 38.9009655, "is_reserved": 0, "is_disabled": 0, "fusion_lon": 0.0, "bike_id": "b8df3e9aab6ca12de2e9fb97dc558d3f", "lon": -77.01992666666666, "rental_uris": {"ios": "https://dc.lft.to/lastmile_qr_scan", "android": "https://dc.lft.to/lastmile_qr_scan"}}, {"name": "754619e9ccca07e2eb85012d56f56c19", "fusion_lat": 0.0, "type": "electric_scooter", "lat": 38.93382666666667, "is_reserved": 0, "is_disabled": 0, "fusion_lon": 0.0, "bike_id": "754619e9ccca07e2eb85012d56f56c19", "lon": -77.0576275, "rental_uris": {"ios": "https://dc.lft.to/lastmile_qr_scan", "android": "https://dc.lft.to/lastmile_qr_scan"}}, {"name": "e2aa9ea0c078f14ddad4fcc002d4cbc5", "fusion_lat": 0.0, "type": "electric_scooter", "lat": 38.933010333333335, "is_reserved": 0, "is_disabled": 0, "fusion_lon": 0.0, "bike_id": "e2aa9ea0c078f14ddad4fcc002d4cbc5", "lon": -77.02462516666667, "rental_uris": {"ios": "https://dc.lft.to/lastmile_qr_scan", "android": "https://dc.lft.to/lastmile_qr_scan"}}, {"name": "41fdd5b93ace29a138fdf210d8067e1b", "fusion_lat": 0.0, "type": "electric_scooter", "lat": 38.89553816666667, "is_reserved": 0, "is_disabled": 0, "fusion_lon": 0.0, "bike_id": "41fdd5b93ace29a138fdf210d8067e1b", "lon": -77.04684666666667, "rental_uris": {"ios": "https://dc.lft.to/lastmile_qr_scan", "android": "https://dc.lft.to/lastmile_qr_scan"}}, {"name": "ad1c3a55734629c529c47a7d91761f47", "fusion_lat": 0.0, "type": "electric_scooter", "lat": 38.89674483333334, "is_reserved": 0, "is_disabled": 0, "fusion_lon": 0.0, "bike_id": "ad1c3a55734629c529c47a7d91761f47", "lon": -77.04902433333334, "rental_uris": {"ios": "https://dc.lft.to/lastmile_qr_scan", "android": "https://dc.lft.to/lastmile_qr_scan"}}, {"name": "9e50ed41b01deb58e6d92372d25fc239", "fusion_lat": 0.0, "type": "electric_scooter", "lat": 38.92420933333333, "is_reserved": 0, "is_disabled": 0, "fusion_lon": 0.0, "bike_id": "9e50ed41b01deb58e6d92372d25fc239", "lon": -77.01948933333334, "rental_uris": {"ios": "https://dc.lft.to/lastmile_qr_scan", "android": "https://dc.lft.to/lastmile_qr_scan"}}, {"name": "1a9f7e105035f3babbab81aa527b2661", "fusion_lat": 0.0, "type": "electric_scooter", "lat": 38.91119183333333, "is_reserved": 0, "is_disabled": 0, "fusion_lon": 0.0, "bike_id": "1a9f7e105035f3babbab81aa527b2661", "lon": -77.03478966666667, "rental_uris": {"ios": "https://dc.lft.to/lastmile_qr_scan", "android": "https://dc.lft.to/lastmile_qr_scan"}}, {"name": "888d5dbe117dbf50d0b7e96a75b1ba8f", "fusion_lat": 0.0, "type": "electric_scooter", "lat": 38.90481833333333, "is_reserved": 0, "is_disabled": 0, "fusion_lon": 0.0, "bike_id": "888d5dbe117dbf50d0b7e96a75b1ba8f", "lon": -77.04171883333333, "rental_uris": {"ios": "https://dc.lft.to/lastmile_qr_scan", "android": "https://dc.lft.to/lastmile_qr_scan"}}, {"name": "9c3306374ef165a7f1f4fa79faeb3725", "fusion_lat": 0.0, "type": "electric_scooter", "lat": 38.928810166666665, "is_reserved": 0, "is_disabled": 0, "fusion_lon": 0.0, "bike_id": "9c3306374ef165a7f1f4fa79faeb3725", "lon": -77.04119916666667, "rental_uris": {"ios": "https://dc.lft.to/lastmile_qr_scan", "android": "https://dc.lft.to/lastmile_qr_scan"}}, {"name": "ebd20ed8b3fc5e8434b778db2d61da9f", "fusion_lat": 0.0, "type": "electric_scooter", "lat": 38.91477866666666, "is_reserved": 0, "is_disabled": 0, "fusion_lon": 0.0, "bike_id": "ebd20ed8b3fc5e8434b778db2d61da9f", "lon": -77.00979466666666, "rental_uris": {"ios": "https://dc.lft.to/lastmile_qr_scan", "android": "https://dc.lft.to/lastmile_qr_scan"}}, {"name": "c503d03c65c29560fc20973908ea3eca", "fusion_lat": 0.0, "type": "electric_scooter", "lat": 38.93367533333333, "is_reserved": 0, "is_disabled": 0, "fusion_lon": 0.0, "bike_id": "c503d03c65c29560fc20973908ea3eca", "lon": -77.05724716666667, "rental_uris": {"ios": "https://dc.lft.to/lastmile_qr_scan", "android": "https://dc.lft.to/lastmile_qr_scan"}}, {"name": "9c45d72dff9c04590d104ad36a9fb3fb", "fusion_lat": 0.0, "type": "electric_bike", "lat": 38.9548005, "is_reserved": 0, "is_disabled": 0, "fusion_lon": 0.0, "bike_id": "9c45d72dff9c04590d104ad36a9fb3fb", "lon": -77.08240666666667, "rental_uris": {"ios": "https://dc.lft.to/lastmile_qr_scan", "android": "https://dc.lft.to/lastmile_qr_scan"}}, {"name": "44c38ef0dd41a8b40477039c94dab64b", "fusion_lat": 0.0, "type": "electric_scooter", "lat": 38.8918245, "is_reserved": 0, "is_disabled": 0, "fusion_lon": 0.0, "bike_id": "44c38ef0dd41a8b40477039c94dab64b", "lon": -77.00331383333334, "rental_uris": {"ios": "https://dc.lft.to/lastmile_qr_scan", "android": "https://dc.lft.to/lastmile_qr_scan"}}, {"name": "c95ef7df05336fc749843cc9141c3438", "fusion_lat": 0.0, "type": "electric_scooter", "lat": 38.898869833333336, "is_reserved": 0, "is_disabled": 0, "fusion_lon": 0.0, "bike_id": "c95ef7df05336fc749843cc9141c3438", "lon": -77.03277716666666, "rental_uris": {"ios": "https://dc.lft.to/lastmile_qr_scan", "android": "https://dc.lft.to/lastmile_qr_scan"}}, {"name": "637f57fba77d78a3ec58d287b35bd73e", "fusion_lat": 0.0, "type": "electric_scooter", "lat": 38.908401166666664, "is_reserved": 0, "is_disabled": 0, "fusion_lon": 0.0, "bike_id": "637f57fba77d78a3ec58d287b35bd73e", "lon": -77.036752, "rental_uris": {"ios": "https://dc.lft.to/lastmile_qr_scan", "android": "https://dc.lft.to/lastmile_qr_scan"}}, {"name": "9b5c3615b77465c45222b7910ca7b5e9", "fusion_lat": 0.0, "type": "electric_scooter", "lat": 38.92837383333333, "is_reserved": 0, "is_disabled": 0, "fusion_lon": 0.0, "bike_id": "9b5c3615b77465c45222b7910ca7b5e9", "lon": -77.05421716666666, "rental_uris": {"ios": "https://dc.lft.to/lastmile_qr_scan", "android": "https://dc.lft.to/lastmile_qr_scan"}}, {"name": "4af2a70d4323d0fb9bca3e6e3309742a", "fusion_lat": 0.0, "type": "electric_scooter", "lat": 38.919026833333334, "is_reserved": 0, "is_disabled": 0, "fusion_lon": 0.0, "bike_id": "4af2a70d4323d0fb9bca3e6e3309742a", "lon": -77.05292483333334, "rental_uris": {"ios": "https://dc.lft.to/lastmile_qr_scan", "android": "https://dc.lft.to/lastmile_qr_scan"}}, {"name": "fba72dcfa14fe235c76e77988ad2e6db", "fusion_lat": 0.0, "type": "electric_bike", "lat": 38.82728866666667, "is_reserved": 0, "is_disabled": 0, "fusion_lon": 0.0, "bike_id": "fba72dcfa14fe235c76e77988ad2e6db", "lon": -77.008658, "rental_uris": {"ios": "https://dc.lft.to/lastmile_qr_scan", "android": "https://dc.lft.to/lastmile_qr_scan"}}, {"name": "b9aa1b39bd942182646af0587b25bad1", "fusion_lat": 0.0, "type": "electric_scooter", "lat": 38.926136, "is_reserved": 0, "is_disabled": 0, "fusion_lon": 0.0, "bike_id": "b9aa1b39bd942182646af0587b25bad1", "lon": -77.02166683333333, "rental_uris": {"ios": "https://dc.lft.to/lastmile_qr_scan", "android": "https://dc.lft.to/lastmile_qr_scan"}}, {"name": "20e62e3e6943106bc5b07bbb56dc5387", "fusion_lat": 0.0, "type": "electric_scooter", "lat": 38.89494633333333, "is_reserved": 0, "is_disabled": 0, "fusion_lon": 0.0, "bike_id": "20e62e3e6943106bc5b07bbb56dc5387", "lon": -77.024018, "rental_uris": {"ios": "https://dc.lft.to/lastmile_qr_scan", "android": "https://dc.lft.to/lastmile_qr_scan"}}, {"name": "e6b180d4337da050c4e3d226567a2af9", "fusion_lat": 0.0, "type": "electric_scooter", "lat": 38.895118333333336, "is_reserved": 0, "is_disabled": 0, "fusion_lon": 0.0, "bike_id": "e6b180d4337da050c4e3d226567a2af9", "lon": -76.94889216666667, "rental_uris": {"ios": "https://dc.lft.to/lastmile_qr_scan", "android": "https://dc.lft.to/lastmile_qr_scan"}}, {"name": "80891f2a29a209187e208dbe2a3dbf14", "fusion_lat": 0.0, "type": "electric_scooter", "lat": 38.8968715, "is_reserved": 0, "is_disabled": 0, "fusion_lon": 0.0, "bike_id": "80891f2a29a209187e208dbe2a3dbf14", "lon": -77.01197483333333, "rental_uris": {"ios": "https://dc.lft.to/lastmile_qr_scan", "android": "https://dc.lft.to/lastmile_qr_scan"}}, {"name": "fe24a809edcbd386d4b7f3f8b69316ea", "fusion_lat": 0.0, "type": "electric_scooter", "lat": 38.92366233333333, "is_reserved": 0, "is_disabled": 0, "fusion_lon": 0.0, "bike_id": "fe24a809edcbd386d4b7f3f8b69316ea", "lon": -77.05025916666666, "rental_uris": {"ios": "https://dc.lft.to/lastmile_qr_scan", "android": "https://dc.lft.to/lastmile_qr_scan"}}, {"name": "6b695e497a9a9e1caafae1fcc5298130", "fusion_lat": 0.0, "type": "electric_scooter", "lat": 38.89826, "is_reserved": 0, "is_disabled": 0, "fusion_lon": 0.0, "bike_id": "6b695e497a9a9e1caafae1fcc5298130", "lon": -77.00360033333334, "rental_uris": {"ios": "https://dc.lft.to/lastmile_qr_scan", "android": "https://dc.lft.to/lastmile_qr_scan"}}, {"name": "14cbe1e54fbaf13fdcf56af668f33dbb", "fusion_lat": 0.0, "type": "electric_scooter", "lat": 38.880244, "is_reserved": 0, "is_disabled": 0, "fusion_lon": 0.0, "bike_id": "14cbe1e54fbaf13fdcf56af668f33dbb", "lon": -76.93135083333334, "rental_uris": {"ios": "https://dc.lft.to/lastmile_qr_scan", "android": "https://dc.lft.to/lastmile_qr_scan"}}, {"name": "a3241d5e18164d93af5ceda11b127764", "fusion_lat": 0.0, "type": "electric_scooter", "lat": 38.89834833333333, "is_reserved": 0, "is_disabled": 0, "fusion_lon": 0.0, "bike_id": "a3241d5e18164d93af5ceda11b127764", "lon": -76.94642383333333, "rental_uris": {"ios": "https://dc.lft.to/lastmile_qr_scan", "android": "https://dc.lft.to/lastmile_qr_scan"}}, {"name": "9b09c2483407b0dcf64426feb83d237c", "fusion_lat": 0.0, "type": "electric_scooter", "lat": 38.91693216666667, "is_reserved": 0, "is_disabled": 0, "fusion_lon": 0.0, "bike_id": "9b09c2483407b0dcf64426feb83d237c", "lon": -77.02594783333333, "rental_uris": {"ios": "https://dc.lft.to/lastmile_qr_scan", "android": "https://dc.lft.to/lastmile_qr_scan"}}, {"name": "9705f6f3b88aaa045f8ba3217c082db7", "fusion_lat": 0.0, "type": "electric_scooter", "lat": 38.91055016666667, "is_reserved": 0, "is_disabled": 0, "fusion_lon": 0.0, "bike_id": "9705f6f3b88aaa045f8ba3217c082db7", "lon": -77.04580033333333, "rental_uris": {"ios": "https://dc.lft.to/lastmile_qr_scan", "android": "https://dc.lft.to/lastmile_qr_scan"}}, {"name": "bada262a75b348b01cd3ea3823b75a5e", "fusion_lat": 0.0, "type": "electric_scooter", "lat": 38.929775, "is_reserved": 0, "is_disabled": 0, "fusion_lon": 0.0, "bike_id": "bada262a75b348b01cd3ea3823b75a5e", "lon": -77.02609166666667, "rental_uris": {"ios": "https://dc.lft.to/lastmile_qr_scan", "android": "https://dc.lft.to/lastmile_qr_scan"}}, {"name": "223bfe228b9c6c1570ecdd01f8919c6a", "fusion_lat": 0.0, "type": "electric_bike", "lat": 38.89516583333333, "is_reserved": 0, "is_disabled": 0, "fusion_lon": 0.0, "bike_id": "223bfe228b9c6c1570ecdd01f8919c6a", "lon": -77.0435455, "rental_uris": {"ios": "https://dc.lft.to/lastmile_qr_scan", "android": "https://dc.lft.to/lastmile_qr_scan"}}, {"name": "9e32012cddd779a74cf25bb203be979d", "fusion_lat": 0.0, "type": "electric_scooter", "lat": 38.94197883333333, "is_reserved": 0, "is_disabled": 0, "fusion_lon": 0.0, "bike_id": "9e32012cddd779a74cf25bb203be979d", "lon": -77.0251015, "rental_uris": {"ios": "https://dc.lft.to/lastmile_qr_scan", "android": "https://dc.lft.to/lastmile_qr_scan"}}, {"name": "8fcd471d99ddfbaab402d510586c0f83", "fusion_lat": 0.0, "type": "electric_scooter", "lat": 38.901361333333334, "is_reserved": 0, "is_disabled": 0, "fusion_lon": 0.0, "bike_id": "8fcd471d99ddfbaab402d510586c0f83", "lon": -77.03201666666666, "rental_uris": {"ios": "https://dc.lft.to/lastmile_qr_scan", "android": "https://dc.lft.to/lastmile_qr_scan"}}, {"name": "e4fbd1634cd01c07cb5a914ef3fb5f3e", "fusion_lat": 0.0, "type": "electric_scooter", "lat": 38.9000755, "is_reserved": 0, "is_disabled": 0, "fusion_lon": 0.0, "bike_id": "e4fbd1634cd01c07cb5a914ef3fb5f3e", "lon": -77.05334616666667, "rental_uris": {"ios": "https://dc.lft.to/lastmile_qr_scan", "android": "https://dc.lft.to/lastmile_qr_scan"}}, {"name": "cd913a71e6e625047a6e17f915112fce", "fusion_lat": 0.0, "type": "electric_bike", "lat": 38.87758383333333, "is_reserved": 0, "is_disabled": 0, "fusion_lon": 0.0, "bike_id": "cd913a71e6e625047a6e17f915112fce", "lon": -76.97983383333333, "rental_uris": {"ios": "https://dc.lft.to/lastmile_qr_scan", "android": "https://dc.lft.to/lastmile_qr_scan"}}, {"name": "4a0d3b1da0e78012a335bacc4f870918", "fusion_lat": 0.0, "type": "electric_scooter", "lat": 38.92828033333333, "is_reserved": 0, "is_disabled": 0, "fusion_lon": 0.0, "bike_id": "4a0d3b1da0e78012a335bacc4f870918", "lon": -77.022597, "rental_uris": {"ios": "https://dc.lft.to/lastmile_qr_scan", "android": "https://dc.lft.to/lastmile_qr_scan"}}, {"name": "eb465d566dc3462ef6ffe3cd759c49b7", "fusion_lat": 0.0, "type": "electric_scooter", "lat": 38.869628, "is_reserved": 0, "is_disabled": 0, "fusion_lon": 0.0, "bike_id": "eb465d566dc3462ef6ffe3cd759c49b7", "lon": -77.0137395, "rental_uris": {"ios": "https://dc.lft.to/lastmile_qr_scan", "android": "https://dc.lft.to/lastmile_qr_scan"}}, {"name": "e7df7f9ccd21ed604178e558037d678d", "fusion_lat": 0.0, "type": "electric_scooter", "lat": 38.9058385, "is_reserved": 0, "is_disabled": 0, "fusion_lon": 0.0, "bike_id": "e7df7f9ccd21ed604178e558037d678d", "lon": -77.00302766666667, "rental_uris": {"ios": "https://dc.lft.to/lastmile_qr_scan", "android": "https://dc.lft.to/lastmile_qr_scan"}}, {"name": "fe4254fa423822a1d9d2081edb768dfd", "fusion_lat": 0.0, "type": "electric_scooter", "lat": 38.91241, "is_reserved": 0, "is_disabled": 0, "fusion_lon": 0.0, "bike_id": "fe4254fa423822a1d9d2081edb768dfd", "lon": -77.04884433333334, "rental_uris": {"ios": "https://dc.lft.to/lastmile_qr_scan", "android": "https://dc.lft.to/lastmile_qr_scan"}}, {"name": "456e3a90bca61124506fd24b95b3fe51", "fusion_lat": 0.0, "type": "electric_scooter", "lat": 38.896444, "is_reserved": 0, "is_disabled": 0, "fusion_lon": 0.0, "bike_id": "456e3a90bca61124506fd24b95b3fe51", "lon": -77.00918583333333, "rental_uris": {"ios": "https://dc.lft.to/lastmile_qr_scan", "android": "https://dc.lft.to/lastmile_qr_scan"}}, {"name": "5340e005988393f053538d1d510ab6c7", "fusion_lat": 0.0, "type": "electric_scooter", "lat": 38.97493866666667, "is_reserved": 0, "is_disabled": 0, "fusion_lon": 0.0, "bike_id": "5340e005988393f053538d1d510ab6c7", "lon": -77.01693633333333, "rental_uris": {"ios": "https://dc.lft.to/lastmile_qr_scan", "android": "https://dc.lft.to/lastmile_qr_scan"}}, {"name": "944de5c224b54164374f6afc6d267a31", "fusion_lat": 0.0, "type": "electric_scooter", "lat": 38.9174745, "is_reserved": 0, "is_disabled": 0, "fusion_lon": 0.0, "bike_id": "944de5c224b54164374f6afc6d267a31", "lon": -77.03643, "rental_uris": {"ios": "https://dc.lft.to/lastmile_qr_scan", "android": "https://dc.lft.to/lastmile_qr_scan"}}, {"name": "818bf0d8016648d881f3f3dac741fa1b", "fusion_lat": 0.0, "type": "electric_scooter", "lat": 38.92641666666667, "is_reserved": 0, "is_disabled": 0, "fusion_lon": 0.0, "bike_id": "818bf0d8016648d881f3f3dac741fa1b", "lon": -77.03732033333333, "rental_uris": {"ios": "https://dc.lft.to/lastmile_qr_scan", "android": "https://dc.lft.to/lastmile_qr_scan"}}, {"name": "70f97e6acd78547c3622bfbe9a1ff972", "fusion_lat": 0.0, "type": "electric_scooter", "lat": 38.895501333333335, "is_reserved": 0, "is_disabled": 0, "fusion_lon": 0.0, "bike_id": "70f97e6acd78547c3622bfbe9a1ff972", "lon": -76.94883183333333, "rental_uris": {"ios": "https://dc.lft.to/lastmile_qr_scan", "android": "https://dc.lft.to/lastmile_qr_scan"}}, {"name": "55720d9040d72b48350d3ba9dcb551bb", "fusion_lat": 0.0, "type": "electric_bike", "lat": 38.9395955, "is_reserved": 0, "is_disabled": 0, "fusion_lon": 0.0, "bike_id": "55720d9040d72b48350d3ba9dcb551bb", "lon": -77.36097983333333, "rental_uris": {"ios": "https://dc.lft.to/lastmile_qr_scan", "android": "https://dc.lft.to/lastmile_qr_scan"}}, {"name": "0b5d8e3d11e7bfc5fea4d9bda3672757", "fusion_lat": 0.0, "type": "electric_scooter", "lat": 38.9025655, "is_reserved": 0, "is_disabled": 0, "fusion_lon": 0.0, "bike_id": "0b5d8e3d11e7bfc5fea4d9bda3672757", "lon": -77.0344315, "rental_uris": {"ios": "https://dc.lft.to/lastmile_qr_scan", "android": "https://dc.lft.to/lastmile_qr_scan"}}, {"name": "a07d1c3942fbb071f8cb56432f9ce41f", "fusion_lat": 0.0, "type": "electric_scooter", "lat": 38.90367366666667, "is_reserved": 0, "is_disabled": 0, "fusion_lon": 0.0, "bike_id": "a07d1c3942fbb071f8cb56432f9ce41f", "lon": -77.02204366666666, "rental_uris": {"ios": "https://dc.lft.to/lastmile_qr_scan", "android": "https://dc.lft.to/lastmile_qr_scan"}}, {"name": "5e593cee286e153b65eee411de5184f3", "fusion_lat": 0.0, "type": "electric_bike", "lat": 38.95933816666667, "is_reserved": 0, "is_disabled": 0, "fusion_lon": 0.0, "bike_id": "5e593cee286e153b65eee411de5184f3", "lon": -76.925339, "rental_uris": {"ios": "https://dc.lft.to/lastmile_qr_scan", "android": "https://dc.lft.to/lastmile_qr_scan"}}, {"name": "546bb242c25e8248c66c336a63d79ec9", "fusion_lat": 0.0, "type": "electric_scooter", "lat": 38.909695, "is_reserved": 0, "is_disabled": 0, "fusion_lon": 0.0, "bike_id": "546bb242c25e8248c66c336a63d79ec9", "lon": -77.01119783333333, "rental_uris": {"ios": "https://dc.lft.to/lastmile_qr_scan", "android": "https://dc.lft.to/lastmile_qr_scan"}}, {"name": "b74219375ffdc84e23aa298d4ae1058a", "fusion_lat": 0.0, "type": "electric_scooter", "lat": 38.908140833333334, "is_reserved": 0, "is_disabled": 0, "fusion_lon": 0.0, "bike_id": "b74219375ffdc84e23aa298d4ae1058a", "lon": -77.03944066666666, "rental_uris": {"ios": "https://dc.lft.to/lastmile_qr_scan", "android": "https://dc.lft.to/lastmile_qr_scan"}}, {"name": "3f79649255fcc7102a7f662add94cee8", "fusion_lat": 0.0, "type": "electric_scooter", "lat": 38.90010566666667, "is_reserved": 0, "is_disabled": 0, "fusion_lon": 0.0, "bike_id": "3f79649255fcc7102a7f662add94cee8", "lon": -77.03332633333333, "rental_uris": {"ios": "https://dc.lft.to/lastmile_qr_scan", "android": "https://dc.lft.to/lastmile_qr_scan"}}, {"name": "10a60e09f7680f2d96c57c6a74383245", "fusion_lat": 0.0, "type": "electric_scooter", "lat": 38.917058, "is_reserved": 0, "is_disabled": 0, "fusion_lon": 0.0, "bike_id": "10a60e09f7680f2d96c57c6a74383245", "lon": -77.0417705, "rental_uris": {"ios": "https://dc.lft.to/lastmile_qr_scan", "android": "https://dc.lft.to/lastmile_qr_scan"}}, {"name": "459a1996af1e192b3412c94d13638297", "fusion_lat": 0.0, "type": "electric_scooter", "lat": 38.895559166666665, "is_reserved": 0, "is_disabled": 0, "fusion_lon": 0.0, "bike_id": "459a1996af1e192b3412c94d13638297", "lon": -77.0467025, "rental_uris": {"ios": "https://dc.lft.to/lastmile_qr_scan", "android": "https://dc.lft.to/lastmile_qr_scan"}}, {"name": "2b10d28cbaaf35c958582ea0e380bab6", "fusion_lat": 0.0, "type": "electric_scooter", "lat": 38.892208, "is_reserved": 0, "is_disabled": 0, "fusion_lon": 0.0, "bike_id": "2b10d28cbaaf35c958582ea0e380bab6", "lon": -77.013706, "rental_uris": {"ios": "https://dc.lft.to/lastmile_qr_scan", "android": "https://dc.lft.to/lastmile_qr_scan"}}, {"name": "505e3851769b40a1f2ad8a0182dc70d2", "fusion_lat": 0.0, "type": "electric_scooter", "lat": 38.912509166666666, "is_reserved": 0, "is_disabled": 0, "fusion_lon": 0.0, "bike_id": "505e3851769b40a1f2ad8a0182dc70d2", "lon": -77.03656483333333, "rental_uris": {"ios": "https://dc.lft.to/lastmile_qr_scan", "android": "https://dc.lft.to/lastmile_qr_scan"}}, {"name": "17290b29f5d4e76fad9cc16b208dc107", "fusion_lat": 0.0, "type": "electric_scooter", "lat": 38.900445, "is_reserved": 0, "is_disabled": 0, "fusion_lon": 0.0, "bike_id": "17290b29f5d4e76fad9cc16b208dc107", "lon": -77.01667066666667, "rental_uris": {"ios": "https://dc.lft.to/lastmile_qr_scan", "android": "https://dc.lft.to/lastmile_qr_scan"}}, {"name": "d6a9ddd49dc18a9aa01f9fc1013f3873", "fusion_lat": 0.0, "type": "electric_scooter", "lat": 38.900906666666664, "is_reserved": 0, "is_disabled": 0, "fusion_lon": 0.0, "bike_id": "d6a9ddd49dc18a9aa01f9fc1013f3873", "lon": -77.02200016666667, "rental_uris": {"ios": "https://dc.lft.to/lastmile_qr_scan", "android": "https://dc.lft.to/lastmile_qr_scan"}}, {"name": "623f55710a86d0bfa56975ec28a4542d", "fusion_lat": 0.0, "type": "electric_scooter", "lat": 38.844265666666665, "is_reserved": 0, "is_disabled": 0, "fusion_lon": 0.0, "bike_id": "623f55710a86d0bfa56975ec28a4542d", "lon": -76.99780966666667, "rental_uris": {"ios": "https://dc.lft.to/lastmile_qr_scan", "android": "https://dc.lft.to/lastmile_qr_scan"}}, {"name": "2858d17bc5c932be929c910f1e96d2c6", "fusion_lat": 0.0, "type": "electric_scooter", "lat": 38.92624816666667, "is_reserved": 0, "is_disabled": 0, "fusion_lon": 0.0, "bike_id": "2858d17bc5c932be929c910f1e96d2c6", "lon": -77.0057485, "rental_uris": {"ios": "https://dc.lft.to/lastmile_qr_scan", "android": "https://dc.lft.to/lastmile_qr_scan"}}, {"name": "77edddf284d2ae3294ff0e20aa026823", "fusion_lat": 0.0, "type": "electric_scooter", "lat": 38.8937185, "is_reserved": 0, "is_disabled": 0, "fusion_lon": 0.0, "bike_id": "77edddf284d2ae3294ff0e20aa026823", "lon": -76.94995166666666, "rental_uris": {"ios": "https://dc.lft.to/lastmile_qr_scan", "android": "https://dc.lft.to/lastmile_qr_scan"}}, {"name": "e2b0a4ce62d5334d843507bf092580eb", "fusion_lat": 0.0, "type": "electric_scooter", "lat": 38.92513533333333, "is_reserved": 0, "is_disabled": 0, "fusion_lon": 0.0, "bike_id": "e2b0a4ce62d5334d843507bf092580eb", "lon": -77.023606, "rental_uris": {"ios": "https://dc.lft.to/lastmile_qr_scan", "android": "https://dc.lft.to/lastmile_qr_scan"}}, {"name": "8c5c52c1fb11750f0ad412ab7b704902", "fusion_lat": 0.0, "type": "electric_scooter", "lat": 38.8960245, "is_reserved": 0, "is_disabled": 0, "fusion_lon": 0.0, "bike_id": "8c5c52c1fb11750f0ad412ab7b704902", "lon": -77.028177, "rental_uris": {"ios": "https://dc.lft.to/lastmile_qr_scan", "android": "https://dc.lft.to/lastmile_qr_scan"}}, {"name": "a9209738c4127ed3b7b249e1c2d0d478", "fusion_lat": 0.0, "type": "electric_scooter", "lat": 38.88430833333334, "is_reserved": 0, "is_disabled": 0, "fusion_lon": 0.0, "bike_id": "a9209738c4127ed3b7b249e1c2d0d478", "lon": -76.99659733333333, "rental_uris": {"ios": "https://dc.lft.to/lastmile_qr_scan", "android": "https://dc.lft.to/lastmile_qr_scan"}},