{"data": {"bikes": [{"bike_id": "6a8965eb8098f671d57fbc574965ce96", "is_reserved": 0, "fusion_lon": 0.0, "lat": 38.924208, "is_disabled": 0, "name": "6a8965eb8098f671d57fbc574965ce96", "fusion_lat": 0.0, "rental_uris": {"ios": "https://dc.lft.to/lastmile_qr_scan", "android": "https://dc.lft.to/lastmile_qr_scan"}, "lon": -77.01946516666666, "type": "electric_scooter"}, {"bike_id": "376b9d290d0418f833a102416702dd71", "is_reserved": 0, "fusion_lon": 0.0, "lat": 38.94180633333333, "is_disabled": 0, "name": "376b9d290d0418f833a102416702dd71", "fusion_lat": 0.0, "rental_uris": {"ios": "https://dc.lft.to/lastmile_qr_scan", "android": "https://dc.lft.to/lastmile_qr_scan"}, "lon": -77.0252905, "type": "electric_scooter"}, {"bike_id": "231c8cb9ca319c1708ce73eb221e4941", "is_reserved": 0, "fusion_lon": 0.0, "lat": 38.92357633333334, "is_disabled": 0, "name": "231c8cb9ca319c1708ce73eb221e4941", "fusion_lat": 0.0, "rental_uris": {"ios": "https://dc.lft.to/lastmile_qr_scan", "android": "https://dc.lft.to/lastmile_qr_scan"}, "lon": -77.05241766666667, "type": "electric_scooter"}, {"bike_id": "a3e15d478af48c8f51abbe31a13e0ac5", "is_reserved": 0, "fusion_lon": 0.0, "lat": 38.8954285, "is_disabled": 0, "name": "a3e15d478af48c8f51abbe31a13e0ac5", "fusion_lat": 0.0, "rental_uris": {"ios": "https://dc.lft.to/lastmile_qr_scan", "android": "https://dc.lft.to/lastmile_qr_scan"}, "lon": -76.98336083333334, "type": "electric_scooter"}, {"bike_id": "5bfed8dedd62e4278c2a7445a9e1ca6b", "is_reserved": 0, "fusion_lon": 0.0, "lat": 38.9052205, "is_disabled": 0, "name": "5bfed8dedd62e4278c2a7445a9e1ca6b", "fusion_lat": 0.0, "rental_uris": {"ios": "https://dc.lft.to/lastmile_qr_scan", "android": "https://dc.lft.to/lastmile_qr_scan"}, "lon": -77.06528133333333, "type": "electric_scooter"}, {"bike_id": "d374b9566a84942da96a755127dd42e8", "is_reserved": 0, "fusion_lon": 0.0, "lat": 38.884142, "is_disabled": 0, "name": "d374b9566a84942da96a755127dd42e8", "fusion_lat": 0.0, "rental_uris": {"ios": "https://dc.lft.to/lastmile_qr_scan", "android": "https://dc.lft.to/lastmile_qr_scan"}, "lon": -77.017732, "type": "electric_scooter"}, {"bike_id": "2c34c0068a7992597f411b6000cf3bb3", "is_reserved": 0, "fusion_lon": 0.0, "lat": 38.90477883333333, "is_disabled": 0, "name": "2c34c0068a7992597f411b6000cf3bb3", "fusion_lat": 0.0, "rental_uris": {"ios": "https://dc.lft.to/lastmile_qr_scan", "android": "https://dc.lft.to/lastmile_qr_scan"}, "lon": -77.0464855, "type": "electric_scooter"}, {"bike_id": "867b69d3a71c2d39f7fa2ee7e6bd03c3", "is_reserved": 0, "fusion_lon": 0.0, "lat": 38.92047216666667, "is_disabled": 0, "name": "867b69d3a71c2d39f7fa2ee7e6bd03c3", "fusion_lat": 0.0, "rental_uris": {"ios": "https://dc.lft.to/lastmile_qr_scan", "android": "https://dc.lft.to/lastmile_qr_scan"}, "lon": -77.01755233333333, "type": "electric_scooter"}, {"bike_id": "21e129a1fa79ebda16e2e5a91e48a05f", "is_reserved": 0, "fusion_lon": 0.0, "lat": 38.89781033333333, "is_disabled": 0, "name": "21e129a1fa79ebda16e2e5a91e48a05f", "fusion_lat": 0.0, "rental_uris": {"ios": "https://dc.lft.to/lastmile_qr_scan", "android": "https://dc.lft.to/lastmile_qr_scan"}, "lon": -77.0318225, "type": "electric_scooter"}, {"bike_id": "3efa3b5f5ab8beda7b9a68a0357ecf12", "is_reserved": 0, "fusion_lon": 0.0, "lat": 38.9171185, "is_disabled": 0, "name": "3efa3b5f5ab8beda7b9a68a0357ecf12", "fusion_lat": 0.0, "rental_uris": {"ios": "https://dc.lft.to/lastmile_qr_scan", "android": "https://dc.lft.to/lastmile_qr_scan"}, "lon": -77.03680716666666, "type": "electric_scooter"}, {"bike_id": "6b3665eee851f8b50f62af05178cd898", "is_reserved": 0, "fusion_lon": 0.0, "lat": 38.90736966666667, "is_disabled": 0, "name": "6b3665eee851f8b50f62af05178cd898", "fusion_lat": 0.0, "rental_uris": {"ios": "https://dc.lft.to/lastmile_qr_scan", "android": "https://dc.lft.to/lastmile_qr_scan"}, "lon": -77.0305435, "type": "electric_scooter"}, {"bike_id": "8bb4a522d0c60d28870947856d780a95", "is_reserved": 0, "fusion_lon": 0.0, "lat": 38.90029283333333, "is_disabled": 0, "name": "8bb4a522d0c60d28870947856d780a95", "fusion_lat": 0.0, "rental_uris": {"ios": "https://dc.lft.to/lastmile_qr_scan", "android": "https://dc.lft.to/lastmile_qr_scan"}, "lon": -77.030152, "type": "electric_scooter"}, {"bike_id": "deb05d63bcecbbd2c2dc19f8a7b17718", "is_reserved": 0, "fusion_lon": 0.0, "lat": 38.862919833333336, "is_disabled": 0, "name": "deb05d63bcecbbd2c2dc19f8a7b17718", "fusion_lat": 0.0, "rental_uris": {"ios": "https://dc.lft.to/lastmile_qr_scan", "android": "https://dc.lft.to/lastmile_qr_scan"}, "lon": -76.99234266666667, "type": "electric_scooter"}, {"bike_id": "a2d5786a8992d0da8d61c16334cc4cd4", "is_reserved": 0, "fusion_lon": 0.0, "lat": 38.89221916666666, "is_disabled": 0, "name": "a2d5786a8992d0da8d61c16334cc4cd4", "fusion_lat": 0.0, "rental_uris": {"ios": "https://dc.lft.to/lastmile_qr_scan", "android": "https://dc.lft.to/lastmile_qr_scan"}, "lon": -77.0436635, "type": "electric_scooter"}, {"bike_id": "c4201361cf8ce80b6b4db04c65d02f51", "is_reserved": 0, "fusion_lon": 0.0, "lat": 38.90381283333333, "is_disabled": 0, "name": "c4201361cf8ce80b6b4db04c65d02f51", "fusion_lat": 0.0, "rental_uris": {"ios": "https://dc.lft.to/lastmile_qr_scan", "android": "https://dc.lft.to/lastmile_qr_scan"}, "lon": -77.0110025, "type": "electric_scooter"}, {"bike_id": "67e0af105f9d11d53b662b62b202aaf3", "is_reserved": 0, "fusion_lon": 0.0, "lat": 38.89837, "is_disabled": 0, "name": "67e0af105f9d11d53b662b62b202aaf3", "fusion_lat": 0.0, "rental_uris": {"ios": "https://dc.lft.to/lastmile_qr_scan", "android": "https://dc.lft.to/lastmile_qr_scan"}, "lon": -77.007453, "type": "electric_scooter"}, {"bike_id": "7a84399c2106cd82fd26ffe7ae2528bc", "is_reserved": 0, "fusion_lon": 0.0, "lat": 38.9033905, "is_disabled": 0, "name": "7a84399c2106cd82fd26ffe7ae2528bc", "fusion_lat": 0.0, "rental_uris": {"ios": "https://dc.lft.to/lastmile_qr_scan", "android": "https://dc.lft.to/lastmile_qr_scan"}, "lon": -77.06644483333334, "type": "electric_scooter"}, {"bike_id": "78211f2bf648ae923f8de2f945468485", "is_reserved": 0, "fusion_lon": 0.0, "lat": 38.941712, "is_disabled": 0, "name": "78211f2bf648ae923f8de2f945468485", "fusion_lat": 0.0, "rental_uris": {"ios": "https://dc.lft.to/lastmile_qr_scan", "android": "https://dc.lft.to/lastmile_qr_scan"}, "lon": -77.04130616666667, "type": "electric_scooter"}, {"bike_id": "239938c903e7239594c3edb3c2abafe8", "is_reserved": 0, "fusion_lon": 0.0, "lat": 38.916853, "is_disabled": 0, "name": "239938c903e7239594c3edb3c2abafe8", "fusion_lat": 0.0, "rental_uris": {"ios": "https://dc.lft.to/lastmile_qr_scan", "android": "https://dc.lft.to/lastmile_qr_scan"}, "lon": -77.01205183333333, "type": "electric_scooter"}, {"bike_id": "60ed81cea17de42d069b4d62198526d7", "is_reserved": 0, "fusion_lon": 0.0, "lat": 38.95779866666667, "is_disabled": 0, "name": "60ed81cea17de42d069b4d62198526d7", "fusion_lat": 0.0, "rental_uris": {"ios": "https://dc.lft.to/lastmile_qr_scan", "android": "https://dc.lft.to/lastmile_qr_scan"}, "lon": -76.97672266666666, "type": "electric_bike"}, {"bike_id": "88791f555b05dc64071043bee639854d", "is_reserved": 0, "fusion_lon": 0.0, "lat": 38.998193666666666, "is_disabled": 0, "name": "88791f555b05dc64071043bee639854d", "fusion_lat": 0.0, "rental_uris": {"ios": "https://dc.lft.to/lastmile_qr_scan", "android": "https://dc.lft.to/lastmile_qr_scan"}, "lon": -76.88366833333333, "type": "electric_bike"}, {"bike_id": "23279d242ae2c104eed0c4b4cf5a15a1", "is_reserved": 0, "fusion_lon": 0.0, "lat": 38.898779833333336, "is_disabled": 0, "name": "23279d242ae2c104eed0c4b4cf5a15a1", "fusion_lat": 0.0, "rental_uris": {"ios": "https://dc.lft.to/lastmile_qr_scan", "android": "https://dc.lft.to/lastmile_qr_scan"}, "lon": -76.93159916666667, "type": "electric_scooter"}, {"bike_id": "f273e8cc0aac364f7007c11294646b15", "is_reserved": 0, "fusion_lon": 0.0, "lat": 38.863871, "is_disabled": 0, "name": "f273e8cc0aac364f7007c11294646b15", "fusion_lat": 0.0, "rental_uris": {"ios": "https://dc.lft.to/lastmile_qr_scan", "android": "https://dc.lft.to/lastmile_qr_scan"}, "lon": -76.9898975, "type": "electric_bike"}, {"bike_id": "e341cb034878211de1f4e400ca33323d", "is_reserved": 0, "fusion_lon": 0.0, "lat": 38.906775, "is_disabled": 0, "name": "e341cb034878211de1f4e400ca33323d", "fusion_lat": 0.0, "rental_uris": {"ios": "https://dc.lft.to/lastmile_qr_scan", "android": "https://dc.lft.to/lastmile_qr_scan"}, "lon": -77.06272816666667, "type": "electric_bike"}, {"bike_id": "4aae91d52dde5f958e5e335a51d15ca2", "is_reserved": 0, "fusion_lon": 0.0, "lat": 38.9289515, "is_disabled": 0, "name": "4aae91d52dde5f958e5e335a51d15ca2", "fusion_lat": 0.0, "rental_uris": {"ios": "https://dc.lft.to/lastmile_qr_scan", "android": "https://dc.lft.to/lastmile_qr_scan"}, "lon": -77.0545245, "type": "electric_scooter"}, {"bike_id": "6ef7d1d50350116f057f3a5c3e2276dd", "is_reserved": 0, "fusion_lon": 0.0, "lat": 38.90864166666667, "is_disabled": 0, "name": "6ef7d1d50350116f057f3a5c3e2276dd", "fusion_lat": 0.0, "rental_uris": {"ios": "https://dc.lft.to/lastmile_qr_scan", "android": "https://dc.lft.to/lastmile_qr_scan"}, "lon": -77.04500383333334, "type": "electric_scooter"}, {"bike_id": "9fe27e0a43baa9999a9f003b11c511f1", "is_reserved": 0, "fusion_lon": 0.0, "lat": 38.92141616666667, "is_disabled": 0, "name": "9fe27e0a43baa9999a9f003b11c511f1", "fusion_lat": 0.0, "rental_uris": {"ios": "https://dc.lft.to/lastmile_qr_scan", "android": "https://dc.lft.to/lastmile_qr_scan"}, "lon": -77.034885, "type": "electric_scooter"}, {"bike_id": "119b77401d0859920aee2214b1616a5a", "is_reserved": 0, "fusion_lon": 0.0, "lat": 38.919177833333336, "is_disabled": 0, "name": "119b77401d0859920aee2214b1616a5a", "fusion_lat": 0.0, "rental_uris": {"ios": "https://dc.lft.to/lastmile_qr_scan", "android": "https://dc.lft.to/lastmile_qr_scan"}, "lon": -77.03359916666666, "type": "electric_scooter"}, {"bike_id": "e894a0a1e049c77d5cdba696e3e714da", "is_reserved": 0, "fusion_lon": 0.0, "lat": 38.909624, "is_disabled": 0, "name": "e894a0a1e049c77d5cdba696e3e714da", "fusion_lat": 0.0, "rental_uris": {"ios": "https://dc.lft.to/lastmile_qr_scan", "android": "https://dc.lft.to/lastmile_qr_scan"}, "lon": -77.0342555, "type": "electric_scooter"}, {"bike_id": "d427ee6f8439019ba33247ee08d470ae", "is_reserved": 0, "fusion_lon": 0.0, "lat": 38.902680833333335, "is_disabled": 0, "name": "d427ee6f8439019ba33247ee08d470ae", "fusion_lat": 0.0, "rental_uris": {"ios": "https://dc.lft.to/lastmile_qr_scan", "android": "https://dc.lft.to/lastmile_qr_scan"}, "lon": -77.04020383333334, "type": "electric_scooter"}, {"bike_id": "69845c986e43d41fb54959c2b03da45d", "is_reserved": 0, "fusion_lon": 0.0, "lat": 38.84425483333333, "is_disabled": 0, "name": "69845c986e43d41fb54959c2b03da45d", "fusion_lat": 0.0, "rental_uris": {"ios": "https://dc.lft.to/lastmile_qr_scan", "android": "https://dc.lft.to/lastmile_qr_scan"}, "lon": -76.99779883333333, "type": "electric_scooter"}, {"bike_id": "d9fde698b7a53326b97a054df2c3c205", "is_reserved": 0, "fusion_lon": 0.0, "lat": 38.921071833333336, "is_disabled": 0, "name": "d9fde698b7a53326b97a054df2c3c205", "fusion_lat": 0.0, "rental_uris": {"ios": "https://dc.lft.to/lastmile_qr_scan", "android": "https://dc.lft.to/lastmile_qr_scan"}, "lon": -77.01760116666667, "type": "electric_scooter"}, {"bike_id": "e3e0b1411d7143ea2dd9dbffc41f7650", "is_reserved": 0, "fusion_lon": 0.0, "lat": 38.902392166666665, "is_disabled": 0, "name": "e3e0b1411d7143ea2dd9dbffc41f7650", "fusion_lat": 0.0, "rental_uris": {"ios": "https://dc.lft.to/lastmile_qr_scan", "android": "https://dc.lft.to/lastmile_qr_scan"}, "lon": -77.0269335, "type": "electric_scooter"}, {"bike_id": "b01b7906014b29a886057387a6903bb2", "is_reserved": 0, "fusion_lon": 0.0, "lat": 38.89981866666667, "is_disabled": 0, "name": "b01b7906014b29a886057387a6903bb2", "fusion_lat": 0.0, "rental_uris": {"ios": "https://dc.lft.to/lastmile_qr_scan", "android": "https://dc.lft.to/lastmile_qr_scan"}, "lon": -77.02698633333333, "type": "electric_scooter"}, {"bike_id": "73f8bb87e9ebfb7cda833b31f5556d32", "is_reserved": 0, "fusion_lon": 0.0, "lat": 38.91934083333334, "is_disabled": 0, "name": "73f8bb87e9ebfb7cda833b31f5556d32", "fusion_lat": 0.0, "rental_uris": {"ios": "https://dc.lft.to/lastmile_qr_scan", "android": "https://dc.lft.to/lastmile_qr_scan"}, "lon": -77.0449875, "type": "electric_scooter"}, {"bike_id": "d8a4d34d1dcfdd911a6c0624668dbb53", "is_reserved": 0, "fusion_lon": 0.0, "lat": 38.900137666666666, "is_disabled": 0, "name": "d8a4d34d1dcfdd911a6c0624668dbb53", "fusion_lat": 0.0, "rental_uris": {"ios": "https://dc.lft.to/lastmile_qr_scan", "android": "https://dc.lft.to/lastmile_qr_scan"}, "lon": -77.04039883333333, "type": "electric_scooter"}, {"bike_id": "ec823511edf63f690ff5fe5dbfa3baee", "is_reserved": 0, "fusion_lon": 0.0, "lat": 38.9256045, "is_disabled": 0, "name": "ec823511edf63f690ff5fe5dbfa3baee", "fusion_lat": 0.0, "rental_uris": {"ios": "https://dc.lft.to/lastmile_qr_scan", "android": "https://dc.lft.to/lastmile_qr_scan"}, "lon": -77.04044266666666, "type": "electric_scooter"}, {"bike_id": "71deddfb808b20d86fb57949f29bf3f7", "is_reserved": 0, "fusion_lon": 0.0, "lat": 38.9072075, "is_disabled": 0, "name": "71deddfb808b20d86fb57949f29bf3f7", "fusion_lat": 0.0, "rental_uris": {"ios": "https://dc.lft.to/lastmile_qr_scan", "android": "https://dc.lft.to/lastmile_qr_scan"}, "lon": -77.03921133333333, "type": "electric_scooter"}, {"bike_id": "313b843bdc48b84156777fd515484bc7", "is_reserved": 0, "fusion_lon": 0.0, "lat": 38.8876855, "is_disabled": 0, "name": "313b843bdc48b84156777fd515484bc7", "fusion_lat": 0.0, "rental_uris": {"ios": "https://dc.lft.to/lastmile_qr_scan", "android": "https://dc.lft.to/lastmile_qr_scan"}, "lon": -77.0301925, "type": "electric_scooter"}, {"bike_id": "bd52c1084fd55e3a66546a364ea6bd2b", "is_reserved": 0, "fusion_lon": 0.0, "lat": 38.915360666666665, "is_disabled": 0, "name": "bd52c1084fd55e3a66546a364ea6bd2b", "fusion_lat": 0.0, "rental_uris": {"ios": "https://dc.lft.to/lastmile_qr_scan", "android": "https://dc.lft.to/lastmile_qr_scan"}, "lon": -77.0447205, "type": "electric_scooter"}, {"bike_id": "2fae2b3f1decd2502b187189dcaad52d", "is_reserved": 0, "fusion_lon": 0.0, "lat": 38.902751, "is_disabled": 0, "name": "2fae2b3f1decd2502b187189dcaad52d", "fusion_lat": 0.0, "rental_uris": {"ios": "https://dc.lft.to/lastmile_qr_scan", "android": "https://dc.lft.to/lastmile_qr_scan"}, "lon": -77.02995133333333, "type": "electric_scooter"}, {"bike_id": "c0b7e42ce033bab336710248670bdafb", "is_reserved": 0, "fusion_lon": 0.0, "lat": 38.8952925, "is_disabled": 0, "name": "c0b7e42ce033bab336710248670bdafb", "fusion_lat": 0.0, "rental_uris": {"ios": "https://dc.lft.to/lastmile_qr_scan", "android": "https://dc.lft.to/lastmile_qr_scan"}, "lon": -76.94890483333333, "type": "electric_scooter"}, {"bike_id": "659c318a1eaebe5f209671a4d1eb6978", "is_reserved": 0, "fusion_lon": 0.0, "lat": 38.948301, "is_disabled": 0, "name": "659c318a1eaebe5f209671a4d1eb6978", "fusion_lat": 0.0, "rental_uris": {"ios": "https://dc.lft.to/lastmile_qr_scan", "android": "https://dc.lft.to/lastmile_qr_scan"}, "lon": -77.02432133333333, "type": "electric_scooter"}, {"bike_id": "ad0baba0ad51911b6cef2b5e82e599fc", "is_reserved": 0, "fusion_lon": 0.0, "lat": 38.921260333333336, "is_disabled": 0, "name": "ad0baba0ad51911b6cef2b5e82e599fc", "fusion_lat": 0.0, "rental_uris": {"ios": "https://dc.lft.to/lastmile_qr_scan", "android": "https://dc.lft.to/lastmile_qr_scan"}, "lon": -77.04586183333333, "type": "electric_scooter"}, {"bike_id": "8987bf8b6f0662f0af46ff89ff784b0d", "is_reserved": 0, "fusion_lon": 0.0, "lat": 38.903878666666664, "is_disabled": 0, "name": "8987bf8b6f0662f0af46ff89ff784b0d", "fusion_lat": 0.0, "rental_uris": {"ios": "https://dc.lft.to/lastmile_qr_scan", "android": "https://dc.lft.to/lastmile_qr_scan"}, "lon": -77.04033816666667, "type": "electric_scooter"}, {"bike_id": "6f1f338ba6c0cca1bcb89639c6227444", "is_reserved": 0, "fusion_lon": 0.0, "lat": 38.92361366666667, "is_disabled": 0, "name": "6f1f338ba6c0cca1bcb89639c6227444", "fusion_lat": 0.0, "rental_uris": {"ios": "https://dc.lft.to/lastmile_qr_scan", "android": "https://dc.lft.to/lastmile_qr_scan"}, "lon": -77.05229666666666, "type": "electric_scooter"}, {"bike_id": "4bc8da8334bcbbebb0a9eea2aa49c316", "is_reserved": 0, "fusion_lon": 0.0, "lat": 38.928522, "is_disabled": 0, "name": "4bc8da8334bcbbebb0a9eea2aa49c316", "fusion_lat": 0.0, "rental_uris": {"ios": "https://dc.lft.to/lastmile_qr_scan", "android": "https://dc.lft.to/lastmile_qr_scan"}, "lon": -77.10676583333333, "type": "electric_bike"}, {"bike_id": "f320483ca6d8cdc02001cee4145dd3ee", "is_reserved": 0, "fusion_lon": 0.0, "lat": 38.9241465, "is_disabled": 0, "name": "f320483ca6d8cdc02001cee4145dd3ee", "fusion_lat": 0.0, "rental_uris": {"ios": "https://dc.lft.to/lastmile_qr_scan", "android": "https://dc.lft.to/lastmile_qr_scan"}, "lon": -77.05252183333333, "type": "electric_scooter"}, {"bike_id": "04f300ef5160240abcf1cadb464a72f0", "is_reserved": 0, "fusion_lon": 0.0, "lat": 38.90618683333334, "is_disabled": 0, "name": "04f300ef5160240abcf1cadb464a72f0", "fusion_lat": 0.0, "rental_uris": {"ios": "https://dc.lft.to/lastmile_qr_scan", "android": "https://dc.lft.to/lastmile_qr_scan"}, "lon": -77.065159, "type": "electric_scooter"}, {"bike_id": "a5c7ddb37d4d9d726fce126fe88b8720", "is_reserved": 0, "fusion_lon": 0.0, "lat": 38.88355383333333, "is_disabled": 0, "name": "a5c7ddb37d4d9d726fce126fe88b8720", "fusion_lat": 0.0, "rental_uris": {"ios": "https://dc.lft.to/lastmile_qr_scan", "android": "https://dc.lft.to/lastmile_qr_scan"}, "lon": -77.0247715, "type": "electric_scooter"}, {"bike_id": "d296d0d36fe1f780ff285abc9051d829", "is_reserved": 0, "fusion_lon": 0.0, "lat": 38.899593833333334, "is_disabled": 0, "name": "d296d0d36fe1f780ff285abc9051d829", "fusion_lat": 0.0, "rental_uris": {"ios": "https://dc.lft.to/lastmile_qr_scan", "android": "https://dc.lft.to/lastmile_qr_scan"}, "lon": -77.03162433333334, "type": "electric_scooter"}, {"bike_id": "a43eed6369e70601970fd564976ab8ca", "is_reserved": 0, "fusion_lon": 0.0, "lat": 38.898304333333336, "is_disabled": 0, "name": "a43eed6369e70601970fd564976ab8ca", "fusion_lat": 0.0, "rental_uris": {"ios": "https://dc.lft.to/lastmile_qr_scan", "android": "https://dc.lft.to/lastmile_qr_scan"}, "lon": -77.05024433333334, "type": "electric_scooter"}, {"bike_id": "71fb2b2fc45948d9a097f3d14eb2565e", "is_reserved": 0, "fusion_lon": 0.0, "lat": 38.93492833333333, "is_disabled": 0, "name": "71fb2b2fc45948d9a097f3d14eb2565e", "fusion_lat": 0.0, "rental_uris": {"ios": "https://dc.lft.to/lastmile_qr_scan", "android": "https://dc.lft.to/lastmile_qr_scan"}, "lon": -77.02843333333334, "type": "electric_scooter"}, {"bike_id": "1e8884c4241727927b311792cd3068ca", "is_reserved": 0, "fusion_lon": 0.0, "lat": 38.87745266666667, "is_disabled": 0, "name": "1e8884c4241727927b311792cd3068ca", "fusion_lat": 0.0, "rental_uris": {"ios": "https://dc.lft.to/lastmile_qr_scan", "android": "https://dc.lft.to/lastmile_qr_scan"}, "lon": -76.98054583333334, "type": "electric_bike"}, {"bike_id": "620416b7440628e244ea769aafceb2ed", "is_reserved": 0, "fusion_lon": 0.0, "lat": 38.903275, "is_disabled": 0, "name": "620416b7440628e244ea769aafceb2ed", "fusion_lat": 0.0, "rental_uris": {"ios": "https://dc.lft.to/lastmile_qr_scan", "android": "https://dc.lft.to/lastmile_qr_scan"}, "lon": -77.03320383333333, "type": "electric_scooter"}, {"bike_id": "85dd28bd8a5676562ed351a5c520c138", "is_reserved": 0, "fusion_lon": 0.0, "lat": 38.85430816666667, "is_disabled": 0, "name": "85dd28bd8a5676562ed351a5c520c138", "fusion_lat": 0.0, "rental_uris": {"ios": "https://dc.lft.to/lastmile_qr_scan", "android": "https://dc.lft.to/lastmile_qr_scan"}, "lon": -76.90975616666667, "type": "electric_bike"}, {"bike_id": "cd7d3a7eda692d181520a825e810f532", "is_reserved": 0, "fusion_lon": 0.0, "lat": 38.88598616666667, "is_disabled": 0, "name": "cd7d3a7eda692d181520a825e810f532", "fusion_lat": 0.0, "rental_uris": {"ios": "https://dc.lft.to/lastmile_qr_scan", "android": "https://dc.lft.to/lastmile_qr_scan"}, "lon": -77.00565783333333, "type": "electric_scooter"}, {"bike_id": "404ea196387044445b89dff2a83ac245", "is_reserved": 0, "fusion_lon": 0.0, "lat": 38.810507333333334, "is_disabled": 0, "name": "404ea196387044445b89dff2a83ac245", "fusion_lat": 0.0, "rental_uris": {"ios": "https://dc.lft.to/lastmile_qr_scan", "android": "https://dc.lft.to/lastmile_qr_scan"}, "lon": -77.08511883333334, "type": "electric_bike"}, {"bike_id": "ec8f63f4a5831c50f0318bfbe62af3e0", "is_reserved": 0, "fusion_lon": 0.0, "lat": 38.844222333333335, "is_disabled": 0, "name": "ec8f63f4a5831c50f0318bfbe62af3e0", "fusion_lat": 0.0, "rental_uris": {"ios": "https://dc.lft.to/lastmile_qr_scan", "android": "https://dc.lft.to/lastmile_qr_scan"}, "lon": -76.99778616666667, "type": "electric_scooter"}, {"bike_id": "8f5941c3a5ad7741a5264eeb2e2cabe9", "is_reserved": 0, "fusion_lon": 0.0, "lat": 38.90236216666667, "is_disabled": 0, "name": "8f5941c3a5ad7741a5264eeb2e2cabe9", "fusion_lat": 0.0, "rental_uris": {"ios": "https://dc.lft.to/lastmile_qr_scan", "android": "https://dc.lft.to/lastmile_qr_scan"}, "lon": -77.00199583333334, "type": "electric_scooter"}, {"bike_id": "1b88bd7032a7ea85ac391507f19c3bf1", "is_reserved": 0, "fusion_lon": 0.0, "lat": 38.89222016666667, "is_disabled": 0, "name": "1b88bd7032a7ea85ac391507f19c3bf1", "fusion_lat": 0.0, "rental_uris": {"ios": "https://dc.lft.to/lastmile_qr_scan", "android": "https://dc.lft.to/lastmile_qr_scan"}, "lon": -77.04861133333333, "type": "electric_scooter"}, {"bike_id": "56fdd826e1945f19b356166e595306d0", "is_reserved": 0, "fusion_lon": 0.0, "lat": 38.903848833333335, "is_disabled": 0, "name": "56fdd826e1945f19b356166e595306d0", "fusion_lat": 0.0, "rental_uris": {"ios": "https://dc.lft.to/lastmile_qr_scan", "android": "https://dc.lft.to/lastmile_qr_scan"}, "lon": -77.05309466666667, "type": "electric_scooter"}, {"bike_id": "d4706e3803222ecab7e4cdd45a68db93", "is_reserved": 0, "fusion_lon": 0.0, "lat": 38.900884, "is_disabled": 0, "name": "d4706e3803222ecab7e4cdd45a68db93", "fusion_lat": 0.0, "rental_uris": {"ios": "https://dc.lft.to/lastmile_qr_scan", "android": "https://dc.lft.to/lastmile_qr_scan"}, "lon": -77.04506566666667, "type": "electric_scooter"}, {"bike_id": "f3a64c57fbd88b7c661216170c0df7e3", "is_reserved": 0, "fusion_lon": 0.0, "lat": 38.89624666666667, "is_disabled": 0, "name": "f3a64c57fbd88b7c661216170c0df7e3", "fusion_lat": 0.0, "rental_uris": {"ios": "https://dc.lft.to/lastmile_qr_scan", "android": "https://dc.lft.to/lastmile_qr_scan"}, "lon": -77.00921983333333, "type": "electric_scooter"}, {"bike_id": "59e6c41bc9b20c63182e9907ecd36de9", "is_reserved": 0, "fusion_lon": 0.0, "lat": 38.90589266666667, "is_disabled": 0, "name": "59e6c41bc9b20c63182e9907ecd36de9", "fusion_lat": 0.0, "rental_uris": {"ios": "https://dc.lft.to/lastmile_qr_scan", "android": "https://dc.lft.to/lastmile_qr_scan"}, "lon": -77.046659, "type": "electric_scooter"}, {"bike_id": "974a95b5c6789d8b74d01c1a7457c598", "is_reserved": 0, "fusion_lon": 0.0, "lat": 38.919668333333334, "is_disabled": 0, "name": "974a95b5c6789d8b74d01c1a7457c598", "fusion_lat": 0.0, "rental_uris": {"ios": "https://dc.lft.to/lastmile_qr_scan", "android": "https://dc.lft.to/lastmile_qr_scan"}, "lon": -76.9726915, "type": "electric_bike"}, {"bike_id": "f3974551c7d5bc04b06aaf1c7f35169f", "is_reserved": 0, "fusion_lon": 0.0, "lat": 38.861983, "is_disabled": 0, "name": "f3974551c7d5bc04b06aaf1c7f35169f", "fusion_lat": 0.0, "rental_uris": {"ios": "https://dc.lft.to/lastmile_qr_scan", "android": "https://dc.lft.to/lastmile_qr_scan"}, "lon": -76.994646, "type": "electric_scooter"}, {"bike_id": "ad792e152806d5c524448df8309618a4", "is_reserved": 0, "fusion_lon": 0.0, "lat": 38.9295675, "is_disabled": 0, "name": "ad792e152806d5c524448df8309618a4", "fusion_lat": 0.0, "rental_uris": {"ios": "https://dc.lft.to/lastmile_qr_scan", "android": "https://dc.lft.to/lastmile_qr_scan"}, "lon": -77.22568516666666, "type": "electric_bike"}, {"bike_id": "b94efd41f1582c5b03b188b2acf3870a", "is_reserved": 0, "fusion_lon": 0.0, "lat": 38.917206, "is_disabled": 0, "name": "b94efd41f1582c5b03b188b2acf3870a", "fusion_lat": 0.0, "rental_uris": {"ios": "https://dc.lft.to/lastmile_qr_scan", "android": "https://dc.lft.to/lastmile_qr_scan"}, "lon": -77.02400816666666, "type": "electric_scooter"}, {"bike_id": "448244de85e018a47ee88f269d44f255", "is_reserved": 0, "fusion_lon": 0.0, "lat": 38.961731, "is_disabled": 0, "name": "448244de85e018a47ee88f269d44f255", "fusion_lat": 0.0, "rental_uris": {"ios": "https://dc.lft.to/lastmile_qr_scan", "android": "https://dc.lft.to/lastmile_qr_scan"}, "lon": -76.995907, "type": "electric_bike"}, {"bike_id": "c3b496bc9d60b109d0b188e81a5b3e5c", "is_reserved": 0, "fusion_lon": 0.0, "lat": 38.94947333333333, "is_disabled": 0, "name": "c3b496bc9d60b109d0b188e81a5b3e5c", "fusion_lat": 0.0, "rental_uris": {"ios": "https://dc.lft.to/lastmile_qr_scan", "android": "https://dc.lft.to/lastmile_qr_scan"}, "lon": -77.016209, "type": "electric_scooter"}, {"bike_id": "65e07750ad19a10fba4d9118ddecbbb5", "is_reserved": 0, "fusion_lon": 0.0, "lat": 38.915778333333336, "is_disabled": 0, "name": "65e07750ad19a10fba4d9118ddecbbb5", "fusion_lat": 0.0, "rental_uris": {"ios": "https://dc.lft.to/lastmile_qr_scan", "android": "https://dc.lft.to/lastmile_qr_scan"}, "lon": -77.04682766666667, "type": "electric_scooter"}, {"bike_id": "e88b42aadf1458de3ec533b49ba38d31", "is_reserved": 0, "fusion_lon": 0.0, "lat": 38.95530816666667, "is_disabled": 0, "name": "e88b42aadf1458de3ec533b49ba38d31", "fusion_lat": 0.0, "rental_uris": {"ios": "https://dc.lft.to/lastmile_qr_scan", "android": "https://dc.lft.to/lastmile_qr_scan"}, "lon": -77.02417666666666, "type": "electric_bike"}, {"bike_id": "1ff319da6f3760dca980d2644301f056", "is_reserved": 0, "fusion_lon": 0.0, "lat": 38.90213133333334, "is_disabled": 0, "name": "1ff319da6f3760dca980d2644301f056", "fusion_lat": 0.0, "rental_uris": {"ios": "https://dc.lft.to/lastmile_qr_scan", "android": "https://dc.lft.to/lastmile_qr_scan"}, "lon": -76.94588666666667, "type": "electric_scooter"}, {"bike_id": "f13ee3a6685537034d25145b34bc41ec", "is_reserved": 0, "fusion_lon": 0.0, "lat": 38.88511583333333, "is_disabled": 0, "name": "f13ee3a6685537034d25145b34bc41ec", "fusion_lat": 0.0, "rental_uris": {"ios": "https://dc.lft.to/lastmile_qr_scan", "android": "https://dc.lft.to/lastmile_qr_scan"}, "lon": -77.01553866666667, "type": "electric_scooter"}, {"bike_id": "229b35719c4efd6cf041da97d8ef2875", "is_reserved": 0, "fusion_lon": 0.0, "lat": 38.92618233333334, "is_disabled": 0, "name": "229b35719c4efd6cf041da97d8ef2875", "fusion_lat": 0.0, "rental_uris": {"ios": "https://dc.lft.to/lastmile_qr_scan", "android": "https://dc.lft.to/lastmile_qr_scan"}, "lon": -77.03933816666667, "type": "electric_bike"}, {"bike_id": "c76453a288af4e19b74466364ed26fb6", "is_reserved": 0, "fusion_lon": 0.0, "lat": 38.92503716666667, "is_disabled": 0, "name": "c76453a288af4e19b74466364ed26fb6", "fusion_lat": 0.0, "rental_uris": {"ios": "https://dc.lft.to/lastmile_qr_scan", "android": "https://dc.lft.to/lastmile_qr_scan"}, "lon": -77.038783, "type": "electric_scooter"}, {"bike_id": "6283539cafdba2a4417423852d72b73b", "is_reserved": 0, "fusion_lon": 0.0, "lat": 38.900655666666665, "is_disabled": 0, "name": "6283539cafdba2a4417423852d72b73b", "fusion_lat": 0.0, "rental_uris": {"ios": "https://dc.lft.to/lastmile_qr_scan", "android": "https://dc.lft.to/lastmile_qr_scan"}, "lon": -77.00225933333333, "type": "electric_scooter"}, {"bike_id": "2e95b4abe6d9a229fff20e39c4a63273", "is_reserved": 0, "fusion_lon": 0.0, "lat": 38.89911516666667, "is_disabled": 0, "name": "2e95b4abe6d9a229fff20e39c4a63273", "fusion_lat": 0.0, "rental_uris": {"ios": "https://dc.lft.to/lastmile_qr_scan", "android": "https://dc.lft.to/lastmile_qr_scan"}, "lon": -77.03306916666666, "type": "electric_scooter"}, {"bike_id": "c10ae2615e5897573153b7d008dd072b", "is_reserved": 0, "fusion_lon": 0.0, "lat": 38.9027265, "is_disabled": 0, "name": "c10ae2615e5897573153b7d008dd072b", "fusion_lat": 0.0, "rental_uris": {"ios": "https://dc.lft.to/lastmile_qr_scan", "android": "https://dc.lft.to/lastmile_qr_scan"}, "lon": -77.04330466666667, "type": "electric_scooter"}, {"bike_id": "fba96fc94096a1e33afc32c010056b47", "is_reserved": 0, "fusion_lon": 0.0, "lat": 38.86507816666666, "is_disabled": 0, "name": "fba96fc94096a1e33afc32c010056b47", "fusion_lat": 0.0, "rental_uris": {"ios": "https://dc.lft.to/lastmile_qr_scan", "android": "https://dc.lft.to/lastmile_qr_scan"}, "lon": -76.98975116666666, "type": "electric_scooter"}, {"bike_id": "e20d09cab8b33b0bd42e5c0b794c693a", "is_reserved": 0, "fusion_lon": 0.0, "lat": 38.92961116666667, "is_disabled": 0, "name": "e20d09cab8b33b0bd42e5c0b794c693a", "fusion_lat": 0.0, "rental_uris": {"ios": "https://dc.lft.to/lastmile_qr_scan", "android": "https://dc.lft.to/lastmile_qr_scan"}, "lon": -77.054932, "type": "electric_scooter"}, {"bike_id": "b26e4884102c88079612f7eb28ca699c", "is_reserved": 0, "fusion_lon": 0.0, "lat": 38.91636366666667, "is_disabled": 0, "name": "b26e4884102c88079612f7eb28ca699c", "fusion_lat": 0.0, "rental_uris": {"ios": "https://dc.lft.to/lastmile_qr_scan", "android": "https://dc.lft.to/lastmile_qr_scan"}, "lon": -77.03147833333334, "type": "electric_scooter"}, {"bike_id": "f8cf9515fb0490500d4ffc2aa997dd7f", "is_reserved": 0, "fusion_lon": 0.0, "lat": 38.899484666666666, "is_disabled": 0, "name": "f8cf9515fb0490500d4ffc2aa997dd7f", "fusion_lat": 0.0, "rental_uris": {"ios": "https://dc.lft.to/lastmile_qr_scan", "android": "https://dc.lft.to/lastmile_qr_scan"}, "lon": -77.03144116666667, "type": "electric_scooter"}, {"bike_id": "dfebe2458558a4169dbacbed7310d70b", "is_reserved": 0, "fusion_lon": 0.0, "lat": 38.878476166666665, "is_disabled": 0, "name": "dfebe2458558a4169dbacbed7310d70b", "fusion_lat": 0.0, "rental_uris": {"ios": "https://dc.lft.to/lastmile_qr_scan", "android": "https://dc.lft.to/lastmile_qr_scan"}, "lon": -77.00505083333333, "type": "electric_scooter"}, {"bike_id": "d38f3e6580d8754968d5f57f96f7e270", "is_reserved": 0, "fusion_lon": 0.0, "lat": 38.9257955, "is_disabled": 0, "name": "d38f3e6580d8754968d5f57f96f7e270", "fusion_lat": 0.0, "rental_uris": {"ios": "https://dc.lft.to/lastmile_qr_scan", "android": "https://dc.lft.to/lastmile_qr_scan"}, "lon": -77.0047035, "type": "electric_scooter"}, {"bike_id": "a65b201ffed48470884303169b506180", "is_reserved": 0, "fusion_lon": 0.0, "lat": 38.893395, "is_disabled": 0, "name": "a65b201ffed48470884303169b506180", "fusion_lat": 0.0, "rental_uris": {"ios": "https://dc.lft.to/lastmile_qr_scan", "android": "https://dc.lft.to/lastmile_qr_scan"}, "lon": -76.98461416666666, "type": "electric_scooter"}, {"bike_id": "2536c5dc1f651a496ae523b9a4344a4e", "is_reserved": 0, "fusion_lon": 0.0, "lat": 38.913310333333335, "is_disabled": 0, "name": "2536c5dc1f651a496ae523b9a4344a4e", "fusion_lat": 0.0, "rental_uris": {"ios": "https://dc.lft.to/lastmile_qr_scan", "android": "https://dc.lft.to/lastmile_qr_scan"}, "lon": -77.04870316666667, "type": "electric_scooter"}, {"bike_id": "0a4ec5c4500371c2dabd4419b2e6bb05", "is_reserved": 0, "fusion_lon": 0.0, "lat": 38.926306, "is_disabled": 0, "name": "0a4ec5c4500371c2dabd4419b2e6bb05", "fusion_lat": 0.0, "rental_uris": {"ios": "https://dc.lft.to/lastmile_qr_scan", "android": "https://dc.lft.to/lastmile_qr_scan"}, "lon": -77.03785066666667, "type": "electric_scooter"}, {"bike_id": "61d02a415d5210c23378d1ad4504f476", "is_reserved": 0, "fusion_lon": 0.0, "lat": 38.9708915, "is_disabled": 0, "name": "61d02a415d5210c23378d1ad4504f476", "fusion_lat": 0.0, "rental_uris": {"ios": "https://dc.lft.to/lastmile_qr_scan", "android": "https://dc.lft.to/lastmile_qr_scan"}, "lon": -77.06964783333333, "type": "electric_bike"}, {"bike_id": "6894fe5769ef1a7a97fe8952ce60b801", "is_reserved": 0, "fusion_lon": 0.0, "lat": 38.890287666666666, "is_disabled": 0, "name": "6894fe5769ef1a7a97fe8952ce60b801", "fusion_lat": 0.0, "rental_uris": {"ios": "https://dc.lft.to/lastmile_qr_scan", "android": "https://dc.lft.to/lastmile_qr_scan"}, "lon": -76.93596133333334, "type": "electric_scooter"}, {"bike_id": "239d771626922fd498ff881886b43f38", "is_reserved": 0, "fusion_lon": 0.0, "lat": 38.90217416666667, "is_disabled": 0, "name": "239d771626922fd498ff881886b43f38", "fusion_lat": 0.0, "rental_uris": {"ios": "https://dc.lft.to/lastmile_qr_scan", "android": "https://dc.lft.to/lastmile_qr_scan"}, "lon": -76.950571, "type": "electric_bike"}, {"bike_id": "1821c4b301bcbe19e5aa070ab36624c1", "is_reserved": 0, "fusion_lon": 0.0, "lat": 38.90800333333333, "is_disabled": 0, "name": "1821c4b301bcbe19e5aa070ab36624c1", "fusion_lat": 0.0, "rental_uris": {"ios": "https://dc.lft.to/lastmile_qr_scan", "android": "https://dc.lft.to/lastmile_qr_scan"}, "lon": -77.0488525, "type": "electric_scooter"}, {"bike_id": "3962289239ff9d21c24dbc38c8d1f1ad", "is_reserved": 0, "fusion_lon": 0.0, "lat": 38.88744766666667, "is_disabled": 0, "name": "3962289239ff9d21c24dbc38c8d1f1ad", "fusion_lat": 0.0, "rental_uris": {"ios": "https://dc.lft.to/lastmile_qr_scan", "android": "https://dc.lft.to/lastmile_qr_scan"}, "lon": -77.031809, "type": "electric_scooter"}, {"bike_id": "8e1881d87babc7cb774131aef3987e1c", "is_reserved": 0, "fusion_lon": 0.0, "lat": 38.89562466666667, "is_disabled": 0, "name": "8e1881d87babc7cb774131aef3987e1c", "fusion_lat": 0.0, "rental_uris": {"ios": "https://dc.lft.to/lastmile_qr_scan", "android": "https://dc.lft.to/lastmile_qr_scan"}, "lon": -77.12730083333334, "type": "electric_bike"}, {"bike_id": "cfb9dc2f6bf62f8c93e05f9401884a0b", "is_reserved": 0, "fusion_lon": 0.0, "lat": 38.89827233333333, "is_disabled": 0, "name": "cfb9dc2f6bf62f8c93e05f9401884a0b", "fusion_lat": 0.0, "rental_uris": {"ios": "https://dc.lft.to/lastmile_qr_scan", "android": "https://dc.lft.to/lastmile_qr_scan"}, "lon": -77.050321, "type": "electric_scooter"}, {"bike_id": "f21bcec4f129b74a9154067ad4021123", "is_reserved": 0, "fusion_lon": 0.0, "lat": 38.901387666666665, "is_disabled": 0, "name": "f21bcec4f129b74a9154067ad4021123", "fusion_lat": 0.0, "rental_uris": {"ios": "https://dc.lft.to/lastmile_qr_scan", "android": "https://dc.lft.to/lastmile_qr_scan"}, "lon": -77.04317416666666, "type": "electric_scooter"}, {"bike_id": "beac548ae09380374e61e279d224f0d9", "is_reserved": 0, "fusion_lon": 0.0, "lat": 38.922514166666666, "is_disabled": 0, "name": "beac548ae09380374e61e279d224f0d9", "fusion_lat": 0.0, "rental_uris": {"ios": "https://dc.lft.to/lastmile_qr_scan", "android": "https://dc.lft.to/lastmile_qr_scan"}, "lon": -77.04136516666667, "type": "electric_scooter"}, {"bike_id": "d771458e4bb1b9b7e907a371c2d3ba52", "is_reserved": 0, "fusion_lon": 0.0, "lat": 38.890915166666666, "is_disabled": 0, "name": "d771458e4bb1b9b7e907a371c2d3ba52", "fusion_lat": 0.0, "rental_uris": {"ios": "https://dc.lft.to/lastmile_qr_scan", "android": "https://dc.lft.to/lastmile_qr_scan"}, "lon": -76.98742133333333, "type": "electric_scooter"}, {"bike_id": "f106cd481a3122a70e7c549be5f71490", "is_reserved": 0, "fusion_lon": 0.0, "lat": 38.913877666666664, "is_disabled": 0, "name": "f106cd481a3122a70e7c549be5f71490", "fusion_lat": 0.0, "rental_uris": {"ios": "https://dc.lft.to/lastmile_qr_scan", "android": "https://dc.lft.to/lastmile_qr_scan"}, "lon": -77.04488716666667, "type": "electric_scooter"}, {"bike_id": "6e98047d3f035d234b9bda5106103f0d", "is_reserved": 0, "fusion_lon": 0.0, "lat": 38.88161916666667, "is_disabled": 0, "name": "6e98047d3f035d234b9bda5106103f0d", "fusion_lat": 0.0, "rental_uris": {"ios": "https://dc.lft.to/lastmile_qr_scan", "android": "https://dc.lft.to/lastmile_qr_scan"}, "lon": -77.02697466666666, "type": "electric_bike"}, {"bike_id": "5892985f07ddb8ce2c4d385b402fdf43", "is_reserved": 0, "fusion_lon": 0.0, "lat": 38.88426033333333, "is_disabled": 0, "name": "5892985f07ddb8ce2c4d385b402fdf43", "fusion_lat": 0.0, "rental_uris": {"ios": "https://dc.lft.to/lastmile_qr_scan", "android": "https://dc.lft.to/lastmile_qr_scan"}, "lon": -77.0260395, "type": "electric_scooter"}, {"bike_id": "07660bac34dee000881fca53e6e7858b", "is_reserved": 0, "fusion_lon": 0.0, "lat": 38.91334766666667, "is_disabled": 0, "name": "07660bac34dee000881fca53e6e7858b", "fusion_lat": 0.0, "rental_uris": {"ios": "https://dc.lft.to/lastmile_qr_scan", "android": "https://dc.lft.to/lastmile_qr_scan"}, "lon": -77.0484215, "type": "electric_scooter"}, {"bike_id": "74e8a6c771a35a8fb425a54fdc472420", "is_reserved": 0, "fusion_lon": 0.0, "lat": 38.93529916666667, "is_disabled": 0, "name": "74e8a6c771a35a8fb425a54fdc472420", "fusion_lat": 0.0, "rental_uris": {"ios": "https://dc.lft.to/lastmile_qr_scan", "android": "https://dc.lft.to/lastmile_qr_scan"}, "lon": -77.02350783333333, "type": "electric_scooter"}, {"bike_id": "b161a3285e33bc01b80d688f331d78e2", "is_reserved": 0, "fusion_lon": 0.0, "lat": 38.90572016666667, "is_disabled": 0, "name": "b161a3285e33bc01b80d688f331d78e2", "fusion_lat": 0.0, "rental_uris": {"ios": "https://dc.lft.to/lastmile_qr_scan", "android": "https://dc.lft.to/lastmile_qr_scan"}, "lon": -77.03829966666666, "type": "electric_scooter"}, {"bike_id": "0eeb7b3284fc0a38c6181b9ef153a283", "is_reserved": 0, "fusion_lon": 0.0, "lat": 38.902497333333336, "is_disabled": 0, "name": "0eeb7b3284fc0a38c6181b9ef153a283", "fusion_lat": 0.0, "rental_uris": {"ios": "https://dc.lft.to/lastmile_qr_scan", "android": "https://dc.lft.to/lastmile_qr_scan"}, "lon": -77.050353, "type": "electric_bike"}, {"bike_id": "c3101f1d119eff7b99b4672cbeba8dc6", "is_reserved": 0, "fusion_lon": 0.0, "lat": 38.91815666666667, "is_disabled": 0, "name": "c3101f1d119eff7b99b4672cbeba8dc6", "fusion_lat": 0.0, "rental_uris": {"ios": "https://dc.lft.to/lastmile_qr_scan", "android": "https://dc.lft.to/lastmile_qr_scan"}, "lon": -77.02473633333334, "type": "electric_scooter"}, {"bike_id": "1a18d63a4b1ecd9fcddce828c2bde4bc", "is_reserved": 0, "fusion_lon": 0.0, "lat": 38.86614133333333, "is_disabled": 0, "name": "1a18d63a4b1ecd9fcddce828c2bde4bc", "fusion_lat": 0.0, "rental_uris": {"ios": "https://dc.lft.to/lastmile_qr_scan", "android": "https://dc.lft.to/lastmile_qr_scan"}, "lon": -76.98667566666667, "type": "electric_scooter"}, {"bike_id": "eac1a6d02a3375d465523d6715958348", "is_reserved": 0, "fusion_lon": 0.0, "lat": 38.901419, "is_disabled": 0, "name": "eac1a6d02a3375d465523d6715958348", "fusion_lat": 0.0, "rental_uris": {"ios": "https://dc.lft.to/lastmile_qr_scan", "android": "https://dc.lft.to/lastmile_qr_scan"}, "lon": -77.0274045, "type": "electric_scooter"}, {"bike_id": "ec1308c13838f9943017fadab1c8b286", "is_reserved": 0, "fusion_lon": 0.0, "lat": 38.908635333333336, "is_disabled": 0, "name": "ec1308c13838f9943017fadab1c8b286", "fusion_lat": 0.0, "rental_uris": {"ios": "https://dc.lft.to/lastmile_qr_scan", "android": "https://dc.lft.to/lastmile_qr_scan"}, "lon": -77.02539216666666, "type": "electric_scooter"}, {"bike_id": "1876f2b057226126effd324a156f2d64", "is_reserved": 0, "fusion_lon": 0.0, "lat": 38.897433166666666, "is_disabled": 0, "name": "1876f2b057226126effd324a156f2d64", "fusion_lat": 0.0, "rental_uris": {"ios": "https://dc.lft.to/lastmile_qr_scan", "android": "https://dc.lft.to/lastmile_qr_scan"}, "lon": -77.0467695, "type": "electric_scooter"}, {"bike_id": "f8e69b275123a3538a02c0ae7fcf9d82", "is_reserved": 0, "fusion_lon": 0.0, "lat": 38.90185233333333, "is_disabled": 0, "name": "f8e69b275123a3538a02c0ae7fcf9d82", "fusion_lat": 0.0, "rental_uris": {"ios": "https://dc.lft.to/lastmile_qr_scan", "android": "https://dc.lft.to/lastmile_qr_scan"}, "lon": -76.93001416666667, "type": "electric_scooter"}, {"bike_id": "e2fc24906becb04c841bb88a1afe35ab", "is_reserved": 0, "fusion_lon": 0.0, "lat": 38.90259416666667, "is_disabled": 0, "name": "e2fc24906becb04c841bb88a1afe35ab", "fusion_lat": 0.0, "rental_uris": {"ios": "https://dc.lft.to/lastmile_qr_scan", "android": "https://dc.lft.to/lastmile_qr_scan"}, "lon": -77.0617365, "type": "electric_scooter"}, {"bike_id": "c65de3b4a16ebd5e76edd800ecfa0aeb", "is_reserved": 0, "fusion_lon": 0.0, "lat": 38.883719, "is_disabled": 0, "name": "c65de3b4a16ebd5e76edd800ecfa0aeb", "fusion_lat": 0.0, "rental_uris": {"ios": "https://dc.lft.to/lastmile_qr_scan", "android": "https://dc.lft.to/lastmile_qr_scan"}, "lon": -76.99563633333334, "type": "electric_scooter"}, {"bike_id": "8f70876a10a8c69a2c77213ce5b5b6aa", "is_reserved": 0, "fusion_lon": 0.0, "lat": 38.895599833333335, "is_disabled": 0, "name": "8f70876a10a8c69a2c77213ce5b5b6aa", "fusion_lat": 0.0, "rental_uris": {"ios": "https://dc.lft.to/lastmile_qr_scan", "android": "https://dc.lft.to/lastmile_qr_scan"}, "lon": -77.04676133333334, "type": "electric_scooter"}, {"bike_id": "f98dbc7d8f9bcdff44c650429e4e3382", "is_reserved": 0, "fusion_lon": 0.0, "lat": 38.92006083333333, "is_disabled": 0, "name": "f98dbc7d8f9bcdff44c650429e4e3382", "fusion_lat": 0.0, "rental_uris": {"ios": "https://dc.lft.to/lastmile_qr_scan", "android": "https://dc.lft.to/lastmile_qr_scan"}, "lon": -77.03234933333333, "type": "electric_scooter"}, {"bike_id": "3e2e90f467e2e368c0518d00bde73440", "is_reserved": 0, "fusion_lon": 0.0, "lat": 38.9238405, "is_disabled": 0, "name": "3e2e90f467e2e368c0518d00bde73440", "fusion_lat": 0.0, "rental_uris": {"ios": "https://dc.lft.to/lastmile_qr_scan", "android": "https://dc.lft.to/lastmile_qr_scan"}, "lon": -77.03545283333334, "type": "electric_scooter"}, {"bike_id": "d29f702daa0467039a6727b30504bdc8", "is_reserved": 0, "fusion_lon": 0.0, "lat": 38.92840916666667, "is_disabled": 0, "name": "d29f702daa0467039a6727b30504bdc8", "fusion_lat": 0.0, "rental_uris": {"ios": "https://dc.lft.to/lastmile_qr_scan", "android": "https://dc.lft.to/lastmile_qr_scan"}, "lon": -77.054269, "type": "electric_scooter"}, {"bike_id": "215016438df75bc1c8d11bb1f64c7b67", "is_reserved": 0, "fusion_lon": 0.0, "lat": 38.8616765, "is_disabled": 0, "name": "215016438df75bc1c8d11bb1f64c7b67", "fusion_lat": 0.0, "rental_uris": {"ios": "https://dc.lft.to/lastmile_qr_scan", "android": "https://dc.lft.to/lastmile_qr_scan"}, "lon": -76.95070083333333, "type": "electric_bike"}, {"bike_id": "ce60dd53b600c7c6d1a07795259e5eb1", "is_reserved": 0, "fusion_lon": 0.0, "lat": 38.9045745, "is_disabled": 0, "name": "ce60dd53b600c7c6d1a07795259e5eb1", "fusion_lat": 0.0, "rental_uris": {"ios": "https://dc.lft.to/lastmile_qr_scan", "android": "https://dc.lft.to/lastmile_qr_scan"}, "lon": -77.05336716666666, "type": "electric_scooter"}, {"bike_id": "2076752da15599ddf717993676ac5087", "is_reserved": 0, "fusion_lon": 0.0, "lat": 38.923376, "is_disabled": 0, "name": "2076752da15599ddf717993676ac5087", "fusion_lat": 0.0, "rental_uris": {"ios": "https://dc.lft.to/lastmile_qr_scan", "android": "https://dc.lft.to/lastmile_qr_scan"}, "lon": -77.04132033333333, "type": "electric_scooter"}, {"bike_id": "413c26369f830ce3bd397a24440cb7e6", "is_reserved": 0, "fusion_lon": 0.0, "lat": 38.896087333333334, "is_disabled": 0, "name": "413c26369f830ce3bd397a24440cb7e6", "fusion_lat": 0.0, "rental_uris": {"ios": "https://dc.lft.to/lastmile_qr_scan", "android": "https://dc.lft.to/lastmile_qr_scan"}, "lon": -77.0478675, "type": "electric_scooter"}, {"bike_id": "1b8e02b841210d9993e670321d6a437e", "is_reserved": 0, "fusion_lon": 0.0, "lat": 38.923351, "is_disabled": 0, "name": "1b8e02b841210d9993e670321d6a437e", "fusion_lat": 0.0, "rental_uris": {"ios": "https://dc.lft.to/lastmile_qr_scan", "android": "https://dc.lft.to/lastmile_qr_scan"}, "lon": -77.03888416666666, "type": "electric_scooter"}, {"bike_id": "fbde6de0284cda67c8928476fbad69ec", "is_reserved": 0, "fusion_lon": 0.0, "lat": 38.917077, "is_disabled": 0, "name": "fbde6de0284cda67c8928476fbad69ec", "fusion_lat": 0.0, "rental_uris": {"ios": "https://dc.lft.to/lastmile_qr_scan", "android": "https://dc.lft.to/lastmile_qr_scan"}, "lon": -77.03677833333333, "type": "electric_scooter"}, {"bike_id": "b8cd725a40bb7a0a8a96a6a548b434fb", "is_reserved": 0, "fusion_lon": 0.0, "lat": 38.923235166666664, "is_disabled": 0, "name": "b8cd725a40bb7a0a8a96a6a548b434fb", "fusion_lat": 0.0, "rental_uris": {"ios": "https://dc.lft.to/lastmile_qr_scan", "android": "https://dc.lft.to/lastmile_qr_scan"}, "lon": -77.04486283333334, "type": "electric_scooter"}, {"bike_id": "0615366c57bcbe02d4e90dc8036487ff", "is_reserved": 0, "fusion_lon": 0.0, "lat": 38.901511, "is_disabled": 0, "name": "0615366c57bcbe02d4e90dc8036487ff", "fusion_lat": 0.0, "rental_uris": {"ios": "https://dc.lft.to/lastmile_qr_scan", "android": "https://dc.lft.to/lastmile_qr_scan"}, "lon": -77.04474033333334, "type": "electric_scooter"}, {"bike_id": "f926830694d583d4fdcd02ff6ab17b54", "is_reserved": 0, "fusion_lon": 0.0, "lat": 38.903078666666666, "is_disabled": 0, "name": "f926830694d583d4fdcd02ff6ab17b54", "fusion_lat": 0.0, "rental_uris": {"ios": "https://dc.lft.to/lastmile_qr_scan", "android": "https://dc.lft.to/lastmile_qr_scan"}, "lon": -77.04334283333333, "type": "electric_scooter"}, {"bike_id": "a66e1e8ac206254f3ad607e2985f52dc", "is_reserved": 0, "fusion_lon": 0.0, "lat": 39.030498, "is_disabled": 0, "name": "a66e1e8ac206254f3ad607e2985f52dc", "fusion_lat": 0.0, "rental_uris": {"ios": "https://dc.lft.to/lastmile_qr_scan", "android": "https://dc.lft.to/lastmile_qr_scan"}, "lon": -77.09482766666666, "type": "electric_bike"}, {"bike_id": "3c67e7f077103318f9c2f59ca268d1b3", "is_reserved": 0, "fusion_lon": 0.0, "lat": 38.8870505, "is_disabled": 0, "name": "3c67e7f077103318f9c2f59ca268d1b3", "fusion_lat": 0.0, "rental_uris": {"ios": "https://dc.lft.to/lastmile_qr_scan", "android": "https://dc.lft.to/lastmile_qr_scan"}, "lon": -77.001526, "type": "electric_scooter"}, {"bike_id": "2df6b1728acc46e741d45aacd5845e72", "is_reserved": 0, "fusion_lon": 0.0, "lat": 38.9177675, "is_disabled": 0, "name": "2df6b1728acc46e741d45aacd5845e72", "fusion_lat": 0.0, "rental_uris": {"ios": "https://dc.lft.to/lastmile_qr_scan", "android": "https://dc.lft.to/lastmile_qr_scan"}, "lon": -76.9731785, "type": "electric_scooter"}, {"bike_id": "17f833ba67733b168d5fad819151fd6b", "is_reserved": 0, "fusion_lon": 0.0, "lat": 38.8922665, "is_disabled": 0, "name": "17f833ba67733b168d5fad819151fd6b", "fusion_lat": 0.0, "rental_uris": {"ios": "https://dc.lft.to/lastmile_qr_scan", "android": "https://dc.lft.to/lastmile_qr_scan"}, "lon": -77.0030145, "type": "electric_scooter"}, {"bike_id": "0b87d60675c4e175bda0a0f8cbda5942", "is_reserved": 0, "fusion_lon": 0.0, "lat": 38.90515766666667, "is_disabled": 0, "name": "0b87d60675c4e175bda0a0f8cbda5942", "fusion_lat": 0.0, "rental_uris": {"ios": "https://dc.lft.to/lastmile_qr_scan", "android": "https://dc.lft.to/lastmile_qr_scan"}, "lon": -77.06532983333334, "type": "electric_scooter"}, {"bike_id": "f94ee99b643fd35679f73fef88f1a378", "is_reserved": 0, "fusion_lon": 0.0, "lat": 38.9155, "is_disabled": 0, "name": "f94ee99b643fd35679f73fef88f1a378", "fusion_lat": 0.0, "rental_uris": {"ios": "https://dc.lft.to/lastmile_qr_scan", "android": "https://dc.lft.to/lastmile_qr_scan"}, "lon": -77.0350865, "type": "electric_scooter"}, {"bike_id": "41b93479be1bf2aadd1a218d05a5adea", "is_reserved": 0, "fusion_lon": 0.0, "lat": 38.90827983333333, "is_disabled": 0, "name": "41b93479be1bf2aadd1a218d05a5adea", "fusion_lat": 0.0, "rental_uris": {"ios": "https://dc.lft.to/lastmile_qr_scan", "android": "https://dc.lft.to/lastmile_qr_scan"}, "lon": -76.9969945, "type": "electric_scooter"}, {"bike_id": "e6c078fbbbe55afc418f9cfcd75bc772", "is_reserved": 0, "fusion_lon": 0.0, "lat": 38.88967816666667, "is_disabled": 0, "name": "e6c078fbbbe55afc418f9cfcd75bc772", "fusion_lat": 0.0, "rental_uris": {"ios": "https://dc.lft.to/lastmile_qr_scan", "android": "https://dc.lft.to/lastmile_qr_scan"}, "lon": -76.980353, "type": "electric_scooter"}, {"bike_id": "95a60e73975e2bed00156bbe73a4ff04", "is_reserved": 0, "fusion_lon": 0.0, "lat": 38.91815283333333, "is_disabled": 0, "name": "95a60e73975e2bed00156bbe73a4ff04", "fusion_lat": 0.0, "rental_uris": {"ios": "https://dc.lft.to/lastmile_qr_scan", "android": "https://dc.lft.to/lastmile_qr_scan"}, "lon": -77.02473983333333, "type": "electric_scooter"}, {"bike_id": "bfca7dfe357c48fc331653743566ad5c", "is_reserved": 0, "fusion_lon": 0.0, "lat": 38.89828833333333, "is_disabled": 0, "name": "bfca7dfe357c48fc331653743566ad5c", "fusion_lat": 0.0, "rental_uris": {"ios": "https://dc.lft.to/lastmile_qr_scan", "android": "https://dc.lft.to/lastmile_qr_scan"}, "lon": -76.98030416666667, "type": "electric_scooter"}, {"bike_id": "9b5c15947efd67e4a292c90aa800eafe", "is_reserved": 0, "fusion_lon": 0.0, "lat": 38.8961865, "is_disabled": 0, "name": "9b5c15947efd67e4a292c90aa800eafe", "fusion_lat": 0.0, "rental_uris": {"ios": "https://dc.lft.to/lastmile_qr_scan", "android": "https://dc.lft.to/lastmile_qr_scan"}, "lon": -77.002649, "type": "electric_scooter"}, {"bike_id": "9c2640f856111af2bde1b5a5440cdae0", "is_reserved": 0, "fusion_lon": 0.0, "lat": 38.92313383333333, "is_disabled": 0, "name": "9c2640f856111af2bde1b5a5440cdae0", "fusion_lat": 0.0, "rental_uris": {"ios": "https://dc.lft.to/lastmile_qr_scan", "android": "https://dc.lft.to/lastmile_qr_scan"}, "lon": -77.02115583333334, "type": "electric_scooter"}, {"bike_id": "60bf5c6fbb4d95b65618464c81e982f3", "is_reserved": 0, "fusion_lon": 0.0, "lat": 38.933494333333336, "is_disabled": 0, "name": "60bf5c6fbb4d95b65618464c81e982f3", "fusion_lat": 0.0, "rental_uris": {"ios": "https://dc.lft.to/lastmile_qr_scan", "android": "https://dc.lft.to/lastmile_qr_scan"}, "lon": -77.05708033333333, "type": "electric_scooter"}, {"bike_id": "fc0fcf87124990ed69ab1587d16459da", "is_reserved": 0, "fusion_lon": 0.0, "lat": 38.9353175, "is_disabled": 0, "name": "fc0fcf87124990ed69ab1587d16459da", "fusion_lat": 0.0, "rental_uris": {"ios": "https://dc.lft.to/lastmile_qr_scan", "android": "https://dc.lft.to/lastmile_qr_scan"}, "lon": -77.0728815, "type": "electric_scooter"}, {"bike_id": "63da2d3b86b55c726b380ce4e39e2da6", "is_reserved": 0, "fusion_lon": 0.0, "lat": 38.930058833333334, "is_disabled": 0, "name": "63da2d3b86b55c726b380ce4e39e2da6", "fusion_lat": 0.0, "rental_uris": {"ios": "https://dc.lft.to/lastmile_qr_scan", "android": "https://dc.lft.to/lastmile_qr_scan"}, "lon": -77.03785883333333, "type": "electric_scooter"}, {"bike_id": "ab03247db9d380c1a36bed44953d90e8", "is_reserved": 0, "fusion_lon": 0.0, "lat": 38.90142433333333, "is_disabled": 0, "name": "ab03247db9d380c1a36bed44953d90e8", "fusion_lat": 0.0, "rental_uris": {"ios": "https://dc.lft.to/lastmile_qr_scan", "android": "https://dc.lft.to/lastmile_qr_scan"}, "lon": -77.03324633333334, "type": "electric_scooter"}, {"bike_id": "9cfbbe5d35fa39cfd5ea31fea8ac43da", "is_reserved": 0, "fusion_lon": 0.0, "lat": 38.918496833333336, "is_disabled": 0, "name": "9cfbbe5d35fa39cfd5ea31fea8ac43da", "fusion_lat": 0.0, "rental_uris": {"ios": "https://dc.lft.to/lastmile_qr_scan", "android": "https://dc.lft.to/lastmile_qr_scan"}, "lon": -77.02294916666666, "type": "electric_scooter"}, {"bike_id": "b975cb472cec703ac6b23120e5860a55", "is_reserved": 0, "fusion_lon": 0.0, "lat": 38.906002666666666, "is_disabled": 0, "name": "b975cb472cec703ac6b23120e5860a55", "fusion_lat": 0.0, "rental_uris": {"ios": "https://dc.lft.to/lastmile_qr_scan", "android": "https://dc.lft.to/lastmile_qr_scan"}, "lon": -77.03952866666667, "type": "electric_scooter"}, {"bike_id": "61f3c2e75edce22a618e036691dcc789", "is_reserved": 0, "fusion_lon": 0.0, "lat": 38.902892333333334, "is_disabled": 0, "name": "61f3c2e75edce22a618e036691dcc789", "fusion_lat": 0.0, "rental_uris": {"ios": "https://dc.lft.to/lastmile_qr_scan", "android": "https://dc.lft.to/lastmile_qr_scan"}, "lon": -77.03837183333333, "type": "electric_scooter"}, {"bike_id": "911a86b81c64b97bfda584e411aca4f2", "is_reserved": 0, "fusion_lon": 0.0, "lat": 38.92039616666667, "is_disabled": 0, "name": "911a86b81c64b97bfda584e411aca4f2", "fusion_lat": 0.0, "rental_uris": {"ios": "https://dc.lft.to/lastmile_qr_scan", "android": "https://dc.lft.to/lastmile_qr_scan"}, "lon": -76.97906483333334, "type": "electric_scooter"}, {"bike_id": "b2b03962ed051d57132602e8bb0d6839", "is_reserved": 0, "fusion_lon": 0.0, "lat": 38.884912666666665, "is_disabled": 0, "name": "b2b03962ed051d57132602e8bb0d6839", "fusion_lat": 0.0, "rental_uris": {"ios": "https://dc.lft.to/lastmile_qr_scan", "android": "https://dc.lft.to/lastmile_qr_scan"}, "lon": -77.00708133333333, "type": "electric_scooter"}, {"bike_id": "5bf6bda76a1e31b9ac59e5b0c9a50d5a", "is_reserved": 0, "fusion_lon": 0.0, "lat": 38.92140283333333, "is_disabled": 0, "name": "5bf6bda76a1e31b9ac59e5b0c9a50d5a", "fusion_lat": 0.0, "rental_uris": {"ios": "https://dc.lft.to/lastmile_qr_scan", "android": "https://dc.lft.to/lastmile_qr_scan"}, "lon": -77.0353105, "type": "electric_scooter"}, {"bike_id": "b7c0a61974e237c69cc48d9fb4971778", "is_reserved": 0, "fusion_lon": 0.0, "lat": 38.89925816666667, "is_disabled": 0, "name": "b7c0a61974e237c69cc48d9fb4971778", "fusion_lat": 0.0, "rental_uris": {"ios": "https://dc.lft.to/lastmile_qr_scan", "android": "https://dc.lft.to/lastmile_qr_scan"}, "lon": -77.04658116666667, "type": "electric_scooter"}, {"bike_id": "abb7d84a1ef35c8a3110226704ae9538", "is_reserved": 0, "fusion_lon": 0.0, "lat": 38.93892366666667, "is_disabled": 0, "name": "abb7d84a1ef35c8a3110226704ae9538", "fusion_lat": 0.0, "rental_uris": {"ios": "https://dc.lft.to/lastmile_qr_scan", "android": "https://dc.lft.to/lastmile_qr_scan"}, "lon": -77.03332716666667, "type": "electric_scooter"}, {"bike_id": "f51b672e3bc4c6958a8788a612129bdc", "is_reserved": 0, "fusion_lon": 0.0, "lat": 38.902667, "is_disabled": 0, "name": "f51b672e3bc4c6958a8788a612129bdc", "fusion_lat": 0.0, "rental_uris": {"ios": "https://dc.lft.to/lastmile_qr_scan", "android": "https://dc.lft.to/lastmile_qr_scan"}, "lon": -77.02822033333334, "type": "electric_scooter"}, {"bike_id": "eb3d120995ab2cdc7998f2e8bc4b2b99", "is_reserved": 0, "fusion_lon": 0.0, "lat": 38.885023, "is_disabled": 0, "name": "eb3d120995ab2cdc7998f2e8bc4b2b99", "fusion_lat": 0.0, "rental_uris": {"ios": "https://dc.lft.to/lastmile_qr_scan", "android": "https://dc.lft.to/lastmile_qr_scan"}, "lon": -77.00563166666667, "type": "electric_scooter"}, {"bike_id": "fa7b75a849f65d8ef342f5191df264c6", "is_reserved": 0, "fusion_lon": 0.0, "lat": 38.9031775, "is_disabled": 0, "name": "fa7b75a849f65d8ef342f5191df264c6", "fusion_lat": 0.0, "rental_uris": {"ios": "https://dc.lft.to/lastmile_qr_scan", "android": "https://dc.lft.to/lastmile_qr_scan"}, "lon": -77.03754833333333, "type": "electric_scooter"}, {"bike_id": "6be6f7c93b784b62d848babbe37f82b4", "is_reserved": 0, "fusion_lon": 0.0, "lat": 38.910511166666666, "is_disabled": 0, "name": "6be6f7c93b784b62d848babbe37f82b4", "fusion_lat": 0.0, "rental_uris": {"ios": "https://dc.lft.to/lastmile_qr_scan", "android": "https://dc.lft.to/lastmile_qr_scan"}, "lon": -77.02683633333334, "type": "electric_scooter"}, {"bike_id": "48256340146cad4e2fc5cd23804ff4eb", "is_reserved": 0, "fusion_lon": 0.0, "lat": 38.89223583333333, "is_disabled": 0, "name": "48256340146cad4e2fc5cd23804ff4eb", "fusion_lat": 0.0, "rental_uris": {"ios": "https://dc.lft.to/lastmile_qr_scan", "android": "https://dc.lft.to/lastmile_qr_scan"}, "lon": -77.04193116666667, "type": "electric_scooter"}, {"bike_id": "89452aede010b6d7a7aa2076ccdce388", "is_reserved": 0, "fusion_lon": 0.0, "lat": 38.922655166666665, "is_disabled": 0, "name": "89452aede010b6d7a7aa2076ccdce388", "fusion_lat": 0.0, "rental_uris": {"ios": "https://dc.lft.to/lastmile_qr_scan", "android": "https://dc.lft.to/lastmile_qr_scan"}, "lon": -76.97422016666667, "type": "electric_bike"}, {"bike_id": "381ba1cfbc650e8c6aea29b9ad84ce93", "is_reserved": 0, "fusion_lon": 0.0, "lat": 38.89560216666667, "is_disabled": 0, "name": "381ba1cfbc650e8c6aea29b9ad84ce93", "fusion_lat": 0.0, "rental_uris": {"ios": "https://dc.lft.to/lastmile_qr_scan", "android": "https://dc.lft.to/lastmile_qr_scan"}, "lon": -77.0091595, "type": "electric_scooter"}, {"bike_id": "dc19686a6752a40e47af8147ac8ebbba", "is_reserved": 0, "fusion_lon": 0.0, "lat": 38.92361366666667, "is_disabled": 0, "name": "dc19686a6752a40e47af8147ac8ebbba", "fusion_lat": 0.0, "rental_uris": {"ios": "https://dc.lft.to/lastmile_qr_scan", "android": "https://dc.lft.to/lastmile_qr_scan"}, "lon": -77.05029216666667, "type": "electric_scooter"}, {"bike_id": "06ca5f800958504a1b87937e7c254f41", "is_reserved": 0, "fusion_lon": 0.0, "lat": 38.86619783333333, "is_disabled": 0, "name": "06ca5f800958504a1b87937e7c254f41", "fusion_lat": 0.0, "rental_uris": {"ios": "https://dc.lft.to/lastmile_qr_scan", "android": "https://dc.lft.to/lastmile_qr_scan"}, "lon": -76.98668416666666, "type": "electric_scooter"}, {"bike_id": "efe54d5decffc4e5004f7866db196a0b", "is_reserved": 0, "fusion_lon": 0.0, "lat": 38.907901833333334, "is_disabled": 0, "name": "efe54d5decffc4e5004f7866db196a0b", "fusion_lat": 0.0, "rental_uris": {"ios": "https://dc.lft.to/lastmile_qr_scan", "android": "https://dc.lft.to/lastmile_qr_scan"}, "lon": -77.04279683333333, "type": "electric_scooter"}, {"bike_id": "184289575cd75fe94a2c5661a69026f8", "is_reserved": 0, "fusion_lon": 0.0, "lat": 38.940419166666665, "is_disabled": 0, "name": "184289575cd75fe94a2c5661a69026f8", "fusion_lat": 0.0, "rental_uris": {"ios": "https://dc.lft.to/lastmile_qr_scan", "android": "https://dc.lft.to/lastmile_qr_scan"}, "lon": -77.02906566666667, "type": "electric_scooter"}, {"bike_id": "e85ca9e2a4774dd2f77ea07fd8c009aa", "is_reserved": 0, "fusion_lon": 0.0, "lat": 38.936991166666665, "is_disabled": 0, "name": "e85ca9e2a4774dd2f77ea07fd8c009aa", "fusion_lat": 0.0, "rental_uris": {"ios": "https://dc.lft.to/lastmile_qr_scan", "android": "https://dc.lft.to/lastmile_qr_scan"}, "lon": -77.0595005, "type": "electric_scooter"}, {"bike_id": "11a5742da89932f5b460a34bd807374b", "is_reserved": 0, "fusion_lon": 0.0, "lat": 38.8053115, "is_disabled": 0, "name": "11a5742da89932f5b460a34bd807374b", "fusion_lat": 0.0, "rental_uris": {"ios": "https://dc.lft.to/lastmile_qr_scan", "android": "https://dc.lft.to/lastmile_qr_scan"}, "lon": -77.040085, "type": "electric_bike"}, {"bike_id": "3d1f1083f6364e90f56aa4088ad25ee4", "is_reserved": 0, "fusion_lon": 0.0, "lat": 38.8596445, "is_disabled": 0, "name": "3d1f1083f6364e90f56aa4088ad25ee4", "fusion_lat": 0.0, "rental_uris": {"ios": "https://dc.lft.to/lastmile_qr_scan", "android": "https://dc.lft.to/lastmile_qr_scan"}, "lon": -76.99113883333334, "type": "electric_scooter"}, {"bike_id": "4b68b564e002ddf67637c4f9ea441faa", "is_reserved": 0, "fusion_lon": 0.0, "lat": 38.939833166666666, "is_disabled": 0, "name": "4b68b564e002ddf67637c4f9ea441faa", "fusion_lat": 0.0, "rental_uris": {"ios": "https://dc.lft.to/lastmile_qr_scan", "android": "https://dc.lft.to/lastmile_qr_scan"}, "lon": -77.02886683333334, "type": "electric_scooter"}, {"bike_id": "bacf800dc45830064247e815ad7a4cd4", "is_reserved": 0, "fusion_lon": 0.0, "lat": 38.90368016666667, "is_disabled": 0, "name": "bacf800dc45830064247e815ad7a4cd4", "fusion_lat": 0.0, "rental_uris": {"ios": "https://dc.lft.to/lastmile_qr_scan", "android": "https://dc.lft.to/lastmile_qr_scan"}, "lon": -77.04538966666667, "type": "electric_scooter"}, {"bike_id": "f7111c407c773a14dc40e4619d236691", "is_reserved": 0, "fusion_lon": 0.0, "lat": 38.916818666666664, "is_disabled": 0, "name": "f7111c407c773a14dc40e4619d236691", "fusion_lat": 0.0, "rental_uris": {"ios": "https://dc.lft.to/lastmile_qr_scan", "android": "https://dc.lft.to/lastmile_qr_scan"}, "lon": -77.0368625, "type": "electric_scooter"}, {"bike_id": "e4f57b02aef4b15c4ad246f46789bd28", "is_reserved": 0, "fusion_lon": 0.0, "lat": 38.89217, "is_disabled": 0, "name": "e4f57b02aef4b15c4ad246f46789bd28", "fusion_lat": 0.0, "rental_uris": {"ios": "https://dc.lft.to/lastmile_qr_scan", "android": "https://dc.lft.to/lastmile_qr_scan"}, "lon": -77.025824, "type": "electric_scooter"}, {"bike_id": "4ae58fba480c6d0ef9dee71468d96b54", "is_reserved": 0, "fusion_lon": 0.0, "lat": 38.9078535, "is_disabled": 0, "name": "4ae58fba480c6d0ef9dee71468d96b54", "fusion_lat": 0.0, "rental_uris": {"ios": "https://dc.lft.to/lastmile_qr_scan", "android": "https://dc.lft.to/lastmile_qr_scan"}, "lon": -77.04268716666667, "type": "electric_scooter"}, {"bike_id": "f6c25523534b0e9c3ee9174a31a01bc0", "is_reserved": 0, "fusion_lon": 0.0, "lat": 38.921788, "is_disabled": 0, "name": "f6c25523534b0e9c3ee9174a31a01bc0", "fusion_lat": 0.0, "rental_uris": {"ios": "https://dc.lft.to/lastmile_qr_scan", "android": "https://dc.lft.to/lastmile_qr_scan"}, "lon": -77.0253535, "type": "electric_scooter"}, {"bike_id": "97ad046c9a72db963a9ff963f32daaeb", "is_reserved": 0, "fusion_lon": 0.0, "lat": 38.877092, "is_disabled": 0, "name": "97ad046c9a72db963a9ff963f32daaeb", "fusion_lat": 0.0, "rental_uris": {"ios": "https://dc.lft.to/lastmile_qr_scan", "android": "https://dc.lft.to/lastmile_qr_scan"}, "lon": -77.017376, "type": "electric_scooter"}, {"bike_id": "5880b64bfe876e45d2d3b0a6dd11ceb5", "is_reserved": 0, "fusion_lon": 0.0, "lat": 38.91325916666667, "is_disabled": 0, "name": "5880b64bfe876e45d2d3b0a6dd11ceb5", "fusion_lat": 0.0, "rental_uris": {"ios": "https://dc.lft.to/lastmile_qr_scan", "android": "https://dc.lft.to/lastmile_qr_scan"}, "lon": -77.03268883333334, "type": "electric_scooter"}, {"bike_id": "7b8ec03177674ba6eb92629c82689aac", "is_reserved": 0, "fusion_lon": 0.0, "lat": 38.8884665, "is_disabled": 0, "name": "7b8ec03177674ba6eb92629c82689aac", "fusion_lat": 0.0, "rental_uris": {"ios": "https://dc.lft.to/lastmile_qr_scan", "android": "https://dc.lft.to/lastmile_qr_scan"}, "lon": -76.926827, "type": "electric_scooter"}, {"bike_id": "164462333d11b1bf2fda93054d136799", "is_reserved": 0, "fusion_lon": 0.0, "lat": 38.8874495, "is_disabled": 0, "name": "164462333d11b1bf2fda93054d136799", "fusion_lat": 0.0, "rental_uris": {"ios": "https://dc.lft.to/lastmile_qr_scan", "android": "https://dc.lft.to/lastmile_qr_scan"}, "lon": -77.03155666666666, "type": "electric_scooter"}, {"bike_id": "76c5516da74a69bcb7c2c8a479dd447b", "is_reserved": 0, "fusion_lon": 0.0, "lat": 38.9480345, "is_disabled": 0, "name": "76c5516da74a69bcb7c2c8a479dd447b", "fusion_lat": 0.0, "rental_uris": {"ios": "https://dc.lft.to/lastmile_qr_scan", "android": "https://dc.lft.to/lastmile_qr_scan"}, "lon": -77.0790825, "type": "electric_scooter"}, {"bike_id": "8582d4666232a301ff8150d550b51fcf", "is_reserved": 0, "fusion_lon": 0.0, "lat": 38.905107666666666, "is_disabled": 0, "name": "8582d4666232a301ff8150d550b51fcf", "fusion_lat": 0.0, "rental_uris": {"ios": "https://dc.lft.to/lastmile_qr_scan", "android": "https://dc.lft.to/lastmile_qr_scan"}, "lon": -77.05686633333333, "type": "electric_bike"}, {"bike_id": "e6e9ec9118eb16d15fa8af3f57e07ef5", "is_reserved": 0, "fusion_lon": 0.0, "lat": 38.893698666666666, "is_disabled": 0, "name": "e6e9ec9118eb16d15fa8af3f57e07ef5", "fusion_lat": 0.0, "rental_uris": {"ios": "https://dc.lft.to/lastmile_qr_scan", "android": "https://dc.lft.to/lastmile_qr_scan"}, "lon": -77.04784466666666, "type": "electric_scooter"}, {"bike_id": "c47c068cf93ed1da2420874bed12b030", "is_reserved": 0, "fusion_lon": 0.0, "lat": 38.93090016666667, "is_disabled": 0, "name": "c47c068cf93ed1da2420874bed12b030", "fusion_lat": 0.0, "rental_uris": {"ios": "https://dc.lft.to/lastmile_qr_scan", "android": "https://dc.lft.to/lastmile_qr_scan"}, "lon": -77.03138833333334, "type": "electric_scooter"}, {"bike_id": "d67fff660b7dfa63c6477abecdc231c4", "is_reserved": 0, "fusion_lon": 0.0, "lat": 38.8601005, "is_disabled": 0, "name": "d67fff660b7dfa63c6477abecdc231c4", "fusion_lat": 0.0, "rental_uris": {"ios": "https://dc.lft.to/lastmile_qr_scan", "android": "https://dc.lft.to/lastmile_qr_scan"}, "lon": -77.05772516666667, "type": "electric_bike"}, {"bike_id": "27ec203bab2eac54868d77ae0dc4da84", "is_reserved": 0, "fusion_lon": 0.0, "lat": 38.86618716666667, "is_disabled": 0, "name": "27ec203bab2eac54868d77ae0dc4da84", "fusion_lat": 0.0, "rental_uris": {"ios": "https://dc.lft.to/lastmile_qr_scan", "android": "https://dc.lft.to/lastmile_qr_scan"}, "lon": -76.94571533333334, "type": "electric_bike"}, {"bike_id": "bad79637559c7eb509f398872be254b5", "is_reserved": 0, "fusion_lon": 0.0, "lat": 38.90379716666666, "is_disabled": 0, "name": "bad79637559c7eb509f398872be254b5", "fusion_lat": 0.0, "rental_uris": {"ios": "https://dc.lft.to/lastmile_qr_scan", "android": "https://dc.lft.to/lastmile_qr_scan"}, "lon": -77.045054, "type": "electric_scooter"}, {"bike_id": "a5837840669ef1e39def99eedafbfa05", "is_reserved": 0, "fusion_lon": 0.0, "lat": 38.90291833333333, "is_disabled": 0, "name": "a5837840669ef1e39def99eedafbfa05", "fusion_lat": 0.0, "rental_uris": {"ios": "https://dc.lft.to/lastmile_qr_scan", "android": "https://dc.lft.to/lastmile_qr_scan"}, "lon": -76.99038283333333, "type": "electric_scooter"}, {"bike_id": "af642ff2e6118d5f192078b63a78a2d5", "is_reserved": 0, "fusion_lon": 0.0, "lat": 38.900787666666666, "is_disabled": 0, "name": "af642ff2e6118d5f192078b63a78a2d5", "fusion_lat": 0.0, "rental_uris": {"ios": "https://dc.lft.to/lastmile_qr_scan", "android": "https://dc.lft.to/lastmile_qr_scan"}, "lon": -76.9388335, "type": "electric_scooter"}, {"bike_id": "b96f9c6ce8313b0ab0d820b045d68385", "is_reserved": 0, "fusion_lon": 0.0, "lat": 38.903661666666665, "is_disabled": 0, "name": "b96f9c6ce8313b0ab0d820b045d68385", "fusion_lat": 0.0, "rental_uris": {"ios": "https://dc.lft.to/lastmile_qr_scan", "android": "https://dc.lft.to/lastmile_qr_scan"}, "lon": -77.04478716666667, "type": "electric_scooter"}, {"bike_id": "ab1a8658ca39e51c445c819088643b83", "is_reserved": 0, "fusion_lon": 0.0, "lat": 38.897297, "is_disabled": 0, "name": "ab1a8658ca39e51c445c819088643b83", "fusion_lat": 0.0, "rental_uris": {"ios": "https://dc.lft.to/lastmile_qr_scan", "android": "https://dc.lft.to/lastmile_qr_scan"}, "lon": -77.05571666666667, "type": "electric_scooter"}, {"bike_id": "dff48aa3b231dd246524fc88f1a22698", "is_reserved": 0, "fusion_lon": 0.0, "lat": 38.949725666666666, "is_disabled": 0, "name": "dff48aa3b231dd246524fc88f1a22698", "fusion_lat": 0.0, "rental_uris": {"ios": "https://dc.lft.to/lastmile_qr_scan", "android": "https://dc.lft.to/lastmile_qr_scan"}, "lon": -76.97283983333334, "type": "electric_bike"}, {"bike_id": "231262ea1a9ee558b1791209da257598", "is_reserved": 0, "fusion_lon": 0.0, "lat": 38.8961075, "is_disabled": 0, "name": "231262ea1a9ee558b1791209da257598", "fusion_lat": 0.0, "rental_uris": {"ios": "https://dc.lft.to/lastmile_qr_scan", "android": "https://dc.lft.to/lastmile_qr_scan"}, "lon": -77.00924683333334, "type": "electric_scooter"}, {"bike_id": "73c212f6f31223b19aacdb14d95f723f", "is_reserved": 0, "fusion_lon": 0.0, "lat": 38.89833083333333, "is_disabled": 0, "name": "73c212f6f31223b19aacdb14d95f723f", "fusion_lat": 0.0, "rental_uris": {"ios": "https://dc.lft.to/lastmile_qr_scan", "android": "https://dc.lft.to/lastmile_qr_scan"}, "lon": -76.94632366666667, "type": "electric_scooter"}, {"bike_id": "253f38ac5c9a3132fdc91a876750f411", "is_reserved": 0, "fusion_lon": 0.0, "lat": 38.933311, "is_disabled": 0, "name": "253f38ac5c9a3132fdc91a876750f411", "fusion_lat": 0.0, "rental_uris": {"ios": "https://dc.lft.to/lastmile_qr_scan", "android": "https://dc.lft.to/lastmile_qr_scan"}, "lon": -77.0326355, "type": "electric_scooter"}, {"bike_id": "777954278b630654e5bacaa0912b31a3", "is_reserved": 0, "fusion_lon": 0.0, "lat": 38.9169095, "is_disabled": 0, "name": "777954278b630654e5bacaa0912b31a3", "fusion_lat": 0.0, "rental_uris": {"ios": "https://dc.lft.to/lastmile_qr_scan", "android": "https://dc.lft.to/lastmile_qr_scan"}, "lon": -77.02965133333333, "type": "electric_scooter"}, {"bike_id": "25cbb7d79fad8a966ddc4765b918cb7d", "is_reserved": 0, "fusion_lon": 0.0, "lat": 38.9015155, "is_disabled": 0, "name": "25cbb7d79fad8a966ddc4765b918cb7d", "fusion_lat": 0.0, "rental_uris": {"ios": "https://dc.lft.to/lastmile_qr_scan", "android": "https://dc.lft.to/lastmile_qr_scan"}, "lon": -77.04238766666667, "type": "electric_scooter"}, {"bike_id": "77e0d277684e97ac4830393d1f337dd0", "is_reserved": 0, "fusion_lon": 0.0, "lat": 38.92208466666666, "is_disabled": 0, "name": "77e0d277684e97ac4830393d1f337dd0", "fusion_lat": 0.0, "rental_uris": {"ios": "https://dc.lft.to/lastmile_qr_scan", "android": "https://dc.lft.to/lastmile_qr_scan"}, "lon": -77.03655366666666, "type": "electric_scooter"}, {"bike_id": "92a3003679f4390d072a5e09d905c7c3", "is_reserved": 0, "fusion_lon": 0.0, "lat": 38.9275505, "is_disabled": 0, "name": "92a3003679f4390d072a5e09d905c7c3", "fusion_lat": 0.0, "rental_uris": {"ios": "https://dc.lft.to/lastmile_qr_scan", "android": "https://dc.lft.to/lastmile_qr_scan"}, "lon": -77.03278816666666, "type": "electric_scooter"}, {"bike_id": "c68d673a2ddda680ea87d6efcd539b10", "is_reserved": 0, "fusion_lon": 0.0, "lat": 39.052023, "is_disabled": 0, "name": "c68d673a2ddda680ea87d6efcd539b10", "fusion_lat": 0.0, "rental_uris": {"ios": "https://dc.lft.to/lastmile_qr_scan", "android": "https://dc.lft.to/lastmile_qr_scan"}, "lon": -77.10921166666667, "type": "electric_bike"}, {"bike_id": "47d94d20487228ab03d85b360183419d", "is_reserved": 0, "fusion_lon": 0.0, "lat": 38.906104166666665, "is_disabled": 0, "name": "47d94d20487228ab03d85b360183419d", "fusion_lat": 0.0, "rental_uris": {"ios": "https://dc.lft.to/lastmile_qr_scan", "android": "https://dc.lft.to/lastmile_qr_scan"}, "lon": -77.074888, "type": "electric_scooter"}, {"bike_id": "0b3b272bb9e46edd6b9c1b6aafa30a1f", "is_reserved": 0, "fusion_lon": 0.0, "lat": 38.915601833333334, "is_disabled": 0, "name": "0b3b272bb9e46edd6b9c1b6aafa30a1f", "fusion_lat": 0.0, "rental_uris": {"ios": "https://dc.lft.to/lastmile_qr_scan", "android": "https://dc.lft.to/lastmile_qr_scan"}, "lon": -77.03933883333333, "type": "electric_scooter"}, {"bike_id": "6b8846bd0808010ba5502bfb1def6842", "is_reserved": 0, "fusion_lon": 0.0, "lat": 38.934283666666666, "is_disabled": 0, "name": "6b8846bd0808010ba5502bfb1def6842", "fusion_lat": 0.0, "rental_uris": {"ios": "https://dc.lft.to/lastmile_qr_scan", "android": "https://dc.lft.to/lastmile_qr_scan"}, "lon": -77.043161, "type": "electric_scooter"}, {"bike_id": "4c4466e4e93d2368165bc5fff11f9cfe", "is_reserved": 0, "fusion_lon": 0.0, "lat": 38.920657166666665, "is_disabled": 0, "name": "4c4466e4e93d2368165bc5fff11f9cfe", "fusion_lat": 0.0, "rental_uris": {"ios": "https://dc.lft.to/lastmile_qr_scan", "android": "https://dc.lft.to/lastmile_qr_scan"}, "lon": -77.04190933333334, "type": "electric_scooter"}, {"bike_id": "fc9a05e66bec244c0872ec523460b70f", "is_reserved": 0, "fusion_lon": 0.0, "lat": 38.88209, "is_disabled": 0, "name": "fc9a05e66bec244c0872ec523460b70f", "fusion_lat": 0.0, "rental_uris": {"ios": "https://dc.lft.to/lastmile_qr_scan", "android": "https://dc.lft.to/lastmile_qr_scan"}, "lon": -76.9270055, "type": "electric_scooter"}, {"bike_id": "6d8bfa14133b1cc2c639c446b7fa2ab8", "is_reserved": 0, "fusion_lon": 0.0, "lat": 38.90848316666667, "is_disabled": 0, "name": "6d8bfa14133b1cc2c639c446b7fa2ab8", "fusion_lat": 0.0, "rental_uris": {"ios": "https://dc.lft.to/lastmile_qr_scan", "android": "https://dc.lft.to/lastmile_qr_scan"}, "lon": -77.01183216666666, "type": "electric_scooter"}, {"bike_id": "2fa3d6cde09076c16979f76af287a444", "is_reserved": 0, "fusion_lon": 0.0, "lat": 38.92444883333334, "is_disabled": 0, "name": "2fa3d6cde09076c16979f76af287a444", "fusion_lat": 0.0, "rental_uris": {"ios": "https://dc.lft.to/lastmile_qr_scan", "android": "https://dc.lft.to/lastmile_qr_scan"}, "lon": -77.02032533333333, "type": "electric_scooter"}, {"bike_id": "be058e4e0a9cfb7897c10cecb4f1eef7", "is_reserved": 0, "fusion_lon": 0.0, "lat": 38.895269166666665, "is_disabled": 0, "name": "be058e4e0a9cfb7897c10cecb4f1eef7", "fusion_lat": 0.0, "rental_uris": {"ios": "https://dc.lft.to/lastmile_qr_scan", "android": "https://dc.lft.to/lastmile_qr_scan"}, "lon": -77.03350133333333, "type": "electric_scooter"}, {"bike_id": "805a6b4c7e45b33a7d2ede2746745e3b", "is_reserved": 0, "fusion_lon": 0.0, "lat": 38.945118666666666, "is_disabled": 0, "name": "805a6b4c7e45b33a7d2ede2746745e3b", "fusion_lat": 0.0, "rental_uris": {"ios": "https://dc.lft.to/lastmile_qr_scan", "android": "https://dc.lft.to/lastmile_qr_scan"}, "lon": -77.00672916666667, "type": "electric_bike"}, {"bike_id": "a35bc496a452fa3269c2847af58e9be5", "is_reserved": 0, "fusion_lon": 0.0, "lat": 38.91049433333333, "is_disabled": 0, "name": "a35bc496a452fa3269c2847af58e9be5", "fusion_lat": 0.0, "rental_uris": {"ios": "https://dc.lft.to/lastmile_qr_scan", "android": "https://dc.lft.to/lastmile_qr_scan"}, "lon": -77.015091, "type": "electric_scooter"}, {"bike_id": "9afe9b692ecce6556d1d9eb672e36ca2", "is_reserved": 0, "fusion_lon": 0.0, "lat": 38.94511266666667, "is_disabled": 0, "name": "9afe9b692ecce6556d1d9eb672e36ca2", "fusion_lat": 0.0, "rental_uris": {"ios": "https://dc.lft.to/lastmile_qr_scan", "android": "https://dc.lft.to/lastmile_qr_scan"}, "lon": -77.033618, "type": "electric_scooter"}, {"bike_id": "65282eb6b5f1c05d08e9c79b237f1f81", "is_reserved": 0, "fusion_lon": 0.0, "lat": 38.90227333333333, "is_disabled": 0, "name": "65282eb6b5f1c05d08e9c79b237f1f81", "fusion_lat": 0.0, "rental_uris": {"ios": "https://dc.lft.to/lastmile_qr_scan", "android": "https://dc.lft.to/lastmile_qr_scan"}, "lon": -77.05906566666667, "type": "electric_bike"}, {"bike_id": "ec407d029b6d77c6386edd3e89f72fee", "is_reserved": 0, "fusion_lon": 0.0, "lat": 38.909593666666666, "is_disabled": 0, "name": "ec407d029b6d77c6386edd3e89f72fee", "fusion_lat": 0.0, "rental_uris": {"ios": "https://dc.lft.to/lastmile_qr_scan", "android": "https://dc.lft.to/lastmile_qr_scan"}, "lon": -77.04244083333333, "type": "electric_scooter"}, {"bike_id": "37548a63e51fe165a254bbf843c0f4e0", "is_reserved": 0, "fusion_lon": 0.0, "lat": 38.90796616666667, "is_disabled": 0, "name": "37548a63e51fe165a254bbf843c0f4e0", "fusion_lat": 0.0, "rental_uris": {"ios": "https://dc.lft.to/lastmile_qr_scan", "android": "https://dc.lft.to/lastmile_qr_scan"}, "lon": -77.0487045, "type": "electric_scooter"}, {"bike_id": "395ddff4d0a13eac036f69dce0f8a019", "is_reserved": 0, "fusion_lon": 0.0, "lat": 38.864123, "is_disabled": 0, "name": "395ddff4d0a13eac036f69dce0f8a019", "fusion_lat": 0.0, "rental_uris": {"ios": "https://dc.lft.to/lastmile_qr_scan", "android": "https://dc.lft.to/lastmile_qr_scan"}, "lon": -76.98051316666667, "type": "electric_scooter"}, {"bike_id": "d8755bbc92f2f8ef11c46c28f8c7673c", "is_reserved": 0, "fusion_lon": 0.0, "lat": 38.91695983333334, "is_disabled": 0, "name": "d8755bbc92f2f8ef11c46c28f8c7673c", "fusion_lat": 0.0, "rental_uris": {"ios": "https://dc.lft.to/lastmile_qr_scan", "android": "https://dc.lft.to/lastmile_qr_scan"}, "lon": -77.03486383333333, "type": "electric_scooter"}, {"bike_id": "d809a903976111d3651e47a6d36017e3", "is_reserved": 0, "fusion_lon": 0.0, "lat": 38.928811833333334, "is_disabled": 0, "name": "d809a903976111d3651e47a6d36017e3", "fusion_lat": 0.0, "rental_uris": {"ios": "https://dc.lft.to/lastmile_qr_scan", "android": "https://dc.lft.to/lastmile_qr_scan"}, "lon": -77.0335265, "type": "electric_scooter"}, {"bike_id": "19b1d22fa7f74b64988125708054a4c5", "is_reserved": 0, "fusion_lon": 0.0, "lat": 38.889945166666664, "is_disabled": 0, "name": "19b1d22fa7f74b64988125708054a4c5", "fusion_lat": 0.0, "rental_uris": {"ios": "https://dc.lft.to/lastmile_qr_scan", "android": "https://dc.lft.to/lastmile_qr_scan"}, "lon": -76.947023, "type": "electric_scooter"}, {"bike_id": "13f7d7eb7bec9e8242097bd61665610f", "is_reserved": 0, "fusion_lon": 0.0, "lat": 38.91583633333333, "is_disabled": 0, "name": "13f7d7eb7bec9e8242097bd61665610f", "fusion_lat": 0.0, "rental_uris": {"ios": "https://dc.lft.to/lastmile_qr_scan", "android": "https://dc.lft.to/lastmile_qr_scan"}, "lon": -77.04701716666666, "type": "electric_scooter"}, {"bike_id": "44c7ab6534e4c93145ea994ef0f8fa15", "is_reserved": 0, "fusion_lon": 0.0, "lat": 38.832379833333334, "is_disabled": 0, "name": "44c7ab6534e4c93145ea994ef0f8fa15", "fusion_lat": 0.0, "rental_uris": {"ios": "https://dc.lft.to/lastmile_qr_scan", "android": "https://dc.lft.to/lastmile_qr_scan"}, "lon": -76.94622833333334, "type": "electric_bike"}, {"bike_id": "c661a1abdacd09de6286c1603fcca08c", "is_reserved": 0, "fusion_lon": 0.0, "lat": 38.97876183333333, "is_disabled": 0, "name": "c661a1abdacd09de6286c1603fcca08c", "fusion_lat": 0.0, "rental_uris": {"ios": "https://dc.lft.to/lastmile_qr_scan", "android": "https://dc.lft.to/lastmile_qr_scan"}, "lon": -77.02550266666667, "type": "electric_scooter"}, {"bike_id": "3d852e4803af29e8173f178bacea2f81", "is_reserved": 0, "fusion_lon": 0.0, "lat": 38.862399833333335, "is_disabled": 0, "name": "3d852e4803af29e8173f178bacea2f81", "fusion_lat": 0.0, "rental_uris": {"ios": "https://dc.lft.to/lastmile_qr_scan", "android": "https://dc.lft.to/lastmile_qr_scan"}, "lon": -76.99494616666667, "type": "electric_scooter"}, {"bike_id": "5ab01be2f3470bed9ae377ea2fbb7737", "is_reserved": 0, "fusion_lon": 0.0, "lat": 38.90371733333333, "is_disabled": 0, "name": "5ab01be2f3470bed9ae377ea2fbb7737", "fusion_lat": 0.0, "rental_uris": {"ios": "https://dc.lft.to/lastmile_qr_scan", "android": "https://dc.lft.to/lastmile_qr_scan"}, "lon": -77.04346616666666, "type": "electric_scooter"}, {"bike_id": "4f7785888c72593f6c81e83445403e94", "is_reserved": 0, "fusion_lon": 0.0, "lat": 38.92175983333333, "is_disabled": 0, "name": "4f7785888c72593f6c81e83445403e94", "fusion_lat": 0.0, "rental_uris": {"ios": "https://dc.lft.to/lastmile_qr_scan", "android": "https://dc.lft.to/lastmile_qr_scan"}, "lon": -77.0401265, "type": "electric_scooter"}, {"bike_id": "db7d014716327d0511c3cd25257680c3", "is_reserved": 0, "fusion_lon": 0.0, "lat": 38.93969716666667, "is_disabled": 0, "name": "db7d014716327d0511c3cd25257680c3", "fusion_lat": 0.0, "rental_uris": {"ios": "https://dc.lft.to/lastmile_qr_scan", "android": "https://dc.lft.to/lastmile_qr_scan"}, "lon": -77.032541, "type": "electric_scooter"}, {"bike_id": "b413a0cc7d6af71a1125af52cc696847", "is_reserved": 0, "fusion_lon": 0.0, "lat": 38.9247775, "is_disabled": 0, "name": "b413a0cc7d6af71a1125af52cc696847", "fusion_lat": 0.0, "rental_uris": {"ios": "https://dc.lft.to/lastmile_qr_scan", "android": "https://dc.lft.to/lastmile_qr_scan"}, "lon": -77.02649166666667, "type": "electric_scooter"}, {"bike_id": "761221617af9615d167f2540d2d53661", "is_reserved": 0, "fusion_lon": 0.0, "lat": 38.83720666666667, "is_disabled": 0, "name": "761221617af9615d167f2540d2d53661", "fusion_lat": 0.0, "rental_uris": {"ios": "https://dc.lft.to/lastmile_qr_scan", "android": "https://dc.lft.to/lastmile_qr_scan"}, "lon": -76.99774683333334, "type": "electric_bike"}, {"bike_id": "8f146a1286eb52dbdc687747fd0fd6d6", "is_reserved": 0, "fusion_lon": 0.0, "lat": 38.88511033333333, "is_disabled": 0, "name": "8f146a1286eb52dbdc687747fd0fd6d6", "fusion_lat": 0.0, "rental_uris": {"ios": "https://dc.lft.to/lastmile_qr_scan", "android": "https://dc.lft.to/lastmile_qr_scan"}, "lon": -77.0057785, "type": "electric_scooter"}, {"bike_id": "ccee5a01bff98bf8c68c8c44fb92817b", "is_reserved": 0, "fusion_lon": 0.0, "lat": 38.8550715, "is_disabled": 0, "name": "ccee5a01bff98bf8c68c8c44fb92817b", "fusion_lat": 0.0, "rental_uris": {"ios": "https://dc.lft.to/lastmile_qr_scan", "android": "https://dc.lft.to/lastmile_qr_scan"}, "lon": -76.98443066666667, "type": "electric_bike"}, {"bike_id": "9702dc3139617d42c1ffa6050ed4faca", "is_reserved": 0, "fusion_lon": 0.0, "lat": 38.889978666666664, "is_disabled": 0, "name": "9702dc3139617d42c1ffa6050ed4faca", "fusion_lat": 0.0, "rental_uris": {"ios": "https://dc.lft.to/lastmile_qr_scan", "android": "https://dc.lft.to/lastmile_qr_scan"}, "lon": -76.9384315, "type": "electric_scooter"}, {"bike_id": "bd02e28dbb216a9cc78742ef1257a91b", "is_reserved": 0, "fusion_lon": 0.0, "lat": 38.9508135, "is_disabled": 0, "name": "bd02e28dbb216a9cc78742ef1257a91b", "fusion_lat": 0.0, "rental_uris": {"ios": "https://dc.lft.to/lastmile_qr_scan", "android": "https://dc.lft.to/lastmile_qr_scan"}, "lon": -77.01234616666666, "type": "electric_bike"}, {"bike_id": "b1ca3437ef76f06c02bd6da351aa8a19", "is_reserved": 0, "fusion_lon": 0.0, "lat": 38.9343555, "is_disabled": 0, "name": "b1ca3437ef76f06c02bd6da351aa8a19", "fusion_lat": 0.0, "rental_uris": {"ios": "https://dc.lft.to/lastmile_qr_scan", "android": "https://dc.lft.to/lastmile_qr_scan"}, "lon": -77.039975, "type": "electric_scooter"}, {"bike_id": "f9d7ac9b66839b83e5f9f8b6202c12b5", "is_reserved": 0, "fusion_lon": 0.0, "lat": 38.91383916666667, "is_disabled": 0, "name": "f9d7ac9b66839b83e5f9f8b6202c12b5", "fusion_lat": 0.0, "rental_uris": {"ios": "https://dc.lft.to/lastmile_qr_scan", "android": "https://dc.lft.to/lastmile_qr_scan"}, "lon": -77.01701016666667, "type": "electric_scooter"}, {"bike_id": "7f51dc0255288a2e106b3a5309b942ed", "is_reserved": 0, "fusion_lon": 0.0, "lat": 38.88494516666667, "is_disabled": 0, "name": "7f51dc0255288a2e106b3a5309b942ed", "fusion_lat": 0.0, "rental_uris": {"ios": "https://dc.lft.to/lastmile_qr_scan", "android": "https://dc.lft.to/lastmile_qr_scan"}, "lon": -77.003446, "type": "electric_scooter"}, {"bike_id": "19442c4f7805c3866ee1276d805f87e7", "is_reserved": 0, "fusion_lon": 0.0, "lat": 38.89836783333333, "is_disabled": 0, "name": "19442c4f7805c3866ee1276d805f87e7", "fusion_lat": 0.0, "rental_uris": {"ios": "https://dc.lft.to/lastmile_qr_scan", "android": "https://dc.lft.to/lastmile_qr_scan"}, "lon": -77.00750383333333, "type": "electric_scooter"}, {"bike_id": "ae04fa990f26ceea82ab8e3102c71ab0", "is_reserved": 0, "fusion_lon": 0.0, "lat": 38.93710816666667, "is_disabled": 0, "name": "ae04fa990f26ceea82ab8e3102c71ab0", "fusion_lat": 0.0, "rental_uris": {"ios": "https://dc.lft.to/lastmile_qr_scan", "android": "https://dc.lft.to/lastmile_qr_scan"}, "lon": -77.02935483333333, "type": "electric_scooter"}, {"bike_id": "776e64f231a9b0e4b719adc919f79b5d", "is_reserved": 0, "fusion_lon": 0.0, "lat": 38.91928883333333, "is_disabled": 0, "name": "776e64f231a9b0e4b719adc919f79b5d", "fusion_lat": 0.0, "rental_uris": {"ios": "https://dc.lft.to/lastmile_qr_scan", "android": "https://dc.lft.to/lastmile_qr_scan"}, "lon": -77.0317855, "type": "electric_scooter"}, {"bike_id": "c2ce6f903dcd8de701f678e79055abcc", "is_reserved": 0, "fusion_lon": 0.0, "lat": 38.9046805, "is_disabled": 0, "name": "c2ce6f903dcd8de701f678e79055abcc", "fusion_lat": 0.0, "rental_uris": {"ios": "https://dc.lft.to/lastmile_qr_scan", "android": "https://dc.lft.to/lastmile_qr_scan"}, "lon": -77.0402375, "type": "electric_scooter"}, {"bike_id": "b62b3deba8d65eedaa2c7425a3902af0", "is_reserved": 0, "fusion_lon": 0.0, "lat": 38.9283425, "is_disabled": 0, "name": "b62b3deba8d65eedaa2c7425a3902af0", "fusion_lat": 0.0, "rental_uris": {"ios": "https://dc.lft.to/lastmile_qr_scan", "android": "https://dc.lft.to/lastmile_qr_scan"}, "lon": -77.01392933333334, "type": "electric_scooter"}, {"bike_id": "633514e9649c2e1984a40bcf5479e8a2", "is_reserved": 0, "fusion_lon": 0.0, "lat": 38.902455, "is_disabled": 0, "name": "633514e9649c2e1984a40bcf5479e8a2", "fusion_lat": 0.0, "rental_uris": {"ios": "https://dc.lft.to/lastmile_qr_scan", "android": "https://dc.lft.to/lastmile_qr_scan"}, "lon": -77.0071825, "type": "electric_scooter"}, {"bike_id": "347fcc7cca3b44d21bceba27093af0ac", "is_reserved": 0, "fusion_lon": 0.0, "lat": 38.904254, "is_disabled": 0, "name": "347fcc7cca3b44d21bceba27093af0ac", "fusion_lat": 0.0, "rental_uris": {"ios": "https://dc.lft.to/lastmile_qr_scan", "android": "https://dc.lft.to/lastmile_qr_scan"}, "lon": -77.049998, "type": "electric_scooter"}, {"bike_id": "82002c824e1503cb2679740379619000", "is_reserved": 0, "fusion_lon": 0.0, "lat": 38.89221, "is_disabled": 0, "name": "82002c824e1503cb2679740379619000", "fusion_lat": 0.0, "rental_uris": {"ios": "https://dc.lft.to/lastmile_qr_scan", "android": "https://dc.lft.to/lastmile_qr_scan"}, "lon": -77.02619283333334, "type": "electric_scooter"}, {"bike_id": "1eb4beeb3a41fb9786b6693ebe8173c0", "is_reserved": 0, "fusion_lon": 0.0, "lat": 38.897607666666666, "is_disabled": 0, "name": "1eb4beeb3a41fb9786b6693ebe8173c0", "fusion_lat": 0.0, "rental_uris": {"ios": "https://dc.lft.to/lastmile_qr_scan", "android": "https://dc.lft.to/lastmile_qr_scan"}, "lon": -77.03396, "type": "electric_scooter"}, {"bike_id": "1c5431b5bcbb2acb931bd71246c310ff", "is_reserved": 0, "fusion_lon": 0.0, "lat": 38.9535725, "is_disabled": 0, "name": "1c5431b5bcbb2acb931bd71246c310ff", "fusion_lat": 0.0, "rental_uris": {"ios": "https://dc.lft.to/lastmile_qr_scan", "android": "https://dc.lft.to/lastmile_qr_scan"}, "lon": -76.98092683333333, "type": "electric_bike"}, {"bike_id": "f7540e5564e8595d226ba8ca74fb834f", "is_reserved": 0, "fusion_lon": 0.0, "lat": 38.92479616666667, "is_disabled": 0, "name": "f7540e5564e8595d226ba8ca74fb834f", "fusion_lat": 0.0, "rental_uris": {"ios": "https://dc.lft.to/lastmile_qr_scan", "android": "https://dc.lft.to/lastmile_qr_scan"}, "lon": -77.027519, "type": "electric_scooter"}, {"bike_id": "72310f721545263b415dba0d1a180677", "is_reserved": 0, "fusion_lon": 0.0, "lat": 38.90739333333333, "is_disabled": 0, "name": "72310f721545263b415dba0d1a180677", "fusion_lat": 0.0, "rental_uris": {"ios": "https://dc.lft.to/lastmile_qr_scan", "android": "https://dc.lft.to/lastmile_qr_scan"}, "lon": -77.00759483333333, "type": "electric_scooter"}, {"bike_id": "baeda48fff654687f8ee03baa4caff34", "is_reserved": 0, "fusion_lon": 0.0, "lat": 38.876677, "is_disabled": 0, "name": "baeda48fff654687f8ee03baa4caff34", "fusion_lat": 0.0, "rental_uris": {"ios": "https://dc.lft.to/lastmile_qr_scan", "android": "https://dc.lft.to/lastmile_qr_scan"}, "lon": -77.00070083333334, "type": "electric_scooter"}, {"bike_id": "87d0f256110d67bfb49650194c776d43", "is_reserved": 0, "fusion_lon": 0.0, "lat": 38.871492333333336, "is_disabled": 0, "name": "87d0f256110d67bfb49650194c776d43", "fusion_lat": 0.0, "rental_uris": {"ios": "https://dc.lft.to/lastmile_qr_scan", "android": "https://dc.lft.to/lastmile_qr_scan"}, "lon": -76.9366965, "type": "electric_bike"}, {"bike_id": "bb8fb9dc9545ba791b9d33a7c3c4acdb", "is_reserved": 0, "fusion_lon": 0.0, "lat": 38.883172, "is_disabled": 0, "name": "bb8fb9dc9545ba791b9d33a7c3c4acdb", "fusion_lat": 0.0, "rental_uris": {"ios": "https://dc.lft.to/lastmile_qr_scan", "android": "https://dc.lft.to/lastmile_qr_scan"}, "lon": -77.0093565, "type": "electric_scooter"}, {"bike_id": "31d967d6bfc0088ff221b20906e1fd0a", "is_reserved": 0, "fusion_lon": 0.0, "lat": 38.89198583333334, "is_disabled": 0, "name": "31d967d6bfc0088ff221b20906e1fd0a", "fusion_lat": 0.0, "rental_uris": {"ios": "https://dc.lft.to/lastmile_qr_scan", "android": "https://dc.lft.to/lastmile_qr_scan"}, "lon": -77.02837716666667, "type": "electric_scooter"}, {"bike_id": "0a35edf01628a236ec76f026f2e894b4", "is_reserved": 0, "fusion_lon": 0.0, "lat": 38.913872, "is_disabled": 0, "name": "0a35edf01628a236ec76f026f2e894b4", "fusion_lat": 0.0, "rental_uris": {"ios": "https://dc.lft.to/lastmile_qr_scan", "android": "https://dc.lft.to/lastmile_qr_scan"}, "lon": -77.03207683333333, "type": "electric_scooter"}, {"bike_id": "41cc0a214fbe44242d3875e7cea3c7c9", "is_reserved": 0, "fusion_lon": 0.0, "lat": 38.89471866666667, "is_disabled": 0, "name": "41cc0a214fbe44242d3875e7cea3c7c9", "fusion_lat": 0.0, "rental_uris": {"ios": "https://dc.lft.to/lastmile_qr_scan", "android": "https://dc.lft.to/lastmile_qr_scan"}, "lon": -77.017531, "type": "electric_scooter"}, {"bike_id": "32c40bfeda5e65518c5c37ab533c9b8b", "is_reserved": 0, "fusion_lon": 0.0, "lat": 38.898988333333335, "is_disabled": 0, "name": "32c40bfeda5e65518c5c37ab533c9b8b", "fusion_lat": 0.0, "rental_uris": {"ios": "https://dc.lft.to/lastmile_qr_scan", "android": "https://dc.lft.to/lastmile_qr_scan"}, "lon": -77.0328665, "type": "electric_scooter"}, {"bike_id": "ca5d5dec8e3669a4711cded627588cdf", "is_reserved": 0, "fusion_lon": 0.0, "lat": 38.90569133333333, "is_disabled": 0, "name": "ca5d5dec8e3669a4711cded627588cdf", "fusion_lat": 0.0, "rental_uris": {"ios": "https://dc.lft.to/lastmile_qr_scan", "android": "https://dc.lft.to/lastmile_qr_scan"}, "lon": -77.03827033333333, "type": "electric_scooter"}, {"bike_id": "95671d8d2ae1a953ac6c0482d4bbbab3", "is_reserved": 0, "fusion_lon": 0.0, "lat": 38.93861116666667, "is_disabled": 0, "name": "95671d8d2ae1a953ac6c0482d4bbbab3", "fusion_lat": 0.0, "rental_uris": {"ios": "https://dc.lft.to/lastmile_qr_scan", "android": "https://dc.lft.to/lastmile_qr_scan"}, "lon": -77.02649533333333, "type": "electric_scooter"}, {"bike_id": "1a2e03bd474ffdbf73219f65571542ff", "is_reserved": 0, "fusion_lon": 0.0, "lat": 38.909585, "is_disabled": 0, "name": "1a2e03bd474ffdbf73219f65571542ff", "fusion_lat": 0.0, "rental_uris": {"ios": "https://dc.lft.to/lastmile_qr_scan", "android": "https://dc.lft.to/lastmile_qr_scan"}, "lon": -77.022748, "type": "electric_scooter"}, {"bike_id": "ca3654868ef6f1561d987d84dd3aaa45", "is_reserved": 0, "fusion_lon": 0.0, "lat": 38.8935655, "is_disabled": 0, "name": "ca3654868ef6f1561d987d84dd3aaa45", "fusion_lat": 0.0, "rental_uris": {"ios": "https://dc.lft.to/lastmile_qr_scan", "android": "https://dc.lft.to/lastmile_qr_scan"}, "lon": -77.00335816666667, "type": "electric_scooter"}, {"bike_id": "d514400f37dc7966924a3a5dba5c80f9", "is_reserved": 0, "fusion_lon": 0.0, "lat": 38.88460766666667, "is_disabled": 0, "name": "d514400f37dc7966924a3a5dba5c80f9", "fusion_lat": 0.0, "rental_uris": {"ios": "https://dc.lft.to/lastmile_qr_scan", "android": "https://dc.lft.to/lastmile_qr_scan"}, "lon": -77.00577916666667, "type": "electric_scooter"}, {"bike_id": "94c976185cb942da4c10e7d17d82f311", "is_reserved": 0, "fusion_lon": 0.0, "lat": 38.942713166666664, "is_disabled": 0, "name": "94c976185cb942da4c10e7d17d82f311", "fusion_lat": 0.0, "rental_uris": {"ios": "https://dc.lft.to/lastmile_qr_scan", "android": "https://dc.lft.to/lastmile_qr_scan"}, "lon": -76.98071816666666, "type": "electric_bike"}, {"bike_id": "3475f6b8693a61ad47737216c43f2da1", "is_reserved": 0, "fusion_lon": 0.0, "lat": 38.889959166666664, "is_disabled": 0, "name": "3475f6b8693a61ad47737216c43f2da1", "fusion_lat": 0.0, "rental_uris": {"ios": "https://dc.lft.to/lastmile_qr_scan", "android": "https://dc.lft.to/lastmile_qr_scan"}, "lon": -77.00343933333333, "type": "electric_scooter"}, {"bike_id": "99cd23f9c95cc252b4c9f0c80d6e0a6e", "is_reserved": 0, "fusion_lon": 0.0, "lat": 38.90392633333333, "is_disabled": 0, "name": "99cd23f9c95cc252b4c9f0c80d6e0a6e", "fusion_lat": 0.0, "rental_uris": {"ios": "https://dc.lft.to/lastmile_qr_scan", "android": "https://dc.lft.to/lastmile_qr_scan"}, "lon": -77.038799, "type": "electric_scooter"}, {"bike_id": "98260739a839cdd23c545b4efd35231c", "is_reserved": 0, "fusion_lon": 0.0, "lat": 38.89250883333333, "is_disabled": 0, "name": "98260739a839cdd23c545b4efd35231c", "fusion_lat": 0.0, "rental_uris": {"ios": "https://dc.lft.to/lastmile_qr_scan", "android": "https://dc.lft.to/lastmile_qr_scan"}, "lon": -76.94334883333333, "type": "electric_scooter"}, {"bike_id": "8e817484ab9932202370c0369a8ee1a3", "is_reserved": 0, "fusion_lon": 0.0, "lat": 38.90529333333333, "is_disabled": 0, "name": "8e817484ab9932202370c0369a8ee1a3", "fusion_lat": 0.0, "rental_uris": {"ios": "https://dc.lft.to/lastmile_qr_scan", "android": "https://dc.lft.to/lastmile_qr_scan"}, "lon": -77.059717, "type": "electric_scooter"}, {"bike_id": "d00bf693dff4498dd51a478a99e3edf2", "is_reserved": 0, "fusion_lon": 0.0, "lat": 38.90263216666666, "is_disabled": 0, "name": "d00bf693dff4498dd51a478a99e3edf2", "fusion_lat": 0.0, "rental_uris": {"ios": "https://dc.lft.to/lastmile_qr_scan", "android": "https://dc.lft.to/lastmile_qr_scan"}, "lon": -77.03931133333333, "type": "electric_scooter"}, {"bike_id": "d66754289349dbd166b55a0b6709c49c", "is_reserved": 0, "fusion_lon": 0.0, "lat": 38.8955565, "is_disabled": 0, "name": "d66754289349dbd166b55a0b6709c49c", "fusion_lat": 0.0, "rental_uris": {"ios": "https://dc.lft.to/lastmile_qr_scan", "android": "https://dc.lft.to/lastmile_qr_scan"}, "lon": -76.98072433333333, "type": "electric_scooter"}, {"bike_id": "0b8675f76a622e496c7a925c657e768c", "is_reserved": 0, "fusion_lon": 0.0, "lat": 38.896202833333334, "is_disabled": 0, "name": "0b8675f76a622e496c7a925c657e768c", "fusion_lat": 0.0, "rental_uris": {"ios": "https://dc.lft.to/lastmile_qr_scan", "android": "https://dc.lft.to/lastmile_qr_scan"}, "lon": -76.99574216666667, "type": "electric_scooter"}, {"bike_id": "8d785c75ae8ec4e4cae974a6b607f3a9", "is_reserved": 0, "fusion_lon": 0.0, "lat": 38.892246166666666, "is_disabled": 0, "name": "8d785c75ae8ec4e4cae974a6b607f3a9", "fusion_lat": 0.0, "rental_uris": {"ios": "https://dc.lft.to/lastmile_qr_scan", "android": "https://dc.lft.to/lastmile_qr_scan"}, "lon": -77.03337983333333, "type": "electric_scooter"}, {"bike_id": "4d35e3ee038c1c7effbf935073be56ad", "is_reserved": 0, "fusion_lon": 0.0, "lat": 38.96764866666667, "is_disabled": 0, "name": "4d35e3ee038c1c7effbf935073be56ad", "fusion_lat": 0.0, "rental_uris": {"ios": "https://dc.lft.to/lastmile_qr_scan", "android": "https://dc.lft.to/lastmile_qr_scan"}, "lon": -77.09166433333333, "type": "electric_bike"}, {"bike_id": "309ec9ec1ba543eef7dd881e2eea4a27", "is_reserved": 0, "fusion_lon": 0.0, "lat": 38.9264365, "is_disabled": 0, "name": "309ec9ec1ba543eef7dd881e2eea4a27", "fusion_lat": 0.0, "rental_uris": {"ios": "https://dc.lft.to/lastmile_qr_scan", "android": "https://dc.lft.to/lastmile_qr_scan"}, "lon": -77.02149983333334, "type": "electric_scooter"}, {"bike_id": "359e50c76044bc3ea03d935c338cd199", "is_reserved": 0, "fusion_lon": 0.0, "lat": 38.903071, "is_disabled": 0, "name": "359e50c76044bc3ea03d935c338cd199", "fusion_lat": 0.0, "rental_uris": {"ios": "https://dc.lft.to/lastmile_qr_scan", "android": "https://dc.lft.to/lastmile_qr_scan"}, "lon": -77.02586083333334, "type": "electric_scooter"}, {"bike_id": "5bf9d873a998bf96f5d40711c1353c06", "is_reserved": 0, "fusion_lon": 0.0, "lat": 38.913352, "is_disabled": 0, "name": "5bf9d873a998bf96f5d40711c1353c06", "fusion_lat": 0.0, "rental_uris": {"ios": "https://dc.lft.to/lastmile_qr_scan", "android": "https://dc.lft.to/lastmile_qr_scan"}, "lon": -77.03443766666666, "type": "electric_scooter"}, {"bike_id": "4c135a222de50f8c0a18ce02b5b3d899", "is_reserved": 0, "fusion_lon": 0.0, "lat": 38.9041835, "is_disabled": 0, "name": "4c135a222de50f8c0a18ce02b5b3d899", "fusion_lat": 0.0, "rental_uris": {"ios": "https://dc.lft.to/lastmile_qr_scan", "android": "https://dc.lft.to/lastmile_qr_scan"}, "lon": -77.0293845, "type": "electric_scooter"}, {"bike_id": "9d93164ebcfd31b2025d05fcce8d6cc9", "is_reserved": 0, "fusion_lon": 0.0, "lat": 38.9010695, "is_disabled": 0, "name": "9d93164ebcfd31b2025d05fcce8d6cc9", "fusion_lat": 0.0, "rental_uris": {"ios": "https://dc.lft.to/lastmile_qr_scan", "android": "https://dc.lft.to/lastmile_qr_scan"}, "lon": -77.04365833333334, "type": "electric_scooter"}, {"bike_id": "cbb38894afea4a8ea8c6f467297e3703", "is_reserved": 0, "fusion_lon": 0.0, "lat": 38.917564166666665, "is_disabled": 0, "name": "cbb38894afea4a8ea8c6f467297e3703", "fusion_lat": 0.0, "rental_uris": {"ios": "https://dc.lft.to/lastmile_qr_scan", "android": "https://dc.lft.to/lastmile_qr_scan"}, "lon": -77.01604866666666, "type": "electric_scooter"}, {"bike_id": "530e16548af241f4ed7c14833fcd96e5", "is_reserved": 0, "fusion_lon": 0.0, "lat": 38.861619833333336, "is_disabled": 0, "name": "530e16548af241f4ed7c14833fcd96e5", "fusion_lat": 0.0, "rental_uris": {"ios": "https://dc.lft.to/lastmile_qr_scan", "android": "https://dc.lft.to/lastmile_qr_scan"}, "lon": -77.130954, "type": "electric_bike"}, {"bike_id": "a5eeb5a970625844aab928a3b6a9ab92", "is_reserved": 0, "fusion_lon": 0.0, "lat": 38.88152866666667, "is_disabled": 0, "name": "a5eeb5a970625844aab928a3b6a9ab92", "fusion_lat": 0.0, "rental_uris": {"ios": "https://dc.lft.to/lastmile_qr_scan", "android": "https://dc.lft.to/lastmile_qr_scan"}, "lon": -77.02739683333333, "type": "electric_scooter"}, {"bike_id": "ddf0502deecf6b1a5c78584c55905b22", "is_reserved": 0, "fusion_lon": 0.0, "lat": 38.90554983333333, "is_disabled": 0, "name": "ddf0502deecf6b1a5c78584c55905b22", "fusion_lat": 0.0, "rental_uris": {"ios": "https://dc.lft.to/lastmile_qr_scan", "android": "https://dc.lft.to/lastmile_qr_scan"}, "lon": -77.03981616666667, "type": "electric_scooter"}, {"bike_id": "31a7ad352836356315539a92cc26017e", "is_reserved": 0, "fusion_lon": 0.0, "lat": 38.90469816666667, "is_disabled": 0, "name": "31a7ad352836356315539a92cc26017e", "fusion_lat": 0.0, "rental_uris": {"ios": "https://dc.lft.to/lastmile_qr_scan", "android": "https://dc.lft.to/lastmile_qr_scan"}, "lon": -77.038599, "type": "electric_scooter"}, {"bike_id": "ae7d77e49244f4cb9d1b86878e64e65a", "is_reserved": 0, "fusion_lon": 0.0, "lat": 38.91693433333333, "is_disabled": 0, "name": "ae7d77e49244f4cb9d1b86878e64e65a", "fusion_lat": 0.0, "rental_uris": {"ios": "https://dc.lft.to/lastmile_qr_scan", "android": "https://dc.lft.to/lastmile_qr_scan"}, "lon": -77.037677, "type": "electric_scooter"}, {"bike_id": "21fdd15b88f12ba1e032e2d16f960423", "is_reserved": 0, "fusion_lon": 0.0, "lat": 38.89874666666667, "is_disabled": 0, "name": "21fdd15b88f12ba1e032e2d16f960423", "fusion_lat": 0.0, "rental_uris": {"ios": "https://dc.lft.to/lastmile_qr_scan", "android": "https://dc.lft.to/lastmile_qr_scan"}, "lon": -76.931578, "type": "electric_scooter"}, {"bike_id": "88b8a3092be4a8c970228969e0ee259f", "is_reserved": 0, "fusion_lon": 0.0, "lat": 38.90601233333334, "is_disabled": 0, "name": "88b8a3092be4a8c970228969e0ee259f", "fusion_lat": 0.0, "rental_uris": {"ios": "https://dc.lft.to/lastmile_qr_scan", "android": "https://dc.lft.to/lastmile_qr_scan"}, "lon": -77.03981416666667, "type": "electric_scooter"}, {"bike_id": "cc9cd41e86846e8081f662fcaf6284c1", "is_reserved": 0, "fusion_lon": 0.0, "lat": 38.90972333333333, "is_disabled": 0, "name": "cc9cd41e86846e8081f662fcaf6284c1", "fusion_lat": 0.0, "rental_uris": {"ios": "https://dc.lft.to/lastmile_qr_scan", "android": "https://dc.lft.to/lastmile_qr_scan"}, "lon": -77.0272595, "type": "electric_scooter"}, {"bike_id": "a110a06f3be5d1010e6445c493333c68", "is_reserved": 0, "fusion_lon": 0.0, "lat": 38.912144833333336, "is_disabled": 0, "name": "a110a06f3be5d1010e6445c493333c68", "fusion_lat": 0.0, "rental_uris": {"ios": "https://dc.lft.to/lastmile_qr_scan", "android": "https://dc.lft.to/lastmile_qr_scan"}, "lon": -77.04875316666667, "type": "electric_scooter"}, {"bike_id": "44b92ec1b79c279e6a9daefce250dbb1", "is_reserved": 0, "fusion_lon": 0.0, "lat": 38.901121333333336, "is_disabled": 0, "name": "44b92ec1b79c279e6a9daefce250dbb1", "fusion_lat": 0.0, "rental_uris": {"ios": "https://dc.lft.to/lastmile_qr_scan", "android": "https://dc.lft.to/lastmile_qr_scan"}, "lon": -77.0435535, "type": "electric_scooter"}, {"bike_id": "b3c96e15ef15d743b3156a4a01a39571", "is_reserved": 0, "fusion_lon": 0.0, "lat": 38.912444, "is_disabled": 0, "name": "b3c96e15ef15d743b3156a4a01a39571", "fusion_lat": 0.0, "rental_uris": {"ios": "https://dc.lft.to/lastmile_qr_scan", "android": "https://dc.lft.to/lastmile_qr_scan"}, "lon": -77.0162005, "type": "electric_scooter"}, {"bike_id": "ff62984288f3cfedadbed3c55cba1f77", "is_reserved": 0, "fusion_lon": 0.0, "lat": 38.9121375, "is_disabled": 0, "name": "ff62984288f3cfedadbed3c55cba1f77", "fusion_lat": 0.0, "rental_uris": {"ios": "https://dc.lft.to/lastmile_qr_scan", "android": "https://dc.lft.to/lastmile_qr_scan"}, "lon": -77.00456966666667, "type": "electric_scooter"}, {"bike_id": "fb822c5b5181021d1cf4c80c22da9e12", "is_reserved": 0, "fusion_lon": 0.0, "lat": 38.9215685, "is_disabled": 0, "name": "fb822c5b5181021d1cf4c80c22da9e12", "fusion_lat": 0.0, "rental_uris": {"ios": "https://dc.lft.to/lastmile_qr_scan", "android": "https://dc.lft.to/lastmile_qr_scan"}, "lon": -77.032906, "type": "electric_scooter"},