{"data": {"bikes": [{"lon": -77.02975166666667, "lat": 38.9225355, "name": "30140e0cd3fd0ca1759a9f6ceb1ae8d3", "fusion_lat": 0.0, "fusion_lon": 0.0, "rental_uris": {"android": "https://dc.lft.to/lastmile_qr_scan", "ios": "https://dc.lft.to/lastmile_qr_scan"}, "is_reserved": 0, "is_disabled": 0, "type": "electric_scooter", "bike_id": "30140e0cd3fd0ca1759a9f6ceb1ae8d3"}, {"lon": -76.99845416666666, "lat": 38.900414, "name": "b991fd6a01f31a0d8b7e9c1a0d024a2b", "fusion_lat": 0.0, "fusion_lon": 0.0, "rental_uris": {"android": "https://dc.lft.to/lastmile_qr_scan", "ios": "https://dc.lft.to/lastmile_qr_scan"}, "is_reserved": 0, "is_disabled": 0, "type": "electric_scooter", "bike_id": "b991fd6a01f31a0d8b7e9c1a0d024a2b"}, {"lon": -76.91654216666667, "lat": 38.86860016666667, "name": "375abf9fd1b013d89cc6dd910d0c61d5", "fusion_lat": 0.0, "fusion_lon": 0.0, "rental_uris": {"android": "https://dc.lft.to/lastmile_qr_scan", "ios": "https://dc.lft.to/lastmile_qr_scan"}, "is_reserved": 0, "is_disabled": 0, "type": "electric_bike", "bike_id": "375abf9fd1b013d89cc6dd910d0c61d5"}, {"lon": -77.02927166666667, "lat": 38.9346715, "name": "355a496ca7d6f9acd671c3c91940fa27", "fusion_lat": 0.0, "fusion_lon": 0.0, "rental_uris": {"android": "https://dc.lft.to/lastmile_qr_scan", "ios": "https://dc.lft.to/lastmile_qr_scan"}, "is_reserved": 0, "is_disabled": 0, "type": "electric_scooter", "bike_id": "355a496ca7d6f9acd671c3c91940fa27"}, {"lon": -77.00213816666667, "lat": 38.902190166666664, "name": "17e9a590d420da27db7410eb7df62be5", "fusion_lat": 0.0, "fusion_lon": 0.0, "rental_uris": {"android": "https://dc.lft.to/lastmile_qr_scan", "ios": "https://dc.lft.to/lastmile_qr_scan"}, "is_reserved": 0, "is_disabled": 0, "type": "electric_scooter", "bike_id": "17e9a590d420da27db7410eb7df62be5"}, {"lon": -77.04343, "lat": 38.89657666666667, "name": "435530cda8cde7b6dc14f2e9d3c72da8", "fusion_lat": 0.0, "fusion_lon": 0.0, "rental_uris": {"android": "https://dc.lft.to/lastmile_qr_scan", "ios": "https://dc.lft.to/lastmile_qr_scan"}, "is_reserved": 0, "is_disabled": 0, "type": "electric_scooter", "bike_id": "435530cda8cde7b6dc14f2e9d3c72da8"}, {"lon": -77.10767666666666, "lat": 38.892271666666666, "name": "16b07e11034397dd0a0cc1788e6acd28", "fusion_lat": 0.0, "fusion_lon": 0.0, "rental_uris": {"android": "https://dc.lft.to/lastmile_qr_scan", "ios": "https://dc.lft.to/lastmile_qr_scan"}, "is_reserved": 0, "is_disabled": 0, "type": "electric_bike", "bike_id": "16b07e11034397dd0a0cc1788e6acd28"}, {"lon": -77.03088183333334, "lat": 38.904298, "name": "d225f736b4de1592bc7b3e2234e64142", "fusion_lat": 0.0, "fusion_lon": 0.0, "rental_uris": {"android": "https://dc.lft.to/lastmile_qr_scan", "ios": "https://dc.lft.to/lastmile_qr_scan"}, "is_reserved": 0, "is_disabled": 0, "type": "electric_scooter", "bike_id": "d225f736b4de1592bc7b3e2234e64142"}, {"lon": -77.02968983333334, "lat": 38.91675016666667, "name": "74c881574dff8968706196e9901115a7", "fusion_lat": 0.0, "fusion_lon": 0.0, "rental_uris": {"android": "https://dc.lft.to/lastmile_qr_scan", "ios": "https://dc.lft.to/lastmile_qr_scan"}, "is_reserved": 0, "is_disabled": 0, "type": "electric_scooter", "bike_id": "74c881574dff8968706196e9901115a7"}, {"lon": -77.02187633333334, "lat": 38.899579833333334, "name": "c744c59dcc7a0e4c3b8cbc78b9939b32", "fusion_lat": 0.0, "fusion_lon": 0.0, "rental_uris": {"android": "https://dc.lft.to/lastmile_qr_scan", "ios": "https://dc.lft.to/lastmile_qr_scan"}, "is_reserved": 0, "is_disabled": 0, "type": "electric_scooter", "bike_id": "c744c59dcc7a0e4c3b8cbc78b9939b32"}, {"lon": -77.04366733333333, "lat": 38.903871, "name": "8b1cda904e2bfe34749f0c8240203e19", "fusion_lat": 0.0, "fusion_lon": 0.0, "rental_uris": {"android": "https://dc.lft.to/lastmile_qr_scan", "ios": "https://dc.lft.to/lastmile_qr_scan"}, "is_reserved": 0, "is_disabled": 0, "type": "electric_scooter", "bike_id": "8b1cda904e2bfe34749f0c8240203e19"}, {"lon": -77.103328, "lat": 38.9650245, "name": "55dfdd15a24ccaaa2e0849e5506d9ecd", "fusion_lat": 0.0, "fusion_lon": 0.0, "rental_uris": {"android": "https://dc.lft.to/lastmile_qr_scan", "ios": "https://dc.lft.to/lastmile_qr_scan"}, "is_reserved": 0, "is_disabled": 0, "type": "electric_bike", "bike_id": "55dfdd15a24ccaaa2e0849e5506d9ecd"}, {"lon": -77.02423766666666, "lat": 38.926080166666665, "name": "98104a48f1e1a950c2154065874ce048", "fusion_lat": 0.0, "fusion_lon": 0.0, "rental_uris": {"android": "https://dc.lft.to/lastmile_qr_scan", "ios": "https://dc.lft.to/lastmile_qr_scan"}, "is_reserved": 0, "is_disabled": 0, "type": "electric_scooter", "bike_id": "98104a48f1e1a950c2154065874ce048"}, {"lon": -76.94904266666667, "lat": 38.895470833333334, "name": "28488b105240506b29d3e9375f220bc9", "fusion_lat": 0.0, "fusion_lon": 0.0, "rental_uris": {"android": "https://dc.lft.to/lastmile_qr_scan", "ios": "https://dc.lft.to/lastmile_qr_scan"}, "is_reserved": 0, "is_disabled": 0, "type": "electric_scooter", "bike_id": "28488b105240506b29d3e9375f220bc9"}, {"lon": -77.0159575, "lat": 38.95761666666667, "name": "8c06eed4b3c18e97d37fdf43c60fbeaf", "fusion_lat": 0.0, "fusion_lon": 0.0, "rental_uris": {"android": "https://dc.lft.to/lastmile_qr_scan", "ios": "https://dc.lft.to/lastmile_qr_scan"}, "is_reserved": 0, "is_disabled": 0, "type": "electric_scooter", "bike_id": "8c06eed4b3c18e97d37fdf43c60fbeaf"}, {"lon": -77.02842833333334, "lat": 38.9170305, "name": "6178208eab841c5cdf07fb94476596dc", "fusion_lat": 0.0, "fusion_lon": 0.0, "rental_uris": {"android": "https://dc.lft.to/lastmile_qr_scan", "ios": "https://dc.lft.to/lastmile_qr_scan"}, "is_reserved": 0, "is_disabled": 0, "type": "electric_scooter", "bike_id": "6178208eab841c5cdf07fb94476596dc"}, {"lon": -77.0164845, "lat": 38.92937766666667, "name": "851bf3a35daca4f142d84aded5858d5a", "fusion_lat": 0.0, "fusion_lon": 0.0, "rental_uris": {"android": "https://dc.lft.to/lastmile_qr_scan", "ios": "https://dc.lft.to/lastmile_qr_scan"}, "is_reserved": 0, "is_disabled": 0, "type": "electric_scooter", "bike_id": "851bf3a35daca4f142d84aded5858d5a"}, {"lon": -76.95183583333333, "lat": 38.891328333333334, "name": "3f75916db732c3524badf16841c6d8d3", "fusion_lat": 0.0, "fusion_lon": 0.0, "rental_uris": {"android": "https://dc.lft.to/lastmile_qr_scan", "ios": "https://dc.lft.to/lastmile_qr_scan"}, "is_reserved": 0, "is_disabled": 0, "type": "electric_scooter", "bike_id": "3f75916db732c3524badf16841c6d8d3"}, {"lon": -77.00927283333333, "lat": 38.90927033333333, "name": "2e4de3525ceca2291034e82796003969", "fusion_lat": 0.0, "fusion_lon": 0.0, "rental_uris": {"android": "https://dc.lft.to/lastmile_qr_scan", "ios": "https://dc.lft.to/lastmile_qr_scan"}, "is_reserved": 0, "is_disabled": 0, "type": "electric_scooter", "bike_id": "2e4de3525ceca2291034e82796003969"}, {"lon": -77.02164033333334, "lat": 38.92608933333333, "name": "bf13f9c73c10ce90496cabcae1e5a01b", "fusion_lat": 0.0, "fusion_lon": 0.0, "rental_uris": {"android": "https://dc.lft.to/lastmile_qr_scan", "ios": "https://dc.lft.to/lastmile_qr_scan"}, "is_reserved": 0, "is_disabled": 0, "type": "electric_scooter", "bike_id": "bf13f9c73c10ce90496cabcae1e5a01b"}, {"lon": -77.00876916666667, "lat": 38.9051005, "name": "88d095e795a4f9c13f76989ed69c1dfc", "fusion_lat": 0.0, "fusion_lon": 0.0, "rental_uris": {"android": "https://dc.lft.to/lastmile_qr_scan", "ios": "https://dc.lft.to/lastmile_qr_scan"}, "is_reserved": 0, "is_disabled": 0, "type": "electric_scooter", "bike_id": "88d095e795a4f9c13f76989ed69c1dfc"}, {"lon": -77.0336105, "lat": 38.885023333333336, "name": "38f7bf888bec503a6a5a299ba896fa43", "fusion_lat": 0.0, "fusion_lon": 0.0, "rental_uris": {"android": "https://dc.lft.to/lastmile_qr_scan", "ios": "https://dc.lft.to/lastmile_qr_scan"}, "is_reserved": 0, "is_disabled": 0, "type": "electric_scooter", "bike_id": "38f7bf888bec503a6a5a299ba896fa43"}, {"lon": -77.03848633333334, "lat": 38.91085616666667, "name": "6b13729ef64cfae620fc3c8aa3caf80d", "fusion_lat": 0.0, "fusion_lon": 0.0, "rental_uris": {"android": "https://dc.lft.to/lastmile_qr_scan", "ios": "https://dc.lft.to/lastmile_qr_scan"}, "is_reserved": 0, "is_disabled": 0, "type": "electric_scooter", "bike_id": "6b13729ef64cfae620fc3c8aa3caf80d"}, {"lon": -77.09528133333333, "lat": 38.838115333333334, "name": "7c2fa2b440c086ccb83c8aa5e71f792a", "fusion_lat": 0.0, "fusion_lon": 0.0, "rental_uris": {"android": "https://dc.lft.to/lastmile_qr_scan", "ios": "https://dc.lft.to/lastmile_qr_scan"}, "is_reserved": 0, "is_disabled": 0, "type": "electric_bike", "bike_id": "7c2fa2b440c086ccb83c8aa5e71f792a"}, {"lon": -77.04448483333333, "lat": 38.918740666666665, "name": "817284b13fac30036e42f62777aed728", "fusion_lat": 0.0, "fusion_lon": 0.0, "rental_uris": {"android": "https://dc.lft.to/lastmile_qr_scan", "ios": "https://dc.lft.to/lastmile_qr_scan"}, "is_reserved": 0, "is_disabled": 0, "type": "electric_scooter", "bike_id": "817284b13fac30036e42f62777aed728"}, {"lon": -77.03064466666666, "lat": 38.922521333333336, "name": "d0e65683982324cb11e2ee674ee3195e", "fusion_lat": 0.0, "fusion_lon": 0.0, "rental_uris": {"android": "https://dc.lft.to/lastmile_qr_scan", "ios": "https://dc.lft.to/lastmile_qr_scan"}, "is_reserved": 0, "is_disabled": 0, "type": "electric_scooter", "bike_id": "d0e65683982324cb11e2ee674ee3195e"}, {"lon": -77.05585866666667, "lat": 38.92777783333333, "name": "3527c7e5a5d3e6df2146d4a53d157ff7", "fusion_lat": 0.0, "fusion_lon": 0.0, "rental_uris": {"android": "https://dc.lft.to/lastmile_qr_scan", "ios": "https://dc.lft.to/lastmile_qr_scan"}, "is_reserved": 0, "is_disabled": 0, "type": "electric_scooter", "bike_id": "3527c7e5a5d3e6df2146d4a53d157ff7"}, {"lon": -77.04525016666666, "lat": 38.90975266666667, "name": "8cf40d969cc6734a96b91f42577d22c1", "fusion_lat": 0.0, "fusion_lon": 0.0, "rental_uris": {"android": "https://dc.lft.to/lastmile_qr_scan", "ios": "https://dc.lft.to/lastmile_qr_scan"}, "is_reserved": 0, "is_disabled": 0, "type": "electric_scooter", "bike_id": "8cf40d969cc6734a96b91f42577d22c1"}, {"lon": -77.04377783333334, "lat": 38.892238166666665, "name": "46755ce3dc198d20ff00a7aeb3d5c45f", "fusion_lat": 0.0, "fusion_lon": 0.0, "rental_uris": {"android": "https://dc.lft.to/lastmile_qr_scan", "ios": "https://dc.lft.to/lastmile_qr_scan"}, "is_reserved": 0, "is_disabled": 0, "type": "electric_scooter", "bike_id": "46755ce3dc198d20ff00a7aeb3d5c45f"}, {"lon": -77.07569983333333, "lat": 38.920879166666666, "name": "23baee8660c9ce4c3a10b2d0515ee776", "fusion_lat": 0.0, "fusion_lon": 0.0, "rental_uris": {"android": "https://dc.lft.to/lastmile_qr_scan", "ios": "https://dc.lft.to/lastmile_qr_scan"}, "is_reserved": 0, "is_disabled": 0, "type": "electric_scooter", "bike_id": "23baee8660c9ce4c3a10b2d0515ee776"}, {"lon": -77.02781266666666, "lat": 38.89384666666667, "name": "c118214f0bd406069d2fa0e96a2a6b30", "fusion_lat": 0.0, "fusion_lon": 0.0, "rental_uris": {"android": "https://dc.lft.to/lastmile_qr_scan", "ios": "https://dc.lft.to/lastmile_qr_scan"}, "is_reserved": 0, "is_disabled": 0, "type": "electric_scooter", "bike_id": "c118214f0bd406069d2fa0e96a2a6b30"}, {"lon": -77.03183916666667, "lat": 38.91890716666666, "name": "c8e072a411bb4b120470a4b0aeabba02", "fusion_lat": 0.0, "fusion_lon": 0.0, "rental_uris": {"android": "https://dc.lft.to/lastmile_qr_scan", "ios": "https://dc.lft.to/lastmile_qr_scan"}, "is_reserved": 0, "is_disabled": 0, "type": "electric_scooter", "bike_id": "c8e072a411bb4b120470a4b0aeabba02"}, {"lon": -76.95817566666666, "lat": 38.89056433333333, "name": "421e5eee0bae08d8a6d68adc7dc86831", "fusion_lat": 0.0, "fusion_lon": 0.0, "rental_uris": {"android": "https://dc.lft.to/lastmile_qr_scan", "ios": "https://dc.lft.to/lastmile_qr_scan"}, "is_reserved": 0, "is_disabled": 0, "type": "electric_scooter", "bike_id": "421e5eee0bae08d8a6d68adc7dc86831"}, {"lon": -77.02161733333334, "lat": 38.886323, "name": "e8d24a6bf956511d54b148f40a243c49", "fusion_lat": 0.0, "fusion_lon": 0.0, "rental_uris": {"android": "https://dc.lft.to/lastmile_qr_scan", "ios": "https://dc.lft.to/lastmile_qr_scan"}, "is_reserved": 0, "is_disabled": 0, "type": "electric_scooter", "bike_id": "e8d24a6bf956511d54b148f40a243c49"}, {"lon": -77.03201083333333, "lat": 38.914567166666664, "name": "1c1b9ee14735c4c8a0be45e1cec03906", "fusion_lat": 0.0, "fusion_lon": 0.0, "rental_uris": {"android": "https://dc.lft.to/lastmile_qr_scan", "ios": "https://dc.lft.to/lastmile_qr_scan"}, "is_reserved": 0, "is_disabled": 0, "type": "electric_scooter", "bike_id": "1c1b9ee14735c4c8a0be45e1cec03906"}, {"lon": -77.04215933333333, "lat": 38.933309666666666, "name": "d435f9be7385347d89cce9e582d37d28", "fusion_lat": 0.0, "fusion_lon": 0.0, "rental_uris": {"android": "https://dc.lft.to/lastmile_qr_scan", "ios": "https://dc.lft.to/lastmile_qr_scan"}, "is_reserved": 0, "is_disabled": 0, "type": "electric_bike", "bike_id": "d435f9be7385347d89cce9e582d37d28"}, {"lon": -77.00137866666667, "lat": 38.90403166666667, "name": "8c103274c88e6e026b7cb215d2ae3ade", "fusion_lat": 0.0, "fusion_lon": 0.0, "rental_uris": {"android": "https://dc.lft.to/lastmile_qr_scan", "ios": "https://dc.lft.to/lastmile_qr_scan"}, "is_reserved": 0, "is_disabled": 0, "type": "electric_scooter", "bike_id": "8c103274c88e6e026b7cb215d2ae3ade"}, {"lon": -77.02188966666667, "lat": 38.92266716666666, "name": "16d8b4622d3348b7127d91d93d1544bd", "fusion_lat": 0.0, "fusion_lon": 0.0, "rental_uris": {"android": "https://dc.lft.to/lastmile_qr_scan", "ios": "https://dc.lft.to/lastmile_qr_scan"}, "is_reserved": 0, "is_disabled": 0, "type": "electric_scooter", "bike_id": "16d8b4622d3348b7127d91d93d1544bd"}, {"lon": -77.10336333333333, "lat": 38.852257, "name": "66ef103c73bb62509cbe960533e350b8", "fusion_lat": 0.0, "fusion_lon": 0.0, "rental_uris": {"android": "https://dc.lft.to/lastmile_qr_scan", "ios": "https://dc.lft.to/lastmile_qr_scan"}, "is_reserved": 0, "is_disabled": 0, "type": "electric_bike", "bike_id": "66ef103c73bb62509cbe960533e350b8"}, {"lon": -77.03162366666666, "lat": 38.91413133333333, "name": "cccc2b7c8218e504f2a4611a6429da07", "fusion_lat": 0.0, "fusion_lon": 0.0, "rental_uris": {"android": "https://dc.lft.to/lastmile_qr_scan", "ios": "https://dc.lft.to/lastmile_qr_scan"}, "is_reserved": 0, "is_disabled": 0, "type": "electric_scooter", "bike_id": "cccc2b7c8218e504f2a4611a6429da07"}, {"lon": -77.0297905, "lat": 38.962271333333334, "name": "d9aaf50c1ca07c50048d69bd68922a61", "fusion_lat": 0.0, "fusion_lon": 0.0, "rental_uris": {"android": "https://dc.lft.to/lastmile_qr_scan", "ios": "https://dc.lft.to/lastmile_qr_scan"}, "is_reserved": 0, "is_disabled": 0, "type": "electric_scooter", "bike_id": "d9aaf50c1ca07c50048d69bd68922a61"}, {"lon": -77.0066605, "lat": 38.955643, "name": "39a49b1e7389981f66115e0b4654a547", "fusion_lat": 0.0, "fusion_lon": 0.0, "rental_uris": {"android": "https://dc.lft.to/lastmile_qr_scan", "ios": "https://dc.lft.to/lastmile_qr_scan"}, "is_reserved": 0, "is_disabled": 0, "type": "electric_scooter", "bike_id": "39a49b1e7389981f66115e0b4654a547"}, {"lon": -77.012035, "lat": 38.900184333333335, "name": "2f7748ec828bb2c11d900735f6f4fe59", "fusion_lat": 0.0, "fusion_lon": 0.0, "rental_uris": {"android": "https://dc.lft.to/lastmile_qr_scan", "ios": "https://dc.lft.to/lastmile_qr_scan"}, "is_reserved": 0, "is_disabled": 0, "type": "electric_scooter", "bike_id": "2f7748ec828bb2c11d900735f6f4fe59"}, {"lon": -77.040588, "lat": 38.895373666666664, "name": "c5039d08a140c89ab81ae24efddd0269", "fusion_lat": 0.0, "fusion_lon": 0.0, "rental_uris": {"android": "https://dc.lft.to/lastmile_qr_scan", "ios": "https://dc.lft.to/lastmile_qr_scan"}, "is_reserved": 0, "is_disabled": 0, "type": "electric_scooter", "bike_id": "c5039d08a140c89ab81ae24efddd0269"}, {"lon": -77.04524433333333, "lat": 38.89216866666666, "name": "2a55d46b54f1351307bc383514f97acb", "fusion_lat": 0.0, "fusion_lon": 0.0, "rental_uris": {"android": "https://dc.lft.to/lastmile_qr_scan", "ios": "https://dc.lft.to/lastmile_qr_scan"}, "is_reserved": 0, "is_disabled": 0, "type": "electric_scooter", "bike_id": "2a55d46b54f1351307bc383514f97acb"}, {"lon": -77.02493366666667, "lat": 38.917515, "name": "714436536eed6aec4d87503eac3ee09d", "fusion_lat": 0.0, "fusion_lon": 0.0, "rental_uris": {"android": "https://dc.lft.to/lastmile_qr_scan", "ios": "https://dc.lft.to/lastmile_qr_scan"}, "is_reserved": 0, "is_disabled": 0, "type": "electric_scooter", "bike_id": "714436536eed6aec4d87503eac3ee09d"}, {"lon": -77.1295785, "lat": 38.85218, "name": "96bfe6514d637aa2728cdf83928eb614", "fusion_lat": 0.0, "fusion_lon": 0.0, "rental_uris": {"android": "https://dc.lft.to/lastmile_qr_scan", "ios": "https://dc.lft.to/lastmile_qr_scan"}, "is_reserved": 0, "is_disabled": 0, "type": "electric_bike", "bike_id": "96bfe6514d637aa2728cdf83928eb614"}, {"lon": -76.94216133333333, "lat": 38.8966615, "name": "88827c7ed4f81d37b32f036019c706cf", "fusion_lat": 0.0, "fusion_lon": 0.0, "rental_uris": {"android": "https://dc.lft.to/lastmile_qr_scan", "ios": "https://dc.lft.to/lastmile_qr_scan"}, "is_reserved": 0, "is_disabled": 0, "type": "electric_scooter", "bike_id": "88827c7ed4f81d37b32f036019c706cf"}, {"lon": -77.03338966666666, "lat": 38.92159, "name": "051b4d21063354c91d476390aee20628", "fusion_lat": 0.0, "fusion_lon": 0.0, "rental_uris": {"android": "https://dc.lft.to/lastmile_qr_scan", "ios": "https://dc.lft.to/lastmile_qr_scan"}, "is_reserved": 0, "is_disabled": 0, "type": "electric_scooter", "bike_id": "051b4d21063354c91d476390aee20628"}, {"lon": -77.01681216666667, "lat": 38.877101, "name": "c9707ebeb912ce42ddc8a4742e2ff4d3", "fusion_lat": 0.0, "fusion_lon": 0.0, "rental_uris": {"android": "https://dc.lft.to/lastmile_qr_scan", "ios": "https://dc.lft.to/lastmile_qr_scan"}, "is_reserved": 0, "is_disabled": 0, "type": "electric_scooter", "bike_id": "c9707ebeb912ce42ddc8a4742e2ff4d3"}, {"lon": -76.99522183333333, "lat": 38.894731166666666, "name": "1008361868025f6fe77a37bf321c88c9", "fusion_lat": 0.0, "fusion_lon": 0.0, "rental_uris": {"android": "https://dc.lft.to/lastmile_qr_scan", "ios": "https://dc.lft.to/lastmile_qr_scan"}, "is_reserved": 0, "is_disabled": 0, "type": "electric_scooter", "bike_id": "1008361868025f6fe77a37bf321c88c9"}, {"lon": -77.00338783333333, "lat": 38.89350866666667, "name": "94e1752c6da0932905200a35630be058", "fusion_lat": 0.0, "fusion_lon": 0.0, "rental_uris": {"android": "https://dc.lft.to/lastmile_qr_scan", "ios": "https://dc.lft.to/lastmile_qr_scan"}, "is_reserved": 0, "is_disabled": 0, "type": "electric_scooter", "bike_id": "94e1752c6da0932905200a35630be058"}, {"lon": -77.04636466666666, "lat": 38.892200833333334, "name": "b6a5a16bd828fa279d83523e7277f8cd", "fusion_lat": 0.0, "fusion_lon": 0.0, "rental_uris": {"android": "https://dc.lft.to/lastmile_qr_scan", "ios": "https://dc.lft.to/lastmile_qr_scan"}, "is_reserved": 0, "is_disabled": 0, "type": "electric_scooter", "bike_id": "b6a5a16bd828fa279d83523e7277f8cd"}, {"lon": -77.02229683333333, "lat": 38.91241633333333, "name": "a1b62379d04673fb1a6e59c2a81a94d1", "fusion_lat": 0.0, "fusion_lon": 0.0, "rental_uris": {"android": "https://dc.lft.to/lastmile_qr_scan", "ios": "https://dc.lft.to/lastmile_qr_scan"}, "is_reserved": 0, "is_disabled": 0, "type": "electric_scooter", "bike_id": "a1b62379d04673fb1a6e59c2a81a94d1"}, {"lon": -76.93230483333333, "lat": 38.86592916666667, "name": "976304242f84893147264ae8b7efb375", "fusion_lat": 0.0, "fusion_lon": 0.0, "rental_uris": {"android": "https://dc.lft.to/lastmile_qr_scan", "ios": "https://dc.lft.to/lastmile_qr_scan"}, "is_reserved": 0, "is_disabled": 0, "type": "electric_bike", "bike_id": "976304242f84893147264ae8b7efb375"}, {"lon": -77.09209916666667, "lat": 38.941297166666665, "name": "ebcbf005e055d3eb2f60d08097f6b653", "fusion_lat": 0.0, "fusion_lon": 0.0, "rental_uris": {"android": "https://dc.lft.to/lastmile_qr_scan", "ios": "https://dc.lft.to/lastmile_qr_scan"}, "is_reserved": 0, "is_disabled": 0, "type": "electric_scooter", "bike_id": "ebcbf005e055d3eb2f60d08097f6b653"}, {"lon": -77.00598516666666, "lat": 38.905868, "name": "152740bfe23ae9a9d73a4f7cc1f13c8f", "fusion_lat": 0.0, "fusion_lon": 0.0, "rental_uris": {"android": "https://dc.lft.to/lastmile_qr_scan", "ios": "https://dc.lft.to/lastmile_qr_scan"}, "is_reserved": 0, "is_disabled": 0, "type": "electric_scooter", "bike_id": "152740bfe23ae9a9d73a4f7cc1f13c8f"}, {"lon": -76.99119166666667, "lat": 38.90004733333333, "name": "85f44c8aa02c6453ff1e0005ba15cb8c", "fusion_lat": 0.0, "fusion_lon": 0.0, "rental_uris": {"android": "https://dc.lft.to/lastmile_qr_scan", "ios": "https://dc.lft.to/lastmile_qr_scan"}, "is_reserved": 0, "is_disabled": 0, "type": "electric_scooter", "bike_id": "85f44c8aa02c6453ff1e0005ba15cb8c"}, {"lon": -77.0235715, "lat": 38.919754833333336, "name": "75e98719a5317a7c2ddc00ec1af1b83f", "fusion_lat": 0.0, "fusion_lon": 0.0, "rental_uris": {"android": "https://dc.lft.to/lastmile_qr_scan", "ios": "https://dc.lft.to/lastmile_qr_scan"}, "is_reserved": 0, "is_disabled": 0, "type": "electric_scooter", "bike_id": "75e98719a5317a7c2ddc00ec1af1b83f"}, {"lon": -77.0446665, "lat": 38.897415333333335, "name": "5b1a4b5b487700e05280c458595d9442", "fusion_lat": 0.0, "fusion_lon": 0.0, "rental_uris": {"android": "https://dc.lft.to/lastmile_qr_scan", "ios": "https://dc.lft.to/lastmile_qr_scan"}, "is_reserved": 0, "is_disabled": 0, "type": "electric_bike", "bike_id": "5b1a4b5b487700e05280c458595d9442"}, {"lon": -77.03593816666667, "lat": 38.906835666666666, "name": "173fe76ed787d802ff04a1a71dffe24b", "fusion_lat": 0.0, "fusion_lon": 0.0, "rental_uris": {"android": "https://dc.lft.to/lastmile_qr_scan", "ios": "https://dc.lft.to/lastmile_qr_scan"}, "is_reserved": 0, "is_disabled": 0, "type": "electric_bike", "bike_id": "173fe76ed787d802ff04a1a71dffe24b"}, {"lon": -77.02707, "lat": 38.88120516666667, "name": "2a31856a4b780beff338cc4a0f753ab0", "fusion_lat": 0.0, "fusion_lon": 0.0, "rental_uris": {"android": "https://dc.lft.to/lastmile_qr_scan", "ios": "https://dc.lft.to/lastmile_qr_scan"}, "is_reserved": 0, "is_disabled": 0, "type": "electric_scooter", "bike_id": "2a31856a4b780beff338cc4a0f753ab0"}, {"lon": -77.07157516666666, "lat": 38.95839516666667, "name": "f5f15377769ab490d4f4ebf1b0196e55", "fusion_lat": 0.0, "fusion_lon": 0.0, "rental_uris": {"android": "https://dc.lft.to/lastmile_qr_scan", "ios": "https://dc.lft.to/lastmile_qr_scan"}, "is_reserved": 0, "is_disabled": 0, "type": "electric_scooter", "bike_id": "f5f15377769ab490d4f4ebf1b0196e55"}, {"lon": -77.12513783333333, "lat": 39.024181166666665, "name": "2b9b8d98de6546240e4c958cd0c5938c", "fusion_lat": 0.0, "fusion_lon": 0.0, "rental_uris": {"android": "https://dc.lft.to/lastmile_qr_scan", "ios": "https://dc.lft.to/lastmile_qr_scan"}, "is_reserved": 0, "is_disabled": 0, "type": "electric_bike", "bike_id": "2b9b8d98de6546240e4c958cd0c5938c"}, {"lon": -77.01706616666667, "lat": 38.901261166666664, "name": "e37ec20fc5b71bde70efec459375eb6d", "fusion_lat": 0.0, "fusion_lon": 0.0, "rental_uris": {"android": "https://dc.lft.to/lastmile_qr_scan", "ios": "https://dc.lft.to/lastmile_qr_scan"}, "is_reserved": 0, "is_disabled": 0, "type": "electric_scooter", "bike_id": "e37ec20fc5b71bde70efec459375eb6d"}, {"lon": -77.04906166666666, "lat": 38.888376, "name": "7907636bcf35a9dc9a054a8ddaeabd4a", "fusion_lat": 0.0, "fusion_lon": 0.0, "rental_uris": {"android": "https://dc.lft.to/lastmile_qr_scan", "ios": "https://dc.lft.to/lastmile_qr_scan"}, "is_reserved": 0, "is_disabled": 0, "type": "electric_scooter", "bike_id": "7907636bcf35a9dc9a054a8ddaeabd4a"}, {"lon": -77.02710033333334, "lat": 38.901389333333334, "name": "54267f932c144e5b6315399887071626", "fusion_lat": 0.0, "fusion_lon": 0.0, "rental_uris": {"android": "https://dc.lft.to/lastmile_qr_scan", "ios": "https://dc.lft.to/lastmile_qr_scan"}, "is_reserved": 0, "is_disabled": 0, "type": "electric_scooter", "bike_id": "54267f932c144e5b6315399887071626"}, {"lon": -77.06611016666666, "lat": 38.9051875, "name": "1dc95b5603c1201e56af24cce20f851b", "fusion_lat": 0.0, "fusion_lon": 0.0, "rental_uris": {"android": "https://dc.lft.to/lastmile_qr_scan", "ios": "https://dc.lft.to/lastmile_qr_scan"}, "is_reserved": 0, "is_disabled": 0, "type": "electric_scooter", "bike_id": "1dc95b5603c1201e56af24cce20f851b"}, {"lon": -77.02684283333333, "lat": 38.997451, "name": "414586391aa296cc36c6cfdf71d04827", "fusion_lat": 0.0, "fusion_lon": 0.0, "rental_uris": {"android": "https://dc.lft.to/lastmile_qr_scan", "ios": "https://dc.lft.to/lastmile_qr_scan"}, "is_reserved": 0, "is_disabled": 0, "type": "electric_bike", "bike_id": "414586391aa296cc36c6cfdf71d04827"}, {"lon": -77.0201615, "lat": 38.902415500000004, "name": "bb08a5fb244e09eaf3c11f25ffc9cef9", "fusion_lat": 0.0, "fusion_lon": 0.0, "rental_uris": {"android": "https://dc.lft.to/lastmile_qr_scan", "ios": "https://dc.lft.to/lastmile_qr_scan"}, "is_reserved": 0, "is_disabled": 0, "type": "electric_scooter", "bike_id": "bb08a5fb244e09eaf3c11f25ffc9cef9"}, {"lon": -77.03393733333333, "lat": 38.91916883333333, "name": "c2a4ccc05b69cec7b20fb27f9654bbd4", "fusion_lat": 0.0, "fusion_lon": 0.0, "rental_uris": {"android": "https://dc.lft.to/lastmile_qr_scan", "ios": "https://dc.lft.to/lastmile_qr_scan"}, "is_reserved": 0, "is_disabled": 0, "type": "electric_scooter", "bike_id": "c2a4ccc05b69cec7b20fb27f9654bbd4"}, {"lon": -77.107232, "lat": 38.855344833333334, "name": "9ebf95213c65827664e78cf516cc1694", "fusion_lat": 0.0, "fusion_lon": 0.0, "rental_uris": {"android": "https://dc.lft.to/lastmile_qr_scan", "ios": "https://dc.lft.to/lastmile_qr_scan"}, "is_reserved": 0, "is_disabled": 0, "type": "electric_bike", "bike_id": "9ebf95213c65827664e78cf516cc1694"}, {"lon": -77.06913316666666, "lat": 38.907449, "name": "a2c4ab1a3637edc182cc0e702833efcb", "fusion_lat": 0.0, "fusion_lon": 0.0, "rental_uris": {"android": "https://dc.lft.to/lastmile_qr_scan", "ios": "https://dc.lft.to/lastmile_qr_scan"}, "is_reserved": 0, "is_disabled": 0, "type": "electric_scooter", "bike_id": "a2c4ab1a3637edc182cc0e702833efcb"}, {"lon": -77.05120833333334, "lat": 38.99966666666667, "name": "cfe25d7a2483fcdbf070741d1acfa2fc", "fusion_lat": 0.0, "fusion_lon": 0.0, "rental_uris": {"android": "https://dc.lft.to/lastmile_qr_scan", "ios": "https://dc.lft.to/lastmile_qr_scan"}, "is_reserved": 0, "is_disabled": 0, "type": "electric_bike", "bike_id": "cfe25d7a2483fcdbf070741d1acfa2fc"}, {"lon": -77.02498533333333, "lat": 38.918062166666665, "name": "5ec8067d84af574fca0da8c82576569a", "fusion_lat": 0.0, "fusion_lon": 0.0, "rental_uris": {"android": "https://dc.lft.to/lastmile_qr_scan", "ios": "https://dc.lft.to/lastmile_qr_scan"}, "is_reserved": 0, "is_disabled": 0, "type": "electric_scooter", "bike_id": "5ec8067d84af574fca0da8c82576569a"}, {"lon": -77.01627583333334, "lat": 38.903417, "name": "367bcfb279aa8f62aaffaa22ba4b0d63", "fusion_lat": 0.0, "fusion_lon": 0.0, "rental_uris": {"android": "https://dc.lft.to/lastmile_qr_scan", "ios": "https://dc.lft.to/lastmile_qr_scan"}, "is_reserved": 0, "is_disabled": 0, "type": "electric_scooter", "bike_id": "367bcfb279aa8f62aaffaa22ba4b0d63"}, {"lon": -76.96878166666667, "lat": 38.924420166666664, "name": "d0f80ef5d4a0aa4c15a2cc46c9d4d7a7", "fusion_lat": 0.0, "fusion_lon": 0.0, "rental_uris": {"android": "https://dc.lft.to/lastmile_qr_scan", "ios": "https://dc.lft.to/lastmile_qr_scan"}, "is_reserved": 0, "is_disabled": 0, "type": "electric_scooter", "bike_id": "d0f80ef5d4a0aa4c15a2cc46c9d4d7a7"}, {"lon": -77.05579533333334, "lat": 38.899817666666664, "name": "41b9ac017eb48e39107fa0b1165b93b9", "fusion_lat": 0.0, "fusion_lon": 0.0, "rental_uris": {"android": "https://dc.lft.to/lastmile_qr_scan", "ios": "https://dc.lft.to/lastmile_qr_scan"}, "is_reserved": 0, "is_disabled": 0, "type": "electric_scooter", "bike_id": "41b9ac017eb48e39107fa0b1165b93b9"}, {"lon": -76.9993555, "lat": 38.896148833333335, "name": "a43d2c80347f9616696df0ac6dec08ea", "fusion_lat": 0.0, "fusion_lon": 0.0, "rental_uris": {"android": "https://dc.lft.to/lastmile_qr_scan", "ios": "https://dc.lft.to/lastmile_qr_scan"}, "is_reserved": 0, "is_disabled": 0, "type": "electric_scooter", "bike_id": "a43d2c80347f9616696df0ac6dec08ea"}, {"lon": -77.03221083333334, "lat": 38.892259833333334, "name": "44aa625eeb6bae50ac7ca30268748247", "fusion_lat": 0.0, "fusion_lon": 0.0, "rental_uris": {"android": "https://dc.lft.to/lastmile_qr_scan", "ios": "https://dc.lft.to/lastmile_qr_scan"}, "is_reserved": 0, "is_disabled": 0, "type": "electric_scooter", "bike_id": "44aa625eeb6bae50ac7ca30268748247"}, {"lon": -77.044835, "lat": 38.914031333333334, "name": "daea6197681174be780ed13e98ef23d5", "fusion_lat": 0.0, "fusion_lon": 0.0, "rental_uris": {"android": "https://dc.lft.to/lastmile_qr_scan", "ios": "https://dc.lft.to/lastmile_qr_scan"}, "is_reserved": 0, "is_disabled": 0, "type": "electric_scooter", "bike_id": "daea6197681174be780ed13e98ef23d5"}, {"lon": -77.02437, "lat": 38.919043333333335, "name": "301df36b672900e413a547e31248aa96", "fusion_lat": 0.0, "fusion_lon": 0.0, "rental_uris": {"android": "https://dc.lft.to/lastmile_qr_scan", "ios": "https://dc.lft.to/lastmile_qr_scan"}, "is_reserved": 0, "is_disabled": 0, "type": "electric_scooter", "bike_id": "301df36b672900e413a547e31248aa96"}, {"lon": -77.0373925, "lat": 38.90618666666667, "name": "c947f6616a43b21be39f553f5c8e5e6d", "fusion_lat": 0.0, "fusion_lon": 0.0, "rental_uris": {"android": "https://dc.lft.to/lastmile_qr_scan", "ios": "https://dc.lft.to/lastmile_qr_scan"}, "is_reserved": 0, "is_disabled": 0, "type": "electric_scooter", "bike_id": "c947f6616a43b21be39f553f5c8e5e6d"}, {"lon": -77.01220333333333, "lat": 38.9197015, "name": "279f4a41cdeedb67dfd44b59b94ed58f", "fusion_lat": 0.0, "fusion_lon": 0.0, "rental_uris": {"android": "https://dc.lft.to/lastmile_qr_scan", "ios": "https://dc.lft.to/lastmile_qr_scan"}, "is_reserved": 0, "is_disabled": 0, "type": "electric_scooter", "bike_id": "279f4a41cdeedb67dfd44b59b94ed58f"}, {"lon": -77.028939, "lat": 38.958404333333334, "name": "94e7e5df791d36528379ae46c6937b1a", "fusion_lat": 0.0, "fusion_lon": 0.0, "rental_uris": {"android": "https://dc.lft.to/lastmile_qr_scan", "ios": "https://dc.lft.to/lastmile_qr_scan"}, "is_reserved": 0, "is_disabled": 0, "type": "electric_scooter", "bike_id": "94e7e5df791d36528379ae46c6937b1a"}, {"lon": -77.036032, "lat": 38.95615166666666, "name": "6efe3d0623b40babf6dbeec6e8f7febe", "fusion_lat": 0.0, "fusion_lon": 0.0, "rental_uris": {"android": "https://dc.lft.to/lastmile_qr_scan", "ios": "https://dc.lft.to/lastmile_qr_scan"}, "is_reserved": 0, "is_disabled": 0, "type": "electric_scooter", "bike_id": "6efe3d0623b40babf6dbeec6e8f7febe"}, {"lon": -77.0490865, "lat": 38.89726133333333, "name": "5daefc761c663c44788a188c5992c249", "fusion_lat": 0.0, "fusion_lon": 0.0, "rental_uris": {"android": "https://dc.lft.to/lastmile_qr_scan", "ios": "https://dc.lft.to/lastmile_qr_scan"}, "is_reserved": 0, "is_disabled": 0, "type": "electric_scooter", "bike_id": "5daefc761c663c44788a188c5992c249"}, {"lon": -76.9873325, "lat": 38.86711116666667, "name": "2d3d6e1bbb2269c88a4cdec90ab47d6b", "fusion_lat": 0.0, "fusion_lon": 0.0, "rental_uris": {"android": "https://dc.lft.to/lastmile_qr_scan", "ios": "https://dc.lft.to/lastmile_qr_scan"}, "is_reserved": 0, "is_disabled": 0, "type": "electric_scooter", "bike_id": "2d3d6e1bbb2269c88a4cdec90ab47d6b"}, {"lon": -77.02503916666667, "lat": 38.9056445, "name": "f5f24075afa9353daa68aeea31446f16", "fusion_lat": 0.0, "fusion_lon": 0.0, "rental_uris": {"android": "https://dc.lft.to/lastmile_qr_scan", "ios": "https://dc.lft.to/lastmile_qr_scan"}, "is_reserved": 0, "is_disabled": 0, "type": "electric_scooter", "bike_id": "f5f24075afa9353daa68aeea31446f16"}, {"lon": -77.00598833333333, "lat": 38.91561566666667, "name": "74a04a4b51e0d4fa5390993740f5fb30", "fusion_lat": 0.0, "fusion_lon": 0.0, "rental_uris": {"android": "https://dc.lft.to/lastmile_qr_scan", "ios": "https://dc.lft.to/lastmile_qr_scan"}, "is_reserved": 0, "is_disabled": 0, "type": "electric_scooter", "bike_id": "74a04a4b51e0d4fa5390993740f5fb30"}, {"lon": -77.03659183333333, "lat": 38.93064866666667, "name": "872d94e7cf57d0d812840fdef744c704", "fusion_lat": 0.0, "fusion_lon": 0.0, "rental_uris": {"android": "https://dc.lft.to/lastmile_qr_scan", "ios": "https://dc.lft.to/lastmile_qr_scan"}, "is_reserved": 0, "is_disabled": 0, "type": "electric_scooter", "bike_id": "872d94e7cf57d0d812840fdef744c704"}, {"lon": -77.043365, "lat": 38.9221135, "name": "02bb043c8ae903050767c45d42ecc4b0", "fusion_lat": 0.0, "fusion_lon": 0.0, "rental_uris": {"android": "https://dc.lft.to/lastmile_qr_scan", "ios": "https://dc.lft.to/lastmile_qr_scan"}, "is_reserved": 0, "is_disabled": 0, "type": "electric_scooter", "bike_id": "02bb043c8ae903050767c45d42ecc4b0"}, {"lon": -77.042197, "lat": 38.90744766666667, "name": "2a7922c015c3370296057843a0329309", "fusion_lat": 0.0, "fusion_lon": 0.0, "rental_uris": {"android": "https://dc.lft.to/lastmile_qr_scan", "ios": "https://dc.lft.to/lastmile_qr_scan"}, "is_reserved": 0, "is_disabled": 0, "type": "electric_scooter", "bike_id": "2a7922c015c3370296057843a0329309"}, {"lon": -77.02351933333334, "lat": 38.96202066666667, "name": "73c5ac9f568aacedf5956d0f72f1df9e", "fusion_lat": 0.0, "fusion_lon": 0.0, "rental_uris": {"android": "https://dc.lft.to/lastmile_qr_scan", "ios": "https://dc.lft.to/lastmile_qr_scan"}, "is_reserved": 0, "is_disabled": 0, "type": "electric_scooter", "bike_id": "73c5ac9f568aacedf5956d0f72f1df9e"}, {"lon": -77.03854266666667, "lat": 38.912776, "name": "49ec7fe41f0499e9ed922764352f258f", "fusion_lat": 0.0, "fusion_lon": 0.0, "rental_uris": {"android": "https://dc.lft.to/lastmile_qr_scan", "ios": "https://dc.lft.to/lastmile_qr_scan"}, "is_reserved": 0, "is_disabled": 0, "type": "electric_scooter", "bike_id": "49ec7fe41f0499e9ed922764352f258f"}, {"lon": -77.043431, "lat": 38.90377933333333, "name": "d0d2fb4f7b40e19fc4238bbeff7cbc9d", "fusion_lat": 0.0, "fusion_lon": 0.0, "rental_uris": {"android": "https://dc.lft.to/lastmile_qr_scan", "ios": "https://dc.lft.to/lastmile_qr_scan"}, "is_reserved": 0, "is_disabled": 0, "type": "electric_scooter", "bike_id": "d0d2fb4f7b40e19fc4238bbeff7cbc9d"}, {"lon": -77.00453033333334, "lat": 38.8764075, "name": "b2c0f40d905162ad627ad43fdeaf4048", "fusion_lat": 0.0, "fusion_lon": 0.0, "rental_uris": {"android": "https://dc.lft.to/lastmile_qr_scan", "ios": "https://dc.lft.to/lastmile_qr_scan"}, "is_reserved": 0, "is_disabled": 0, "type": "electric_scooter", "bike_id": "b2c0f40d905162ad627ad43fdeaf4048"}, {"lon": -77.04390683333334, "lat": 38.9293565, "name": "41dbf420fea7a2761d871da69d6752f2", "fusion_lat": 0.0, "fusion_lon": 0.0, "rental_uris": {"android": "https://dc.lft.to/lastmile_qr_scan", "ios": "https://dc.lft.to/lastmile_qr_scan"}, "is_reserved": 0, "is_disabled": 0, "type": "electric_scooter", "bike_id": "41dbf420fea7a2761d871da69d6752f2"}, {"lon": -77.0429505, "lat": 38.91612933333333, "name": "aeca3446ef9b64ed7b623ef3f3621553", "fusion_lat": 0.0, "fusion_lon": 0.0, "rental_uris": {"android": "https://dc.lft.to/lastmile_qr_scan", "ios": "https://dc.lft.to/lastmile_qr_scan"}, "is_reserved": 0, "is_disabled": 0, "type": "electric_scooter", "bike_id": "aeca3446ef9b64ed7b623ef3f3621553"}, {"lon": -77.12504716666666, "lat": 39.0241505, "name": "175841435af40948d181a03ac023eea6", "fusion_lat": 0.0, "fusion_lon": 0.0, "rental_uris": {"android": "https://dc.lft.to/lastmile_qr_scan", "ios": "https://dc.lft.to/lastmile_qr_scan"}, "is_reserved": 0, "is_disabled": 0, "type": "electric_bike", "bike_id": "175841435af40948d181a03ac023eea6"}, {"lon": -77.0258035, "lat": 38.900975333333335, "name": "0c896732cfe42d3958b0b4c94ed4c986", "fusion_lat": 0.0, "fusion_lon": 0.0, "rental_uris": {"android": "https://dc.lft.to/lastmile_qr_scan", "ios": "https://dc.lft.to/lastmile_qr_scan"}, "is_reserved": 0, "is_disabled": 0, "type": "electric_scooter", "bike_id": "0c896732cfe42d3958b0b4c94ed4c986"}, {"lon": -77.01809366666667, "lat": 38.914312833333334, "name": "d1d9a0cb06cce6cf3b61ff0814cfd080", "fusion_lat": 0.0, "fusion_lon": 0.0, "rental_uris": {"android": "https://dc.lft.to/lastmile_qr_scan", "ios": "https://dc.lft.to/lastmile_qr_scan"}, "is_reserved": 0, "is_disabled": 0, "type": "electric_scooter", "bike_id": "d1d9a0cb06cce6cf3b61ff0814cfd080"}, {"lon": -77.01753966666666, "lat": 38.90236866666667, "name": "8f4d516004af533accaa5c441360eace", "fusion_lat": 0.0, "fusion_lon": 0.0, "rental_uris": {"android": "https://dc.lft.to/lastmile_qr_scan", "ios": "https://dc.lft.to/lastmile_qr_scan"}, "is_reserved": 0, "is_disabled": 0, "type": "electric_scooter", "bike_id": "8f4d516004af533accaa5c441360eace"}, {"lon": -77.035085, "lat": 38.92149033333333, "name": "c5c3056ee971875da0292693fd49bbb2", "fusion_lat": 0.0, "fusion_lon": 0.0, "rental_uris": {"android": "https://dc.lft.to/lastmile_qr_scan", "ios": "https://dc.lft.to/lastmile_qr_scan"}, "is_reserved": 0, "is_disabled": 0, "type": "electric_scooter", "bike_id": "c5c3056ee971875da0292693fd49bbb2"}, {"lon": -77.02694933333333, "lat": 38.90681816666667, "name": "9f7ee57bcd080667c31aa53878f8b8fe", "fusion_lat": 0.0, "fusion_lon": 0.0, "rental_uris": {"android": "https://dc.lft.to/lastmile_qr_scan", "ios": "https://dc.lft.to/lastmile_qr_scan"}, "is_reserved": 0, "is_disabled": 0, "type": "electric_scooter", "bike_id": "9f7ee57bcd080667c31aa53878f8b8fe"}, {"lon": -77.01392483333333, "lat": 38.92853016666667, "name": "601061933114c60c37c7d2c31f7db078", "fusion_lat": 0.0, "fusion_lon": 0.0, "rental_uris": {"android": "https://dc.lft.to/lastmile_qr_scan", "ios": "https://dc.lft.to/lastmile_qr_scan"}, "is_reserved": 0, "is_disabled": 0, "type": "electric_scooter", "bike_id": "601061933114c60c37c7d2c31f7db078"}, {"lon": -77.037658, "lat": 38.908662666666665, "name": "a4f27dccb177160a7732e071faa4cd5a", "fusion_lat": 0.0, "fusion_lon": 0.0, "rental_uris": {"android": "https://dc.lft.to/lastmile_qr_scan", "ios": "https://dc.lft.to/lastmile_qr_scan"}, "is_reserved": 0, "is_disabled": 0, "type": "electric_scooter", "bike_id": "a4f27dccb177160a7732e071faa4cd5a"}, {"lon": -77.01453766666667, "lat": 38.91197966666667, "name": "1cdd4125aa55f22593b9f782cd4d4a9d", "fusion_lat": 0.0, "fusion_lon": 0.0, "rental_uris": {"android": "https://dc.lft.to/lastmile_qr_scan", "ios": "https://dc.lft.to/lastmile_qr_scan"}, "is_reserved": 0, "is_disabled": 0, "type": "electric_scooter", "bike_id": "1cdd4125aa55f22593b9f782cd4d4a9d"}, {"lon": -77.02483733333334, "lat": 38.93958816666667, "name": "2dd966df3cea1f9ae4ed9af51da907ea", "fusion_lat": 0.0, "fusion_lon": 0.0, "rental_uris": {"android": "https://dc.lft.to/lastmile_qr_scan", "ios": "https://dc.lft.to/lastmile_qr_scan"}, "is_reserved": 0, "is_disabled": 0, "type": "electric_scooter", "bike_id": "2dd966df3cea1f9ae4ed9af51da907ea"}, {"lon": -76.9896265, "lat": 38.901322, "name": "bd8f18664342198133a4d2e076f648c8", "fusion_lat": 0.0, "fusion_lon": 0.0, "rental_uris": {"android": "https://dc.lft.to/lastmile_qr_scan", "ios": "https://dc.lft.to/lastmile_qr_scan"}, "is_reserved": 0, "is_disabled": 0, "type": "electric_scooter", "bike_id": "bd8f18664342198133a4d2e076f648c8"}, {"lon": -77.0326895, "lat": 38.93331933333333, "name": "633d59d1f9cc20bbd21fd1131c218412", "fusion_lat": 0.0, "fusion_lon": 0.0, "rental_uris": {"android": "https://dc.lft.to/lastmile_qr_scan", "ios": "https://dc.lft.to/lastmile_qr_scan"}, "is_reserved": 0, "is_disabled": 0, "type": "electric_scooter", "bike_id": "633d59d1f9cc20bbd21fd1131c218412"}, {"lon": -77.02708116666666, "lat": 38.949966833333335, "name": "10522be5116b8a53e4d3bd723b224be6", "fusion_lat": 0.0, "fusion_lon": 0.0, "rental_uris": {"android": "https://dc.lft.to/lastmile_qr_scan", "ios": "https://dc.lft.to/lastmile_qr_scan"}, "is_reserved": 0, "is_disabled": 0, "type": "electric_scooter", "bike_id": "10522be5116b8a53e4d3bd723b224be6"}, {"lon": -76.96516166666666, "lat": 38.874777333333334, "name": "bbdc8ce0d75722f4a37bd1b06f23da9b", "fusion_lat": 0.0, "fusion_lon": 0.0, "rental_uris": {"android": "https://dc.lft.to/lastmile_qr_scan", "ios": "https://dc.lft.to/lastmile_qr_scan"}, "is_reserved": 0, "is_disabled": 0, "type": "electric_scooter", "bike_id": "bbdc8ce0d75722f4a37bd1b06f23da9b"}, {"lon": -77.05001383333334, "lat": 38.89229783333333, "name": "d30449f8102acf40f5148bf10eb7d2da", "fusion_lat": 0.0, "fusion_lon": 0.0, "rental_uris": {"android": "https://dc.lft.to/lastmile_qr_scan", "ios": "https://dc.lft.to/lastmile_qr_scan"}, "is_reserved": 0, "is_disabled": 0, "type": "electric_scooter", "bike_id": "d30449f8102acf40f5148bf10eb7d2da"}, {"lon": -77.001152, "lat": 38.89438066666666, "name": "7c7b86d3cdec28b32a72c32bd25c5b03", "fusion_lat": 0.0, "fusion_lon": 0.0, "rental_uris": {"android": "https://dc.lft.to/lastmile_qr_scan", "ios": "https://dc.lft.to/lastmile_qr_scan"}, "is_reserved": 0, "is_disabled": 0, "type": "electric_scooter", "bike_id": "7c7b86d3cdec28b32a72c32bd25c5b03"}, {"lon": -77.00213566666666, "lat": 38.911033333333336, "name": "e94c9682b5fe9fc847c414abb9cc1aaf", "fusion_lat": 0.0, "fusion_lon": 0.0, "rental_uris": {"android": "https://dc.lft.to/lastmile_qr_scan", "ios": "https://dc.lft.to/lastmile_qr_scan"}, "is_reserved": 0, "is_disabled": 0, "type": "electric_scooter", "bike_id": "e94c9682b5fe9fc847c414abb9cc1aaf"}, {"lon": -77.04419133333333, "lat": 38.92134466666667, "name": "6500b9cdb68ea56aeadf6e3ca3c939c9", "fusion_lat": 0.0, "fusion_lon": 0.0, "rental_uris": {"android": "https://dc.lft.to/lastmile_qr_scan", "ios": "https://dc.lft.to/lastmile_qr_scan"}, "is_reserved": 0, "is_disabled": 0, "type": "electric_scooter", "bike_id": "6500b9cdb68ea56aeadf6e3ca3c939c9"}, {"lon": -77.03261566666667, "lat": 38.935194333333335, "name": "cb0dfd158166331694b3d78341dfe60a", "fusion_lat": 0.0, "fusion_lon": 0.0, "rental_uris": {"android": "https://dc.lft.to/lastmile_qr_scan", "ios": "https://dc.lft.to/lastmile_qr_scan"}, "is_reserved": 0, "is_disabled": 0, "type": "electric_scooter", "bike_id": "cb0dfd158166331694b3d78341dfe60a"}, {"lon": -77.0316505, "lat": 38.92371266666667, "name": "b6f799e7207289a2c6eafc766693d55d", "fusion_lat": 0.0, "fusion_lon": 0.0, "rental_uris": {"android": "https://dc.lft.to/lastmile_qr_scan", "ios": "https://dc.lft.to/lastmile_qr_scan"}, "is_reserved": 0, "is_disabled": 0, "type": "electric_scooter", "bike_id": "b6f799e7207289a2c6eafc766693d55d"}, {"lon": -77.02723383333333, "lat": 38.89217683333333, "name": "202faedea2fb8fe3886e97d667dbb715", "fusion_lat": 0.0, "fusion_lon": 0.0, "rental_uris": {"android": "https://dc.lft.to/lastmile_qr_scan", "ios": "https://dc.lft.to/lastmile_qr_scan"}, "is_reserved": 0, "is_disabled": 0, "type": "electric_scooter", "bike_id": "202faedea2fb8fe3886e97d667dbb715"}, {"lon": -77.07276483333334, "lat": 38.931732833333335, "name": "0748e34d70de8f0aaa6dfa4bf3a28ea8", "fusion_lat": 0.0, "fusion_lon": 0.0, "rental_uris": {"android": "https://dc.lft.to/lastmile_qr_scan", "ios": "https://dc.lft.to/lastmile_qr_scan"}, "is_reserved": 0, "is_disabled": 0, "type": "electric_scooter", "bike_id": "0748e34d70de8f0aaa6dfa4bf3a28ea8"}, {"lon": -77.0350675, "lat": 38.92149116666667, "name": "7c7171d2f8562cae71d28765baf67221", "fusion_lat": 0.0, "fusion_lon": 0.0, "rental_uris": {"android": "https://dc.lft.to/lastmile_qr_scan", "ios": "https://dc.lft.to/lastmile_qr_scan"}, "is_reserved": 0, "is_disabled": 0, "type": "electric_scooter", "bike_id": "7c7171d2f8562cae71d28765baf67221"}, {"lon": -76.93831266666666, "lat": 38.8975705, "name": "c0e0469fdd8ae77ec680a58711011d24", "fusion_lat": 0.0, "fusion_lon": 0.0, "rental_uris": {"android": "https://dc.lft.to/lastmile_qr_scan", "ios": "https://dc.lft.to/lastmile_qr_scan"}, "is_reserved": 0, "is_disabled": 0, "type": "electric_scooter", "bike_id": "c0e0469fdd8ae77ec680a58711011d24"}, {"lon": -76.9053985, "lat": 38.89733116666667, "name": "f7d1cebf05e347139786ad27a854abe3", "fusion_lat": 0.0, "fusion_lon": 0.0, "rental_uris": {"android": "https://dc.lft.to/lastmile_qr_scan", "ios": "https://dc.lft.to/lastmile_qr_scan"}, "is_reserved": 0, "is_disabled": 0, "type": "electric_bike", "bike_id": "f7d1cebf05e347139786ad27a854abe3"}, {"lon": -77.03158266666667, "lat": 38.897733833333334, "name": "1e93b5651209267e06bfc03105fa1c35", "fusion_lat": 0.0, "fusion_lon": 0.0, "rental_uris": {"android": "https://dc.lft.to/lastmile_qr_scan", "ios": "https://dc.lft.to/lastmile_qr_scan"}, "is_reserved": 0, "is_disabled": 0, "type": "electric_scooter", "bike_id": "1e93b5651209267e06bfc03105fa1c35"}, {"lon": -77.007327, "lat": 38.88488566666667, "name": "f7d948baf107e6fdb28c5fdac348d437", "fusion_lat": 0.0, "fusion_lon": 0.0, "rental_uris": {"android": "https://dc.lft.to/lastmile_qr_scan", "ios": "https://dc.lft.to/lastmile_qr_scan"}, "is_reserved": 0, "is_disabled": 0, "type": "electric_scooter", "bike_id": "f7d948baf107e6fdb28c5fdac348d437"}, {"lon": -77.04160283333333, "lat": 38.9189235, "name": "3bffac577bbe6f303695a627d713e7fd", "fusion_lat": 0.0, "fusion_lon": 0.0, "rental_uris": {"android": "https://dc.lft.to/lastmile_qr_scan", "ios": "https://dc.lft.to/lastmile_qr_scan"}, "is_reserved": 0, "is_disabled": 0, "type": "electric_scooter", "bike_id": "3bffac577bbe6f303695a627d713e7fd"}, {"lon": -77.03030216666667, "lat": 38.929544, "name": "de1d306b52c1669fd6f273bed4dd63ed", "fusion_lat": 0.0, "fusion_lon": 0.0, "rental_uris": {"android": "https://dc.lft.to/lastmile_qr_scan", "ios": "https://dc.lft.to/lastmile_qr_scan"}, "is_reserved": 0, "is_disabled": 0, "type": "electric_scooter", "bike_id": "de1d306b52c1669fd6f273bed4dd63ed"}, {"lon": -77.02392533333334, "lat": 38.907017333333336, "name": "d346c0d085bd6d5ec4724e95d49a002b", "fusion_lat": 0.0, "fusion_lon": 0.0, "rental_uris": {"android": "https://dc.lft.to/lastmile_qr_scan", "ios": "https://dc.lft.to/lastmile_qr_scan"}, "is_reserved": 0, "is_disabled": 0, "type": "electric_scooter", "bike_id": "d346c0d085bd6d5ec4724e95d49a002b"}, {"lon": -77.00839166666667, "lat": 38.91547033333333, "name": "7572cb9c0afb8a012c42401ee1bb608b", "fusion_lat": 0.0, "fusion_lon": 0.0, "rental_uris": {"android": "https://dc.lft.to/lastmile_qr_scan", "ios": "https://dc.lft.to/lastmile_qr_scan"}, "is_reserved": 0, "is_disabled": 0, "type": "electric_scooter", "bike_id": "7572cb9c0afb8a012c42401ee1bb608b"}, {"lon": -77.03080933333334, "lat": 38.909862833333335, "name": "444954c8f2abcbdb5b7aef2850cf4535", "fusion_lat": 0.0, "fusion_lon": 0.0, "rental_uris": {"android": "https://dc.lft.to/lastmile_qr_scan", "ios": "https://dc.lft.to/lastmile_qr_scan"}, "is_reserved": 0, "is_disabled": 0, "type": "electric_scooter", "bike_id": "444954c8f2abcbdb5b7aef2850cf4535"}, {"lon": -77.03906016666667, "lat": 38.90235366666667, "name": "3529140eb678f16561e5cb3d7e46d162", "fusion_lat": 0.0, "fusion_lon": 0.0, "rental_uris": {"android": "https://dc.lft.to/lastmile_qr_scan", "ios": "https://dc.lft.to/lastmile_qr_scan"}, "is_reserved": 0, "is_disabled": 0, "type": "electric_scooter", "bike_id": "3529140eb678f16561e5cb3d7e46d162"}, {"lon": -76.99761283333333, "lat": 38.921906666666665, "name": "f71176adf7cddf5c81a3d1d8370108cc", "fusion_lat": 0.0, "fusion_lon": 0.0, "rental_uris": {"android": "https://dc.lft.to/lastmile_qr_scan", "ios": "https://dc.lft.to/lastmile_qr_scan"}, "is_reserved": 0, "is_disabled": 0, "type": "electric_scooter", "bike_id": "f71176adf7cddf5c81a3d1d8370108cc"}, {"lon": -77.015141, "lat": 38.887298, "name": "e2a19ad6b091968b633e9063f6e78e2c", "fusion_lat": 0.0, "fusion_lon": 0.0, "rental_uris": {"android": "https://dc.lft.to/lastmile_qr_scan", "ios": "https://dc.lft.to/lastmile_qr_scan"}, "is_reserved": 0, "is_disabled": 0, "type": "electric_scooter", "bike_id": "e2a19ad6b091968b633e9063f6e78e2c"}, {"lon": -77.04880133333333, "lat": 38.912350833333335, "name": "0dd4506b48dd1f23a960571337fdee08", "fusion_lat": 0.0, "fusion_lon": 0.0, "rental_uris": {"android": "https://dc.lft.to/lastmile_qr_scan", "ios": "https://dc.lft.to/lastmile_qr_scan"}, "is_reserved": 0, "is_disabled": 0, "type": "electric_scooter", "bike_id": "0dd4506b48dd1f23a960571337fdee08"}, {"lon": -77.04045333333333, "lat": 38.92300933333333, "name": "9816cff07b9fe06116f92d902b8ef5a2", "fusion_lat": 0.0, "fusion_lon": 0.0, "rental_uris": {"android": "https://dc.lft.to/lastmile_qr_scan", "ios": "https://dc.lft.to/lastmile_qr_scan"}, "is_reserved": 0, "is_disabled": 0, "type": "electric_scooter", "bike_id": "9816cff07b9fe06116f92d902b8ef5a2"}, {"lon": -77.03762, "lat": 38.9255585, "name": "abdc79d6ba78c705a8dcf0c03020b724", "fusion_lat": 0.0, "fusion_lon": 0.0, "rental_uris": {"android": "https://dc.lft.to/lastmile_qr_scan", "ios": "https://dc.lft.to/lastmile_qr_scan"}, "is_reserved": 0, "is_disabled": 0, "type": "electric_scooter", "bike_id": "abdc79d6ba78c705a8dcf0c03020b724"}, {"lon": -77.01994133333334, "lat": 38.9047325, "name": "9abd7e4393b7d45d32ab223eea33b82b", "fusion_lat": 0.0, "fusion_lon": 0.0, "rental_uris": {"android": "https://dc.lft.to/lastmile_qr_scan", "ios": "https://dc.lft.to/lastmile_qr_scan"}, "is_reserved": 0, "is_disabled": 0, "type": "electric_scooter", "bike_id": "9abd7e4393b7d45d32ab223eea33b82b"}, {"lon": -77.04823583333334, "lat": 38.9133425, "name": "c374c36059901f974cbd3810c476dd4e", "fusion_lat": 0.0, "fusion_lon": 0.0, "rental_uris": {"android": "https://dc.lft.to/lastmile_qr_scan", "ios": "https://dc.lft.to/lastmile_qr_scan"}, "is_reserved": 0, "is_disabled": 0, "type": "electric_scooter", "bike_id": "c374c36059901f974cbd3810c476dd4e"}, {"lon": -77.03210633333333, "lat": 38.92973416666667, "name": "c78969ff9e8957992b96eb7d539f3c3e", "fusion_lat": 0.0, "fusion_lon": 0.0, "rental_uris": {"android": "https://dc.lft.to/lastmile_qr_scan", "ios": "https://dc.lft.to/lastmile_qr_scan"}, "is_reserved": 0, "is_disabled": 0, "type": "electric_scooter", "bike_id": "c78969ff9e8957992b96eb7d539f3c3e"}, {"lon": -77.03503933333333, "lat": 38.9071795, "name": "d3b68ffe9e2e7ba51c262ee4ff8430c4", "fusion_lat": 0.0, "fusion_lon": 0.0, "rental_uris": {"android": "https://dc.lft.to/lastmile_qr_scan", "ios": "https://dc.lft.to/lastmile_qr_scan"}, "is_reserved": 0, "is_disabled": 0, "type": "electric_scooter", "bike_id": "d3b68ffe9e2e7ba51c262ee4ff8430c4"}, {"lon": -77.038563, "lat": 38.912747, "name": "2bb02e7d304d68d5c79633710a389dc7", "fusion_lat": 0.0, "fusion_lon": 0.0, "rental_uris": {"android": "https://dc.lft.to/lastmile_qr_scan", "ios": "https://dc.lft.to/lastmile_qr_scan"}, "is_reserved": 0, "is_disabled": 0, "type": "electric_scooter", "bike_id": "2bb02e7d304d68d5c79633710a389dc7"}, {"lon": -77.06534016666667, "lat": 38.934745666666664, "name": "78b4fe413aeb451f6768ac6877707cb4", "fusion_lat": 0.0, "fusion_lon": 0.0, "rental_uris": {"android": "https://dc.lft.to/lastmile_qr_scan", "ios": "https://dc.lft.to/lastmile_qr_scan"}, "is_reserved": 0, "is_disabled": 0, "type": "electric_scooter", "bike_id": "78b4fe413aeb451f6768ac6877707cb4"}, {"lon": -76.90820116666667, "lat": 38.994456166666666, "name": "5078be3462affb17f6929a66afa921a1", "fusion_lat": 0.0, "fusion_lon": 0.0, "rental_uris": {"android": "https://dc.lft.to/lastmile_qr_scan", "ios": "https://dc.lft.to/lastmile_qr_scan"}, "is_reserved": 0, "is_disabled": 0, "type": "electric_bike", "bike_id": "5078be3462affb17f6929a66afa921a1"}, {"lon": -77.02305733333333, "lat": 38.92702283333333, "name": "b0cd1fd00a89a2835cfbb730a20065f2", "fusion_lat": 0.0, "fusion_lon": 0.0, "rental_uris": {"android": "https://dc.lft.to/lastmile_qr_scan", "ios": "https://dc.lft.to/lastmile_qr_scan"}, "is_reserved": 0, "is_disabled": 0, "type": "electric_scooter", "bike_id": "b0cd1fd00a89a2835cfbb730a20065f2"}, {"lon": -76.98439933333333, "lat": 38.91423266666666, "name": "40f13eefdf755e4205104c3d985d0484", "fusion_lat": 0.0, "fusion_lon": 0.0, "rental_uris": {"android": "https://dc.lft.to/lastmile_qr_scan", "ios": "https://dc.lft.to/lastmile_qr_scan"}, "is_reserved": 0, "is_disabled": 0, "type": "electric_scooter", "bike_id": "40f13eefdf755e4205104c3d985d0484"}, {"lon": -77.096557, "lat": 38.916264166666664, "name": "ca7657b70a9ce533ab84f9abe3364814", "fusion_lat": 0.0, "fusion_lon": 0.0, "rental_uris": {"android": "https://dc.lft.to/lastmile_qr_scan", "ios": "https://dc.lft.to/lastmile_qr_scan"}, "is_reserved": 0, "is_disabled": 0, "type": "electric_bike", "bike_id": "ca7657b70a9ce533ab84f9abe3364814"}, {"lon": -77.04867833333333, "lat": 38.89222866666667, "name": "bad51ee0e62ae7bfb8bd464bda0ee05b", "fusion_lat": 0.0, "fusion_lon": 0.0, "rental_uris": {"android": "https://dc.lft.to/lastmile_qr_scan", "ios": "https://dc.lft.to/lastmile_qr_scan"}, "is_reserved": 0, "is_disabled": 0, "type": "electric_scooter", "bike_id": "bad51ee0e62ae7bfb8bd464bda0ee05b"}, {"lon": -76.99016733333333, "lat": 38.86111433333333, "name": "c423c6a76804789b3824d292d7befeff", "fusion_lat": 0.0, "fusion_lon": 0.0, "rental_uris": {"android": "https://dc.lft.to/lastmile_qr_scan", "ios": "https://dc.lft.to/lastmile_qr_scan"}, "is_reserved": 0, "is_disabled": 0, "type": "electric_scooter", "bike_id": "c423c6a76804789b3824d292d7befeff"}, {"lon": -77.01761033333334, "lat": 38.902637666666664, "name": "0c2f28282f7953847fd848520aaee383", "fusion_lat": 0.0, "fusion_lon": 0.0, "rental_uris": {"android": "https://dc.lft.to/lastmile_qr_scan", "ios": "https://dc.lft.to/lastmile_qr_scan"}, "is_reserved": 0, "is_disabled": 0, "type": "electric_scooter", "bike_id": "0c2f28282f7953847fd848520aaee383"}, {"lon": -77.04520933333333, "lat": 38.90766716666667, "name": "15b3a45714bacc9d5d654bda35754323", "fusion_lat": 0.0, "fusion_lon": 0.0, "rental_uris": {"android": "https://dc.lft.to/lastmile_qr_scan", "ios": "https://dc.lft.to/lastmile_qr_scan"}, "is_reserved": 0, "is_disabled": 0, "type": "electric_scooter", "bike_id": "15b3a45714bacc9d5d654bda35754323"}, {"lon": -77.02385383333333, "lat": 38.90745, "name": "be2888c7dc243287473fc2384af0c6d1", "fusion_lat": 0.0, "fusion_lon": 0.0, "rental_uris": {"android": "https://dc.lft.to/lastmile_qr_scan", "ios": "https://dc.lft.to/lastmile_qr_scan"}, "is_reserved": 0, "is_disabled": 0, "type": "electric_scooter", "bike_id": "be2888c7dc243287473fc2384af0c6d1"}, {"lon": -76.99632533333333, "lat": 38.846197833333335, "name": "6f8c953e42453f28469f059c8c699a3a", "fusion_lat": 0.0, "fusion_lon": 0.0, "rental_uris": {"android": "https://dc.lft.to/lastmile_qr_scan", "ios": "https://dc.lft.to/lastmile_qr_scan"}, "is_reserved": 0, "is_disabled": 0, "type": "electric_scooter", "bike_id": "6f8c953e42453f28469f059c8c699a3a"}, {"lon": -76.94762283333333, "lat": 38.900503666666665, "name": "6bda9bb793588eec9e4fcff913d8bddf", "fusion_lat": 0.0, "fusion_lon": 0.0, "rental_uris": {"android": "https://dc.lft.to/lastmile_qr_scan", "ios": "https://dc.lft.to/lastmile_qr_scan"}, "is_reserved": 0, "is_disabled": 0, "type": "electric_scooter", "bike_id": "6bda9bb793588eec9e4fcff913d8bddf"}, {"lon": -77.03070183333334, "lat": 38.92245783333333, "name": "f987d6cca760cf407327769d8c1ed808", "fusion_lat": 0.0, "fusion_lon": 0.0, "rental_uris": {"android": "https://dc.lft.to/lastmile_qr_scan", "ios": "https://dc.lft.to/lastmile_qr_scan"}, "is_reserved": 0, "is_disabled": 0, "type": "electric_scooter", "bike_id": "f987d6cca760cf407327769d8c1ed808"}, {"lon": -77.02172716666666, "lat": 38.88744916666667, "name": "8c5eeeba694d8bf075563f1840be725e", "fusion_lat": 0.0, "fusion_lon": 0.0, "rental_uris": {"android": "https://dc.lft.to/lastmile_qr_scan", "ios": "https://dc.lft.to/lastmile_qr_scan"}, "is_reserved": 0, "is_disabled": 0, "type": "electric_scooter", "bike_id": "8c5eeeba694d8bf075563f1840be725e"}, {"lon": -77.02303683333334, "lat": 38.9655955, "name": "12678651643cfad39236d16a5fdf497f", "fusion_lat": 0.0, "fusion_lon": 0.0, "rental_uris": {"android": "https://dc.lft.to/lastmile_qr_scan", "ios": "https://dc.lft.to/lastmile_qr_scan"}, "is_reserved": 0, "is_disabled": 0, "type": "electric_bike", "bike_id": "12678651643cfad39236d16a5fdf497f"}, {"lon": -76.99454583333333, "lat": 38.90022583333333, "name": "3250afbe936c8224c876edcb70ba6380", "fusion_lat": 0.0, "fusion_lon": 0.0, "rental_uris": {"android": "https://dc.lft.to/lastmile_qr_scan", "ios": "https://dc.lft.to/lastmile_qr_scan"}, "is_reserved": 0, "is_disabled": 0, "type": "electric_scooter", "bike_id": "3250afbe936c8224c876edcb70ba6380"}, {"lon": -77.019742, "lat": 38.901266666666665, "name": "7432d6455ffb278e8d35e75ef3f75a76", "fusion_lat": 0.0, "fusion_lon": 0.0, "rental_uris": {"android": "https://dc.lft.to/lastmile_qr_scan", "ios": "https://dc.lft.to/lastmile_qr_scan"}, "is_reserved": 0, "is_disabled": 0, "type": "electric_scooter", "bike_id": "7432d6455ffb278e8d35e75ef3f75a76"}, {"lon": -77.014175, "lat": 38.8908995, "name": "5a7fd16c054e794d372e0c4ee3f73966", "fusion_lat": 0.0, "fusion_lon": 0.0, "rental_uris": {"android": "https://dc.lft.to/lastmile_qr_scan", "ios": "https://dc.lft.to/lastmile_qr_scan"}, "is_reserved": 0, "is_disabled": 0, "type": "electric_scooter", "bike_id": "5a7fd16c054e794d372e0c4ee3f73966"}, {"lon": -77.03228483333334, "lat": 38.89218266666666, "name": "ba4e7c772dcd0b3c916ff6a620d2d29b", "fusion_lat": 0.0, "fusion_lon": 0.0, "rental_uris": {"android": "https://dc.lft.to/lastmile_qr_scan", "ios": "https://dc.lft.to/lastmile_qr_scan"}, "is_reserved": 0, "is_disabled": 0, "type": "electric_scooter", "bike_id": "ba4e7c772dcd0b3c916ff6a620d2d29b"}, {"lon": -77.03274033333334, "lat": 38.93446516666667, "name": "830d1cbb2480d8e6a36b25b3e3501e51", "fusion_lat": 0.0, "fusion_lon": 0.0, "rental_uris": {"android": "https://dc.lft.to/lastmile_qr_scan", "ios": "https://dc.lft.to/lastmile_qr_scan"}, "is_reserved": 0, "is_disabled": 0, "type": "electric_scooter", "bike_id": "830d1cbb2480d8e6a36b25b3e3501e51"}, {"lon": -77.07722666666666, "lat": 38.94703783333333, "name": "708fb1535311588d006bffbf5da4adfb", "fusion_lat": 0.0, "fusion_lon": 0.0, "rental_uris": {"android": "https://dc.lft.to/lastmile_qr_scan", "ios": "https://dc.lft.to/lastmile_qr_scan"}, "is_reserved": 0, "is_disabled": 0, "type": "electric_scooter", "bike_id": "708fb1535311588d006bffbf5da4adfb"}, {"lon": -77.03379416666667, "lat": 38.932125, "name": "cd9182091e4a9005d5f8860b2ea57739", "fusion_lat": 0.0, "fusion_lon": 0.0, "rental_uris": {"android": "https://dc.lft.to/lastmile_qr_scan", "ios": "https://dc.lft.to/lastmile_qr_scan"}, "is_reserved": 0, "is_disabled": 0, "type": "electric_scooter", "bike_id": "cd9182091e4a9005d5f8860b2ea57739"}, {"lon": -77.03763633333334, "lat": 38.93960716666667, "name": "4f9e70b26f44e61e2f9b6f3021784762", "fusion_lat": 0.0, "fusion_lon": 0.0, "rental_uris": {"android": "https://dc.lft.to/lastmile_qr_scan", "ios": "https://dc.lft.to/lastmile_qr_scan"}, "is_reserved": 0, "is_disabled": 0, "type": "electric_bike", "bike_id": "4f9e70b26f44e61e2f9b6f3021784762"}, {"lon": -76.97314266666666, "lat": 38.919838, "name": "3e50bfc12400f2ddc9ba7461de4a9999", "fusion_lat": 0.0, "fusion_lon": 0.0, "rental_uris": {"android": "https://dc.lft.to/lastmile_qr_scan", "ios": "https://dc.lft.to/lastmile_qr_scan"}, "is_reserved": 0, "is_disabled": 0, "type": "electric_scooter", "bike_id": "3e50bfc12400f2ddc9ba7461de4a9999"}, {"lon": -77.0240225, "lat": 38.9070495, "name": "79165c4d25846dc8cde1ac83039313bd", "fusion_lat": 0.0, "fusion_lon": 0.0, "rental_uris": {"android": "https://dc.lft.to/lastmile_qr_scan", "ios": "https://dc.lft.to/lastmile_qr_scan"}, "is_reserved": 0, "is_disabled": 0, "type": "electric_scooter", "bike_id": "79165c4d25846dc8cde1ac83039313bd"}, {"lon": -77.0060365, "lat": 38.884874833333335, "name": "c445edb28abdf44e4b014dfae34b517b", "fusion_lat": 0.0, "fusion_lon": 0.0, "rental_uris": {"android": "https://dc.lft.to/lastmile_qr_scan", "ios": "https://dc.lft.to/lastmile_qr_scan"}, "is_reserved": 0, "is_disabled": 0, "type": "electric_scooter", "bike_id": "c445edb28abdf44e4b014dfae34b517b"}, {"lon": -77.02490566666667, "lat": 38.93860166666666, "name": "d29b146e741daf2f3220345fc3da44b1", "fusion_lat": 0.0, "fusion_lon": 0.0, "rental_uris": {"android": "https://dc.lft.to/lastmile_qr_scan", "ios": "https://dc.lft.to/lastmile_qr_scan"}, "is_reserved": 0, "is_disabled": 0, "type": "electric_scooter", "bike_id": "d29b146e741daf2f3220345fc3da44b1"}, {"lon": -77.03264733333333, "lat": 38.938175666666666, "name": "5c4eb06573bf485fa1d1cf816e61d82b", "fusion_lat": 0.0, "fusion_lon": 0.0, "rental_uris": {"android": "https://dc.lft.to/lastmile_qr_scan", "ios": "https://dc.lft.to/lastmile_qr_scan"}, "is_reserved": 0, "is_disabled": 0, "type": "electric_scooter", "bike_id": "5c4eb06573bf485fa1d1cf816e61d82b"}, {"lon": -77.04406433333334, "lat": 38.9058855, "name": "1c0c605bd682a79fd1ed9de9d44f146d", "fusion_lat": 0.0, "fusion_lon": 0.0, "rental_uris": {"android": "https://dc.lft.to/lastmile_qr_scan", "ios": "https://dc.lft.to/lastmile_qr_scan"}, "is_reserved": 0, "is_disabled": 0, "type": "electric_scooter", "bike_id": "1c0c605bd682a79fd1ed9de9d44f146d"}, {"lon": -77.04793433333333, "lat": 38.89363566666667, "name": "db8992bf793f7009267fb6cd2391d060", "fusion_lat": 0.0, "fusion_lon": 0.0, "rental_uris": {"android": "https://dc.lft.to/lastmile_qr_scan", "ios": "https://dc.lft.to/lastmile_qr_scan"}, "is_reserved": 0, "is_disabled": 0, "type": "electric_scooter", "bike_id": "db8992bf793f7009267fb6cd2391d060"}, {"lon": -76.982654, "lat": 38.863576333333334, "name": "c780b39528913f125e229101d31d891a", "fusion_lat": 0.0, "fusion_lon": 0.0, "rental_uris": {"android": "https://dc.lft.to/lastmile_qr_scan", "ios": "https://dc.lft.to/lastmile_qr_scan"}, "is_reserved": 0, "is_disabled": 0, "type": "electric_scooter", "bike_id": "c780b39528913f125e229101d31d891a"}, {"lon": -77.01657633333333, "lat": 38.953273, "name": "7306ee25ed8d859f9d3031137981b27f", "fusion_lat": 0.0, "fusion_lon": 0.0, "rental_uris": {"android": "https://dc.lft.to/lastmile_qr_scan", "ios": "https://dc.lft.to/lastmile_qr_scan"}, "is_reserved": 0, "is_disabled": 0, "type": "electric_scooter", "bike_id": "7306ee25ed8d859f9d3031137981b27f"}, {"lon": -77.04229066666667, "lat": 38.938530166666666, "name": "78a1d27173ab8159b0892c651e511468", "fusion_lat": 0.0, "fusion_lon": 0.0, "rental_uris": {"android": "https://dc.lft.to/lastmile_qr_scan", "ios": "https://dc.lft.to/lastmile_qr_scan"}, "is_reserved": 0, "is_disabled": 0, "type": "electric_bike", "bike_id": "78a1d27173ab8159b0892c651e511468"}, {"lon": -77.03663516666667, "lat": 38.92551916666667, "name": "207f4ad6e9a4445f1052c19ce5143fef", "fusion_lat": 0.0, "fusion_lon": 0.0, "rental_uris": {"android": "https://dc.lft.to/lastmile_qr_scan", "ios": "https://dc.lft.to/lastmile_qr_scan"}, "is_reserved": 0, "is_disabled": 0, "type": "electric_scooter", "bike_id": "207f4ad6e9a4445f1052c19ce5143fef"}, {"lon": -77.05445983333334, "lat": 38.8960115, "name": "d1b5c26d1d70fcf883eb7edccab67f6b", "fusion_lat": 0.0, "fusion_lon": 0.0, "rental_uris": {"android": "https://dc.lft.to/lastmile_qr_scan", "ios": "https://dc.lft.to/lastmile_qr_scan"}, "is_reserved": 0, "is_disabled": 0, "type": "electric_scooter", "bike_id": "d1b5c26d1d70fcf883eb7edccab67f6b"}, {"lon": -77.01840483333334, "lat": 38.908744166666665, "name": "13092cf10fe9f5d63e4adb9fc99fbc04", "fusion_lat": 0.0, "fusion_lon": 0.0, "rental_uris": {"android": "https://dc.lft.to/lastmile_qr_scan", "ios": "https://dc.lft.to/lastmile_qr_scan"}, "is_reserved": 0, "is_disabled": 0, "type": "electric_scooter", "bike_id": "13092cf10fe9f5d63e4adb9fc99fbc04"}, {"lon": -77.012042, "lat": 38.900036166666666, "name": "5d67ce210a546dbab3aa3e89f0329bbf", "fusion_lat": 0.0, "fusion_lon": 0.0, "rental_uris": {"android": "https://dc.lft.to/lastmile_qr_scan", "ios": "https://dc.lft.to/lastmile_qr_scan"}, "is_reserved": 0, "is_disabled": 0, "type": "electric_scooter", "bike_id": "5d67ce210a546dbab3aa3e89f0329bbf"}, {"lon": -77.0289205, "lat": 38.90705083333334, "name": "62ede3d8d43ac5a18d45086d5fdd1941", "fusion_lat": 0.0, "fusion_lon": 0.0, "rental_uris": {"android": "https://dc.lft.to/lastmile_qr_scan", "ios": "https://dc.lft.to/lastmile_qr_scan"}, "is_reserved": 0, "is_disabled": 0, "type": "electric_bike", "bike_id": "62ede3d8d43ac5a18d45086d5fdd1941"}, {"lon": -77.02635833333333, "lat": 38.96215483333334, "name": "c856aca2e979a9be76828b1fff195d46", "fusion_lat": 0.0, "fusion_lon": 0.0, "rental_uris": {"android": "https://dc.lft.to/lastmile_qr_scan", "ios": "https://dc.lft.to/lastmile_qr_scan"}, "is_reserved": 0, "is_disabled": 0, "type": "electric_bike", "bike_id": "c856aca2e979a9be76828b1fff195d46"}, {"lon": -77.031847, "lat": 38.91568816666667, "name": "8e8a5f3900d2498ed6349d7724c76c8a", "fusion_lat": 0.0, "fusion_lon": 0.0, "rental_uris": {"android": "https://dc.lft.to/lastmile_qr_scan", "ios": "https://dc.lft.to/lastmile_qr_scan"}, "is_reserved": 0, "is_disabled": 0, "type": "electric_scooter", "bike_id": "8e8a5f3900d2498ed6349d7724c76c8a"}, {"lon": -77.03460766666667, "lat": 38.9457355, "name": "cdb6f8643cc99fa15f5439f2bd08e70b", "fusion_lat": 0.0, "fusion_lon": 0.0, "rental_uris": {"android": "https://dc.lft.to/lastmile_qr_scan", "ios": "https://dc.lft.to/lastmile_qr_scan"}, "is_reserved": 0, "is_disabled": 0, "type": "electric_scooter", "bike_id": "cdb6f8643cc99fa15f5439f2bd08e70b"}, {"lon": -77.02201183333334, "lat": 38.898197333333336, "name": "490132c038af6b9010f406589fe6a108", "fusion_lat": 0.0, "fusion_lon": 0.0, "rental_uris": {"android": "https://dc.lft.to/lastmile_qr_scan", "ios": "https://dc.lft.to/lastmile_qr_scan"}, "is_reserved": 0, "is_disabled": 0, "type": "electric_scooter", "bike_id": "490132c038af6b9010f406589fe6a108"}, {"lon": -76.99502033333333, "lat": 38.862408333333335, "name": "2cf20c52a06a4baa557366816ffb68a1", "fusion_lat": 0.0, "fusion_lon": 0.0, "rental_uris": {"android": "https://dc.lft.to/lastmile_qr_scan", "ios": "https://dc.lft.to/lastmile_qr_scan"}, "is_reserved": 0, "is_disabled": 0, "type": "electric_scooter", "bike_id": "2cf20c52a06a4baa557366816ffb68a1"}, {"lon": -77.00727533333334, "lat": 38.884925833333334, "name": "e649e35f7008f38cb82add1efb18b9ca", "fusion_lat": 0.0, "fusion_lon": 0.0, "rental_uris": {"android": "https://dc.lft.to/lastmile_qr_scan", "ios": "https://dc.lft.to/lastmile_qr_scan"}, "is_reserved": 0, "is_disabled": 0, "type": "electric_scooter", "bike_id": "e649e35f7008f38cb82add1efb18b9ca"}, {"lon": -77.03350383333333, "lat": 38.88502883333334, "name": "a30b9030ca92d3533b60201b3915663c", "fusion_lat": 0.0, "fusion_lon": 0.0, "rental_uris": {"android": "https://dc.lft.to/lastmile_qr_scan", "ios": "https://dc.lft.to/lastmile_qr_scan"}, "is_reserved": 0, "is_disabled": 0, "type": "electric_scooter", "bike_id": "a30b9030ca92d3533b60201b3915663c"}, {"lon": -77.030813, "lat": 38.91251, "name": "43b6e2af6f2212b532bf102263cb0272", "fusion_lat": 0.0, "fusion_lon": 0.0, "rental_uris": {"android": "https://dc.lft.to/lastmile_qr_scan", "ios": "https://dc.lft.to/lastmile_qr_scan"}, "is_reserved": 0, "is_disabled": 0, "type": "electric_scooter", "bike_id": "43b6e2af6f2212b532bf102263cb0272"}, {"lon": -76.99550733333334, "lat": 38.886023, "name": "1e2f06dbbfb11b75f0f0978feff428f9", "fusion_lat": 0.0, "fusion_lon": 0.0, "rental_uris": {"android": "https://dc.lft.to/lastmile_qr_scan", "ios": "https://dc.lft.to/lastmile_qr_scan"}, "is_reserved": 0, "is_disabled": 0, "type": "electric_scooter", "bike_id": "1e2f06dbbfb11b75f0f0978feff428f9"}, {"lon": -77.085424, "lat": 38.85618983333333, "name": "ce5fee57b2bf834e97aa9da9be34abbd", "fusion_lat": 0.0, "fusion_lon": 0.0, "rental_uris": {"android": "https://dc.lft.to/lastmile_qr_scan", "ios": "https://dc.lft.to/lastmile_qr_scan"}, "is_reserved": 0, "is_disabled": 0, "type": "electric_bike", "bike_id": "ce5fee57b2bf834e97aa9da9be34abbd"}, {"lon": -77.17847733333333, "lat": 39.089004333333335, "name": "ceb3e041f02ecf706fee6f7843f585b4", "fusion_lat": 0.0, "fusion_lon": 0.0, "rental_uris": {"android": "https://dc.lft.to/lastmile_qr_scan", "ios": "https://dc.lft.to/lastmile_qr_scan"}, "is_reserved": 0, "is_disabled": 0, "type": "electric_bike", "bike_id": "ceb3e041f02ecf706fee6f7843f585b4"}, {"lon": -77.04425433333333, "lat": 38.89182816666667, "name": "bdc0bfebe03c0fb601a899c2dcfa7bde", "fusion_lat": 0.0, "fusion_lon": 0.0, "rental_uris": {"android": "https://dc.lft.to/lastmile_qr_scan", "ios": "https://dc.lft.to/lastmile_qr_scan"}, "is_reserved": 0, "is_disabled": 0, "type": "electric_scooter", "bike_id": "bdc0bfebe03c0fb601a899c2dcfa7bde"}, {"lon": -77.04013383333333, "lat": 38.91874133333334, "name": "078327ffdd1c2199a1fe5e97f241bb84", "fusion_lat": 0.0, "fusion_lon": 0.0, "rental_uris": {"android": "https://dc.lft.to/lastmile_qr_scan", "ios": "https://dc.lft.to/lastmile_qr_scan"}, "is_reserved": 0, "is_disabled": 0, "type": "electric_scooter", "bike_id": "078327ffdd1c2199a1fe5e97f241bb84"}, {"lon": -77.0243845, "lat": 38.926989, "name": "37964b8d53f89f06f77b48fcf35489ac", "fusion_lat": 0.0, "fusion_lon": 0.0, "rental_uris": {"android": "https://dc.lft.to/lastmile_qr_scan", "ios": "https://dc.lft.to/lastmile_qr_scan"}, "is_reserved": 0, "is_disabled": 0, "type": "electric_scooter", "bike_id": "37964b8d53f89f06f77b48fcf35489ac"}, {"lon": -77.0379455, "lat": 38.912144833333336, "name": "cf155a89ecffaa3c87bfa6b40eab574f", "fusion_lat": 0.0, "fusion_lon": 0.0, "rental_uris": {"android": "https://dc.lft.to/lastmile_qr_scan", "ios": "https://dc.lft.to/lastmile_qr_scan"}, "is_reserved": 0, "is_disabled": 0, "type": "electric_scooter", "bike_id": "cf155a89ecffaa3c87bfa6b40eab574f"}, {"lon": -77.0449255, "lat": 38.90376283333333, "name": "6bd91328e96794bf767b4faf1b2a4f22", "fusion_lat": 0.0, "fusion_lon": 0.0, "rental_uris": {"android": "https://dc.lft.to/lastmile_qr_scan", "ios": "https://dc.lft.to/lastmile_qr_scan"}, "is_reserved": 0, "is_disabled": 0, "type": "electric_scooter", "bike_id": "6bd91328e96794bf767b4faf1b2a4f22"}, {"lon": -77.0437825, "lat": 38.92568466666667, "name": "060dba5983bad135fb0941feda229d4b", "fusion_lat": 0.0, "fusion_lon": 0.0, "rental_uris": {"android": "https://dc.lft.to/lastmile_qr_scan", "ios": "https://dc.lft.to/lastmile_qr_scan"}, "is_reserved": 0, "is_disabled": 0, "type": "electric_scooter", "bike_id": "060dba5983bad135fb0941feda229d4b"}, {"lon": -77.0512825, "lat": 38.905416, "name": "c0ffa07724c3b44c59f38aa88b2a48a1", "fusion_lat": 0.0, "fusion_lon": 0.0, "rental_uris": {"android": "https://dc.lft.to/lastmile_qr_scan", "ios": "https://dc.lft.to/lastmile_qr_scan"}, "is_reserved": 0, "is_disabled": 0, "type": "electric_scooter", "bike_id": "c0ffa07724c3b44c59f38aa88b2a48a1"}, {"lon": -76.99952883333333, "lat": 38.84292533333333, "name": "ddfb2839d82ad5b2f66c189999727466", "fusion_lat": 0.0, "fusion_lon": 0.0, "rental_uris": {"android": "https://dc.lft.to/lastmile_qr_scan", "ios": "https://dc.lft.to/lastmile_qr_scan"}, "is_reserved": 0, "is_disabled": 0, "type": "electric_scooter", "bike_id": "ddfb2839d82ad5b2f66c189999727466"}, {"lon": -77.02721666666666, "lat": 38.918128833333334, "name": "67804f7f4ec32f7786fa9a2964671f64", "fusion_lat": 0.0, "fusion_lon": 0.0, "rental_uris": {"android": "https://dc.lft.to/lastmile_qr_scan", "ios": "https://dc.lft.to/lastmile_qr_scan"}, "is_reserved": 0, "is_disabled": 0, "type": "electric_scooter", "bike_id": "67804f7f4ec32f7786fa9a2964671f64"}, {"lon": -77.00024883333333, "lat": 38.91971133333333, "name": "e747d52abad9f729e7b0c43a30d53f03", "fusion_lat": 0.0, "fusion_lon": 0.0, "rental_uris": {"android": "https://dc.lft.to/lastmile_qr_scan", "ios": "https://dc.lft.to/lastmile_qr_scan"}, "is_reserved": 0, "is_disabled": 0, "type": "electric_scooter", "bike_id": "e747d52abad9f729e7b0c43a30d53f03"}, {"lon": -77.01941633333334, "lat": 38.949206333333336, "name": "eb230a96cda01c455e7402dec91502cf", "fusion_lat": 0.0, "fusion_lon": 0.0, "rental_uris": {"android": "https://dc.lft.to/lastmile_qr_scan", "ios": "https://dc.lft.to/lastmile_qr_scan"}, "is_reserved": 0, "is_disabled": 0, "type": "electric_scooter", "bike_id": "eb230a96cda01c455e7402dec91502cf"}, {"lon": -77.022358, "lat": 38.911164166666666, "name": "3945b88b822c9302722b158ae7361d63", "fusion_lat": 0.0, "fusion_lon": 0.0, "rental_uris": {"android": "https://dc.lft.to/lastmile_qr_scan", "ios": "https://dc.lft.to/lastmile_qr_scan"}, "is_reserved": 0, "is_disabled": 0, "type": "electric_scooter", "bike_id": "3945b88b822c9302722b158ae7361d63"}, {"lon": -77.032213, "lat": 38.91630416666667, "name": "7bb9db00970f4a1aacd80b8f886da49e", "fusion_lat": 0.0, "fusion_lon": 0.0, "rental_uris": {"android": "https://dc.lft.to/lastmile_qr_scan", "ios": "https://dc.lft.to/lastmile_qr_scan"}, "is_reserved": 0, "is_disabled": 0, "type": "electric_scooter", "bike_id": "7bb9db00970f4a1aacd80b8f886da49e"}, {"lon": -77.03811716666667, "lat": 38.920651166666666, "name": "552c35f45a48ef81ade628e45ed20368", "fusion_lat": 0.0, "fusion_lon": 0.0, "rental_uris": {"android": "https://dc.lft.to/lastmile_qr_scan", "ios": "https://dc.lft.to/lastmile_qr_scan"}, "is_reserved": 0, "is_disabled": 0, "type": "electric_scooter", "bike_id": "552c35f45a48ef81ade628e45ed20368"}, {"lon": -77.03323933333333, "lat": 38.89842466666666, "name": "85cb666fb4a2930b05917234c49bb488", "fusion_lat": 0.0, "fusion_lon": 0.0, "rental_uris": {"android": "https://dc.lft.to/lastmile_qr_scan", "ios": "https://dc.lft.to/lastmile_qr_scan"}, "is_reserved": 0, "is_disabled": 0, "type": "electric_scooter", "bike_id": "85cb666fb4a2930b05917234c49bb488"}, {"lon": -77.01760283333333, "lat": 38.876874, "name": "97757e5269193ec4d2b11cd7a6ca2ae2", "fusion_lat": 0.0, "fusion_lon": 0.0, "rental_uris": {"android": "https://dc.lft.to/lastmile_qr_scan", "ios": "https://dc.lft.to/lastmile_qr_scan"}, "is_reserved": 0, "is_disabled": 0, "type": "electric_scooter", "bike_id": "97757e5269193ec4d2b11cd7a6ca2ae2"}, {"lon": -77.04487516666667, "lat": 38.91064516666667, "name": "3f363c55e9a3650dfe13985797b3122b", "fusion_lat": 0.0, "fusion_lon": 0.0, "rental_uris": {"android": "https://dc.lft.to/lastmile_qr_scan", "ios": "https://dc.lft.to/lastmile_qr_scan"}, "is_reserved": 0, "is_disabled": 0, "type": "electric_scooter", "bike_id": "3f363c55e9a3650dfe13985797b3122b"}, {"lon": -77.0473575, "lat": 38.911167, "name": "24be1f3002cc16660196e0e7a8fbba3f", "fusion_lat": 0.0, "fusion_lon": 0.0, "rental_uris": {"android": "https://dc.lft.to/lastmile_qr_scan", "ios": "https://dc.lft.to/lastmile_qr_scan"}, "is_reserved": 0, "is_disabled": 0, "type": "electric_scooter", "bike_id": "24be1f3002cc16660196e0e7a8fbba3f"}, {"lon": -77.04243, "lat": 38.9227455, "name": "98ccd7b66d17b89d7ffa75b13c766848", "fusion_lat": 0.0, "fusion_lon": 0.0, "rental_uris": {"android": "https://dc.lft.to/lastmile_qr_scan", "ios": "https://dc.lft.to/lastmile_qr_scan"}, "is_reserved": 0, "is_disabled": 0, "type": "electric_scooter", "bike_id": "98ccd7b66d17b89d7ffa75b13c766848"}, {"lon": -76.988387, "lat": 38.901815166666665, "name": "0194d1bc561d9c79105efa16f85bc2c6", "fusion_lat": 0.0, "fusion_lon": 0.0, "rental_uris": {"android": "https://dc.lft.to/lastmile_qr_scan", "ios": "https://dc.lft.to/lastmile_qr_scan"}, "is_reserved": 0, "is_disabled": 0, "type": "electric_scooter", "bike_id": "0194d1bc561d9c79105efa16f85bc2c6"}, {"lon": -77.0276715, "lat": 38.95609783333333, "name": "4cf70541e8dccaac1f467896534e34e3", "fusion_lat": 0.0, "fusion_lon": 0.0, "rental_uris": {"android": "https://dc.lft.to/lastmile_qr_scan", "ios": "https://dc.lft.to/lastmile_qr_scan"}, "is_reserved": 0, "is_disabled": 0, "type": "electric_scooter", "bike_id": "4cf70541e8dccaac1f467896534e34e3"}, {"lon": -77.00715766666667, "lat": 38.884849333333335, "name": "b5255287dc98bb954eddfc463b927dba", "fusion_lat": 0.0, "fusion_lon": 0.0, "rental_uris": {"android": "https://dc.lft.to/lastmile_qr_scan", "ios": "https://dc.lft.to/lastmile_qr_scan"}, "is_reserved": 0, "is_disabled": 0, "type": "electric_scooter", "bike_id": "b5255287dc98bb954eddfc463b927dba"}, {"lon": -77.02511083333333, "lat": 38.926352666666666, "name": "45a85fa121fbb77245594e9279ed573e", "fusion_lat": 0.0, "fusion_lon": 0.0, "rental_uris": {"android": "https://dc.lft.to/lastmile_qr_scan", "ios": "https://dc.lft.to/lastmile_qr_scan"}, "is_reserved": 0, "is_disabled": 0, "type": "electric_scooter", "bike_id": "45a85fa121fbb77245594e9279ed573e"}, {"lon": -77.04906433333333, "lat": 38.88835266666667, "name": "25682f589197ddbb6a2677fe1116eb31", "fusion_lat": 0.0, "fusion_lon": 0.0, "rental_uris": {"android": "https://dc.lft.to/lastmile_qr_scan", "ios": "https://dc.lft.to/lastmile_qr_scan"}, "is_reserved": 0, "is_disabled": 0, "type": "electric_scooter", "bike_id": "25682f589197ddbb6a2677fe1116eb31"}, {"lon": -77.02972483333333, "lat": 38.95420683333333, "name": "ba4d1a5ac97426de0cc74222f9d6ca1d", "fusion_lat": 0.0, "fusion_lon": 0.0, "rental_uris": {"android": "https://dc.lft.to/lastmile_qr_scan", "ios": "https://dc.lft.to/lastmile_qr_scan"}, "is_reserved": 0, "is_disabled": 0, "type": "electric_scooter", "bike_id": "ba4d1a5ac97426de0cc74222f9d6ca1d"}, {"lon": -77.0695565, "lat": 38.990427833333335, "name": "1e42a72ee99d399b577b3931f88d099e", "fusion_lat": 0.0, "fusion_lon": 0.0, "rental_uris": {"android": "https://dc.lft.to/lastmile_qr_scan", "ios": "https://dc.lft.to/lastmile_qr_scan"}, "is_reserved": 0, "is_disabled": 0, "type": "electric_bike", "bike_id": "1e42a72ee99d399b577b3931f88d099e"}, {"lon": -76.93761416666666, "lat": 38.899634, "name": "1b9c28243dcc65c385b2049e369da540", "fusion_lat": 0.0, "fusion_lon": 0.0, "rental_uris": {"android": "https://dc.lft.to/lastmile_qr_scan", "ios": "https://dc.lft.to/lastmile_qr_scan"}, "is_reserved": 0, "is_disabled": 0, "type": "electric_scooter", "bike_id": "1b9c28243dcc65c385b2049e369da540"}, {"lon": -77.01080533333334, "lat": 38.956515, "name": "ab8d4ed7f635e1282bda96c53fc039da", "fusion_lat": 0.0, "fusion_lon": 0.0, "rental_uris": {"android": "https://dc.lft.to/lastmile_qr_scan", "ios": "https://dc.lft.to/lastmile_qr_scan"}, "is_reserved": 0, "is_disabled": 0, "type": "electric_bike", "bike_id": "ab8d4ed7f635e1282bda96c53fc039da"}, {"lon": -77.027723, "lat": 38.891967666666666, "name": "2e6daf59d5e31443348b3bd75364d291", "fusion_lat": 0.0, "fusion_lon": 0.0, "rental_uris": {"android": "https://dc.lft.to/lastmile_qr_scan", "ios": "https://dc.lft.to/lastmile_qr_scan"}, "is_reserved": 0, "is_disabled": 0, "type": "electric_scooter", "bike_id": "2e6daf59d5e31443348b3bd75364d291"}, {"lon": -77.01774733333333, "lat": 38.90051866666667, "name": "25afb13b7442a3f10a55dca50fce9a9e", "fusion_lat": 0.0, "fusion_lon": 0.0, "rental_uris": {"android": "https://dc.lft.to/lastmile_qr_scan", "ios": "https://dc.lft.to/lastmile_qr_scan"}, "is_reserved": 0, "is_disabled": 0, "type": "electric_scooter", "bike_id": "25afb13b7442a3f10a55dca50fce9a9e"}, {"lon": -76.976319, "lat": 38.892767, "name": "8746ef9b5bd557b30139661ba733a9d3", "fusion_lat": 0.0, "fusion_lon": 0.0, "rental_uris": {"android": "https://dc.lft.to/lastmile_qr_scan", "ios": "https://dc.lft.to/lastmile_qr_scan"}, "is_reserved": 0, "is_disabled": 0, "type": "electric_bike", "bike_id": "8746ef9b5bd557b30139661ba733a9d3"}, {"lon": -77.03981666666667, "lat": 38.902798, "name": "5341050a0309414ef68aadd0d604c2ef", "fusion_lat": 0.0, "fusion_lon": 0.0, "rental_uris": {"android": "https://dc.lft.to/lastmile_qr_scan", "ios": "https://dc.lft.to/lastmile_qr_scan"}, "is_reserved": 0, "is_disabled": 0, "type": "electric_scooter", "bike_id": "5341050a0309414ef68aadd0d604c2ef"}, {"lon": -77.0059915, "lat": 38.906262, "name": "ea13d06fdef3c1421f743ca0de415a46", "fusion_lat": 0.0, "fusion_lon": 0.0, "rental_uris": {"android": "https://dc.lft.to/lastmile_qr_scan", "ios": "https://dc.lft.to/lastmile_qr_scan"}, "is_reserved": 0, "is_disabled": 0, "type": "electric_scooter", "bike_id": "ea13d06fdef3c1421f743ca0de415a46"}, {"lon": -77.04259416666666, "lat": 38.920656666666666, "name": "78793a5a1f9c9e26389cf83589ca5aeb", "fusion_lat": 0.0, "fusion_lon": 0.0, "rental_uris": {"android": "https://dc.lft.to/lastmile_qr_scan", "ios": "https://dc.lft.to/lastmile_qr_scan"}, "is_reserved": 0, "is_disabled": 0, "type": "electric_scooter", "bike_id": "78793a5a1f9c9e26389cf83589ca5aeb"}, {"lon": -77.0270295, "lat": 38.9182145, "name": "4e3b24342bf412752b7c6ef87c373a4d", "fusion_lat": 0.0, "fusion_lon": 0.0, "rental_uris": {"android": "https://dc.lft.to/lastmile_qr_scan", "ios": "https://dc.lft.to/lastmile_qr_scan"}, "is_reserved": 0, "is_disabled": 0, "type": "electric_scooter", "bike_id": "4e3b24342bf412752b7c6ef87c373a4d"}, {"lon": -77.0269625, "lat": 38.92249316666667, "name": "21605086e86bfe5ef1a714824d96dcd7", "fusion_lat": 0.0, "fusion_lon": 0.0, "rental_uris": {"android": "https://dc.lft.to/lastmile_qr_scan", "ios": "https://dc.lft.to/lastmile_qr_scan"}, "is_reserved": 0, "is_disabled": 0, "type": "electric_scooter", "bike_id": "21605086e86bfe5ef1a714824d96dcd7"}, {"lon": -77.00212566666667, "lat": 38.897215333333335, "name": "e688cef1506db59bc03cac34d6ac7154", "fusion_lat": 0.0, "fusion_lon": 0.0, "rental_uris": {"android": "https://dc.lft.to/lastmile_qr_scan", "ios": "https://dc.lft.to/lastmile_qr_scan"}, "is_reserved": 0, "is_disabled": 0, "type": "electric_scooter", "bike_id": "e688cef1506db59bc03cac34d6ac7154"}, {"lon": -77.06776, "lat": 38.94968216666667, "name": "30d291a3ccc510c8d385290659dd9af5", "fusion_lat": 0.0, "fusion_lon": 0.0, "rental_uris": {"android": "https://dc.lft.to/lastmile_qr_scan", "ios": "https://dc.lft.to/lastmile_qr_scan"}, "is_reserved": 0, "is_disabled": 0, "type": "electric_scooter", "bike_id": "30d291a3ccc510c8d385290659dd9af5"}, {"lon": -77.00734066666666, "lat": 38.959674666666665, "name": "5462cb527ca96d3836f30247728f310e", "fusion_lat": 0.0, "fusion_lon": 0.0, "rental_uris": {"android": "https://dc.lft.to/lastmile_qr_scan", "ios": "https://dc.lft.to/lastmile_qr_scan"}, "is_reserved": 0, "is_disabled": 0, "type": "electric_scooter", "bike_id": "5462cb527ca96d3836f30247728f310e"}, {"lon": -77.01867983333334, "lat": 38.91981, "name": "380ef59b37e611552e667a049d852611", "fusion_lat": 0.0, "fusion_lon": 0.0, "rental_uris": {"android": "https://dc.lft.to/lastmile_qr_scan", "ios": "https://dc.lft.to/lastmile_qr_scan"}, "is_reserved": 0, "is_disabled": 0, "type": "electric_scooter", "bike_id": "380ef59b37e611552e667a049d852611"}, {"lon": -76.9771225, "lat": 38.89881183333333, "name": "f2acd4a1fe2f3ab4cefab3b507172247", "fusion_lat": 0.0, "fusion_lon": 0.0, "rental_uris": {"android": "https://dc.lft.to/lastmile_qr_scan", "ios": "https://dc.lft.to/lastmile_qr_scan"}, "is_reserved": 0, "is_disabled": 0, "type": "electric_scooter", "bike_id": "f2acd4a1fe2f3ab4cefab3b507172247"}, {"lon": -77.03637033333334, "lat": 38.924211166666666, "name": "55e7f487dba247c9ad4383c22d05716e", "fusion_lat": 0.0, "fusion_lon": 0.0, "rental_uris": {"android": "https://dc.lft.to/lastmile_qr_scan", "ios": "https://dc.lft.to/lastmile_qr_scan"}, "is_reserved": 0, "is_disabled": 0, "type": "electric_scooter", "bike_id": "55e7f487dba247c9ad4383c22d05716e"}, {"lon": -77.01782466666667, "lat": 38.9009695, "name": "a23625abf2a72c4b4ac82e326fe29b92", "fusion_lat": 0.0, "fusion_lon": 0.0, "rental_uris": {"android": "https://dc.lft.to/lastmile_qr_scan", "ios": "https://dc.lft.to/lastmile_qr_scan"}, "is_reserved": 0, "is_disabled": 0, "type": "electric_scooter", "bike_id": "a23625abf2a72c4b4ac82e326fe29b92"}, {"lon": -77.02675816666667, "lat": 38.95481083333333, "name": "696d1934657d07f18b70266e13898c06", "fusion_lat": 0.0, "fusion_lon": 0.0, "rental_uris": {"android": "https://dc.lft.to/lastmile_qr_scan", "ios": "https://dc.lft.to/lastmile_qr_scan"}, "is_reserved": 0, "is_disabled": 0, "type": "electric_bike", "bike_id": "696d1934657d07f18b70266e13898c06"}, {"lon": -76.97219316666667, "lat": 38.84476566666667, "name": "5a264ed0cf45f2d2699f12abcd2c15b9", "fusion_lat": 0.0, "fusion_lon": 0.0, "rental_uris": {"android": "https://dc.lft.to/lastmile_qr_scan", "ios": "https://dc.lft.to/lastmile_qr_scan"}, "is_reserved": 0, "is_disabled": 0, "type": "electric_bike", "bike_id": "5a264ed0cf45f2d2699f12abcd2c15b9"}, {"lon": -77.01904216666667, "lat": 38.9172935, "name": "d7f9562f68107b77a65e82217d67f52b", "fusion_lat": 0.0, "fusion_lon": 0.0, "rental_uris": {"android": "https://dc.lft.to/lastmile_qr_scan", "ios": "https://dc.lft.to/lastmile_qr_scan"}, "is_reserved": 0, "is_disabled": 0, "type": "electric_scooter", "bike_id": "d7f9562f68107b77a65e82217d67f52b"}, {"lon": -77.032926, "lat": 38.93685033333333, "name": "f45f88e5704bc957b7304977ee92831c", "fusion_lat": 0.0, "fusion_lon": 0.0, "rental_uris": {"android": "https://dc.lft.to/lastmile_qr_scan", "ios": "https://dc.lft.to/lastmile_qr_scan"}, "is_reserved": 0, "is_disabled": 0, "type": "electric_scooter", "bike_id": "f45f88e5704bc957b7304977ee92831c"}, {"lon": -77.02712466666667, "lat": 38.91813283333333, "name": "41bb5d73a08974302c3b6d104967f4a1", "fusion_lat": 0.0, "fusion_lon": 0.0, "rental_uris": {"android": "https://dc.lft.to/lastmile_qr_scan", "ios": "https://dc.lft.to/lastmile_qr_scan"}, "is_reserved": 0, "is_disabled": 0, "type": "electric_scooter", "bike_id": "41bb5d73a08974302c3b6d104967f4a1"}, {"lon": -77.03197116666666, "lat": 38.89985433333333, "name": "ffcd47922fa7318aafdd3636016c85d6", "fusion_lat": 0.0, "fusion_lon": 0.0, "rental_uris": {"android": "https://dc.lft.to/lastmile_qr_scan", "ios": "https://dc.lft.to/lastmile_qr_scan"}, "is_reserved": 0, "is_disabled": 0, "type": "electric_scooter", "bike_id": "ffcd47922fa7318aafdd3636016c85d6"}, {"lon": -77.022588, "lat": 38.924958833333335, "name": "b55cde5fa8d7ab8ca5475e342d82e264", "fusion_lat": 0.0, "fusion_lon": 0.0, "rental_uris": {"android": "https://dc.lft.to/lastmile_qr_scan", "ios": "https://dc.lft.to/lastmile_qr_scan"}, "is_reserved": 0, "is_disabled": 0, "type": "electric_scooter", "bike_id": "b55cde5fa8d7ab8ca5475e342d82e264"}, {"lon": -77.08937116666667, "lat": 38.84097233333333, "name": "57edfd61e61315996b6ac50dc7fb08bb", "fusion_lat": 0.0, "fusion_lon": 0.0, "rental_uris": {"android": "https://dc.lft.to/lastmile_qr_scan", "ios": "https://dc.lft.to/lastmile_qr_scan"}, "is_reserved": 0, "is_disabled": 0, "type": "electric_bike", "bike_id": "57edfd61e61315996b6ac50dc7fb08bb"}, {"lon": -77.03655283333333, "lat": 38.954916833333336, "name": "70a84662b5e4563bcc6ac67f365e8cd2", "fusion_lat": 0.0, "fusion_lon": 0.0, "rental_uris": {"android": "https://dc.lft.to/lastmile_qr_scan", "ios": "https://dc.lft.to/lastmile_qr_scan"}, "is_reserved": 0, "is_disabled": 0, "type": "electric_scooter", "bike_id": "70a84662b5e4563bcc6ac67f365e8cd2"}, {"lon": -77.02820283333334, "lat": 38.92369466666667, "name": "7a40ba969579558dd80c440a28d2d003", "fusion_lat": 0.0, "fusion_lon": 0.0, "rental_uris": {"android": "https://dc.lft.to/lastmile_qr_scan", "ios": "https://dc.lft.to/lastmile_qr_scan"}, "is_reserved": 0, "is_disabled": 0, "type": "electric_scooter", "bike_id": "7a40ba969579558dd80c440a28d2d003"}, {"lon": -77.02712716666667, "lat": 38.94997566666667, "name": "ecd0156920b135f8bf6a4368dce65c8f", "fusion_lat": 0.0, "fusion_lon": 0.0, "rental_uris": {"android": "https://dc.lft.to/lastmile_qr_scan", "ios": "https://dc.lft.to/lastmile_qr_scan"}, "is_reserved": 0, "is_disabled": 0, "type": "electric_scooter", "bike_id": "ecd0156920b135f8bf6a4368dce65c8f"}, {"lon": -77.04078333333334, "lat": 38.81229616666667, "name": "95c68c37e642be3cd0ebdf3accd45a17", "fusion_lat": 0.0, "fusion_lon": 0.0, "rental_uris": {"android": "https://dc.lft.to/lastmile_qr_scan", "ios": "https://dc.lft.to/lastmile_qr_scan"}, "is_reserved": 0, "is_disabled": 0, "type": "electric_bike", "bike_id": "95c68c37e642be3cd0ebdf3accd45a17"}, {"lon": -77.01999216666667, "lat": 38.90235, "name": "8cc634e514eb44cd4ad5cf190086b0ca", "fusion_lat": 0.0, "fusion_lon": 0.0, "rental_uris": {"android": "https://dc.lft.to/lastmile_qr_scan", "ios": "https://dc.lft.to/lastmile_qr_scan"}, "is_reserved": 0, "is_disabled": 0, "type": "electric_scooter", "bike_id": "8cc634e514eb44cd4ad5cf190086b0ca"}, {"lon": -77.032896, "lat": 38.95645066666667, "name": "949067e311f69357d2b0f19b6ba9de5d", "fusion_lat": 0.0, "fusion_lon": 0.0, "rental_uris": {"android": "https://dc.lft.to/lastmile_qr_scan", "ios": "https://dc.lft.to/lastmile_qr_scan"}, "is_reserved": 0, "is_disabled": 0, "type": "electric_scooter", "bike_id": "949067e311f69357d2b0f19b6ba9de5d"}, {"lon": -77.03163283333333, "lat": 38.91189816666667, "name": "0a1282069bb91c0dc80ee2adb32f1f8b", "fusion_lat": 0.0, "fusion_lon": 0.0, "rental_uris": {"android": "https://dc.lft.to/lastmile_qr_scan", "ios": "https://dc.lft.to/lastmile_qr_scan"}, "is_reserved": 0, "is_disabled": 0, "type": "electric_scooter", "bike_id": "0a1282069bb91c0dc80ee2adb32f1f8b"}, {"lon": -76.99393633333334, "lat": 38.90054933333333, "name": "ae07e2fecf5c0150df94c7a0082aec3b", "fusion_lat": 0.0, "fusion_lon": 0.0, "rental_uris": {"android": "https://dc.lft.to/lastmile_qr_scan", "ios": "https://dc.lft.to/lastmile_qr_scan"}, "is_reserved": 0, "is_disabled": 0, "type": "electric_scooter", "bike_id": "ae07e2fecf5c0150df94c7a0082aec3b"}, {"lon": -76.93898766666666, "lat": 38.883303166666664, "name": "0b76f88e10c8369b6a38b2c2b2cc8c9c", "fusion_lat": 0.0, "fusion_lon": 0.0, "rental_uris": {"android": "https://dc.lft.to/lastmile_qr_scan", "ios": "https://dc.lft.to/lastmile_qr_scan"}, "is_reserved": 0, "is_disabled": 0, "type": "electric_bike", "bike_id": "0b76f88e10c8369b6a38b2c2b2cc8c9c"}, {"lon": -77.0299425, "lat": 38.956235, "name": "6e7c8506cd480e5d927daafc5c46bf7b", "fusion_lat": 0.0, "fusion_lon": 0.0, "rental_uris": {"android": "https://dc.lft.to/lastmile_qr_scan", "ios": "https://dc.lft.to/lastmile_qr_scan"}, "is_reserved": 0, "is_disabled": 0, "type": "electric_scooter", "bike_id": "6e7c8506cd480e5d927daafc5c46bf7b"}, {"lon": -77.027217, "lat": 38.909469, "name": "a59bfb25c3deb006182dea50818c9286", "fusion_lat": 0.0, "fusion_lon": 0.0, "rental_uris": {"android": "https://dc.lft.to/lastmile_qr_scan", "ios": "https://dc.lft.to/lastmile_qr_scan"}, "is_reserved": 0, "is_disabled": 0, "type": "electric_scooter", "bike_id": "a59bfb25c3deb006182dea50818c9286"}, {"lon": -77.0413545, "lat": 38.92343183333333, "name": "9267ef593af739fa177cf5408eda9522", "fusion_lat": 0.0, "fusion_lon": 0.0, "rental_uris": {"android": "https://dc.lft.to/lastmile_qr_scan", "ios": "https://dc.lft.to/lastmile_qr_scan"}, "is_reserved": 0, "is_disabled": 0, "type": "electric_scooter", "bike_id": "9267ef593af739fa177cf5408eda9522"}, {"lon": -77.00209733333334, "lat": 38.904722166666666, "name": "fec74da981c776c6503742e413a14598", "fusion_lat": 0.0, "fusion_lon": 0.0, "rental_uris": {"android": "https://dc.lft.to/lastmile_qr_scan", "ios": "https://dc.lft.to/lastmile_qr_scan"}, "is_reserved": 0, "is_disabled": 0, "type": "electric_scooter", "bike_id": "fec74da981c776c6503742e413a14598"}, {"lon": -77.01219016666667, "lat": 38.900313833333335, "name": "b092b0ad3a54edb928688bfe9a6bd449", "fusion_lat": 0.0, "fusion_lon": 0.0, "rental_uris": {"android": "https://dc.lft.to/lastmile_qr_scan", "ios": "https://dc.lft.to/lastmile_qr_scan"}, "is_reserved": 0, "is_disabled": 0, "type": "electric_scooter", "bike_id": "b092b0ad3a54edb928688bfe9a6bd449"}, {"lon": -77.0403195, "lat": 38.917079, "name": "1af04c7d5c076c9e9274a977a619a5fc", "fusion_lat": 0.0, "fusion_lon": 0.0, "rental_uris": {"android": "https://dc.lft.to/lastmile_qr_scan", "ios": "https://dc.lft.to/lastmile_qr_scan"}, "is_reserved": 0, "is_disabled": 0, "type": "electric_scooter", "bike_id": "1af04c7d5c076c9e9274a977a619a5fc"}, {"lon": -77.04379366666667, "lat": 38.91119833333333, "name": "70a85f3c7dfd8584e08cd902467cda0d", "fusion_lat": 0.0, "fusion_lon": 0.0, "rental_uris": {"android": "https://dc.lft.to/lastmile_qr_scan", "ios": "https://dc.lft.to/lastmile_qr_scan"}, "is_reserved": 0, "is_disabled": 0, "type": "electric_scooter", "bike_id": "70a85f3c7dfd8584e08cd902467cda0d"}, {"lon": -76.9655535, "lat": 38.95095233333333, "name": "4caa4c77021b1b37722e341f49041bb8", "fusion_lat": 0.0, "fusion_lon": 0.0, "rental_uris": {"android": "https://dc.lft.to/lastmile_qr_scan", "ios": "https://dc.lft.to/lastmile_qr_scan"}, "is_reserved": 0, "is_disabled": 0, "type": "electric_bike", "bike_id": "4caa4c77021b1b37722e341f49041bb8"}, {"lon": -77.01387933333334, "lat": 38.9277485, "name": "ab388659b84112bc68a1af6eee5308a0", "fusion_lat": 0.0, "fusion_lon": 0.0, "rental_uris": {"android": "https://dc.lft.to/lastmile_qr_scan", "ios": "https://dc.lft.to/lastmile_qr_scan"}, "is_reserved": 0, "is_disabled": 0, "type": "electric_scooter", "bike_id": "ab388659b84112bc68a1af6eee5308a0"}, {"lon": -77.02186133333333, "lat": 38.909774, "name": "854d8c1309f1927e0607eb797657b033", "fusion_lat": 0.0, "fusion_lon": 0.0, "rental_uris": {"android": "https://dc.lft.to/lastmile_qr_scan", "ios": "https://dc.lft.to/lastmile_qr_scan"}, "is_reserved": 0, "is_disabled": 0, "type": "electric_scooter", "bike_id": "854d8c1309f1927e0607eb797657b033"}, {"lon": -77.07851133333334, "lat": 38.931260333333334, "name": "0fc0845806c2bd92abfbd84a9e820d84", "fusion_lat": 0.0, "fusion_lon": 0.0, "rental_uris": {"android": "https://dc.lft.to/lastmile_qr_scan", "ios": "https://dc.lft.to/lastmile_qr_scan"}, "is_reserved": 0, "is_disabled": 0, "type": "electric_scooter", "bike_id": "0fc0845806c2bd92abfbd84a9e820d84"}, {"lon": -77.04334733333333, "lat": 38.9158455, "name": "879104a4004bd2172066abae6731879d", "fusion_lat": 0.0, "fusion_lon": 0.0, "rental_uris": {"android": "https://dc.lft.to/lastmile_qr_scan", "ios": "https://dc.lft.to/lastmile_qr_scan"}, "is_reserved": 0, "is_disabled": 0, "type": "electric_scooter", "bike_id": "879104a4004bd2172066abae6731879d"}, {"lon": -77.01989566666667, "lat": 38.902624333333335, "name": "89da5456b7f22713a634d28d5caf0ebb", "fusion_lat": 0.0, "fusion_lon": 0.0, "rental_uris": {"android": "https://dc.lft.to/lastmile_qr_scan", "ios": "https://dc.lft.to/lastmile_qr_scan"}, "is_reserved": 0, "is_disabled": 0, "type": "electric_scooter", "bike_id": "89da5456b7f22713a634d28d5caf0ebb"}, {"lon": -77.07278983333333, "lat": 38.934771, "name": "764c846e9e668a7c39678e965d1cf2cf", "fusion_lat": 0.0, "fusion_lon": 0.0, "rental_uris": {"android": "https://dc.lft.to/lastmile_qr_scan", "ios": "https://dc.lft.to/lastmile_qr_scan"}, "is_reserved": 0, "is_disabled": 0, "type": "electric_scooter", "bike_id": "764c846e9e668a7c39678e965d1cf2cf"}, {"lon": -77.008687, "lat": 38.82725666666666, "name": "7fc96710aae60be37c00df55edd6d30a", "fusion_lat": 0.0, "fusion_lon": 0.0, "rental_uris": {"android": "https://dc.lft.to/lastmile_qr_scan", "ios": "https://dc.lft.to/lastmile_qr_scan"}, "is_reserved": 0, "is_disabled": 0, "type": "electric_bike", "bike_id": "7fc96710aae60be37c00df55edd6d30a"}, {"lon": -76.985482, "lat": 38.855844833333336, "name": "c614331db0d13dfbaf32464df9065e1a", "fusion_lat": 0.0, "fusion_lon": 0.0, "rental_uris": {"android": "https://dc.lft.to/lastmile_qr_scan", "ios": "https://dc.lft.to/lastmile_qr_scan"}, "is_reserved": 0, "is_disabled": 0, "type": "electric_scooter", "bike_id": "c614331db0d13dfbaf32464df9065e1a"}, {"lon": -77.0448845, "lat": 38.9093375, "name": "fd698a9bf655c5edb341ee759d9bb0fa", "fusion_lat": 0.0, "fusion_lon": 0.0, "rental_uris": {"android": "https://dc.lft.to/lastmile_qr_scan", "ios": "https://dc.lft.to/lastmile_qr_scan"}, "is_reserved": 0, "is_disabled": 0, "type": "electric_scooter", "bike_id": "fd698a9bf655c5edb341ee759d9bb0fa"}, {"lon": -77.02593966666667, "lat": 38.89241466666667, "name": "f639154d8492b939599a266d4298589a", "fusion_lat": 0.0, "fusion_lon": 0.0, "rental_uris": {"android": "https://dc.lft.to/lastmile_qr_scan", "ios": "https://dc.lft.to/lastmile_qr_scan"}, "is_reserved": 0, "is_disabled": 0, "type": "electric_scooter", "bike_id": "f639154d8492b939599a266d4298589a"}, {"lon": -77.019511, "lat": 38.9242025, "name": "eb1068debb9b6725e5b5c8516a165b10", "fusion_lat": 0.0, "fusion_lon": 0.0, "rental_uris": {"android": "https://dc.lft.to/lastmile_qr_scan", "ios": "https://dc.lft.to/lastmile_qr_scan"}, "is_reserved": 0, "is_disabled": 0, "type": "electric_scooter", "bike_id": "eb1068debb9b6725e5b5c8516a165b10"}, {"lon": -77.03482333333334, "lat": 38.90890666666667, "name": "5a5ca260222dbc93e7270a976e90b3ad", "fusion_lat": 0.0, "fusion_lon": 0.0, "rental_uris": {"android": "https://dc.lft.to/lastmile_qr_scan", "ios": "https://dc.lft.to/lastmile_qr_scan"}, "is_reserved": 0, "is_disabled": 0, "type": "electric_scooter", "bike_id": "5a5ca260222dbc93e7270a976e90b3ad"}, {"lon": -77.05149416666667, "lat": 38.905703, "name": "be87390bc490bcb2dd247763f4f99830", "fusion_lat": 0.0, "fusion_lon": 0.0, "rental_uris": {"android": "https://dc.lft.to/lastmile_qr_scan", "ios": "https://dc.lft.to/lastmile_qr_scan"}, "is_reserved": 0, "is_disabled": 0, "type": "electric_scooter", "bike_id": "be87390bc490bcb2dd247763f4f99830"}, {"lon": -77.00375333333334, "lat": 38.88782783333333, "name": "164c66353f4eb7d191aaf76f5545556c", "fusion_lat": 0.0, "fusion_lon": 0.0, "rental_uris": {"android": "https://dc.lft.to/lastmile_qr_scan", "ios": "https://dc.lft.to/lastmile_qr_scan"}, "is_reserved": 0, "is_disabled": 0, "type": "electric_scooter", "bike_id": "164c66353f4eb7d191aaf76f5545556c"}, {"lon": -77.06165583333333, "lat": 38.943200166666664, "name": "c5015de74720348b4bc1a0fb80397597", "fusion_lat": 0.0, "fusion_lon": 0.0, "rental_uris": {"android": "https://dc.lft.to/lastmile_qr_scan", "ios": "https://dc.lft.to/lastmile_qr_scan"}, "is_reserved": 0, "is_disabled": 0, "type": "electric_scooter", "bike_id": "c5015de74720348b4bc1a0fb80397597"}, {"lon": -77.00745283333333, "lat": 38.898875833333335, "name": "4f96429a2e9f09dc6b4ad918fbb540b9", "fusion_lat": 0.0, "fusion_lon": 0.0, "rental_uris": {"android": "https://dc.lft.to/lastmile_qr_scan", "ios": "https://dc.lft.to/lastmile_qr_scan"}, "is_reserved": 0, "is_disabled": 0, "type": "electric_scooter", "bike_id": "4f96429a2e9f09dc6b4ad918fbb540b9"}, {"lon": -77.02701383333333, "lat": 38.909345, "name": "e3c4e6e57bd3ce9c4061dc5858c58921", "fusion_lat": 0.0, "fusion_lon": 0.0, "rental_uris": {"android": "https://dc.lft.to/lastmile_qr_scan", "ios": "https://dc.lft.to/lastmile_qr_scan"}, "is_reserved": 0, "is_disabled": 0, "type": "electric_scooter", "bike_id": "e3c4e6e57bd3ce9c4061dc5858c58921"}, {"lon": -77.05008116666667, "lat": 38.89224983333333, "name": "bea4978b426c49a495adee8fb5ae01e3", "fusion_lat": 0.0, "fusion_lon": 0.0, "rental_uris": {"android": "https://dc.lft.to/lastmile_qr_scan", "ios": "https://dc.lft.to/lastmile_qr_scan"}, "is_reserved": 0, "is_disabled": 0, "type": "electric_scooter", "bike_id": "bea4978b426c49a495adee8fb5ae01e3"}, {"lon": -77.038212, "lat": 38.907624, "name": "37db7b3a0e1fac607673cc436071f2a1", "fusion_lat": 0.0, "fusion_lon": 0.0, "rental_uris": {"android": "https://dc.lft.to/lastmile_qr_scan", "ios": "https://dc.lft.to/lastmile_qr_scan"}, "is_reserved": 0, "is_disabled": 0, "type": "electric_scooter", "bike_id": "37db7b3a0e1fac607673cc436071f2a1"}, {"lon": -77.03327933333334, "lat": 38.898179, "name": "4d8374e058f3fd820ffeda84d8e574f4", "fusion_lat": 0.0, "fusion_lon": 0.0, "rental_uris": {"android": "https://dc.lft.to/lastmile_qr_scan", "ios": "https://dc.lft.to/lastmile_qr_scan"}, "is_reserved": 0, "is_disabled": 0, "type": "electric_scooter", "bike_id": "4d8374e058f3fd820ffeda84d8e574f4"}, {"lon": -77.00557633333334, "lat": 38.876621666666665, "name": "87e827c7e8691de9fb604e67eaba91ae", "fusion_lat": 0.0, "fusion_lon": 0.0, "rental_uris": {"android": "https://dc.lft.to/lastmile_qr_scan", "ios": "https://dc.lft.to/lastmile_qr_scan"}, "is_reserved": 0, "is_disabled": 0, "type": "electric_scooter", "bike_id": "87e827c7e8691de9fb604e67eaba91ae"}, {"lon": -76.94776516666667, "lat": 38.89623616666667, "name": "a323ef30ae862f482910792d88b76e58", "fusion_lat": 0.0, "fusion_lon": 0.0, "rental_uris": {"android": "https://dc.lft.to/lastmile_qr_scan", "ios": "https://dc.lft.to/lastmile_qr_scan"}, "is_reserved": 0, "is_disabled": 0, "type": "electric_bike", "bike_id": "a323ef30ae862f482910792d88b76e58"}, {"lon": -77.02730316666667, "lat": 38.940838666666664, "name": "1f8fdfd10ce079f1b8c1c137db5e3355", "fusion_lat": 0.0, "fusion_lon": 0.0, "rental_uris": {"android": "https://dc.lft.to/lastmile_qr_scan", "ios": "https://dc.lft.to/lastmile_qr_scan"},