{"data": {"bikes": [{"is_disabled": 0, "type": "electric_scooter", "is_reserved": 0, "lat": 38.909723166666666, "rental_uris": {"ios": "https://dc.lft.to/lastmile_qr_scan", "android": "https://dc.lft.to/lastmile_qr_scan"}, "fusion_lon": 0.0, "fusion_lat": 0.0, "bike_id": "49c804c004561ecd432ce59b48a63ae5", "name": "49c804c004561ecd432ce59b48a63ae5", "lon": -77.0347165}, {"is_disabled": 0, "type": "electric_scooter", "is_reserved": 0, "lat": 38.8872515, "rental_uris": {"ios": "https://dc.lft.to/lastmile_qr_scan", "android": "https://dc.lft.to/lastmile_qr_scan"}, "fusion_lon": 0.0, "fusion_lat": 0.0, "bike_id": "70c9c52758684a4744c9318092ca5bc4", "name": "70c9c52758684a4744c9318092ca5bc4", "lon": -76.954945}, {"is_disabled": 0, "type": "electric_scooter", "is_reserved": 0, "lat": 38.9031825, "rental_uris": {"ios": "https://dc.lft.to/lastmile_qr_scan", "android": "https://dc.lft.to/lastmile_qr_scan"}, "fusion_lon": 0.0, "fusion_lat": 0.0, "bike_id": "36ac9bdbbbc19ff94e8451ad286b3b6e", "name": "36ac9bdbbbc19ff94e8451ad286b3b6e", "lon": -77.01183133333333}, {"is_disabled": 0, "type": "electric_scooter", "is_reserved": 0, "lat": 38.937251333333336, "rental_uris": {"ios": "https://dc.lft.to/lastmile_qr_scan", "android": "https://dc.lft.to/lastmile_qr_scan"}, "fusion_lon": 0.0, "fusion_lat": 0.0, "bike_id": "5c065f9266371621b40b4b492ee79be3", "name": "5c065f9266371621b40b4b492ee79be3", "lon": -77.03266016666667}, {"is_disabled": 0, "type": "electric_scooter", "is_reserved": 0, "lat": 38.867290833333335, "rental_uris": {"ios": "https://dc.lft.to/lastmile_qr_scan", "android": "https://dc.lft.to/lastmile_qr_scan"}, "fusion_lon": 0.0, "fusion_lat": 0.0, "bike_id": "223b02b94287eb75b395a2b3536af295", "name": "223b02b94287eb75b395a2b3536af295", "lon": -76.98661716666666}, {"is_disabled": 0, "type": "electric_scooter", "is_reserved": 0, "lat": 38.93873816666667, "rental_uris": {"ios": "https://dc.lft.to/lastmile_qr_scan", "android": "https://dc.lft.to/lastmile_qr_scan"}, "fusion_lon": 0.0, "fusion_lat": 0.0, "bike_id": "4a13eb9d24c56c4a2a75011f8bd21f84", "name": "4a13eb9d24c56c4a2a75011f8bd21f84", "lon": -77.02465866666667}, {"is_disabled": 0, "type": "electric_scooter", "is_reserved": 0, "lat": 38.90574516666667, "rental_uris": {"ios": "https://dc.lft.to/lastmile_qr_scan", "android": "https://dc.lft.to/lastmile_qr_scan"}, "fusion_lon": 0.0, "fusion_lat": 0.0, "bike_id": "c26e86e6559b0f0bd0fbccde29980dc8", "name": "c26e86e6559b0f0bd0fbccde29980dc8", "lon": -77.00591666666666}, {"is_disabled": 0, "type": "electric_scooter", "is_reserved": 0, "lat": 38.89629683333333, "rental_uris": {"ios": "https://dc.lft.to/lastmile_qr_scan", "android": "https://dc.lft.to/lastmile_qr_scan"}, "fusion_lon": 0.0, "fusion_lat": 0.0, "bike_id": "4dc9723646afab94853145108d2800b9", "name": "4dc9723646afab94853145108d2800b9", "lon": -76.95742166666666}, {"is_disabled": 0, "type": "electric_scooter", "is_reserved": 0, "lat": 38.912543666666664, "rental_uris": {"ios": "https://dc.lft.to/lastmile_qr_scan", "android": "https://dc.lft.to/lastmile_qr_scan"}, "fusion_lon": 0.0, "fusion_lat": 0.0, "bike_id": "ab1c288918c2c9dbc34eb7ae10e46976", "name": "ab1c288918c2c9dbc34eb7ae10e46976", "lon": -77.04355383333333}, {"is_disabled": 0, "type": "electric_scooter", "is_reserved": 0, "lat": 38.910438, "rental_uris": {"ios": "https://dc.lft.to/lastmile_qr_scan", "android": "https://dc.lft.to/lastmile_qr_scan"}, "fusion_lon": 0.0, "fusion_lat": 0.0, "bike_id": "f282cb26d395441740b7817c24be4549", "name": "f282cb26d395441740b7817c24be4549", "lon": -77.04350583333333}, {"is_disabled": 0, "type": "electric_scooter", "is_reserved": 0, "lat": 38.9582085, "rental_uris": {"ios": "https://dc.lft.to/lastmile_qr_scan", "android": "https://dc.lft.to/lastmile_qr_scan"}, "fusion_lon": 0.0, "fusion_lat": 0.0, "bike_id": "a17ed09c653921092b44ef8ed27d0d84", "name": "a17ed09c653921092b44ef8ed27d0d84", "lon": -77.03334866666667}, {"is_disabled": 0, "type": "electric_scooter", "is_reserved": 0, "lat": 38.85880816666667, "rental_uris": {"ios": "https://dc.lft.to/lastmile_qr_scan", "android": "https://dc.lft.to/lastmile_qr_scan"}, "fusion_lon": 0.0, "fusion_lat": 0.0, "bike_id": "14db37320a1878a234b0027b21ddf8fa", "name": "14db37320a1878a234b0027b21ddf8fa", "lon": -76.99012383333333}, {"is_disabled": 0, "type": "electric_scooter", "is_reserved": 0, "lat": 38.924129, "rental_uris": {"ios": "https://dc.lft.to/lastmile_qr_scan", "android": "https://dc.lft.to/lastmile_qr_scan"}, "fusion_lon": 0.0, "fusion_lat": 0.0, "bike_id": "f29a5745b468ca0da069292868318d45", "name": "f29a5745b468ca0da069292868318d45", "lon": -77.04033566666666}, {"is_disabled": 0, "type": "electric_scooter", "is_reserved": 0, "lat": 38.9318155, "rental_uris": {"ios": "https://dc.lft.to/lastmile_qr_scan", "android": "https://dc.lft.to/lastmile_qr_scan"}, "fusion_lon": 0.0, "fusion_lat": 0.0, "bike_id": "c687eb19551438f495be1d752fca7638", "name": "c687eb19551438f495be1d752fca7638", "lon": -77.03852516666667}, {"is_disabled": 0, "type": "electric_scooter", "is_reserved": 0, "lat": 38.9100655, "rental_uris": {"ios": "https://dc.lft.to/lastmile_qr_scan", "android": "https://dc.lft.to/lastmile_qr_scan"}, "fusion_lon": 0.0, "fusion_lat": 0.0, "bike_id": "ae194e90a0163caded7347d50acf3b84", "name": "ae194e90a0163caded7347d50acf3b84", "lon": -76.986351}, {"is_disabled": 0, "type": "electric_scooter", "is_reserved": 0, "lat": 38.9008715, "rental_uris": {"ios": "https://dc.lft.to/lastmile_qr_scan", "android": "https://dc.lft.to/lastmile_qr_scan"}, "fusion_lon": 0.0, "fusion_lat": 0.0, "bike_id": "ae29c4e48448e6070b1c2ec786410cbd", "name": "ae29c4e48448e6070b1c2ec786410cbd", "lon": -77.0491165}, {"is_disabled": 0, "type": "electric_scooter", "is_reserved": 0, "lat": 38.918181833333335, "rental_uris": {"ios": "https://dc.lft.to/lastmile_qr_scan", "android": "https://dc.lft.to/lastmile_qr_scan"}, "fusion_lon": 0.0, "fusion_lat": 0.0, "bike_id": "638072c047e8e23a763e7af0a5f0aee6", "name": "638072c047e8e23a763e7af0a5f0aee6", "lon": -77.02477783333333}, {"is_disabled": 0, "type": "electric_scooter", "is_reserved": 0, "lat": 38.9034905, "rental_uris": {"ios": "https://dc.lft.to/lastmile_qr_scan", "android": "https://dc.lft.to/lastmile_qr_scan"}, "fusion_lon": 0.0, "fusion_lat": 0.0, "bike_id": "b868278bc427b419a3a820cd5685c857", "name": "b868278bc427b419a3a820cd5685c857", "lon": -77.0109915}, {"is_disabled": 0, "type": "electric_scooter", "is_reserved": 0, "lat": 38.90393066666667, "rental_uris": {"ios": "https://dc.lft.to/lastmile_qr_scan", "android": "https://dc.lft.to/lastmile_qr_scan"}, "fusion_lon": 0.0, "fusion_lat": 0.0, "bike_id": "2711a827b7391300e7bea33e0179244e", "name": "2711a827b7391300e7bea33e0179244e", "lon": -77.04455333333334}, {"is_disabled": 0, "type": "electric_scooter", "is_reserved": 0, "lat": 38.916208, "rental_uris": {"ios": "https://dc.lft.to/lastmile_qr_scan", "android": "https://dc.lft.to/lastmile_qr_scan"}, "fusion_lon": 0.0, "fusion_lat": 0.0, "bike_id": "c8946519b9529e14be74a522c14c3be7", "name": "c8946519b9529e14be74a522c14c3be7", "lon": -77.03289583333333}, {"is_disabled": 0, "type": "electric_bike", "is_reserved": 0, "lat": 38.840301333333336, "rental_uris": {"ios": "https://dc.lft.to/lastmile_qr_scan", "android": "https://dc.lft.to/lastmile_qr_scan"}, "fusion_lon": 0.0, "fusion_lat": 0.0, "bike_id": "bd962e56816d884397842db5d64aa659", "name": "bd962e56816d884397842db5d64aa659", "lon": -76.97578883333334}, {"is_disabled": 0, "type": "electric_scooter", "is_reserved": 0, "lat": 38.94153516666667, "rental_uris": {"ios": "https://dc.lft.to/lastmile_qr_scan", "android": "https://dc.lft.to/lastmile_qr_scan"}, "fusion_lon": 0.0, "fusion_lat": 0.0, "bike_id": "c512db29cabf0d90236df0a47639af53", "name": "c512db29cabf0d90236df0a47639af53", "lon": -77.092577}, {"is_disabled": 0, "type": "electric_scooter", "is_reserved": 0, "lat": 38.91560466666667, "rental_uris": {"ios": "https://dc.lft.to/lastmile_qr_scan", "android": "https://dc.lft.to/lastmile_qr_scan"}, "fusion_lon": 0.0, "fusion_lat": 0.0, "bike_id": "1474ad0871ab9248222d8626799d0be7", "name": "1474ad0871ab9248222d8626799d0be7", "lon": -77.03130316666666}, {"is_disabled": 0, "type": "electric_scooter", "is_reserved": 0, "lat": 38.935744166666666, "rental_uris": {"ios": "https://dc.lft.to/lastmile_qr_scan", "android": "https://dc.lft.to/lastmile_qr_scan"}, "fusion_lon": 0.0, "fusion_lat": 0.0, "bike_id": "1d9770c2bf5d785ec7543f91ca2342c4", "name": "1d9770c2bf5d785ec7543f91ca2342c4", "lon": -77.03738016666667}, {"is_disabled": 0, "type": "electric_scooter", "is_reserved": 0, "lat": 38.89193433333333, "rental_uris": {"ios": "https://dc.lft.to/lastmile_qr_scan", "android": "https://dc.lft.to/lastmile_qr_scan"}, "fusion_lon": 0.0, "fusion_lat": 0.0, "bike_id": "67c6b7598a4342aecf213db5d51c532b", "name": "67c6b7598a4342aecf213db5d51c532b", "lon": -77.002943}, {"is_disabled": 0, "type": "electric_scooter", "is_reserved": 0, "lat": 38.86698466666667, "rental_uris": {"ios": "https://dc.lft.to/lastmile_qr_scan", "android": "https://dc.lft.to/lastmile_qr_scan"}, "fusion_lon": 0.0, "fusion_lat": 0.0, "bike_id": "1e6d6b15e9956ce885b974f363d84bef", "name": "1e6d6b15e9956ce885b974f363d84bef", "lon": -76.987121}, {"is_disabled": 0, "type": "electric_scooter", "is_reserved": 0, "lat": 38.87506883333333, "rental_uris": {"ios": "https://dc.lft.to/lastmile_qr_scan", "android": "https://dc.lft.to/lastmile_qr_scan"}, "fusion_lon": 0.0, "fusion_lat": 0.0, "bike_id": "b4f5470fc88ebaadddb5578726ec77fa", "name": "b4f5470fc88ebaadddb5578726ec77fa", "lon": -77.00054916666667}, {"is_disabled": 0, "type": "electric_scooter", "is_reserved": 0, "lat": 38.9176905, "rental_uris": {"ios": "https://dc.lft.to/lastmile_qr_scan", "android": "https://dc.lft.to/lastmile_qr_scan"}, "fusion_lon": 0.0, "fusion_lat": 0.0, "bike_id": "d63b9a561e3061740fa9d4c63e740740", "name": "d63b9a561e3061740fa9d4c63e740740", "lon": -77.02312616666667}, {"is_disabled": 0, "type": "electric_scooter", "is_reserved": 0, "lat": 38.913181, "rental_uris": {"ios": "https://dc.lft.to/lastmile_qr_scan", "android": "https://dc.lft.to/lastmile_qr_scan"}, "fusion_lon": 0.0, "fusion_lat": 0.0, "bike_id": "dd8ae6e4c7992ccffe328af80f763705", "name": "dd8ae6e4c7992ccffe328af80f763705", "lon": -77.03329283333333}, {"is_disabled": 0, "type": "electric_scooter", "is_reserved": 0, "lat": 38.946147, "rental_uris": {"ios": "https://dc.lft.to/lastmile_qr_scan", "android": "https://dc.lft.to/lastmile_qr_scan"}, "fusion_lon": 0.0, "fusion_lat": 0.0, "bike_id": "389d919e04845ebd8cb92420d3138a7f", "name": "389d919e04845ebd8cb92420d3138a7f", "lon": -77.023503}, {"is_disabled": 0, "type": "electric_scooter", "is_reserved": 0, "lat": 38.92148783333333, "rental_uris": {"ios": "https://dc.lft.to/lastmile_qr_scan", "android": "https://dc.lft.to/lastmile_qr_scan"}, "fusion_lon": 0.0, "fusion_lat": 0.0, "bike_id": "288e580c30cb6705639640b232726e6f", "name": "288e580c30cb6705639640b232726e6f", "lon": -77.02429983333333}, {"is_disabled": 0, "type": "electric_scooter", "is_reserved": 0, "lat": 38.9065945, "rental_uris": {"ios": "https://dc.lft.to/lastmile_qr_scan", "android": "https://dc.lft.to/lastmile_qr_scan"}, "fusion_lon": 0.0, "fusion_lat": 0.0, "bike_id": "50f3b45302d30240f52c12f2a8a32bfc", "name": "50f3b45302d30240f52c12f2a8a32bfc", "lon": -77.02698166666667}, {"is_disabled": 0, "type": "electric_scooter", "is_reserved": 0, "lat": 38.94687283333333, "rental_uris": {"ios": "https://dc.lft.to/lastmile_qr_scan", "android": "https://dc.lft.to/lastmile_qr_scan"}, "fusion_lon": 0.0, "fusion_lat": 0.0, "bike_id": "f02cc036854691244da2eb9c75a8dcc4", "name": "f02cc036854691244da2eb9c75a8dcc4", "lon": -76.999106}, {"is_disabled": 0, "type": "electric_scooter", "is_reserved": 0, "lat": 38.9267905, "rental_uris": {"ios": "https://dc.lft.to/lastmile_qr_scan", "android": "https://dc.lft.to/lastmile_qr_scan"}, "fusion_lon": 0.0, "fusion_lat": 0.0, "bike_id": "704b8536f33d670bed34c213f99baf36", "name": "704b8536f33d670bed34c213f99baf36", "lon": -77.015751}, {"is_disabled": 0, "type": "electric_scooter", "is_reserved": 0, "lat": 38.896172666666665, "rental_uris": {"ios": "https://dc.lft.to/lastmile_qr_scan", "android": "https://dc.lft.to/lastmile_qr_scan"}, "fusion_lon": 0.0, "fusion_lat": 0.0, "bike_id": "d046cbfa04767d255cec9a000a9dbc1e", "name": "d046cbfa04767d255cec9a000a9dbc1e", "lon": -77.02234783333333}, {"is_disabled": 0, "type": "electric_scooter", "is_reserved": 0, "lat": 38.910109, "rental_uris": {"ios": "https://dc.lft.to/lastmile_qr_scan", "android": "https://dc.lft.to/lastmile_qr_scan"}, "fusion_lon": 0.0, "fusion_lat": 0.0, "bike_id": "fa9c671906d9a58847b04f69e27135e1", "name": "fa9c671906d9a58847b04f69e27135e1", "lon": -77.03828666666666}, {"is_disabled": 0, "type": "electric_scooter", "is_reserved": 0, "lat": 38.92215133333333, "rental_uris": {"ios": "https://dc.lft.to/lastmile_qr_scan", "android": "https://dc.lft.to/lastmile_qr_scan"}, "fusion_lon": 0.0, "fusion_lat": 0.0, "bike_id": "a5e52a4bf96d60a40f1c71504a27796c", "name": "a5e52a4bf96d60a40f1c71504a27796c", "lon": -77.03526816666667}, {"is_disabled": 0, "type": "electric_scooter", "is_reserved": 0, "lat": 38.8922325, "rental_uris": {"ios": "https://dc.lft.to/lastmile_qr_scan", "android": "https://dc.lft.to/lastmile_qr_scan"}, "fusion_lon": 0.0, "fusion_lat": 0.0, "bike_id": "90df5d6534c08edd3615964543bfc1b7", "name": "90df5d6534c08edd3615964543bfc1b7", "lon": -77.04521066666666}, {"is_disabled": 0, "type": "electric_scooter", "is_reserved": 0, "lat": 38.89348, "rental_uris": {"ios": "https://dc.lft.to/lastmile_qr_scan", "android": "https://dc.lft.to/lastmile_qr_scan"}, "fusion_lon": 0.0, "fusion_lat": 0.0, "bike_id": "88d2cd08da2fe29c2ce82c439a62ff0e", "name": "88d2cd08da2fe29c2ce82c439a62ff0e", "lon": -77.00203783333333}, {"is_disabled": 0, "type": "electric_bike", "is_reserved": 0, "lat": 38.89597233333333, "rental_uris": {"ios": "https://dc.lft.to/lastmile_qr_scan", "android": "https://dc.lft.to/lastmile_qr_scan"}, "fusion_lon": 0.0, "fusion_lat": 0.0, "bike_id": "82cefcfc95b100af6d9784055caec735", "name": "82cefcfc95b100af6d9784055caec735", "lon": -77.0221825}, {"is_disabled": 0, "type": "electric_bike", "is_reserved": 0, "lat": 38.855106166666666, "rental_uris": {"ios": "https://dc.lft.to/lastmile_qr_scan", "android": "https://dc.lft.to/lastmile_qr_scan"}, "fusion_lon": 0.0, "fusion_lat": 0.0, "bike_id": "7aa0402bc3ca078f8efcbc951eeab864", "name": "7aa0402bc3ca078f8efcbc951eeab864", "lon": -77.1202105}, {"is_disabled": 0, "type": "electric_scooter", "is_reserved": 0, "lat": 38.8968995, "rental_uris": {"ios": "https://dc.lft.to/lastmile_qr_scan", "android": "https://dc.lft.to/lastmile_qr_scan"}, "fusion_lon": 0.0, "fusion_lat": 0.0, "bike_id": "2dd7c422a89c074e0d414c065bd9ca0c", "name": "2dd7c422a89c074e0d414c065bd9ca0c", "lon": -77.004989}, {"is_disabled": 0, "type": "electric_scooter", "is_reserved": 0, "lat": 38.893612, "rental_uris": {"ios": "https://dc.lft.to/lastmile_qr_scan", "android": "https://dc.lft.to/lastmile_qr_scan"}, "fusion_lon": 0.0, "fusion_lat": 0.0, "bike_id": "775e927d473d0307c1be5aaee947d4ab", "name": "775e927d473d0307c1be5aaee947d4ab", "lon": -77.0419635}, {"is_disabled": 0, "type": "electric_scooter", "is_reserved": 0, "lat": 38.91402883333333, "rental_uris": {"ios": "https://dc.lft.to/lastmile_qr_scan", "android": "https://dc.lft.to/lastmile_qr_scan"}, "fusion_lon": 0.0, "fusion_lat": 0.0, "bike_id": "22f36ae21f41ae72e3128af8ce031917", "name": "22f36ae21f41ae72e3128af8ce031917", "lon": -77.03228383333334}, {"is_disabled": 0, "type": "electric_scooter", "is_reserved": 0, "lat": 38.90261233333333, "rental_uris": {"ios": "https://dc.lft.to/lastmile_qr_scan", "android": "https://dc.lft.to/lastmile_qr_scan"}, "fusion_lon": 0.0, "fusion_lat": 0.0, "bike_id": "57348960f3116db34134856d6f1bed80", "name": "57348960f3116db34134856d6f1bed80", "lon": -77.04521033333333}, {"is_disabled": 0, "type": "electric_scooter", "is_reserved": 0, "lat": 38.92234533333333, "rental_uris": {"ios": "https://dc.lft.to/lastmile_qr_scan", "android": "https://dc.lft.to/lastmile_qr_scan"}, "fusion_lon": 0.0, "fusion_lat": 0.0, "bike_id": "166013d679d9eccc641ee732d5429261", "name": "166013d679d9eccc641ee732d5429261", "lon": -77.03412916666667}, {"is_disabled": 0, "type": "electric_scooter", "is_reserved": 0, "lat": 38.8975505, "rental_uris": {"ios": "https://dc.lft.to/lastmile_qr_scan", "android": "https://dc.lft.to/lastmile_qr_scan"}, "fusion_lon": 0.0, "fusion_lat": 0.0, "bike_id": "abf2ae1dd332adcdf2b8fab10ff9bea7", "name": "abf2ae1dd332adcdf2b8fab10ff9bea7", "lon": -76.9418915}, {"is_disabled": 0, "type": "electric_scooter", "is_reserved": 0, "lat": 38.90853883333333, "rental_uris": {"ios": "https://dc.lft.to/lastmile_qr_scan", "android": "https://dc.lft.to/lastmile_qr_scan"}, "fusion_lon": 0.0, "fusion_lat": 0.0, "bike_id": "88eca2dd200e21af97e3d1fe1f479c04", "name": "88eca2dd200e21af97e3d1fe1f479c04", "lon": -77.0449325}, {"is_disabled": 0, "type": "electric_scooter", "is_reserved": 0, "lat": 38.938266, "rental_uris": {"ios": "https://dc.lft.to/lastmile_qr_scan", "android": "https://dc.lft.to/lastmile_qr_scan"}, "fusion_lon": 0.0, "fusion_lat": 0.0, "bike_id": "a7bcc04ca7e464a6f748cf2cb78de101", "name": "a7bcc04ca7e464a6f748cf2cb78de101", "lon": -76.98615783333334}, {"is_disabled": 0, "type": "electric_scooter", "is_reserved": 0, "lat": 38.916466166666666, "rental_uris": {"ios": "https://dc.lft.to/lastmile_qr_scan", "android": "https://dc.lft.to/lastmile_qr_scan"}, "fusion_lon": 0.0, "fusion_lat": 0.0, "bike_id": "c3ef27d82796f4c9e2140afc3b26035c", "name": "c3ef27d82796f4c9e2140afc3b26035c", "lon": -77.0416295}, {"is_disabled": 0, "type": "electric_scooter", "is_reserved": 0, "lat": 38.9270025, "rental_uris": {"ios": "https://dc.lft.to/lastmile_qr_scan", "android": "https://dc.lft.to/lastmile_qr_scan"}, "fusion_lon": 0.0, "fusion_lat": 0.0, "bike_id": "a7fb6b62b6ef5e43010a57eab1c67ab6", "name": "a7fb6b62b6ef5e43010a57eab1c67ab6", "lon": -77.0209675}, {"is_disabled": 0, "type": "electric_scooter", "is_reserved": 0, "lat": 38.89726483333333, "rental_uris": {"ios": "https://dc.lft.to/lastmile_qr_scan", "android": "https://dc.lft.to/lastmile_qr_scan"}, "fusion_lon": 0.0, "fusion_lat": 0.0, "bike_id": "43be2923e476608e4d66042b7add4241", "name": "43be2923e476608e4d66042b7add4241", "lon": -76.9939125}, {"is_disabled": 0, "type": "electric_scooter", "is_reserved": 0, "lat": 38.94957633333333, "rental_uris": {"ios": "https://dc.lft.to/lastmile_qr_scan", "android": "https://dc.lft.to/lastmile_qr_scan"}, "fusion_lon": 0.0, "fusion_lat": 0.0, "bike_id": "78573f5a82d2f67240eeccad32cdd9a0", "name": "78573f5a82d2f67240eeccad32cdd9a0", "lon": -77.02724966666666}, {"is_disabled": 0, "type": "electric_scooter", "is_reserved": 0, "lat": 38.92162416666667, "rental_uris": {"ios": "https://dc.lft.to/lastmile_qr_scan", "android": "https://dc.lft.to/lastmile_qr_scan"}, "fusion_lon": 0.0, "fusion_lat": 0.0, "bike_id": "636d2f7dfc381d29a858008ef2e66478", "name": "636d2f7dfc381d29a858008ef2e66478", "lon": -77.04236066666667}, {"is_disabled": 0, "type": "electric_scooter", "is_reserved": 0, "lat": 38.905716, "rental_uris": {"ios": "https://dc.lft.to/lastmile_qr_scan", "android": "https://dc.lft.to/lastmile_qr_scan"}, "fusion_lon": 0.0, "fusion_lat": 0.0, "bike_id": "61890bf41958666ad5d27f209b8bc0ac", "name": "61890bf41958666ad5d27f209b8bc0ac", "lon": -77.03065833333334}, {"is_disabled": 0, "type": "electric_scooter", "is_reserved": 0, "lat": 38.90141716666667, "rental_uris": {"ios": "https://dc.lft.to/lastmile_qr_scan", "android": "https://dc.lft.to/lastmile_qr_scan"}, "fusion_lon": 0.0, "fusion_lat": 0.0, "bike_id": "56a78216b9612a5ad86d2ffb355c6b8c", "name": "56a78216b9612a5ad86d2ffb355c6b8c", "lon": -77.06074166666667}, {"is_disabled": 0, "type": "electric_scooter", "is_reserved": 0, "lat": 38.84289866666667, "rental_uris": {"ios": "https://dc.lft.to/lastmile_qr_scan", "android": "https://dc.lft.to/lastmile_qr_scan"}, "fusion_lon": 0.0, "fusion_lat": 0.0, "bike_id": "463e958eada6e4c505eac1caec2bf1bc", "name": "463e958eada6e4c505eac1caec2bf1bc", "lon": -76.99949366666667}, {"is_disabled": 0, "type": "electric_scooter", "is_reserved": 0, "lat": 38.89505466666667, "rental_uris": {"ios": "https://dc.lft.to/lastmile_qr_scan", "android": "https://dc.lft.to/lastmile_qr_scan"}, "fusion_lon": 0.0, "fusion_lat": 0.0, "bike_id": "57aa45e43cd65d374f4c41922d732a73", "name": "57aa45e43cd65d374f4c41922d732a73", "lon": -77.01612683333333}, {"is_disabled": 0, "type": "electric_scooter", "is_reserved": 0, "lat": 38.90025516666667, "rental_uris": {"ios": "https://dc.lft.to/lastmile_qr_scan", "android": "https://dc.lft.to/lastmile_qr_scan"}, "fusion_lon": 0.0, "fusion_lat": 0.0, "bike_id": "54da19252006096de5582e34d26ff848", "name": "54da19252006096de5582e34d26ff848", "lon": -77.00186}, {"is_disabled": 0, "type": "electric_scooter", "is_reserved": 0, "lat": 38.917427833333335, "rental_uris": {"ios": "https://dc.lft.to/lastmile_qr_scan", "android": "https://dc.lft.to/lastmile_qr_scan"}, "fusion_lon": 0.0, "fusion_lat": 0.0, "bike_id": "bfc9e37fbb53f98dc552616afda7f2c5", "name": "bfc9e37fbb53f98dc552616afda7f2c5", "lon": -77.03083066666666}, {"is_disabled": 0, "type": "electric_scooter", "is_reserved": 0, "lat": 38.9097035, "rental_uris": {"ios": "https://dc.lft.to/lastmile_qr_scan", "android": "https://dc.lft.to/lastmile_qr_scan"}, "fusion_lon": 0.0, "fusion_lat": 0.0, "bike_id": "9449ce771aa83f2ab446367f2a08e4ad", "name": "9449ce771aa83f2ab446367f2a08e4ad", "lon": -77.02243333333334}, {"is_disabled": 0, "type": "electric_scooter", "is_reserved": 0, "lat": 38.923215, "rental_uris": {"ios": "https://dc.lft.to/lastmile_qr_scan", "android": "https://dc.lft.to/lastmile_qr_scan"}, "fusion_lon": 0.0, "fusion_lat": 0.0, "bike_id": "48c6710987eead550298662057590a48", "name": "48c6710987eead550298662057590a48", "lon": -77.02970383333333}, {"is_disabled": 0, "type": "electric_scooter", "is_reserved": 0, "lat": 38.93082616666667, "rental_uris": {"ios": "https://dc.lft.to/lastmile_qr_scan", "android": "https://dc.lft.to/lastmile_qr_scan"}, "fusion_lon": 0.0, "fusion_lat": 0.0, "bike_id": "f35859b883dc33041d8f7ea2929f255e", "name": "f35859b883dc33041d8f7ea2929f255e", "lon": -77.02335416666666}, {"is_disabled": 0, "type": "electric_scooter", "is_reserved": 0, "lat": 38.90355816666667, "rental_uris": {"ios": "https://dc.lft.to/lastmile_qr_scan", "android": "https://dc.lft.to/lastmile_qr_scan"}, "fusion_lon": 0.0, "fusion_lat": 0.0, "bike_id": "40c975c420dcc5e2741008ed2e412838", "name": "40c975c420dcc5e2741008ed2e412838", "lon": -77.04011083333333}, {"is_disabled": 0, "type": "electric_scooter", "is_reserved": 0, "lat": 38.92421616666667, "rental_uris": {"ios": "https://dc.lft.to/lastmile_qr_scan", "android": "https://dc.lft.to/lastmile_qr_scan"}, "fusion_lon": 0.0, "fusion_lat": 0.0, "bike_id": "1fad1e327c055d7e7fc4fe4f2948114c", "name": "1fad1e327c055d7e7fc4fe4f2948114c", "lon": -77.04556266666667}, {"is_disabled": 0, "type": "electric_scooter", "is_reserved": 0, "lat": 38.947814, "rental_uris": {"ios": "https://dc.lft.to/lastmile_qr_scan", "android": "https://dc.lft.to/lastmile_qr_scan"}, "fusion_lon": 0.0, "fusion_lat": 0.0, "bike_id": "904451e9bdee89ad49d813bb65e641a8", "name": "904451e9bdee89ad49d813bb65e641a8", "lon": -77.07988683333333}, {"is_disabled": 0, "type": "electric_scooter", "is_reserved": 0, "lat": 38.89014683333333, "rental_uris": {"ios": "https://dc.lft.to/lastmile_qr_scan", "android": "https://dc.lft.to/lastmile_qr_scan"}, "fusion_lon": 0.0, "fusion_lat": 0.0, "bike_id": "2443b0405a508c230a714b018058373f", "name": "2443b0405a508c230a714b018058373f", "lon": -76.937394}, {"is_disabled": 0, "type": "electric_scooter", "is_reserved": 0, "lat": 38.842920666666664, "rental_uris": {"ios": "https://dc.lft.to/lastmile_qr_scan", "android": "https://dc.lft.to/lastmile_qr_scan"}, "fusion_lon": 0.0, "fusion_lat": 0.0, "bike_id": "bd8695b237f76e226cd8968bd70562c5", "name": "bd8695b237f76e226cd8968bd70562c5", "lon": -76.99947783333333}, {"is_disabled": 0, "type": "electric_scooter", "is_reserved": 0, "lat": 38.9172115, "rental_uris": {"ios": "https://dc.lft.to/lastmile_qr_scan", "android": "https://dc.lft.to/lastmile_qr_scan"}, "fusion_lon": 0.0, "fusion_lat": 0.0, "bike_id": "3077a22b2c0905739df681a11a011941", "name": "3077a22b2c0905739df681a11a011941", "lon": -77.02972766666667}, {"is_disabled": 0, "type": "electric_scooter", "is_reserved": 0, "lat": 38.88479, "rental_uris": {"ios": "https://dc.lft.to/lastmile_qr_scan", "android": "https://dc.lft.to/lastmile_qr_scan"}, "fusion_lon": 0.0, "fusion_lat": 0.0, "bike_id": "79e38eed147b70dc24985d8e01532c7d", "name": "79e38eed147b70dc24985d8e01532c7d", "lon": -77.01602633333333}, {"is_disabled": 0, "type": "electric_scooter", "is_reserved": 0, "lat": 38.93214583333334, "rental_uris": {"ios": "https://dc.lft.to/lastmile_qr_scan", "android": "https://dc.lft.to/lastmile_qr_scan"}, "fusion_lon": 0.0, "fusion_lat": 0.0, "bike_id": "2a6d9669c423f386f13c27e5a6d46505", "name": "2a6d9669c423f386f13c27e5a6d46505", "lon": -77.037984}, {"is_disabled": 0, "type": "electric_scooter", "is_reserved": 0, "lat": 38.898389, "rental_uris": {"ios": "https://dc.lft.to/lastmile_qr_scan", "android": "https://dc.lft.to/lastmile_qr_scan"}, "fusion_lon": 0.0, "fusion_lat": 0.0, "bike_id": "c0e5a99cc7224f5de667f0754624cecd", "name": "c0e5a99cc7224f5de667f0754624cecd", "lon": -76.9463415}, {"is_disabled": 0, "type": "electric_scooter", "is_reserved": 0, "lat": 38.89507566666666, "rental_uris": {"ios": "https://dc.lft.to/lastmile_qr_scan", "android": "https://dc.lft.to/lastmile_qr_scan"}, "fusion_lon": 0.0, "fusion_lat": 0.0, "bike_id": "7340ba4c25c4e2d9eadcea45f55880f3", "name": "7340ba4c25c4e2d9eadcea45f55880f3", "lon": -77.04683133333333}, {"is_disabled": 0, "type": "electric_scooter", "is_reserved": 0, "lat": 38.86693066666667, "rental_uris": {"ios": "https://dc.lft.to/lastmile_qr_scan", "android": "https://dc.lft.to/lastmile_qr_scan"}, "fusion_lon": 0.0, "fusion_lat": 0.0, "bike_id": "d846ced1d0b7a4680b5558a1ed1b3b0f", "name": "d846ced1d0b7a4680b5558a1ed1b3b0f", "lon": -76.983979}, {"is_disabled": 0, "type": "electric_bike", "is_reserved": 0, "lat": 38.90548866666666, "rental_uris": {"ios": "https://dc.lft.to/lastmile_qr_scan", "android": "https://dc.lft.to/lastmile_qr_scan"}, "fusion_lon": 0.0, "fusion_lat": 0.0, "bike_id": "3d4c84d60159d039d2872f9fc123e464", "name": "3d4c84d60159d039d2872f9fc123e464", "lon": -77.0022115}, {"is_disabled": 0, "type": "electric_scooter", "is_reserved": 0, "lat": 38.8664875, "rental_uris": {"ios": "https://dc.lft.to/lastmile_qr_scan", "android": "https://dc.lft.to/lastmile_qr_scan"}, "fusion_lon": 0.0, "fusion_lat": 0.0, "bike_id": "89e669394613c0cdc0cd02c75d4e16a2", "name": "89e669394613c0cdc0cd02c75d4e16a2", "lon": -76.98890483333334}, {"is_disabled": 0, "type": "electric_scooter", "is_reserved": 0, "lat": 38.902322166666664, "rental_uris": {"ios": "https://dc.lft.to/lastmile_qr_scan", "android": "https://dc.lft.to/lastmile_qr_scan"}, "fusion_lon": 0.0, "fusion_lat": 0.0, "bike_id": "0fc85aba0bb98736df35f1f547f289d3", "name": "0fc85aba0bb98736df35f1f547f289d3", "lon": -77.0261755}, {"is_disabled": 0, "type": "electric_scooter", "is_reserved": 0, "lat": 38.926498, "rental_uris": {"ios": "https://dc.lft.to/lastmile_qr_scan", "android": "https://dc.lft.to/lastmile_qr_scan"}, "fusion_lon": 0.0, "fusion_lat": 0.0, "bike_id": "a929674865c877c45a2e8a8a82faabec", "name": "a929674865c877c45a2e8a8a82faabec", "lon": -77.04319516666666}, {"is_disabled": 0, "type": "electric_scooter", "is_reserved": 0, "lat": 38.89925233333334, "rental_uris": {"ios": "https://dc.lft.to/lastmile_qr_scan", "android": "https://dc.lft.to/lastmile_qr_scan"}, "fusion_lon": 0.0, "fusion_lat": 0.0, "bike_id": "864823b93682851e68ac10e6ce5ddbc9", "name": "864823b93682851e68ac10e6ce5ddbc9", "lon": -77.02927833333334}, {"is_disabled": 0, "type": "electric_scooter", "is_reserved": 0, "lat": 38.90190966666667, "rental_uris": {"ios": "https://dc.lft.to/lastmile_qr_scan", "android": "https://dc.lft.to/lastmile_qr_scan"}, "fusion_lon": 0.0, "fusion_lat": 0.0, "bike_id": "4a9b46ce5682f22ea2e6504eb8fce907", "name": "4a9b46ce5682f22ea2e6504eb8fce907", "lon": -77.0162345}, {"is_disabled": 0, "type": "electric_scooter", "is_reserved": 0, "lat": 38.9168, "rental_uris": {"ios": "https://dc.lft.to/lastmile_qr_scan", "android": "https://dc.lft.to/lastmile_qr_scan"}, "fusion_lon": 0.0, "fusion_lat": 0.0, "bike_id": "f942347cc3a056743c3e8e409a278d9e", "name": "f942347cc3a056743c3e8e409a278d9e", "lon": -77.02285216666667}, {"is_disabled": 0, "type": "electric_scooter", "is_reserved": 0, "lat": 38.89043683333333, "rental_uris": {"ios": "https://dc.lft.to/lastmile_qr_scan", "android": "https://dc.lft.to/lastmile_qr_scan"}, "fusion_lon": 0.0, "fusion_lat": 0.0, "bike_id": "57755a39e1df4c03083717783578a95e", "name": "57755a39e1df4c03083717783578a95e", "lon": -76.93761283333333}, {"is_disabled": 0, "type": "electric_scooter", "is_reserved": 0, "lat": 38.88636866666667, "rental_uris": {"ios": "https://dc.lft.to/lastmile_qr_scan", "android": "https://dc.lft.to/lastmile_qr_scan"}, "fusion_lon": 0.0, "fusion_lat": 0.0, "bike_id": "a16f89995f5d09be7d63ff5ddfd86885", "name": "a16f89995f5d09be7d63ff5ddfd86885", "lon": -76.9927275}, {"is_disabled": 0, "type": "electric_scooter", "is_reserved": 0, "lat": 38.875653166666666, "rental_uris": {"ios": "https://dc.lft.to/lastmile_qr_scan", "android": "https://dc.lft.to/lastmile_qr_scan"}, "fusion_lon": 0.0, "fusion_lat": 0.0, "bike_id": "e9f5b8b9c3024d0cf16ff03cb692889e", "name": "e9f5b8b9c3024d0cf16ff03cb692889e", "lon": -77.0059815}, {"is_disabled": 0, "type": "electric_scooter", "is_reserved": 0, "lat": 38.91712316666667, "rental_uris": {"ios": "https://dc.lft.to/lastmile_qr_scan", "android": "https://dc.lft.to/lastmile_qr_scan"}, "fusion_lon": 0.0, "fusion_lat": 0.0, "bike_id": "2454f261ce56ffb4a6d692c3fdb01c10", "name": "2454f261ce56ffb4a6d692c3fdb01c10", "lon": -77.04073516666666}, {"is_disabled": 0, "type": "electric_scooter", "is_reserved": 0, "lat": 38.92024516666667, "rental_uris": {"ios": "https://dc.lft.to/lastmile_qr_scan", "android": "https://dc.lft.to/lastmile_qr_scan"}, "fusion_lon": 0.0, "fusion_lat": 0.0, "bike_id": "4a9f7b59c45f0a437c2a0907c35f62ac", "name": "4a9f7b59c45f0a437c2a0907c35f62ac", "lon": -76.99567466666667}, {"is_disabled": 0, "type": "electric_scooter", "is_reserved": 0, "lat": 38.886562166666664, "rental_uris": {"ios": "https://dc.lft.to/lastmile_qr_scan", "android": "https://dc.lft.to/lastmile_qr_scan"}, "fusion_lon": 0.0, "fusion_lat": 0.0, "bike_id": "da603f742d37d2e87682f9b532ba78e8", "name": "da603f742d37d2e87682f9b532ba78e8", "lon": -77.01510016666667}, {"is_disabled": 0, "type": "electric_scooter", "is_reserved": 0, "lat": 38.9181625, "rental_uris": {"ios": "https://dc.lft.to/lastmile_qr_scan", "android": "https://dc.lft.to/lastmile_qr_scan"}, "fusion_lon": 0.0, "fusion_lat": 0.0, "bike_id": "8afe76b82c8bd5dbc327096500be207c", "name": "8afe76b82c8bd5dbc327096500be207c", "lon": -77.02476116666666}, {"is_disabled": 0, "type": "electric_scooter", "is_reserved": 0, "lat": 38.9003405, "rental_uris": {"ios": "https://dc.lft.to/lastmile_qr_scan", "android": "https://dc.lft.to/lastmile_qr_scan"}, "fusion_lon": 0.0, "fusion_lat": 0.0, "bike_id": "268f10a1fcb2b75e518db6c22afb618b", "name": "268f10a1fcb2b75e518db6c22afb618b", "lon": -77.04087}, {"is_disabled": 0, "type": "electric_scooter", "is_reserved": 0, "lat": 38.883824, "rental_uris": {"ios": "https://dc.lft.to/lastmile_qr_scan", "android": "https://dc.lft.to/lastmile_qr_scan"}, "fusion_lon": 0.0, "fusion_lat": 0.0, "bike_id": "adb77cffaeb8b71be22317d95a16faa4", "name": "adb77cffaeb8b71be22317d95a16faa4", "lon": -77.04607083333333}, {"is_disabled": 0, "type": "electric_scooter", "is_reserved": 0, "lat": 38.85174833333333, "rental_uris": {"ios": "https://dc.lft.to/lastmile_qr_scan", "android": "https://dc.lft.to/lastmile_qr_scan"}, "fusion_lon": 0.0, "fusion_lat": 0.0, "bike_id": "3aee7216247549e64259346f316896cf", "name": "3aee7216247549e64259346f316896cf", "lon": -76.99585683333333}, {"is_disabled": 0, "type": "electric_scooter", "is_reserved": 0, "lat": 38.93987666666666, "rental_uris": {"ios": "https://dc.lft.to/lastmile_qr_scan", "android": "https://dc.lft.to/lastmile_qr_scan"}, "fusion_lon": 0.0, "fusion_lat": 0.0, "bike_id": "623250b30a065fe80c0af6189f35b08e", "name": "623250b30a065fe80c0af6189f35b08e", "lon": -77.06116383333334}, {"is_disabled": 0, "type": "electric_scooter", "is_reserved": 0, "lat": 38.8813985, "rental_uris": {"ios": "https://dc.lft.to/lastmile_qr_scan", "android": "https://dc.lft.to/lastmile_qr_scan"}, "fusion_lon": 0.0, "fusion_lat": 0.0, "bike_id": "7bfd43edd51d23a3bd31e10cbf116e2f", "name": "7bfd43edd51d23a3bd31e10cbf116e2f", "lon": -77.01772833333334}, {"is_disabled": 0, "type": "electric_scooter", "is_reserved": 0, "lat": 38.912854833333334, "rental_uris": {"ios": "https://dc.lft.to/lastmile_qr_scan", "android": "https://dc.lft.to/lastmile_qr_scan"}, "fusion_lon": 0.0, "fusion_lat": 0.0, "bike_id": "baac00cb35047b5c3e194a49738347cb", "name": "baac00cb35047b5c3e194a49738347cb", "lon": -77.02163866666666}, {"is_disabled": 0, "type": "electric_scooter", "is_reserved": 0, "lat": 38.878318, "rental_uris": {"ios": "https://dc.lft.to/lastmile_qr_scan", "android": "https://dc.lft.to/lastmile_qr_scan"}, "fusion_lon": 0.0, "fusion_lat": 0.0, "bike_id": "cbb016247c3127f207158a6b25eaed0a", "name": "cbb016247c3127f207158a6b25eaed0a", "lon": -77.01969833333334}, {"is_disabled": 0, "type": "electric_scooter", "is_reserved": 0, "lat": 38.902661333333334, "rental_uris": {"ios": "https://dc.lft.to/lastmile_qr_scan", "android": "https://dc.lft.to/lastmile_qr_scan"}, "fusion_lon": 0.0, "fusion_lat": 0.0, "bike_id": "65864cd573a5c4158d1dfad5d602c247", "name": "65864cd573a5c4158d1dfad5d602c247", "lon": -77.05318766666667}, {"is_disabled": 0, "type": "electric_scooter", "is_reserved": 0, "lat": 38.90147566666667, "rental_uris": {"ios": "https://dc.lft.to/lastmile_qr_scan", "android": "https://dc.lft.to/lastmile_qr_scan"}, "fusion_lon": 0.0, "fusion_lat": 0.0, "bike_id": "893b3a5a5e34de5ca5ea4b4217f43030", "name": "893b3a5a5e34de5ca5ea4b4217f43030", "lon": -77.02284183333333}, {"is_disabled": 0, "type": "electric_scooter", "is_reserved": 0, "lat": 38.90271033333333, "rental_uris": {"ios": "https://dc.lft.to/lastmile_qr_scan", "android": "https://dc.lft.to/lastmile_qr_scan"}, "fusion_lon": 0.0, "fusion_lat": 0.0, "bike_id": "0d2adc0d14b1a1400ff000a6dff7984a", "name": "0d2adc0d14b1a1400ff000a6dff7984a", "lon": -77.03836033333333}, {"is_disabled": 0, "type": "electric_scooter", "is_reserved": 0, "lat": 38.922835166666665, "rental_uris": {"ios": "https://dc.lft.to/lastmile_qr_scan", "android": "https://dc.lft.to/lastmile_qr_scan"}, "fusion_lon": 0.0, "fusion_lat": 0.0, "bike_id": "2a54599f97e1b8554fcfca2075f4feb1", "name": "2a54599f97e1b8554fcfca2075f4feb1", "lon": -77.0366425}, {"is_disabled": 0, "type": "electric_scooter", "is_reserved": 0, "lat": 38.9086445, "rental_uris": {"ios": "https://dc.lft.to/lastmile_qr_scan", "android": "https://dc.lft.to/lastmile_qr_scan"}, "fusion_lon": 0.0, "fusion_lat": 0.0, "bike_id": "90c25ebd8ae149a76b5c25b5ec63f6cc", "name": "90c25ebd8ae149a76b5c25b5ec63f6cc", "lon": -77.04349733333333}, {"is_disabled": 0, "type": "electric_scooter", "is_reserved": 0, "lat": 38.895566333333335, "rental_uris": {"ios": "https://dc.lft.to/lastmile_qr_scan", "android": "https://dc.lft.to/lastmile_qr_scan"}, "fusion_lon": 0.0, "fusion_lat": 0.0, "bike_id": "b9324ee8c04b1ee755a2bdf145d3cd0f", "name": "b9324ee8c04b1ee755a2bdf145d3cd0f", "lon": -77.029872}, {"is_disabled": 0, "type": "electric_scooter", "is_reserved": 0, "lat": 38.9198375, "rental_uris": {"ios": "https://dc.lft.to/lastmile_qr_scan", "android": "https://dc.lft.to/lastmile_qr_scan"}, "fusion_lon": 0.0, "fusion_lat": 0.0, "bike_id": "b923e46a67fa232f323b81afe5d70634", "name": "b923e46a67fa232f323b81afe5d70634", "lon": -77.04177666666666}, {"is_disabled": 0, "type": "electric_bike", "is_reserved": 0, "lat": 38.94915683333333, "rental_uris": {"ios": "https://dc.lft.to/lastmile_qr_scan", "android": "https://dc.lft.to/lastmile_qr_scan"}, "fusion_lon": 0.0, "fusion_lat": 0.0, "bike_id": "429454501d2fd04fb76baae9344bf347", "name": "429454501d2fd04fb76baae9344bf347", "lon": -76.97703366666667}, {"is_disabled": 0, "type": "electric_scooter", "is_reserved": 0, "lat": 38.90594816666667, "rental_uris": {"ios": "https://dc.lft.to/lastmile_qr_scan", "android": "https://dc.lft.to/lastmile_qr_scan"}, "fusion_lon": 0.0, "fusion_lat": 0.0, "bike_id": "dea1cc8d641719a41939dbbb6b64c46f", "name": "dea1cc8d641719a41939dbbb6b64c46f", "lon": -77.07004783333333}, {"is_disabled": 0, "type": "electric_bike", "is_reserved": 0, "lat": 38.939602, "rental_uris": {"ios": "https://dc.lft.to/lastmile_qr_scan", "android": "https://dc.lft.to/lastmile_qr_scan"}, "fusion_lon": 0.0, "fusion_lat": 0.0, "bike_id": "d8066ea704a315c9520388b3560bd410", "name": "d8066ea704a315c9520388b3560bd410", "lon": -77.36097466666666}, {"is_disabled": 0, "type": "electric_scooter", "is_reserved": 0, "lat": 38.900047666666666, "rental_uris": {"ios": "https://dc.lft.to/lastmile_qr_scan", "android": "https://dc.lft.to/lastmile_qr_scan"}, "fusion_lon": 0.0, "fusion_lat": 0.0, "bike_id": "924ecb5feab29a4c037eaf26054003f2", "name": "924ecb5feab29a4c037eaf26054003f2", "lon": -77.03231833333334}, {"is_disabled": 0, "type": "electric_bike", "is_reserved": 0, "lat": 38.9620855, "rental_uris": {"ios": "https://dc.lft.to/lastmile_qr_scan", "android": "https://dc.lft.to/lastmile_qr_scan"}, "fusion_lon": 0.0, "fusion_lat": 0.0, "bike_id": "b948bcfb570fe5e07807b51ac4c24a2d", "name": "b948bcfb570fe5e07807b51ac4c24a2d", "lon": -77.02627133333333}, {"is_disabled": 0, "type": "electric_scooter", "is_reserved": 0, "lat": 38.911927666666664, "rental_uris": {"ios": "https://dc.lft.to/lastmile_qr_scan", "android": "https://dc.lft.to/lastmile_qr_scan"}, "fusion_lon": 0.0, "fusion_lat": 0.0, "bike_id": "af12dcc2678d1e3c79f9d8da9607294e", "name": "af12dcc2678d1e3c79f9d8da9607294e", "lon": -77.0397765}, {"is_disabled": 0, "type": "electric_scooter", "is_reserved": 0, "lat": 38.8903515, "rental_uris": {"ios": "https://dc.lft.to/lastmile_qr_scan", "android": "https://dc.lft.to/lastmile_qr_scan"}, "fusion_lon": 0.0, "fusion_lat": 0.0, "bike_id": "e980ca6d2f7d7afe4581d9d07602a359", "name": "e980ca6d2f7d7afe4581d9d07602a359", "lon": -76.951481}, {"is_disabled": 0, "type": "electric_bike", "is_reserved": 0, "lat": 38.99831266666666, "rental_uris": {"ios": "https://dc.lft.to/lastmile_qr_scan", "android": "https://dc.lft.to/lastmile_qr_scan"}, "fusion_lon": 0.0, "fusion_lat": 0.0, "bike_id": "bd3579af488e96f1b48f7561735610c9", "name": "bd3579af488e96f1b48f7561735610c9", "lon": -76.88376816666667}, {"is_disabled": 0, "type": "electric_scooter", "is_reserved": 0, "lat": 38.9211405, "rental_uris": {"ios": "https://dc.lft.to/lastmile_qr_scan", "android": "https://dc.lft.to/lastmile_qr_scan"}, "fusion_lon": 0.0, "fusion_lat": 0.0, "bike_id": "22e9bcbba051f61abb9b9af64f383312", "name": "22e9bcbba051f61abb9b9af64f383312", "lon": -77.018094}, {"is_disabled": 0, "type": "electric_scooter", "is_reserved": 0, "lat": 38.90029966666667, "rental_uris": {"ios": "https://dc.lft.to/lastmile_qr_scan", "android": "https://dc.lft.to/lastmile_qr_scan"}, "fusion_lon": 0.0, "fusion_lat": 0.0, "bike_id": "6afd82f9846f6e793dcfab1c637e240b", "name": "6afd82f9846f6e793dcfab1c637e240b", "lon": -76.98827016666667}, {"is_disabled": 0, "type": "electric_scooter", "is_reserved": 0, "lat": 38.902043, "rental_uris": {"ios": "https://dc.lft.to/lastmile_qr_scan", "android": "https://dc.lft.to/lastmile_qr_scan"}, "fusion_lon": 0.0, "fusion_lat": 0.0, "bike_id": "3c50c708087d9024d8576ec89f1a2816", "name": "3c50c708087d9024d8576ec89f1a2816", "lon": -77.046683}, {"is_disabled": 0, "type": "electric_scooter", "is_reserved": 0, "lat": 38.90377983333333, "rental_uris": {"ios": "https://dc.lft.to/lastmile_qr_scan", "android": "https://dc.lft.to/lastmile_qr_scan"}, "fusion_lon": 0.0, "fusion_lat": 0.0, "bike_id": "0b279187c421795f927bbc467575d832", "name": "0b279187c421795f927bbc467575d832", "lon": -77.03864783333333}, {"is_disabled": 0, "type": "electric_scooter", "is_reserved": 0, "lat": 38.904444, "rental_uris": {"ios": "https://dc.lft.to/lastmile_qr_scan", "android": "https://dc.lft.to/lastmile_qr_scan"}, "fusion_lon": 0.0, "fusion_lat": 0.0, "bike_id": "75236e62d5bc5879d97abfe77cd84f67", "name": "75236e62d5bc5879d97abfe77cd84f67", "lon": -76.9743155}, {"is_disabled": 0, "type": "electric_bike", "is_reserved": 0, "lat": 39.030507666666665, "rental_uris": {"ios": "https://dc.lft.to/lastmile_qr_scan", "android": "https://dc.lft.to/lastmile_qr_scan"}, "fusion_lon": 0.0, "fusion_lat": 0.0, "bike_id": "90b306181dacaf0487935c8b379d447d", "name": "90b306181dacaf0487935c8b379d447d", "lon": -77.09489016666667}, {"is_disabled": 0, "type": "electric_scooter", "is_reserved": 0, "lat": 38.92478233333333, "rental_uris": {"ios": "https://dc.lft.to/lastmile_qr_scan", "android": "https://dc.lft.to/lastmile_qr_scan"}, "fusion_lon": 0.0, "fusion_lat": 0.0, "bike_id": "376b3a0446c289f21fd4ef644495d0aa", "name": "376b3a0446c289f21fd4ef644495d0aa", "lon": -77.02338066666667}, {"is_disabled": 0, "type": "electric_scooter", "is_reserved": 0, "lat": 38.909950333333335, "rental_uris": {"ios": "https://dc.lft.to/lastmile_qr_scan", "android": "https://dc.lft.to/lastmile_qr_scan"}, "fusion_lon": 0.0, "fusion_lat": 0.0, "bike_id": "b4c72f02694eba38a6f84b3b3c830da6", "name": "b4c72f02694eba38a6f84b3b3c830da6", "lon": -77.03671516666667}, {"is_disabled": 0, "type": "electric_scooter", "is_reserved": 0, "lat": 38.914707, "rental_uris": {"ios": "https://dc.lft.to/lastmile_qr_scan", "android": "https://dc.lft.to/lastmile_qr_scan"}, "fusion_lon": 0.0, "fusion_lat": 0.0, "bike_id": "150a87dbb95fd36d7b6fc599fcc8a3b3", "name": "150a87dbb95fd36d7b6fc599fcc8a3b3", "lon": -77.03217316666667}, {"is_disabled": 0, "type": "electric_scooter", "is_reserved": 0, "lat": 38.88484316666667, "rental_uris": {"ios": "https://dc.lft.to/lastmile_qr_scan", "android": "https://dc.lft.to/lastmile_qr_scan"}, "fusion_lon": 0.0, "fusion_lat": 0.0, "bike_id": "a89754e04d1df119c9579d83aa3efb4b", "name": "a89754e04d1df119c9579d83aa3efb4b", "lon": -77.01984983333334}, {"is_disabled": 0, "type": "electric_scooter", "is_reserved": 0, "lat": 38.8758275, "rental_uris": {"ios": "https://dc.lft.to/lastmile_qr_scan", "android": "https://dc.lft.to/lastmile_qr_scan"}, "fusion_lon": 0.0, "fusion_lat": 0.0, "bike_id": "a70c05b6151dead8e11b97732b88fb2f", "name": "a70c05b6151dead8e11b97732b88fb2f", "lon": -77.02079733333333}, {"is_disabled": 0, "type": "electric_scooter", "is_reserved": 0, "lat": 38.90870133333333, "rental_uris": {"ios": "https://dc.lft.to/lastmile_qr_scan", "android": "https://dc.lft.to/lastmile_qr_scan"}, "fusion_lon": 0.0, "fusion_lat": 0.0, "bike_id": "9541c7a3cd999e0195b5087136e56be4", "name": "9541c7a3cd999e0195b5087136e56be4", "lon": -77.02691883333334}, {"is_disabled": 0, "type": "electric_scooter", "is_reserved": 0, "lat": 38.904944666666665, "rental_uris": {"ios": "https://dc.lft.to/lastmile_qr_scan", "android": "https://dc.lft.to/lastmile_qr_scan"}, "fusion_lon": 0.0, "fusion_lat": 0.0, "bike_id": "5e555610cd823b39c5920eeedea66189", "name": "5e555610cd823b39c5920eeedea66189", "lon": -77.02959766666666}, {"is_disabled": 0, "type": "electric_scooter", "is_reserved": 0, "lat": 38.90396966666667, "rental_uris": {"ios": "https://dc.lft.to/lastmile_qr_scan", "android": "https://dc.lft.to/lastmile_qr_scan"}, "fusion_lon": 0.0, "fusion_lat": 0.0, "bike_id": "be37a5f82985edd6da2db58846fd004e", "name": "be37a5f82985edd6da2db58846fd004e", "lon": -77.04028683333334}, {"is_disabled": 0, "type": "electric_scooter", "is_reserved": 0, "lat": 38.899098, "rental_uris": {"ios": "https://dc.lft.to/lastmile_qr_scan", "android": "https://dc.lft.to/lastmile_qr_scan"}, "fusion_lon": 0.0, "fusion_lat": 0.0, "bike_id": "16e5eefaf38dd9eb23bcb92071217780", "name": "16e5eefaf38dd9eb23bcb92071217780", "lon": -76.93353716666667}, {"is_disabled": 0, "type": "electric_scooter", "is_reserved": 0, "lat": 38.9358665, "rental_uris": {"ios": "https://dc.lft.to/lastmile_qr_scan", "android": "https://dc.lft.to/lastmile_qr_scan"}, "fusion_lon": 0.0, "fusion_lat": 0.0, "bike_id": "efe80bb49d447725dd92fc8810792c41", "name": "efe80bb49d447725dd92fc8810792c41", "lon": -77.0585615}, {"is_disabled": 0, "type": "electric_scooter", "is_reserved": 0, "lat": 38.91123183333333, "rental_uris": {"ios": "https://dc.lft.to/lastmile_qr_scan", "android": "https://dc.lft.to/lastmile_qr_scan"}, "fusion_lon": 0.0, "fusion_lat": 0.0, "bike_id": "5b1a04a27064aadcc2c9a3689d152a17", "name": "5b1a04a27064aadcc2c9a3689d152a17", "lon": -77.02694066666666}, {"is_disabled": 0, "type": "electric_scooter", "is_reserved": 0, "lat": 38.902454666666664, "rental_uris": {"ios": "https://dc.lft.to/lastmile_qr_scan", "android": "https://dc.lft.to/lastmile_qr_scan"}, "fusion_lon": 0.0, "fusion_lat": 0.0, "bike_id": "7351e0e6f2c9fa6ba5992ccaf03ae6ad", "name": "7351e0e6f2c9fa6ba5992ccaf03ae6ad", "lon": -77.04365333333334}, {"is_disabled": 0, "type": "electric_scooter", "is_reserved": 0, "lat": 38.91405266666666, "rental_uris": {"ios": "https://dc.lft.to/lastmile_qr_scan", "android": "https://dc.lft.to/lastmile_qr_scan"}, "fusion_lon": 0.0, "fusion_lat": 0.0, "bike_id": "0642773759d004b6c72adcf05f78378c", "name": "0642773759d004b6c72adcf05f78378c", "lon": -77.032292}, {"is_disabled": 0, "type": "electric_scooter", "is_reserved": 0, "lat": 38.872661, "rental_uris": {"ios": "https://dc.lft.to/lastmile_qr_scan", "android": "https://dc.lft.to/lastmile_qr_scan"}, "fusion_lon": 0.0, "fusion_lat": 0.0, "bike_id": "c0330607b19b9f0af2f837d44b8ee32e", "name": "c0330607b19b9f0af2f837d44b8ee32e", "lon": -77.01756283333333}, {"is_disabled": 0, "type": "electric_scooter", "is_reserved": 0, "lat": 38.916906, "rental_uris": {"ios": "https://dc.lft.to/lastmile_qr_scan", "android": "https://dc.lft.to/lastmile_qr_scan"}, "fusion_lon": 0.0, "fusion_lat": 0.0, "bike_id": "caeb72636a4b308f21af60fcf6273013", "name": "caeb72636a4b308f21af60fcf6273013", "lon": -77.03503733333334}, {"is_disabled": 0, "type": "electric_scooter", "is_reserved": 0, "lat": 38.91264316666667, "rental_uris": {"ios": "https://dc.lft.to/lastmile_qr_scan", "android": "https://dc.lft.to/lastmile_qr_scan"}, "fusion_lon": 0.0, "fusion_lat": 0.0, "bike_id": "48d3c39f2078571ef41821a1af301ace", "name": "48d3c39f2078571ef41821a1af301ace", "lon": -77.0440205}, {"is_disabled": 0, "type": "electric_scooter", "is_reserved": 0, "lat": 38.87492366666667, "rental_uris": {"ios": "https://dc.lft.to/lastmile_qr_scan", "android": "https://dc.lft.to/lastmile_qr_scan"}, "fusion_lon": 0.0, "fusion_lat": 0.0, "bike_id": "10b2b1f118f9ea00e18b8162d805385e", "name": "10b2b1f118f9ea00e18b8162d805385e", "lon": -77.01775083333334}, {"is_disabled": 0, "type": "electric_scooter", "is_reserved": 0, "lat": 38.880583, "rental_uris": {"ios": "https://dc.lft.to/lastmile_qr_scan", "android": "https://dc.lft.to/lastmile_qr_scan"}, "fusion_lon": 0.0, "fusion_lat": 0.0, "bike_id": "02b3d69e353428db22109105e7662ab8", "name": "02b3d69e353428db22109105e7662ab8", "lon": -77.02557233333333}, {"is_disabled": 0, "type": "electric_scooter", "is_reserved": 0, "lat": 38.91401966666667, "rental_uris": {"ios": "https://dc.lft.to/lastmile_qr_scan", "android": "https://dc.lft.to/lastmile_qr_scan"}, "fusion_lon": 0.0, "fusion_lat": 0.0, "bike_id": "c3d8740cf48e308a61576e75c2a199ab", "name": "c3d8740cf48e308a61576e75c2a199ab", "lon": -77.01310016666666}, {"is_disabled": 0, "type": "electric_scooter", "is_reserved": 0, "lat": 38.921211, "rental_uris": {"ios": "https://dc.lft.to/lastmile_qr_scan", "android": "https://dc.lft.to/lastmile_qr_scan"}, "fusion_lon": 0.0, "fusion_lat": 0.0, "bike_id": "e6d31f0081706fabf564887cf9ec742d", "name": "e6d31f0081706fabf564887cf9ec742d", "lon": -77.01212933333333}, {"is_disabled": 0, "type": "electric_scooter", "is_reserved": 0, "lat": 38.88993383333333, "rental_uris": {"ios": "https://dc.lft.to/lastmile_qr_scan", "android": "https://dc.lft.to/lastmile_qr_scan"}, "fusion_lon": 0.0, "fusion_lat": 0.0, "bike_id": "6e4b81b3119fedbdfe3dab7d793b2d8f", "name": "6e4b81b3119fedbdfe3dab7d793b2d8f", "lon": -77.0034805}, {"is_disabled": 0, "type": "electric_scooter", "is_reserved": 0, "lat": 38.905249166666664, "rental_uris": {"ios": "https://dc.lft.to/lastmile_qr_scan", "android": "https://dc.lft.to/lastmile_qr_scan"}, "fusion_lon": 0.0, "fusion_lat": 0.0, "bike_id": "918bc1b3840dca09c0e9ca02d080b7db", "name": "918bc1b3840dca09c0e9ca02d080b7db", "lon": -77.05762966666667}, {"is_disabled": 0, "type": "electric_bike", "is_reserved": 0, "lat": 38.951291833333336, "rental_uris": {"ios": "https://dc.lft.to/lastmile_qr_scan", "android": "https://dc.lft.to/lastmile_qr_scan"}, "fusion_lon": 0.0, "fusion_lat": 0.0, "bike_id": "e3dd68757248ac39ce46ab22c579cc6a", "name": "e3dd68757248ac39ce46ab22c579cc6a", "lon": -77.03333033333334}, {"is_disabled": 0, "type": "electric_scooter", "is_reserved": 0, "lat": 38.91404083333333, "rental_uris": {"ios": "https://dc.lft.to/lastmile_qr_scan", "android": "https://dc.lft.to/lastmile_qr_scan"}, "fusion_lon": 0.0, "fusion_lat": 0.0, "bike_id": "1db6508e97a91430dcf655f71384645b", "name": "1db6508e97a91430dcf655f71384645b", "lon": -77.0326225}, {"is_disabled": 0, "type": "electric_scooter", "is_reserved": 0, "lat": 38.924598333333336, "rental_uris": {"ios": "https://dc.lft.to/lastmile_qr_scan", "android": "https://dc.lft.to/lastmile_qr_scan"}, "fusion_lon": 0.0, "fusion_lat": 0.0, "bike_id": "db68e2440219ec81024d25ccc4db575d", "name": "db68e2440219ec81024d25ccc4db575d", "lon": -77.052344}, {"is_disabled": 0, "type": "electric_scooter", "is_reserved": 0, "lat": 38.9127195, "rental_uris": {"ios": "https://dc.lft.to/lastmile_qr_scan", "android": "https://dc.lft.to/lastmile_qr_scan"}, "fusion_lon": 0.0, "fusion_lat": 0.0, "bike_id": "37f55dea846262818f2421a2c989ba61", "name": "37f55dea846262818f2421a2c989ba61", "lon": -77.07832966666666}, {"is_disabled": 0, "type": "electric_scooter", "is_reserved": 0, "lat": 38.93193016666667, "rental_uris": {"ios": "https://dc.lft.to/lastmile_qr_scan", "android": "https://dc.lft.to/lastmile_qr_scan"}, "fusion_lon": 0.0, "fusion_lat": 0.0, "bike_id": "f2c0520c95d895334f4096c84f111419", "name": "f2c0520c95d895334f4096c84f111419", "lon": -77.02966933333333}, {"is_disabled": 0, "type": "electric_scooter", "is_reserved": 0, "lat": 38.908648, "rental_uris": {"ios": "https://dc.lft.to/lastmile_qr_scan", "android": "https://dc.lft.to/lastmile_qr_scan"}, "fusion_lon": 0.0, "fusion_lat": 0.0, "bike_id": "7996f0010943dffab82f25b8e29f5743", "name": "7996f0010943dffab82f25b8e29f5743", "lon": -77.0269975}, {"is_disabled": 0, "type": "electric_scooter", "is_reserved": 0, "lat": 38.8998285, "rental_uris": {"ios": "https://dc.lft.to/lastmile_qr_scan", "android": "https://dc.lft.to/lastmile_qr_scan"}, "fusion_lon": 0.0, "fusion_lat": 0.0, "bike_id": "5da2243694dc8bd7ed7ea4bdb2b1a6a8", "name": "5da2243694dc8bd7ed7ea4bdb2b1a6a8", "lon": -76.9829335}, {"is_disabled": 0, "type": "electric_scooter", "is_reserved": 0, "lat": 38.92354733333333, "rental_uris": {"ios": "https://dc.lft.to/lastmile_qr_scan", "android": "https://dc.lft.to/lastmile_qr_scan"}, "fusion_lon": 0.0, "fusion_lat": 0.0, "bike_id": "476fe1fb1ef53c80297a05a50a05af28", "name": "476fe1fb1ef53c80297a05a50a05af28", "lon": -77.05040383333333}, {"is_disabled": 0, "type": "electric_scooter", "is_reserved": 0, "lat": 38.924819666666664, "rental_uris": {"ios": "https://dc.lft.to/lastmile_qr_scan", "android": "https://dc.lft.to/lastmile_qr_scan"}, "fusion_lon": 0.0, "fusion_lat": 0.0, "bike_id": "62ae75bf5e05a5ba8767df5d85da9404", "name": "62ae75bf5e05a5ba8767df5d85da9404", "lon": -77.05224083333333}, {"is_disabled": 0, "type": "electric_scooter", "is_reserved": 0, "lat": 38.90793733333334, "rental_uris": {"ios": "https://dc.lft.to/lastmile_qr_scan", "android": "https://dc.lft.to/lastmile_qr_scan"}, "fusion_lon": 0.0, "fusion_lat": 0.0, "bike_id": "4a9f101240a5de99cdfbe461b27674c9", "name": "4a9f101240a5de99cdfbe461b27674c9", "lon": -77.0423435}, {"is_disabled": 0, "type": "electric_scooter", "is_reserved": 0, "lat": 38.827843, "rental_uris": {"ios": "https://dc.lft.to/lastmile_qr_scan", "android": "https://dc.lft.to/lastmile_qr_scan"}, "fusion_lon": 0.0, "fusion_lat": 0.0, "bike_id": "c4e8dea3dcc357e5749af2d42d1cdbf6", "name": "c4e8dea3dcc357e5749af2d42d1cdbf6", "lon": -77.00921783333334}, {"is_disabled": 0, "type": "electric_scooter", "is_reserved": 0, "lat": 38.90640466666667, "rental_uris": {"ios": "https://dc.lft.to/lastmile_qr_scan", "android": "https://dc.lft.to/lastmile_qr_scan"}, "fusion_lon": 0.0, "fusion_lat": 0.0, "bike_id": "34221a66f7bd4218ddd9648569e2ad0b", "name": "34221a66f7bd4218ddd9648569e2ad0b", "lon": -77.00589316666667}, {"is_disabled": 0, "type": "electric_scooter", "is_reserved": 0, "lat": 38.924861666666665, "rental_uris": {"ios": "https://dc.lft.to/lastmile_qr_scan", "android": "https://dc.lft.to/lastmile_qr_scan"}, "fusion_lon": 0.0, "fusion_lat": 0.0, "bike_id": "d15affe8a8ce49539170464712eafa36", "name": "d15affe8a8ce49539170464712eafa36", "lon": -77.03185283333333}, {"is_disabled": 0, "type": "electric_scooter", "is_reserved": 0, "lat": 38.87193966666667, "rental_uris": {"ios": "https://dc.lft.to/lastmile_qr_scan", "android": "https://dc.lft.to/lastmile_qr_scan"}, "fusion_lon": 0.0, "fusion_lat": 0.0, "bike_id": "23fd21e4d7ab66636423f99f10a23793", "name": "23fd21e4d7ab66636423f99f10a23793", "lon": -77.00619633333334}, {"is_disabled": 0, "type": "electric_scooter", "is_reserved": 0, "lat": 38.8443, "rental_uris": {"ios": "https://dc.lft.to/lastmile_qr_scan", "android": "https://dc.lft.to/lastmile_qr_scan"}, "fusion_lon": 0.0, "fusion_lat": 0.0, "bike_id": "e47d85ed0cf3ee923fe583031380491e", "name": "e47d85ed0cf3ee923fe583031380491e", "lon": -76.99783216666667}, {"is_disabled": 0, "type": "electric_scooter", "is_reserved": 0, "lat": 38.89844333333333, "rental_uris": {"ios": "https://dc.lft.to/lastmile_qr_scan", "android": "https://dc.lft.to/lastmile_qr_scan"}, "fusion_lon": 0.0, "fusion_lat": 0.0, "bike_id": "657d52be24dcc4302e3a0243621693fe", "name": "657d52be24dcc4302e3a0243621693fe", "lon": -76.9463815}, {"is_disabled": 0, "type": "electric_bike", "is_reserved": 0, "lat": 38.843694166666666, "rental_uris": {"ios": "https://dc.lft.to/lastmile_qr_scan", "android": "https://dc.lft.to/lastmile_qr_scan"}, "fusion_lon": 0.0, "fusion_lat": 0.0, "bike_id": "a9c76f08dbdfa8a5fa6f2bc6a9ad59e8", "name": "a9c76f08dbdfa8a5fa6f2bc6a9ad59e8", "lon": -76.97808983333333}, {"is_disabled": 0, "type": "electric_scooter", "is_reserved": 0, "lat": 38.904623666666666, "rental_uris": {"ios": "https://dc.lft.to/lastmile_qr_scan", "android": "https://dc.lft.to/lastmile_qr_scan"}, "fusion_lon": 0.0, "fusion_lat": 0.0, "bike_id": "edef36771a09481a9d4fe053190170ac", "name": "edef36771a09481a9d4fe053190170ac", "lon": -77.04640833333333}, {"is_disabled": 0, "type": "electric_scooter", "is_reserved": 0, "lat": 38.88429716666667, "rental_uris": {"ios": "https://dc.lft.to/lastmile_qr_scan", "android": "https://dc.lft.to/lastmile_qr_scan"}, "fusion_lon": 0.0, "fusion_lat": 0.0, "bike_id": "1f2a4357abce4d4b99b2b710e1219d00", "name": "1f2a4357abce4d4b99b2b710e1219d00", "lon": -76.95758266666667}, {"is_disabled": 0, "type": "electric_scooter", "is_reserved": 0, "lat": 38.8904375, "rental_uris": {"ios": "https://dc.lft.to/lastmile_qr_scan", "android": "https://dc.lft.to/lastmile_qr_scan"}, "fusion_lon": 0.0, "fusion_lat": 0.0, "bike_id": "6b0dfc94634084dd915b4af02b50ce86", "name": "6b0dfc94634084dd915b4af02b50ce86", "lon": -76.9375725}, {"is_disabled": 0, "type": "electric_scooter", "is_reserved": 0, "lat": 38.914304666666666, "rental_uris": {"ios": "https://dc.lft.to/lastmile_qr_scan", "android": "https://dc.lft.to/lastmile_qr_scan"}, "fusion_lon": 0.0, "fusion_lat": 0.0, "bike_id": "88d6c716d18e61d242d5b5456efbc177", "name": "88d6c716d18e61d242d5b5456efbc177", "lon": -77.028239}, {"is_disabled": 0, "type": "electric_scooter", "is_reserved": 0, "lat": 38.90762983333333, "rental_uris": {"ios": "https://dc.lft.to/lastmile_qr_scan", "android": "https://dc.lft.to/lastmile_qr_scan"}, "fusion_lon": 0.0, "fusion_lat": 0.0, "bike_id": "0b4ab29aadcead6bd6fa8b736dc966f6", "name": "0b4ab29aadcead6bd6fa8b736dc966f6", "lon": -77.03469133333333}, {"is_disabled": 0, "type": "electric_bike", "is_reserved": 0, "lat": 38.857457333333336, "rental_uris": {"ios": "https://dc.lft.to/lastmile_qr_scan", "android": "https://dc.lft.to/lastmile_qr_scan"}, "fusion_lon": 0.0, "fusion_lat": 0.0, "bike_id": "0c596e8bbd8d7b6c942600a58bbd1aa1", "name": "0c596e8bbd8d7b6c942600a58bbd1aa1", "lon": -76.97110633333334}, {"is_disabled": 0, "type": "electric_scooter", "is_reserved": 0, "lat": 38.91668966666667, "rental_uris": {"ios": "https://dc.lft.to/lastmile_qr_scan", "android": "https://dc.lft.to/lastmile_qr_scan"}, "fusion_lon": 0.0, "fusion_lat": 0.0, "bike_id": "bf91ae28b86e3303b90ef09433592a86", "name": "bf91ae28b86e3303b90ef09433592a86", "lon": -77.02181166666666}, {"is_disabled": 0, "type": "electric_scooter", "is_reserved": 0, "lat": 38.9012015, "rental_uris": {"ios": "https://dc.lft.to/lastmile_qr_scan", "android": "https://dc.lft.to/lastmile_qr_scan"}, "fusion_lon": 0.0, "fusion_lat": 0.0, "bike_id": "b9d5fa7a5399520d5dbff1d66a639541", "name": "b9d5fa7a5399520d5dbff1d66a639541", "lon": -77.0336745}, {"is_disabled": 0, "type": "electric_scooter", "is_reserved": 0, "lat": 38.93106733333333, "rental_uris": {"ios": "https://dc.lft.to/lastmile_qr_scan", "android": "https://dc.lft.to/lastmile_qr_scan"}, "fusion_lon": 0.0, "fusion_lat": 0.0, "bike_id": "f87af26502ed31f20275c506c250f931", "name": "f87af26502ed31f20275c506c250f931", "lon": -77.01235466666667}, {"is_disabled": 0, "type": "electric_scooter", "is_reserved": 0, "lat": 38.84425533333334, "rental_uris": {"ios": "https://dc.lft.to/lastmile_qr_scan", "android": "https://dc.lft.to/lastmile_qr_scan"}, "fusion_lon": 0.0, "fusion_lat": 0.0, "bike_id": "9b5f17852eecfd6aeebef263f82d7bc8", "name": "9b5f17852eecfd6aeebef263f82d7bc8", "lon": -76.9978155}, {"is_disabled": 0, "type": "electric_scooter", "is_reserved": 0, "lat": 38.907175, "rental_uris": {"ios": "https://dc.lft.to/lastmile_qr_scan", "android": "https://dc.lft.to/lastmile_qr_scan"}, "fusion_lon": 0.0, "fusion_lat": 0.0, "bike_id": "6d17df56ca8ac492df5be216e19a58af", "name": "6d17df56ca8ac492df5be216e19a58af", "lon": -77.03418166666667}, {"is_disabled": 0, "type": "electric_scooter", "is_reserved": 0, "lat": 38.905433333333335, "rental_uris": {"ios": "https://dc.lft.to/lastmile_qr_scan", "android": "https://dc.lft.to/lastmile_qr_scan"}, "fusion_lon": 0.0, "fusion_lat": 0.0, "bike_id": "1b3a3141d752e285ebd2b3e011221a0b", "name": "1b3a3141d752e285ebd2b3e011221a0b", "lon": -77.0473465}, {"is_disabled": 0, "type": "electric_bike", "is_reserved": 0, "lat": 38.95892516666667, "rental_uris": {"ios": "https://dc.lft.to/lastmile_qr_scan", "android": "https://dc.lft.to/lastmile_qr_scan"}, "fusion_lon": 0.0, "fusion_lat": 0.0, "bike_id": "212141762c70c4bfe44b11863a2eed35", "name": "212141762c70c4bfe44b11863a2eed35", "lon": -77.05879066666667}, {"is_disabled": 0, "type": "electric_scooter", "is_reserved": 0, "lat": 38.919556166666666, "rental_uris": {"ios": "https://dc.lft.to/lastmile_qr_scan", "android": "https://dc.lft.to/lastmile_qr_scan"}, "fusion_lon": 0.0, "fusion_lat": 0.0, "bike_id": "628a937be116575e05f98f0e67c92e5c", "name": "628a937be116575e05f98f0e67c92e5c", "lon": -77.02347033333334}, {"is_disabled": 0, "type": "electric_scooter", "is_reserved": 0, "lat": 38.91576633333333, "rental_uris": {"ios": "https://dc.lft.to/lastmile_qr_scan", "android": "https://dc.lft.to/lastmile_qr_scan"}, "fusion_lon": 0.0, "fusion_lat": 0.0, "bike_id": "cde098a89b738b1c95958db3edc1315d", "name": "cde098a89b738b1c95958db3edc1315d", "lon": -77.02112166666667}, {"is_disabled": 0, "type": "electric_scooter", "is_reserved": 0, "lat": 38.89019966666667, "rental_uris": {"ios": "https://dc.lft.to/lastmile_qr_scan", "android": "https://dc.lft.to/lastmile_qr_scan"}, "fusion_lon": 0.0, "fusion_lat": 0.0, "bike_id": "b17e6d2d324b9689a91955d573f63a40", "name": "b17e6d2d324b9689a91955d573f63a40", "lon": -76.93741016666667}, {"is_disabled": 0, "type": "electric_scooter", "is_reserved": 0, "lat": 38.904900833333336, "rental_uris": {"ios": "https://dc.lft.to/lastmile_qr_scan", "android": "https://dc.lft.to/lastmile_qr_scan"}, "fusion_lon": 0.0, "fusion_lat": 0.0, "bike_id": "50a89ceec2f4c233be0f5a2efe33c7e5", "name": "50a89ceec2f4c233be0f5a2efe33c7e5", "lon": -77.03027066666667}, {"is_disabled": 0, "type": "electric_bike", "is_reserved": 0, "lat": 39.0549865, "rental_uris": {"ios": "https://dc.lft.to/lastmile_qr_scan", "android": "https://dc.lft.to/lastmile_qr_scan"}, "fusion_lon": 0.0, "fusion_lat": 0.0, "bike_id": "89d7235624fe0498320a2ea812b0d7d6", "name": "89d7235624fe0498320a2ea812b0d7d6", "lon": -77.046571}, {"is_disabled": 0, "type": "electric_bike", "is_reserved": 0, "lat": 38.99870416666667, "rental_uris": {"ios": "https://dc.lft.to/lastmile_qr_scan", "android": "https://dc.lft.to/lastmile_qr_scan"}, "fusion_lon": 0.0, "fusion_lat": 0.0, "bike_id": "e984866a3a6e5d882052a4311e745969", "name": "e984866a3a6e5d882052a4311e745969", "lon": -77.0287155}, {"is_disabled": 0, "type": "electric_scooter", "is_reserved": 0, "lat": 38.866563666666664, "rental_uris": {"ios": "https://dc.lft.to/lastmile_qr_scan", "android": "https://dc.lft.to/lastmile_qr_scan"}, "fusion_lon": 0.0, "fusion_lat": 0.0, "bike_id": "efd808d4700975933c233517375a4441", "name": "efd808d4700975933c233517375a4441", "lon": -76.98889666666666}, {"is_disabled": 0, "type": "electric_scooter", "is_reserved": 0, "lat": 38.90333716666667, "rental_uris": {"ios": "https://dc.lft.to/lastmile_qr_scan", "android": "https://dc.lft.to/lastmile_qr_scan"}, "fusion_lon": 0.0, "fusion_lat": 0.0, "bike_id": "5f4a0461572806284614bd1ee5b899ae", "name": "5f4a0461572806284614bd1ee5b899ae", "lon": -77.0319195}, {"is_disabled": 0, "type": "electric_bike", "is_reserved": 0, "lat": 38.930102166666664, "rental_uris": {"ios": "https://dc.lft.to/lastmile_qr_scan", "android": "https://dc.lft.to/lastmile_qr_scan"}, "fusion_lon": 0.0, "fusion_lat": 0.0, "bike_id": "f68f643b864f32cb630dbb353336c635", "name": "f68f643b864f32cb630dbb353336c635", "lon": -77.2165315}, {"is_disabled": 0, "type": "electric_scooter", "is_reserved": 0, "lat": 38.92271916666667, "rental_uris": {"ios": "https://dc.lft.to/lastmile_qr_scan", "android": "https://dc.lft.to/lastmile_qr_scan"}, "fusion_lon": 0.0, "fusion_lat": 0.0, "bike_id": "662f28f1d030eee3fc268f23ae2e0dca", "name": "662f28f1d030eee3fc268f23ae2e0dca", "lon": -77.04200033333333}, {"is_disabled": 0, "type": "electric_scooter", "is_reserved": 0, "lat": 38.896125833333336, "rental_uris": {"ios": "https://dc.lft.to/lastmile_qr_scan", "android": "https://dc.lft.to/lastmile_qr_scan"}, "fusion_lon": 0.0, "fusion_lat": 0.0, "bike_id": "cca46c7b737b338fd3344fce7050c186", "name": "cca46c7b737b338fd3344fce7050c186", "lon": -77.04597116666666}, {"is_disabled": 0, "type": "electric_scooter", "is_reserved": 0, "lat": 38.91144966666667, "rental_uris": {"ios": "https://dc.lft.to/lastmile_qr_scan", "android": "https://dc.lft.to/lastmile_qr_scan"}, "fusion_lon": 0.0, "fusion_lat": 0.0, "bike_id": "40b2c833c4c227bdc8f60a6f0945e8ba", "name": "40b2c833c4c227bdc8f60a6f0945e8ba", "lon": -77.00465983333333}, {"is_disabled": 0, "type": "electric_scooter", "is_reserved": 0, "lat": 38.9177015, "rental_uris": {"ios": "https://dc.lft.to/lastmile_qr_scan", "android": "https://dc.lft.to/lastmile_qr_scan"}, "fusion_lon": 0.0, "fusion_lat": 0.0, "bike_id": "c08d7c2815c73e83d7248bc53b7fe5ca", "name": "c08d7c2815c73e83d7248bc53b7fe5ca", "lon": -77.03863}, {"is_disabled": 0, "type": "electric_scooter", "is_reserved": 0, "lat": 38.91843166666666, "rental_uris": {"ios": "https://dc.lft.to/lastmile_qr_scan", "android": "https://dc.lft.to/lastmile_qr_scan"}, "fusion_lon": 0.0, "fusion_lat": 0.0, "bike_id": "1ca400cad902148c0850f995550cf0f5", "name": "1ca400cad902148c0850f995550cf0f5", "lon": -77.03453116666667}, {"is_disabled": 0, "type": "electric_scooter", "is_reserved": 0, "lat": 38.905896, "rental_uris": {"ios": "https://dc.lft.to/lastmile_qr_scan", "android": "https://dc.lft.to/lastmile_qr_scan"}, "fusion_lon": 0.0, "fusion_lat": 0.0, "bike_id": "85dcc043e51f7f56b81eb50aa02c1809", "name": "85dcc043e51f7f56b81eb50aa02c1809", "lon": -77.04330516666667}, {"is_disabled": 0, "type": "electric_scooter", "is_reserved": 0, "lat": 38.92358133333333, "rental_uris": {"ios": "https://dc.lft.to/lastmile_qr_scan", "android": "https://dc.lft.to/lastmile_qr_scan"}, "fusion_lon": 0.0, "fusion_lat": 0.0, "bike_id": "ebe043838849ff72d029993ef1e4d636", "name": "ebe043838849ff72d029993ef1e4d636", "lon": -77.0542445}, {"is_disabled": 0, "type": "electric_scooter", "is_reserved": 0, "lat": 38.92851916666667, "rental_uris": {"ios": "https://dc.lft.to/lastmile_qr_scan", "android": "https://dc.lft.to/lastmile_qr_scan"}, "fusion_lon": 0.0, "fusion_lat": 0.0, "bike_id": "d4c5584ff2c6e2d451f5622e4f383dbe", "name": "d4c5584ff2c6e2d451f5622e4f383dbe", "lon": -77.03242316666666}, {"is_disabled": 0, "type": "electric_scooter", "is_reserved": 0, "lat": 38.9156435, "rental_uris": {"ios": "https://dc.lft.to/lastmile_qr_scan", "android": "https://dc.lft.to/lastmile_qr_scan"}, "fusion_lon": 0.0, "fusion_lat": 0.0, "bike_id": "e9769c1638319dc4dd4736eaccc92727", "name": "e9769c1638319dc4dd4736eaccc92727", "lon": -77.02293083333333}, {"is_disabled": 0, "type": "electric_scooter", "is_reserved": 0, "lat": 38.93268116666667, "rental_uris": {"ios": "https://dc.lft.to/lastmile_qr_scan", "android": "https://dc.lft.to/lastmile_qr_scan"}, "fusion_lon": 0.0, "fusion_lat": 0.0, "bike_id": "d239e06b1738c73e24c76a1e8ac9c7f7", "name": "d239e06b1738c73e24c76a1e8ac9c7f7", "lon": -77.03494133333334}, {"is_disabled": 0, "type": "electric_scooter", "is_reserved": 0, "lat": 38.89961616666667, "rental_uris": {"ios": "https://dc.lft.to/lastmile_qr_scan", "android": "https://dc.lft.to/lastmile_qr_scan"}, "fusion_lon": 0.0, "fusion_lat": 0.0, "bike_id": "11c6bc4bbdea72382a42e81ce5b853fa", "name": "11c6bc4bbdea72382a42e81ce5b853fa", "lon": -77.03348266666667}, {"is_disabled": 0, "type": "electric_scooter", "is_reserved": 0, "lat": 38.915628166666664, "rental_uris": {"ios": "https://dc.lft.to/lastmile_qr_scan", "android": "https://dc.lft.to/lastmile_qr_scan"}, "fusion_lon": 0.0, "fusion_lat": 0.0, "bike_id": "ef2948691037c982b877483e62a8da32", "name": "ef2948691037c982b877483e62a8da32", "lon": -77.00981016666667}, {"is_disabled": 0, "type": "electric_scooter", "is_reserved": 0, "lat": 38.905544166666665, "rental_uris": {"ios": "https://dc.lft.to/lastmile_qr_scan", "android": "https://dc.lft.to/lastmile_qr_scan"}, "fusion_lon": 0.0, "fusion_lat": 0.0, "bike_id": "5fe66711c639ce3023d17daa3378a9c9", "name": "5fe66711c639ce3023d17daa3378a9c9", "lon": -77.0404325}, {"is_disabled": 0, "type": "electric_scooter", "is_reserved": 0, "lat": 38.89605683333333, "rental_uris": {"ios": "https://dc.lft.to/lastmile_qr_scan", "android": "https://dc.lft.to/lastmile_qr_scan"}, "fusion_lon": 0.0, "fusion_lat": 0.0, "bike_id": "bda9c4a6c0c5631c958660e5465f3f1d", "name": "bda9c4a6c0c5631c958660e5465f3f1d", "lon": -77.02255}, {"is_disabled": 0, "type": "electric_scooter", "is_reserved": 0, "lat": 38.89724233333333, "rental_uris": {"ios": "https://dc.lft.to/lastmile_qr_scan", "android": "https://dc.lft.to/lastmile_qr_scan"}, "fusion_lon": 0.0, "fusion_lat": 0.0, "bike_id": "c7602953929c2ae9a006d2ca8b9e396c", "name": "c7602953929c2ae9a006d2ca8b9e396c", "lon": -77.02704633333333}, {"is_disabled": 0, "type": "electric_scooter", "is_reserved": 0, "lat": 38.90723933333334, "rental_uris": {"ios": "https://dc.lft.to/lastmile_qr_scan", "android": "https://dc.lft.to/lastmile_qr_scan"}, "fusion_lon": 0.0, "fusion_lat": 0.0, "bike_id": "8030b493bbb1838656c41d2de2214c70", "name": "8030b493bbb1838656c41d2de2214c70", "lon": -77.0298765}, {"is_disabled": 0, "type": "electric_scooter", "is_reserved": 0, "lat": 38.906953, "rental_uris": {"ios": "https://dc.lft.to/lastmile_qr_scan", "android": "https://dc.lft.to/lastmile_qr_scan"}, "fusion_lon": 0.0, "fusion_lat": 0.0, "bike_id": "2e3ae5a31667de70fefd6bf31a8db554", "name": "2e3ae5a31667de70fefd6bf31a8db554", "lon": -77.027133}, {"is_disabled": 0, "type": "electric_scooter", "is_reserved": 0, "lat": 38.900722, "rental_uris": {"ios": "https://dc.lft.to/lastmile_qr_scan", "android": "https://dc.lft.to/lastmile_qr_scan"}, "fusion_lon": 0.0, "fusion_lat": 0.0, "bike_id": "2c777d3dda1dd349bc64def981506cf4", "name": "2c777d3dda1dd349bc64def981506cf4", "lon": -77.02715716666667}, {"is_disabled": 0, "type": "electric_scooter", "is_reserved": 0, "lat": 38.93935, "rental_uris": {"ios": "https://dc.lft.to/lastmile_qr_scan", "android": "https://dc.lft.to/lastmile_qr_scan"}, "fusion_lon": 0.0, "fusion_lat": 0.0, "bike_id": "9c2f349065ac5cce8da7c2bccab2a976", "name": "9c2f349065ac5cce8da7c2bccab2a976", "lon": -77.05275}, {"is_disabled": 0, "type": "electric_bike", "is_reserved": 0, "lat": 38.842693833333335, "rental_uris": {"ios": "https://dc.lft.to/lastmile_qr_scan", "android": "https://dc.lft.to/lastmile_qr_scan"}, "fusion_lon": 0.0, "fusion_lat": 0.0, "bike_id": "2369b8948c6f1167682dbdb265ea7b38", "name": "2369b8948c6f1167682dbdb265ea7b38", "lon": -76.98842466666666}, {"is_disabled": 0, "type": "electric_scooter", "is_reserved": 0, "lat": 38.90263383333333, "rental_uris": {"ios": "https://dc.lft.to/lastmile_qr_scan", "android": "https://dc.lft.to/lastmile_qr_scan"}, "fusion_lon": 0.0, "fusion_lat": 0.0, "bike_id": "0b5c96f679ec5a29651838798caeb2fd", "name": "0b5c96f679ec5a29651838798caeb2fd", "lon": -77.04551266666667}, {"is_disabled": 0, "type": "electric_scooter", "is_reserved": 0, "lat": 38.92564866666667, "rental_uris": {"ios": "https://dc.lft.to/lastmile_qr_scan", "android": "https://dc.lft.to/lastmile_qr_scan"}, "fusion_lon": 0.0, "fusion_lat": 0.0, "bike_id": "861b227acb725e5b9c0923a65ea32891", "name": "861b227acb725e5b9c0923a65ea32891", "lon": -77.02285616666667}, {"is_disabled": 0, "type": "electric_bike", "is_reserved": 0, "lat": 38.838629833333336, "rental_uris": {"ios": "https://dc.lft.to/lastmile_qr_scan", "android": "https://dc.lft.to/lastmile_qr_scan"}, "fusion_lon": 0.0, "fusion_lat": 0.0, "bike_id": "88bd06f7628448f4d03f81b564dfc0c2", "name": "88bd06f7628448f4d03f81b564dfc0c2", "lon": -76.99694433333333}, {"is_disabled": 0, "type": "electric_scooter", "is_reserved": 0, "lat": 38.916253, "rental_uris": {"ios": "https://dc.lft.to/lastmile_qr_scan", "android": "https://dc.lft.to/lastmile_qr_scan"}, "fusion_lon": 0.0, "fusion_lat": 0.0, "bike_id": "51aa57e31d2ada3773c241503e6673ec", "name": "51aa57e31d2ada3773c241503e6673ec", "lon": -77.042757}, {"is_disabled": 0, "type": "electric_scooter", "is_reserved": 0, "lat": 38.91944566666667, "rental_uris": {"ios": "https://dc.lft.to/lastmile_qr_scan", "android": "https://dc.lft.to/lastmile_qr_scan"}, "fusion_lon": 0.0, "fusion_lat": 0.0, "bike_id": "31b728d9546b2ecccc2bc71c2492d485", "name": "31b728d9546b2ecccc2bc71c2492d485", "lon": -77.023441}, {"is_disabled": 0, "type": "electric_scooter", "is_reserved": 0, "lat": 38.90558516666667, "rental_uris": {"ios": "https://dc.lft.to/lastmile_qr_scan", "android": "https://dc.lft.to/lastmile_qr_scan"}, "fusion_lon": 0.0, "fusion_lat": 0.0, "bike_id": "ff2f17d473dfaa0cd9138e296e2c257e", "name": "ff2f17d473dfaa0cd9138e296e2c257e", "lon": -77.03392016666666}, {"is_disabled": 0, "type": "electric_scooter", "is_reserved": 0, "lat": 38.91692066666667, "rental_uris": {"ios": "https://dc.lft.to/lastmile_qr_scan", "android": "https://dc.lft.to/lastmile_qr_scan"}, "fusion_lon": 0.0, "fusion_lat": 0.0, "bike_id": "4a931e7d979bdaa662cfef90f0336090", "name": "4a931e7d979bdaa662cfef90f0336090", "lon": -77.04616466666667}, {"is_disabled": 0, "type": "electric_scooter", "is_reserved": 0, "lat": 38.89428783333334, "rental_uris": {"ios": "https://dc.lft.to/lastmile_qr_scan", "android": "https://dc.lft.to/lastmile_qr_scan"}, "fusion_lon": 0.0, "fusion_lat": 0.0, "bike_id": "93c2d6e78e35e1476c4f764ad1ec3b01", "name": "93c2d6e78e35e1476c4f764ad1ec3b01", "lon": -77.02555016666666}, {"is_disabled": 0, "type": "electric_scooter", "is_reserved": 0, "lat": 38.922, "rental_uris": {"ios": "https://dc.lft.to/lastmile_qr_scan", "android": "https://dc.lft.to/lastmile_qr_scan"}, "fusion_lon": 0.0, "fusion_lat": 0.0, "bike_id": "f0d1dc2ca9328877793ff3eae7fe11ce", "name": "f0d1dc2ca9328877793ff3eae7fe11ce", "lon": -77.03899233333334}, {"is_disabled": 0, "type": "electric_scooter", "is_reserved": 0, "lat": 38.89004033333333, "rental_uris": {"ios": "https://dc.lft.to/lastmile_qr_scan", "android": "https://dc.lft.to/lastmile_qr_scan"}, "fusion_lon": 0.0, "fusion_lat": 0.0, "bike_id": "726623a08cbd0d2e099924b2d73b6e42", "name": "726623a08cbd0d2e099924b2d73b6e42", "lon": -76.959418}, {"is_disabled": 0, "type": "electric_scooter", "is_reserved": 0, "lat": 38.91149516666667, "rental_uris": {"ios": "https://dc.lft.to/lastmile_qr_scan", "android": "https://dc.lft.to/lastmile_qr_scan"}, "fusion_lon": 0.0, "fusion_lat": 0.0, "bike_id": "5654a38d25842e7cb73df08e37b43640", "name": "5654a38d25842e7cb73df08e37b43640", "lon": -77.01687016666666}, {"is_disabled": 0, "type": "electric_scooter", "is_reserved": 0, "lat": 38.90077333333333, "rental_uris": {"ios": "https://dc.lft.to/lastmile_qr_scan", "android": "https://dc.lft.to/lastmile_qr_scan"}, "fusion_lon": 0.0, "fusion_lat": 0.0, "bike_id": "437f7906c671a59218f2c25888351fb9", "name": "437f7906c671a59218f2c25888351fb9", "lon": -77.0487025}, {"is_disabled": 0, "type": "electric_scooter", "is_reserved": 0, "lat": 38.920256, "rental_uris": {"ios": "https://dc.lft.to/lastmile_qr_scan", "android": "https://dc.lft.to/lastmile_qr_scan"}, "fusion_lon": 0.0, "fusion_lat": 0.0, "bike_id": "757994816fcf37c87416b88357b37256", "name": "757994816fcf37c87416b88357b37256", "lon": -77.00097233333334}, {"is_disabled": 0, "type": "electric_scooter", "is_reserved": 0, "lat": 38.876043333333335, "rental_uris": {"ios": "https://dc.lft.to/lastmile_qr_scan", "android": "https://dc.lft.to/lastmile_qr_scan"}, "fusion_lon": 0.0, "fusion_lat": 0.0, "bike_id": "a7b5655b255f401fcdeb724d80633597", "name": "a7b5655b255f401fcdeb724d80633597", "lon": -77.00933033333334}, {"is_disabled": 0, "type": "electric_scooter", "is_reserved": 0, "lat": 38.90808283333333, "rental_uris": {"ios": "https://dc.lft.to/lastmile_qr_scan", "android": "https://dc.lft.to/lastmile_qr_scan"}, "fusion_lon": 0.0, "fusion_lat": 0.0, "bike_id": "fcbc79fd8d9d35ad0bf9d2bd3b8811af", "name": "fcbc79fd8d9d35ad0bf9d2bd3b8811af", "lon": -77.05478333333333}, {"is_disabled": 0, "type": "electric_scooter", "is_reserved": 0, "lat": 38.89618516666667, "rental_uris": {"ios": "https://dc.lft.to/lastmile_qr_scan", "android": "https://dc.lft.to/lastmile_qr_scan"}, "fusion_lon": 0.0, "fusion_lat": 0.0, "bike_id": "82c9996cf7a79bca3db59781adbc5ce6", "name": "82c9996cf7a79bca3db59781adbc5ce6", "lon": -77.03027433333334}, {"is_disabled": 0, "type": "electric_scooter", "is_reserved": 0, "lat": 38.864973166666665, "rental_uris": {"ios": "https://dc.lft.to/lastmile_qr_scan", "android": "https://dc.lft.to/lastmile_qr_scan"}, "fusion_lon": 0.0, "fusion_lat": 0.0, "bike_id": "0d9e097f36de95bb4dde5bc3e2db0564", "name": "0d9e097f36de95bb4dde5bc3e2db0564", "lon": -76.989958}, {"is_disabled": 0, "type": "electric_scooter", "is_reserved": 0, "lat": 38.931177166666664, "rental_uris": {"ios": "https://dc.lft.to/lastmile_qr_scan", "android": "https://dc.lft.to/lastmile_qr_scan"}, "fusion_lon": 0.0, "fusion_lat": 0.0, "bike_id": "5956fc335e0ef058b81ecfc16d03cbbe", "name": "5956fc335e0ef058b81ecfc16d03cbbe", "lon": -77.020989}, {"is_disabled": 0, "type": "electric_scooter", "is_reserved": 0, "lat": 38.91499533333333, "rental_uris": {"ios": "https://dc.lft.to/lastmile_qr_scan", "android": "https://dc.lft.to/lastmile_qr_scan"}, "fusion_lon": 0.0, "fusion_lat": 0.0, "bike_id": "f0207d7efe4f91bc0850ae10f99e2bb9", "name": "f0207d7efe4f91bc0850ae10f99e2bb9", "lon": -77.012228}, {"is_disabled": 0, "type": "electric_scooter", "is_reserved": 0, "lat": 38.892216166666664, "rental_uris": {"ios": "https://dc.lft.to/lastmile_qr_scan", "android": "https://dc.lft.to/lastmile_qr_scan"}, "fusion_lon": 0.0, "fusion_lat": 0.0, "bike_id": "4cb5edf911a799e2711880107e07c50f", "name": "4cb5edf911a799e2711880107e07c50f", "lon": -77.01543516666666}, {"is_disabled": 0, "type": "electric_scooter", "is_reserved": 0, "lat": 38.9324365, "rental_uris": {"ios": "https://dc.lft.to/lastmile_qr_scan", "android": "https://dc.lft.to/lastmile_qr_scan"}, "fusion_lon": 0.0, "fusion_lat": 0.0, "bike_id": "46cc346df68d879a4a73bda6df5b16b3", "name": "46cc346df68d879a4a73bda6df5b16b3", "lon": -77.0388445}, {"is_disabled": 0, "type": "electric_scooter", "is_reserved": 0, "lat": 38.928791, "rental_uris": {"ios": "https://dc.lft.to/lastmile_qr_scan", "android": "https://dc.lft.to/lastmile_qr_scan"}, "fusion_lon": 0.0, "fusion_lat": 0.0, "bike_id": "d035b32e28ee0e9f3bb086d0f37760ee", "name": "d035b32e28ee0e9f3bb086d0f37760ee", "lon": -77.033163}, {"is_disabled": 0, "type": "electric_scooter", "is_reserved": 0, "lat": 38.862558, "rental_uris": {"ios": "https://dc.lft.to/lastmile_qr_scan", "android": "https://dc.lft.to/lastmile_qr_scan"}, "fusion_lon": 0.0, "fusion_lat": 0.0, "bike_id": "143f16570e4a83133d1cd0c2712524ae", "name": "143f16570e4a83133d1cd0c2712524ae", "lon": -76.99517216666666}, {"is_disabled": 0, "type": "electric_scooter", "is_reserved": 0, "lat": 38.91543733333334, "rental_uris": {"ios": "https://dc.lft.to/lastmile_qr_scan", "android": "https://dc.lft.to/lastmile_qr_scan"}, "fusion_lon": 0.0, "fusion_lat": 0.0, "bike_id": "ead518cc4210e937eb468da1874fb52c", "name": "ead518cc4210e937eb468da1874fb52c", "lon": -77.0347}, {"is_disabled": 0, "type": "electric_bike", "is_reserved": 0, "lat": 38.92470266666667, "rental_uris": {"ios": "https://dc.lft.to/lastmile_qr_scan", "android": "https://dc.lft.to/lastmile_qr_scan"}, "fusion_lon": 0.0, "fusion_lat": 0.0, "bike_id": "cc7f2ecba2e890c3e6c505ee4aeff44a", "name": "cc7f2ecba2e890c3e6c505ee4aeff44a", "lon": -77.05199733333333}, {"is_disabled": 0, "type": "electric_scooter", "is_reserved": 0, "lat": 38.88746416666667, "rental_uris": {"ios": "https://dc.lft.to/lastmile_qr_scan", "android": "https://dc.lft.to/lastmile_qr_scan"}, "fusion_lon": 0.0, "fusion_lat": 0.0, "bike_id": "a3ab15e1adf97ff149b65e1f73c231f9", "name": "a3ab15e1adf97ff149b65e1f73c231f9", "lon": -77.028392}, {"is_disabled": 0, "type": "electric_scooter", "is_reserved": 0, "lat": 38.913634333333334, "rental_uris": {"ios": "https://dc.lft.to/lastmile_qr_scan", "android": "https://dc.lft.to/lastmile_qr_scan"}, "fusion_lon": 0.0, "fusion_lat": 0.0, "bike_id": "2bf94745d7595116689dc61e12c9dda4", "name": "2bf94745d7595116689dc61e12c9dda4", "lon": -77.0448755}, {"is_disabled": 0, "type": "electric_scooter", "is_reserved": 0, "lat": 38.890129333333334, "rental_uris": {"ios": "https://dc.lft.to/lastmile_qr_scan", "android": "https://dc.lft.to/lastmile_qr_scan"}, "fusion_lon": 0.0, "fusion_lat": 0.0, "bike_id": "e91706f4fd2b31d37c91899f055068c2", "name": "e91706f4fd2b31d37c91899f055068c2", "lon": -76.937426}, {"is_disabled": 0, "type": "electric_scooter", "is_reserved": 0, "lat": 38.8874215, "rental_uris": {"ios": "https://dc.lft.to/lastmile_qr_scan", "android": "https://dc.lft.to/lastmile_qr_scan"}, "fusion_lon": 0.0, "fusion_lat": 0.0, "bike_id": "16e0736535b8567be2e1220680d0056b", "name": "16e0736535b8567be2e1220680d0056b", "lon": -77.01409916666667}, {"is_disabled": 0, "type": "electric_scooter", "is_reserved": 0, "lat": 38.88989516666667, "rental_uris": {"ios": "https://dc.lft.to/lastmile_qr_scan", "android": "https://dc.lft.to/lastmile_qr_scan"}, "fusion_lon": 0.0, "fusion_lat": 0.0, "bike_id": "00bdc4d6611a5b09a26e640c2a42d520", "name": "00bdc4d6611a5b09a26e640c2a42d520", "lon": -77.00337633333334}, {"is_disabled": 0, "type": "electric_scooter", "is_reserved": 0, "lat": 38.90030983333333, "rental_uris": {"ios": "https://dc.lft.to/lastmile_qr_scan", "android": "https://dc.lft.to/lastmile_qr_scan"}, "fusion_lon": 0.0, "fusion_lat": 0.0, "bike_id": "d0d3ce82c112fde3eac693c946b3312c", "name": "d0d3ce82c112fde3eac693c946b3312c", "lon": -76.9884045}, {"is_disabled": 0, "type": "electric_scooter", "is_reserved": 0, "lat": 38.89950266666666, "rental_uris": {"ios": "https://dc.lft.to/lastmile_qr_scan", "android": "https://dc.lft.to/lastmile_qr_scan"}, "fusion_lon": 0.0, "fusion_lat": 0.0, "bike_id": "555b7839e4f6ae01dfb53a0d21df90fe", "name": "555b7839e4f6ae01dfb53a0d21df90fe", "lon": -77.04671583333334}, {"is_disabled": 0, "type": "electric_scooter", "is_reserved": 0, "lat": 38.90008316666667, "rental_uris": {"ios": "https://dc.lft.to/lastmile_qr_scan", "android": "https://dc.lft.to/lastmile_qr_scan"}, "fusion_lon": 0.0, "fusion_lat": 0.0, "bike_id": "6aa2d259af0e79af67a285694beb7eb4", "name": "6aa2d259af0e79af67a285694beb7eb4", "lon": -76.99315166666666}, {"is_disabled": 0, "type": "electric_scooter", "is_reserved": 0, "lat": 38.921698666666664, "rental_uris": {"ios": "https://dc.lft.to/lastmile_qr_scan", "android": "https://dc.lft.to/lastmile_qr_scan"}, "fusion_lon": 0.0, "fusion_lat": 0.0, "bike_id": "7a0be38170931a9815c8a149b5a897b7", "name": "7a0be38170931a9815c8a149b5a897b7", "lon": -77.04123783333333}, {"is_disabled": 0, "type": "electric_scooter", "is_reserved": 0, "lat": 38.93083516666667, "rental_uris": {"ios": "https://dc.lft.to/lastmile_qr_scan", "android": "https://dc.lft.to/lastmile_qr_scan"}, "fusion_lon": 0.0, "fusion_lat": 0.0, "bike_id": "0773c34542852852081451efdd53415a", "name": "0773c34542852852081451efdd53415a", "lon": -77.02805683333334}, {"is_disabled": 0, "type": "electric_scooter", "is_reserved": 0, "lat": 38.90897233333333, "rental_uris": {"ios": "https://dc.lft.to/lastmile_qr_scan", "android": "https://dc.lft.to/lastmile_qr_scan"}, "fusion_lon": 0.0, "fusion_lat": 0.0, "bike_id": "edd0eb16c0742f76442b368145e9f2e8", "name": "edd0eb16c0742f76442b368145e9f2e8", "lon": -77.03829016666667}, {"is_disabled": 0, "type": "electric_scooter", "is_reserved": 0, "lat": 38.92430683333333, "rental_uris": {"ios": "https://dc.lft.to/lastmile_qr_scan", "android": "https://dc.lft.to/lastmile_qr_scan"}, "fusion_lon": 0.0, "fusion_lat": 0.0, "bike_id": "74f11ef6d94af4d4dd9ac5ceed854616", "name": "74f11ef6d94af4d4dd9ac5ceed854616", "lon": -77.04007883333334}, {"is_disabled": 0, "type": "electric_scooter", "is_reserved": 0, "lat": 38.8922415, "rental_uris": {"ios": "https://dc.lft.to/lastmile_qr_scan", "android": "https://dc.lft.to/lastmile_qr_scan"}, "fusion_lon": 0.0, "fusion_lat": 0.0, "bike_id": "48c9decde1f7d50c0b4dcae2c23d9aa5", "name": "48c9decde1f7d50c0b4dcae2c23d9aa5", "lon": -77.04183633333334}, {"is_disabled": 0, "type": "electric_scooter", "is_reserved": 0, "lat": 38.911227333333336, "rental_uris": {"ios": "https://dc.lft.to/lastmile_qr_scan", "android": "https://dc.lft.to/lastmile_qr_scan"}, "fusion_lon": 0.0, "fusion_lat": 0.0, "bike_id": "24098dc31800986379cb668f95e7c112", "name": "24098dc31800986379cb668f95e7c112", "lon": -77.02694166666667}, {"is_disabled": 0, "type": "electric_scooter", "is_reserved": 0, "lat": 38.89355666666667, "rental_uris": {"ios": "https://dc.lft.to/lastmile_qr_scan", "android": "https://dc.lft.to/lastmile_qr_scan"}, "fusion_lon": 0.0, "fusion_lat": 0.0, "bike_id": "f91fab94cea2ed5ce7a0769e4cabb15a", "name": "f91fab94cea2ed5ce7a0769e4cabb15a", "lon": -77.00339066666666}, {"is_disabled": 0, "type": "electric_scooter", "is_reserved": 0, "lat": 38.90952166666667, "rental_uris": {"ios": "https://dc.lft.to/lastmile_qr_scan", "android": "https://dc.lft.to/lastmile_qr_scan"}, "fusion_lon": 0.0, "fusion_lat": 0.0, "bike_id": "577c5de3e67efb9098d1f7f4911f39ee", "name": "577c5de3e67efb9098d1f7f4911f39ee", "lon": -77.022827}, {"is_disabled": 0, "type": "electric_scooter", "is_reserved": 0, "lat": 38.90307116666666, "rental_uris": {"ios": "https://dc.lft.to/lastmile_qr_scan", "android": "https://dc.lft.to/lastmile_qr_scan"}, "fusion_lon": 0.0, "fusion_lat": 0.0, "bike_id": "edd383d3b405ed6a3e84ed408a7ca230", "name": "edd383d3b405ed6a3e84ed408a7ca230", "lon": -77.0400985}, {"is_disabled": 0, "type": "electric_bike", "is_reserved": 0, "lat": 38.904888666666665, "rental_uris": {"ios": "https://dc.lft.to/lastmile_qr_scan", "android": "https://dc.lft.to/lastmile_qr_scan"}, "fusion_lon": 0.0, "fusion_lat": 0.0, "bike_id": "ddc75b74d41eb0015b074600daae5b9b", "name": "ddc75b74d41eb0015b074600daae5b9b", "lon": -77.0680335}, {"is_disabled": 0, "type": "electric_scooter", "is_reserved": 0, "lat": 38.917230833333335, "rental_uris": {"ios": "https://dc.lft.to/lastmile_qr_scan", "android": "https://dc.lft.to/lastmile_qr_scan"}, "fusion_lon": 0.0, "fusion_lat": 0.0, "bike_id": "64562be561fd0bd96ec080b066635039", "name": "64562be561fd0bd96ec080b066635039", "lon": -77.02970816666667}, {"is_disabled": 0, "type": "electric_scooter", "is_reserved": 0, "lat": 38.91057883333333, "rental_uris": {"ios": "https://dc.lft.to/lastmile_qr_scan", "android": "https://dc.lft.to/lastmile_qr_scan"}, "fusion_lon": 0.0, "fusion_lat": 0.0, "bike_id": "7ddcb4d5038387afb84586b1611bbf62", "name": "7ddcb4d5038387afb84586b1611bbf62", "lon": -77.04829516666666}, {"is_disabled": 0, "type": "electric_scooter", "is_reserved": 0, "lat": 38.89964533333333, "rental_uris": {"ios": "https://dc.lft.to/lastmile_qr_scan", "android": "https://dc.lft.to/lastmile_qr_scan"}, "fusion_lon": 0.0, "fusion_lat": 0.0, "bike_id": "17660189a1348632c39b01b9f35edb0f", "name": "17660189a1348632c39b01b9f35edb0f", "lon": -76.9396825}, {"is_disabled": 0, "type": "electric_scooter", "is_reserved": 0, "lat": 38.893449333333336, "rental_uris": {"ios": "https://dc.lft.to/lastmile_qr_scan", "android": "https://dc.lft.to/lastmile_qr_scan"}, "fusion_lon": 0.0, "fusion_lat": 0.0, "bike_id": "50b62899c6e2c2b2ad8d5c6c12fd5c7e", "name": "50b62899c6e2c2b2ad8d5c6c12fd5c7e", "lon": -77.0414075}, {"is_disabled": 0, "type": "electric_scooter", "is_reserved": 0, "lat": 38.9167125, "rental_uris": {"ios": "https://dc.lft.to/lastmile_qr_scan", "android": "https://dc.lft.to/lastmile_qr_scan"}, "fusion_lon": 0.0, "fusion_lat": 0.0, "bike_id": "129379ba414fde2f43337758cd393b3f", "name": "129379ba414fde2f43337758cd393b3f", "lon": -77.03689933333334}, {"is_disabled": 0, "type": "electric_scooter", "is_reserved": 0, "lat": 38.90040916666667, "rental_uris": {"ios": "https://dc.lft.to/lastmile_qr_scan", "android": "https://dc.lft.to/lastmile_qr_scan"}, "fusion_lon": 0.0, "fusion_lat": 0.0, "bike_id": "7bc2a68b428d4427f83a81245eca78ad", "name": "7bc2a68b428d4427f83a81245eca78ad", "lon": -77.02900283333334}, {"is_disabled": 0, "type": "electric_scooter", "is_reserved": 0, "lat": 38.9025775, "rental_uris": {"ios": "https://dc.lft.to/lastmile_qr_scan", "android": "https://dc.lft.to/lastmile_qr_scan"}, "fusion_lon": 0.0, "fusion_lat": 0.0, "bike_id": "a9ea843ef877fa9bc9fa5bfacf5c1ff3", "name": "a9ea843ef877fa9bc9fa5bfacf5c1ff3", "lon": -77.03064433333333}, {"is_disabled": 0, "type": "electric_scooter", "is_reserved": 0, "lat": 38.92031133333333, "rental_uris": {"ios": "https://dc.lft.to/lastmile_qr_scan", "android": "https://dc.lft.to/lastmile_qr_scan"}, "fusion_lon": 0.0, "fusion_lat": 0.0, "bike_id": "65a3061f9160a715695d3af1c877701c", "name": "65a3061f9160a715695d3af1c877701c", "lon": -77.030873}, {"is_disabled": 0, "type": "electric_scooter", "is_reserved": 0, "lat": 38.9234315, "rental_uris": {"ios": "https://dc.lft.to/lastmile_qr_scan", "android": "https://dc.lft.to/lastmile_qr_scan"}, "fusion_lon": 0.0, "fusion_lat": 0.0, "bike_id": "ea48cf6284d2b6d4b231b77847932ea9", "name": "ea48cf6284d2b6d4b231b77847932ea9", "lon": -77.051226}, {"is_disabled": 0, "type": "electric_scooter", "is_reserved": 0, "lat": 38.84433833333333, "rental_uris": {"ios": "https://dc.lft.to/lastmile_qr_scan", "android": "https://dc.lft.to/lastmile_qr_scan"}, "fusion_lon": 0.0, "fusion_lat": 0.0, "bike_id": "f8b3725b3bceb28727a1401d5f5aeb96", "name": "f8b3725b3bceb28727a1401d5f5aeb96", "lon": -76.99711866666667}, {"is_disabled": 0, "type": "electric_scooter", "is_reserved": 0, "lat": 38.914794, "rental_uris": {"ios": "https://dc.lft.to/lastmile_qr_scan", "android": "https://dc.lft.to/lastmile_qr_scan"}, "fusion_lon": 0.0, "fusion_lat": 0.0, "bike_id": "b52fff64acbd1550a7047baab7c004f8", "name": "b52fff64acbd1550a7047baab7c004f8", "lon": -77.03187866666667}, {"is_disabled": 0, "type": "electric_scooter", "is_reserved": 0, "lat": 38.862452, "rental_uris": {"ios": "https://dc.lft.to/lastmile_qr_scan", "android": "https://dc.lft.to/lastmile_qr_scan"}, "fusion_lon": 0.0, "fusion_lat": 0.0, "bike_id": "1e5326a7b1732ec199db5e09e1e88ca1", "name": "1e5326a7b1732ec199db5e09e1e88ca1", "lon": -76.99537866666667}, {"is_disabled": 0, "type": "electric_scooter", "is_reserved": 0, "lat": 38.92267, "rental_uris": {"ios": "https://dc.lft.to/lastmile_qr_scan", "android": "https://dc.lft.to/lastmile_qr_scan"}, "fusion_lon": 0.0, "fusion_lat": 0.0, "bike_id": "3cd951a0178cb25a4db499d9a6e3d282", "name": "3cd951a0178cb25a4db499d9a6e3d282", "lon": -77.04134566666667}, {"is_disabled": 0, "type": "electric_bike", "is_reserved": 0, "lat": 38.8544465, "rental_uris": {"ios": "https://dc.lft.to/lastmile_qr_scan", "android": "https://dc.lft.to/lastmile_qr_scan"}, "fusion_lon": 0.0, "fusion_lat": 0.0, "bike_id": "b50de4d1383ab1f41942ddcbe5df7679", "name": "b50de4d1383ab1f41942ddcbe5df7679", "lon": -76.972311}, {"is_disabled": 0, "type": "electric_scooter", "is_reserved": 0, "lat": 38.91041283333333, "rental_uris": {"ios": "https://dc.lft.to/lastmile_qr_scan", "android": "https://dc.lft.to/lastmile_qr_scan"}, "fusion_lon": 0.0, "fusion_lat": 0.0, "bike_id": "b295b5b8e901d4f135473dd4503fe813", "name": "b295b5b8e901d4f135473dd4503fe813", "lon": -76.98602166666667}, {"is_disabled": 0, "type": "electric_scooter", "is_reserved": 0, "lat": 38.93872266666666, "rental_uris": {"ios": "https://dc.lft.to/lastmile_qr_scan", "android": "https://dc.lft.to/lastmile_qr_scan"}, "fusion_lon": 0.0, "fusion_lat": 0.0, "bike_id": "98d47f6e568fe731c7c80735a0048e7d", "name": "98d47f6e568fe731c7c80735a0048e7d", "lon": -77.03040333333334}, {"is_disabled": 0, "type": "electric_scooter", "is_reserved": 0, "lat": 38.894935333333336, "rental_uris": {"ios": "https://dc.lft.to/lastmile_qr_scan", "android": "https://dc.lft.to/lastmile_qr_scan"}, "fusion_lon": 0.0, "fusion_lat": 0.0, "bike_id": "e581715c1d266e36bccb45614e77adb0", "name": "e581715c1d266e36bccb45614e77adb0", "lon": -76.9494245}, {"is_disabled": 0, "type": "electric_scooter", "is_reserved": 0, "lat": 38.906, "rental_uris": {"ios": "https://dc.lft.to/lastmile_qr_scan", "android": "https://dc.lft.to/lastmile_qr_scan"}, "fusion_lon": 0.0, "fusion_lat": 0.0, "bike_id": "555cb8e85d879f5f136f8200dca073b6", "name": "555cb8e85d879f5f136f8200dca073b6", "lon": -77.0402865}, {"is_disabled": 0, "type": "electric_scooter", "is_reserved": 0, "lat": 38.8764415, "rental_uris": {"ios": "https://dc.lft.to/lastmile_qr_scan", "android": "https://dc.lft.to/lastmile_qr_scan"}, "fusion_lon": 0.0, "fusion_lat": 0.0, "bike_id": "284ba7efdea9179ee2fd6a8e42b3e1ba", "name": "284ba7efdea9179ee2fd6a8e42b3e1ba", "lon": -77.0055345}, {"is_disabled": 0, "type": "electric_scooter", "is_reserved": 0, "lat": 38.90218766666667, "rental_uris": {"ios": "https://dc.lft.to/lastmile_qr_scan", "android": "https://dc.lft.to/lastmile_qr_scan"}, "fusion_lon": 0.0, "fusion_lat": 0.0, "bike_id": "18138dba4825900edfa99a14084e96c5", "name": "18138dba4825900edfa99a14084e96c5", "lon": -77.02058633333333}, {"is_disabled": 0, "type": "electric_scooter", "is_reserved": 0, "lat": 38.89930116666667, "rental_uris": {"ios": "https://dc.lft.to/lastmile_qr_scan", "android": "https://dc.lft.to/lastmile_qr_scan"}, "fusion_lon": 0.0, "fusion_lat": 0.0, "bike_id": "6668bdf2f97298bcd69088e54e04eb9d", "name": "6668bdf2f97298bcd69088e54e04eb9d", "lon": -77.0279475}, {"is_disabled": 0, "type": "electric_scooter", "is_reserved": 0, "lat": 38.903134666666666, "rental_uris": {"ios": "https://dc.lft.to/lastmile_qr_scan", "android": "https://dc.lft.to/lastmile_qr_scan"}, "fusion_lon": 0.0, "fusion_lat": 0.0, "bike_id": "7bca43a7e374d6b7034ff76a35cf1778", "name": "7bca43a7e374d6b7034ff76a35cf1778", "lon": -77.039967}, {"is_disabled": 0, "type": "electric_bike", "is_reserved": 0, "lat": 38.82905816666667, "rental_uris": {"ios": "https://dc.lft.to/lastmile_qr_scan", "android": "https://dc.lft.to/lastmile_qr_scan"}, "fusion_lon": 0.0, "fusion_lat": 0.0, "bike_id": "85adf47280c5b1425b200fe1c35ae763", "name": "85adf47280c5b1425b200fe1c35ae763", "lon": -77.008348}, {"is_disabled": 0, "type": "electric_scooter", "is_reserved": 0, "lat": 38.900793, "rental_uris": {"ios": "https://dc.lft.to/lastmile_qr_scan", "android": "https://dc.lft.to/lastmile_qr_scan"}, "fusion_lon": 0.0, "fusion_lat": 0.0, "bike_id": "8c0de6edece6813d43e285ccffda7564", "name": "8c0de6edece6813d43e285ccffda7564", "lon": -77.00210166666666}, {"is_disabled": 0, "type": "electric_scooter", "is_reserved": 0, "lat": 38.91705483333333, "rental_uris": {"ios": "https://dc.lft.to/lastmile_qr_scan", "android": "https://dc.lft.to/lastmile_qr_scan"}, "fusion_lon": 0.0, "fusion_lat": 0.0, "bike_id": "39f3d7344983b392765390c51f43f8ee", "name": "39f3d7344983b392765390c51f43f8ee", "lon": -77.03867133333334}, {"is_disabled": 0, "type": "electric_scooter", "is_reserved": 0, "lat": 38.91684166666667, "rental_uris": {"ios": "https://dc.lft.to/lastmile_qr_scan", "android": "https://dc.lft.to/lastmile_qr_scan"}, "fusion_lon": 0.0, "fusion_lat": 0.0, "bike_id": "39125c537535ddd0ebf5c228397293e0", "name": "39125c537535ddd0ebf5c228397293e0", "lon": -77.03775466666667}, {"is_disabled": 0, "type": "electric_scooter", "is_reserved": 0, "lat": 38.90572866666667, "rental_uris": {"ios": "https://dc.lft.to/lastmile_qr_scan", "android": "https://dc.lft.to/lastmile_qr_scan"}, "fusion_lon": 0.0, "fusion_lat": 0.0, "bike_id": "93d0efaf6d2ffb3fd65e17baf663443f", "name": "93d0efaf6d2ffb3fd65e17baf663443f", "lon": -77.03616583333333}, {"is_disabled": 0, "type": "electric_scooter", "is_reserved": 0, "lat": 38.92422466666667, "rental_uris": {"ios": "https://dc.lft.to/lastmile_qr_scan", "android": "https://dc.lft.to/lastmile_qr_scan"}, "fusion_lon": 0.0, "fusion_lat": 0.0, "bike_id": "43cc85445bbffdac31be224b4d0122f4", "name": "43cc85445bbffdac31be224b4d0122f4", "lon": -77.0447985}, {"is_disabled": 0, "type": "electric_scooter", "is_reserved": 0, "lat": 38.9361075, "rental_uris": {"ios": "https://dc.lft.to/lastmile_qr_scan", "android": "https://dc.lft.to/lastmile_qr_scan"}, "fusion_lon": 0.0, "fusion_lat": 0.0, "bike_id": "7bc006d8a02bde3540f20bf0e0615957", "name": "7bc006d8a02bde3540f20bf0e0615957", "lon": -77.05869816666667}, {"is_disabled": 0, "type": "electric_scooter", "is_reserved": 0, "lat": 38.902405333333334, "rental_uris": {"ios": "https://dc.lft.to/lastmile_qr_scan", "android": "https://dc.lft.to/lastmile_qr_scan"}, "fusion_lon": 0.0, "fusion_lat": 0.0, "bike_id": "4142355fe1cabea361e111427a794441", "name": "4142355fe1cabea361e111427a794441", "lon": -77.04624416666667}, {"is_disabled": 0, "type": "electric_scooter", "is_reserved": 0, "lat": 38.9061445, "rental_uris": {"ios": "https://dc.lft.to/lastmile_qr_scan", "android": "https://dc.lft.to/lastmile_qr_scan"}, "fusion_lon": 0.0, "fusion_lat": 0.0, "bike_id": "9a0ae9f9e6a3d5fe869de4cdf9c663d4", "name": "9a0ae9f9e6a3d5fe869de4cdf9c663d4", "lon": -77.05023483333333}, {"is_disabled": 0, "type": "electric_scooter", "is_reserved": 0, "lat": 38.954237166666665, "rental_uris": {"ios": "https://dc.lft.to/lastmile_qr_scan", "android": "https://dc.lft.to/lastmile_qr_scan"}, "fusion_lon": 0.0, "fusion_lat": 0.0, "bike_id": "8257f9509817505028ee3ea6438db90a", "name": "8257f9509817505028ee3ea6438db90a", "lon": -77.027657}, {"is_disabled": 0, "type": "electric_scooter", "is_reserved": 0, "lat": 38.92467083333333, "rental_uris": {"ios": "https://dc.lft.to/lastmile_qr_scan", "android": "https://dc.lft.to/lastmile_qr_scan"}, "fusion_lon": 0.0, "fusion_lat": 0.0, "bike_id": "c9ef1ce4b3cc4eff50e395f33b84534b", "name": "c9ef1ce4b3cc4eff50e395f33b84534b", "lon": -77.05237233333334}, {"is_disabled": 0, "type": "electric_scooter", "is_reserved": 0, "lat": 38.887338166666666, "rental_uris": {"ios": "https://dc.lft.to/lastmile_qr_scan", "android": "https://dc.lft.to/lastmile_qr_scan"}, "fusion_lon": 0.0, "fusion_lat": 0.0, "bike_id": "f68a3cf4232181000bba91d3600c4e37", "name": "f68a3cf4232181000bba91d3600c4e37", "lon": -77.02825366666667}, {"is_disabled": 0, "type": "electric_bike", "is_reserved": 0, "lat": 38.86387533333333, "rental_uris": {"ios": "https://dc.lft.to/lastmile_qr_scan", "android": "https://dc.lft.to/lastmile_qr_scan"}, "fusion_lon": 0.0, "fusion_lat": 0.0, "bike_id": "3a4e18473f6c99765ec9b69a14e61edc", "name": "3a4e18473f6c99765ec9b69a14e61edc", "lon": -76.9899605}, {"is_disabled": 0, "type": "electric_scooter", "is_reserved": 0, "lat": 38.86121583333333, "rental_uris": {"ios": "https://dc.lft.to/lastmile_qr_scan", "android": "https://dc.lft.to/lastmile_qr_scan"}, "fusion_lon": 0.0, "fusion_lat": 0.0, "bike_id": "bf204a1b06ef560bd7b9b5064a3d3ea9", "name": "bf204a1b06ef560bd7b9b5064a3d3ea9", "lon": -76.98382766666667}, {"is_disabled": 0, "type": "electric_scooter", "is_reserved": 0, "lat": 38.917335333333334, "rental_uris": {"ios": "https://dc.lft.to/lastmile_qr_scan", "android": "https://dc.lft.to/lastmile_qr_scan"}, "fusion_lon": 0.0, "fusion_lat": 0.0, "bike_id": "884ca19aa8b02f76190b8440a769e8dc", "name": "884ca19aa8b02f76190b8440a769e8dc", "lon": -77.04176816666667}, {"is_disabled": 0, "type": "electric_scooter", "is_reserved": 0, "lat": 38.9146455, "rental_uris": {"ios": "https://dc.lft.to/lastmile_qr_scan", "android": "https://dc.lft.to/lastmile_qr_scan"}, "fusion_lon": 0.0, "fusion_lat": 0.0, "bike_id": "ebd292693d683f1ced183b3743fe9888", "name": "ebd292693d683f1ced183b3743fe9888", "lon": -76.981168}, {"is_disabled": 0, "type": "electric_scooter", "is_reserved": 0, "lat": 38.86244666666666, "rental_uris": {"ios": "https://dc.lft.to/lastmile_qr_scan", "android": "https://dc.lft.to/lastmile_qr_scan"}, "fusion_lon": 0.0, "fusion_lat": 0.0, "bike_id": "4feee386aca6b1283ad6cecaccd12233", "name": "4feee386aca6b1283ad6cecaccd12233", "lon": -76.99533333333333}, {"is_disabled": 0, "type": "electric_scooter", "is_reserved": 0, "lat": 38.88420416666666, "rental_uris": {"ios": "https://dc.lft.to/lastmile_qr_scan", "android": "https://dc.lft.to/lastmile_qr_scan"}, "fusion_lon": 0.0, "fusion_lat": 0.0, "bike_id": "7aa5ddf73c6e1a88823d9d71f4af40de", "name": "7aa5ddf73c6e1a88823d9d71f4af40de", "lon": -76.9970245}, {"is_disabled": 0, "type": "electric_scooter", "is_reserved": 0, "lat": 38.923769166666666, "rental_uris": {"ios": "https://dc.lft.to/lastmile_qr_scan", "android": "https://dc.lft.to/lastmile_qr_scan"}, "fusion_lon": 0.0, "fusion_lat": 0.0, "bike_id": "3b3bf322c84d5444f74e407c6a475c7b", "name": "3b3bf322c84d5444f74e407c6a475c7b", "lon": -77.03194833333333}, {"is_disabled": 0, "type": "electric_scooter", "is_reserved": 0, "lat": 38.93948016666667, "rental_uris": {"ios": "https://dc.lft.to/lastmile_qr_scan", "android": "https://dc.lft.to/lastmile_qr_scan"}, "fusion_lon": 0.0, "fusion_lat": 0.0, "bike_id": "16adeb0db3fe0f27944bffd346f86044", "name": "16adeb0db3fe0f27944bffd346f86044", "lon": -77.07240016666667},