{"data": {"bikes": [{"lon": -77.032204, "bike_id": "db8acd00a3272da7660a91760a12b681", "lat": 38.89226883333333, "fusion_lon": 0.0, "fusion_lat": 0.0, "type": "electric_scooter", "name": "db8acd00a3272da7660a91760a12b681", "is_disabled": 0, "rental_uris": {"ios": "https://dc.lft.to/lastmile_qr_scan", "android": "https://dc.lft.to/lastmile_qr_scan"}, "is_reserved": 0}, {"lon": -77.00049366666667, "bike_id": "9a30405b8d73d310f59efbcbc7fe56b5", "lat": 38.896674833333336, "fusion_lon": 0.0, "fusion_lat": 0.0, "type": "electric_scooter", "name": "9a30405b8d73d310f59efbcbc7fe56b5", "is_disabled": 0, "rental_uris": {"ios": "https://dc.lft.to/lastmile_qr_scan", "android": "https://dc.lft.to/lastmile_qr_scan"}, "is_reserved": 0}, {"lon": -76.99547083333333, "bike_id": "76b70146e5826359d34a2e8a6da7b32e", "lat": 38.86248116666667, "fusion_lon": 0.0, "fusion_lat": 0.0, "type": "electric_scooter", "name": "76b70146e5826359d34a2e8a6da7b32e", "is_disabled": 0, "rental_uris": {"ios": "https://dc.lft.to/lastmile_qr_scan", "android": "https://dc.lft.to/lastmile_qr_scan"}, "is_reserved": 0}, {"lon": -77.008284, "bike_id": "a55d2b232e67fc6352010b79bd98d763", "lat": 38.913473833333335, "fusion_lon": 0.0, "fusion_lat": 0.0, "type": "electric_scooter", "name": "a55d2b232e67fc6352010b79bd98d763", "is_disabled": 0, "rental_uris": {"ios": "https://dc.lft.to/lastmile_qr_scan", "android": "https://dc.lft.to/lastmile_qr_scan"}, "is_reserved": 0}, {"lon": -77.01319683333334, "bike_id": "d3035aec46a6dd93afedda79b45ba62e", "lat": 38.87147916666667, "fusion_lon": 0.0, "fusion_lat": 0.0, "type": "electric_scooter", "name": "d3035aec46a6dd93afedda79b45ba62e", "is_disabled": 0, "rental_uris": {"ios": "https://dc.lft.to/lastmile_qr_scan", "android": "https://dc.lft.to/lastmile_qr_scan"}, "is_reserved": 0}, {"lon": -77.098682, "bike_id": "a424351a83eaf19e4e89ef63ca3aee8f", "lat": 38.9496535, "fusion_lon": 0.0, "fusion_lat": 0.0, "type": "electric_scooter", "name": "a424351a83eaf19e4e89ef63ca3aee8f", "is_disabled": 0, "rental_uris": {"ios": "https://dc.lft.to/lastmile_qr_scan", "android": "https://dc.lft.to/lastmile_qr_scan"}, "is_reserved": 0}, {"lon": -77.00652633333333, "bike_id": "4a938cbb763de0f6798571f4a0952e9b", "lat": 38.876501166666664, "fusion_lon": 0.0, "fusion_lat": 0.0, "type": "electric_scooter", "name": "4a938cbb763de0f6798571f4a0952e9b", "is_disabled": 0, "rental_uris": {"ios": "https://dc.lft.to/lastmile_qr_scan", "android": "https://dc.lft.to/lastmile_qr_scan"}, "is_reserved": 0}, {"lon": -77.06303516666667, "bike_id": "5e94fbcfcafbf2daa0df599554ada949", "lat": 38.90672283333333, "fusion_lon": 0.0, "fusion_lat": 0.0, "type": "electric_scooter", "name": "5e94fbcfcafbf2daa0df599554ada949", "is_disabled": 0, "rental_uris": {"ios": "https://dc.lft.to/lastmile_qr_scan", "android": "https://dc.lft.to/lastmile_qr_scan"}, "is_reserved": 0}, {"lon": -77.01952583333333, "bike_id": "3322e75dab1ddf3e3f69bc3988a264c9", "lat": 38.930388, "fusion_lon": 0.0, "fusion_lat": 0.0, "type": "electric_scooter", "name": "3322e75dab1ddf3e3f69bc3988a264c9", "is_disabled": 0, "rental_uris": {"ios": "https://dc.lft.to/lastmile_qr_scan", "android": "https://dc.lft.to/lastmile_qr_scan"}, "is_reserved": 0}, {"lon": -77.00376016666667, "bike_id": "ef192eeccb03c5a3afa93260379709fe", "lat": 38.89725883333333, "fusion_lon": 0.0, "fusion_lat": 0.0, "type": "electric_scooter", "name": "ef192eeccb03c5a3afa93260379709fe", "is_disabled": 0, "rental_uris": {"ios": "https://dc.lft.to/lastmile_qr_scan", "android": "https://dc.lft.to/lastmile_qr_scan"}, "is_reserved": 0}, {"lon": -76.99002883333333, "bike_id": "3f493f81bb13fcbdf6478616d5703f27", "lat": 38.86508333333333, "fusion_lon": 0.0, "fusion_lat": 0.0, "type": "electric_scooter", "name": "3f493f81bb13fcbdf6478616d5703f27", "is_disabled": 0, "rental_uris": {"ios": "https://dc.lft.to/lastmile_qr_scan", "android": "https://dc.lft.to/lastmile_qr_scan"}, "is_reserved": 0}, {"lon": -77.00895116666666, "bike_id": "0ca852ba940b263f55141523c959d243", "lat": 38.90639083333333, "fusion_lon": 0.0, "fusion_lat": 0.0, "type": "electric_scooter", "name": "0ca852ba940b263f55141523c959d243", "is_disabled": 0, "rental_uris": {"ios": "https://dc.lft.to/lastmile_qr_scan", "android": "https://dc.lft.to/lastmile_qr_scan"}, "is_reserved": 0}, {"lon": -77.03202916666666, "bike_id": "db055d1783d4bb31d7b9a8e696b212b2", "lat": 38.91539683333333, "fusion_lon": 0.0, "fusion_lat": 0.0, "type": "electric_scooter", "name": "db055d1783d4bb31d7b9a8e696b212b2", "is_disabled": 0, "rental_uris": {"ios": "https://dc.lft.to/lastmile_qr_scan", "android": "https://dc.lft.to/lastmile_qr_scan"}, "is_reserved": 0}, {"lon": -76.99369116666666, "bike_id": "79d6823f45d0f71e03f7dfde89a51738", "lat": 38.8797125, "fusion_lon": 0.0, "fusion_lat": 0.0, "type": "electric_scooter", "name": "79d6823f45d0f71e03f7dfde89a51738", "is_disabled": 0, "rental_uris": {"ios": "https://dc.lft.to/lastmile_qr_scan", "android": "https://dc.lft.to/lastmile_qr_scan"}, "is_reserved": 0}, {"lon": -77.03121, "bike_id": "c06592d6d8ec8c7070911a141b1ff73a", "lat": 38.916958, "fusion_lon": 0.0, "fusion_lat": 0.0, "type": "electric_scooter", "name": "c06592d6d8ec8c7070911a141b1ff73a", "is_disabled": 0, "rental_uris": {"ios": "https://dc.lft.to/lastmile_qr_scan", "android": "https://dc.lft.to/lastmile_qr_scan"}, "is_reserved": 0}, {"lon": -76.994603, "bike_id": "f6e978cd899e2237897623477c4e98b6", "lat": 38.966222333333334, "fusion_lon": 0.0, "fusion_lat": 0.0, "type": "electric_bike", "name": "f6e978cd899e2237897623477c4e98b6", "is_disabled": 0, "rental_uris": {"ios": "https://dc.lft.to/lastmile_qr_scan", "android": "https://dc.lft.to/lastmile_qr_scan"}, "is_reserved": 0}, {"lon": -77.045975, "bike_id": "2f20b0c43dc1069a7e221a5d9910e1fb", "lat": 38.921831166666664, "fusion_lon": 0.0, "fusion_lat": 0.0, "type": "electric_scooter", "name": "2f20b0c43dc1069a7e221a5d9910e1fb", "is_disabled": 0, "rental_uris": {"ios": "https://dc.lft.to/lastmile_qr_scan", "android": "https://dc.lft.to/lastmile_qr_scan"}, "is_reserved": 0}, {"lon": -77.02369533333334, "bike_id": "920d3a2891bf2870bb349febb7bc790a", "lat": 38.9030355, "fusion_lon": 0.0, "fusion_lat": 0.0, "type": "electric_scooter", "name": "920d3a2891bf2870bb349febb7bc790a", "is_disabled": 0, "rental_uris": {"ios": "https://dc.lft.to/lastmile_qr_scan", "android": "https://dc.lft.to/lastmile_qr_scan"}, "is_reserved": 0}, {"lon": -77.05119333333333, "bike_id": "a01b976c44384294c5ce87d7a200667f", "lat": 38.923036, "fusion_lon": 0.0, "fusion_lat": 0.0, "type": "electric_scooter", "name": "a01b976c44384294c5ce87d7a200667f", "is_disabled": 0, "rental_uris": {"ios": "https://dc.lft.to/lastmile_qr_scan", "android": "https://dc.lft.to/lastmile_qr_scan"}, "is_reserved": 0}, {"lon": -77.00653883333334, "bike_id": "d56577647f08fbb74cbfe5eddfa8c641", "lat": 38.880754333333336, "fusion_lon": 0.0, "fusion_lat": 0.0, "type": "electric_scooter", "name": "d56577647f08fbb74cbfe5eddfa8c641", "is_disabled": 0, "rental_uris": {"ios": "https://dc.lft.to/lastmile_qr_scan", "android": "https://dc.lft.to/lastmile_qr_scan"}, "is_reserved": 0}, {"lon": -77.05450983333333, "bike_id": "036830d6733beba7f5eb59bc253923c0", "lat": 38.89801716666667, "fusion_lon": 0.0, "fusion_lat": 0.0, "type": "electric_scooter", "name": "036830d6733beba7f5eb59bc253923c0", "is_disabled": 0, "rental_uris": {"ios": "https://dc.lft.to/lastmile_qr_scan", "android": "https://dc.lft.to/lastmile_qr_scan"}, "is_reserved": 0}, {"lon": -77.03350966666666, "bike_id": "a1c3f77de94f196f6fa2090260a7d16b", "lat": 38.89617583333333, "fusion_lon": 0.0, "fusion_lat": 0.0, "type": "electric_scooter", "name": "a1c3f77de94f196f6fa2090260a7d16b", "is_disabled": 0, "rental_uris": {"ios": "https://dc.lft.to/lastmile_qr_scan", "android": "https://dc.lft.to/lastmile_qr_scan"}, "is_reserved": 0}, {"lon": -77.02614683333333, "bike_id": "bff07301b53614d426955fb496ae2223", "lat": 38.92983916666667, "fusion_lon": 0.0, "fusion_lat": 0.0, "type": "electric_scooter", "name": "bff07301b53614d426955fb496ae2223", "is_disabled": 0, "rental_uris": {"ios": "https://dc.lft.to/lastmile_qr_scan", "android": "https://dc.lft.to/lastmile_qr_scan"}, "is_reserved": 0}, {"lon": -77.028142, "bike_id": "d7d904533bd336bf7bb578c179ffc9f8", "lat": 38.961416166666666, "fusion_lon": 0.0, "fusion_lat": 0.0, "type": "electric_scooter", "name": "d7d904533bd336bf7bb578c179ffc9f8", "is_disabled": 0, "rental_uris": {"ios": "https://dc.lft.to/lastmile_qr_scan", "android": "https://dc.lft.to/lastmile_qr_scan"}, "is_reserved": 0}, {"lon": -77.0247835, "bike_id": "4f03558dc17dd0d083eaf57562eeb3f5", "lat": 38.91986166666667, "fusion_lon": 0.0, "fusion_lat": 0.0, "type": "electric_scooter", "name": "4f03558dc17dd0d083eaf57562eeb3f5", "is_disabled": 0, "rental_uris": {"ios": "https://dc.lft.to/lastmile_qr_scan", "android": "https://dc.lft.to/lastmile_qr_scan"}, "is_reserved": 0}, {"lon": -76.9985025, "bike_id": "8796563e818a8158a4dd61468b3e2138", "lat": 38.9010295, "fusion_lon": 0.0, "fusion_lat": 0.0, "type": "electric_scooter", "name": "8796563e818a8158a4dd61468b3e2138", "is_disabled": 0, "rental_uris": {"ios": "https://dc.lft.to/lastmile_qr_scan", "android": "https://dc.lft.to/lastmile_qr_scan"}, "is_reserved": 0}, {"lon": -77.0386415, "bike_id": "eabacc15495f3aec95a6f5e5a7930a2a", "lat": 38.92011466666666, "fusion_lon": 0.0, "fusion_lat": 0.0, "type": "electric_scooter", "name": "eabacc15495f3aec95a6f5e5a7930a2a", "is_disabled": 0, "rental_uris": {"ios": "https://dc.lft.to/lastmile_qr_scan", "android": "https://dc.lft.to/lastmile_qr_scan"}, "is_reserved": 0}, {"lon": -76.9377105, "bike_id": "7c80244fc036bfe78a03cd57bb2b8977", "lat": 38.899673166666666, "fusion_lon": 0.0, "fusion_lat": 0.0, "type": "electric_scooter", "name": "7c80244fc036bfe78a03cd57bb2b8977", "is_disabled": 0, "rental_uris": {"ios": "https://dc.lft.to/lastmile_qr_scan", "android": "https://dc.lft.to/lastmile_qr_scan"}, "is_reserved": 0}, {"lon": -77.05132016666667, "bike_id": "aa2e236b4cd4150bead0f48544966c5b", "lat": 38.898653, "fusion_lon": 0.0, "fusion_lat": 0.0, "type": "electric_scooter", "name": "aa2e236b4cd4150bead0f48544966c5b", "is_disabled": 0, "rental_uris": {"ios": "https://dc.lft.to/lastmile_qr_scan", "android": "https://dc.lft.to/lastmile_qr_scan"}, "is_reserved": 0}, {"lon": -77.0321675, "bike_id": "94c718df099996ee51a76dd70bf8a17f", "lat": 38.91217683333333, "fusion_lon": 0.0, "fusion_lat": 0.0, "type": "electric_scooter", "name": "94c718df099996ee51a76dd70bf8a17f", "is_disabled": 0, "rental_uris": {"ios": "https://dc.lft.to/lastmile_qr_scan", "android": "https://dc.lft.to/lastmile_qr_scan"}, "is_reserved": 0}, {"lon": -76.99015666666666, "bike_id": "29f91d7c6ad6454b5cb9bd60b4e363bf", "lat": 38.94599066666667, "fusion_lon": 0.0, "fusion_lat": 0.0, "type": "electric_scooter", "name": "29f91d7c6ad6454b5cb9bd60b4e363bf", "is_disabled": 0, "rental_uris": {"ios": "https://dc.lft.to/lastmile_qr_scan", "android": "https://dc.lft.to/lastmile_qr_scan"}, "is_reserved": 0}, {"lon": -76.945065, "bike_id": "4f193059c3be227e322e078699678383", "lat": 38.86484216666667, "fusion_lon": 0.0, "fusion_lat": 0.0, "type": "electric_bike", "name": "4f193059c3be227e322e078699678383", "is_disabled": 0, "rental_uris": {"ios": "https://dc.lft.to/lastmile_qr_scan", "android": "https://dc.lft.to/lastmile_qr_scan"}, "is_reserved": 0}, {"lon": -76.99365283333333, "bike_id": "d181cdb50081645be3db89587a52622d", "lat": 38.940247, "fusion_lon": 0.0, "fusion_lat": 0.0, "type": "electric_scooter", "name": "d181cdb50081645be3db89587a52622d", "is_disabled": 0, "rental_uris": {"ios": "https://dc.lft.to/lastmile_qr_scan", "android": "https://dc.lft.to/lastmile_qr_scan"}, "is_reserved": 0}, {"lon": -77.03286666666666, "bike_id": "6c82137e4e13384c114d718c12e090ee", "lat": 38.9565195, "fusion_lon": 0.0, "fusion_lat": 0.0, "type": "electric_scooter", "name": "6c82137e4e13384c114d718c12e090ee", "is_disabled": 0, "rental_uris": {"ios": "https://dc.lft.to/lastmile_qr_scan", "android": "https://dc.lft.to/lastmile_qr_scan"}, "is_reserved": 0}, {"lon": -77.04981183333334, "bike_id": "ba77f2df6c477bccc1dac250abdc194a", "lat": 39.0629605, "fusion_lon": 0.0, "fusion_lat": 0.0, "type": "electric_bike", "name": "ba77f2df6c477bccc1dac250abdc194a", "is_disabled": 0, "rental_uris": {"ios": "https://dc.lft.to/lastmile_qr_scan", "android": "https://dc.lft.to/lastmile_qr_scan"}, "is_reserved": 0}, {"lon": -76.9970015, "bike_id": "215cfef96a18371c19300f512884a919", "lat": 38.9079915, "fusion_lon": 0.0, "fusion_lat": 0.0, "type": "electric_scooter", "name": "215cfef96a18371c19300f512884a919", "is_disabled": 0, "rental_uris": {"ios": "https://dc.lft.to/lastmile_qr_scan", "android": "https://dc.lft.to/lastmile_qr_scan"}, "is_reserved": 0}, {"lon": -76.9910255, "bike_id": "4cecda2cf98b30dba39bda0c9b2d2327", "lat": 38.8573375, "fusion_lon": 0.0, "fusion_lat": 0.0, "type": "electric_scooter", "name": "4cecda2cf98b30dba39bda0c9b2d2327", "is_disabled": 0, "rental_uris": {"ios": "https://dc.lft.to/lastmile_qr_scan", "android": "https://dc.lft.to/lastmile_qr_scan"}, "is_reserved": 0}, {"lon": -77.02950516666667, "bike_id": "b39e8d7d5e5632b39444bbe285d8fcac", "lat": 38.921750333333335, "fusion_lon": 0.0, "fusion_lat": 0.0, "type": "electric_scooter", "name": "b39e8d7d5e5632b39444bbe285d8fcac", "is_disabled": 0, "rental_uris": {"ios": "https://dc.lft.to/lastmile_qr_scan", "android": "https://dc.lft.to/lastmile_qr_scan"}, "is_reserved": 0}, {"lon": -77.04876716666666, "bike_id": "cfdd8352eab0fbf25d74f89202b8a0de", "lat": 38.892958666666665, "fusion_lon": 0.0, "fusion_lat": 0.0, "type": "electric_scooter", "name": "cfdd8352eab0fbf25d74f89202b8a0de", "is_disabled": 0, "rental_uris": {"ios": "https://dc.lft.to/lastmile_qr_scan", "android": "https://dc.lft.to/lastmile_qr_scan"}, "is_reserved": 0}, {"lon": -77.0238755, "bike_id": "436a76e35bb1cc7c273e87c2ce6af86a", "lat": 38.90080116666667, "fusion_lon": 0.0, "fusion_lat": 0.0, "type": "electric_scooter", "name": "436a76e35bb1cc7c273e87c2ce6af86a", "is_disabled": 0, "rental_uris": {"ios": "https://dc.lft.to/lastmile_qr_scan", "android": "https://dc.lft.to/lastmile_qr_scan"}, "is_reserved": 0}, {"lon": -77.0641205, "bike_id": "471a3368dcfdca500d62b5f078bb6f70", "lat": 38.840628833333334, "fusion_lon": 0.0, "fusion_lat": 0.0, "type": "electric_bike", "name": "471a3368dcfdca500d62b5f078bb6f70", "is_disabled": 0, "rental_uris": {"ios": "https://dc.lft.to/lastmile_qr_scan", "android": "https://dc.lft.to/lastmile_qr_scan"}, "is_reserved": 0}, {"lon": -77.0347075, "bike_id": "11afe8ccbd2f5e42abdc020d990a3369", "lat": 38.9287195, "fusion_lon": 0.0, "fusion_lat": 0.0, "type": "electric_scooter", "name": "11afe8ccbd2f5e42abdc020d990a3369", "is_disabled": 0, "rental_uris": {"ios": "https://dc.lft.to/lastmile_qr_scan", "android": "https://dc.lft.to/lastmile_qr_scan"}, "is_reserved": 0}, {"lon": -76.93512216666667, "bike_id": "2b6735f7cec937ffcf19b66dc806b132", "lat": 38.887284, "fusion_lon": 0.0, "fusion_lat": 0.0, "type": "electric_bike", "name": "2b6735f7cec937ffcf19b66dc806b132", "is_disabled": 0, "rental_uris": {"ios": "https://dc.lft.to/lastmile_qr_scan", "android": "https://dc.lft.to/lastmile_qr_scan"}, "is_reserved": 0}, {"lon": -77.00192783333334, "bike_id": "5f676279ec17d6015ad3cf8b1bab96fb", "lat": 38.914824333333335, "fusion_lon": 0.0, "fusion_lat": 0.0, "type": "electric_scooter", "name": "5f676279ec17d6015ad3cf8b1bab96fb", "is_disabled": 0, "rental_uris": {"ios": "https://dc.lft.to/lastmile_qr_scan", "android": "https://dc.lft.to/lastmile_qr_scan"}, "is_reserved": 0}, {"lon": -77.024609, "bike_id": "74a8c306c8c10c745a4fa6a87b60ac6f", "lat": 38.899566, "fusion_lon": 0.0, "fusion_lat": 0.0, "type": "electric_scooter", "name": "74a8c306c8c10c745a4fa6a87b60ac6f", "is_disabled": 0, "rental_uris": {"ios": "https://dc.lft.to/lastmile_qr_scan", "android": "https://dc.lft.to/lastmile_qr_scan"}, "is_reserved": 0}, {"lon": -77.017841, "bike_id": "6547d7cdaafd68a7c6f63e721a3ef86c", "lat": 38.901441, "fusion_lon": 0.0, "fusion_lat": 0.0, "type": "electric_scooter", "name": "6547d7cdaafd68a7c6f63e721a3ef86c", "is_disabled": 0, "rental_uris": {"ios": "https://dc.lft.to/lastmile_qr_scan", "android": "https://dc.lft.to/lastmile_qr_scan"}, "is_reserved": 0}, {"lon": -77.02976166666667, "bike_id": "614ae0656ff6665b3d106a203840dc12", "lat": 38.9169355, "fusion_lon": 0.0, "fusion_lat": 0.0, "type": "electric_scooter", "name": "614ae0656ff6665b3d106a203840dc12", "is_disabled": 0, "rental_uris": {"ios": "https://dc.lft.to/lastmile_qr_scan", "android": "https://dc.lft.to/lastmile_qr_scan"}, "is_reserved": 0}, {"lon": -77.0435875, "bike_id": "a413c840a361d2b80db3c38cd4012ed9", "lat": 38.920662, "fusion_lon": 0.0, "fusion_lat": 0.0, "type": "electric_scooter", "name": "a413c840a361d2b80db3c38cd4012ed9", "is_disabled": 0, "rental_uris": {"ios": "https://dc.lft.to/lastmile_qr_scan", "android": "https://dc.lft.to/lastmile_qr_scan"}, "is_reserved": 0}, {"lon": -77.0251725, "bike_id": "817213a1844e35ce600c3d445b9a6517", "lat": 38.88037816666667, "fusion_lon": 0.0, "fusion_lat": 0.0, "type": "electric_scooter", "name": "817213a1844e35ce600c3d445b9a6517", "is_disabled": 0, "rental_uris": {"ios": "https://dc.lft.to/lastmile_qr_scan", "android": "https://dc.lft.to/lastmile_qr_scan"}, "is_reserved": 0}, {"lon": -77.00488783333333, "bike_id": "ee9f39426926006746dbebf972f1aa0c", "lat": 38.920712, "fusion_lon": 0.0, "fusion_lat": 0.0, "type": "electric_scooter", "name": "ee9f39426926006746dbebf972f1aa0c", "is_disabled": 0, "rental_uris": {"ios": "https://dc.lft.to/lastmile_qr_scan", "android": "https://dc.lft.to/lastmile_qr_scan"}, "is_reserved": 0}, {"lon": -76.97858683333334, "bike_id": "2d459fdb05d2be704967c5aa7e678479", "lat": 38.870718333333336, "fusion_lon": 0.0, "fusion_lat": 0.0, "type": "electric_scooter", "name": "2d459fdb05d2be704967c5aa7e678479", "is_disabled": 0, "rental_uris": {"ios": "https://dc.lft.to/lastmile_qr_scan", "android": "https://dc.lft.to/lastmile_qr_scan"}, "is_reserved": 0}, {"lon": -77.022678, "bike_id": "a8c2c0cc0a908b13c0460374022785e5", "lat": 38.92745883333333, "fusion_lon": 0.0, "fusion_lat": 0.0, "type": "electric_scooter", "name": "a8c2c0cc0a908b13c0460374022785e5", "is_disabled": 0, "rental_uris": {"ios": "https://dc.lft.to/lastmile_qr_scan", "android": "https://dc.lft.to/lastmile_qr_scan"}, "is_reserved": 0}, {"lon": -77.02399566666666, "bike_id": "1838df11decc9951d4f5cbe5f72ed9a4", "lat": 38.9331945, "fusion_lon": 0.0, "fusion_lat": 0.0, "type": "electric_scooter", "name": "1838df11decc9951d4f5cbe5f72ed9a4", "is_disabled": 0, "rental_uris": {"ios": "https://dc.lft.to/lastmile_qr_scan", "android": "https://dc.lft.to/lastmile_qr_scan"}, "is_reserved": 0}, {"lon": -76.98062116666667, "bike_id": "c4ed7043ec572ed02e9b66f3a82cd7b7", "lat": 38.884939333333335, "fusion_lon": 0.0, "fusion_lat": 0.0, "type": "electric_scooter", "name": "c4ed7043ec572ed02e9b66f3a82cd7b7", "is_disabled": 0, "rental_uris": {"ios": "https://dc.lft.to/lastmile_qr_scan", "android": "https://dc.lft.to/lastmile_qr_scan"}, "is_reserved": 0}, {"lon": -76.94604166666667, "bike_id": "aa51a6334b0f98e8ce2b636197698a75", "lat": 38.901661, "fusion_lon": 0.0, "fusion_lat": 0.0, "type": "electric_scooter", "name": "aa51a6334b0f98e8ce2b636197698a75", "is_disabled": 0, "rental_uris": {"ios": "https://dc.lft.to/lastmile_qr_scan", "android": "https://dc.lft.to/lastmile_qr_scan"}, "is_reserved": 0}, {"lon": -77.003228, "bike_id": "b7763aba99eff4d96dbee207f7ef6ac2", "lat": 38.91895916666667, "fusion_lon": 0.0, "fusion_lat": 0.0, "type": "electric_scooter", "name": "b7763aba99eff4d96dbee207f7ef6ac2", "is_disabled": 0, "rental_uris": {"ios": "https://dc.lft.to/lastmile_qr_scan", "android": "https://dc.lft.to/lastmile_qr_scan"}, "is_reserved": 0}, {"lon": -77.0880325, "bike_id": "07bb7983092b7d39e92eba3506139623", "lat": 38.911759833333335, "fusion_lon": 0.0, "fusion_lat": 0.0, "type": "electric_scooter", "name": "07bb7983092b7d39e92eba3506139623", "is_disabled": 0, "rental_uris": {"ios": "https://dc.lft.to/lastmile_qr_scan", "android": "https://dc.lft.to/lastmile_qr_scan"}, "is_reserved": 0}, {"lon": -76.98929783333334, "bike_id": "9212ba5ce83a857a25473b996f08b17c", "lat": 38.864888666666666, "fusion_lon": 0.0, "fusion_lat": 0.0, "type": "electric_scooter", "name": "9212ba5ce83a857a25473b996f08b17c", "is_disabled": 0, "rental_uris": {"ios": "https://dc.lft.to/lastmile_qr_scan", "android": "https://dc.lft.to/lastmile_qr_scan"}, "is_reserved": 0}, {"lon": -77.0849155, "bike_id": "cec5b9fdd7df88994abf46ed4dc413d9", "lat": 38.848470666666664, "fusion_lon": 0.0, "fusion_lat": 0.0, "type": "electric_bike", "name": "cec5b9fdd7df88994abf46ed4dc413d9", "is_disabled": 0, "rental_uris": {"ios": "https://dc.lft.to/lastmile_qr_scan", "android": "https://dc.lft.to/lastmile_qr_scan"}, "is_reserved": 0}, {"lon": -77.03998483333334, "bike_id": "90c3511d3c5575fb4167ed6003ee64dc", "lat": 38.934387, "fusion_lon": 0.0, "fusion_lat": 0.0, "type": "electric_scooter", "name": "90c3511d3c5575fb4167ed6003ee64dc", "is_disabled": 0, "rental_uris": {"ios": "https://dc.lft.to/lastmile_qr_scan", "android": "https://dc.lft.to/lastmile_qr_scan"}, "is_reserved": 0}, {"lon": -76.97398516666667, "bike_id": "a68a84ce6623d0d1db2dba993b108056", "lat": 38.902984000000004, "fusion_lon": 0.0, "fusion_lat": 0.0, "type": "electric_scooter", "name": "a68a84ce6623d0d1db2dba993b108056", "is_disabled": 0, "rental_uris": {"ios": "https://dc.lft.to/lastmile_qr_scan", "android": "https://dc.lft.to/lastmile_qr_scan"}, "is_reserved": 0}, {"lon": -77.02384116666667, "bike_id": "6cbb9e930a92a1c35ce9dfd81ad8665d", "lat": 38.90955483333333, "fusion_lon": 0.0, "fusion_lat": 0.0, "type": "electric_scooter", "name": "6cbb9e930a92a1c35ce9dfd81ad8665d", "is_disabled": 0, "rental_uris": {"ios": "https://dc.lft.to/lastmile_qr_scan", "android": "https://dc.lft.to/lastmile_qr_scan"}, "is_reserved": 0}, {"lon": -77.03047616666667, "bike_id": "865684e2454f0e909fbc7b612f292d1f", "lat": 38.88412066666667, "fusion_lon": 0.0, "fusion_lat": 0.0, "type": "electric_scooter", "name": "865684e2454f0e909fbc7b612f292d1f", "is_disabled": 0, "rental_uris": {"ios": "https://dc.lft.to/lastmile_qr_scan", "android": "https://dc.lft.to/lastmile_qr_scan"}, "is_reserved": 0}, {"lon": -77.03938383333333, "bike_id": "4beddade81c984d24aaaa5d773e893fe", "lat": 38.915647166666666, "fusion_lon": 0.0, "fusion_lat": 0.0, "type": "electric_scooter", "name": "4beddade81c984d24aaaa5d773e893fe", "is_disabled": 0, "rental_uris": {"ios": "https://dc.lft.to/lastmile_qr_scan", "android": "https://dc.lft.to/lastmile_qr_scan"}, "is_reserved": 0}, {"lon": -77.030364, "bike_id": "2076d35cdfc6d6dd7395fc1e81138356", "lat": 38.937158833333335, "fusion_lon": 0.0, "fusion_lat": 0.0, "type": "electric_scooter", "name": "2076d35cdfc6d6dd7395fc1e81138356", "is_disabled": 0, "rental_uris": {"ios": "https://dc.lft.to/lastmile_qr_scan", "android": "https://dc.lft.to/lastmile_qr_scan"}, "is_reserved": 0}, {"lon": -77.07412033333334, "bike_id": "8da8611a5669f758b36142a6b7f616b4", "lat": 38.92887416666667, "fusion_lon": 0.0, "fusion_lat": 0.0, "type": "electric_scooter", "name": "8da8611a5669f758b36142a6b7f616b4", "is_disabled": 0, "rental_uris": {"ios": "https://dc.lft.to/lastmile_qr_scan", "android": "https://dc.lft.to/lastmile_qr_scan"}, "is_reserved": 0}, {"lon": -77.04102216666666, "bike_id": "52a826a9b09cd46b335836ec264466a8", "lat": 38.90522966666666, "fusion_lon": 0.0, "fusion_lat": 0.0, "type": "electric_scooter", "name": "52a826a9b09cd46b335836ec264466a8", "is_disabled": 0, "rental_uris": {"ios": "https://dc.lft.to/lastmile_qr_scan", "android": "https://dc.lft.to/lastmile_qr_scan"}, "is_reserved": 0}, {"lon": -76.94972616666666, "bike_id": "e1885412c2fb3e1bb51fc0f1902424e6", "lat": 38.90504833333333, "fusion_lon": 0.0, "fusion_lat": 0.0, "type": "electric_scooter", "name": "e1885412c2fb3e1bb51fc0f1902424e6", "is_disabled": 0, "rental_uris": {"ios": "https://dc.lft.to/lastmile_qr_scan", "android": "https://dc.lft.to/lastmile_qr_scan"}, "is_reserved": 0}, {"lon": -77.007335, "bike_id": "6370c9b74494e3f386bc7d8d25519ffc", "lat": 38.92540483333333, "fusion_lon": 0.0, "fusion_lat": 0.0, "type": "electric_scooter", "name": "6370c9b74494e3f386bc7d8d25519ffc", "is_disabled": 0, "rental_uris": {"ios": "https://dc.lft.to/lastmile_qr_scan", "android": "https://dc.lft.to/lastmile_qr_scan"}, "is_reserved": 0}, {"lon": -77.04262533333333, "bike_id": "b7760019a94d90bfa2fb8ae561544ad1", "lat": 38.910532833333335, "fusion_lon": 0.0, "fusion_lat": 0.0, "type": "electric_scooter", "name": "b7760019a94d90bfa2fb8ae561544ad1", "is_disabled": 0, "rental_uris": {"ios": "https://dc.lft.to/lastmile_qr_scan", "android": "https://dc.lft.to/lastmile_qr_scan"}, "is_reserved": 0}, {"lon": -77.0330015, "bike_id": "a6c3e4c777e77fff5e5d520193930b5e", "lat": 38.90968733333333, "fusion_lon": 0.0, "fusion_lat": 0.0, "type": "electric_scooter", "name": "a6c3e4c777e77fff5e5d520193930b5e", "is_disabled": 0, "rental_uris": {"ios": "https://dc.lft.to/lastmile_qr_scan", "android": "https://dc.lft.to/lastmile_qr_scan"}, "is_reserved": 0}, {"lon": -77.01430716666667, "bike_id": "a2b185acd7d5a131330740ecec30bd7b", "lat": 38.997954166666666, "fusion_lon": 0.0, "fusion_lat": 0.0, "type": "electric_bike", "name": "a2b185acd7d5a131330740ecec30bd7b", "is_disabled": 0, "rental_uris": {"ios": "https://dc.lft.to/lastmile_qr_scan", "android": "https://dc.lft.to/lastmile_qr_scan"}, "is_reserved": 0}, {"lon": -76.9575735, "bike_id": "b56dfdc9953216ef9b4d5f3c2c325074", "lat": 38.88433833333333, "fusion_lon": 0.0, "fusion_lat": 0.0, "type": "electric_scooter", "name": "b56dfdc9953216ef9b4d5f3c2c325074", "is_disabled": 0, "rental_uris": {"ios": "https://dc.lft.to/lastmile_qr_scan", "android": "https://dc.lft.to/lastmile_qr_scan"}, "is_reserved": 0}, {"lon": -77.02210766666667, "bike_id": "2352700847041cd89428f839fe4134b0", "lat": 38.88713166666667, "fusion_lon": 0.0, "fusion_lat": 0.0, "type": "electric_scooter", "name": "2352700847041cd89428f839fe4134b0", "is_disabled": 0, "rental_uris": {"ios": "https://dc.lft.to/lastmile_qr_scan", "android": "https://dc.lft.to/lastmile_qr_scan"}, "is_reserved": 0}, {"lon": -77.030596, "bike_id": "768bac060c2559ac23d9034df507c8f2", "lat": 38.930991, "fusion_lon": 0.0, "fusion_lat": 0.0, "type": "electric_scooter", "name": "768bac060c2559ac23d9034df507c8f2", "is_disabled": 0, "rental_uris": {"ios": "https://dc.lft.to/lastmile_qr_scan", "android": "https://dc.lft.to/lastmile_qr_scan"}, "is_reserved": 0}, {"lon": -77.0130555, "bike_id": "19251d81035240025f9a4de32d8d6d19", "lat": 38.91144, "fusion_lon": 0.0, "fusion_lat": 0.0, "type": "electric_scooter", "name": "19251d81035240025f9a4de32d8d6d19", "is_disabled": 0, "rental_uris": {"ios": "https://dc.lft.to/lastmile_qr_scan", "android": "https://dc.lft.to/lastmile_qr_scan"}, "is_reserved": 0}, {"lon": -77.01816616666666, "bike_id": "1e53b5940cf58e5e4815cb96dc614297", "lat": 38.919657, "fusion_lon": 0.0, "fusion_lat": 0.0, "type": "electric_scooter", "name": "1e53b5940cf58e5e4815cb96dc614297", "is_disabled": 0, "rental_uris": {"ios": "https://dc.lft.to/lastmile_qr_scan", "android": "https://dc.lft.to/lastmile_qr_scan"}, "is_reserved": 0}, {"lon": -77.0312455, "bike_id": "dbac43d6a5ac67e0dfc71eb81c071de4", "lat": 38.914991666666666, "fusion_lon": 0.0, "fusion_lat": 0.0, "type": "electric_scooter", "name": "dbac43d6a5ac67e0dfc71eb81c071de4", "is_disabled": 0, "rental_uris": {"ios": "https://dc.lft.to/lastmile_qr_scan", "android": "https://dc.lft.to/lastmile_qr_scan"}, "is_reserved": 0}, {"lon": -77.043606, "bike_id": "e20b738c7cd39163959d60b311cc5087", "lat": 38.921633666666665, "fusion_lon": 0.0, "fusion_lat": 0.0, "type": "electric_scooter", "name": "e20b738c7cd39163959d60b311cc5087", "is_disabled": 0, "rental_uris": {"ios": "https://dc.lft.to/lastmile_qr_scan", "android": "https://dc.lft.to/lastmile_qr_scan"}, "is_reserved": 0}, {"lon": -76.96085733333334, "bike_id": "6c5f5540f5a73a378921fc8665b1684c", "lat": 38.918605166666666, "fusion_lon": 0.0, "fusion_lat": 0.0, "type": "electric_bike", "name": "6c5f5540f5a73a378921fc8665b1684c", "is_disabled": 0, "rental_uris": {"ios": "https://dc.lft.to/lastmile_qr_scan", "android": "https://dc.lft.to/lastmile_qr_scan"}, "is_reserved": 0}, {"lon": -77.04338366666667, "bike_id": "122017e908836518e10ccab405522e1a", "lat": 38.92815316666667, "fusion_lon": 0.0, "fusion_lat": 0.0, "type": "electric_scooter", "name": "122017e908836518e10ccab405522e1a", "is_disabled": 0, "rental_uris": {"ios": "https://dc.lft.to/lastmile_qr_scan", "android": "https://dc.lft.to/lastmile_qr_scan"}, "is_reserved": 0}, {"lon": -76.94961716666667, "bike_id": "8d792bd1c268e906063d3ee7b80a5de1", "lat": 38.894405666666664, "fusion_lon": 0.0, "fusion_lat": 0.0, "type": "electric_scooter", "name": "8d792bd1c268e906063d3ee7b80a5de1", "is_disabled": 0, "rental_uris": {"ios": "https://dc.lft.to/lastmile_qr_scan", "android": "https://dc.lft.to/lastmile_qr_scan"}, "is_reserved": 0}, {"lon": -77.02395833333334, "bike_id": "e21f3a25503fad9ce19159377017a605", "lat": 38.90602283333333, "fusion_lon": 0.0, "fusion_lat": 0.0, "type": "electric_scooter", "name": "e21f3a25503fad9ce19159377017a605", "is_disabled": 0, "rental_uris": {"ios": "https://dc.lft.to/lastmile_qr_scan", "android": "https://dc.lft.to/lastmile_qr_scan"}, "is_reserved": 0}, {"lon": -77.03275533333333, "bike_id": "fb479e76b75dfbac685423c1d179b5a8", "lat": 38.905679166666665, "fusion_lon": 0.0, "fusion_lat": 0.0, "type": "electric_scooter", "name": "fb479e76b75dfbac685423c1d179b5a8", "is_disabled": 0, "rental_uris": {"ios": "https://dc.lft.to/lastmile_qr_scan", "android": "https://dc.lft.to/lastmile_qr_scan"}, "is_reserved": 0}, {"lon": -76.95194516666666, "bike_id": "e5b3242fc3c93f0815b5ed9ba4be0517", "lat": 38.90003733333333, "fusion_lon": 0.0, "fusion_lat": 0.0, "type": "electric_scooter", "name": "e5b3242fc3c93f0815b5ed9ba4be0517", "is_disabled": 0, "rental_uris": {"ios": "https://dc.lft.to/lastmile_qr_scan", "android": "https://dc.lft.to/lastmile_qr_scan"}, "is_reserved": 0}, {"lon": -77.02199983333334, "bike_id": "f931264940b07bfa6c71d7ebd4e35fb8", "lat": 38.9113945, "fusion_lon": 0.0, "fusion_lat": 0.0, "type": "electric_scooter", "name": "f931264940b07bfa6c71d7ebd4e35fb8", "is_disabled": 0, "rental_uris": {"ios": "https://dc.lft.to/lastmile_qr_scan", "android": "https://dc.lft.to/lastmile_qr_scan"}, "is_reserved": 0}, {"lon": -77.03476766666667, "bike_id": "2f4b419284d790481894c556cfecae3a", "lat": 38.928676333333335, "fusion_lon": 0.0, "fusion_lat": 0.0, "type": "electric_scooter", "name": "2f4b419284d790481894c556cfecae3a", "is_disabled": 0, "rental_uris": {"ios": "https://dc.lft.to/lastmile_qr_scan", "android": "https://dc.lft.to/lastmile_qr_scan"}, "is_reserved": 0}, {"lon": -77.03856866666666, "bike_id": "cc74ec121d55c1d93d60cdd4579b431e", "lat": 38.93128866666667, "fusion_lon": 0.0, "fusion_lat": 0.0, "type": "electric_scooter", "name": "cc74ec121d55c1d93d60cdd4579b431e", "is_disabled": 0, "rental_uris": {"ios": "https://dc.lft.to/lastmile_qr_scan", "android": "https://dc.lft.to/lastmile_qr_scan"}, "is_reserved": 0}, {"lon": -77.04450116666666, "bike_id": "d47cdd2d9d598d56616b4f41dcd29ff8", "lat": 38.91934066666666, "fusion_lon": 0.0, "fusion_lat": 0.0, "type": "electric_scooter", "name": "d47cdd2d9d598d56616b4f41dcd29ff8", "is_disabled": 0, "rental_uris": {"ios": "https://dc.lft.to/lastmile_qr_scan", "android": "https://dc.lft.to/lastmile_qr_scan"}, "is_reserved": 0}, {"lon": -76.98815383333333, "bike_id": "0faf8dac8a0c4a43af99714b7cebfe73", "lat": 38.858265833333334, "fusion_lon": 0.0, "fusion_lat": 0.0, "type": "electric_scooter", "name": "0faf8dac8a0c4a43af99714b7cebfe73", "is_disabled": 0, "rental_uris": {"ios": "https://dc.lft.to/lastmile_qr_scan", "android": "https://dc.lft.to/lastmile_qr_scan"}, "is_reserved": 0}, {"lon": -77.01209783333333, "bike_id": "9e70c84b026790a148a1a61d9aa21eae", "lat": 38.9124625, "fusion_lon": 0.0, "fusion_lat": 0.0, "type": "electric_scooter", "name": "9e70c84b026790a148a1a61d9aa21eae", "is_disabled": 0, "rental_uris": {"ios": "https://dc.lft.to/lastmile_qr_scan", "android": "https://dc.lft.to/lastmile_qr_scan"}, "is_reserved": 0}, {"lon": -76.93178483333334, "bike_id": "dfde569eaac188c235a5ec8928e97bde", "lat": 38.8988155, "fusion_lon": 0.0, "fusion_lat": 0.0, "type": "electric_scooter", "name": "dfde569eaac188c235a5ec8928e97bde", "is_disabled": 0, "rental_uris": {"ios": "https://dc.lft.to/lastmile_qr_scan", "android": "https://dc.lft.to/lastmile_qr_scan"}, "is_reserved": 0}, {"lon": -77.02189616666666, "bike_id": "0e57894405aa60ca165ec0db1f90cc98", "lat": 38.9148015, "fusion_lon": 0.0, "fusion_lat": 0.0, "type": "electric_scooter", "name": "0e57894405aa60ca165ec0db1f90cc98", "is_disabled": 0, "rental_uris": {"ios": "https://dc.lft.to/lastmile_qr_scan", "android": "https://dc.lft.to/lastmile_qr_scan"}, "is_reserved": 0}, {"lon": -77.0337965, "bike_id": "019045bde28a53bda49bf69d5d024cb9", "lat": 38.90959633333333, "fusion_lon": 0.0, "fusion_lat": 0.0, "type": "electric_scooter", "name": "019045bde28a53bda49bf69d5d024cb9", "is_disabled": 0, "rental_uris": {"ios": "https://dc.lft.to/lastmile_qr_scan", "android": "https://dc.lft.to/lastmile_qr_scan"}, "is_reserved": 0}, {"lon": -76.99607283333333, "bike_id": "95ba48a7e834c860507b239cb14a2362", "lat": 38.8831465, "fusion_lon": 0.0, "fusion_lat": 0.0, "type": "electric_scooter", "name": "95ba48a7e834c860507b239cb14a2362", "is_disabled": 0, "rental_uris": {"ios": "https://dc.lft.to/lastmile_qr_scan", "android": "https://dc.lft.to/lastmile_qr_scan"}, "is_reserved": 0}, {"lon": -76.93364716666666, "bike_id": "05a5f130555b1401a60630008b94e4fb", "lat": 38.89915283333333, "fusion_lon": 0.0, "fusion_lat": 0.0, "type": "electric_scooter", "name": "05a5f130555b1401a60630008b94e4fb", "is_disabled": 0, "rental_uris": {"ios": "https://dc.lft.to/lastmile_qr_scan", "android": "https://dc.lft.to/lastmile_qr_scan"}, "is_reserved": 0}, {"lon": -76.995677, "bike_id": "d37bd7db8e1903caaa4e6e4f5ea62d86", "lat": 38.851814166666664, "fusion_lon": 0.0, "fusion_lat": 0.0, "type": "electric_bike", "name": "d37bd7db8e1903caaa4e6e4f5ea62d86", "is_disabled": 0, "rental_uris": {"ios": "https://dc.lft.to/lastmile_qr_scan", "android": "https://dc.lft.to/lastmile_qr_scan"}, "is_reserved": 0}, {"lon": -77.02385033333333, "bike_id": "03799953fb90f63cfa32bac0f2f33ef0", "lat": 38.907083666666665, "fusion_lon": 0.0, "fusion_lat": 0.0, "type": "electric_scooter", "name": "03799953fb90f63cfa32bac0f2f33ef0", "is_disabled": 0, "rental_uris": {"ios": "https://dc.lft.to/lastmile_qr_scan", "android": "https://dc.lft.to/lastmile_qr_scan"}, "is_reserved": 0}, {"lon": -77.02974016666667, "bike_id": "8aca578b8f016480b5e70f1880b00cc2", "lat": 38.912425166666665, "fusion_lon": 0.0, "fusion_lat": 0.0, "type": "electric_scooter", "name": "8aca578b8f016480b5e70f1880b00cc2", "is_disabled": 0, "rental_uris": {"ios": "https://dc.lft.to/lastmile_qr_scan", "android": "https://dc.lft.to/lastmile_qr_scan"}, "is_reserved": 0}, {"lon": -76.99875583333333, "bike_id": "66b8bebd6f69467b521024c00028fb14", "lat": 38.907497, "fusion_lon": 0.0, "fusion_lat": 0.0, "type": "electric_scooter", "name": "66b8bebd6f69467b521024c00028fb14", "is_disabled": 0, "rental_uris": {"ios": "https://dc.lft.to/lastmile_qr_scan", "android": "https://dc.lft.to/lastmile_qr_scan"}, "is_reserved": 0}, {"lon": -77.04180533333333, "bike_id": "8ecd0d85b82641724a85080ae217d551", "lat": 38.918694333333335, "fusion_lon": 0.0, "fusion_lat": 0.0, "type": "electric_scooter", "name": "8ecd0d85b82641724a85080ae217d551", "is_disabled": 0, "rental_uris": {"ios": "https://dc.lft.to/lastmile_qr_scan", "android": "https://dc.lft.to/lastmile_qr_scan"}, "is_reserved": 0}, {"lon": -77.03122633333334, "bike_id": "38fcec276701515981b6c9dfc0e40c5e", "lat": 38.94499533333333, "fusion_lon": 0.0, "fusion_lat": 0.0, "type": "electric_scooter", "name": "38fcec276701515981b6c9dfc0e40c5e", "is_disabled": 0, "rental_uris": {"ios": "https://dc.lft.to/lastmile_qr_scan", "android": "https://dc.lft.to/lastmile_qr_scan"}, "is_reserved": 0}, {"lon": -77.03472083333334, "bike_id": "982869b3134afe55b5161ed4422133d0", "lat": 38.90554483333333, "fusion_lon": 0.0, "fusion_lat": 0.0, "type": "electric_scooter", "name": "982869b3134afe55b5161ed4422133d0", "is_disabled": 0, "rental_uris": {"ios": "https://dc.lft.to/lastmile_qr_scan", "android": "https://dc.lft.to/lastmile_qr_scan"}, "is_reserved": 0}, {"lon": -77.031541, "bike_id": "49856f975ebd1ed77117f9bc1a9ad5a3", "lat": 38.9209835, "fusion_lon": 0.0, "fusion_lat": 0.0, "type": "electric_bike", "name": "49856f975ebd1ed77117f9bc1a9ad5a3", "is_disabled": 0, "rental_uris": {"ios": "https://dc.lft.to/lastmile_qr_scan", "android": "https://dc.lft.to/lastmile_qr_scan"}, "is_reserved": 0}, {"lon": -76.997666, "bike_id": "d6bc3a29060a7b8767e3e0a9a96b76ed", "lat": 38.90128683333333, "fusion_lon": 0.0, "fusion_lat": 0.0, "type": "electric_scooter", "name": "d6bc3a29060a7b8767e3e0a9a96b76ed", "is_disabled": 0, "rental_uris": {"ios": "https://dc.lft.to/lastmile_qr_scan", "android": "https://dc.lft.to/lastmile_qr_scan"}, "is_reserved": 0}, {"lon": -77.00593116666667, "bike_id": "466cc60ca0a588e0b3b9f5df63b8d284", "lat": 38.87802933333333, "fusion_lon": 0.0, "fusion_lat": 0.0, "type": "electric_scooter", "name": "466cc60ca0a588e0b3b9f5df63b8d284", "is_disabled": 0, "rental_uris": {"ios": "https://dc.lft.to/lastmile_qr_scan", "android": "https://dc.lft.to/lastmile_qr_scan"}, "is_reserved": 0}, {"lon": -76.98782966666667, "bike_id": "a9c11269ce68e94e2878b6497d0d9165", "lat": 38.86613533333333, "fusion_lon": 0.0, "fusion_lat": 0.0, "type": "electric_bike", "name": "a9c11269ce68e94e2878b6497d0d9165", "is_disabled": 0, "rental_uris": {"ios": "https://dc.lft.to/lastmile_qr_scan", "android": "https://dc.lft.to/lastmile_qr_scan"}, "is_reserved": 0}, {"lon": -77.18563366666666, "bike_id": "e116564af09a4cf0266068df646ffffc", "lat": 39.09975266666667, "fusion_lon": 0.0, "fusion_lat": 0.0, "type": "electric_bike", "name": "e116564af09a4cf0266068df646ffffc", "is_disabled": 0, "rental_uris": {"ios": "https://dc.lft.to/lastmile_qr_scan", "android": "https://dc.lft.to/lastmile_qr_scan"}, "is_reserved": 0}, {"lon": -76.97746383333333, "bike_id": "4b56343ec6e8f7a39705a74b5ab5b2e1", "lat": 38.86485366666667, "fusion_lon": 0.0, "fusion_lat": 0.0, "type": "electric_bike", "name": "4b56343ec6e8f7a39705a74b5ab5b2e1", "is_disabled": 0, "rental_uris": {"ios": "https://dc.lft.to/lastmile_qr_scan", "android": "https://dc.lft.to/lastmile_qr_scan"}, "is_reserved": 0}, {"lon": -77.00083883333333, "bike_id": "78284d8c31aecdd43dc5c3a9cd4a1c4f", "lat": 38.87596583333333, "fusion_lon": 0.0, "fusion_lat": 0.0, "type": "electric_scooter", "name": "78284d8c31aecdd43dc5c3a9cd4a1c4f", "is_disabled": 0, "rental_uris": {"ios": "https://dc.lft.to/lastmile_qr_scan", "android": "https://dc.lft.to/lastmile_qr_scan"}, "is_reserved": 0}, {"lon": -77.03179583333333, "bike_id": "48145a034f96711350ceb523fe5978ca", "lat": 38.935970166666664, "fusion_lon": 0.0, "fusion_lat": 0.0, "type": "electric_scooter", "name": "48145a034f96711350ceb523fe5978ca", "is_disabled": 0, "rental_uris": {"ios": "https://dc.lft.to/lastmile_qr_scan", "android": "https://dc.lft.to/lastmile_qr_scan"}, "is_reserved": 0}, {"lon": -77.04044066666667, "bike_id": "2be789a76441cfafb3cae13d77c00f12", "lat": 38.91859066666667, "fusion_lon": 0.0, "fusion_lat": 0.0, "type": "electric_scooter", "name": "2be789a76441cfafb3cae13d77c00f12", "is_disabled": 0, "rental_uris": {"ios": "https://dc.lft.to/lastmile_qr_scan", "android": "https://dc.lft.to/lastmile_qr_scan"}, "is_reserved": 0}, {"lon": -77.0031315, "bike_id": "7e660c168f72a375ead9cc38468c34bb", "lat": 38.918952833333336, "fusion_lon": 0.0, "fusion_lat": 0.0, "type": "electric_scooter", "name": "7e660c168f72a375ead9cc38468c34bb", "is_disabled": 0, "rental_uris": {"ios": "https://dc.lft.to/lastmile_qr_scan", "android": "https://dc.lft.to/lastmile_qr_scan"}, "is_reserved": 0}, {"lon": -77.02961783333333, "bike_id": "95081a31c82f026ccae4052b2e2b10f0", "lat": 38.9169815, "fusion_lon": 0.0, "fusion_lat": 0.0, "type": "electric_scooter", "name": "95081a31c82f026ccae4052b2e2b10f0", "is_disabled": 0, "rental_uris": {"ios": "https://dc.lft.to/lastmile_qr_scan", "android": "https://dc.lft.to/lastmile_qr_scan"}, "is_reserved": 0}, {"lon": -77.02840533333334, "bike_id": "ef4a85e4760ff318ccbdd6953ecbd26b", "lat": 38.932357, "fusion_lon": 0.0, "fusion_lat": 0.0, "type": "electric_scooter", "name": "ef4a85e4760ff318ccbdd6953ecbd26b", "is_disabled": 0, "rental_uris": {"ios": "https://dc.lft.to/lastmile_qr_scan", "android": "https://dc.lft.to/lastmile_qr_scan"}, "is_reserved": 0}, {"lon": -76.992361, "bike_id": "343006aa21f56c2c913b06a44acd08dd", "lat": 38.90474233333333, "fusion_lon": 0.0, "fusion_lat": 0.0, "type": "electric_scooter", "name": "343006aa21f56c2c913b06a44acd08dd", "is_disabled": 0, "rental_uris": {"ios": "https://dc.lft.to/lastmile_qr_scan", "android": "https://dc.lft.to/lastmile_qr_scan"}, "is_reserved": 0}, {"lon": -77.03385983333334, "bike_id": "b85b603e415b0ff7e7458c150ea4d4ef", "lat": 38.89849983333333, "fusion_lon": 0.0, "fusion_lat": 0.0, "type": "electric_scooter", "name": "b85b603e415b0ff7e7458c150ea4d4ef", "is_disabled": 0, "rental_uris": {"ios": "https://dc.lft.to/lastmile_qr_scan", "android": "https://dc.lft.to/lastmile_qr_scan"}, "is_reserved": 0}, {"lon": -77.02613033333333, "bike_id": "15f169118a719fee9f086f0958f7fe5f", "lat": 38.883489, "fusion_lon": 0.0, "fusion_lat": 0.0, "type": "electric_scooter", "name": "15f169118a719fee9f086f0958f7fe5f", "is_disabled": 0, "rental_uris": {"ios": "https://dc.lft.to/lastmile_qr_scan", "android": "https://dc.lft.to/lastmile_qr_scan"}, "is_reserved": 0}, {"lon": -77.12530133333334, "bike_id": "21bb11d9ff3d1a11f2ecb9f1dc2a4b74", "lat": 39.0563395, "fusion_lon": 0.0, "fusion_lat": 0.0, "type": "electric_bike", "name": "21bb11d9ff3d1a11f2ecb9f1dc2a4b74", "is_disabled": 0, "rental_uris": {"ios": "https://dc.lft.to/lastmile_qr_scan", "android": "https://dc.lft.to/lastmile_qr_scan"}, "is_reserved": 0}, {"lon": -77.03629516666666, "bike_id": "3fc464ee4405ef704072885eee9d3d80", "lat": 38.931561333333335, "fusion_lon": 0.0, "fusion_lat": 0.0, "type": "electric_scooter", "name": "3fc464ee4405ef704072885eee9d3d80", "is_disabled": 0, "rental_uris": {"ios": "https://dc.lft.to/lastmile_qr_scan", "android": "https://dc.lft.to/lastmile_qr_scan"}, "is_reserved": 0}, {"lon": -77.02275066666667, "bike_id": "69fc183a2009bd4edc51eb661fd43726", "lat": 38.878355166666665, "fusion_lon": 0.0, "fusion_lat": 0.0, "type": "electric_scooter", "name": "69fc183a2009bd4edc51eb661fd43726", "is_disabled": 0, "rental_uris": {"ios": "https://dc.lft.to/lastmile_qr_scan", "android": "https://dc.lft.to/lastmile_qr_scan"}, "is_reserved": 0}, {"lon": -76.97628883333333, "bike_id": "796cbb9cbfd7821e39c8dc49c998e119", "lat": 38.90574683333333, "fusion_lon": 0.0, "fusion_lat": 0.0, "type": "electric_scooter", "name": "796cbb9cbfd7821e39c8dc49c998e119", "is_disabled": 0, "rental_uris": {"ios": "https://dc.lft.to/lastmile_qr_scan", "android": "https://dc.lft.to/lastmile_qr_scan"}, "is_reserved": 0}, {"lon": -77.02388466666666, "bike_id": "67354d18306b8e95f37ebc88e8dccae3", "lat": 38.915255333333334, "fusion_lon": 0.0, "fusion_lat": 0.0, "type": "electric_scooter", "name": "67354d18306b8e95f37ebc88e8dccae3", "is_disabled": 0, "rental_uris": {"ios": "https://dc.lft.to/lastmile_qr_scan", "android": "https://dc.lft.to/lastmile_qr_scan"}, "is_reserved": 0}, {"lon": -77.074531, "bike_id": "51b0909f33fa99c96f15616310031478", "lat": 38.9450935, "fusion_lon": 0.0, "fusion_lat": 0.0, "type": "electric_scooter", "name": "51b0909f33fa99c96f15616310031478", "is_disabled": 0, "rental_uris": {"ios": "https://dc.lft.to/lastmile_qr_scan", "android": "https://dc.lft.to/lastmile_qr_scan"}, "is_reserved": 0}, {"lon": -77.03545266666667, "bike_id": "df74f733776798fcb54e7f83b555861f", "lat": 38.90345083333333, "fusion_lon": 0.0, "fusion_lat": 0.0, "type": "electric_scooter", "name": "df74f733776798fcb54e7f83b555861f", "is_disabled": 0, "rental_uris": {"ios": "https://dc.lft.to/lastmile_qr_scan", "android": "https://dc.lft.to/lastmile_qr_scan"}, "is_reserved": 0}, {"lon": -77.024359, "bike_id": "51343a2fcc3ab2c84e42f4c2458b9cd6", "lat": 38.920534333333336, "fusion_lon": 0.0, "fusion_lat": 0.0, "type": "electric_scooter", "name": "51343a2fcc3ab2c84e42f4c2458b9cd6", "is_disabled": 0, "rental_uris": {"ios": "https://dc.lft.to/lastmile_qr_scan", "android": "https://dc.lft.to/lastmile_qr_scan"}, "is_reserved": 0}, {"lon": -76.94724066666667, "bike_id": "e1106c348496d019276d0e559e81ba2d", "lat": 38.897388666666664, "fusion_lon": 0.0, "fusion_lat": 0.0, "type": "electric_scooter", "name": "e1106c348496d019276d0e559e81ba2d", "is_disabled": 0, "rental_uris": {"ios": "https://dc.lft.to/lastmile_qr_scan", "android": "https://dc.lft.to/lastmile_qr_scan"}, "is_reserved": 0}, {"lon": -76.90600016666667, "bike_id": "43e8160cb809d768842b19bd68477c42", "lat": 39.00459216666667, "fusion_lon": 0.0, "fusion_lat": 0.0, "type": "electric_bike", "name": "43e8160cb809d768842b19bd68477c42", "is_disabled": 0, "rental_uris": {"ios": "https://dc.lft.to/lastmile_qr_scan", "android": "https://dc.lft.to/lastmile_qr_scan"}, "is_reserved": 0}, {"lon": -77.01625533333333, "bike_id": "b6110b6c57bd28cc5a5136362143b813", "lat": 38.96578216666666, "fusion_lon": 0.0, "fusion_lat": 0.0, "type": "electric_scooter", "name": "b6110b6c57bd28cc5a5136362143b813", "is_disabled": 0, "rental_uris": {"ios": "https://dc.lft.to/lastmile_qr_scan", "android": "https://dc.lft.to/lastmile_qr_scan"}, "is_reserved": 0}, {"lon": -77.02678016666667, "bike_id": "5a2396eed29d3b2503f02311ba08a6c3", "lat": 38.91253116666667, "fusion_lon": 0.0, "fusion_lat": 0.0, "type": "electric_scooter", "name": "5a2396eed29d3b2503f02311ba08a6c3", "is_disabled": 0, "rental_uris": {"ios": "https://dc.lft.to/lastmile_qr_scan", "android": "https://dc.lft.to/lastmile_qr_scan"}, "is_reserved": 0}, {"lon": -77.02483966666667, "bike_id": "a6a834b26f7e09bdba5d1913c81ebb8e", "lat": 38.91706666666666, "fusion_lon": 0.0, "fusion_lat": 0.0, "type": "electric_scooter", "name": "a6a834b26f7e09bdba5d1913c81ebb8e", "is_disabled": 0, "rental_uris": {"ios": "https://dc.lft.to/lastmile_qr_scan", "android": "https://dc.lft.to/lastmile_qr_scan"}, "is_reserved": 0}, {"lon": -77.01212416666667, "bike_id": "f0a09bafb9285d18e6b19ca28b86aa16", "lat": 38.885577, "fusion_lon": 0.0, "fusion_lat": 0.0, "type": "electric_scooter", "name": "f0a09bafb9285d18e6b19ca28b86aa16", "is_disabled": 0, "rental_uris": {"ios": "https://dc.lft.to/lastmile_qr_scan", "android": "https://dc.lft.to/lastmile_qr_scan"}, "is_reserved": 0}, {"lon": -76.97704, "bike_id": "52a98192b923a468f4f282a60a3113de", "lat": 38.94916333333333, "fusion_lon": 0.0, "fusion_lat": 0.0, "type": "electric_bike", "name": "52a98192b923a468f4f282a60a3113de", "is_disabled": 0, "rental_uris": {"ios": "https://dc.lft.to/lastmile_qr_scan", "android": "https://dc.lft.to/lastmile_qr_scan"}, "is_reserved": 0}, {"lon": -77.03204516666666, "bike_id": "e00fd22a894f91c58aaecd3f3392c56f", "lat": 38.916836833333335, "fusion_lon": 0.0, "fusion_lat": 0.0, "type": "electric_scooter", "name": "e00fd22a894f91c58aaecd3f3392c56f", "is_disabled": 0, "rental_uris": {"ios": "https://dc.lft.to/lastmile_qr_scan", "android": "https://dc.lft.to/lastmile_qr_scan"}, "is_reserved": 0}, {"lon": -77.03858333333334, "bike_id": "7844b2b371b8e253e31a7e91f6ce3dd3", "lat": 38.91554416666666, "fusion_lon": 0.0, "fusion_lat": 0.0, "type": "electric_scooter", "name": "7844b2b371b8e253e31a7e91f6ce3dd3", "is_disabled": 0, "rental_uris": {"ios": "https://dc.lft.to/lastmile_qr_scan", "android": "https://dc.lft.to/lastmile_qr_scan"}, "is_reserved": 0}, {"lon": -77.03262566666666, "bike_id": "9b3850289fbd7368f4489a522ee49c25", "lat": 38.914059333333334, "fusion_lon": 0.0, "fusion_lat": 0.0, "type": "electric_scooter", "name": "9b3850289fbd7368f4489a522ee49c25", "is_disabled": 0, "rental_uris": {"ios": "https://dc.lft.to/lastmile_qr_scan", "android": "https://dc.lft.to/lastmile_qr_scan"}, "is_reserved": 0}, {"lon": -77.00768466666666, "bike_id": "759ed3f74b9506bc2dcf51c357a3441d", "lat": 38.87114866666667, "fusion_lon": 0.0, "fusion_lat": 0.0, "type": "electric_scooter", "name": "759ed3f74b9506bc2dcf51c357a3441d", "is_disabled": 0, "rental_uris": {"ios": "https://dc.lft.to/lastmile_qr_scan", "android": "https://dc.lft.to/lastmile_qr_scan"}, "is_reserved": 0}, {"lon": -77.36090116666666, "bike_id": "041faa285d0f5d92702936bce3d9aa1e", "lat": 38.93959783333333, "fusion_lon": 0.0, "fusion_lat": 0.0, "type": "electric_bike", "name": "041faa285d0f5d92702936bce3d9aa1e", "is_disabled": 0, "rental_uris": {"ios": "https://dc.lft.to/lastmile_qr_scan", "android": "https://dc.lft.to/lastmile_qr_scan"}, "is_reserved": 0}, {"lon": -77.06497516666667, "bike_id": "19628a808e3609b70c3e964d0fc3f3d4", "lat": 38.929092, "fusion_lon": 0.0, "fusion_lat": 0.0, "type": "electric_scooter", "name": "19628a808e3609b70c3e964d0fc3f3d4", "is_disabled": 0, "rental_uris": {"ios": "https://dc.lft.to/lastmile_qr_scan", "android": "https://dc.lft.to/lastmile_qr_scan"}, "is_reserved": 0}, {"lon": -77.02670633333334, "bike_id": "e0c691f2a1bcb05746a05608eeccf27c", "lat": 38.984329333333335, "fusion_lon": 0.0, "fusion_lat": 0.0, "type": "electric_scooter", "name": "e0c691f2a1bcb05746a05608eeccf27c", "is_disabled": 0, "rental_uris": {"ios": "https://dc.lft.to/lastmile_qr_scan", "android": "https://dc.lft.to/lastmile_qr_scan"}, "is_reserved": 0}, {"lon": -76.980384, "bike_id": "f6dff1a00009935923514f86b89a7269", "lat": 38.88967433333333, "fusion_lon": 0.0, "fusion_lat": 0.0, "type": "electric_scooter", "name": "f6dff1a00009935923514f86b89a7269", "is_disabled": 0, "rental_uris": {"ios": "https://dc.lft.to/lastmile_qr_scan", "android": "https://dc.lft.to/lastmile_qr_scan"}, "is_reserved": 0}, {"lon": -77.036132, "bike_id": "512a33494f32a9db53500b39869036be", "lat": 38.928499, "fusion_lon": 0.0, "fusion_lat": 0.0, "type": "electric_scooter", "name": "512a33494f32a9db53500b39869036be", "is_disabled": 0, "rental_uris": {"ios": "https://dc.lft.to/lastmile_qr_scan", "android": "https://dc.lft.to/lastmile_qr_scan"}, "is_reserved": 0}, {"lon": -77.031656, "bike_id": "51bb906b105415f1e04c919aea258fa8", "lat": 38.915499, "fusion_lon": 0.0, "fusion_lat": 0.0, "type": "electric_scooter", "name": "51bb906b105415f1e04c919aea258fa8", "is_disabled": 0, "rental_uris": {"ios": "https://dc.lft.to/lastmile_qr_scan", "android": "https://dc.lft.to/lastmile_qr_scan"}, "is_reserved": 0}, {"lon": -77.00889216666667, "bike_id": "2a38a3b982762e383317ffcf4fe75a82", "lat": 38.9171225, "fusion_lon": 0.0, "fusion_lat": 0.0, "type": "electric_scooter", "name": "2a38a3b982762e383317ffcf4fe75a82", "is_disabled": 0, "rental_uris": {"ios": "https://dc.lft.to/lastmile_qr_scan", "android": "https://dc.lft.to/lastmile_qr_scan"}, "is_reserved": 0}, {"lon": -77.02615383333334, "bike_id": "c0beab76ad6279b37c9d3a2c43f80be0", "lat": 38.91692666666667, "fusion_lon": 0.0, "fusion_lat": 0.0, "type": "electric_scooter", "name": "c0beab76ad6279b37c9d3a2c43f80be0", "is_disabled": 0, "rental_uris": {"ios": "https://dc.lft.to/lastmile_qr_scan", "android": "https://dc.lft.to/lastmile_qr_scan"}, "is_reserved": 0}, {"lon": -77.02709283333333, "bike_id": "dc18d8db544fb47849b26bdb6150e5ee", "lat": 38.896808, "fusion_lon": 0.0, "fusion_lat": 0.0, "type": "electric_scooter", "name": "dc18d8db544fb47849b26bdb6150e5ee", "is_disabled": 0, "rental_uris": {"ios": "https://dc.lft.to/lastmile_qr_scan", "android": "https://dc.lft.to/lastmile_qr_scan"}, "is_reserved": 0}, {"lon": -77.01114233333334, "bike_id": "b24c959790858dcfcb749b44c076882d", "lat": 38.900080333333335, "fusion_lon": 0.0, "fusion_lat": 0.0, "type": "electric_scooter", "name": "b24c959790858dcfcb749b44c076882d", "is_disabled": 0, "rental_uris": {"ios": "https://dc.lft.to/lastmile_qr_scan", "android": "https://dc.lft.to/lastmile_qr_scan"}, "is_reserved": 0}, {"lon": -77.048049, "bike_id": "36cfc3542bc276fedcd8cebf29911a95", "lat": 38.916335333333336, "fusion_lon": 0.0, "fusion_lat": 0.0, "type": "electric_scooter", "name": "36cfc3542bc276fedcd8cebf29911a95", "is_disabled": 0, "rental_uris": {"ios": "https://dc.lft.to/lastmile_qr_scan", "android": "https://dc.lft.to/lastmile_qr_scan"}, "is_reserved": 0}, {"lon": -77.02228966666667, "bike_id": "e32eb8fe913492d2b17fbbd6de381f5d", "lat": 38.9141385, "fusion_lon": 0.0, "fusion_lat": 0.0, "type": "electric_scooter", "name": "e32eb8fe913492d2b17fbbd6de381f5d", "is_disabled": 0, "rental_uris": {"ios": "https://dc.lft.to/lastmile_qr_scan", "android": "https://dc.lft.to/lastmile_qr_scan"}, "is_reserved": 0}, {"lon": -77.030619, "bike_id": "9b1ae73c9eb2897fb59c80b83588f039", "lat": 38.9081005, "fusion_lon": 0.0, "fusion_lat": 0.0, "type": "electric_scooter", "name": "9b1ae73c9eb2897fb59c80b83588f039", "is_disabled": 0, "rental_uris": {"ios": "https://dc.lft.to/lastmile_qr_scan", "android": "https://dc.lft.to/lastmile_qr_scan"}, "is_reserved": 0}, {"lon": -77.03405116666667, "bike_id": "93f9a6452a321a1a3c9f933f20de104c", "lat": 38.93123383333333, "fusion_lon": 0.0, "fusion_lat": 0.0, "type": "electric_scooter", "name": "93f9a6452a321a1a3c9f933f20de104c", "is_disabled": 0, "rental_uris": {"ios": "https://dc.lft.to/lastmile_qr_scan", "android": "https://dc.lft.to/lastmile_qr_scan"}, "is_reserved": 0}, {"lon": -77.02333633333333, "bike_id": "7d4ee8cbc168f246e5ba66bb25a5a414", "lat": 38.903621333333334, "fusion_lon": 0.0, "fusion_lat": 0.0, "type": "electric_scooter", "name": "7d4ee8cbc168f246e5ba66bb25a5a414", "is_disabled": 0, "rental_uris": {"ios": "https://dc.lft.to/lastmile_qr_scan", "android": "https://dc.lft.to/lastmile_qr_scan"}, "is_reserved": 0}, {"lon": -76.9917105, "bike_id": "4649211c3c814ed7dc71dfbc7d384c14", "lat": 38.9001475, "fusion_lon": 0.0, "fusion_lat": 0.0, "type": "electric_scooter", "name": "4649211c3c814ed7dc71dfbc7d384c14", "is_disabled": 0, "rental_uris": {"ios": "https://dc.lft.to/lastmile_qr_scan", "android": "https://dc.lft.to/lastmile_qr_scan"}, "is_reserved": 0}, {"lon": -76.953726, "bike_id": "7d65ca4728a7f44f21f31162833d0a98", "lat": 38.89202816666667, "fusion_lon": 0.0, "fusion_lat": 0.0, "type": "electric_scooter", "name": "7d65ca4728a7f44f21f31162833d0a98", "is_disabled": 0, "rental_uris": {"ios": "https://dc.lft.to/lastmile_qr_scan", "android": "https://dc.lft.to/lastmile_qr_scan"}, "is_reserved": 0}, {"lon": -76.998541, "bike_id": "33525b2019af14bb7e08c30188a33a14", "lat": 38.90030183333333, "fusion_lon": 0.0, "fusion_lat": 0.0, "type": "electric_scooter", "name": "33525b2019af14bb7e08c30188a33a14", "is_disabled": 0, "rental_uris": {"ios": "https://dc.lft.to/lastmile_qr_scan", "android": "https://dc.lft.to/lastmile_qr_scan"}, "is_reserved": 0}, {"lon": -76.9614915, "bike_id": "fe3a5927f9f0453cec212d614a76d308", "lat": 38.883569666666666, "fusion_lon": 0.0, "fusion_lat": 0.0, "type": "electric_scooter", "name": "fe3a5927f9f0453cec212d614a76d308", "is_disabled": 0, "rental_uris": {"ios": "https://dc.lft.to/lastmile_qr_scan", "android": "https://dc.lft.to/lastmile_qr_scan"}, "is_reserved": 0}, {"lon": -76.980987, "bike_id": "514a3187db756a2fc7904aa0725058ca", "lat": 38.895511, "fusion_lon": 0.0, "fusion_lat": 0.0, "type": "electric_scooter", "name": "514a3187db756a2fc7904aa0725058ca", "is_disabled": 0, "rental_uris": {"ios": "https://dc.lft.to/lastmile_qr_scan", "android": "https://dc.lft.to/lastmile_qr_scan"}, "is_reserved": 0}, {"lon": -77.042138, "bike_id": "1f139d8805c25c05dc324989517ef925", "lat": 38.9125585, "fusion_lon": 0.0, "fusion_lat": 0.0, "type": "electric_scooter", "name": "1f139d8805c25c05dc324989517ef925", "is_disabled": 0, "rental_uris": {"ios": "https://dc.lft.to/lastmile_qr_scan", "android": "https://dc.lft.to/lastmile_qr_scan"}, "is_reserved": 0}, {"lon": -77.005848, "bike_id": "15de6822d19828cec2a2123b9cf40749", "lat": 38.884400666666664, "fusion_lon": 0.0, "fusion_lat": 0.0, "type": "electric_scooter", "name": "15de6822d19828cec2a2123b9cf40749", "is_disabled": 0, "rental_uris": {"ios": "https://dc.lft.to/lastmile_qr_scan", "android": "https://dc.lft.to/lastmile_qr_scan"}, "is_reserved": 0}, {"lon": -77.038633, "bike_id": "d0667382e16900abb3ccb88dd03c2f52", "lat": 38.94503316666667, "fusion_lon": 0.0, "fusion_lat": 0.0, "type": "electric_scooter", "name": "d0667382e16900abb3ccb88dd03c2f52", "is_disabled": 0, "rental_uris": {"ios": "https://dc.lft.to/lastmile_qr_scan", "android": "https://dc.lft.to/lastmile_qr_scan"}, "is_reserved": 0}, {"lon": -76.9984425, "bike_id": "bfc73e8e4dd38f09b1b5d81860868abe", "lat": 38.902155666666665, "fusion_lon": 0.0, "fusion_lat": 0.0, "type": "electric_scooter", "name": "bfc73e8e4dd38f09b1b5d81860868abe", "is_disabled": 0, "rental_uris": {"ios": "https://dc.lft.to/lastmile_qr_scan", "android": "https://dc.lft.to/lastmile_qr_scan"}, "is_reserved": 0}, {"lon": -77.03480083333334, "bike_id": "cb78c58de37c435d4d8fb7a180d27970", "lat": 38.928694166666666, "fusion_lon": 0.0, "fusion_lat": 0.0, "type": "electric_scooter", "name": "cb78c58de37c435d4d8fb7a180d27970", "is_disabled": 0, "rental_uris": {"ios": "https://dc.lft.to/lastmile_qr_scan", "android": "https://dc.lft.to/lastmile_qr_scan"}, "is_reserved": 0}, {"lon": -77.03895183333333, "bike_id": "34a1bab7ca80d6220f4d8cb6228cbd49", "lat": 38.910085, "fusion_lon": 0.0, "fusion_lat": 0.0, "type": "electric_scooter", "name": "34a1bab7ca80d6220f4d8cb6228cbd49", "is_disabled": 0, "rental_uris": {"ios": "https://dc.lft.to/lastmile_qr_scan", "android": "https://dc.lft.to/lastmile_qr_scan"}, "is_reserved": 0}, {"lon": -77.0479685, "bike_id": "e32780760952baeaf3f9e8213a5445b0", "lat": 38.88715033333333, "fusion_lon": 0.0, "fusion_lat": 0.0, "type": "electric_scooter", "name": "e32780760952baeaf3f9e8213a5445b0", "is_disabled": 0, "rental_uris": {"ios": "https://dc.lft.to/lastmile_qr_scan", "android": "https://dc.lft.to/lastmile_qr_scan"}, "is_reserved": 0}, {"lon": -77.036874, "bike_id": "4d9fd2b3e5c2302ab8f6fea0adce4ae4", "lat": 38.908380666666666, "fusion_lon": 0.0, "fusion_lat": 0.0, "type": "electric_scooter", "name": "4d9fd2b3e5c2302ab8f6fea0adce4ae4", "is_disabled": 0, "rental_uris": {"ios": "https://dc.lft.to/lastmile_qr_scan", "android": "https://dc.lft.to/lastmile_qr_scan"}, "is_reserved": 0}, {"lon": -77.0341615, "bike_id": "f0845dc6259f3c5b09cd7d2a060d72b4", "lat": 38.927336, "fusion_lon": 0.0, "fusion_lat": 0.0, "type": "electric_scooter", "name": "f0845dc6259f3c5b09cd7d2a060d72b4", "is_disabled": 0, "rental_uris": {"ios": "https://dc.lft.to/lastmile_qr_scan", "android": "https://dc.lft.to/lastmile_qr_scan"}, "is_reserved": 0}, {"lon": -77.0306765, "bike_id": "d7a9ed1db31bf9d7021cd71d3c7bda16", "lat": 38.90573583333333, "fusion_lon": 0.0, "fusion_lat": 0.0, "type": "electric_scooter", "name": "d7a9ed1db31bf9d7021cd71d3c7bda16", "is_disabled": 0, "rental_uris": {"ios": "https://dc.lft.to/lastmile_qr_scan", "android": "https://dc.lft.to/lastmile_qr_scan"}, "is_reserved": 0}, {"lon": -77.0335245, "bike_id": "0764e1ae340731fe58928f18ba9be8cc", "lat": 38.962529833333335, "fusion_lon": 0.0, "fusion_lat": 0.0, "type": "electric_scooter", "name": "0764e1ae340731fe58928f18ba9be8cc", "is_disabled": 0, "rental_uris": {"ios": "https://dc.lft.to/lastmile_qr_scan", "android": "https://dc.lft.to/lastmile_qr_scan"}, "is_reserved": 0}, {"lon": -77.06729983333334, "bike_id": "bc080e0eb85d38d8ccf4af60945cd581", "lat": 38.903634833333335, "fusion_lon": 0.0, "fusion_lat": 0.0, "type": "electric_scooter", "name": "bc080e0eb85d38d8ccf4af60945cd581", "is_disabled": 0, "rental_uris": {"ios": "https://dc.lft.to/lastmile_qr_scan", "android": "https://dc.lft.to/lastmile_qr_scan"}, "is_reserved": 0}, {"lon": -77.04386783333334, "bike_id": "7520b50a25b581a74815ac6858ebb9f4", "lat": 38.921104666666665, "fusion_lon": 0.0, "fusion_lat": 0.0, "type": "electric_scooter", "name": "7520b50a25b581a74815ac6858ebb9f4", "is_disabled": 0, "rental_uris": {"ios": "https://dc.lft.to/lastmile_qr_scan", "android": "https://dc.lft.to/lastmile_qr_scan"}, "is_reserved": 0}, {"lon": -77.02182366666666, "bike_id": "fd5febad10c1998c363dc1a9d7487920", "lat": 38.91485466666666, "fusion_lon": 0.0, "fusion_lat": 0.0, "type": "electric_scooter", "name": "fd5febad10c1998c363dc1a9d7487920", "is_disabled": 0, "rental_uris": {"ios": "https://dc.lft.to/lastmile_qr_scan", "android": "https://dc.lft.to/lastmile_qr_scan"}, "is_reserved": 0}, {"lon": -77.02570183333333, "bike_id": "3d2920cd1d240fc490f1564160094043", "lat": 38.897309666666665, "fusion_lon": 0.0, "fusion_lat": 0.0, "type": "electric_scooter", "name": "3d2920cd1d240fc490f1564160094043", "is_disabled": 0, "rental_uris": {"ios": "https://dc.lft.to/lastmile_qr_scan", "android": "https://dc.lft.to/lastmile_qr_scan"}, "is_reserved": 0}, {"lon": -77.02964433333334, "bike_id": "dcaa67d78dfcd8ce614e1374c18f5f7c", "lat": 38.916759166666665, "fusion_lon": 0.0, "fusion_lat": 0.0, "type": "electric_scooter", "name": "dcaa67d78dfcd8ce614e1374c18f5f7c", "is_disabled": 0, "rental_uris": {"ios": "https://dc.lft.to/lastmile_qr_scan", "android": "https://dc.lft.to/lastmile_qr_scan"}, "is_reserved": 0}, {"lon": -77.04247383333333, "bike_id": "3fd1adaea45176dceb480ab3cad1f6c5", "lat": 38.908206166666666, "fusion_lon": 0.0, "fusion_lat": 0.0, "type": "electric_scooter", "name": "3fd1adaea45176dceb480ab3cad1f6c5", "is_disabled": 0, "rental_uris": {"ios": "https://dc.lft.to/lastmile_qr_scan", "android": "https://dc.lft.to/lastmile_qr_scan"}, "is_reserved": 0}, {"lon": -77.03858166666667, "bike_id": "e712a481e354ed6cc429e81da83355da", "lat": 38.91209383333333, "fusion_lon": 0.0, "fusion_lat": 0.0, "type": "electric_scooter", "name": "e712a481e354ed6cc429e81da83355da", "is_disabled": 0, "rental_uris": {"ios": "https://dc.lft.to/lastmile_qr_scan", "android": "https://dc.lft.to/lastmile_qr_scan"}, "is_reserved": 0}, {"lon": -77.035121, "bike_id": "61a44664f10d46b243d9f2a093b953f6", "lat": 38.91487383333333, "fusion_lon": 0.0, "fusion_lat": 0.0, "type": "electric_scooter", "name": "61a44664f10d46b243d9f2a093b953f6", "is_disabled": 0, "rental_uris": {"ios": "https://dc.lft.to/lastmile_qr_scan", "android": "https://dc.lft.to/lastmile_qr_scan"}, "is_reserved": 0}, {"lon": -77.02317166666667, "bike_id": "125347aa598d3b3429653aadb6ec1e9c", "lat": 38.95523983333333, "fusion_lon": 0.0, "fusion_lat": 0.0, "type": "electric_scooter", "name": "125347aa598d3b3429653aadb6ec1e9c", "is_disabled": 0, "rental_uris": {"ios": "https://dc.lft.to/lastmile_qr_scan", "android": "https://dc.lft.to/lastmile_qr_scan"}, "is_reserved": 0}, {"lon": -77.0387155, "bike_id": "4fa93c5014c2668380a6a9b64ec96945", "lat": 38.914137833333335, "fusion_lon": 0.0, "fusion_lat": 0.0, "type": "electric_scooter", "name": "4fa93c5014c2668380a6a9b64ec96945", "is_disabled": 0, "rental_uris": {"ios": "https://dc.lft.to/lastmile_qr_scan", "android": "https://dc.lft.to/lastmile_qr_scan"}, "is_reserved": 0}, {"lon": -77.00564933333334, "bike_id": "631dab0f228e9be4bfc32cf1444888ff", "lat": 38.87436783333333, "fusion_lon": 0.0, "fusion_lat": 0.0, "type": "electric_scooter", "name": "631dab0f228e9be4bfc32cf1444888ff", "is_disabled": 0, "rental_uris": {"ios": "https://dc.lft.to/lastmile_qr_scan", "android": "https://dc.lft.to/lastmile_qr_scan"}, "is_reserved": 0}, {"lon": -77.0432535, "bike_id": "90f3932a921cac3de8ca24a79992c9a4", "lat": 38.91883933333333, "fusion_lon": 0.0, "fusion_lat": 0.0, "type": "electric_scooter", "name": "90f3932a921cac3de8ca24a79992c9a4", "is_disabled": 0, "rental_uris": {"ios": "https://dc.lft.to/lastmile_qr_scan", "android": "https://dc.lft.to/lastmile_qr_scan"}, "is_reserved": 0}, {"lon": -77.02711366666666, "bike_id": "b85bbf7130955d82e00f5f166b6187f4", "lat": 38.90079433333333, "fusion_lon": 0.0, "fusion_lat": 0.0, "type": "electric_scooter", "name": "b85bbf7130955d82e00f5f166b6187f4", "is_disabled": 0, "rental_uris": {"ios": "https://dc.lft.to/lastmile_qr_scan", "android": "https://dc.lft.to/lastmile_qr_scan"}, "is_reserved": 0}, {"lon": -77.01446883333334, "bike_id": "af8c388045ba33ef96c0ffbd5892f8f8", "lat": 38.91257066666667, "fusion_lon": 0.0, "fusion_lat": 0.0, "type": "electric_scooter", "name": "af8c388045ba33ef96c0ffbd5892f8f8", "is_disabled": 0, "rental_uris": {"ios": "https://dc.lft.to/lastmile_qr_scan", "android": "https://dc.lft.to/lastmile_qr_scan"}, "is_reserved": 0}, {"lon": -76.98534916666667, "bike_id": "4d03acd801d688798f92be880dd7b573", "lat": 38.89944416666667, "fusion_lon": 0.0, "fusion_lat": 0.0, "type": "electric_scooter", "name": "4d03acd801d688798f92be880dd7b573", "is_disabled": 0, "rental_uris": {"ios": "https://dc.lft.to/lastmile_qr_scan", "android": "https://dc.lft.to/lastmile_qr_scan"}, "is_reserved": 0}, {"lon": -76.94659300000001, "bike_id": "c19fcb935087f9cde6fc0866447ebf92", "lat": 38.936967, "fusion_lon": 0.0, "fusion_lat": 0.0, "type": "electric_bike", "name": "c19fcb935087f9cde6fc0866447ebf92", "is_disabled": 0, "rental_uris": {"ios": "https://dc.lft.to/lastmile_qr_scan", "android": "https://dc.lft.to/lastmile_qr_scan"}, "is_reserved": 0}, {"lon": -76.99647716666666, "bike_id": "8984bd7d416339f7aabacfeed5ea0849", "lat": 38.88719783333333, "fusion_lon": 0.0, "fusion_lat": 0.0, "type": "electric_scooter", "name": "8984bd7d416339f7aabacfeed5ea0849", "is_disabled": 0, "rental_uris": {"ios": "https://dc.lft.to/lastmile_qr_scan", "android": "https://dc.lft.to/lastmile_qr_scan"}, "is_reserved": 0}, {"lon": -77.02381833333334, "bike_id": "c958cb258ffc7494c495118bf3f994fb", "lat": 38.906291, "fusion_lon": 0.0, "fusion_lat": 0.0, "type": "electric_scooter", "name": "c958cb258ffc7494c495118bf3f994fb", "is_disabled": 0, "rental_uris": {"ios": "https://dc.lft.to/lastmile_qr_scan", "android": "https://dc.lft.to/lastmile_qr_scan"}, "is_reserved": 0}, {"lon": -77.02479233333334, "bike_id": "b377bf654136270967e60097b3b618f4", "lat": 38.902386, "fusion_lon": 0.0, "fusion_lat": 0.0, "type": "electric_scooter", "name": "b377bf654136270967e60097b3b618f4", "is_disabled": 0, "rental_uris": {"ios": "https://dc.lft.to/lastmile_qr_scan", "android": "https://dc.lft.to/lastmile_qr_scan"}, "is_reserved": 0}, {"lon": -77.016315, "bike_id": "bf80b32047b0512c267164a3e39e9a94", "lat": 38.9023845, "fusion_lon": 0.0, "fusion_lat": 0.0, "type": "electric_scooter", "name": "bf80b32047b0512c267164a3e39e9a94", "is_disabled": 0, "rental_uris": {"ios": "https://dc.lft.to/lastmile_qr_scan", "android": "https://dc.lft.to/lastmile_qr_scan"}, "is_reserved": 0}, {"lon": -77.05133866666667, "bike_id": "69bae356701cc71c689ce7ca8520b79e", "lat": 38.90433216666667, "fusion_lon": 0.0, "fusion_lat": 0.0, "type": "electric_scooter", "name": "69bae356701cc71c689ce7ca8520b79e", "is_disabled": 0, "rental_uris": {"ios": "https://dc.lft.to/lastmile_qr_scan", "android": "https://dc.lft.to/lastmile_qr_scan"}, "is_reserved": 0}, {"lon": -77.00062616666666, "bike_id": "df0e766daaf4598597aa4de36e951bff", "lat": 38.92438416666667, "fusion_lon": 0.0, "fusion_lat": 0.0, "type": "electric_scooter", "name": "df0e766daaf4598597aa4de36e951bff", "is_disabled": 0, "rental_uris": {"ios": "https://dc.lft.to/lastmile_qr_scan", "android": "https://dc.lft.to/lastmile_qr_scan"}, "is_reserved": 0}, {"lon": -77.04267766666666, "bike_id": "e9e947209e22a1a9cfb4e9b1b46679aa", "lat": 38.91785866666667, "fusion_lon": 0.0, "fusion_lat": 0.0, "type": "electric_scooter", "name": "e9e947209e22a1a9cfb4e9b1b46679aa", "is_disabled": 0, "rental_uris": {"ios": "https://dc.lft.to/lastmile_qr_scan", "android": "https://dc.lft.to/lastmile_qr_scan"}, "is_reserved": 0}, {"lon": -77.0290595, "bike_id": "496da1a85a186e9d86c6a0039f1b0042", "lat": 38.9037155, "fusion_lon": 0.0, "fusion_lat": 0.0, "type": "electric_scooter", "name": "496da1a85a186e9d86c6a0039f1b0042", "is_disabled": 0, "rental_uris": {"ios": "https://dc.lft.to/lastmile_qr_scan", "android": "https://dc.lft.to/lastmile_qr_scan"}, "is_reserved": 0}, {"lon": -76.976156, "bike_id": "96b485e94606754a55ec5c997d23eeb2", "lat": 38.903807666666665, "fusion_lon": 0.0, "fusion_lat": 0.0, "type": "electric_scooter", "name": "96b485e94606754a55ec5c997d23eeb2", "is_disabled": 0, "rental_uris": {"ios": "https://dc.lft.to/lastmile_qr_scan", "android": "https://dc.lft.to/lastmile_qr_scan"}, "is_reserved": 0}, {"lon": -77.02406716666667, "bike_id": "0f814d1166028cbe3a4791e24c3ef0f8", "lat": 38.920539833333336, "fusion_lon": 0.0, "fusion_lat": 0.0, "type": "electric_scooter", "name": "0f814d1166028cbe3a4791e24c3ef0f8", "is_disabled": 0, "rental_uris": {"ios": "https://dc.lft.to/lastmile_qr_scan", "android": "https://dc.lft.to/lastmile_qr_scan"}, "is_reserved": 0}, {"lon": -77.00751983333333, "bike_id": "e5303c3d0f20103c114542b572d94896", "lat": 38.90722383333333, "fusion_lon": 0.0, "fusion_lat": 0.0, "type": "electric_scooter", "name": "e5303c3d0f20103c114542b572d94896", "is_disabled": 0, "rental_uris": {"ios": "https://dc.lft.to/lastmile_qr_scan", "android": "https://dc.lft.to/lastmile_qr_scan"}, "is_reserved": 0}, {"lon": -77.0238825, "bike_id": "34295d23794feab922da04c538ce9b15", "lat": 38.92700083333333, "fusion_lon": 0.0, "fusion_lat": 0.0, "type": "electric_scooter", "name": "34295d23794feab922da04c538ce9b15", "is_disabled": 0, "rental_uris": {"ios": "https://dc.lft.to/lastmile_qr_scan", "android": "https://dc.lft.to/lastmile_qr_scan"}, "is_reserved": 0}, {"lon": -77.0038975, "bike_id": "c4af93f8cc032aa64dfdf6cd2e23f1ff", "lat": 38.907363333333336, "fusion_lon": 0.0, "fusion_lat": 0.0, "type": "electric_scooter", "name": "c4af93f8cc032aa64dfdf6cd2e23f1ff", "is_disabled": 0, "rental_uris": {"ios": "https://dc.lft.to/lastmile_qr_scan", "android": "https://dc.lft.to/lastmile_qr_scan"}, "is_reserved": 0}, {"lon": -76.98675516666667, "bike_id": "e0d2f95c4959035cb08f07f3d0382455", "lat": 38.902500333333336, "fusion_lon": 0.0, "fusion_lat": 0.0, "type": "electric_scooter", "name": "e0d2f95c4959035cb08f07f3d0382455", "is_disabled": 0, "rental_uris": {"ios": "https://dc.lft.to/lastmile_qr_scan", "android": "https://dc.lft.to/lastmile_qr_scan"}, "is_reserved": 0}, {"lon": -77.04709116666666, "bike_id": "80a9fc26bd2e72f9dcf0dde60c80221f", "lat": 38.9223445, "fusion_lon": 0.0, "fusion_lat": 0.0, "type": "electric_scooter", "name": "80a9fc26bd2e72f9dcf0dde60c80221f", "is_disabled": 0, "rental_uris": {"ios": "https://dc.lft.to/lastmile_qr_scan", "android": "https://dc.lft.to/lastmile_qr_scan"}, "is_reserved": 0}, {"lon": -77.00919616666667, "bike_id": "f14b3462f5b463283fae9e6b180b59c8", "lat": 38.8278495, "fusion_lon": 0.0, "fusion_lat": 0.0, "type": "electric_bike", "name": "f14b3462f5b463283fae9e6b180b59c8", "is_disabled": 0, "rental_uris": {"ios": "https://dc.lft.to/lastmile_qr_scan", "android": "https://dc.lft.to/lastmile_qr_scan"}, "is_reserved": 0}, {"lon": -77.038545, "bike_id": "7e2652a4d4c82060e2889bc6e6068a6d", "lat": 38.906818666666666, "fusion_lon": 0.0, "fusion_lat": 0.0, "type": "electric_scooter", "name": "7e2652a4d4c82060e2889bc6e6068a6d", "is_disabled": 0, "rental_uris": {"ios": "https://dc.lft.to/lastmile_qr_scan", "android": "https://dc.lft.to/lastmile_qr_scan"}, "is_reserved": 0}, {"lon": -77.03237066666667, "bike_id": "c1759caebd42cf81a64f064276502953", "lat": 38.914038833333336, "fusion_lon": 0.0, "fusion_lat": 0.0, "type": "electric_scooter", "name": "c1759caebd42cf81a64f064276502953", "is_disabled": 0, "rental_uris": {"ios": "https://dc.lft.to/lastmile_qr_scan", "android": "https://dc.lft.to/lastmile_qr_scan"}, "is_reserved": 0}, {"lon": -76.93609666666667, "bike_id": "3b0067b587c176a6b26e6dbd9459ca68", "lat": 38.896809166666664, "fusion_lon": 0.0, "fusion_lat": 0.0, "type": "electric_scooter", "name": "3b0067b587c176a6b26e6dbd9459ca68", "is_disabled": 0, "rental_uris": {"ios": "https://dc.lft.to/lastmile_qr_scan", "android": "https://dc.lft.to/lastmile_qr_scan"}, "is_reserved": 0}, {"lon": -76.984641, "bike_id": "db122c916480f22f2ebaab55a058292c", "lat": 38.9039675, "fusion_lon": 0.0, "fusion_lat": 0.0, "type": "electric_scooter", "name": "db122c916480f22f2ebaab55a058292c", "is_disabled": 0, "rental_uris": {"ios": "https://dc.lft.to/lastmile_qr_scan", "android": "https://dc.lft.to/lastmile_qr_scan"}, "is_reserved": 0}, {"lon": -77.01764733333333, "bike_id": "7026a366d1365395ac38cf5503d668e9", "lat": 38.89741816666667, "fusion_lon": 0.0, "fusion_lat": 0.0, "type": "electric_scooter", "name": "7026a366d1365395ac38cf5503d668e9", "is_disabled": 0, "rental_uris": {"ios": "https://dc.lft.to/lastmile_qr_scan", "android": "https://dc.lft.to/lastmile_qr_scan"}, "is_reserved": 0}, {"lon": -77.01480633333334, "bike_id": "0f808f50d1a69d570ba29d45a8b1db03", "lat": 38.92696483333334, "fusion_lon": 0.0, "fusion_lat": 0.0, "type": "electric_scooter", "name": "0f808f50d1a69d570ba29d45a8b1db03", "is_disabled": 0, "rental_uris": {"ios": "https://dc.lft.to/lastmile_qr_scan", "android": "https://dc.lft.to/lastmile_qr_scan"}, "is_reserved": 0}, {"lon": -77.0256175, "bike_id": "fc143826fa29aac3ee267f9ff6bd1020", "lat": 38.93102, "fusion_lon": 0.0, "fusion_lat": 0.0, "type": "electric_scooter", "name": "fc143826fa29aac3ee267f9ff6bd1020", "is_disabled": 0, "rental_uris": {"ios": "https://dc.lft.to/lastmile_qr_scan", "android": "https://dc.lft.to/lastmile_qr_scan"}, "is_reserved": 0}, {"lon": -77.05131366666667, "bike_id": "2c5a19e67f735fa2e9fc5121bd193369", "lat": 38.923630833333334, "fusion_lon": 0.0, "fusion_lat": 0.0, "type": "electric_scooter", "name": "2c5a19e67f735fa2e9fc5121bd193369", "is_disabled": 0, "rental_uris": {"ios": "https://dc.lft.to/lastmile_qr_scan", "android": "https://dc.lft.to/lastmile_qr_scan"}, "is_reserved": 0}, {"lon": -77.02775383333334, "bike_id": "8109d41bad43e16a8600e9f54bc36e07", "lat": 38.9542455, "fusion_lon": 0.0, "fusion_lat": 0.0, "type": "electric_scooter", "name": "8109d41bad43e16a8600e9f54bc36e07", "is_disabled": 0, "rental_uris": {"ios": "https://dc.lft.to/lastmile_qr_scan", "android": "https://dc.lft.to/lastmile_qr_scan"}, "is_reserved": 0}, {"lon": -77.01668483333333, "bike_id": "0483991fe08e2ce7abf75cf747878570", "lat": 38.877079333333334, "fusion_lon": 0.0, "fusion_lat": 0.0, "type": "electric_scooter", "name": "0483991fe08e2ce7abf75cf747878570", "is_disabled": 0, "rental_uris": {"ios": "https://dc.lft.to/lastmile_qr_scan", "android": "https://dc.lft.to/lastmile_qr_scan"}, "is_reserved": 0}, {"lon": -77.04668916666667, "bike_id": "e676a68593773365ca46ed53e081c265", "lat": 38.90058416666667, "fusion_lon": 0.0, "fusion_lat": 0.0, "type": "electric_scooter", "name": "e676a68593773365ca46ed53e081c265", "is_disabled": 0, "rental_uris": {"ios": "https://dc.lft.to/lastmile_qr_scan", "android": "https://dc.lft.to/lastmile_qr_scan"}, "is_reserved": 0}, {"lon": -77.01867933333334, "bike_id": "3e1e5801f41a6b4e716bfd984cf8e978", "lat": 38.89862983333333, "fusion_lon": 0.0, "fusion_lat": 0.0, "type": "electric_scooter", "name": "3e1e5801f41a6b4e716bfd984cf8e978", "is_disabled": 0, "rental_uris": {"ios": "https://dc.lft.to/lastmile_qr_scan", "android": "https://dc.lft.to/lastmile_qr_scan"}, "is_reserved": 0}, {"lon": -77.01998033333334, "bike_id": "fae6a06646765f23f73450e2f232cbf2", "lat": 38.966278, "fusion_lon": 0.0, "fusion_lat": 0.0, "type": "electric_scooter", "name": "fae6a06646765f23f73450e2f232cbf2", "is_disabled": 0, "rental_uris": {"ios": "https://dc.lft.to/lastmile_qr_scan", "android": "https://dc.lft.to/lastmile_qr_scan"}, "is_reserved": 0}, {"lon": -77.0237935, "bike_id": "cabefba7769f2d8fa09a54967cde867f", "lat": 38.90678833333333, "fusion_lon": 0.0, "fusion_lat": 0.0, "type": "electric_scooter", "name": "cabefba7769f2d8fa09a54967cde867f", "is_disabled": 0, "rental_uris": {"ios": "https://dc.lft.to/lastmile_qr_scan", "android": "https://dc.lft.to/lastmile_qr_scan"}, "is_reserved": 0}, {"lon": -76.99172266666666, "bike_id": "26535d1b2f9ae4851532754b09f7ee40", "lat": 38.8898645, "fusion_lon": 0.0, "fusion_lat": 0.0, "type": "electric_scooter", "name": "26535d1b2f9ae4851532754b09f7ee40", "is_disabled": 0, "rental_uris": {"ios": "https://dc.lft.to/lastmile_qr_scan", "android": "https://dc.lft.to/lastmile_qr_scan"}, "is_reserved": 0}, {"lon": -77.022884, "bike_id": "3824a92933dac66bfba132285bda3d76", "lat": 38.926834166666666, "fusion_lon": 0.0, "fusion_lat": 0.0, "type": "electric_scooter", "name": "3824a92933dac66bfba132285bda3d76", "is_disabled": 0, "rental_uris": {"ios": "https://dc.lft.to/lastmile_qr_scan", "android": "https://dc.lft.to/lastmile_qr_scan"}, "is_reserved": 0}, {"lon": -77.04104816666667, "bike_id": "a07f9b8b2999e6a2aab85d3fe6bb95ed", "lat": 38.92452016666667, "fusion_lon": 0.0, "fusion_lat": 0.0, "type": "electric_scooter", "name": "a07f9b8b2999e6a2aab85d3fe6bb95ed", "is_disabled": 0, "rental_uris": {"ios": "https://dc.lft.to/lastmile_qr_scan", "android": "https://dc.lft.to/lastmile_qr_scan"}, "is_reserved": 0}, {"lon": -77.03850016666667, "bike_id": "6fcdd03ae92e2880ede6c4d7bed0dae3", "lat": 38.906436166666666, "fusion_lon": 0.0, "fusion_lat": 0.0, "type": "electric_scooter", "name": "6fcdd03ae92e2880ede6c4d7bed0dae3", "is_disabled": 0, "rental_uris": {"ios": "https://dc.lft.to/lastmile_qr_scan", "android": "https://dc.lft.to/lastmile_qr_scan"}, "is_reserved": 0}, {"lon": -77.026161, "bike_id": "6ed695eb4516fcdd26667f4b9c5aed15", "lat": 38.88408283333333, "fusion_lon": 0.0, "fusion_lat": 0.0, "type": "electric_scooter", "name": "6ed695eb4516fcdd26667f4b9c5aed15", "is_disabled": 0, "rental_uris": {"ios": "https://dc.lft.to/lastmile_qr_scan", "android": "https://dc.lft.to/lastmile_qr_scan"}, "is_reserved": 0}, {"lon": -77.0505835, "bike_id": "88e6ef1db70f8dcf07ecb2ea4c82a45d", "lat": 38.923923333333335, "fusion_lon": 0.0, "fusion_lat": 0.0, "type": "electric_scooter", "name": "88e6ef1db70f8dcf07ecb2ea4c82a45d", "is_disabled": 0, "rental_uris": {"ios": "https://dc.lft.to/lastmile_qr_scan", "android": "https://dc.lft.to/lastmile_qr_scan"}, "is_reserved": 0}, {"lon": -77.033277, "bike_id": "cebb46bfe4c383fcec67309e15d6d25b", "lat": 38.933430666666666, "fusion_lon": 0.0, "fusion_lat": 0.0, "type": "electric_scooter", "name": "cebb46bfe4c383fcec67309e15d6d25b", "is_disabled": 0, "rental_uris": {"ios": "https://dc.lft.to/lastmile_qr_scan", "android": "https://dc.lft.to/lastmile_qr_scan"}, "is_reserved": 0}, {"lon": -77.02711733333334, "bike_id": "d230807fcfdd57a95c6e0a071c4a454a", "lat": 38.916362666666664, "fusion_lon": 0.0, "fusion_lat": 0.0, "type": "electric_scooter", "name": "d230807fcfdd57a95c6e0a071c4a454a", "is_disabled": 0, "rental_uris": {"ios": "https://dc.lft.to/lastmile_qr_scan", "android": "https://dc.lft.to/lastmile_qr_scan"}, "is_reserved": 0}, {"lon": -76.98114466666667, "bike_id": "1efe9790ce38e6d5828caee18eaabe75", "lat": 38.91584616666667, "fusion_lon": 0.0, "fusion_lat": 0.0, "type": "electric_scooter", "name": "1efe9790ce38e6d5828caee18eaabe75", "is_disabled": 0, "rental_uris": {"ios": "https://dc.lft.to/lastmile_qr_scan", "android": "https://dc.lft.to/lastmile_qr_scan"}, "is_reserved": 0}, {"lon": -77.01985433333333, "bike_id": "517af72f90ce98a40da5d87255b32159", "lat": 38.915212333333336, "fusion_lon": 0.0, "fusion_lat": 0.0, "type": "electric_scooter", "name": "517af72f90ce98a40da5d87255b32159", "is_disabled": 0, "rental_uris": {"ios": "https://dc.lft.to/lastmile_qr_scan", "android": "https://dc.lft.to/lastmile_qr_scan"}, "is_reserved": 0}, {"lon": -76.98989583333334, "bike_id": "92e7226b00c2f22a3bce2a684db92cf9", "lat": 38.9335615, "fusion_lon": 0.0, "fusion_lat": 0.0, "type": "electric_scooter", "name": "92e7226b00c2f22a3bce2a684db92cf9", "is_disabled": 0, "rental_uris": {"ios": "https://dc.lft.to/lastmile_qr_scan", "android": "https://dc.lft.to/lastmile_qr_scan"}, "is_reserved": 0}, {"lon": -77.01612933333334, "bike_id": "2c23e76e705c9fb36bef62ad8c209689", "lat": 38.8995375, "fusion_lon": 0.0, "fusion_lat": 0.0, "type": "electric_scooter", "name": "2c23e76e705c9fb36bef62ad8c209689", "is_disabled": 0, "rental_uris": {"ios": "https://dc.lft.to/lastmile_qr_scan", "android": "https://dc.lft.to/lastmile_qr_scan"}, "is_reserved": 0}, {"lon": -77.05036533333333, "bike_id": "925e644776b31855cfe7ea23cc0c6b62", "lat": 38.923676666666665, "fusion_lon": 0.0, "fusion_lat": 0.0, "type": "electric_scooter", "name": "925e644776b31855cfe7ea23cc0c6b62", "is_disabled": 0, "rental_uris": {"ios": "https://dc.lft.to/lastmile_qr_scan", "android": "https://dc.lft.to/lastmile_qr_scan"}, "is_reserved": 0}, {"lon": -77.02108033333333, "bike_id": "3a8894b9c766ef44c654378a86f43259", "lat": 38.89948866666667, "fusion_lon": 0.0, "fusion_lat": 0.0, "type": "electric_scooter", "name": "3a8894b9c766ef44c654378a86f43259", "is_disabled": 0, "rental_uris": {"ios": "https://dc.lft.to/lastmile_qr_scan", "android": "https://dc.lft.to/lastmile_qr_scan"}, "is_reserved": 0}, {"lon": -77.05865633333333, "bike_id": "42c2420d14c808adf564744923faf02f", "lat": 38.93608033333334, "fusion_lon": 0.0, "fusion_lat": 0.0, "type": "electric_scooter", "name": "42c2420d14c808adf564744923faf02f", "is_disabled": 0, "rental_uris": {"ios": "https://dc.lft.to/lastmile_qr_scan", "android": "https://dc.lft.to/lastmile_qr_scan"}, "is_reserved": 0}, {"lon": -77.0735135, "bike_id": "1f98a5ed09fd20f69522b01ff85c43a1", "lat": 38.91110583333333, "fusion_lon": 0.0, "fusion_lat": 0.0, "type": "electric_scooter", "name": "1f98a5ed09fd20f69522b01ff85c43a1", "is_disabled": 0, "rental_uris": {"ios": "https://dc.lft.to/lastmile_qr_scan", "android": "https://dc.lft.to/lastmile_qr_scan"}, "is_reserved": 0}, {"lon": -77.01862583333333, "bike_id": "aada2cc7c6b4f3b7679ee570fda12511", "lat": 38.91488716666667, "fusion_lon": 0.0, "fusion_lat": 0.0, "type": "electric_scooter", "name": "aada2cc7c6b4f3b7679ee570fda12511", "is_disabled": 0, "rental_uris": {"ios": "https://dc.lft.to/lastmile_qr_scan", "android": "https://dc.lft.to/lastmile_qr_scan"}, "is_reserved": 0}, {"lon": -76.99044133333334, "bike_id": "79bb61223f93a9d99e93954b2db131fa", "lat": 38.884129333333334, "fusion_lon": 0.0, "fusion_lat": 0.0, "type": "electric_scooter", "name": "79bb61223f93a9d99e93954b2db131fa", "is_disabled": 0, "rental_uris": {"ios": "https://dc.lft.to/lastmile_qr_scan", "android": "https://dc.lft.to/lastmile_qr_scan"}, "is_reserved": 0}, {"lon": -77.02283883333334, "bike_id": "43748614afda6301f072a4f792162f44", "lat": 38.878447, "fusion_lon": 0.0, "fusion_lat": 0.0, "type": "electric_scooter", "name": "43748614afda6301f072a4f792162f44", "is_disabled": 0, "rental_uris": {"ios": "https://dc.lft.to/lastmile_qr_scan", "android": "https://dc.lft.to/lastmile_qr_scan"}, "is_reserved": 0}, {"lon": -77.02681333333334, "bike_id": "d6a0dc497fe8af8cbc8d1c9109cd9f6e", "lat": 38.900608, "fusion_lon": 0.0, "fusion_lat": 0.0, "type": "electric_scooter", "name": "d6a0dc497fe8af8cbc8d1c9109cd9f6e", "is_disabled": 0, "rental_uris": {"ios": "https://dc.lft.to/lastmile_qr_scan", "android": "https://dc.lft.to/lastmile_qr_scan"}, "is_reserved": 0}, {"lon": -77.02939916666666, "bike_id": "b034472f0efb4bfe1e5fa56b4d64aa0f", "lat": 38.90725116666667, "fusion_lon": 0.0, "fusion_lat": 0.0, "type": "electric_scooter", "name": "b034472f0efb4bfe1e5fa56b4d64aa0f", "is_disabled": 0, "rental_uris": {"ios": "https://dc.lft.to/lastmile_qr_scan", "android": "https://dc.lft.to/lastmile_qr_scan"}, "is_reserved": 0}, {"lon": -77.00513466666666, "bike_id": "a0d96a73f895c7182edf1e4c1cb0cc94", "lat": 38.87472233333333, "fusion_lon": 0.0, "fusion_lat": 0.0, "type": "electric_scooter", "name": "a0d96a73f895c7182edf1e4c1cb0cc94", "is_disabled": 0, "rental_uris": {"ios": "https://dc.lft.to/lastmile_qr_scan", "android": "https://dc.lft.to/lastmile_qr_scan"}, "is_reserved": 0}, {"lon": -77.02623966666667, "bike_id": "5b08ee4b3bb862ee70be8795a9f34564", "lat": 38.9051735, "fusion_lon": 0.0, "fusion_lat": 0.0, "type": "electric_scooter", "name": "5b08ee4b3bb862ee70be8795a9f34564", "is_disabled": 0, "rental_uris": {"ios": "https://dc.lft.to/lastmile_qr_scan", "android": "https://dc.lft.to/lastmile_qr_scan"}, "is_reserved": 0}, {"lon": -76.98220133333334, "bike_id": "698957796ef4633c5758f2907df37567", "lat": 38.866163666666665, "fusion_lon": 0.0, "fusion_lat": 0.0, "type": "electric_scooter", "name": "698957796ef4633c5758f2907df37567", "is_disabled": 0, "rental_uris": {"ios": "https://dc.lft.to/lastmile_qr_scan", "android": "https://dc.lft.to/lastmile_qr_scan"}, "is_reserved": 0}, {"lon": -76.97827966666667, "bike_id": "e13ae48541d61ed5547b596374b6817f", "lat": 38.84365183333333, "fusion_lon": 0.0, "fusion_lat": 0.0, "type": "electric_bike", "name": "e13ae48541d61ed5547b596374b6817f", "is_disabled": 0, "rental_uris": {"ios": "https://dc.lft.to/lastmile_qr_scan", "android": "https://dc.lft.to/lastmile_qr_scan"}, "is_reserved": 0}, {"lon": -77.02483466666666, "bike_id": "cdfd0a1bcfcc9aeb0dc0b5f5828d343c", "lat": 38.919839, "fusion_lon": 0.0, "fusion_lat": 0.0, "type": "electric_scooter", "name": "cdfd0a1bcfcc9aeb0dc0b5f5828d343c", "is_disabled": 0, "rental_uris": {"ios": "https://dc.lft.to/lastmile_qr_scan", "android": "https://dc.lft.to/lastmile_qr_scan"}, "is_reserved": 0}, {"lon": -77.0365385, "bike_id": "8d74ede7cbfc51620203246c56f0afc5", "lat": 38.956092, "fusion_lon": 0.0, "fusion_lat": 0.0, "type": "electric_scooter", "name": "8d74ede7cbfc51620203246c56f0afc5", "is_disabled": 0, "rental_uris": {"ios": "https://dc.lft.to/lastmile_qr_scan", "android": "https://dc.lft.to/lastmile_qr_scan"}, "is_reserved": 0}, {"lon": -76.98264633333334, "bike_id": "39ff4f871c4186dbe0f2c42d92ff1803", "lat": 38.90134916666667, "fusion_lon": 0.0, "fusion_lat": 0.0, "type": "electric_scooter", "name": "39ff4f871c4186dbe0f2c42d92ff1803", "is_disabled": 0, "rental_uris": {"ios": "https://dc.lft.to/lastmile_qr_scan", "android": "https://dc.lft.to/lastmile_qr_scan"}, "is_reserved": 0}, {"lon": -77.0476365, "bike_id": "a0bcd2597cedb0cb4d9264c6ab34460e", "lat": 38.909509166666666, "fusion_lon": 0.0, "fusion_lat": 0.0, "type": "electric_scooter", "name": "a0bcd2597cedb0cb4d9264c6ab34460e", "is_disabled": 0, "rental_uris": {"ios": "https://dc.lft.to/lastmile_qr_scan", "android": "https://dc.lft.to/lastmile_qr_scan"}, "is_reserved": 0}, {"lon": -77.090667, "bike_id": "8ab45c7a178acf86b71b034e45b4be68", "lat": 38.862609, "fusion_lon": 0.0, "fusion_lat": 0.0, "type": "electric_bike", "name": "8ab45c7a178acf86b71b034e45b4be68", "is_disabled": 0, "rental_uris": {"ios": "https://dc.lft.to/lastmile_qr_scan", "android": "https://dc.lft.to/lastmile_qr_scan"}, "is_reserved": 0}, {"lon": -77.031177, "bike_id": "72d76b2f6365f40e339937dac817d8da", "lat": 38.93325083333333, "fusion_lon": 0.0, "fusion_lat": 0.0, "type": "electric_scooter", "name": "72d76b2f6365f40e339937dac817d8da", "is_disabled": 0, "rental_uris": {"ios": "https://dc.lft.to/lastmile_qr_scan", "android": "https://dc.lft.to/lastmile_qr_scan"}, "is_reserved": 0}, {"lon": -77.03249766666667, "bike_id": "8cae75c986e5de44f79dde64ee6b7cd8", "lat": 38.915606333333336, "fusion_lon": 0.0, "fusion_lat": 0.0, "type": "electric_scooter", "name": "8cae75c986e5de44f79dde64ee6b7cd8", "is_disabled": 0, "rental_uris": {"ios": "https://dc.lft.to/lastmile_qr_scan", "android": "https://dc.lft.to/lastmile_qr_scan"}, "is_reserved": 0}, {"lon": -76.93073733333334, "bike_id": "1e3cc77b3d4dbc8e57f5804df2ab6e86", "lat": 38.89557633333333, "fusion_lon": 0.0, "fusion_lat": 0.0, "type": "electric_scooter", "name": "1e3cc77b3d4dbc8e57f5804df2ab6e86", "is_disabled": 0, "rental_uris": {"ios": "https://dc.lft.to/lastmile_qr_scan", "android": "https://dc.lft.to/lastmile_qr_scan"}, "is_reserved": 0}, {"lon": -77.0225795, "bike_id": "c080439e68030b4f45195143c52a129a", "lat": 38.903888, "fusion_lon": 0.0, "fusion_lat": 0.0, "type": "electric_scooter", "name": "c080439e68030b4f45195143c52a129a", "is_disabled": 0, "rental_uris": {"ios": "https://dc.lft.to/lastmile_qr_scan", "android": "https://dc.lft.to/lastmile_qr_scan"}, "is_reserved": 0}, {"lon": -77.0112045, "bike_id": "eaaeff3c22ed988be4842d7e48cbf59c", "lat": 38.88548683333333, "fusion_lon": 0.0, "fusion_lat": 0.0, "type": "electric_scooter", "name": "eaaeff3c22ed988be4842d7e48cbf59c", "is_disabled": 0, "rental_uris": {"ios": "https://dc.lft.to/lastmile_qr_scan", "android": "https://dc.lft.to/lastmile_qr_scan"}, "is_reserved": 0}, {"lon": -77.05626366666667, "bike_id": "660f49ee6601ad3a6b665fee987e61a3", "lat": 38.960772, "fusion_lon": 0.0, "fusion_lat": 0.0, "type": "electric_scooter", "name": "660f49ee6601ad3a6b665fee987e61a3", "is_disabled": 0, "rental_uris": {"ios": "https://dc.lft.to/lastmile_qr_scan", "android": "https://dc.lft.to/lastmile_qr_scan"}, "is_reserved": 0}, {"lon": -77.0447985, "bike_id": "454bd425d7edabb11e452e1a93cb5cc4", "lat": 38.90031033333333, "fusion_lon": 0.0, "fusion_lat": 0.0, "type": "electric_scooter", "name": "454bd425d7edabb11e452e1a93cb5cc4", "is_disabled": 0, "rental_uris": {"ios": "https://dc.lft.to/lastmile_qr_scan", "android": "https://dc.lft.to/lastmile_qr_scan"}, "is_reserved": 0}, {"lon": -77.02960633333333, "bike_id": "c7491fc1292aa2ae1ad7f3f253f4ec15", "lat": 38.916833833333335, "fusion_lon": 0.0, "fusion_lat": 0.0, "type": "electric_scooter", "name": "c7491fc1292aa2ae1ad7f3f253f4ec15", "is_disabled": 0, "rental_uris": {"ios": "https://dc.lft.to/lastmile_qr_scan", "android": "https://dc.lft.to/lastmile_qr_scan"}, "is_reserved": 0}, {"lon": -76.98826116666666, "bike_id": "c22978c89e15b3253bd395a1e3f19fec", "lat": 38.900462, "fusion_lon": 0.0, "fusion_lat": 0.0, "type": "electric_scooter", "name": "c22978c89e15b3253bd395a1e3f19fec", "is_disabled": 0, "rental_uris": {"ios": "https://dc.lft.to/lastmile_qr_scan", "android": "https://dc.lft.to/lastmile_qr_scan"}, "is_reserved": 0}, {"lon": -77.07697833333333, "bike_id": "44e047baf19ad0c1d5d5b27918041d12", "lat": 38.888587666666666, "fusion_lon": 0.0, "fusion_lat": 0.0, "type": "electric_bike", "name": "44e047baf19ad0c1d5d5b27918041d12", "is_disabled": 0, "rental_uris": {"ios": "https://dc.lft.to/lastmile_qr_scan", "android": "https://dc.lft.to/lastmile_qr_scan"}, "is_reserved": 0}, {"lon": -77.00361416666667, "bike_id": "5afe65a52c2d321ec6ecf6f25aae6ce4", "lat": 38.887165333333336, "fusion_lon": 0.0, "fusion_lat": 0.0, "type": "electric_scooter", "name": "5afe65a52c2d321ec6ecf6f25aae6ce4", "is_disabled": 0, "rental_uris": {"ios": "https://dc.lft.to/lastmile_qr_scan", "android": "https://dc.lft.to/lastmile_qr_scan"}, "is_reserved": 0}, {"lon": -77.03549966666667, "bike_id": "fcf069220d371c956a1d9f7b1d84f3bb", "lat": 38.924044, "fusion_lon": 0.0, "fusion_lat": 0.0, "type": "electric_scooter", "name": "fcf069220d371c956a1d9f7b1d84f3bb", "is_disabled": 0, "rental_uris": {"ios": "https://dc.lft.to/lastmile_qr_scan", "android": "https://dc.lft.to/lastmile_qr_scan"}, "is_reserved": 0}, {"lon": -77.13104133333333, "bike_id": "0eb2d82542d7bf3832229ce3af4404b1", "lat": 39.024361, "fusion_lon": 0.0, "fusion_lat": 0.0, "type": "electric_bike", "name": "0eb2d82542d7bf3832229ce3af4404b1", "is_disabled": 0, "rental_uris": {"ios": "https://dc.lft.to/lastmile_qr_scan", "android": "https://dc.lft.to/lastmile_qr_scan"}, "is_reserved": 0}, {"lon": -77.01884116666666, "bike_id": "97c2aae7f325820b169bf49fe4cdd357", "lat": 38.902803666666664, "fusion_lon": 0.0, "fusion_lat": 0.0, "type": "electric_scooter", "name": "97c2aae7f325820b169bf49fe4cdd357", "is_disabled": 0, "rental_uris": {"ios": "https://dc.lft.to/lastmile_qr_scan", "android": "https://dc.lft.to/lastmile_qr_scan"}, "is_reserved": 0}, {"lon": -77.025785, "bike_id": "930456b1a590de521d758ac2cd598ce5", "lat": 38.90069233333333, "fusion_lon": 0.0, "fusion_lat": 0.0, "type": "electric_scooter", "name": "930456b1a590de521d758ac2cd598ce5", "is_disabled": 0, "rental_uris": {"ios": "https://dc.lft.to/lastmile_qr_scan", "android": "https://dc.lft.to/lastmile_qr_scan"}, "is_reserved": 0}, {"lon": -77.04328033333333, "bike_id": "1e2c165a35de7339460db6c7528d160c", "lat": 38.9087625, "fusion_lon": 0.0, "fusion_lat": 0.0, "type": "electric_scooter", "name": "1e2c165a35de7339460db6c7528d160c", "is_disabled": 0, "rental_uris": {"ios": "https://dc.lft.to/lastmile_qr_scan", "android": "https://dc.lft.to/lastmile_qr_scan"}, "is_reserved": 0}, {"lon": -77.02391666666666, "bike_id": "d0bb27cc6db509418fb6634891e0c050", "lat": 38.92086333333334, "fusion_lon": 0.0, "fusion_lat": 0.0, "type": "electric_scooter", "name": "d0bb27cc6db509418fb6634891e0c050", "is_disabled": 0, "rental_uris": {"ios": "https://dc.lft.to/lastmile_qr_scan", "android": "https://dc.lft.to/lastmile_qr_scan"}, "is_reserved": 0}, {"lon": -77.04355233333334, "bike_id": "115c281617235f2a80b81d2580da5168", "lat": 38.90777766666667, "fusion_lon": 0.0, "fusion_lat": 0.0, "type": "electric_scooter", "name": "115c281617235f2a80b81d2580da5168", "is_disabled": 0, "rental_uris": {"ios": "https://dc.lft.to/lastmile_qr_scan", "android": "https://dc.lft.to/lastmile_qr_scan"}, "is_reserved": 0}, {"lon": -77.03773666666666, "bike_id": "839c56d5067ac55a47df5f02ee0ce8c0", "lat": 38.929708166666664, "fusion_lon": 0.0, "fusion_lat": 0.0, "type": "electric_scooter", "name": "839c56d5067ac55a47df5f02ee0ce8c0", "is_disabled": 0, "rental_uris": {"ios": "https://dc.lft.to/lastmile_qr_scan", "android": "https://dc.lft.to/lastmile_qr_scan"}, "is_reserved": 0}, {"lon": -77.04996033333333, "bike_id": "dec583857baa6a4b13ede1713b36b1c3", "lat": 38.90063833333333, "fusion_lon": 0.0, "fusion_lat": 0.0, "type": "electric_scooter", "name": "dec583857baa6a4b13ede1713b36b1c3", "is_disabled": 0, "rental_uris": {"ios": "https://dc.lft.to/lastmile_qr_scan", "android": "https://dc.lft.to/lastmile_qr_scan"}, "is_reserved": 0}, {"lon": -77.033398, "bike_id": "950ee3745664abccc4a977f31df98db3", "lat": 38.917078, "fusion_lon": 0.0, "fusion_lat": 0.0, "type": "electric_scooter", "name": "950ee3745664abccc4a977f31df98db3", "is_disabled": 0, "rental_uris": {"ios": "https://dc.lft.to/lastmile_qr_scan", "android": "https://dc.lft.to/lastmile_qr_scan"}, "is_reserved": 0}, {"lon": -77.02430466666667, "bike_id": "502e57ca31028bb8bf77e6109c920fe2", "lat": 38.920307666666666, "fusion_lon": 0.0, "fusion_lat": 0.0, "type": "electric_scooter", "name": "502e57ca31028bb8bf77e6109c920fe2", "is_disabled": 0, "rental_uris": {"ios": "https://dc.lft.to/lastmile_qr_scan", "android": "https://dc.lft.to/lastmile_qr_scan"}, "is_reserved": 0}, {"lon": -76.989353, "bike_id": "46816a1d4a409f0845c7c9303cd647b3", "lat": 38.91827383333333, "fusion_lon": 0.0, "fusion_lat": 0.0, "type": "electric_scooter", "name": "46816a1d4a409f0845c7c9303cd647b3", "is_disabled": 0, "rental_uris": {"ios": "https://dc.lft.to/lastmile_qr_scan", "android": "https://dc.lft.to/lastmile_qr_scan"}, "is_reserved": 0}, {"lon": -77.02356683333333, "bike_id": "1f2b422d5a8686324ee5c00e3379f36e", "lat": 38.896065666666665, "fusion_lon": 0.0, "fusion_lat": 0.0, "type": "electric_scooter", "name": "1f2b422d5a8686324ee5c00e3379f36e", "is_disabled": 0, "rental_uris": {"ios": "https://dc.lft.to/lastmile_qr_scan", "android": "https://dc.lft.to/lastmile_qr_scan"}, "is_reserved": 0}, {"lon": -77.05882966666667, "bike_id": "d18a8bf78de39617b9570cf7b6da9a50", "lat": 38.862756166666664, "fusion_lon": 0.0, "fusion_lat": 0.0, "type": "electric_bike", "name": "d18a8bf78de39617b9570cf7b6da9a50", "is_disabled": 0, "rental_uris": {"ios": "https://dc.lft.to/lastmile_qr_scan", "android": "https://dc.lft.to/lastmile_qr_scan"}, "is_reserved": 0}, {"lon": -77.02429116666667, "bike_id": "2a5588e000d8192707bffd6ce748ec2e", "lat": 38.92038316666667, "fusion_lon": 0.0, "fusion_lat": 0.0, "type": "electric_scooter", "name": "2a5588e000d8192707bffd6ce748ec2e", "is_disabled": 0, "rental_uris": {"ios": "https://dc.lft.to/lastmile_qr_scan", "android": "https://dc.lft.to/lastmile_qr_scan"}, "is_reserved": 0}, {"lon": -77.0172745, "bike_id": "00a545b70e592512ccf686a181162325", "lat": 38.91680133333333, "fusion_lon": 0.0, "fusion_lat": 0.0, "type": "electric_scooter", "name": "00a545b70e592512ccf686a181162325", "is_disabled": 0, "rental_uris": {"ios": "https://dc.lft.to/lastmile_qr_scan", "android": "https://dc.lft.to/lastmile_qr_scan"}, "is_reserved": 0}, {"lon": -76.98988316666667, "bike_id": "90d746f9fb373bbc43781436da9e694c", "lat": 38.933636166666666, "fusion_lon": 0.0, "fusion_lat": 0.0, "type": "electric_scooter", "name": "90d746f9fb373bbc43781436da9e694c", "is_disabled": 0, "rental_uris": {"ios": "https://dc.lft.to/lastmile_qr_scan", "android": "https://dc.lft.to/lastmile_qr_scan"}, "is_reserved": 0}, {"lon": -77.0216285, "bike_id": "708b96e97719b15a07deae2d30bf85b2", "lat": 38.950738, "fusion_lon": 0.0, "fusion_lat": 0.0, "type": "electric_scooter", "name": "708b96e97719b15a07deae2d30bf85b2", "is_disabled": 0, "rental_uris": {"ios": "https://dc.lft.to/lastmile_qr_scan", "android": "https://dc.lft.to/lastmile_qr_scan"}, "is_reserved": 0}, {"lon": -76.98016516666667, "bike_id": "c3961322ac8dd6390e1edc5dd74d2da9", "lat": 38.85319333333333, "fusion_lon": 0.0, "fusion_lat": 0.0, "type": "electric_bike", "name": "c3961322ac8dd6390e1edc5dd74d2da9", "is_disabled": 0, "rental_uris": {"ios": "https://dc.lft.to/lastmile_qr_scan", "android": "https://dc.lft.to/lastmile_qr_scan"}, "is_reserved": 0}, {"lon": -77.01928, "bike_id": "c18f88a456eb4c3a7ea42223abe22651", "lat": 38.89240983333333, "fusion_lon": 0.0, "fusion_lat": 0.0, "type": "electric_scooter", "name": "c18f88a456eb4c3a7ea42223abe22651", "is_disabled": 0, "rental_uris": {"ios": "https://dc.lft.to/lastmile_qr_scan", "android": "https://dc.lft.to/lastmile_qr_scan"}, "is_reserved": 0}, {"lon": -77.00695516666667, "bike_id": "235e719f72dc8860ab22f9ff73d00bd2", "lat": 38.898971833333334, "fusion_lon": 0.0, "fusion_lat": 0.0, "type": "electric_scooter", "name": "235e719f72dc8860ab22f9ff73d00bd2", "is_disabled": 0, "rental_uris": {"ios": "https://dc.lft.to/lastmile_qr_scan", "android": "https://dc.lft.to/lastmile_qr_scan"}, "is_reserved": 0}, {"lon": -77.02013033333333, "bike_id": "b66132851533e8657850a4c1e8da1651", "lat": 38.92416816666667, "fusion_lon": 0.0, "fusion_lat": 0.0, "type": "electric_scooter", "name": "b66132851533e8657850a4c1e8da1651", "is_disabled": 0, "rental_uris": {"ios": "https://dc.lft.to/lastmile_qr_scan", "android": "https://dc.lft.to/lastmile_qr_scan"}, "is_reserved": 0}, {"lon": -77.029902, "bike_id": "6d575e3e808b55adad000a9c94c7ff52", "lat": 38.974376, "fusion_lon": 0.0, "fusion_lat": 0.0, "type": "electric_bike", "name": "6d575e3e808b55adad000a9c94c7ff52", "is_disabled": 0, "rental_uris": {"ios": "https://dc.lft.to/lastmile_qr_scan", "android": "https://dc.lft.to/lastmile_qr_scan"}, "is_reserved": 0}, {"lon": -77.02309983333333, "bike_id": "8cb0ec198394fb7e85f44c3fcfe2839f", "lat": 38.909576333333334, "fusion_lon": 0.0, "fusion_lat": 0.0, "type": "electric_scooter", "name": "8cb0ec198394fb7e85f44c3fcfe2839f", "is_disabled": 0, "rental_uris": {"ios": "https://dc.lft.to/lastmile_qr_scan", "android": "https://dc.lft.to/lastmile_qr_scan"}, "is_reserved": 0}, {"lon": -77.05858, "bike_id": "b44611a8b5bf0df810f3f5570bc36232", "lat": 38.9360515, "fusion_lon": 0.0, "fusion_lat": 0.0, "type": "electric_scooter", "name": "b44611a8b5bf0df810f3f5570bc36232", "is_disabled": 0, "rental_uris": {"ios": "https://dc.lft.to/lastmile_qr_scan", "android": "https://dc.lft.to/lastmile_qr_scan"}, "is_reserved": 0}, {"lon": -77.05017983333333, "bike_id": "76a4991cbde2d6d3a2ad6ed0503ccaaf", "lat": 38.89791533333333, "fusion_lon": 0.0, "fusion_lat": 0.0, "type": "electric_scooter", "name": "76a4991cbde2d6d3a2ad6ed0503ccaaf", "is_disabled": 0, "rental_uris": {"ios": "https://dc.lft.to/lastmile_qr_scan", "android": "https://dc.lft.to/lastmile_qr_scan"}, "is_reserved": 0}, {"lon": -77.05129083333334, "bike_id": "70f266615d977155dc98d2beebfe0b21", "lat": 38.9236045, "fusion_lon": 0.0, "fusion_lat": 0.0, "type": "electric_scooter", "name": "70f266615d977155dc98d2beebfe0b21", "is_disabled": 0, "rental_uris": {"ios": "https://dc.lft.to/lastmile_qr_scan", "android": "https://dc.lft.to/lastmile_qr_scan"}, "is_reserved": 0},