{"data": {"bikes": [{"rental_uris": {"ios": "https://dc.lft.to/lastmile_qr_scan", "android": "https://dc.lft.to/lastmile_qr_scan"}, "lon": -77.02697033333334, "type": "electric_scooter", "fusion_lat": 0.0, "lat": 38.9498455, "name": "db32a50ab263038dedcd995a25292e76", "fusion_lon": 0.0, "bike_id": "db32a50ab263038dedcd995a25292e76", "is_disabled": 0, "is_reserved": 0}, {"rental_uris": {"ios": "https://dc.lft.to/lastmile_qr_scan", "android": "https://dc.lft.to/lastmile_qr_scan"}, "lon": -76.92891316666666, "type": "electric_scooter", "fusion_lat": 0.0, "lat": 38.89331583333333, "name": "f86054d372c943664a79927d6990a862", "fusion_lon": 0.0, "bike_id": "f86054d372c943664a79927d6990a862", "is_disabled": 0, "is_reserved": 0}, {"rental_uris": {"ios": "https://dc.lft.to/lastmile_qr_scan", "android": "https://dc.lft.to/lastmile_qr_scan"}, "lon": -76.99688816666666, "type": "electric_scooter", "fusion_lat": 0.0, "lat": 38.900083, "name": "de02293df4a7d2a1de43d9711059a942", "fusion_lon": 0.0, "bike_id": "de02293df4a7d2a1de43d9711059a942", "is_disabled": 0, "is_reserved": 0}, {"rental_uris": {"ios": "https://dc.lft.to/lastmile_qr_scan", "android": "https://dc.lft.to/lastmile_qr_scan"}, "lon": -76.966234, "type": "electric_bike", "fusion_lat": 0.0, "lat": 38.94194066666667, "name": "6c006bb46488e7e5acf58e073d8a4439", "fusion_lon": 0.0, "bike_id": "6c006bb46488e7e5acf58e073d8a4439", "is_disabled": 0, "is_reserved": 0}, {"rental_uris": {"ios": "https://dc.lft.to/lastmile_qr_scan", "android": "https://dc.lft.to/lastmile_qr_scan"}, "lon": -77.03337266666666, "type": "electric_scooter", "fusion_lat": 0.0, "lat": 38.88530566666667, "name": "710785d3f99891a143b1a438d3d3efca", "fusion_lon": 0.0, "bike_id": "710785d3f99891a143b1a438d3d3efca", "is_disabled": 0, "is_reserved": 0}, {"rental_uris": {"ios": "https://dc.lft.to/lastmile_qr_scan", "android": "https://dc.lft.to/lastmile_qr_scan"}, "lon": -77.02063533333333, "type": "electric_scooter", "fusion_lat": 0.0, "lat": 38.874233333333336, "name": "1871a374397c4d17338d5b46ef904481", "fusion_lon": 0.0, "bike_id": "1871a374397c4d17338d5b46ef904481", "is_disabled": 0, "is_reserved": 0}, {"rental_uris": {"ios": "https://dc.lft.to/lastmile_qr_scan", "android": "https://dc.lft.to/lastmile_qr_scan"}, "lon": -77.0074555, "type": "electric_scooter", "fusion_lat": 0.0, "lat": 38.879312166666665, "name": "820fd40aeb91b55393070650c97e0451", "fusion_lon": 0.0, "bike_id": "820fd40aeb91b55393070650c97e0451", "is_disabled": 0, "is_reserved": 0}, {"rental_uris": {"ios": "https://dc.lft.to/lastmile_qr_scan", "android": "https://dc.lft.to/lastmile_qr_scan"}, "lon": -77.017553, "type": "electric_scooter", "fusion_lat": 0.0, "lat": 38.87691216666666, "name": "bf9343725aba357d9e36db665190eee4", "fusion_lon": 0.0, "bike_id": "bf9343725aba357d9e36db665190eee4", "is_disabled": 0, "is_reserved": 0}, {"rental_uris": {"ios": "https://dc.lft.to/lastmile_qr_scan", "android": "https://dc.lft.to/lastmile_qr_scan"}, "lon": -77.04215633333334, "type": "electric_scooter", "fusion_lat": 0.0, "lat": 38.9230745, "name": "4206f70c275bd15b938dc6d1a6ba375d", "fusion_lon": 0.0, "bike_id": "4206f70c275bd15b938dc6d1a6ba375d", "is_disabled": 0, "is_reserved": 0}, {"rental_uris": {"ios": "https://dc.lft.to/lastmile_qr_scan", "android": "https://dc.lft.to/lastmile_qr_scan"}, "lon": -77.0462305, "type": "electric_scooter", "fusion_lat": 0.0, "lat": 38.90394, "name": "bac2dd1cc53fbe0d36d5ddb0e2a0694d", "fusion_lon": 0.0, "bike_id": "bac2dd1cc53fbe0d36d5ddb0e2a0694d", "is_disabled": 0, "is_reserved": 0}, {"rental_uris": {"ios": "https://dc.lft.to/lastmile_qr_scan", "android": "https://dc.lft.to/lastmile_qr_scan"}, "lon": -77.028216, "type": "electric_scooter", "fusion_lat": 0.0, "lat": 38.9312675, "name": "0de3a7f7c8c33e7f7e0a71fecb6e83a8", "fusion_lon": 0.0, "bike_id": "0de3a7f7c8c33e7f7e0a71fecb6e83a8", "is_disabled": 0, "is_reserved": 0}, {"rental_uris": {"ios": "https://dc.lft.to/lastmile_qr_scan", "android": "https://dc.lft.to/lastmile_qr_scan"}, "lon": -76.91922266666667, "type": "electric_scooter", "fusion_lat": 0.0, "lat": 38.90044066666667, "name": "fca2dfaa57d5d0f20ec60db0aa7413d1", "fusion_lon": 0.0, "bike_id": "fca2dfaa57d5d0f20ec60db0aa7413d1", "is_disabled": 0, "is_reserved": 0}, {"rental_uris": {"ios": "https://dc.lft.to/lastmile_qr_scan", "android": "https://dc.lft.to/lastmile_qr_scan"}, "lon": -77.01968983333333, "type": "electric_scooter", "fusion_lat": 0.0, "lat": 38.9152715, "name": "966cac01eb338f818d3b53fc20bb20bd", "fusion_lon": 0.0, "bike_id": "966cac01eb338f818d3b53fc20bb20bd", "is_disabled": 0, "is_reserved": 0}, {"rental_uris": {"ios": "https://dc.lft.to/lastmile_qr_scan", "android": "https://dc.lft.to/lastmile_qr_scan"}, "lon": -76.93170333333333, "type": "electric_scooter", "fusion_lat": 0.0, "lat": 38.89891933333333, "name": "c2d0d2f5154aaae90f50bec204ad66fb", "fusion_lon": 0.0, "bike_id": "c2d0d2f5154aaae90f50bec204ad66fb", "is_disabled": 0, "is_reserved": 0}, {"rental_uris": {"ios": "https://dc.lft.to/lastmile_qr_scan", "android": "https://dc.lft.to/lastmile_qr_scan"}, "lon": -77.02431, "type": "electric_scooter", "fusion_lat": 0.0, "lat": 38.92649333333333, "name": "fc25da7574d8095384dbdd79f836b913", "fusion_lon": 0.0, "bike_id": "fc25da7574d8095384dbdd79f836b913", "is_disabled": 0, "is_reserved": 0}, {"rental_uris": {"ios": "https://dc.lft.to/lastmile_qr_scan", "android": "https://dc.lft.to/lastmile_qr_scan"}, "lon": -77.02588583333333, "type": "electric_scooter", "fusion_lat": 0.0, "lat": 38.92042433333334, "name": "6af346fde6bf3f3fcea50baefdf8dbec", "fusion_lon": 0.0, "bike_id": "6af346fde6bf3f3fcea50baefdf8dbec", "is_disabled": 0, "is_reserved": 0}, {"rental_uris": {"ios": "https://dc.lft.to/lastmile_qr_scan", "android": "https://dc.lft.to/lastmile_qr_scan"}, "lon": -77.031895, "type": "electric_scooter", "fusion_lat": 0.0, "lat": 38.917868666666664, "name": "3d2a789a5a0c81847ed00904c1187fce", "fusion_lon": 0.0, "bike_id": "3d2a789a5a0c81847ed00904c1187fce", "is_disabled": 0, "is_reserved": 0}, {"rental_uris": {"ios": "https://dc.lft.to/lastmile_qr_scan", "android": "https://dc.lft.to/lastmile_qr_scan"}, "lon": -77.028213, "type": "electric_scooter", "fusion_lat": 0.0, "lat": 38.916909, "name": "374ca0a705b49dc38ec6b2885135013d", "fusion_lon": 0.0, "bike_id": "374ca0a705b49dc38ec6b2885135013d", "is_disabled": 0, "is_reserved": 0}, {"rental_uris": {"ios": "https://dc.lft.to/lastmile_qr_scan", "android": "https://dc.lft.to/lastmile_qr_scan"}, "lon": -76.97316383333333, "type": "electric_bike", "fusion_lat": 0.0, "lat": 38.90326433333333, "name": "6243f365a62dadfb0f6b3bdd08f0562b", "fusion_lon": 0.0, "bike_id": "6243f365a62dadfb0f6b3bdd08f0562b", "is_disabled": 0, "is_reserved": 0}, {"rental_uris": {"ios": "https://dc.lft.to/lastmile_qr_scan", "android": "https://dc.lft.to/lastmile_qr_scan"}, "lon": -77.03893116666667, "type": "electric_scooter", "fusion_lat": 0.0, "lat": 38.932741166666666, "name": "9d67d955c912a02ee7683390fa1a20fe", "fusion_lon": 0.0, "bike_id": "9d67d955c912a02ee7683390fa1a20fe", "is_disabled": 0, "is_reserved": 0}, {"rental_uris": {"ios": "https://dc.lft.to/lastmile_qr_scan", "android": "https://dc.lft.to/lastmile_qr_scan"}, "lon": -76.98498883333333, "type": "electric_scooter", "fusion_lat": 0.0, "lat": 38.86050816666667, "name": "8f04199b77e3b914c3cd6a17a9fe2b0f", "fusion_lon": 0.0, "bike_id": "8f04199b77e3b914c3cd6a17a9fe2b0f", "is_disabled": 0, "is_reserved": 0}, {"rental_uris": {"ios": "https://dc.lft.to/lastmile_qr_scan", "android": "https://dc.lft.to/lastmile_qr_scan"}, "lon": -77.0037035, "type": "electric_scooter", "fusion_lat": 0.0, "lat": 38.907839, "name": "6f0c6e94f9f0aecdb7b872bfb9c68b57", "fusion_lon": 0.0, "bike_id": "6f0c6e94f9f0aecdb7b872bfb9c68b57", "is_disabled": 0, "is_reserved": 0}, {"rental_uris": {"ios": "https://dc.lft.to/lastmile_qr_scan", "android": "https://dc.lft.to/lastmile_qr_scan"}, "lon": -77.00098933333334, "type": "electric_scooter", "fusion_lat": 0.0, "lat": 38.9072245, "name": "c12643e9fb2fad804be4e2266d999de6", "fusion_lon": 0.0, "bike_id": "c12643e9fb2fad804be4e2266d999de6", "is_disabled": 0, "is_reserved": 0}, {"rental_uris": {"ios": "https://dc.lft.to/lastmile_qr_scan", "android": "https://dc.lft.to/lastmile_qr_scan"}, "lon": -77.00545666666666, "type": "electric_bike", "fusion_lat": 0.0, "lat": 38.8801465, "name": "70cbe7dc4e664b595c1bff97653d3103", "fusion_lon": 0.0, "bike_id": "70cbe7dc4e664b595c1bff97653d3103", "is_disabled": 0, "is_reserved": 0}, {"rental_uris": {"ios": "https://dc.lft.to/lastmile_qr_scan", "android": "https://dc.lft.to/lastmile_qr_scan"}, "lon": -77.01138733333333, "type": "electric_scooter", "fusion_lat": 0.0, "lat": 38.90643416666666, "name": "5965437058729ea38c6e5185b9a42c59", "fusion_lon": 0.0, "bike_id": "5965437058729ea38c6e5185b9a42c59", "is_disabled": 0, "is_reserved": 0}, {"rental_uris": {"ios": "https://dc.lft.to/lastmile_qr_scan", "android": "https://dc.lft.to/lastmile_qr_scan"}, "lon": -77.03707266666666, "type": "electric_scooter", "fusion_lat": 0.0, "lat": 38.928329, "name": "e8e2eae911350269508d81b429236b6b", "fusion_lon": 0.0, "bike_id": "e8e2eae911350269508d81b429236b6b", "is_disabled": 0, "is_reserved": 0}, {"rental_uris": {"ios": "https://dc.lft.to/lastmile_qr_scan", "android": "https://dc.lft.to/lastmile_qr_scan"}, "lon": -77.04535383333334, "type": "electric_scooter", "fusion_lat": 0.0, "lat": 38.91323933333334, "name": "cc7fb984dc9f1fdb631daf772a5d6137", "fusion_lon": 0.0, "bike_id": "cc7fb984dc9f1fdb631daf772a5d6137", "is_disabled": 0, "is_reserved": 0}, {"rental_uris": {"ios": "https://dc.lft.to/lastmile_qr_scan", "android": "https://dc.lft.to/lastmile_qr_scan"}, "lon": -77.02613616666666, "type": "electric_scooter", "fusion_lat": 0.0, "lat": 38.918511333333335, "name": "04471cf17e3466ebb40cddfd2a0cb6ee", "fusion_lon": 0.0, "bike_id": "04471cf17e3466ebb40cddfd2a0cb6ee", "is_disabled": 0, "is_reserved": 0}, {"rental_uris": {"ios": "https://dc.lft.to/lastmile_qr_scan", "android": "https://dc.lft.to/lastmile_qr_scan"}, "lon": -76.98741883333334, "type": "electric_bike", "fusion_lat": 0.0, "lat": 38.857903, "name": "f2395fde5b77a8d5eccd5325a542a9e1", "fusion_lon": 0.0, "bike_id": "f2395fde5b77a8d5eccd5325a542a9e1", "is_disabled": 0, "is_reserved": 0}, {"rental_uris": {"ios": "https://dc.lft.to/lastmile_qr_scan", "android": "https://dc.lft.to/lastmile_qr_scan"}, "lon": -76.99594516666667, "type": "electric_scooter", "fusion_lat": 0.0, "lat": 38.845475, "name": "69999874f633b30d15fafa81cc61eae4", "fusion_lon": 0.0, "bike_id": "69999874f633b30d15fafa81cc61eae4", "is_disabled": 0, "is_reserved": 0}, {"rental_uris": {"ios": "https://dc.lft.to/lastmile_qr_scan", "android": "https://dc.lft.to/lastmile_qr_scan"}, "lon": -76.97897233333333, "type": "electric_scooter", "fusion_lat": 0.0, "lat": 38.904153, "name": "d7733108a86e4e4e55b9e3ed43a12736", "fusion_lon": 0.0, "bike_id": "d7733108a86e4e4e55b9e3ed43a12736", "is_disabled": 0, "is_reserved": 0}, {"rental_uris": {"ios": "https://dc.lft.to/lastmile_qr_scan", "android": "https://dc.lft.to/lastmile_qr_scan"}, "lon": -77.1009275, "type": "electric_bike", "fusion_lat": 0.0, "lat": 38.95953766666667, "name": "35ed0c00c49e731575f8937f2d4b9622", "fusion_lon": 0.0, "bike_id": "35ed0c00c49e731575f8937f2d4b9622", "is_disabled": 0, "is_reserved": 0}, {"rental_uris": {"ios": "https://dc.lft.to/lastmile_qr_scan", "android": "https://dc.lft.to/lastmile_qr_scan"}, "lon": -77.0019385, "type": "electric_bike", "fusion_lat": 0.0, "lat": 38.91187933333333, "name": "579996f21e458b1551ba4f12159519c8", "fusion_lon": 0.0, "bike_id": "579996f21e458b1551ba4f12159519c8", "is_disabled": 0, "is_reserved": 0}, {"rental_uris": {"ios": "https://dc.lft.to/lastmile_qr_scan", "android": "https://dc.lft.to/lastmile_qr_scan"}, "lon": -77.03867083333333, "type": "electric_scooter", "fusion_lat": 0.0, "lat": 38.905109333333336, "name": "c5f53c74989d763e38f57c298c114491", "fusion_lon": 0.0, "bike_id": "c5f53c74989d763e38f57c298c114491", "is_disabled": 0, "is_reserved": 0}, {"rental_uris": {"ios": "https://dc.lft.to/lastmile_qr_scan", "android": "https://dc.lft.to/lastmile_qr_scan"}, "lon": -77.015312, "type": "electric_scooter", "fusion_lat": 0.0, "lat": 38.902095, "name": "c5de29718bb21a1122245d8379108aa3", "fusion_lon": 0.0, "bike_id": "c5de29718bb21a1122245d8379108aa3", "is_disabled": 0, "is_reserved": 0}, {"rental_uris": {"ios": "https://dc.lft.to/lastmile_qr_scan", "android": "https://dc.lft.to/lastmile_qr_scan"}, "lon": -77.01820733333334, "type": "electric_scooter", "fusion_lat": 0.0, "lat": 38.90111483333333, "name": "0f4d186ad00177978036d21bcabfa341", "fusion_lon": 0.0, "bike_id": "0f4d186ad00177978036d21bcabfa341", "is_disabled": 0, "is_reserved": 0}, {"rental_uris": {"ios": "https://dc.lft.to/lastmile_qr_scan", "android": "https://dc.lft.to/lastmile_qr_scan"}, "lon": -76.98011083333333, "type": "electric_bike", "fusion_lat": 0.0, "lat": 38.853333, "name": "da21ee8c4521ef0329dcb2b589ba9237", "fusion_lon": 0.0, "bike_id": "da21ee8c4521ef0329dcb2b589ba9237", "is_disabled": 0, "is_reserved": 0}, {"rental_uris": {"ios": "https://dc.lft.to/lastmile_qr_scan", "android": "https://dc.lft.to/lastmile_qr_scan"}, "lon": -77.03508266666667, "type": "electric_scooter", "fusion_lat": 0.0, "lat": 38.931082833333335, "name": "04363c8b97a1d6f127733855e054347c", "fusion_lon": 0.0, "bike_id": "04363c8b97a1d6f127733855e054347c", "is_disabled": 0, "is_reserved": 0}, {"rental_uris": {"ios": "https://dc.lft.to/lastmile_qr_scan", "android": "https://dc.lft.to/lastmile_qr_scan"}, "lon": -77.0493145, "type": "electric_scooter", "fusion_lat": 0.0, "lat": 38.90894183333333, "name": "3049c4585b80f235de472b1a015dbadd", "fusion_lon": 0.0, "bike_id": "3049c4585b80f235de472b1a015dbadd", "is_disabled": 0, "is_reserved": 0}, {"rental_uris": {"ios": "https://dc.lft.to/lastmile_qr_scan", "android": "https://dc.lft.to/lastmile_qr_scan"}, "lon": -77.025838, "type": "electric_scooter", "fusion_lat": 0.0, "lat": 38.9181555, "name": "2b53e7ab7ea9e69efc421cac8b682344", "fusion_lon": 0.0, "bike_id": "2b53e7ab7ea9e69efc421cac8b682344", "is_disabled": 0, "is_reserved": 0}, {"rental_uris": {"ios": "https://dc.lft.to/lastmile_qr_scan", "android": "https://dc.lft.to/lastmile_qr_scan"}, "lon": -77.03636416666667, "type": "electric_scooter", "fusion_lat": 0.0, "lat": 38.93677783333333, "name": "4c900eb7a8b829a424b50de5ed4882de", "fusion_lon": 0.0, "bike_id": "4c900eb7a8b829a424b50de5ed4882de", "is_disabled": 0, "is_reserved": 0}, {"rental_uris": {"ios": "https://dc.lft.to/lastmile_qr_scan", "android": "https://dc.lft.to/lastmile_qr_scan"}, "lon": -76.99865683333333, "type": "electric_scooter", "fusion_lat": 0.0, "lat": 38.90034833333333, "name": "5d4a2596a0287f0b6af48ad9cea3094f", "fusion_lon": 0.0, "bike_id": "5d4a2596a0287f0b6af48ad9cea3094f", "is_disabled": 0, "is_reserved": 0}, {"rental_uris": {"ios": "https://dc.lft.to/lastmile_qr_scan", "android": "https://dc.lft.to/lastmile_qr_scan"}, "lon": -77.068833, "type": "electric_scooter", "fusion_lat": 0.0, "lat": 38.9051485, "name": "133b09ed3ede3baa2461ba9ea42f3142", "fusion_lon": 0.0, "bike_id": "133b09ed3ede3baa2461ba9ea42f3142", "is_disabled": 0, "is_reserved": 0}, {"rental_uris": {"ios": "https://dc.lft.to/lastmile_qr_scan", "android": "https://dc.lft.to/lastmile_qr_scan"}, "lon": -77.00804333333333, "type": "electric_scooter", "fusion_lat": 0.0, "lat": 38.907312, "name": "6d5535200480275f62291c1dc1e67298", "fusion_lon": 0.0, "bike_id": "6d5535200480275f62291c1dc1e67298", "is_disabled": 0, "is_reserved": 0}, {"rental_uris": {"ios": "https://dc.lft.to/lastmile_qr_scan", "android": "https://dc.lft.to/lastmile_qr_scan"}, "lon": -77.03438733333333, "type": "electric_scooter", "fusion_lat": 0.0, "lat": 38.905463166666664, "name": "436df2fca5c87c6c2d3ff380d4eee456", "fusion_lon": 0.0, "bike_id": "436df2fca5c87c6c2d3ff380d4eee456", "is_disabled": 0, "is_reserved": 0}, {"rental_uris": {"ios": "https://dc.lft.to/lastmile_qr_scan", "android": "https://dc.lft.to/lastmile_qr_scan"}, "lon": -77.0118055, "type": "electric_scooter", "fusion_lat": 0.0, "lat": 38.893747, "name": "07242cfebfb64baf4e7487fc8ab5b240", "fusion_lon": 0.0, "bike_id": "07242cfebfb64baf4e7487fc8ab5b240", "is_disabled": 0, "is_reserved": 0}, {"rental_uris": {"ios": "https://dc.lft.to/lastmile_qr_scan", "android": "https://dc.lft.to/lastmile_qr_scan"}, "lon": -77.0265535, "type": "electric_scooter", "fusion_lat": 0.0, "lat": 38.917019, "name": "782ed31455a9e456439a8ba5c4827b94", "fusion_lon": 0.0, "bike_id": "782ed31455a9e456439a8ba5c4827b94", "is_disabled": 0, "is_reserved": 0}, {"rental_uris": {"ios": "https://dc.lft.to/lastmile_qr_scan", "android": "https://dc.lft.to/lastmile_qr_scan"}, "lon": -77.01203866666667, "type": "electric_scooter", "fusion_lat": 0.0, "lat": 38.90027766666667, "name": "6f70e659f588914ecb3b64d416954414", "fusion_lon": 0.0, "bike_id": "6f70e659f588914ecb3b64d416954414", "is_disabled": 0, "is_reserved": 0}, {"rental_uris": {"ios": "https://dc.lft.to/lastmile_qr_scan", "android": "https://dc.lft.to/lastmile_qr_scan"}, "lon": -77.0318345, "type": "electric_scooter", "fusion_lat": 0.0, "lat": 38.9132665, "name": "8c2b6a29e893c2ba54235a3192754377", "fusion_lon": 0.0, "bike_id": "8c2b6a29e893c2ba54235a3192754377", "is_disabled": 0, "is_reserved": 0}, {"rental_uris": {"ios": "https://dc.lft.to/lastmile_qr_scan", "android": "https://dc.lft.to/lastmile_qr_scan"}, "lon": -77.0217225, "type": "electric_scooter", "fusion_lat": 0.0, "lat": 38.90200633333333, "name": "91507739cc138cb882e28e48e3810995", "fusion_lon": 0.0, "bike_id": "91507739cc138cb882e28e48e3810995", "is_disabled": 0, "is_reserved": 0}, {"rental_uris": {"ios": "https://dc.lft.to/lastmile_qr_scan", "android": "https://dc.lft.to/lastmile_qr_scan"}, "lon": -77.02966583333334, "type": "electric_bike", "fusion_lat": 0.0, "lat": 38.904916166666666, "name": "e8f468ee0e623a92b4e61e7a21362722", "fusion_lon": 0.0, "bike_id": "e8f468ee0e623a92b4e61e7a21362722", "is_disabled": 0, "is_reserved": 0}, {"rental_uris": {"ios": "https://dc.lft.to/lastmile_qr_scan", "android": "https://dc.lft.to/lastmile_qr_scan"}, "lon": -77.03934583333333, "type": "electric_scooter", "fusion_lat": 0.0, "lat": 38.90259533333333, "name": "6e18793553623a801f7d051458cdaab6", "fusion_lon": 0.0, "bike_id": "6e18793553623a801f7d051458cdaab6", "is_disabled": 0, "is_reserved": 0}, {"rental_uris": {"ios": "https://dc.lft.to/lastmile_qr_scan", "android": "https://dc.lft.to/lastmile_qr_scan"}, "lon": -76.988825, "type": "electric_scooter", "fusion_lat": 0.0, "lat": 38.866619, "name": "61faed9350931a54f1444cbe3e712804", "fusion_lon": 0.0, "bike_id": "61faed9350931a54f1444cbe3e712804", "is_disabled": 0, "is_reserved": 0}, {"rental_uris": {"ios": "https://dc.lft.to/lastmile_qr_scan", "android": "https://dc.lft.to/lastmile_qr_scan"}, "lon": -77.0854205, "type": "electric_bike", "fusion_lat": 0.0, "lat": 38.856243, "name": "ff80cace199c27690bb7cbb42b8cdfc8", "fusion_lon": 0.0, "bike_id": "ff80cace199c27690bb7cbb42b8cdfc8", "is_disabled": 0, "is_reserved": 0}, {"rental_uris": {"ios": "https://dc.lft.to/lastmile_qr_scan", "android": "https://dc.lft.to/lastmile_qr_scan"}, "lon": -77.0626675, "type": "electric_scooter", "fusion_lat": 0.0, "lat": 38.905409666666664, "name": "d320af87ae85bb4109c21e098c9559e6", "fusion_lon": 0.0, "bike_id": "d320af87ae85bb4109c21e098c9559e6", "is_disabled": 0, "is_reserved": 0}, {"rental_uris": {"ios": "https://dc.lft.to/lastmile_qr_scan", "android": "https://dc.lft.to/lastmile_qr_scan"}, "lon": -77.0297295, "type": "electric_scooter", "fusion_lat": 0.0, "lat": 38.905206166666666, "name": "e6a3b1132d7d19014ca75b0d29690ed5", "fusion_lon": 0.0, "bike_id": "e6a3b1132d7d19014ca75b0d29690ed5", "is_disabled": 0, "is_reserved": 0}, {"rental_uris": {"ios": "https://dc.lft.to/lastmile_qr_scan", "android": "https://dc.lft.to/lastmile_qr_scan"}, "lon": -77.03630366666667, "type": "electric_scooter", "fusion_lat": 0.0, "lat": 38.926501333333334, "name": "13423bd92c3714e52c4253f71cf2eecf", "fusion_lon": 0.0, "bike_id": "13423bd92c3714e52c4253f71cf2eecf", "is_disabled": 0, "is_reserved": 0}, {"rental_uris": {"ios": "https://dc.lft.to/lastmile_qr_scan", "android": "https://dc.lft.to/lastmile_qr_scan"}, "lon": -77.02542883333334, "type": "electric_scooter", "fusion_lat": 0.0, "lat": 38.935039833333335, "name": "00714f249c62900947d0cff316d0a786", "fusion_lon": 0.0, "bike_id": "00714f249c62900947d0cff316d0a786", "is_disabled": 0, "is_reserved": 0}, {"rental_uris": {"ios": "https://dc.lft.to/lastmile_qr_scan", "android": "https://dc.lft.to/lastmile_qr_scan"}, "lon": -77.01970283333333, "type": "electric_scooter", "fusion_lat": 0.0, "lat": 38.91528616666667, "name": "48b70866e031c3abf434e1df783d6a39", "fusion_lon": 0.0, "bike_id": "48b70866e031c3abf434e1df783d6a39", "is_disabled": 0, "is_reserved": 0}, {"rental_uris": {"ios": "https://dc.lft.to/lastmile_qr_scan", "android": "https://dc.lft.to/lastmile_qr_scan"}, "lon": -77.04671683333333, "type": "electric_scooter", "fusion_lat": 0.0, "lat": 38.9048985, "name": "3cee9535168406b6c417465e258701b5", "fusion_lon": 0.0, "bike_id": "3cee9535168406b6c417465e258701b5", "is_disabled": 0, "is_reserved": 0}, {"rental_uris": {"ios": "https://dc.lft.to/lastmile_qr_scan", "android": "https://dc.lft.to/lastmile_qr_scan"}, "lon": -77.00435216666666, "type": "electric_scooter", "fusion_lat": 0.0, "lat": 38.90399, "name": "5d38686b36ad543619cc2cc37691803e", "fusion_lon": 0.0, "bike_id": "5d38686b36ad543619cc2cc37691803e", "is_disabled": 0, "is_reserved": 0}, {"rental_uris": {"ios": "https://dc.lft.to/lastmile_qr_scan", "android": "https://dc.lft.to/lastmile_qr_scan"}, "lon": -77.03301316666666, "type": "electric_scooter", "fusion_lat": 0.0, "lat": 38.89840266666667, "name": "44774acf79077be69ff51dd9432ba5c8", "fusion_lon": 0.0, "bike_id": "44774acf79077be69ff51dd9432ba5c8", "is_disabled": 0, "is_reserved": 0}, {"rental_uris": {"ios": "https://dc.lft.to/lastmile_qr_scan", "android": "https://dc.lft.to/lastmile_qr_scan"}, "lon": -77.02627183333334, "type": "electric_scooter", "fusion_lat": 0.0, "lat": 38.896869333333335, "name": "5418595cd0716f21601e73c1f2523fab", "fusion_lon": 0.0, "bike_id": "5418595cd0716f21601e73c1f2523fab", "is_disabled": 0, "is_reserved": 0}, {"rental_uris": {"ios": "https://dc.lft.to/lastmile_qr_scan", "android": "https://dc.lft.to/lastmile_qr_scan"}, "lon": -77.03206783333333, "type": "electric_scooter", "fusion_lat": 0.0, "lat": 38.920534, "name": "381ff6c874d775ed7e0074d88b40932b", "fusion_lon": 0.0, "bike_id": "381ff6c874d775ed7e0074d88b40932b", "is_disabled": 0, "is_reserved": 0}, {"rental_uris": {"ios": "https://dc.lft.to/lastmile_qr_scan", "android": "https://dc.lft.to/lastmile_qr_scan"}, "lon": -77.04733, "type": "electric_scooter", "fusion_lat": 0.0, "lat": 38.905444833333334, "name": "a26a04c419f899aa852b21d3f07f5f7f", "fusion_lon": 0.0, "bike_id": "a26a04c419f899aa852b21d3f07f5f7f", "is_disabled": 0, "is_reserved": 0}, {"rental_uris": {"ios": "https://dc.lft.to/lastmile_qr_scan", "android": "https://dc.lft.to/lastmile_qr_scan"}, "lon": -76.96506916666667, "type": "electric_scooter", "fusion_lat": 0.0, "lat": 38.876496, "name": "fa87328a97e299cf10e1ad2690d3ebf3", "fusion_lon": 0.0, "bike_id": "fa87328a97e299cf10e1ad2690d3ebf3", "is_disabled": 0, "is_reserved": 0}, {"rental_uris": {"ios": "https://dc.lft.to/lastmile_qr_scan", "android": "https://dc.lft.to/lastmile_qr_scan"}, "lon": -77.03212466666666, "type": "electric_scooter", "fusion_lat": 0.0, "lat": 38.930543166666666, "name": "31cdf03370911b268c6769358881fe3c", "fusion_lon": 0.0, "bike_id": "31cdf03370911b268c6769358881fe3c", "is_disabled": 0, "is_reserved": 0}, {"rental_uris": {"ios": "https://dc.lft.to/lastmile_qr_scan", "android": "https://dc.lft.to/lastmile_qr_scan"}, "lon": -77.02693966666666, "type": "electric_scooter", "fusion_lat": 0.0, "lat": 38.90844416666667, "name": "3e2c9a28224faa6661528421050360e8", "fusion_lon": 0.0, "bike_id": "3e2c9a28224faa6661528421050360e8", "is_disabled": 0, "is_reserved": 0}, {"rental_uris": {"ios": "https://dc.lft.to/lastmile_qr_scan", "android": "https://dc.lft.to/lastmile_qr_scan"}, "lon": -77.021665, "type": "electric_scooter", "fusion_lat": 0.0, "lat": 38.902212666666664, "name": "57dabf10a3c04a553131f7a2355f51d1", "fusion_lon": 0.0, "bike_id": "57dabf10a3c04a553131f7a2355f51d1", "is_disabled": 0, "is_reserved": 0}, {"rental_uris": {"ios": "https://dc.lft.to/lastmile_qr_scan", "android": "https://dc.lft.to/lastmile_qr_scan"}, "lon": -77.0216365, "type": "electric_scooter", "fusion_lat": 0.0, "lat": 38.924955833333335, "name": "ae8641bf581bdf23f6e2605ddefa6d6f", "fusion_lon": 0.0, "bike_id": "ae8641bf581bdf23f6e2605ddefa6d6f", "is_disabled": 0, "is_reserved": 0}, {"rental_uris": {"ios": "https://dc.lft.to/lastmile_qr_scan", "android": "https://dc.lft.to/lastmile_qr_scan"}, "lon": -77.1121735, "type": "electric_bike", "fusion_lat": 0.0, "lat": 38.82880516666667, "name": "708fd3a3edde4637cb258821baecc82e", "fusion_lon": 0.0, "bike_id": "708fd3a3edde4637cb258821baecc82e", "is_disabled": 0, "is_reserved": 0}, {"rental_uris": {"ios": "https://dc.lft.to/lastmile_qr_scan", "android": "https://dc.lft.to/lastmile_qr_scan"}, "lon": -76.874963, "type": "electric_bike", "fusion_lat": 0.0, "lat": 38.99092533333334, "name": "617f94edcf7ed2da6a521ddfbd55a4dd", "fusion_lon": 0.0, "bike_id": "617f94edcf7ed2da6a521ddfbd55a4dd", "is_disabled": 0, "is_reserved": 0}, {"rental_uris": {"ios": "https://dc.lft.to/lastmile_qr_scan", "android": "https://dc.lft.to/lastmile_qr_scan"}, "lon": -77.057089, "type": "electric_scooter", "fusion_lat": 0.0, "lat": 38.899723333333334, "name": "82f0778877d343a79dc52e443beccf11", "fusion_lon": 0.0, "bike_id": "82f0778877d343a79dc52e443beccf11", "is_disabled": 0, "is_reserved": 0}, {"rental_uris": {"ios": "https://dc.lft.to/lastmile_qr_scan", "android": "https://dc.lft.to/lastmile_qr_scan"}, "lon": -77.03448966666667, "type": "electric_scooter", "fusion_lat": 0.0, "lat": 38.91798683333333, "name": "b7e464993295ad00e1430effb9645049", "fusion_lon": 0.0, "bike_id": "b7e464993295ad00e1430effb9645049", "is_disabled": 0, "is_reserved": 0}, {"rental_uris": {"ios": "https://dc.lft.to/lastmile_qr_scan", "android": "https://dc.lft.to/lastmile_qr_scan"}, "lon": -77.012711, "type": "electric_scooter", "fusion_lat": 0.0, "lat": 38.87563166666666, "name": "88b9bea88fa5b3df6fcb983bbecf6278", "fusion_lon": 0.0, "bike_id": "88b9bea88fa5b3df6fcb983bbecf6278", "is_disabled": 0, "is_reserved": 0}, {"rental_uris": {"ios": "https://dc.lft.to/lastmile_qr_scan", "android": "https://dc.lft.to/lastmile_qr_scan"}, "lon": -77.039961, "type": "electric_scooter", "fusion_lat": 0.0, "lat": 38.91804466666667, "name": "a55a5a422a68a9ee9b718930f6694616", "fusion_lon": 0.0, "bike_id": "a55a5a422a68a9ee9b718930f6694616", "is_disabled": 0, "is_reserved": 0}, {"rental_uris": {"ios": "https://dc.lft.to/lastmile_qr_scan", "android": "https://dc.lft.to/lastmile_qr_scan"}, "lon": -77.0730905, "type": "electric_scooter", "fusion_lat": 0.0, "lat": 38.9363155, "name": "445a5aff2effe78a86fa20a6e74d0c70", "fusion_lon": 0.0, "bike_id": "445a5aff2effe78a86fa20a6e74d0c70", "is_disabled": 0, "is_reserved": 0}, {"rental_uris": {"ios": "https://dc.lft.to/lastmile_qr_scan", "android": "https://dc.lft.to/lastmile_qr_scan"}, "lon": -77.01933966666667, "type": "electric_scooter", "fusion_lat": 0.0, "lat": 38.8839855, "name": "45484c3ed0298ed9663bb66425852d2f", "fusion_lon": 0.0, "bike_id": "45484c3ed0298ed9663bb66425852d2f", "is_disabled": 0, "is_reserved": 0}, {"rental_uris": {"ios": "https://dc.lft.to/lastmile_qr_scan", "android": "https://dc.lft.to/lastmile_qr_scan"}, "lon": -77.008143, "type": "electric_scooter", "fusion_lat": 0.0, "lat": 38.876498833333336, "name": "c0903ce61094e7c809bae2d6c218f4f8", "fusion_lon": 0.0, "bike_id": "c0903ce61094e7c809bae2d6c218f4f8", "is_disabled": 0, "is_reserved": 0}, {"rental_uris": {"ios": "https://dc.lft.to/lastmile_qr_scan", "android": "https://dc.lft.to/lastmile_qr_scan"}, "lon": -77.01577383333333, "type": "electric_scooter", "fusion_lat": 0.0, "lat": 38.876563166666664, "name": "a45dbe0fbd644c78325b339cc98b563a", "fusion_lon": 0.0, "bike_id": "a45dbe0fbd644c78325b339cc98b563a", "is_disabled": 0, "is_reserved": 0}, {"rental_uris": {"ios": "https://dc.lft.to/lastmile_qr_scan", "android": "https://dc.lft.to/lastmile_qr_scan"}, "lon": -77.02218583333334, "type": "electric_scooter", "fusion_lat": 0.0, "lat": 38.90577433333333, "name": "fe3c15ff96f76c704352f33f8b62d38a", "fusion_lon": 0.0, "bike_id": "fe3c15ff96f76c704352f33f8b62d38a", "is_disabled": 0, "is_reserved": 0}, {"rental_uris": {"ios": "https://dc.lft.to/lastmile_qr_scan", "android": "https://dc.lft.to/lastmile_qr_scan"}, "lon": -77.020029, "type": "electric_scooter", "fusion_lat": 0.0, "lat": 38.897474833333334, "name": "e4f2f8372337c57df4e1ba2d15051cba", "fusion_lon": 0.0, "bike_id": "e4f2f8372337c57df4e1ba2d15051cba", "is_disabled": 0, "is_reserved": 0}, {"rental_uris": {"ios": "https://dc.lft.to/lastmile_qr_scan", "android": "https://dc.lft.to/lastmile_qr_scan"}, "lon": -77.03067083333333, "type": "electric_scooter", "fusion_lat": 0.0, "lat": 38.8948055, "name": "18d646e22d933cb9c766ad3bae63ce95", "fusion_lon": 0.0, "bike_id": "18d646e22d933cb9c766ad3bae63ce95", "is_disabled": 0, "is_reserved": 0}, {"rental_uris": {"ios": "https://dc.lft.to/lastmile_qr_scan", "android": "https://dc.lft.to/lastmile_qr_scan"}, "lon": -77.013773, "type": "electric_scooter", "fusion_lat": 0.0, "lat": 38.86962533333333, "name": "2c19e8834de6a10c373779154e6b2d26", "fusion_lon": 0.0, "bike_id": "2c19e8834de6a10c373779154e6b2d26", "is_disabled": 0, "is_reserved": 0}, {"rental_uris": {"ios": "https://dc.lft.to/lastmile_qr_scan", "android": "https://dc.lft.to/lastmile_qr_scan"}, "lon": -77.01825683333334, "type": "electric_scooter", "fusion_lat": 0.0, "lat": 38.929779833333335, "name": "0384a313425d1f555146fda69d7ee119", "fusion_lon": 0.0, "bike_id": "0384a313425d1f555146fda69d7ee119", "is_disabled": 0, "is_reserved": 0}, {"rental_uris": {"ios": "https://dc.lft.to/lastmile_qr_scan", "android": "https://dc.lft.to/lastmile_qr_scan"}, "lon": -76.98999633333334, "type": "electric_scooter", "fusion_lat": 0.0, "lat": 38.86503733333333, "name": "598a0d4f19e11b8043e4d446238840b5", "fusion_lon": 0.0, "bike_id": "598a0d4f19e11b8043e4d446238840b5", "is_disabled": 0, "is_reserved": 0}, {"rental_uris": {"ios": "https://dc.lft.to/lastmile_qr_scan", "android": "https://dc.lft.to/lastmile_qr_scan"}, "lon": -77.0296735, "type": "electric_scooter", "fusion_lat": 0.0, "lat": 38.923198, "name": "7140fe533fccd4f83845830bc690943a", "fusion_lon": 0.0, "bike_id": "7140fe533fccd4f83845830bc690943a", "is_disabled": 0, "is_reserved": 0}, {"rental_uris": {"ios": "https://dc.lft.to/lastmile_qr_scan", "android": "https://dc.lft.to/lastmile_qr_scan"}, "lon": -77.03254766666667, "type": "electric_scooter", "fusion_lat": 0.0, "lat": 38.938788, "name": "8572224eb3fbf073bd89232e079de13c", "fusion_lon": 0.0, "bike_id": "8572224eb3fbf073bd89232e079de13c", "is_disabled": 0, "is_reserved": 0}, {"rental_uris": {"ios": "https://dc.lft.to/lastmile_qr_scan", "android": "https://dc.lft.to/lastmile_qr_scan"}, "lon": -77.03261933333333, "type": "electric_scooter", "fusion_lat": 0.0, "lat": 38.93524933333333, "name": "e2c91c96a8f80d8dd0fe54f6194d2dd2", "fusion_lon": 0.0, "bike_id": "e2c91c96a8f80d8dd0fe54f6194d2dd2", "is_disabled": 0, "is_reserved": 0}, {"rental_uris": {"ios": "https://dc.lft.to/lastmile_qr_scan", "android": "https://dc.lft.to/lastmile_qr_scan"}, "lon": -77.02602433333334, "type": "electric_scooter", "fusion_lat": 0.0, "lat": 38.925846166666666, "name": "955dbc2b455a05a3aa846bb2217a79ee", "fusion_lon": 0.0, "bike_id": "955dbc2b455a05a3aa846bb2217a79ee", "is_disabled": 0, "is_reserved": 0}, {"rental_uris": {"ios": "https://dc.lft.to/lastmile_qr_scan", "android": "https://dc.lft.to/lastmile_qr_scan"}, "lon": -77.0163115, "type": "electric_scooter", "fusion_lat": 0.0, "lat": 38.965647833333335, "name": "90c9563672e885765e7e0d2121e7ef81", "fusion_lon": 0.0, "bike_id": "90c9563672e885765e7e0d2121e7ef81", "is_disabled": 0, "is_reserved": 0}, {"rental_uris": {"ios": "https://dc.lft.to/lastmile_qr_scan", "android": "https://dc.lft.to/lastmile_qr_scan"}, "lon": -76.99032433333333, "type": "electric_scooter", "fusion_lat": 0.0, "lat": 38.85870233333333, "name": "200270234d727fa53e33fd2cc555f913", "fusion_lon": 0.0, "bike_id": "200270234d727fa53e33fd2cc555f913", "is_disabled": 0, "is_reserved": 0}, {"rental_uris": {"ios": "https://dc.lft.to/lastmile_qr_scan", "android": "https://dc.lft.to/lastmile_qr_scan"}, "lon": -76.976118, "type": "electric_bike", "fusion_lat": 0.0, "lat": 38.91308933333333, "name": "adbed35021f8a90656e8a6e6906fa313", "fusion_lon": 0.0, "bike_id": "adbed35021f8a90656e8a6e6906fa313", "is_disabled": 0, "is_reserved": 0}, {"rental_uris": {"ios": "https://dc.lft.to/lastmile_qr_scan", "android": "https://dc.lft.to/lastmile_qr_scan"}, "lon": -77.0414765, "type": "electric_scooter", "fusion_lat": 0.0, "lat": 38.907544, "name": "815ebee8c2740a808fc1eec991805ba4", "fusion_lon": 0.0, "bike_id": "815ebee8c2740a808fc1eec991805ba4", "is_disabled": 0, "is_reserved": 0}, {"rental_uris": {"ios": "https://dc.lft.to/lastmile_qr_scan", "android": "https://dc.lft.to/lastmile_qr_scan"}, "lon": -77.01714933333334, "type": "electric_scooter", "fusion_lat": 0.0, "lat": 38.90971533333333, "name": "c64aac128e5df539e95329ca7010e5de", "fusion_lon": 0.0, "bike_id": "c64aac128e5df539e95329ca7010e5de", "is_disabled": 0, "is_reserved": 0}, {"rental_uris": {"ios": "https://dc.lft.to/lastmile_qr_scan", "android": "https://dc.lft.to/lastmile_qr_scan"}, "lon": -76.987155, "type": "electric_scooter", "fusion_lat": 0.0, "lat": 38.86272266666667, "name": "75b2c3036d241c60c404617fda48710d", "fusion_lon": 0.0, "bike_id": "75b2c3036d241c60c404617fda48710d", "is_disabled": 0, "is_reserved": 0}, {"rental_uris": {"ios": "https://dc.lft.to/lastmile_qr_scan", "android": "https://dc.lft.to/lastmile_qr_scan"}, "lon": -77.01012366666667, "type": "electric_scooter", "fusion_lat": 0.0, "lat": 38.89488016666667, "name": "2002e0593d5e93780e79ca372968d2eb", "fusion_lon": 0.0, "bike_id": "2002e0593d5e93780e79ca372968d2eb", "is_disabled": 0, "is_reserved": 0}, {"rental_uris": {"ios": "https://dc.lft.to/lastmile_qr_scan", "android": "https://dc.lft.to/lastmile_qr_scan"}, "lon": -77.03128166666667, "type": "electric_scooter", "fusion_lat": 0.0, "lat": 38.90447266666666, "name": "60b06835565f5ef3e3acf61c56bf4002", "fusion_lon": 0.0, "bike_id": "60b06835565f5ef3e3acf61c56bf4002", "is_disabled": 0, "is_reserved": 0}, {"rental_uris": {"ios": "https://dc.lft.to/lastmile_qr_scan", "android": "https://dc.lft.to/lastmile_qr_scan"}, "lon": -77.02596483333333, "type": "electric_scooter", "fusion_lat": 0.0, "lat": 38.908429166666664, "name": "00bc279720956a94228548681784296e", "fusion_lon": 0.0, "bike_id": "00bc279720956a94228548681784296e", "is_disabled": 0, "is_reserved": 0}, {"rental_uris": {"ios": "https://dc.lft.to/lastmile_qr_scan", "android": "https://dc.lft.to/lastmile_qr_scan"}, "lon": -77.112625, "type": "electric_bike", "fusion_lat": 0.0, "lat": 38.844355666666665, "name": "43d8acd138de25497a99860af1371e74", "fusion_lon": 0.0, "bike_id": "43d8acd138de25497a99860af1371e74", "is_disabled": 0, "is_reserved": 0}, {"rental_uris": {"ios": "https://dc.lft.to/lastmile_qr_scan", "android": "https://dc.lft.to/lastmile_qr_scan"}, "lon": -77.0288835, "type": "electric_scooter", "fusion_lat": 0.0, "lat": 38.91722733333334, "name": "32949d0483f9fd4732b948bd57dd8e62", "fusion_lon": 0.0, "bike_id": "32949d0483f9fd4732b948bd57dd8e62", "is_disabled": 0, "is_reserved": 0}, {"rental_uris": {"ios": "https://dc.lft.to/lastmile_qr_scan", "android": "https://dc.lft.to/lastmile_qr_scan"}, "lon": -77.10754533333333, "type": "electric_bike", "fusion_lat": 0.0, "lat": 38.8862025, "name": "afbbc442eae0b6a8f1edc07f01d55134", "fusion_lon": 0.0, "bike_id": "afbbc442eae0b6a8f1edc07f01d55134", "is_disabled": 0, "is_reserved": 0}, {"rental_uris": {"ios": "https://dc.lft.to/lastmile_qr_scan", "android": "https://dc.lft.to/lastmile_qr_scan"}, "lon": -77.135971, "type": "electric_bike", "fusion_lat": 0.0, "lat": 39.05347066666667, "name": "85b6fb0f1a28c65a42fb58851b35a015", "fusion_lon": 0.0, "bike_id": "85b6fb0f1a28c65a42fb58851b35a015", "is_disabled": 0, "is_reserved": 0}, {"rental_uris": {"ios": "https://dc.lft.to/lastmile_qr_scan", "android": "https://dc.lft.to/lastmile_qr_scan"}, "lon": -77.07867883333333, "type": "electric_scooter", "fusion_lat": 0.0, "lat": 38.9315585, "name": "7f29990d80a1ec701d3cc0e005cad1dd", "fusion_lon": 0.0, "bike_id": "7f29990d80a1ec701d3cc0e005cad1dd", "is_disabled": 0, "is_reserved": 0}, {"rental_uris": {"ios": "https://dc.lft.to/lastmile_qr_scan", "android": "https://dc.lft.to/lastmile_qr_scan"}, "lon": -76.99489966666667, "type": "electric_scooter", "fusion_lat": 0.0, "lat": 38.92580016666667, "name": "cef6da9b932136a8daef387d8b41071c", "fusion_lon": 0.0, "bike_id": "cef6da9b932136a8daef387d8b41071c", "is_disabled": 0, "is_reserved": 0}, {"rental_uris": {"ios": "https://dc.lft.to/lastmile_qr_scan", "android": "https://dc.lft.to/lastmile_qr_scan"}, "lon": -77.03398966666667, "type": "electric_scooter", "fusion_lat": 0.0, "lat": 38.919255166666666, "name": "4706f28f7a2a05a896ec951c8da91e7f", "fusion_lon": 0.0, "bike_id": "4706f28f7a2a05a896ec951c8da91e7f", "is_disabled": 0, "is_reserved": 0}, {"rental_uris": {"ios": "https://dc.lft.to/lastmile_qr_scan", "android": "https://dc.lft.to/lastmile_qr_scan"}, "lon": -76.99869583333333, "type": "electric_bike", "fusion_lat": 0.0, "lat": 38.960095833333334, "name": "43a3cdf8dcb4ecb0fee953b7cffa45c1", "fusion_lon": 0.0, "bike_id": "43a3cdf8dcb4ecb0fee953b7cffa45c1", "is_disabled": 0, "is_reserved": 0}, {"rental_uris": {"ios": "https://dc.lft.to/lastmile_qr_scan", "android": "https://dc.lft.to/lastmile_qr_scan"}, "lon": -77.03216316666666, "type": "electric_scooter", "fusion_lat": 0.0, "lat": 38.91695166666667, "name": "8cf445b17feb6f3ad82f40e2251e00ad", "fusion_lon": 0.0, "bike_id": "8cf445b17feb6f3ad82f40e2251e00ad", "is_disabled": 0, "is_reserved": 0}, {"rental_uris": {"ios": "https://dc.lft.to/lastmile_qr_scan", "android": "https://dc.lft.to/lastmile_qr_scan"}, "lon": -77.03080966666667, "type": "electric_scooter", "fusion_lat": 0.0, "lat": 38.88035083333333, "name": "b971355edb99460ee6f6e4d5f3dd00d4", "fusion_lon": 0.0, "bike_id": "b971355edb99460ee6f6e4d5f3dd00d4", "is_disabled": 0, "is_reserved": 0}, {"rental_uris": {"ios": "https://dc.lft.to/lastmile_qr_scan", "android": "https://dc.lft.to/lastmile_qr_scan"}, "lon": -77.03260566666667, "type": "electric_scooter", "fusion_lat": 0.0, "lat": 38.938745833333336, "name": "c65620eb94708273010f22fad843d159", "fusion_lon": 0.0, "bike_id": "c65620eb94708273010f22fad843d159", "is_disabled": 0, "is_reserved": 0}, {"rental_uris": {"ios": "https://dc.lft.to/lastmile_qr_scan", "android": "https://dc.lft.to/lastmile_qr_scan"}, "lon": -77.0437205, "type": "electric_scooter", "fusion_lat": 0.0, "lat": 38.931492666666664, "name": "883bec11a18e73df59bb4fdc8d54bdc5", "fusion_lon": 0.0, "bike_id": "883bec11a18e73df59bb4fdc8d54bdc5", "is_disabled": 0, "is_reserved": 0}, {"rental_uris": {"ios": "https://dc.lft.to/lastmile_qr_scan", "android": "https://dc.lft.to/lastmile_qr_scan"}, "lon": -77.04610716666667, "type": "electric_scooter", "fusion_lat": 0.0, "lat": 38.9006405, "name": "a9a447deabd51b6e2e5470dcbe4f0c40", "fusion_lon": 0.0, "bike_id": "a9a447deabd51b6e2e5470dcbe4f0c40", "is_disabled": 0, "is_reserved": 0}, {"rental_uris": {"ios": "https://dc.lft.to/lastmile_qr_scan", "android": "https://dc.lft.to/lastmile_qr_scan"}, "lon": -77.03546766666666, "type": "electric_scooter", "fusion_lat": 0.0, "lat": 38.924127166666665, "name": "c7d3c274084f652c2a339c60ff5acfcf", "fusion_lon": 0.0, "bike_id": "c7d3c274084f652c2a339c60ff5acfcf", "is_disabled": 0, "is_reserved": 0}, {"rental_uris": {"ios": "https://dc.lft.to/lastmile_qr_scan", "android": "https://dc.lft.to/lastmile_qr_scan"}, "lon": -77.04885966666667, "type": "electric_scooter", "fusion_lat": 0.0, "lat": 38.905786666666664, "name": "192c711dc78d5651c0ed3438da3002df", "fusion_lon": 0.0, "bike_id": "192c711dc78d5651c0ed3438da3002df", "is_disabled": 0, "is_reserved": 0}, {"rental_uris": {"ios": "https://dc.lft.to/lastmile_qr_scan", "android": "https://dc.lft.to/lastmile_qr_scan"}, "lon": -76.99843666666666, "type": "electric_scooter", "fusion_lat": 0.0, "lat": 38.900112166666666, "name": "3ab283c45d498a83109918f61038e07e", "fusion_lon": 0.0, "bike_id": "3ab283c45d498a83109918f61038e07e", "is_disabled": 0, "is_reserved": 0}, {"rental_uris": {"ios": "https://dc.lft.to/lastmile_qr_scan", "android": "https://dc.lft.to/lastmile_qr_scan"}, "lon": -77.04195983333334, "type": "electric_scooter", "fusion_lat": 0.0, "lat": 38.91140266666667, "name": "88b3f0154fdc17c3052de97fca72a5f1", "fusion_lon": 0.0, "bike_id": "88b3f0154fdc17c3052de97fca72a5f1", "is_disabled": 0, "is_reserved": 0}, {"rental_uris": {"ios": "https://dc.lft.to/lastmile_qr_scan", "android": "https://dc.lft.to/lastmile_qr_scan"}, "lon": -77.03667566666667, "type": "electric_scooter", "fusion_lat": 0.0, "lat": 38.92119, "name": "141213874dafa781090d3ee68b485542", "fusion_lon": 0.0, "bike_id": "141213874dafa781090d3ee68b485542", "is_disabled": 0, "is_reserved": 0}, {"rental_uris": {"ios": "https://dc.lft.to/lastmile_qr_scan", "android": "https://dc.lft.to/lastmile_qr_scan"}, "lon": -76.98901583333334, "type": "electric_scooter", "fusion_lat": 0.0, "lat": 38.861081166666665, "name": "e1cab56184142d7e37e9c3d55c2168ce", "fusion_lon": 0.0, "bike_id": "e1cab56184142d7e37e9c3d55c2168ce", "is_disabled": 0, "is_reserved": 0}, {"rental_uris": {"ios": "https://dc.lft.to/lastmile_qr_scan", "android": "https://dc.lft.to/lastmile_qr_scan"}, "lon": -77.02979516666667, "type": "electric_scooter", "fusion_lat": 0.0, "lat": 38.96231066666667, "name": "056d49444e50a04e1f0968fb03b3b540", "fusion_lon": 0.0, "bike_id": "056d49444e50a04e1f0968fb03b3b540", "is_disabled": 0, "is_reserved": 0}, {"rental_uris": {"ios": "https://dc.lft.to/lastmile_qr_scan", "android": "https://dc.lft.to/lastmile_qr_scan"}, "lon": -77.04271533333333, "type": "electric_scooter", "fusion_lat": 0.0, "lat": 38.917055, "name": "2a3dce2a7041ea21cf29aa63a6fb9a40", "fusion_lon": 0.0, "bike_id": "2a3dce2a7041ea21cf29aa63a6fb9a40", "is_disabled": 0, "is_reserved": 0}, {"rental_uris": {"ios": "https://dc.lft.to/lastmile_qr_scan", "android": "https://dc.lft.to/lastmile_qr_scan"}, "lon": -77.02579366666667, "type": "electric_scooter", "fusion_lat": 0.0, "lat": 38.88232683333333, "name": "19c9dc4f6874c610b74576613768b7dc", "fusion_lon": 0.0, "bike_id": "19c9dc4f6874c610b74576613768b7dc", "is_disabled": 0, "is_reserved": 0}, {"rental_uris": {"ios": "https://dc.lft.to/lastmile_qr_scan", "android": "https://dc.lft.to/lastmile_qr_scan"}, "lon": -77.03227633333333, "type": "electric_scooter", "fusion_lat": 0.0, "lat": 38.925486666666664, "name": "2ffc43e071d956b03c398a4832127035", "fusion_lon": 0.0, "bike_id": "2ffc43e071d956b03c398a4832127035", "is_disabled": 0, "is_reserved": 0}, {"rental_uris": {"ios": "https://dc.lft.to/lastmile_qr_scan", "android": "https://dc.lft.to/lastmile_qr_scan"}, "lon": -76.98571883333334, "type": "electric_scooter", "fusion_lat": 0.0, "lat": 38.85589083333333, "name": "02faccc1eb0ea503ad940a2d02c0941f", "fusion_lon": 0.0, "bike_id": "02faccc1eb0ea503ad940a2d02c0941f", "is_disabled": 0, "is_reserved": 0}, {"rental_uris": {"ios": "https://dc.lft.to/lastmile_qr_scan", "android": "https://dc.lft.to/lastmile_qr_scan"}, "lon": -77.00567883333333, "type": "electric_bike", "fusion_lat": 0.0, "lat": 38.839887, "name": "0314a6b50892646c2056c0cf5269db2f", "fusion_lon": 0.0, "bike_id": "0314a6b50892646c2056c0cf5269db2f", "is_disabled": 0, "is_reserved": 0}, {"rental_uris": {"ios": "https://dc.lft.to/lastmile_qr_scan", "android": "https://dc.lft.to/lastmile_qr_scan"}, "lon": -77.02475416666667, "type": "electric_scooter", "fusion_lat": 0.0, "lat": 38.94323166666667, "name": "2fc115185d3fa08fc0cb424897ef12c3", "fusion_lon": 0.0, "bike_id": "2fc115185d3fa08fc0cb424897ef12c3", "is_disabled": 0, "is_reserved": 0}, {"rental_uris": {"ios": "https://dc.lft.to/lastmile_qr_scan", "android": "https://dc.lft.to/lastmile_qr_scan"}, "lon": -77.05302583333334, "type": "electric_scooter", "fusion_lat": 0.0, "lat": 38.899265, "name": "e12e7e3085e297ab6ac4e31b08135616", "fusion_lon": 0.0, "bike_id": "e12e7e3085e297ab6ac4e31b08135616", "is_disabled": 0, "is_reserved": 0}, {"rental_uris": {"ios": "https://dc.lft.to/lastmile_qr_scan", "android": "https://dc.lft.to/lastmile_qr_scan"}, "lon": -77.03182283333334, "type": "electric_scooter", "fusion_lat": 0.0, "lat": 38.91129766666667, "name": "587593a26cdd65718b1c61c4209450e5", "fusion_lon": 0.0, "bike_id": "587593a26cdd65718b1c61c4209450e5", "is_disabled": 0, "is_reserved": 0}, {"rental_uris": {"ios": "https://dc.lft.to/lastmile_qr_scan", "android": "https://dc.lft.to/lastmile_qr_scan"}, "lon": -77.04904066666667, "type": "electric_scooter", "fusion_lat": 0.0, "lat": 38.91933483333333, "name": "8dc6486a0f1b655dbe7fcbd91254743c", "fusion_lon": 0.0, "bike_id": "8dc6486a0f1b655dbe7fcbd91254743c", "is_disabled": 0, "is_reserved": 0}, {"rental_uris": {"ios": "https://dc.lft.to/lastmile_qr_scan", "android": "https://dc.lft.to/lastmile_qr_scan"}, "lon": -77.00574133333333, "type": "electric_scooter", "fusion_lat": 0.0, "lat": 38.88506483333333, "name": "3a51cda64da2a715f1307b4bb66b8a16", "fusion_lon": 0.0, "bike_id": "3a51cda64da2a715f1307b4bb66b8a16", "is_disabled": 0, "is_reserved": 0}, {"rental_uris": {"ios": "https://dc.lft.to/lastmile_qr_scan", "android": "https://dc.lft.to/lastmile_qr_scan"}, "lon": -77.041561, "type": "electric_scooter", "fusion_lat": 0.0, "lat": 38.91837433333333, "name": "14cdd516176462c542ae332ee79fb183", "fusion_lon": 0.0, "bike_id": "14cdd516176462c542ae332ee79fb183", "is_disabled": 0, "is_reserved": 0}, {"rental_uris": {"ios": "https://dc.lft.to/lastmile_qr_scan", "android": "https://dc.lft.to/lastmile_qr_scan"}, "lon": -77.04017683333333, "type": "electric_scooter", "fusion_lat": 0.0, "lat": 38.93255116666667, "name": "5c742a0d542da35cf437cf1ee1002eec", "fusion_lon": 0.0, "bike_id": "5c742a0d542da35cf437cf1ee1002eec", "is_disabled": 0, "is_reserved": 0}, {"rental_uris": {"ios": "https://dc.lft.to/lastmile_qr_scan", "android": "https://dc.lft.to/lastmile_qr_scan"}, "lon": -77.0144645, "type": "electric_scooter", "fusion_lat": 0.0, "lat": 38.929778666666664, "name": "f0fdaf4a807ec16cea07cd17162ba468", "fusion_lon": 0.0, "bike_id": "f0fdaf4a807ec16cea07cd17162ba468", "is_disabled": 0, "is_reserved": 0}, {"rental_uris": {"ios": "https://dc.lft.to/lastmile_qr_scan", "android": "https://dc.lft.to/lastmile_qr_scan"}, "lon": -76.97564316666667, "type": "electric_scooter", "fusion_lat": 0.0, "lat": 38.9044845, "name": "cf23be4e476d7275f97ab34137635f83", "fusion_lon": 0.0, "bike_id": "cf23be4e476d7275f97ab34137635f83", "is_disabled": 0, "is_reserved": 0}, {"rental_uris": {"ios": "https://dc.lft.to/lastmile_qr_scan", "android": "https://dc.lft.to/lastmile_qr_scan"}, "lon": -77.042878, "type": "electric_scooter", "fusion_lat": 0.0, "lat": 38.90526216666667, "name": "50f5d3de28307373381b04be4ba6df2b", "fusion_lon": 0.0, "bike_id": "50f5d3de28307373381b04be4ba6df2b", "is_disabled": 0, "is_reserved": 0}, {"rental_uris": {"ios": "https://dc.lft.to/lastmile_qr_scan", "android": "https://dc.lft.to/lastmile_qr_scan"}, "lon": -77.00432183333334, "type": "electric_scooter", "fusion_lat": 0.0, "lat": 38.87656616666666, "name": "df627f4c10b0a51c55bb99f60f59106d", "fusion_lon": 0.0, "bike_id": "df627f4c10b0a51c55bb99f60f59106d", "is_disabled": 0, "is_reserved": 0}, {"rental_uris": {"ios": "https://dc.lft.to/lastmile_qr_scan", "android": "https://dc.lft.to/lastmile_qr_scan"}, "lon": -77.010905, "type": "electric_scooter", "fusion_lat": 0.0, "lat": 38.895135, "name": "2bbf6b05029fcd36d7601e0a2fff0e13", "fusion_lon": 0.0, "bike_id": "2bbf6b05029fcd36d7601e0a2fff0e13", "is_disabled": 0, "is_reserved": 0}, {"rental_uris": {"ios": "https://dc.lft.to/lastmile_qr_scan", "android": "https://dc.lft.to/lastmile_qr_scan"}, "lon": -76.98882283333333, "type": "electric_scooter", "fusion_lat": 0.0, "lat": 38.86663816666667, "name": "460638947407654e8dd1760dba69b7cb", "fusion_lon": 0.0, "bike_id": "460638947407654e8dd1760dba69b7cb", "is_disabled": 0, "is_reserved": 0}, {"rental_uris": {"ios": "https://dc.lft.to/lastmile_qr_scan", "android": "https://dc.lft.to/lastmile_qr_scan"}, "lon": -77.0231085, "type": "electric_scooter", "fusion_lat": 0.0, "lat": 38.878905833333334, "name": "235b3c03438d06cc630a3c13272b64dc", "fusion_lon": 0.0, "bike_id": "235b3c03438d06cc630a3c13272b64dc", "is_disabled": 0, "is_reserved": 0}, {"rental_uris": {"ios": "https://dc.lft.to/lastmile_qr_scan", "android": "https://dc.lft.to/lastmile_qr_scan"}, "lon": -76.97807083333333, "type": "electric_scooter", "fusion_lat": 0.0, "lat": 38.90312816666667, "name": "7f652610a863e202ac4197179559e92f", "fusion_lon": 0.0, "bike_id": "7f652610a863e202ac4197179559e92f", "is_disabled": 0, "is_reserved": 0}, {"rental_uris": {"ios": "https://dc.lft.to/lastmile_qr_scan", "android": "https://dc.lft.to/lastmile_qr_scan"}, "lon": -77.0220295, "type": "electric_scooter", "fusion_lat": 0.0, "lat": 38.91281583333333, "name": "f60f37bc451d8d71166214dadb8a2d88", "fusion_lon": 0.0, "bike_id": "f60f37bc451d8d71166214dadb8a2d88", "is_disabled": 0, "is_reserved": 0}, {"rental_uris": {"ios": "https://dc.lft.to/lastmile_qr_scan", "android": "https://dc.lft.to/lastmile_qr_scan"}, "lon": -77.00022583333333, "type": "electric_scooter", "fusion_lat": 0.0, "lat": 38.90756433333333, "name": "ba6306057139edb37b5e851b7648dc1a", "fusion_lon": 0.0, "bike_id": "ba6306057139edb37b5e851b7648dc1a", "is_disabled": 0, "is_reserved": 0}, {"rental_uris": {"ios": "https://dc.lft.to/lastmile_qr_scan", "android": "https://dc.lft.to/lastmile_qr_scan"}, "lon": -77.03636633333333, "type": "electric_scooter", "fusion_lat": 0.0, "lat": 38.937225833333336, "name": "c3150ae1aebf4a4b2b590b11c0bb92e9", "fusion_lon": 0.0, "bike_id": "c3150ae1aebf4a4b2b590b11c0bb92e9", "is_disabled": 0, "is_reserved": 0}, {"rental_uris": {"ios": "https://dc.lft.to/lastmile_qr_scan", "android": "https://dc.lft.to/lastmile_qr_scan"}, "lon": -76.97218783333334, "type": "electric_bike", "fusion_lat": 0.0, "lat": 38.84476333333333, "name": "6fb22151f3fc2cdd8d32888003967a54", "fusion_lon": 0.0, "bike_id": "6fb22151f3fc2cdd8d32888003967a54", "is_disabled": 0, "is_reserved": 0}, {"rental_uris": {"ios": "https://dc.lft.to/lastmile_qr_scan", "android": "https://dc.lft.to/lastmile_qr_scan"}, "lon": -77.08038416666666, "type": "electric_bike", "fusion_lat": 0.0, "lat": 38.946325, "name": "d19b7ec948af7674c5118713b7348590", "fusion_lon": 0.0, "bike_id": "d19b7ec948af7674c5118713b7348590", "is_disabled": 0, "is_reserved": 0}, {"rental_uris": {"ios": "https://dc.lft.to/lastmile_qr_scan", "android": "https://dc.lft.to/lastmile_qr_scan"}, "lon": -77.02287016666666, "type": "electric_bike", "fusion_lat": 0.0, "lat": 38.923352, "name": "637924c3fea46bb145d09beed721fe17", "fusion_lon": 0.0, "bike_id": "637924c3fea46bb145d09beed721fe17", "is_disabled": 0, "is_reserved": 0}, {"rental_uris": {"ios": "https://dc.lft.to/lastmile_qr_scan", "android": "https://dc.lft.to/lastmile_qr_scan"}, "lon": -77.0465245, "type": "electric_scooter", "fusion_lat": 0.0, "lat": 38.89730516666667, "name": "5428067bd4db739cce4567c5948180c1", "fusion_lon": 0.0, "bike_id": "5428067bd4db739cce4567c5948180c1", "is_disabled": 0, "is_reserved": 0}, {"rental_uris": {"ios": "https://dc.lft.to/lastmile_qr_scan", "android": "https://dc.lft.to/lastmile_qr_scan"}, "lon": -77.0226985, "type": "electric_scooter", "fusion_lat": 0.0, "lat": 38.956428833333334, "name": "435fe828c8bb8f143d660e50dd4bc94a", "fusion_lon": 0.0, "bike_id": "435fe828c8bb8f143d660e50dd4bc94a", "is_disabled": 0, "is_reserved": 0}, {"rental_uris": {"ios": "https://dc.lft.to/lastmile_qr_scan", "android": "https://dc.lft.to/lastmile_qr_scan"}, "lon": -77.018631, "type": "electric_scooter", "fusion_lat": 0.0, "lat": 38.91719116666667, "name": "6f1e97ac7f07a58eecac25a95c3ccf22", "fusion_lon": 0.0, "bike_id": "6f1e97ac7f07a58eecac25a95c3ccf22", "is_disabled": 0, "is_reserved": 0}, {"rental_uris": {"ios": "https://dc.lft.to/lastmile_qr_scan", "android": "https://dc.lft.to/lastmile_qr_scan"}, "lon": -77.01900316666666, "type": "electric_scooter", "fusion_lat": 0.0, "lat": 38.901694, "name": "93108dbdf184eb6cef0f198ae9d2cf1b", "fusion_lon": 0.0, "bike_id": "93108dbdf184eb6cef0f198ae9d2cf1b", "is_disabled": 0, "is_reserved": 0}, {"rental_uris": {"ios": "https://dc.lft.to/lastmile_qr_scan", "android": "https://dc.lft.to/lastmile_qr_scan"}, "lon": -77.01120883333333, "type": "electric_scooter", "fusion_lat": 0.0, "lat": 38.9126695, "name": "17f224a8737a0e96502a8258589812ac", "fusion_lon": 0.0, "bike_id": "17f224a8737a0e96502a8258589812ac", "is_disabled": 0, "is_reserved": 0}, {"rental_uris": {"ios": "https://dc.lft.to/lastmile_qr_scan", "android": "https://dc.lft.to/lastmile_qr_scan"}, "lon": -77.048318, "type": "electric_scooter", "fusion_lat": 0.0, "lat": 38.903743166666665, "name": "f48e5b65cea942ec1d07ab73c419ce4f", "fusion_lon": 0.0, "bike_id": "f48e5b65cea942ec1d07ab73c419ce4f", "is_disabled": 0, "is_reserved": 0}, {"rental_uris": {"ios": "https://dc.lft.to/lastmile_qr_scan", "android": "https://dc.lft.to/lastmile_qr_scan"}, "lon": -77.05049983333333, "type": "electric_scooter", "fusion_lat": 0.0, "lat": 38.90193333333333, "name": "4aca796b5d3dee2abb4ebce9f701700f", "fusion_lon": 0.0, "bike_id": "4aca796b5d3dee2abb4ebce9f701700f", "is_disabled": 0, "is_reserved": 0}, {"rental_uris": {"ios": "https://dc.lft.to/lastmile_qr_scan", "android": "https://dc.lft.to/lastmile_qr_scan"}, "lon": -77.02512516666667, "type": "electric_scooter", "fusion_lat": 0.0, "lat": 38.91764716666667, "name": "d8f41db4af2c958a033236a0b654a4f5", "fusion_lon": 0.0, "bike_id": "d8f41db4af2c958a033236a0b654a4f5", "is_disabled": 0, "is_reserved": 0}, {"rental_uris": {"ios": "https://dc.lft.to/lastmile_qr_scan", "android": "https://dc.lft.to/lastmile_qr_scan"}, "lon": -76.98881633333333, "type": "electric_scooter", "fusion_lat": 0.0, "lat": 38.86663433333333, "name": "b067368ecbc51bfacfd0149aa7fff23e", "fusion_lon": 0.0, "bike_id": "b067368ecbc51bfacfd0149aa7fff23e", "is_disabled": 0, "is_reserved": 0}, {"rental_uris": {"ios": "https://dc.lft.to/lastmile_qr_scan", "android": "https://dc.lft.to/lastmile_qr_scan"}, "lon": -76.96532316666666, "type": "electric_bike", "fusion_lat": 0.0, "lat": 38.87481583333334, "name": "69c11aba2038a15bc4623027cacefea4", "fusion_lon": 0.0, "bike_id": "69c11aba2038a15bc4623027cacefea4", "is_disabled": 0, "is_reserved": 0}, {"rental_uris": {"ios": "https://dc.lft.to/lastmile_qr_scan", "android": "https://dc.lft.to/lastmile_qr_scan"}, "lon": -77.03823233333334, "type": "electric_scooter", "fusion_lat": 0.0, "lat": 38.93121, "name": "b48cf85c23809c00895026b6580a1bdb", "fusion_lon": 0.0, "bike_id": "b48cf85c23809c00895026b6580a1bdb", "is_disabled": 0, "is_reserved": 0}, {"rental_uris": {"ios": "https://dc.lft.to/lastmile_qr_scan", "android": "https://dc.lft.to/lastmile_qr_scan"}, "lon": -77.02701666666667, "type": "electric_scooter", "fusion_lat": 0.0, "lat": 38.89587516666667, "name": "03f654ecaa4619f1e42cd46a7a62fb56", "fusion_lon": 0.0, "bike_id": "03f654ecaa4619f1e42cd46a7a62fb56", "is_disabled": 0, "is_reserved": 0}, {"rental_uris": {"ios": "https://dc.lft.to/lastmile_qr_scan", "android": "https://dc.lft.to/lastmile_qr_scan"}, "lon": -76.93177783333333, "type": "electric_scooter", "fusion_lat": 0.0, "lat": 38.8988855, "name": "8c0c2a7baaae7860531a24b4ab29fbb7", "fusion_lon": 0.0, "bike_id": "8c0c2a7baaae7860531a24b4ab29fbb7", "is_disabled": 0, "is_reserved": 0}, {"rental_uris": {"ios": "https://dc.lft.to/lastmile_qr_scan", "android": "https://dc.lft.to/lastmile_qr_scan"}, "lon": -77.02653633333334, "type": "electric_scooter", "fusion_lat": 0.0, "lat": 38.91057816666667, "name": "2680fa3c5c15ddf6d6cc72f0cc0fb17a", "fusion_lon": 0.0, "bike_id": "2680fa3c5c15ddf6d6cc72f0cc0fb17a", "is_disabled": 0, "is_reserved": 0}, {"rental_uris": {"ios": "https://dc.lft.to/lastmile_qr_scan", "android": "https://dc.lft.to/lastmile_qr_scan"}, "lon": -77.09452616666667, "type": "electric_bike", "fusion_lat": 0.0, "lat": 38.8075515, "name": "e3c5b10f5250f162f96fa459356f38c1", "fusion_lon": 0.0, "bike_id": "e3c5b10f5250f162f96fa459356f38c1", "is_disabled": 0, "is_reserved": 0}, {"rental_uris": {"ios": "https://dc.lft.to/lastmile_qr_scan", "android": "https://dc.lft.to/lastmile_qr_scan"}, "lon": -77.03885716666667, "type": "electric_scooter", "fusion_lat": 0.0, "lat": 38.93151833333334, "name": "4895d1a0948c1e487a5e2ed58970cee1", "fusion_lon": 0.0, "bike_id": "4895d1a0948c1e487a5e2ed58970cee1", "is_disabled": 0, "is_reserved": 0}, {"rental_uris": {"ios": "https://dc.lft.to/lastmile_qr_scan", "android": "https://dc.lft.to/lastmile_qr_scan"}, "lon": -77.0709295, "type": "electric_bike", "fusion_lat": 0.0, "lat": 38.95557483333333, "name": "0b0ea289fd1f422399fea011fa85faa2", "fusion_lon": 0.0, "bike_id": "0b0ea289fd1f422399fea011fa85faa2", "is_disabled": 0, "is_reserved": 0}, {"rental_uris": {"ios": "https://dc.lft.to/lastmile_qr_scan", "android": "https://dc.lft.to/lastmile_qr_scan"}, "lon": -77.0329935, "type": "electric_scooter", "fusion_lat": 0.0, "lat": 38.89633966666667, "name": "6fb16f621eae67f7a1ded118d7215525", "fusion_lon": 0.0, "bike_id": "6fb16f621eae67f7a1ded118d7215525", "is_disabled": 0, "is_reserved": 0}, {"rental_uris": {"ios": "https://dc.lft.to/lastmile_qr_scan", "android": "https://dc.lft.to/lastmile_qr_scan"}, "lon": -77.020015, "type": "electric_scooter", "fusion_lat": 0.0, "lat": 38.88623033333333, "name": "544c5684c4533c0c603d8290ce116f4a", "fusion_lon": 0.0, "bike_id": "544c5684c4533c0c603d8290ce116f4a", "is_disabled": 0, "is_reserved": 0}, {"rental_uris": {"ios": "https://dc.lft.to/lastmile_qr_scan", "android": "https://dc.lft.to/lastmile_qr_scan"}, "lon": -77.0347915, "type": "electric_scooter", "fusion_lat": 0.0, "lat": 38.92751616666666, "name": "6e0e109c5618cd18bd7a9ae0828d1749", "fusion_lon": 0.0, "bike_id": "6e0e109c5618cd18bd7a9ae0828d1749", "is_disabled": 0, "is_reserved": 0}, {"rental_uris": {"ios": "https://dc.lft.to/lastmile_qr_scan", "android": "https://dc.lft.to/lastmile_qr_scan"}, "lon": -77.02231233333333, "type": "electric_scooter", "fusion_lat": 0.0, "lat": 38.8922325, "name": "30636224499734357aeed40b73e1b019", "fusion_lon": 0.0, "bike_id": "30636224499734357aeed40b73e1b019", "is_disabled": 0, "is_reserved": 0}, {"rental_uris": {"ios": "https://dc.lft.to/lastmile_qr_scan", "android": "https://dc.lft.to/lastmile_qr_scan"}, "lon": -77.03182183333334, "type": "electric_scooter", "fusion_lat": 0.0, "lat": 38.924786166666664, "name": "ea9cf5d7ea47bebb226c8f2114d3fd05", "fusion_lon": 0.0, "bike_id": "ea9cf5d7ea47bebb226c8f2114d3fd05", "is_disabled": 0, "is_reserved": 0}, {"rental_uris": {"ios": "https://dc.lft.to/lastmile_qr_scan", "android": "https://dc.lft.to/lastmile_qr_scan"}, "lon": -77.01058183333333, "type": "electric_scooter", "fusion_lat": 0.0, "lat": 38.87578466666667, "name": "2b37de77918148d18ba4e045037adbf4", "fusion_lon": 0.0, "bike_id": "2b37de77918148d18ba4e045037adbf4", "is_disabled": 0, "is_reserved": 0}, {"rental_uris": {"ios": "https://dc.lft.to/lastmile_qr_scan", "android": "https://dc.lft.to/lastmile_qr_scan"}, "lon": -77.03326083333333, "type": "electric_scooter", "fusion_lat": 0.0, "lat": 38.890123333333335, "name": "046f83d69c155e89a7dfd4728c454f60", "fusion_lon": 0.0, "bike_id": "046f83d69c155e89a7dfd4728c454f60", "is_disabled": 0, "is_reserved": 0}, {"rental_uris": {"ios": "https://dc.lft.to/lastmile_qr_scan", "android": "https://dc.lft.to/lastmile_qr_scan"}, "lon": -77.00251166666666, "type": "electric_scooter", "fusion_lat": 0.0, "lat": 38.90257916666667, "name": "ec6fe9cfd82055f1ec24b5444bd5ec7f", "fusion_lon": 0.0, "bike_id": "ec6fe9cfd82055f1ec24b5444bd5ec7f", "is_disabled": 0, "is_reserved": 0}, {"rental_uris": {"ios": "https://dc.lft.to/lastmile_qr_scan", "android": "https://dc.lft.to/lastmile_qr_scan"}, "lon": -76.99055766666666, "type": "electric_bike", "fusion_lat": 0.0, "lat": 38.92455483333333, "name": "e11735c8e340a8daf809cc7500c04dbf", "fusion_lon": 0.0, "bike_id": "e11735c8e340a8daf809cc7500c04dbf", "is_disabled": 0, "is_reserved": 0}, {"rental_uris": {"ios": "https://dc.lft.to/lastmile_qr_scan", "android": "https://dc.lft.to/lastmile_qr_scan"}, "lon": -77.02157166666667, "type": "electric_scooter", "fusion_lat": 0.0, "lat": 38.94228483333333, "name": "729cc37188cc9349d1bd7909bce71ca6", "fusion_lon": 0.0, "bike_id": "729cc37188cc9349d1bd7909bce71ca6", "is_disabled": 0, "is_reserved": 0}, {"rental_uris": {"ios": "https://dc.lft.to/lastmile_qr_scan", "android": "https://dc.lft.to/lastmile_qr_scan"}, "lon": -77.04111433333334, "type": "electric_scooter", "fusion_lat": 0.0, "lat": 38.916934166666664, "name": "46c3f6e52a4f4971d134ba2f26a8ef25", "fusion_lon": 0.0, "bike_id": "46c3f6e52a4f4971d134ba2f26a8ef25", "is_disabled": 0, "is_reserved": 0}, {"rental_uris": {"ios": "https://dc.lft.to/lastmile_qr_scan", "android": "https://dc.lft.to/lastmile_qr_scan"}, "lon": -77.02885583333334, "type": "electric_scooter", "fusion_lat": 0.0, "lat": 38.903087, "name": "023840fd88602c5085583e29a4ce5e50", "fusion_lon": 0.0, "bike_id": "023840fd88602c5085583e29a4ce5e50", "is_disabled": 0, "is_reserved": 0}, {"rental_uris": {"ios": "https://dc.lft.to/lastmile_qr_scan", "android": "https://dc.lft.to/lastmile_qr_scan"}, "lon": -77.009545, "type": "electric_scooter", "fusion_lat": 0.0, "lat": 38.896581833333336, "name": "b2e0560e12bfcb7390eb97927c060a55", "fusion_lon": 0.0, "bike_id": "b2e0560e12bfcb7390eb97927c060a55", "is_disabled": 0, "is_reserved": 0}, {"rental_uris": {"ios": "https://dc.lft.to/lastmile_qr_scan", "android": "https://dc.lft.to/lastmile_qr_scan"}, "lon": -76.929966, "type": "electric_bike", "fusion_lat": 0.0, "lat": 38.88801466666666, "name": "8d787f788451614a24df6f767a9e6b3c", "fusion_lon": 0.0, "bike_id": "8d787f788451614a24df6f767a9e6b3c", "is_disabled": 0, "is_reserved": 0}, {"rental_uris": {"ios": "https://dc.lft.to/lastmile_qr_scan", "android": "https://dc.lft.to/lastmile_qr_scan"}, "lon": -76.93959366666667, "type": "electric_scooter", "fusion_lat": 0.0, "lat": 38.89419933333333, "name": "6a5ebc33beef48751d6246f9c3121db4", "fusion_lon": 0.0, "bike_id": "6a5ebc33beef48751d6246f9c3121db4", "is_disabled": 0, "is_reserved": 0}, {"rental_uris": {"ios": "https://dc.lft.to/lastmile_qr_scan", "android": "https://dc.lft.to/lastmile_qr_scan"}, "lon": -77.00618116666666, "type": "electric_scooter", "fusion_lat": 0.0, "lat": 38.87468583333333, "name": "6a5c36581fb84e06f76a1f8554082f90", "fusion_lon": 0.0, "bike_id": "6a5c36581fb84e06f76a1f8554082f90", "is_disabled": 0, "is_reserved": 0}, {"rental_uris": {"ios": "https://dc.lft.to/lastmile_qr_scan", "android": "https://dc.lft.to/lastmile_qr_scan"}, "lon": -77.01648916666667, "type": "electric_scooter", "fusion_lat": 0.0, "lat": 38.89971716666667, "name": "a4fb81000f7467970294624fc2c123f9", "fusion_lon": 0.0, "bike_id": "a4fb81000f7467970294624fc2c123f9", "is_disabled": 0, "is_reserved": 0}, {"rental_uris": {"ios": "https://dc.lft.to/lastmile_qr_scan", "android": "https://dc.lft.to/lastmile_qr_scan"}, "lon": -76.95208366666667, "type": "electric_bike", "fusion_lat": 0.0, "lat": 38.93674983333333, "name": "493fc065921564056d8ae7c1b746bc79", "fusion_lon": 0.0, "bike_id": "493fc065921564056d8ae7c1b746bc79", "is_disabled": 0, "is_reserved": 0}, {"rental_uris": {"ios": "https://dc.lft.to/lastmile_qr_scan", "android": "https://dc.lft.to/lastmile_qr_scan"}, "lon": -76.90814716666667, "type": "electric_bike", "fusion_lat": 0.0, "lat": 38.994606, "name": "bdfa9bad2b2b76c1800b931ee5982505", "fusion_lon": 0.0, "bike_id": "bdfa9bad2b2b76c1800b931ee5982505", "is_disabled": 0, "is_reserved": 0}, {"rental_uris": {"ios": "https://dc.lft.to/lastmile_qr_scan", "android": "https://dc.lft.to/lastmile_qr_scan"}, "lon": -77.02269616666666, "type": "electric_scooter", "fusion_lat": 0.0, "lat": 38.92418983333334, "name": "52091611ab14bcbad060eb215cb1afc2", "fusion_lon": 0.0, "bike_id": "52091611ab14bcbad060eb215cb1afc2", "is_disabled": 0, "is_reserved": 0}, {"rental_uris": {"ios": "https://dc.lft.to/lastmile_qr_scan", "android": "https://dc.lft.to/lastmile_qr_scan"}, "lon": -77.02874983333334, "type": "electric_scooter", "fusion_lat": 0.0, "lat": 38.904424166666665, "name": "0c34dcfaff5b738d8657aef85dfbca7c", "fusion_lon": 0.0, "bike_id": "0c34dcfaff5b738d8657aef85dfbca7c", "is_disabled": 0, "is_reserved": 0}, {"rental_uris": {"ios": "https://dc.lft.to/lastmile_qr_scan", "android": "https://dc.lft.to/lastmile_qr_scan"}, "lon": -77.02757683333333, "type": "electric_scooter", "fusion_lat": 0.0, "lat": 38.904846, "name": "6cd630b2362e5f7b3902940cfd39d58f", "fusion_lon": 0.0, "bike_id": "6cd630b2362e5f7b3902940cfd39d58f", "is_disabled": 0, "is_reserved": 0}, {"rental_uris": {"ios": "https://dc.lft.to/lastmile_qr_scan", "android": "https://dc.lft.to/lastmile_qr_scan"}, "lon": -77.05133533333333, "type": "electric_scooter", "fusion_lat": 0.0, "lat": 38.905046, "name": "cc4ce099fe1da3965f4ac572a9c7578e", "fusion_lon": 0.0, "bike_id": "cc4ce099fe1da3965f4ac572a9c7578e", "is_disabled": 0, "is_reserved": 0}, {"rental_uris": {"ios": "https://dc.lft.to/lastmile_qr_scan", "android": "https://dc.lft.to/lastmile_qr_scan"}, "lon": -77.037905, "type": "electric_scooter", "fusion_lat": 0.0, "lat": 38.92498466666667, "name": "59edff3fd31e5432ad1eb9bf1bb007f5", "fusion_lon": 0.0, "bike_id": "59edff3fd31e5432ad1eb9bf1bb007f5", "is_disabled": 0, "is_reserved": 0}, {"rental_uris": {"ios": "https://dc.lft.to/lastmile_qr_scan", "android": "https://dc.lft.to/lastmile_qr_scan"}, "lon": -76.99958116666667, "type": "electric_scooter", "fusion_lat": 0.0, "lat": 38.90866966666667, "name": "5fb7584d5dcc548f14abe0cc7a3ff848", "fusion_lon": 0.0, "bike_id": "5fb7584d5dcc548f14abe0cc7a3ff848", "is_disabled": 0, "is_reserved": 0}, {"rental_uris": {"ios": "https://dc.lft.to/lastmile_qr_scan", "android": "https://dc.lft.to/lastmile_qr_scan"}, "lon": -77.04821883333334, "type": "electric_scooter", "fusion_lat": 0.0, "lat": 38.91342, "name": "33a94c0ceb61bed5bf85e61dde8ef33b", "fusion_lon": 0.0, "bike_id": "33a94c0ceb61bed5bf85e61dde8ef33b", "is_disabled": 0, "is_reserved": 0}, {"rental_uris": {"ios": "https://dc.lft.to/lastmile_qr_scan", "android": "https://dc.lft.to/lastmile_qr_scan"}, "lon": -77.199087, "type": "electric_bike", "fusion_lat": 0.0, "lat": 38.87529383333333, "name": "e20c9baf56c9cd36e8235d1b78bfce97", "fusion_lon": 0.0, "bike_id": "e20c9baf56c9cd36e8235d1b78bfce97", "is_disabled": 0, "is_reserved": 0}, {"rental_uris": {"ios": "https://dc.lft.to/lastmile_qr_scan", "android": "https://dc.lft.to/lastmile_qr_scan"}, "lon": -77.048135, "type": "electric_scooter", "fusion_lat": 0.0, "lat": 38.91641166666667, "name": "a6cb3cfee5074645012af2ade9cd3b4f", "fusion_lon": 0.0, "bike_id": "a6cb3cfee5074645012af2ade9cd3b4f", "is_disabled": 0, "is_reserved": 0}, {"rental_uris": {"ios": "https://dc.lft.to/lastmile_qr_scan", "android": "https://dc.lft.to/lastmile_qr_scan"}, "lon": -77.14992183333334, "type": "electric_bike", "fusion_lat": 0.0, "lat": 39.094623, "name": "8a307fcf5e6721fc222d869ecb3e5982", "fusion_lon": 0.0, "bike_id": "8a307fcf5e6721fc222d869ecb3e5982", "is_disabled": 0, "is_reserved": 0}, {"rental_uris": {"ios": "https://dc.lft.to/lastmile_qr_scan", "android": "https://dc.lft.to/lastmile_qr_scan"}, "lon": -77.007553, "type": "electric_scooter", "fusion_lat": 0.0, "lat": 38.876318, "name": "a708632e9fef63e3daf25ad2fc85456e", "fusion_lon": 0.0, "bike_id": "a708632e9fef63e3daf25ad2fc85456e", "is_disabled": 0, "is_reserved": 0}, {"rental_uris": {"ios": "https://dc.lft.to/lastmile_qr_scan", "android": "https://dc.lft.to/lastmile_qr_scan"}, "lon": -77.02106866666666, "type": "electric_scooter", "fusion_lat": 0.0, "lat": 38.879197833333336, "name": "57765440f00d75d8481ab57a2276da14", "fusion_lon": 0.0, "bike_id": "57765440f00d75d8481ab57a2276da14", "is_disabled": 0, "is_reserved": 0}, {"rental_uris": {"ios": "https://dc.lft.to/lastmile_qr_scan", "android": "https://dc.lft.to/lastmile_qr_scan"}, "lon": -77.005637, "type": "electric_scooter", "fusion_lat": 0.0, "lat": 38.927265166666665, "name": "69dc3ead18d771c9c1a86e16658f5f0c", "fusion_lon": 0.0, "bike_id": "69dc3ead18d771c9c1a86e16658f5f0c", "is_disabled": 0, "is_reserved": 0}, {"rental_uris": {"ios": "https://dc.lft.to/lastmile_qr_scan", "android": "https://dc.lft.to/lastmile_qr_scan"}, "lon": -76.93737, "type": "electric_scooter", "fusion_lat": 0.0, "lat": 38.89016616666667, "name": "9b8469391c065e4d56b6e034f37a874e", "fusion_lon": 0.0, "bike_id": "9b8469391c065e4d56b6e034f37a874e", "is_disabled": 0, "is_reserved": 0}, {"rental_uris": {"ios": "https://dc.lft.to/lastmile_qr_scan", "android": "https://dc.lft.to/lastmile_qr_scan"}, "lon": -77.0489095, "type": "electric_scooter", "fusion_lat": 0.0, "lat": 38.90056633333333, "name": "fb8859edaa5b796b0822aae254f09f3e", "fusion_lon": 0.0, "bike_id": "fb8859edaa5b796b0822aae254f09f3e", "is_disabled": 0, "is_reserved": 0}, {"rental_uris": {"ios": "https://dc.lft.to/lastmile_qr_scan", "android": "https://dc.lft.to/lastmile_qr_scan"}, "lon": -76.93378283333334, "type": "electric_scooter", "fusion_lat": 0.0, "lat": 38.8990875, "name": "0fbc894675d72c197fc93a91ae283d33", "fusion_lon": 0.0, "bike_id": "0fbc894675d72c197fc93a91ae283d33", "is_disabled": 0, "is_reserved": 0}, {"rental_uris": {"ios": "https://dc.lft.to/lastmile_qr_scan", "android": "https://dc.lft.to/lastmile_qr_scan"}, "lon": -77.0316305, "type": "electric_scooter", "fusion_lat": 0.0, "lat": 38.91570683333333, "name": "5cb9c197a988800ad70e224404752015", "fusion_lon": 0.0, "bike_id": "5cb9c197a988800ad70e224404752015", "is_disabled": 0, "is_reserved": 0}, {"rental_uris": {"ios": "https://dc.lft.to/lastmile_qr_scan", "android": "https://dc.lft.to/lastmile_qr_scan"}, "lon": -77.014161, "type": "electric_scooter", "fusion_lat": 0.0, "lat": 38.928147833333334, "name": "bf49961f35c4b1f7fa2dbadb7e8fd18b", "fusion_lon": 0.0, "bike_id": "bf49961f35c4b1f7fa2dbadb7e8fd18b", "is_disabled": 0, "is_reserved": 0}, {"rental_uris": {"ios": "https://dc.lft.to/lastmile_qr_scan", "android": "https://dc.lft.to/lastmile_qr_scan"}, "lon": -77.17854616666666, "type": "electric_bike", "fusion_lat": 0.0, "lat": 39.08893783333333, "name": "ae732190c86ac580723f31b2bdeb152e", "fusion_lon": 0.0, "bike_id": "ae732190c86ac580723f31b2bdeb152e", "is_disabled": 0, "is_reserved": 0}, {"rental_uris": {"ios": "https://dc.lft.to/lastmile_qr_scan", "android": "https://dc.lft.to/lastmile_qr_scan"}, "lon": -77.01790183333334, "type": "electric_scooter", "fusion_lat": 0.0, "lat": 38.90113, "name": "2784f03ea05846d545302aad4d26a1bf", "fusion_lon": 0.0, "bike_id": "2784f03ea05846d545302aad4d26a1bf", "is_disabled": 0, "is_reserved": 0}, {"rental_uris": {"ios": "https://dc.lft.to/lastmile_qr_scan", "android": "https://dc.lft.to/lastmile_qr_scan"}, "lon": -77.01767416666667, "type": "electric_scooter", "fusion_lat": 0.0, "lat": 38.887350833333336, "name": "acb47f533d51bf326293e3ecc844635a", "fusion_lon": 0.0, "bike_id": "acb47f533d51bf326293e3ecc844635a", "is_disabled": 0, "is_reserved": 0}, {"rental_uris": {"ios": "https://dc.lft.to/lastmile_qr_scan", "android": "https://dc.lft.to/lastmile_qr_scan"}, "lon": -77.12626283333333, "type": "electric_bike", "fusion_lat": 0.0, "lat": 39.058143333333334, "name": "20cf2f75be4edadec74ce28c66d61e45", "fusion_lon": 0.0, "bike_id": "20cf2f75be4edadec74ce28c66d61e45", "is_disabled": 0, "is_reserved": 0}, {"rental_uris": {"ios": "https://dc.lft.to/lastmile_qr_scan", "android": "https://dc.lft.to/lastmile_qr_scan"}, "lon": -77.00517166666667, "type": "electric_scooter", "fusion_lat": 0.0, "lat": 38.90578433333334, "name": "550362840e8cb5d2b477211e193eb3fb", "fusion_lon": 0.0, "bike_id": "550362840e8cb5d2b477211e193eb3fb", "is_disabled": 0, "is_reserved": 0}, {"rental_uris": {"ios": "https://dc.lft.to/lastmile_qr_scan", "android": "https://dc.lft.to/lastmile_qr_scan"}, "lon": -76.98095366666666, "type": "electric_bike", "fusion_lat": 0.0, "lat": 38.9536085, "name": "d3386c9a17dcfabec98e5b481198ea8b", "fusion_lon": 0.0, "bike_id": "d3386c9a17dcfabec98e5b481198ea8b", "is_disabled": 0, "is_reserved": 0}, {"rental_uris": {"ios": "https://dc.lft.to/lastmile_qr_scan", "android": "https://dc.lft.to/lastmile_qr_scan"}, "lon": -76.978307, "type": "electric_bike", "fusion_lat": 0.0, "lat": 38.84613516666667, "name": "826b8e36d0c99ca611281193796beafd", "fusion_lon": 0.0, "bike_id": "826b8e36d0c99ca611281193796beafd", "is_disabled": 0, "is_reserved": 0}, {"rental_uris": {"ios": "https://dc.lft.to/lastmile_qr_scan", "android": "https://dc.lft.to/lastmile_qr_scan"}, "lon": -77.040014, "type": "electric_scooter", "fusion_lat": 0.0, "lat": 38.91804483333333, "name": "d974f825ccfa55f6d3ef8c555d4478b4", "fusion_lon": 0.0, "bike_id": "d974f825ccfa55f6d3ef8c555d4478b4", "is_disabled": 0, "is_reserved": 0}, {"rental_uris": {"ios": "https://dc.lft.to/lastmile_qr_scan", "android": "https://dc.lft.to/lastmile_qr_scan"}, "lon": -77.023164, "type": "electric_scooter", "fusion_lat": 0.0, "lat": 38.8819665, "name": "8cd909ec5001e33bb2ef20f09e159c2f", "fusion_lon": 0.0, "bike_id": "8cd909ec5001e33bb2ef20f09e159c2f", "is_disabled": 0, "is_reserved": 0}, {"rental_uris": {"ios": "https://dc.lft.to/lastmile_qr_scan", "android": "https://dc.lft.to/lastmile_qr_scan"}, "lon": -77.04647733333333, "type": "electric_scooter", "fusion_lat": 0.0, "lat": 38.934392, "name": "93085eba1eb82d9d882151f4a5d79b2c", "fusion_lon": 0.0, "bike_id": "93085eba1eb82d9d882151f4a5d79b2c", "is_disabled": 0, "is_reserved": 0}, {"rental_uris": {"ios": "https://dc.lft.to/lastmile_qr_scan", "android": "https://dc.lft.to/lastmile_qr_scan"}, "lon": -76.97349366666667, "type": "electric_bike", "fusion_lat": 0.0, "lat": 38.9176905, "name": "eb89b05910ec1e25b95f68191e39f910", "fusion_lon": 0.0, "bike_id": "eb89b05910ec1e25b95f68191e39f910", "is_disabled": 0, "is_reserved": 0}, {"rental_uris": {"ios": "https://dc.lft.to/lastmile_qr_scan", "android": "https://dc.lft.to/lastmile_qr_scan"}, "lon": -77.0316785, "type": "electric_scooter", "fusion_lat": 0.0, "lat": 38.8834365, "name": "12795c5c8f52347d73c7ae6912d81e9a", "fusion_lon": 0.0, "bike_id": "12795c5c8f52347d73c7ae6912d81e9a", "is_disabled": 0, "is_reserved": 0}, {"rental_uris": {"ios": "https://dc.lft.to/lastmile_qr_scan", "android": "https://dc.lft.to/lastmile_qr_scan"}, "lon": -77.03207233333333, "type": "electric_scooter", "fusion_lat": 0.0, "lat": 38.93973016666666, "name": "d9587b41673c1100783503dc22e1341c", "fusion_lon": 0.0, "bike_id": "d9587b41673c1100783503dc22e1341c", "is_disabled": 0, "is_reserved": 0}, {"rental_uris": {"ios": "https://dc.lft.to/lastmile_qr_scan", "android": "https://dc.lft.to/lastmile_qr_scan"}, "lon": -76.97348283333334, "type": "electric_scooter", "fusion_lat": 0.0, "lat": 38.865123833333335, "name": "b031ca38b4c0fcb8b518149835e39157", "fusion_lon": 0.0, "bike_id": "b031ca38b4c0fcb8b518149835e39157", "is_disabled": 0, "is_reserved": 0}, {"rental_uris": {"ios": "https://dc.lft.to/lastmile_qr_scan", "android": "https://dc.lft.to/lastmile_qr_scan"}, "lon": -77.011674, "type": "electric_bike", "fusion_lat": 0.0, "lat": 38.87231516666667, "name": "3bffbd67288eb43146807acec5cd367d", "fusion_lon": 0.0, "bike_id": "3bffbd67288eb43146807acec5cd367d", "is_disabled": 0, "is_reserved": 0}, {"rental_uris": {"ios": "https://dc.lft.to/lastmile_qr_scan", "android": "https://dc.lft.to/lastmile_qr_scan"}, "lon": -77.06043066666666, "type": "electric_scooter", "fusion_lat": 0.0, "lat": 38.939066833333335, "name": "74ffe36b0f52351a73a8598a2acd5445", "fusion_lon": 0.0, "bike_id": "74ffe36b0f52351a73a8598a2acd5445", "is_disabled": 0, "is_reserved": 0}, {"rental_uris": {"ios": "https://dc.lft.to/lastmile_qr_scan", "android": "https://dc.lft.to/lastmile_qr_scan"}, "lon": -77.04673233333334, "type": "electric_scooter", "fusion_lat": 0.0, "lat": 38.8927135, "name": "3c0e7e21cc26c7331f0ff0be2aefd1e3", "fusion_lon": 0.0, "bike_id": "3c0e7e21cc26c7331f0ff0be2aefd1e3", "is_disabled": 0, "is_reserved": 0}, {"rental_uris": {"ios": "https://dc.lft.to/lastmile_qr_scan", "android": "https://dc.lft.to/lastmile_qr_scan"}, "lon": -77.04815466666666, "type": "electric_scooter", "fusion_lat": 0.0, "lat": 38.920477166666664, "name": "35177bccf89fd21de83b9d9eaaa1be15", "fusion_lon": 0.0, "bike_id": "35177bccf89fd21de83b9d9eaaa1be15", "is_disabled": 0, "is_reserved": 0}, {"rental_uris": {"ios": "https://dc.lft.to/lastmile_qr_scan", "android": "https://dc.lft.to/lastmile_qr_scan"}, "lon": -76.97667633333333, "type": "electric_scooter", "fusion_lat": 0.0, "lat": 38.89861466666667, "name": "62fa990187cd55554139cab91ecca8b8", "fusion_lon": 0.0, "bike_id": "62fa990187cd55554139cab91ecca8b8", "is_disabled": 0, "is_reserved": 0}, {"rental_uris": {"ios": "https://dc.lft.to/lastmile_qr_scan", "android": "https://dc.lft.to/lastmile_qr_scan"}, "lon": -77.03384333333334, "type": "electric_scooter", "fusion_lat": 0.0, "lat": 38.9216475, "name": "8ca3838f55b8bb03f4063817afabdd49", "fusion_lon": 0.0, "bike_id": "8ca3838f55b8bb03f4063817afabdd49", "is_disabled": 0, "is_reserved": 0}, {"rental_uris": {"ios": "https://dc.lft.to/lastmile_qr_scan", "android": "https://dc.lft.to/lastmile_qr_scan"}, "lon": -77.01330216666666, "type": "electric_scooter", "fusion_lat": 0.0, "lat": 38.90054716666667, "name": "70df94edb9f5a99dfc3be77a764f8de0", "fusion_lon": 0.0, "bike_id": "70df94edb9f5a99dfc3be77a764f8de0", "is_disabled": 0, "is_reserved": 0}, {"rental_uris": {"ios": "https://dc.lft.to/lastmile_qr_scan", "android": "https://dc.lft.to/lastmile_qr_scan"}, "lon": -77.02192883333333, "type": "electric_scooter", "fusion_lat": 0.0, "lat": 38.910632666666665, "name": "9f0a31aca70e8bdfa86600dfb4a3b230", "fusion_lon": 0.0, "bike_id": "9f0a31aca70e8bdfa86600dfb4a3b230", "is_disabled": 0, "is_reserved": 0}, {"rental_uris": {"ios": "https://dc.lft.to/lastmile_qr_scan", "android": "https://dc.lft.to/lastmile_qr_scan"}, "lon": -77.0242205, "type": "electric_scooter", "fusion_lat": 0.0, "lat": 38.936157, "name": "f9bf6f958b9d7b881b539d739cb0ce98", "fusion_lon": 0.0, "bike_id": "f9bf6f958b9d7b881b539d739cb0ce98", "is_disabled": 0, "is_reserved": 0}, {"rental_uris": {"ios": "https://dc.lft.to/lastmile_qr_scan", "android": "https://dc.lft.to/lastmile_qr_scan"}, "lon": -77.0235305, "type": "electric_scooter", "fusion_lat": 0.0, "lat": 38.925194166666664, "name": "1927da880d2043f47fed4075da802fd0", "fusion_lon": 0.0, "bike_id": "1927da880d2043f47fed4075da802fd0", "is_disabled": 0, "is_reserved": 0}, {"rental_uris": {"ios": "https://dc.lft.to/lastmile_qr_scan", "android": "https://dc.lft.to/lastmile_qr_scan"}, "lon": -77.0341545, "type": "electric_scooter", "fusion_lat": 0.0, "lat": 38.93550466666667, "name": "2ca29cd7b0bae8f94ace97d24972c7dc", "fusion_lon": 0.0, "bike_id": "2ca29cd7b0bae8f94ace97d24972c7dc", "is_disabled": 0, "is_reserved": 0}, {"rental_uris": {"ios": "https://dc.lft.to/lastmile_qr_scan", "android": "https://dc.lft.to/lastmile_qr_scan"}, "lon": -77.040021, "type": "electric_scooter", "fusion_lat": 0.0, "lat": 38.921351333333334, "name": "a3f497609816040fd4e39db45a4983fe", "fusion_lon": 0.0, "bike_id": "a3f497609816040fd4e39db45a4983fe", "is_disabled": 0, "is_reserved": 0}, {"rental_uris": {"ios": "https://dc.lft.to/lastmile_qr_scan", "android": "https://dc.lft.to/lastmile_qr_scan"}, "lon": -77.0337965, "type": "electric_scooter", "fusion_lat": 0.0, "lat": 38.92165383333333, "name": "15c3339ab2d0d49f8507d5266a58dcd0", "fusion_lon": 0.0, "bike_id": "15c3339ab2d0d49f8507d5266a58dcd0", "is_disabled": 0, "is_reserved": 0}, {"rental_uris": {"ios": "https://dc.lft.to/lastmile_qr_scan", "android": "https://dc.lft.to/lastmile_qr_scan"}, "lon": -77.0195325, "type": "electric_scooter", "fusion_lat": 0.0, "lat": 38.9500015, "name": "aaf7af8ac93d6a894b97589a18b1cf2e", "fusion_lon": 0.0, "bike_id": "aaf7af8ac93d6a894b97589a18b1cf2e", "is_disabled": 0, "is_reserved": 0}, {"rental_uris": {"ios": "https://dc.lft.to/lastmile_qr_scan", "android": "https://dc.lft.to/lastmile_qr_scan"}, "lon": -77.02395266666667, "type": "electric_scooter", "fusion_lat": 0.0, "lat": 38.89503766666667, "name": "d6ae1b08a4982d22068e2325427223c0", "fusion_lon": 0.0, "bike_id": "d6ae1b08a4982d22068e2325427223c0", "is_disabled": 0, "is_reserved": 0}, {"rental_uris": {"ios": "https://dc.lft.to/lastmile_qr_scan", "android": "https://dc.lft.to/lastmile_qr_scan"}, "lon": -77.01109783333334, "type": "electric_scooter", "fusion_lat": 0.0, "lat": 38.918153, "name": "8c2b4449faca33ce16ef3f2507c2cf84", "fusion_lon": 0.0, "bike_id": "8c2b4449faca33ce16ef3f2507c2cf84", "is_disabled": 0, "is_reserved": 0}, {"rental_uris": {"ios": "https://dc.lft.to/lastmile_qr_scan", "android": "https://dc.lft.to/lastmile_qr_scan"}, "lon": -77.01591683333334, "type": "electric_scooter", "fusion_lat": 0.0, "lat": 38.9164495, "name": "aac5233f91375bb253fc9e14811959bc", "fusion_lon": 0.0, "bike_id": "aac5233f91375bb253fc9e14811959bc", "is_disabled": 0, "is_reserved": 0}, {"rental_uris": {"ios": "https://dc.lft.to/lastmile_qr_scan", "android": "https://dc.lft.to/lastmile_qr_scan"}, "lon": -76.9918195, "type": "electric_scooter", "fusion_lat": 0.0, "lat": 38.90135033333333, "name": "cb3f44832e2ac036f21441555f0a7293", "fusion_lon": 0.0, "bike_id": "cb3f44832e2ac036f21441555f0a7293", "is_disabled": 0, "is_reserved": 0}, {"rental_uris": {"ios": "https://dc.lft.to/lastmile_qr_scan", "android": "https://dc.lft.to/lastmile_qr_scan"}, "lon": -77.0331275, "type": "electric_scooter", "fusion_lat": 0.0, "lat": 38.89814483333333, "name": "91293b19d87a8a1d899f2bc04d423abd", "fusion_lon": 0.0, "bike_id": "91293b19d87a8a1d899f2bc04d423abd", "is_disabled": 0, "is_reserved": 0}, {"rental_uris": {"ios": "https://dc.lft.to/lastmile_qr_scan", "android": "https://dc.lft.to/lastmile_qr_scan"}, "lon": -77.050667, "type": "electric_scooter", "fusion_lat": 0.0, "lat": 38.900839, "name": "d13ce854d7d6fc40517c5bebc58520ae", "fusion_lon": 0.0, "bike_id": "d13ce854d7d6fc40517c5bebc58520ae", "is_disabled": 0, "is_reserved": 0}, {"rental_uris": {"ios": "https://dc.lft.to/lastmile_qr_scan", "android": "https://dc.lft.to/lastmile_qr_scan"}, "lon": -76.98346033333334, "type": "electric_bike", "fusion_lat": 0.0, "lat": 38.934972333333334, "name": "28695962651e0440426a4aeb2546d3d2", "fusion_lon": 0.0, "bike_id": "28695962651e0440426a4aeb2546d3d2", "is_disabled": 0, "is_reserved": 0}, {"rental_uris": {"ios": "https://dc.lft.to/lastmile_qr_scan", "android": "https://dc.lft.to/lastmile_qr_scan"}, "lon": -77.01411066666667, "type": "electric_scooter", "fusion_lat": 0.0, "lat": 38.91565516666667, "name": "c2a8f82833363989e6b6a54deb45ecb1", "fusion_lon": 0.0, "bike_id": "c2a8f82833363989e6b6a54deb45ecb1", "is_disabled": 0, "is_reserved": 0}, {"rental_uris": {"ios": "https://dc.lft.to/lastmile_qr_scan", "android": "https://dc.lft.to/lastmile_qr_scan"}, "lon": -76.93175583333333, "type": "electric_scooter", "fusion_lat": 0.0, "lat": 38.898919666666664, "name": "8fab0b79d76b22e882888075ce08a93c", "fusion_lon": 0.0, "bike_id": "8fab0b79d76b22e882888075ce08a93c", "is_disabled": 0, "is_reserved": 0}, {"rental_uris": {"ios": "https://dc.lft.to/lastmile_qr_scan", "android": "https://dc.lft.to/lastmile_qr_scan"}, "lon": -76.9800445, "type": "electric_bike", "fusion_lat": 0.0, "lat": 38.8628785, "name": "e52bb1d7fab0c2db3d0b43285d81b8b7", "fusion_lon": 0.0, "bike_id": "e52bb1d7fab0c2db3d0b43285d81b8b7", "is_disabled": 0, "is_reserved": 0}, {"rental_uris": {"ios": "https://dc.lft.to/lastmile_qr_scan", "android": "https://dc.lft.to/lastmile_qr_scan"}, "lon": -77.02893166666667, "type": "electric_scooter", "fusion_lat": 0.0, "lat": 38.925773166666666, "name": "d6b78a4c0648fbe117f42e8d915c4b24", "fusion_lon": 0.0, "bike_id": "d6b78a4c0648fbe117f42e8d915c4b24", "is_disabled": 0, "is_reserved": 0}, {"rental_uris": {"ios": "https://dc.lft.to/lastmile_qr_scan", "android": "https://dc.lft.to/lastmile_qr_scan"}, "lon": -77.05916216666667, "type": "electric_scooter", "fusion_lat": 0.0, "lat": 38.902343, "name": "ca2c2fea271c75f830d574db006563d9", "fusion_lon": 0.0, "bike_id": "ca2c2fea271c75f830d574db006563d9", "is_disabled": 0, "is_reserved": 0}, {"rental_uris": {"ios": "https://dc.lft.to/lastmile_qr_scan", "android": "https://dc.lft.to/lastmile_qr_scan"}, "lon": -77.01098483333334, "type": "electric_scooter", "fusion_lat": 0.0, "lat": 38.89557216666667, "name": "54f5ea01851afbc556073bad684bf939", "fusion_lon": 0.0, "bike_id": "54f5ea01851afbc556073bad684bf939", "is_disabled": 0, "is_reserved": 0}, {"rental_uris": {"ios": "https://dc.lft.to/lastmile_qr_scan", "android": "https://dc.lft.to/lastmile_qr_scan"}, "lon": -77.05885416666666, "type": "electric_scooter", "fusion_lat": 0.0, "lat": 38.9364085, "name": "fd160bc020731fc670b978e216f07653", "fusion_lon": 0.0, "bike_id": "fd160bc020731fc670b978e216f07653", "is_disabled": 0, "is_reserved": 0}, {"rental_uris": {"ios": "https://dc.lft.to/lastmile_qr_scan", "android": "https://dc.lft.to/lastmile_qr_scan"}, "lon": -77.03121966666667, "type": "electric_scooter", "fusion_lat": 0.0, "lat": 38.913321333333336, "name": "4ca55557a97ff86c5ca2c5dbecabc60b", "fusion_lon": 0.0, "bike_id": "4ca55557a97ff86c5ca2c5dbecabc60b", "is_disabled": 0, "is_reserved": 0}, {"rental_uris": {"ios": "https://dc.lft.to/lastmile_qr_scan", "android": "https://dc.lft.to/lastmile_qr_scan"}, "lon": -77.03958333333334, "type": "electric_scooter", "fusion_lat": 0.0, "lat": 38.898863, "name": "cf7e27fb1e0d3023fcc95a1cece4bc81", "fusion_lon": 0.0, "bike_id": "cf7e27fb1e0d3023fcc95a1cece4bc81", "is_disabled": 0, "is_reserved": 0}, {"rental_uris": {"ios": "https://dc.lft.to/lastmile_qr_scan", "android": "https://dc.lft.to/lastmile_qr_scan"}, "lon": -77.03124466666667, "type": "electric_scooter", "fusion_lat": 0.0, "lat": 38.899661, "name": "fa99a5e7fc60cfee92fe7aaf66d4e7b3", "fusion_lon": 0.0, "bike_id": "fa99a5e7fc60cfee92fe7aaf66d4e7b3", "is_disabled": 0, "is_reserved": 0}, {"rental_uris": {"ios": "https://dc.lft.to/lastmile_qr_scan", "android": "https://dc.lft.to/lastmile_qr_scan"}, "lon": -77.04684616666667, "type": "electric_scooter", "fusion_lat": 0.0, "lat": 38.89596733333333, "name": "660e9c1f12792fa87767477ccef52e58", "fusion_lon": 0.0, "bike_id": "660e9c1f12792fa87767477ccef52e58", "is_disabled": 0, "is_reserved": 0}, {"rental_uris": {"ios": "https://dc.lft.to/lastmile_qr_scan", "android": "https://dc.lft.to/lastmile_qr_scan"}, "lon": -77.03329933333333, "type": "electric_bike", "fusion_lat": 0.0, "lat": 38.96836916666667, "name": "5669d0ac18d5fcc95311f33fa1191daa", "fusion_lon": 0.0, "bike_id": "5669d0ac18d5fcc95311f33fa1191daa", "is_disabled": 0, "is_reserved": 0}, {"rental_uris": {"ios": "https://dc.lft.to/lastmile_qr_scan", "android": "https://dc.lft.to/lastmile_qr_scan"}, "lon": -77.02767983333334, "type": "electric_scooter", "fusion_lat": 0.0, "lat": 38.881612, "name": "9b09d45376696c6dc84228ad0a228f91", "fusion_lon": 0.0, "bike_id": "9b09d45376696c6dc84228ad0a228f91", "is_disabled": 0, "is_reserved": 0}, {"rental_uris": {"ios": "https://dc.lft.to/lastmile_qr_scan", "android": "https://dc.lft.to/lastmile_qr_scan"}, "lon": -77.02959483333333, "type": "electric_scooter", "fusion_lat": 0.0, "lat": 38.917683, "name": "769cbf97e3b9bf71798c8031b31991e2", "fusion_lon": 0.0, "bike_id": "769cbf97e3b9bf71798c8031b31991e2", "is_disabled": 0, "is_reserved": 0}, {"rental_uris": {"ios": "https://dc.lft.to/lastmile_qr_scan", "android": "https://dc.lft.to/lastmile_qr_scan"}, "lon": -77.04519583333334, "type": "electric_scooter", "fusion_lat": 0.0, "lat": 38.91226733333333, "name": "b062316611099273052235d9a881d121", "fusion_lon": 0.0, "bike_id": "b062316611099273052235d9a881d121", "is_disabled": 0, "is_reserved": 0}, {"rental_uris": {"ios": "https://dc.lft.to/lastmile_qr_scan", "android": "https://dc.lft.to/lastmile_qr_scan"}, "lon": -77.05139133333333, "type": "electric_scooter", "fusion_lat": 0.0, "lat": 38.902337, "name": "5e381cc73369698093890ce8b71b31a1", "fusion_lon": 0.0, "bike_id": "5e381cc73369698093890ce8b71b31a1", "is_disabled": 0, "is_reserved": 0}, {"rental_uris": {"ios": "https://dc.lft.to/lastmile_qr_scan", "android": "https://dc.lft.to/lastmile_qr_scan"}, "lon": -77.0514505, "type": "electric_scooter", "fusion_lat": 0.0, "lat": 38.8976225, "name": "dbf90f52e0bf6af0b97a54959d8a6d2d", "fusion_lon": 0.0, "bike_id": "dbf90f52e0bf6af0b97a54959d8a6d2d", "is_disabled": 0, "is_reserved": 0}, {"rental_uris": {"ios": "https://dc.lft.to/lastmile_qr_scan", "android": "https://dc.lft.to/lastmile_qr_scan"}, "lon": -77.03237716666666, "type": "electric_scooter", "fusion_lat": 0.0, "lat": 38.915673, "name": "19d9c88d7036eee38a0162b4d9784d71", "fusion_lon": 0.0, "bike_id": "19d9c88d7036eee38a0162b4d9784d71", "is_disabled": 0, "is_reserved": 0}, {"rental_uris": {"ios": "https://dc.lft.to/lastmile_qr_scan", "android": "https://dc.lft.to/lastmile_qr_scan"}, "lon": -77.01762666666667, "type": "electric_scooter", "fusion_lat": 0.0, "lat": 38.93901666666667, "name": "38098b81686115c89589e673c00f10b3", "fusion_lon": 0.0, "bike_id": "38098b81686115c89589e673c00f10b3", "is_disabled": 0, "is_reserved": 0}, {"rental_uris": {"ios": "https://dc.lft.to/lastmile_qr_scan", "android": "https://dc.lft.to/lastmile_qr_scan"}, "lon": -76.98770733333333, "type": "electric_scooter", "fusion_lat": 0.0, "lat": 38.911728, "name": "36faa25cc4783bedafce2a27ffff1fa0", "fusion_lon": 0.0, "bike_id": "36faa25cc4783bedafce2a27ffff1fa0", "is_disabled": 0, "is_reserved": 0}, {"rental_uris": {"ios": "https://dc.lft.to/lastmile_qr_scan", "android": "https://dc.lft.to/lastmile_qr_scan"}, "lon": -76.93807866666667, "type": "electric_scooter", "fusion_lat": 0.0, "lat": 38.912826, "name": "087567f4c56e966b3fa31877c6ef6521", "fusion_lon": 0.0, "bike_id": "087567f4c56e966b3fa31877c6ef6521", "is_disabled": 0, "is_reserved": 0}, {"rental_uris": {"ios": "https://dc.lft.to/lastmile_qr_scan", "android": "https://dc.lft.to/lastmile_qr_scan"}, "lon": -77.02997966666666, "type": "electric_scooter", "fusion_lat": 0.0, "lat": 38.92485883333333, "name": "f6a2537d8510d23b163259ebb530bbc4", "fusion_lon": 0.0, "bike_id": "f6a2537d8510d23b163259ebb530bbc4", "is_disabled": 0, "is_reserved": 0}, {"rental_uris": {"ios": "https://dc.lft.to/lastmile_qr_scan", "android": "https://dc.lft.to/lastmile_qr_scan"}, "lon": -77.02228733333334, "type": "electric_scooter", "fusion_lat": 0.0, "lat": 38.892226666666666, "name": "8490033956d06d54859a9c1e5ae44d1e", "fusion_lon": 0.0, "bike_id": "8490033956d06d54859a9c1e5ae44d1e", "is_disabled": 0, "is_reserved": 0}, {"rental_uris": {"ios": "https://dc.lft.to/lastmile_qr_scan", "android": "https://dc.lft.to/lastmile_qr_scan"}, "lon": -76.97886916666667, "type": "electric_scooter", "fusion_lat": 0.0, "lat": 38.91674116666667, "name": "c7c46d2cbdde912141024d7c259a1fb2", "fusion_lon": 0.0, "bike_id": "c7c46d2cbdde912141024d7c259a1fb2", "is_disabled": 0, "is_reserved": 0}, {"rental_uris": {"ios": "https://dc.lft.to/lastmile_qr_scan", "android": "https://dc.lft.to/lastmile_qr_scan"}, "lon": -77.02608516666666, "type": "electric_scooter", "fusion_lat": 0.0, "lat": 38.916988, "name": "0e71ac134cfd28dd12e94aa5796f570a", "fusion_lon": 0.0, "bike_id": "0e71ac134cfd28dd12e94aa5796f570a", "is_disabled": 0, "is_reserved": 0}, {"rental_uris": {"ios": "https://dc.lft.to/lastmile_qr_scan", "android": "https://dc.lft.to/lastmile_qr_scan"}, "lon": -76.99541166666667, "type": "electric_scooter", "fusion_lat": 0.0, "lat": 38.9267235, "name": "2d2cdf987127561ffc52525a08420887", "fusion_lon": 0.0, "bike_id": "2d2cdf987127561ffc52525a08420887", "is_disabled": 0, "is_reserved": 0}, {"rental_uris": {"ios": "https://dc.lft.to/lastmile_qr_scan", "android": "https://dc.lft.to/lastmile_qr_scan"}, "lon": -77.03960033333334, "type": "electric_scooter", "fusion_lat": 0.0, "lat": 38.89950016666667, "name": "7b8328a9290df3e3f196f582108e6263", "fusion_lon": 0.0, "bike_id": "7b8328a9290df3e3f196f582108e6263", "is_disabled": 0, "is_reserved": 0}, {"rental_uris": {"ios": "https://dc.lft.to/lastmile_qr_scan", "android": "https://dc.lft.to/lastmile_qr_scan"}, "lon": -77.00857466666666, "type": "electric_scooter", "fusion_lat": 0.0, "lat": 38.9259515, "name": "70a78f62853294287595b879a2c1c005", "fusion_lon": 0.0, "bike_id": "70a78f62853294287595b879a2c1c005", "is_disabled": 0, "is_reserved": 0}, {"rental_uris": {"ios": "https://dc.lft.to/lastmile_qr_scan", "android": "https://dc.lft.to/lastmile_qr_scan"}, "lon": -77.127437, "type": "electric_bike", "fusion_lat": 0.0, "lat": 38.8882225, "name": "dd9f1cb2ad53a654b191eb2397303fb0", "fusion_lon": 0.0, "bike_id": "dd9f1cb2ad53a654b191eb2397303fb0", "is_disabled": 0, "is_reserved": 0}, {"rental_uris": {"ios": "https://dc.lft.to/lastmile_qr_scan", "android": "https://dc.lft.to/lastmile_qr_scan"}, "lon": -77.03214533333333, "type": "electric_scooter", "fusion_lat": 0.0, "lat": 38.918159333333335, "name": "d1301ed6c26e6924f46b5284ccb3cb11", "fusion_lon": 0.0, "bike_id": "d1301ed6c26e6924f46b5284ccb3cb11", "is_disabled": 0, "is_reserved": 0}, {"rental_uris": {"ios": "https://dc.lft.to/lastmile_qr_scan", "android": "https://dc.lft.to/lastmile_qr_scan"}, "lon": -77.08362733333334, "type": "electric_scooter", "fusion_lat": 0.0, "lat": 38.930365333333334, "name": "d3dfb004100b3ec60374fafd1c35cc8f", "fusion_lon": 0.0, "bike_id": "d3dfb004100b3ec60374fafd1c35cc8f", "is_disabled": 0, "is_reserved": 0}, {"rental_uris": {"ios": "https://dc.lft.to/lastmile_qr_scan", "android": "https://dc.lft.to/lastmile_qr_scan"}, "lon": -76.95522433333333, "type": "electric_bike", "fusion_lat": 0.0, "lat": 38.984595, "name": "c5a5376950caf18c372bc579be2a9750", "fusion_lon": 0.0, "bike_id": "c5a5376950caf18c372bc579be2a9750", "is_disabled": 0, "is_reserved": 0}, {"rental_uris": {"ios": "https://dc.lft.to/lastmile_qr_scan", "android": "https://dc.lft.to/lastmile_qr_scan"}, "lon": -77.022645, "type": "electric_scooter", "fusion_lat": 0.0, "lat": 38.87839233333333, "name": "15edfead1b7155c4ebdfc0ceeba86fc1", "fusion_lon": 0.0, "bike_id": "15edfead1b7155c4ebdfc0ceeba86fc1", "is_disabled": 0, "is_reserved": 0}, {"rental_uris": {"ios": "https://dc.lft.to/lastmile_qr_scan", "android": "https://dc.lft.to/lastmile_qr_scan"}, "lon": -77.02735766666666, "type": "electric_scooter", "fusion_lat": 0.0, "lat": 38.881618333333336, "name": "c3d132fd26d13b7f58938a2c8a5410b4", "fusion_lon": 0.0, "bike_id": "c3d132fd26d13b7f58938a2c8a5410b4", "is_disabled": 0, "is_reserved": 0}, {"rental_uris": {"ios": "https://dc.lft.to/lastmile_qr_scan", "android": "https://dc.lft.to/lastmile_qr_scan"}, "lon": -77.0019855, "type": "electric_scooter", "fusion_lat": 0.0, "lat": 38.90023516666667, "name": "9f983a0d883c3209dcd7e959267ef2f2", "fusion_lon": 0.0, "bike_id": "9f983a0d883c3209dcd7e959267ef2f2", "is_disabled": 0, "is_reserved": 0}, {"rental_uris": {"ios": "https://dc.lft.to/lastmile_qr_scan", "android": "https://dc.lft.to/lastmile_qr_scan"}, "lon": -77.02327183333334, "type": "electric_scooter", "fusion_lat": 0.0, "lat": 38.930593, "name": "e9a483b585076ebf62c3727bfbf02b3e", "fusion_lon": 0.0, "bike_id": "e9a483b585076ebf62c3727bfbf02b3e", "is_disabled": 0, "is_reserved": 0}, {"rental_uris": {"ios": "https://dc.lft.to/lastmile_qr_scan", "android": "https://dc.lft.to/lastmile_qr_scan"}, "lon": -76.93229, "type": "electric_bike", "fusion_lat": 0.0, "lat": 38.865977666666666, "name": "d26aa8995cec2bfde362f45c9c72689d", "fusion_lon": 0.0, "bike_id": "d26aa8995cec2bfde362f45c9c72689d", "is_disabled": 0, "is_reserved": 0}, {"rental_uris": {"ios": "https://dc.lft.to/lastmile_qr_scan", "android": "https://dc.lft.to/lastmile_qr_scan"}, "lon": -77.12957083333333, "type": "electric_bike", "fusion_lat": 0.0, "lat": 38.85219933333333, "name": "6ba2e49c93ac295786dfebe70b4f94bf", "fusion_lon": 0.0, "bike_id": "6ba2e49c93ac295786dfebe70b4f94bf", "is_disabled": 0, "is_reserved": 0}, {"rental_uris": {"ios": "https://dc.lft.to/lastmile_qr_scan", "android": "https://dc.lft.to/lastmile_qr_scan"}, "lon": -76.94764666666667, "type": "electric_scooter", "fusion_lat": 0.0, "lat": 38.9007645, "name": "4236b730412d321f66bce4edc669b0c2", "fusion_lon": 0.0, "bike_id": "4236b730412d321f66bce4edc669b0c2", "is_disabled": 0, "is_reserved": 0}, {"rental_uris": {"ios": "https://dc.lft.to/lastmile_qr_scan", "android": "https://dc.lft.to/lastmile_qr_scan"}, "lon": -76.98555716666667, "type": "electric_scooter", "fusion_lat": 0.0, "lat": 38.8839185, "name": "1dbbc90de0b71c9a5dde608c6940c179", "fusion_lon": 0.0, "bike_id": "1dbbc90de0b71c9a5dde608c6940c179", "is_disabled": 0, "is_reserved": 0}, {"rental_uris": {"ios": "https://dc.lft.to/lastmile_qr_scan", "android": "https://dc.lft.to/lastmile_qr_scan"}, "lon": -76.972929, "type": "electric_scooter", "fusion_lat": 0.0, "lat": 38.9033525, "name": "c310960857fcb8e2d16051b66f5d2fd2", "fusion_lon": 0.0, "bike_id": "c310960857fcb8e2d16051b66f5d2fd2", "is_disabled": 0, "is_reserved": 0}, {"rental_uris": {"ios": "https://dc.lft.to/lastmile_qr_scan", "android": "https://dc.lft.to/lastmile_qr_scan"}, "lon": -76.98375533333333, "type": "electric_scooter", "fusion_lat": 0.0, "lat": 38.89552966666667, "name": "2dca4d86ccdc8f12bcb2bf1b3d916d65", "fusion_lon": 0.0, "bike_id": "2dca4d86ccdc8f12bcb2bf1b3d916d65", "is_disabled": 0, "is_reserved": 0}, {"rental_uris": {"ios": "https://dc.lft.to/lastmile_qr_scan", "android": "https://dc.lft.to/lastmile_qr_scan"}, "lon": -77.05474116666667, "type": "electric_scooter", "fusion_lat": 0.0, "lat": 38.893904166666665, "name": "6482286a908dd85d934c482e17def73d", "fusion_lon": 0.0, "bike_id": "6482286a908dd85d934c482e17def73d", "is_disabled": 0, "is_reserved": 0}, {"rental_uris": {"ios": "https://dc.lft.to/lastmile_qr_scan", "android": "https://dc.lft.to/lastmile_qr_scan"}, "lon": -76.9598705, "type": "electric_scooter", "fusion_lat": 0.0, "lat": 38.88047133333333, "name": "13309d8dda94a7f7693e6c01779fab52", "fusion_lon": 0.0, "bike_id": "13309d8dda94a7f7693e6c01779fab52", "is_disabled": 0, "is_reserved": 0}, {"rental_uris": {"ios": "https://dc.lft.to/lastmile_qr_scan", "android": "https://dc.lft.to/lastmile_qr_scan"}, "lon": -77.06289183333334, "type": "electric_scooter", "fusion_lat": 0.0, "lat": 38.90278333333333, "name": "0a88638f0b13e00434aa17be3a10c989", "fusion_lon": 0.0, "bike_id": "0a88638f0b13e00434aa17be3a10c989", "is_disabled": 0, "is_reserved": 0}, {"rental_uris": {"ios": "https://dc.lft.to/lastmile_qr_scan", "android": "https://dc.lft.to/lastmile_qr_scan"}, "lon": -77.0436575, "type": "electric_scooter", "fusion_lat": 0.0, "lat": 38.89234366666667, "name": "2cd935c8bcf3e6d2b89bd61f6c56e56d", "fusion_lon": 0.0, "bike_id": "2cd935c8bcf3e6d2b89bd61f6c56e56d", "is_disabled": 0, "is_reserved": 0}, {"rental_uris": {"ios": "https://dc.lft.to/lastmile_qr_scan", "android": "https://dc.lft.to/lastmile_qr_scan"}, "lon": -77.01995783333334, "type": "electric_scooter", "fusion_lat": 0.0, "lat": 38.877498, "name": "34a7ae8e59af833f1d53d0089f1f1e09", "fusion_lon": 0.0, "bike_id": "34a7ae8e59af833f1d53d0089f1f1e09", "is_disabled": 0, "is_reserved": 0}, {"rental_uris": {"ios": "https://dc.lft.to/lastmile_qr_scan", "android": "https://dc.lft.to/lastmile_qr_scan"}, "lon": -77.04908533333334, "type": "electric_scooter", "fusion_lat": 0.0, "lat": 38.903886166666666, "name": "1432499261c54fa383c9a331d80bfd5b", "fusion_lon": 0.0, "bike_id": "1432499261c54fa383c9a331d80bfd5b", "is_disabled": 0, "is_reserved": 0}, {"rental_uris": {"ios": "https://dc.lft.to/lastmile_qr_scan", "android": "https://dc.lft.to/lastmile_qr_scan"},