{"data": {"bikes": [{"type": "electric_scooter", "rental_uris": {"android": "https://dc.lft.to/lastmile_qr_scan", "ios": "https://dc.lft.to/lastmile_qr_scan"}, "fusion_lat": 0.0, "name": "b6a436d470f63074ae0604d70e891326", "lon": -77.05471733333333, "is_disabled": 0, "is_reserved": 0, "fusion_lon": 0.0, "bike_id": "b6a436d470f63074ae0604d70e891326", "lat": 38.8979105}, {"type": "electric_scooter", "rental_uris": {"android": "https://dc.lft.to/lastmile_qr_scan", "ios": "https://dc.lft.to/lastmile_qr_scan"}, "fusion_lat": 0.0, "name": "a3d049e466a4d0eebc479f145d741980", "lon": -76.9917645, "is_disabled": 0, "is_reserved": 0, "fusion_lon": 0.0, "bike_id": "a3d049e466a4d0eebc479f145d741980", "lat": 38.88995033333333}, {"type": "electric_scooter", "rental_uris": {"android": "https://dc.lft.to/lastmile_qr_scan", "ios": "https://dc.lft.to/lastmile_qr_scan"}, "fusion_lat": 0.0, "name": "3d5a64fbf63ee09e1eaae8e304ad0d73", "lon": -77.0076195, "is_disabled": 0, "is_reserved": 0, "fusion_lon": 0.0, "bike_id": "3d5a64fbf63ee09e1eaae8e304ad0d73", "lat": 38.90059933333333}, {"type": "electric_scooter", "rental_uris": {"android": "https://dc.lft.to/lastmile_qr_scan", "ios": "https://dc.lft.to/lastmile_qr_scan"}, "fusion_lat": 0.0, "name": "28b82cdd2280386e0575fc6d92c0f2e2", "lon": -77.04986916666667, "is_disabled": 0, "is_reserved": 0, "fusion_lon": 0.0, "bike_id": "28b82cdd2280386e0575fc6d92c0f2e2", "lat": 38.896074166666665}, {"type": "electric_scooter", "rental_uris": {"android": "https://dc.lft.to/lastmile_qr_scan", "ios": "https://dc.lft.to/lastmile_qr_scan"}, "fusion_lat": 0.0, "name": "8f4c0757c54b207144536aba233605ff", "lon": -77.04173883333333, "is_disabled": 0, "is_reserved": 0, "fusion_lon": 0.0, "bike_id": "8f4c0757c54b207144536aba233605ff", "lat": 38.91657933333333}, {"type": "electric_scooter", "rental_uris": {"android": "https://dc.lft.to/lastmile_qr_scan", "ios": "https://dc.lft.to/lastmile_qr_scan"}, "fusion_lat": 0.0, "name": "192686e2de8513583c93f8d556735bd1", "lon": -77.03332916666666, "is_disabled": 0, "is_reserved": 0, "fusion_lon": 0.0, "bike_id": "192686e2de8513583c93f8d556735bd1", "lat": 38.92868566666667}, {"type": "electric_scooter", "rental_uris": {"android": "https://dc.lft.to/lastmile_qr_scan", "ios": "https://dc.lft.to/lastmile_qr_scan"}, "fusion_lat": 0.0, "name": "aa6bd9b4174bc2e421680919c6fffaf9", "lon": -77.0209145, "is_disabled": 0, "is_reserved": 0, "fusion_lon": 0.0, "bike_id": "aa6bd9b4174bc2e421680919c6fffaf9", "lat": 38.920980666666665}, {"type": "electric_bike", "rental_uris": {"android": "https://dc.lft.to/lastmile_qr_scan", "ios": "https://dc.lft.to/lastmile_qr_scan"}, "fusion_lat": 0.0, "name": "415d53eb32f58abcf675a98273de4585", "lon": -76.99648533333334, "is_disabled": 0, "is_reserved": 0, "fusion_lon": 0.0, "bike_id": "415d53eb32f58abcf675a98273de4585", "lat": 38.9882515}, {"type": "electric_scooter", "rental_uris": {"android": "https://dc.lft.to/lastmile_qr_scan", "ios": "https://dc.lft.to/lastmile_qr_scan"}, "fusion_lat": 0.0, "name": "6033e1c2f7273d5a031601872305ce48", "lon": -77.04825416666667, "is_disabled": 0, "is_reserved": 0, "fusion_lon": 0.0, "bike_id": "6033e1c2f7273d5a031601872305ce48", "lat": 38.904622833333335}, {"type": "electric_scooter", "rental_uris": {"android": "https://dc.lft.to/lastmile_qr_scan", "ios": "https://dc.lft.to/lastmile_qr_scan"}, "fusion_lat": 0.0, "name": "c1fd16bd9246389ae02780cf26eea7d9", "lon": -77.04458666666666, "is_disabled": 0, "is_reserved": 0, "fusion_lon": 0.0, "bike_id": "c1fd16bd9246389ae02780cf26eea7d9", "lat": 38.909644}, {"type": "electric_scooter", "rental_uris": {"android": "https://dc.lft.to/lastmile_qr_scan", "ios": "https://dc.lft.to/lastmile_qr_scan"}, "fusion_lat": 0.0, "name": "fc43adc3b5eb665446593b61a4dc2557", "lon": -77.03776633333334, "is_disabled": 0, "is_reserved": 0, "fusion_lon": 0.0, "bike_id": "fc43adc3b5eb665446593b61a4dc2557", "lat": 38.91692666666667}, {"type": "electric_scooter", "rental_uris": {"android": "https://dc.lft.to/lastmile_qr_scan", "ios": "https://dc.lft.to/lastmile_qr_scan"}, "fusion_lat": 0.0, "name": "881264132f690f32ab224c44f723a860", "lon": -77.0097185, "is_disabled": 0, "is_reserved": 0, "fusion_lon": 0.0, "bike_id": "881264132f690f32ab224c44f723a860", "lat": 38.911855833333334}, {"type": "electric_scooter", "rental_uris": {"android": "https://dc.lft.to/lastmile_qr_scan", "ios": "https://dc.lft.to/lastmile_qr_scan"}, "fusion_lat": 0.0, "name": "656a68716d1e9dadb2557b619f28995c", "lon": -77.0312795, "is_disabled": 0, "is_reserved": 0, "fusion_lon": 0.0, "bike_id": "656a68716d1e9dadb2557b619f28995c", "lat": 38.89231816666667}, {"type": "electric_scooter", "rental_uris": {"android": "https://dc.lft.to/lastmile_qr_scan", "ios": "https://dc.lft.to/lastmile_qr_scan"}, "fusion_lat": 0.0, "name": "2096d3c2b1075bce2fe152da1cfb10f0", "lon": -77.02779, "is_disabled": 0, "is_reserved": 0, "fusion_lon": 0.0, "bike_id": "2096d3c2b1075bce2fe152da1cfb10f0", "lat": 38.926881}, {"type": "electric_scooter", "rental_uris": {"android": "https://dc.lft.to/lastmile_qr_scan", "ios": "https://dc.lft.to/lastmile_qr_scan"}, "fusion_lat": 0.0, "name": "4f6a31aeaba29d58b02437221440b2ed", "lon": -77.0588215, "is_disabled": 0, "is_reserved": 0, "fusion_lon": 0.0, "bike_id": "4f6a31aeaba29d58b02437221440b2ed", "lat": 38.9424875}, {"type": "electric_scooter", "rental_uris": {"android": "https://dc.lft.to/lastmile_qr_scan", "ios": "https://dc.lft.to/lastmile_qr_scan"}, "fusion_lat": 0.0, "name": "70b8e578db9c562a0bb393cdf04f04d0", "lon": -77.04150216666666, "is_disabled": 0, "is_reserved": 0, "fusion_lon": 0.0, "bike_id": "70b8e578db9c562a0bb393cdf04f04d0", "lat": 38.917501666666666}, {"type": "electric_scooter", "rental_uris": {"android": "https://dc.lft.to/lastmile_qr_scan", "ios": "https://dc.lft.to/lastmile_qr_scan"}, "fusion_lat": 0.0, "name": "50b56d5afe5e4b613a9427dae93733d6", "lon": -77.07346933333334, "is_disabled": 0, "is_reserved": 0, "fusion_lon": 0.0, "bike_id": "50b56d5afe5e4b613a9427dae93733d6", "lat": 38.91105316666667}, {"type": "electric_scooter", "rental_uris": {"android": "https://dc.lft.to/lastmile_qr_scan", "ios": "https://dc.lft.to/lastmile_qr_scan"}, "fusion_lat": 0.0, "name": "9bdd2278e0dc41bf84b792d4f15bfc06", "lon": -77.032789, "is_disabled": 0, "is_reserved": 0, "fusion_lon": 0.0, "bike_id": "9bdd2278e0dc41bf84b792d4f15bfc06", "lat": 38.932123833333335}, {"type": "electric_scooter", "rental_uris": {"android": "https://dc.lft.to/lastmile_qr_scan", "ios": "https://dc.lft.to/lastmile_qr_scan"}, "fusion_lat": 0.0, "name": "a1e92306f2e1556b3242e939d9c55391", "lon": -77.041941, "is_disabled": 0, "is_reserved": 0, "fusion_lon": 0.0, "bike_id": "a1e92306f2e1556b3242e939d9c55391", "lat": 38.916979}, {"type": "electric_scooter", "rental_uris": {"android": "https://dc.lft.to/lastmile_qr_scan", "ios": "https://dc.lft.to/lastmile_qr_scan"}, "fusion_lat": 0.0, "name": "94957f96a97ebc4e941650c25aa267bc", "lon": -77.01734433333333, "is_disabled": 0, "is_reserved": 0, "fusion_lon": 0.0, "bike_id": "94957f96a97ebc4e941650c25aa267bc", "lat": 38.87272166666666}, {"type": "electric_scooter", "rental_uris": {"android": "https://dc.lft.to/lastmile_qr_scan", "ios": "https://dc.lft.to/lastmile_qr_scan"}, "fusion_lat": 0.0, "name": "c7e682d06c0541705f4764b9ae7a7c9a", "lon": -77.04029316666667, "is_disabled": 0, "is_reserved": 0, "fusion_lon": 0.0, "bike_id": "c7e682d06c0541705f4764b9ae7a7c9a", "lat": 38.92454566666667}, {"type": "electric_scooter", "rental_uris": {"android": "https://dc.lft.to/lastmile_qr_scan", "ios": "https://dc.lft.to/lastmile_qr_scan"}, "fusion_lat": 0.0, "name": "83c9cded0fbce32ca11fe006f0c4e979", "lon": -76.98205616666667, "is_disabled": 0, "is_reserved": 0, "fusion_lon": 0.0, "bike_id": "83c9cded0fbce32ca11fe006f0c4e979", "lat": 38.866197666666665}, {"type": "electric_scooter", "rental_uris": {"android": "https://dc.lft.to/lastmile_qr_scan", "ios": "https://dc.lft.to/lastmile_qr_scan"}, "fusion_lat": 0.0, "name": "801e80cb9f31b0b3368176adb1cb8479", "lon": -77.0078695, "is_disabled": 0, "is_reserved": 0, "fusion_lon": 0.0, "bike_id": "801e80cb9f31b0b3368176adb1cb8479", "lat": 38.879133833333334}, {"type": "electric_scooter", "rental_uris": {"android": "https://dc.lft.to/lastmile_qr_scan", "ios": "https://dc.lft.to/lastmile_qr_scan"}, "fusion_lat": 0.0, "name": "e3f1a8d4b71dd8637a7d6f1ad154d397", "lon": -77.0297515, "is_disabled": 0, "is_reserved": 0, "fusion_lon": 0.0, "bike_id": "e3f1a8d4b71dd8637a7d6f1ad154d397", "lat": 38.91058916666667}, {"type": "electric_scooter", "rental_uris": {"android": "https://dc.lft.to/lastmile_qr_scan", "ios": "https://dc.lft.to/lastmile_qr_scan"}, "fusion_lat": 0.0, "name": "ecaae500f2121c8b5e2d064a59969cae", "lon": -77.06131916666666, "is_disabled": 0, "is_reserved": 0, "fusion_lon": 0.0, "bike_id": "ecaae500f2121c8b5e2d064a59969cae", "lat": 38.94090533333333}, {"type": "electric_scooter", "rental_uris": {"android": "https://dc.lft.to/lastmile_qr_scan", "ios": "https://dc.lft.to/lastmile_qr_scan"}, "fusion_lat": 0.0, "name": "62ec367d9c901fc201c425ab72defad5", "lon": -76.98142983333334, "is_disabled": 0, "is_reserved": 0, "fusion_lon": 0.0, "bike_id": "62ec367d9c901fc201c425ab72defad5", "lat": 38.905637}, {"type": "electric_scooter", "rental_uris": {"android": "https://dc.lft.to/lastmile_qr_scan", "ios": "https://dc.lft.to/lastmile_qr_scan"}, "fusion_lat": 0.0, "name": "b1eb90a98211309272f3c5166db11466", "lon": -77.042032, "is_disabled": 0, "is_reserved": 0, "fusion_lon": 0.0, "bike_id": "b1eb90a98211309272f3c5166db11466", "lat": 38.919753166666666}, {"type": "electric_scooter", "rental_uris": {"android": "https://dc.lft.to/lastmile_qr_scan", "ios": "https://dc.lft.to/lastmile_qr_scan"}, "fusion_lat": 0.0, "name": "d4083b83d3c2880b4c44d907450e576c", "lon": -77.04355283333334, "is_disabled": 0, "is_reserved": 0, "fusion_lon": 0.0, "bike_id": "d4083b83d3c2880b4c44d907450e576c", "lat": 38.905762333333335}, {"type": "electric_scooter", "rental_uris": {"android": "https://dc.lft.to/lastmile_qr_scan", "ios": "https://dc.lft.to/lastmile_qr_scan"}, "fusion_lat": 0.0, "name": "0d08f1f9447ad84f491060c8aa007e6e", "lon": -77.01607666666666, "is_disabled": 0, "is_reserved": 0, "fusion_lon": 0.0, "bike_id": "0d08f1f9447ad84f491060c8aa007e6e", "lat": 38.88341033333333}, {"type": "electric_scooter", "rental_uris": {"android": "https://dc.lft.to/lastmile_qr_scan", "ios": "https://dc.lft.to/lastmile_qr_scan"}, "fusion_lat": 0.0, "name": "935269d1029778c05785129b7e1ea6c9", "lon": -77.0415395, "is_disabled": 0, "is_reserved": 0, "fusion_lon": 0.0, "bike_id": "935269d1029778c05785129b7e1ea6c9", "lat": 38.91858716666667}, {"type": "electric_scooter", "rental_uris": {"android": "https://dc.lft.to/lastmile_qr_scan", "ios": "https://dc.lft.to/lastmile_qr_scan"}, "fusion_lat": 0.0, "name": "e8b9347ede499838ccf7eb1d19ed476a", "lon": -76.95187166666666, "is_disabled": 0, "is_reserved": 0, "fusion_lon": 0.0, "bike_id": "e8b9347ede499838ccf7eb1d19ed476a", "lat": 38.90737016666667}, {"type": "electric_scooter", "rental_uris": {"android": "https://dc.lft.to/lastmile_qr_scan", "ios": "https://dc.lft.to/lastmile_qr_scan"}, "fusion_lat": 0.0, "name": "132a9b559cc41cc74669d021231dafd0", "lon": -77.01967466666666, "is_disabled": 0, "is_reserved": 0, "fusion_lon": 0.0, "bike_id": "132a9b559cc41cc74669d021231dafd0", "lat": 38.878496166666665}, {"type": "electric_scooter", "rental_uris": {"android": "https://dc.lft.to/lastmile_qr_scan", "ios": "https://dc.lft.to/lastmile_qr_scan"}, "fusion_lat": 0.0, "name": "4b3cd468e5adb85665e5de7e251c2bd9", "lon": -77.02253083333333, "is_disabled": 0, "is_reserved": 0, "fusion_lon": 0.0, "bike_id": "4b3cd468e5adb85665e5de7e251c2bd9", "lat": 38.8939435}, {"type": "electric_scooter", "rental_uris": {"android": "https://dc.lft.to/lastmile_qr_scan", "ios": "https://dc.lft.to/lastmile_qr_scan"}, "fusion_lat": 0.0, "name": "bd7ffb2c7acc685a80b1bf981ca6850d", "lon": -76.9837475, "is_disabled": 0, "is_reserved": 0, "fusion_lon": 0.0, "bike_id": "bd7ffb2c7acc685a80b1bf981ca6850d", "lat": 38.906514666666666}, {"type": "electric_scooter", "rental_uris": {"android": "https://dc.lft.to/lastmile_qr_scan", "ios": "https://dc.lft.to/lastmile_qr_scan"}, "fusion_lat": 0.0, "name": "e2d4ba03a0826ea57e8e65edb99fa029", "lon": -77.04376583333334, "is_disabled": 0, "is_reserved": 0, "fusion_lon": 0.0, "bike_id": "e2d4ba03a0826ea57e8e65edb99fa029", "lat": 38.89220666666667}, {"type": "electric_scooter", "rental_uris": {"android": "https://dc.lft.to/lastmile_qr_scan", "ios": "https://dc.lft.to/lastmile_qr_scan"}, "fusion_lat": 0.0, "name": "b09efc8bc52de53176f60c195ea88426", "lon": -76.98716733333333, "is_disabled": 0, "is_reserved": 0, "fusion_lon": 0.0, "bike_id": "b09efc8bc52de53176f60c195ea88426", "lat": 38.866252833333334}, {"type": "electric_scooter", "rental_uris": {"android": "https://dc.lft.to/lastmile_qr_scan", "ios": "https://dc.lft.to/lastmile_qr_scan"}, "fusion_lat": 0.0, "name": "4822a2549e3fbe45c914376b12a23151", "lon": -76.98954333333333, "is_disabled": 0, "is_reserved": 0, "fusion_lon": 0.0, "bike_id": "4822a2549e3fbe45c914376b12a23151", "lat": 38.85695333333334}, {"type": "electric_scooter", "rental_uris": {"android": "https://dc.lft.to/lastmile_qr_scan", "ios": "https://dc.lft.to/lastmile_qr_scan"}, "fusion_lat": 0.0, "name": "7c2e90aca48c00e2f4562caa342e97a0", "lon": -76.99924816666666, "is_disabled": 0, "is_reserved": 0, "fusion_lon": 0.0, "bike_id": "7c2e90aca48c00e2f4562caa342e97a0", "lat": 38.907279333333335}, {"type": "electric_scooter", "rental_uris": {"android": "https://dc.lft.to/lastmile_qr_scan", "ios": "https://dc.lft.to/lastmile_qr_scan"}, "fusion_lat": 0.0, "name": "a41f1fb704efc6d37558eb598818e7cd", "lon": -76.9819785, "is_disabled": 0, "is_reserved": 0, "fusion_lon": 0.0, "bike_id": "a41f1fb704efc6d37558eb598818e7cd", "lat": 38.899473}, {"type": "electric_scooter", "rental_uris": {"android": "https://dc.lft.to/lastmile_qr_scan", "ios": "https://dc.lft.to/lastmile_qr_scan"}, "fusion_lat": 0.0, "name": "d5781560cc9be7826c36727e3da1530c", "lon": -76.9980625, "is_disabled": 0, "is_reserved": 0, "fusion_lon": 0.0, "bike_id": "d5781560cc9be7826c36727e3da1530c", "lat": 38.9000745}, {"type": "electric_scooter", "rental_uris": {"android": "https://dc.lft.to/lastmile_qr_scan", "ios": "https://dc.lft.to/lastmile_qr_scan"}, "fusion_lat": 0.0, "name": "b4735841537eddbc76fb4b86e8eb292b", "lon": -77.02835916666666, "is_disabled": 0, "is_reserved": 0, "fusion_lon": 0.0, "bike_id": "b4735841537eddbc76fb4b86e8eb292b", "lat": 38.892226666666666}, {"type": "electric_scooter", "rental_uris": {"android": "https://dc.lft.to/lastmile_qr_scan", "ios": "https://dc.lft.to/lastmile_qr_scan"}, "fusion_lat": 0.0, "name": "922582907d3853e77a611c61a9530b36", "lon": -77.0224215, "is_disabled": 0, "is_reserved": 0, "fusion_lon": 0.0, "bike_id": "922582907d3853e77a611c61a9530b36", "lat": 38.912779666666665}, {"type": "electric_scooter", "rental_uris": {"android": "https://dc.lft.to/lastmile_qr_scan", "ios": "https://dc.lft.to/lastmile_qr_scan"}, "fusion_lat": 0.0, "name": "4009bd2041fbf30f752c92c6b88f1ae7", "lon": -77.02797966666667, "is_disabled": 0, "is_reserved": 0, "fusion_lon": 0.0, "bike_id": "4009bd2041fbf30f752c92c6b88f1ae7", "lat": 38.929747166666665}, {"type": "electric_scooter", "rental_uris": {"android": "https://dc.lft.to/lastmile_qr_scan", "ios": "https://dc.lft.to/lastmile_qr_scan"}, "fusion_lat": 0.0, "name": "884fb3118ff08cb2ddd57f2546b8faea", "lon": -77.03440966666666, "is_disabled": 0, "is_reserved": 0, "fusion_lon": 0.0, "bike_id": "884fb3118ff08cb2ddd57f2546b8faea", "lat": 38.918087166666666}, {"type": "electric_scooter", "rental_uris": {"android": "https://dc.lft.to/lastmile_qr_scan", "ios": "https://dc.lft.to/lastmile_qr_scan"}, "fusion_lat": 0.0, "name": "c6d686917a599d0543d1b70ad7457c85", "lon": -77.0327375, "is_disabled": 0, "is_reserved": 0, "fusion_lon": 0.0, "bike_id": "c6d686917a599d0543d1b70ad7457c85", "lat": 38.932468166666666}, {"type": "electric_scooter", "rental_uris": {"android": "https://dc.lft.to/lastmile_qr_scan", "ios": "https://dc.lft.to/lastmile_qr_scan"}, "fusion_lat": 0.0, "name": "6fa6bb47810c6ea943af8192e21dbe6a", "lon": -77.06398966666667, "is_disabled": 0, "is_reserved": 0, "fusion_lon": 0.0, "bike_id": "6fa6bb47810c6ea943af8192e21dbe6a", "lat": 38.94327283333333}, {"type": "electric_scooter", "rental_uris": {"android": "https://dc.lft.to/lastmile_qr_scan", "ios": "https://dc.lft.to/lastmile_qr_scan"}, "fusion_lat": 0.0, "name": "91ec0583e69c378bcf27ee968c679f16", "lon": -77.02491966666666, "is_disabled": 0, "is_reserved": 0, "fusion_lon": 0.0, "bike_id": "91ec0583e69c378bcf27ee968c679f16", "lat": 38.941828666666666}, {"type": "electric_scooter", "rental_uris": {"android": "https://dc.lft.to/lastmile_qr_scan", "ios": "https://dc.lft.to/lastmile_qr_scan"}, "fusion_lat": 0.0, "name": "5cf6d50c8ab2e9d38305ac6b3a9b04b2", "lon": -76.990359, "is_disabled": 0, "is_reserved": 0, "fusion_lon": 0.0, "bike_id": "5cf6d50c8ab2e9d38305ac6b3a9b04b2", "lat": 38.9028855}, {"type": "electric_scooter", "rental_uris": {"android": "https://dc.lft.to/lastmile_qr_scan", "ios": "https://dc.lft.to/lastmile_qr_scan"}, "fusion_lat": 0.0, "name": "167643b9992ed9d3d632e9abbad7fb01", "lon": -77.01224416666666, "is_disabled": 0, "is_reserved": 0, "fusion_lon": 0.0, "bike_id": "167643b9992ed9d3d632e9abbad7fb01", "lat": 38.916833}, {"type": "electric_scooter", "rental_uris": {"android": "https://dc.lft.to/lastmile_qr_scan", "ios": "https://dc.lft.to/lastmile_qr_scan"}, "fusion_lat": 0.0, "name": "a5ed7711d5ff1501b71d5a62c94c4540", "lon": -77.04484, "is_disabled": 0, "is_reserved": 0, "fusion_lon": 0.0, "bike_id": "a5ed7711d5ff1501b71d5a62c94c4540", "lat": 38.915154}, {"type": "electric_scooter", "rental_uris": {"android": "https://dc.lft.to/lastmile_qr_scan", "ios": "https://dc.lft.to/lastmile_qr_scan"}, "fusion_lat": 0.0, "name": "3ae2afa1479762ef7f85d2dd2cea1b48", "lon": -77.03286983333334, "is_disabled": 0, "is_reserved": 0, "fusion_lon": 0.0, "bike_id": "3ae2afa1479762ef7f85d2dd2cea1b48", "lat": 38.93118116666667}, {"type": "electric_scooter", "rental_uris": {"android": "https://dc.lft.to/lastmile_qr_scan", "ios": "https://dc.lft.to/lastmile_qr_scan"}, "fusion_lat": 0.0, "name": "99b8e1c806733f249de6daefc7d7bdac", "lon": -77.03414966666666, "is_disabled": 0, "is_reserved": 0, "fusion_lon": 0.0, "bike_id": "99b8e1c806733f249de6daefc7d7bdac", "lat": 38.90396166666667}, {"type": "electric_scooter", "rental_uris": {"android": "https://dc.lft.to/lastmile_qr_scan", "ios": "https://dc.lft.to/lastmile_qr_scan"}, "fusion_lat": 0.0, "name": "a719b6819a61791c1a9bdd2751cf3455", "lon": -77.04196683333333, "is_disabled": 0, "is_reserved": 0, "fusion_lon": 0.0, "bike_id": "a719b6819a61791c1a9bdd2751cf3455", "lat": 38.918764333333336}, {"type": "electric_scooter", "rental_uris": {"android": "https://dc.lft.to/lastmile_qr_scan", "ios": "https://dc.lft.to/lastmile_qr_scan"}, "fusion_lat": 0.0, "name": "ed428a0ea715e7daddf61682edbec686", "lon": -76.99045666666666, "is_disabled": 0, "is_reserved": 0, "fusion_lon": 0.0, "bike_id": "ed428a0ea715e7daddf61682edbec686", "lat": 38.86378883333333}, {"type": "electric_scooter", "rental_uris": {"android": "https://dc.lft.to/lastmile_qr_scan", "ios": "https://dc.lft.to/lastmile_qr_scan"}, "fusion_lat": 0.0, "name": "c336c5d095006a44bfcdd2680c3a10e5", "lon": -77.00083116666667, "is_disabled": 0, "is_reserved": 0, "fusion_lon": 0.0, "bike_id": "c336c5d095006a44bfcdd2680c3a10e5", "lat": 38.894767333333334}, {"type": "electric_bike", "rental_uris": {"android": "https://dc.lft.to/lastmile_qr_scan", "ios": "https://dc.lft.to/lastmile_qr_scan"}, "fusion_lat": 0.0, "name": "9a79a5ec4446a3d71770f4caf6147bb0", "lon": -77.08586833333334, "is_disabled": 0, "is_reserved": 0, "fusion_lon": 0.0, "bike_id": "9a79a5ec4446a3d71770f4caf6147bb0", "lat": 38.9611645}, {"type": "electric_scooter", "rental_uris": {"android": "https://dc.lft.to/lastmile_qr_scan", "ios": "https://dc.lft.to/lastmile_qr_scan"}, "fusion_lat": 0.0, "name": "c92f567caceac8831e12220e74d1f0d4", "lon": -77.02009866666667, "is_disabled": 0, "is_reserved": 0, "fusion_lon": 0.0, "bike_id": "c92f567caceac8831e12220e74d1f0d4", "lat": 38.938917833333335}, {"type": "electric_scooter", "rental_uris": {"android": "https://dc.lft.to/lastmile_qr_scan", "ios": "https://dc.lft.to/lastmile_qr_scan"}, "fusion_lat": 0.0, "name": "b44158c225ca0fd35bd3bd6bca2d5017", "lon": -77.0356105, "is_disabled": 0, "is_reserved": 0, "fusion_lon": 0.0, "bike_id": "b44158c225ca0fd35bd3bd6bca2d5017", "lat": 38.91710416666667}, {"type": "electric_scooter", "rental_uris": {"android": "https://dc.lft.to/lastmile_qr_scan", "ios": "https://dc.lft.to/lastmile_qr_scan"}, "fusion_lat": 0.0, "name": "71768056b5917ba673507d631af7450d", "lon": -77.02397883333333, "is_disabled": 0, "is_reserved": 0, "fusion_lon": 0.0, "bike_id": "71768056b5917ba673507d631af7450d", "lat": 38.9141985}, {"type": "electric_scooter", "rental_uris": {"android": "https://dc.lft.to/lastmile_qr_scan", "ios": "https://dc.lft.to/lastmile_qr_scan"}, "fusion_lat": 0.0, "name": "2c1eee4be7e55bf5e22b38117a9c260d", "lon": -77.043234, "is_disabled": 0, "is_reserved": 0, "fusion_lon": 0.0, "bike_id": "2c1eee4be7e55bf5e22b38117a9c260d", "lat": 38.90701683333333}, {"type": "electric_bike", "rental_uris": {"android": "https://dc.lft.to/lastmile_qr_scan", "ios": "https://dc.lft.to/lastmile_qr_scan"}, "fusion_lat": 0.0, "name": "0dba2f7c3fed98f88c07d511dcbdda25", "lon": -77.0504005, "is_disabled": 0, "is_reserved": 0, "fusion_lon": 0.0, "bike_id": "0dba2f7c3fed98f88c07d511dcbdda25", "lat": 38.924148}, {"type": "electric_scooter", "rental_uris": {"android": "https://dc.lft.to/lastmile_qr_scan", "ios": "https://dc.lft.to/lastmile_qr_scan"}, "fusion_lat": 0.0, "name": "9797ed9b93551564666ec47e660bbb43", "lon": -76.97841916666667, "is_disabled": 0, "is_reserved": 0, "fusion_lon": 0.0, "bike_id": "9797ed9b93551564666ec47e660bbb43", "lat": 38.899212}, {"type": "electric_scooter", "rental_uris": {"android": "https://dc.lft.to/lastmile_qr_scan", "ios": "https://dc.lft.to/lastmile_qr_scan"}, "fusion_lat": 0.0, "name": "8ec6f0a13de25704caf6a25d9c5e9d43", "lon": -77.032636, "is_disabled": 0, "is_reserved": 0, "fusion_lon": 0.0, "bike_id": "8ec6f0a13de25704caf6a25d9c5e9d43", "lat": 38.93724683333333}, {"type": "electric_scooter", "rental_uris": {"android": "https://dc.lft.to/lastmile_qr_scan", "ios": "https://dc.lft.to/lastmile_qr_scan"}, "fusion_lat": 0.0, "name": "60e0cd1ffc70eae8294ea67c21bffc53", "lon": -77.07268516666667, "is_disabled": 0, "is_reserved": 0, "fusion_lon": 0.0, "bike_id": "60e0cd1ffc70eae8294ea67c21bffc53", "lat": 38.911585333333335}, {"type": "electric_scooter", "rental_uris": {"android": "https://dc.lft.to/lastmile_qr_scan", "ios": "https://dc.lft.to/lastmile_qr_scan"}, "fusion_lat": 0.0, "name": "4c3ff5d282d4665ca95cd2729b848c7a", "lon": -77.022892, "is_disabled": 0, "is_reserved": 0, "fusion_lon": 0.0, "bike_id": "4c3ff5d282d4665ca95cd2729b848c7a", "lat": 38.901429666666665}, {"type": "electric_bike", "rental_uris": {"android": "https://dc.lft.to/lastmile_qr_scan", "ios": "https://dc.lft.to/lastmile_qr_scan"}, "fusion_lat": 0.0, "name": "7bcc22d511ea1e106d42bfdc24ef4f49", "lon": -76.97100416666666, "is_disabled": 0, "is_reserved": 0, "fusion_lon": 0.0, "bike_id": "7bcc22d511ea1e106d42bfdc24ef4f49", "lat": 38.91811416666667}, {"type": "electric_scooter", "rental_uris": {"android": "https://dc.lft.to/lastmile_qr_scan", "ios": "https://dc.lft.to/lastmile_qr_scan"}, "fusion_lat": 0.0, "name": "18113a7939e4d4b99d95d18dfa4887dd", "lon": -77.03212883333333, "is_disabled": 0, "is_reserved": 0, "fusion_lon": 0.0, "bike_id": "18113a7939e4d4b99d95d18dfa4887dd", "lat": 38.907251333333335}, {"type": "electric_scooter", "rental_uris": {"android": "https://dc.lft.to/lastmile_qr_scan", "ios": "https://dc.lft.to/lastmile_qr_scan"}, "fusion_lat": 0.0, "name": "2d2f8510acd489dfb6939b736997a477", "lon": -77.02157283333334, "is_disabled": 0, "is_reserved": 0, "fusion_lon": 0.0, "bike_id": "2d2f8510acd489dfb6939b736997a477", "lat": 38.92606766666667}, {"type": "electric_scooter", "rental_uris": {"android": "https://dc.lft.to/lastmile_qr_scan", "ios": "https://dc.lft.to/lastmile_qr_scan"}, "fusion_lat": 0.0, "name": "90ec44b2965773c29eef246faaf4ce79", "lon": -77.02704733333333, "is_disabled": 0, "is_reserved": 0, "fusion_lon": 0.0, "bike_id": "90ec44b2965773c29eef246faaf4ce79", "lat": 38.924695}, {"type": "electric_scooter", "rental_uris": {"android": "https://dc.lft.to/lastmile_qr_scan", "ios": "https://dc.lft.to/lastmile_qr_scan"}, "fusion_lat": 0.0, "name": "cbab1d7dcff654b74538b56a8b2c920b", "lon": -77.018011, "is_disabled": 0, "is_reserved": 0, "fusion_lon": 0.0, "bike_id": "cbab1d7dcff654b74538b56a8b2c920b", "lat": 38.964841}, {"type": "electric_scooter", "rental_uris": {"android": "https://dc.lft.to/lastmile_qr_scan", "ios": "https://dc.lft.to/lastmile_qr_scan"}, "fusion_lat": 0.0, "name": "9fc52f3dfb4aa43f066d1b58551f5e6e", "lon": -77.04479166666667, "is_disabled": 0, "is_reserved": 0, "fusion_lon": 0.0, "bike_id": "9fc52f3dfb4aa43f066d1b58551f5e6e", "lat": 38.91082816666667}, {"type": "electric_scooter", "rental_uris": {"android": "https://dc.lft.to/lastmile_qr_scan", "ios": "https://dc.lft.to/lastmile_qr_scan"}, "fusion_lat": 0.0, "name": "56c864248d8218eb733ccc0be8c295dc", "lon": -76.98824533333334, "is_disabled": 0, "is_reserved": 0, "fusion_lon": 0.0, "bike_id": "56c864248d8218eb733ccc0be8c295dc", "lat": 38.89076983333333}, {"type": "electric_scooter", "rental_uris": {"android": "https://dc.lft.to/lastmile_qr_scan", "ios": "https://dc.lft.to/lastmile_qr_scan"}, "fusion_lat": 0.0, "name": "5de703e2a54088df3113e8f35b212b70", "lon": -77.046633, "is_disabled": 0, "is_reserved": 0, "fusion_lon": 0.0, "bike_id": "5de703e2a54088df3113e8f35b212b70", "lat": 38.903811}, {"type": "electric_scooter", "rental_uris": {"android": "https://dc.lft.to/lastmile_qr_scan", "ios": "https://dc.lft.to/lastmile_qr_scan"}, "fusion_lat": 0.0, "name": "974a77fba62a1cb2c24c834d13d304b4", "lon": -77.0230925, "is_disabled": 0, "is_reserved": 0, "fusion_lon": 0.0, "bike_id": "974a77fba62a1cb2c24c834d13d304b4", "lat": 38.90878633333333}, {"type": "electric_scooter", "rental_uris": {"android": "https://dc.lft.to/lastmile_qr_scan", "ios": "https://dc.lft.to/lastmile_qr_scan"}, "fusion_lat": 0.0, "name": "ec8369ffdd2b2a9e40efe616f8541b16", "lon": -77.01855316666666, "is_disabled": 0, "is_reserved": 0, "fusion_lon": 0.0, "bike_id": "ec8369ffdd2b2a9e40efe616f8541b16", "lat": 38.873414833333335}, {"type": "electric_scooter", "rental_uris": {"android": "https://dc.lft.to/lastmile_qr_scan", "ios": "https://dc.lft.to/lastmile_qr_scan"}, "fusion_lat": 0.0, "name": "942d83c9cf4fc16f79706c86c378c243", "lon": -77.03469766666667, "is_disabled": 0, "is_reserved": 0, "fusion_lon": 0.0, "bike_id": "942d83c9cf4fc16f79706c86c378c243", "lat": 38.9170465}, {"type": "electric_bike", "rental_uris": {"android": "https://dc.lft.to/lastmile_qr_scan", "ios": "https://dc.lft.to/lastmile_qr_scan"}, "fusion_lat": 0.0, "name": "2423f5f18b85d6341d119651269f6279", "lon": -76.88398266666667, "is_disabled": 0, "is_reserved": 0, "fusion_lon": 0.0, "bike_id": "2423f5f18b85d6341d119651269f6279", "lat": 38.931699333333334}, {"type": "electric_bike", "rental_uris": {"android": "https://dc.lft.to/lastmile_qr_scan", "ios": "https://dc.lft.to/lastmile_qr_scan"}, "fusion_lat": 0.0, "name": "cedd321b041c348a650e2c788807de08", "lon": -77.04649966666666, "is_disabled": 0, "is_reserved": 0, "fusion_lon": 0.0, "bike_id": "cedd321b041c348a650e2c788807de08", "lat": 39.055000166666666}, {"type": "electric_scooter", "rental_uris": {"android": "https://dc.lft.to/lastmile_qr_scan", "ios": "https://dc.lft.to/lastmile_qr_scan"}, "fusion_lat": 0.0, "name": "490a912e3413927d5912c83569e038d1", "lon": -77.004738, "is_disabled": 0, "is_reserved": 0, "fusion_lon": 0.0, "bike_id": "490a912e3413927d5912c83569e038d1", "lat": 38.895848}, {"type": "electric_bike", "rental_uris": {"android": "https://dc.lft.to/lastmile_qr_scan", "ios": "https://dc.lft.to/lastmile_qr_scan"}, "fusion_lat": 0.0, "name": "588c8a92ed703618350ab50fc980f8c1", "lon": -77.16247233333333, "is_disabled": 0, "is_reserved": 0, "fusion_lon": 0.0, "bike_id": "588c8a92ed703618350ab50fc980f8c1", "lat": 38.8865645}, {"type": "electric_scooter", "rental_uris": {"android": "https://dc.lft.to/lastmile_qr_scan", "ios": "https://dc.lft.to/lastmile_qr_scan"}, "fusion_lat": 0.0, "name": "a06cfe8ce7a204b5e0b21f14d4b22c1e", "lon": -76.95649683333333, "is_disabled": 0, "is_reserved": 0, "fusion_lon": 0.0, "bike_id": "a06cfe8ce7a204b5e0b21f14d4b22c1e", "lat": 38.896146}, {"type": "electric_bike", "rental_uris": {"android": "https://dc.lft.to/lastmile_qr_scan", "ios": "https://dc.lft.to/lastmile_qr_scan"}, "fusion_lat": 0.0, "name": "d3401c7bf7584f3a0b790e658ee06b6a", "lon": -76.9683575, "is_disabled": 0, "is_reserved": 0, "fusion_lon": 0.0, "bike_id": "d3401c7bf7584f3a0b790e658ee06b6a", "lat": 38.943205}, {"type": "electric_scooter", "rental_uris": {"android": "https://dc.lft.to/lastmile_qr_scan", "ios": "https://dc.lft.to/lastmile_qr_scan"}, "fusion_lat": 0.0, "name": "b3c41cba6cef1cccd26e7f96a8bdb907", "lon": -76.98722866666667, "is_disabled": 0, "is_reserved": 0, "fusion_lon": 0.0, "bike_id": "b3c41cba6cef1cccd26e7f96a8bdb907", "lat": 38.867166833333336}, {"type": "electric_scooter", "rental_uris": {"android": "https://dc.lft.to/lastmile_qr_scan", "ios": "https://dc.lft.to/lastmile_qr_scan"}, "fusion_lat": 0.0, "name": "ea44d67c5da135173c42d365072876fb", "lon": -77.02705466666667, "is_disabled": 0, "is_reserved": 0, "fusion_lon": 0.0, "bike_id": "ea44d67c5da135173c42d365072876fb", "lat": 38.9278015}, {"type": "electric_scooter", "rental_uris": {"android": "https://dc.lft.to/lastmile_qr_scan", "ios": "https://dc.lft.to/lastmile_qr_scan"}, "fusion_lat": 0.0, "name": "716eaaa0d3ba277f1dcf18100832e7db", "lon": -77.03120066666666, "is_disabled": 0, "is_reserved": 0, "fusion_lon": 0.0, "bike_id": "716eaaa0d3ba277f1dcf18100832e7db", "lat": 38.91705133333333}, {"type": "electric_scooter", "rental_uris": {"android": "https://dc.lft.to/lastmile_qr_scan", "ios": "https://dc.lft.to/lastmile_qr_scan"}, "fusion_lat": 0.0, "name": "2d6fc0394f289c747e5ba273eb7c8a78", "lon": -77.00188066666666, "is_disabled": 0, "is_reserved": 0, "fusion_lon": 0.0, "bike_id": "2d6fc0394f289c747e5ba273eb7c8a78", "lat": 38.82197633333333}, {"type": "electric_scooter", "rental_uris": {"android": "https://dc.lft.to/lastmile_qr_scan", "ios": "https://dc.lft.to/lastmile_qr_scan"}, "fusion_lat": 0.0, "name": "9b5ca6f36dc2790126a82a5d221bc35c", "lon": -77.0386245, "is_disabled": 0, "is_reserved": 0, "fusion_lon": 0.0, "bike_id": "9b5ca6f36dc2790126a82a5d221bc35c", "lat": 38.917169666666666}, {"type": "electric_scooter", "rental_uris": {"android": "https://dc.lft.to/lastmile_qr_scan", "ios": "https://dc.lft.to/lastmile_qr_scan"}, "fusion_lat": 0.0, "name": "6a9db1f49efe079c9876ad230c28d100", "lon": -77.0298355, "is_disabled": 0, "is_reserved": 0, "fusion_lon": 0.0, "bike_id": "6a9db1f49efe079c9876ad230c28d100", "lat": 38.9473865}, {"type": "electric_scooter", "rental_uris": {"android": "https://dc.lft.to/lastmile_qr_scan", "ios": "https://dc.lft.to/lastmile_qr_scan"}, "fusion_lat": 0.0, "name": "7f903064978c0ea0cd3a15eb38545a85", "lon": -76.99201833333333, "is_disabled": 0, "is_reserved": 0, "fusion_lon": 0.0, "bike_id": "7f903064978c0ea0cd3a15eb38545a85", "lat": 38.900218833333334}, {"type": "electric_scooter", "rental_uris": {"android": "https://dc.lft.to/lastmile_qr_scan", "ios": "https://dc.lft.to/lastmile_qr_scan"}, "fusion_lat": 0.0, "name": "cdc789b237e0bb99d2a2b4f475638a6d", "lon": -77.03633166666667, "is_disabled": 0, "is_reserved": 0, "fusion_lon": 0.0, "bike_id": "cdc789b237e0bb99d2a2b4f475638a6d", "lat": 38.91806866666667}, {"type": "electric_scooter", "rental_uris": {"android": "https://dc.lft.to/lastmile_qr_scan", "ios": "https://dc.lft.to/lastmile_qr_scan"}, "fusion_lat": 0.0, "name": "81e2242e6c3f053b1757bbcf56136f1d", "lon": -77.0385565, "is_disabled": 0, "is_reserved": 0, "fusion_lon": 0.0, "bike_id": "81e2242e6c3f053b1757bbcf56136f1d", "lat": 38.932027833333336}, {"type": "electric_scooter", "rental_uris": {"android": "https://dc.lft.to/lastmile_qr_scan", "ios": "https://dc.lft.to/lastmile_qr_scan"}, "fusion_lat": 0.0, "name": "40fbefc839fcfeedbe294ac15db65c24", "lon": -77.02190233333333, "is_disabled": 0, "is_reserved": 0, "fusion_lon": 0.0, "bike_id": "40fbefc839fcfeedbe294ac15db65c24", "lat": 38.91379}, {"type": "electric_scooter", "rental_uris": {"android": "https://dc.lft.to/lastmile_qr_scan", "ios": "https://dc.lft.to/lastmile_qr_scan"}, "fusion_lat": 0.0, "name": "a07797d872b6feaec306151226cb07c9", "lon": -77.067368, "is_disabled": 0, "is_reserved": 0, "fusion_lon": 0.0, "bike_id": "a07797d872b6feaec306151226cb07c9", "lat": 38.905036333333335}, {"type": "electric_scooter", "rental_uris": {"android": "https://dc.lft.to/lastmile_qr_scan", "ios": "https://dc.lft.to/lastmile_qr_scan"}, "fusion_lat": 0.0, "name": "bfd6aed0f20c486fdaa10756344b3007", "lon": -77.02183816666667, "is_disabled": 0, "is_reserved": 0, "fusion_lon": 0.0, "bike_id": "bfd6aed0f20c486fdaa10756344b3007", "lat": 38.899164999999996}, {"type": "electric_bike", "rental_uris": {"android": "https://dc.lft.to/lastmile_qr_scan", "ios": "https://dc.lft.to/lastmile_qr_scan"}, "fusion_lat": 0.0, "name": "6941795654cd66857d398a977f43425b", "lon": -77.10603466666667, "is_disabled": 0, "is_reserved": 0, "fusion_lon": 0.0, "bike_id": "6941795654cd66857d398a977f43425b", "lat": 38.92899333333333}, {"type": "electric_scooter", "rental_uris": {"android": "https://dc.lft.to/lastmile_qr_scan", "ios": "https://dc.lft.to/lastmile_qr_scan"}, "fusion_lat": 0.0, "name": "8ef40c56418f88bcb2d654e098924ece", "lon": -76.98588216666667, "is_disabled": 0, "is_reserved": 0, "fusion_lon": 0.0, "bike_id": "8ef40c56418f88bcb2d654e098924ece", "lat": 38.86061}, {"type": "electric_scooter", "rental_uris": {"android": "https://dc.lft.to/lastmile_qr_scan", "ios": "https://dc.lft.to/lastmile_qr_scan"}, "fusion_lat": 0.0, "name": "c7b5c5da11c129ca19a2f674d1ac2d19", "lon": -77.0385175, "is_disabled": 0, "is_reserved": 0, "fusion_lon": 0.0, "bike_id": "c7b5c5da11c129ca19a2f674d1ac2d19", "lat": 38.903032}, {"type": "electric_scooter", "rental_uris": {"android": "https://dc.lft.to/lastmile_qr_scan", "ios": "https://dc.lft.to/lastmile_qr_scan"}, "fusion_lat": 0.0, "name": "e21303ac71956760cbfecea9f5504d7f", "lon": -76.96155, "is_disabled": 0, "is_reserved": 0, "fusion_lon": 0.0, "bike_id": "e21303ac71956760cbfecea9f5504d7f", "lat": 38.88363116666667}, {"type": "electric_scooter", "rental_uris": {"android": "https://dc.lft.to/lastmile_qr_scan", "ios": "https://dc.lft.to/lastmile_qr_scan"}, "fusion_lat": 0.0, "name": "01ab8c91731d10d948fe7006fb738e05", "lon": -77.04114816666667, "is_disabled": 0, "is_reserved": 0, "fusion_lon": 0.0, "bike_id": "01ab8c91731d10d948fe7006fb738e05", "lat": 38.9178685}, {"type": "electric_scooter", "rental_uris": {"android": "https://dc.lft.to/lastmile_qr_scan", "ios": "https://dc.lft.to/lastmile_qr_scan"}, "fusion_lat": 0.0, "name": "99b2102a885d399d4acc581dd455ecaa", "lon": -77.02176266666666, "is_disabled": 0, "is_reserved": 0, "fusion_lon": 0.0, "bike_id": "99b2102a885d399d4acc581dd455ecaa", "lat": 38.91128633333334}, {"type": "electric_scooter", "rental_uris": {"android": "https://dc.lft.to/lastmile_qr_scan", "ios": "https://dc.lft.to/lastmile_qr_scan"}, "fusion_lat": 0.0, "name": "74d333f10e36aef003e206dcbf352e11", "lon": -76.98541683333333, "is_disabled": 0, "is_reserved": 0, "fusion_lon": 0.0, "bike_id": "74d333f10e36aef003e206dcbf352e11", "lat": 38.9102365}, {"type": "electric_scooter", "rental_uris": {"android": "https://dc.lft.to/lastmile_qr_scan", "ios": "https://dc.lft.to/lastmile_qr_scan"}, "fusion_lat": 0.0, "name": "cd66ef4d0a98c16dae5990f0d3d38f19", "lon": -77.04047283333334, "is_disabled": 0, "is_reserved": 0, "fusion_lon": 0.0, "bike_id": "cd66ef4d0a98c16dae5990f0d3d38f19", "lat": 38.903859}, {"type": "electric_scooter", "rental_uris": {"android": "https://dc.lft.to/lastmile_qr_scan", "ios": "https://dc.lft.to/lastmile_qr_scan"}, "fusion_lat": 0.0, "name": "84c3e4fe8bc153f8e757d2ab81283912", "lon": -77.02831516666667, "is_disabled": 0, "is_reserved": 0, "fusion_lon": 0.0, "bike_id": "84c3e4fe8bc153f8e757d2ab81283912", "lat": 38.8996285}, {"type": "electric_scooter", "rental_uris": {"android": "https://dc.lft.to/lastmile_qr_scan", "ios": "https://dc.lft.to/lastmile_qr_scan"}, "fusion_lat": 0.0, "name": "8cd4f4852670ed3b548454643075556f", "lon": -77.03481633333334, "is_disabled": 0, "is_reserved": 0, "fusion_lon": 0.0, "bike_id": "8cd4f4852670ed3b548454643075556f", "lat": 38.902810833333334}, {"type": "electric_scooter", "rental_uris": {"android": "https://dc.lft.to/lastmile_qr_scan", "ios": "https://dc.lft.to/lastmile_qr_scan"}, "fusion_lat": 0.0, "name": "7eb16b7b40f1560056412d8059b5354f", "lon": -77.03286716666666, "is_disabled": 0, "is_reserved": 0, "fusion_lon": 0.0, "bike_id": "7eb16b7b40f1560056412d8059b5354f", "lat": 38.94658316666667}, {"type": "electric_scooter", "rental_uris": {"android": "https://dc.lft.to/lastmile_qr_scan", "ios": "https://dc.lft.to/lastmile_qr_scan"}, "fusion_lat": 0.0, "name": "ce2c823bf2bb8377d6675b33024206ef", "lon": -76.98940116666667, "is_disabled": 0, "is_reserved": 0, "fusion_lon": 0.0, "bike_id": "ce2c823bf2bb8377d6675b33024206ef", "lat": 38.918354666666666}, {"type": "electric_scooter", "rental_uris": {"android": "https://dc.lft.to/lastmile_qr_scan", "ios": "https://dc.lft.to/lastmile_qr_scan"}, "fusion_lat": 0.0, "name": "ccb8661cac8f08f1b4d5cd0a0befba09", "lon": -77.02014983333333, "is_disabled": 0, "is_reserved": 0, "fusion_lon": 0.0, "bike_id": "ccb8661cac8f08f1b4d5cd0a0befba09", "lat": 38.9018335}, {"type": "electric_scooter", "rental_uris": {"android": "https://dc.lft.to/lastmile_qr_scan", "ios": "https://dc.lft.to/lastmile_qr_scan"}, "fusion_lat": 0.0, "name": "2bacbe0d557f7fc44d1f8be61799919e", "lon": -77.05138633333334, "is_disabled": 0, "is_reserved": 0, "fusion_lon": 0.0, "bike_id": "2bacbe0d557f7fc44d1f8be61799919e", "lat": 38.89857883333333}, {"type": "electric_scooter", "rental_uris": {"android": "https://dc.lft.to/lastmile_qr_scan", "ios": "https://dc.lft.to/lastmile_qr_scan"}, "fusion_lat": 0.0, "name": "e3d7b4ce42751c1f792d30fb89c97585", "lon": -77.024692, "is_disabled": 0, "is_reserved": 0, "fusion_lon": 0.0, "bike_id": "e3d7b4ce42751c1f792d30fb89c97585", "lat": 38.89587133333333}, {"type": "electric_scooter", "rental_uris": {"android": "https://dc.lft.to/lastmile_qr_scan", "ios": "https://dc.lft.to/lastmile_qr_scan"}, "fusion_lat": 0.0, "name": "783dc57a99b382425bb2cb0ee96ad4de", "lon": -77.02182683333334, "is_disabled": 0, "is_reserved": 0, "fusion_lon": 0.0, "bike_id": "783dc57a99b382425bb2cb0ee96ad4de", "lat": 38.9070385}, {"type": "electric_scooter", "rental_uris": {"android": "https://dc.lft.to/lastmile_qr_scan", "ios": "https://dc.lft.to/lastmile_qr_scan"}, "fusion_lat": 0.0, "name": "c741f55b5694223b747dae0a5c8afd94", "lon": -77.03902283333333, "is_disabled": 0, "is_reserved": 0, "fusion_lon": 0.0, "bike_id": "c741f55b5694223b747dae0a5c8afd94", "lat": 38.918724166666664}, {"type": "electric_scooter", "rental_uris": {"android": "https://dc.lft.to/lastmile_qr_scan", "ios": "https://dc.lft.to/lastmile_qr_scan"}, "fusion_lat": 0.0, "name": "cecd947831834e8d791f09955506de72", "lon": -77.05562383333333, "is_disabled": 0, "is_reserved": 0, "fusion_lon": 0.0, "bike_id": "cecd947831834e8d791f09955506de72", "lat": 38.908517}, {"type": "electric_scooter", "rental_uris": {"android": "https://dc.lft.to/lastmile_qr_scan", "ios": "https://dc.lft.to/lastmile_qr_scan"}, "fusion_lat": 0.0, "name": "150bfc401019604b9e30cb3e29e399d6", "lon": -77.03939916666667, "is_disabled": 0, "is_reserved": 0, "fusion_lon": 0.0, "bike_id": "150bfc401019604b9e30cb3e29e399d6", "lat": 38.915711333333334}, {"type": "electric_scooter", "rental_uris": {"android": "https://dc.lft.to/lastmile_qr_scan", "ios": "https://dc.lft.to/lastmile_qr_scan"}, "fusion_lat": 0.0, "name": "a8e97ff62e16b769e56e2f3ec11513f3", "lon": -77.01843916666667, "is_disabled": 0, "is_reserved": 0, "fusion_lon": 0.0, "bike_id": "a8e97ff62e16b769e56e2f3ec11513f3", "lat": 38.915194}, {"type": "electric_scooter", "rental_uris": {"android": "https://dc.lft.to/lastmile_qr_scan", "ios": "https://dc.lft.to/lastmile_qr_scan"}, "fusion_lat": 0.0, "name": "40cc11e4a9367203a8405691a916e07a", "lon": -77.023023, "is_disabled": 0, "is_reserved": 0, "fusion_lon": 0.0, "bike_id": "40cc11e4a9367203a8405691a916e07a", "lat": 38.916394833333335}, {"type": "electric_scooter", "rental_uris": {"android": "https://dc.lft.to/lastmile_qr_scan", "ios": "https://dc.lft.to/lastmile_qr_scan"}, "fusion_lat": 0.0, "name": "187becfd5a433f21d8cce51a87d3b9a6", "lon": -77.000501, "is_disabled": 0, "is_reserved": 0, "fusion_lon": 0.0, "bike_id": "187becfd5a433f21d8cce51a87d3b9a6", "lat": 38.90015783333333}, {"type": "electric_scooter", "rental_uris": {"android": "https://dc.lft.to/lastmile_qr_scan", "ios": "https://dc.lft.to/lastmile_qr_scan"}, "fusion_lat": 0.0, "name": "6a3607214141282fc86871729cfff558", "lon": -77.07412233333334, "is_disabled": 0, "is_reserved": 0, "fusion_lon": 0.0, "bike_id": "6a3607214141282fc86871729cfff558", "lat": 38.92889983333333}, {"type": "electric_scooter", "rental_uris": {"android": "https://dc.lft.to/lastmile_qr_scan", "ios": "https://dc.lft.to/lastmile_qr_scan"}, "fusion_lat": 0.0, "name": "008693661b8ec6d3e0b75c640af668ea", "lon": -76.9348095, "is_disabled": 0, "is_reserved": 0, "fusion_lon": 0.0, "bike_id": "008693661b8ec6d3e0b75c640af668ea", "lat": 38.9058395}, {"type": "electric_scooter", "rental_uris": {"android": "https://dc.lft.to/lastmile_qr_scan", "ios": "https://dc.lft.to/lastmile_qr_scan"}, "fusion_lat": 0.0, "name": "60990f85be7659ba31d156ec4d82115b", "lon": -77.02606116666666, "is_disabled": 0, "is_reserved": 0, "fusion_lon": 0.0, "bike_id": "60990f85be7659ba31d156ec4d82115b", "lat": 38.89832533333333}, {"type": "electric_scooter", "rental_uris": {"android": "https://dc.lft.to/lastmile_qr_scan", "ios": "https://dc.lft.to/lastmile_qr_scan"}, "fusion_lat": 0.0, "name": "5922fe13746b3e2161593244deb28376", "lon": -76.98601416666666, "is_disabled": 0, "is_reserved": 0, "fusion_lon": 0.0, "bike_id": "5922fe13746b3e2161593244deb28376", "lat": 38.900178833333335}, {"type": "electric_scooter", "rental_uris": {"android": "https://dc.lft.to/lastmile_qr_scan", "ios": "https://dc.lft.to/lastmile_qr_scan"}, "fusion_lat": 0.0, "name": "7fe75adfa2ff9bd390150960a56cefe4", "lon": -76.989092, "is_disabled": 0, "is_reserved": 0, "fusion_lon": 0.0, "bike_id": "7fe75adfa2ff9bd390150960a56cefe4", "lat": 38.864959}, {"type": "electric_scooter", "rental_uris": {"android": "https://dc.lft.to/lastmile_qr_scan", "ios": "https://dc.lft.to/lastmile_qr_scan"}, "fusion_lat": 0.0, "name": "20f6aca4344403c8a3b970ffcea97d55", "lon": -77.0384735, "is_disabled": 0, "is_reserved": 0, "fusion_lon": 0.0, "bike_id": "20f6aca4344403c8a3b970ffcea97d55", "lat": 38.90295866666666}, {"type": "electric_scooter", "rental_uris": {"android": "https://dc.lft.to/lastmile_qr_scan", "ios": "https://dc.lft.to/lastmile_qr_scan"}, "fusion_lat": 0.0, "name": "ba947cdc33ac713a4f6c016fe808e548", "lon": -77.02151566666667, "is_disabled": 0, "is_reserved": 0, "fusion_lon": 0.0, "bike_id": "ba947cdc33ac713a4f6c016fe808e548", "lat": 38.90310566666667}, {"type": "electric_scooter", "rental_uris": {"android": "https://dc.lft.to/lastmile_qr_scan", "ios": "https://dc.lft.to/lastmile_qr_scan"}, "fusion_lat": 0.0, "name": "f28ed9cd7c54d929eeac27f86e0bfcc2", "lon": -76.94600833333334, "is_disabled": 0, "is_reserved": 0, "fusion_lon": 0.0, "bike_id": "f28ed9cd7c54d929eeac27f86e0bfcc2", "lat": 38.901470333333336}, {"type": "electric_scooter", "rental_uris": {"android": "https://dc.lft.to/lastmile_qr_scan", "ios": "https://dc.lft.to/lastmile_qr_scan"}, "fusion_lat": 0.0, "name": "182e7d33e17c9a38705976ce9ce1d2d4", "lon": -77.0399265, "is_disabled": 0, "is_reserved": 0, "fusion_lon": 0.0, "bike_id": "182e7d33e17c9a38705976ce9ce1d2d4", "lat": 38.93431833333333}, {"type": "electric_bike", "rental_uris": {"android": "https://dc.lft.to/lastmile_qr_scan", "ios": "https://dc.lft.to/lastmile_qr_scan"}, "fusion_lat": 0.0, "name": "17ad87cbf7c04dd8ce2ae472c3a3ad08", "lon": -77.0904205, "is_disabled": 0, "is_reserved": 0, "fusion_lon": 0.0, "bike_id": "17ad87cbf7c04dd8ce2ae472c3a3ad08", "lat": 38.84971016666667}, {"type": "electric_scooter", "rental_uris": {"android": "https://dc.lft.to/lastmile_qr_scan", "ios": "https://dc.lft.to/lastmile_qr_scan"}, "fusion_lat": 0.0, "name": "710398abfc7770f2c041893f1c9a9015", "lon": -77.02713216666666, "is_disabled": 0, "is_reserved": 0, "fusion_lon": 0.0, "bike_id": "710398abfc7770f2c041893f1c9a9015", "lat": 38.9247235}, {"type": "electric_scooter", "rental_uris": {"android": "https://dc.lft.to/lastmile_qr_scan", "ios": "https://dc.lft.to/lastmile_qr_scan"}, "fusion_lat": 0.0, "name": "b32a9ea0ca69c3f8f4cfda6256f6ca98", "lon": -76.98995133333334, "is_disabled": 0, "is_reserved": 0, "fusion_lon": 0.0, "bike_id": "b32a9ea0ca69c3f8f4cfda6256f6ca98", "lat": 38.86436333333333}, {"type": "electric_scooter", "rental_uris": {"android": "https://dc.lft.to/lastmile_qr_scan", "ios": "https://dc.lft.to/lastmile_qr_scan"}, "fusion_lat": 0.0, "name": "08468a1005dc3142021e2aec509b0bdf", "lon": -76.980138, "is_disabled": 0, "is_reserved": 0, "fusion_lon": 0.0, "bike_id": "08468a1005dc3142021e2aec509b0bdf", "lat": 38.900844}, {"type": "electric_scooter", "rental_uris": {"android": "https://dc.lft.to/lastmile_qr_scan", "ios": "https://dc.lft.to/lastmile_qr_scan"}, "fusion_lat": 0.0, "name": "fad788742f2d4b163c94e7842ecb759b", "lon": -77.0229235, "is_disabled": 0, "is_reserved": 0, "fusion_lon": 0.0, "bike_id": "fad788742f2d4b163c94e7842ecb759b", "lat": 38.928403}, {"type": "electric_scooter", "rental_uris": {"android": "https://dc.lft.to/lastmile_qr_scan", "ios": "https://dc.lft.to/lastmile_qr_scan"}, "fusion_lat": 0.0, "name": "ce8465f5602389e025114c730224d194", "lon": -77.03189666666667, "is_disabled": 0, "is_reserved": 0, "fusion_lon": 0.0, "bike_id": "ce8465f5602389e025114c730224d194", "lat": 38.9180315}, {"type": "electric_scooter", "rental_uris": {"android": "https://dc.lft.to/lastmile_qr_scan", "ios": "https://dc.lft.to/lastmile_qr_scan"}, "fusion_lat": 0.0, "name": "b55347277bf5d7b2c913284d5d67f4da", "lon": -77.00332566666667, "is_disabled": 0, "is_reserved": 0, "fusion_lon": 0.0, "bike_id": "b55347277bf5d7b2c913284d5d67f4da", "lat": 38.893641}, {"type": "electric_scooter", "rental_uris": {"android": "https://dc.lft.to/lastmile_qr_scan", "ios": "https://dc.lft.to/lastmile_qr_scan"}, "fusion_lat": 0.0, "name": "eea3281c1a0ddf41302bb73046aac25b", "lon": -77.01817266666667, "is_disabled": 0, "is_reserved": 0, "fusion_lon": 0.0, "bike_id": "eea3281c1a0ddf41302bb73046aac25b", "lat": 38.93044066666667}, {"type": "electric_scooter", "rental_uris": {"android": "https://dc.lft.to/lastmile_qr_scan", "ios": "https://dc.lft.to/lastmile_qr_scan"}, "fusion_lat": 0.0, "name": "9aa89e8be9d2cc426a9afa6cc739a30b", "lon": -76.97396766666667, "is_disabled": 0, "is_reserved": 0, "fusion_lon": 0.0, "bike_id": "9aa89e8be9d2cc426a9afa6cc739a30b", "lat": 38.902993}, {"type": "electric_scooter", "rental_uris": {"android": "https://dc.lft.to/lastmile_qr_scan", "ios": "https://dc.lft.to/lastmile_qr_scan"}, "fusion_lat": 0.0, "name": "d2a13a97305f6693a31d9afa866b6d75", "lon": -77.0246155, "is_disabled": 0, "is_reserved": 0, "fusion_lon": 0.0, "bike_id": "d2a13a97305f6693a31d9afa866b6d75", "lat": 38.937171}, {"type": "electric_scooter", "rental_uris": {"android": "https://dc.lft.to/lastmile_qr_scan", "ios": "https://dc.lft.to/lastmile_qr_scan"}, "fusion_lat": 0.0, "name": "abb71e01c95264f4367703b407076293", "lon": -76.95755433333333, "is_disabled": 0, "is_reserved": 0, "fusion_lon": 0.0, "bike_id": "abb71e01c95264f4367703b407076293", "lat": 38.884312}, {"type": "electric_scooter", "rental_uris": {"android": "https://dc.lft.to/lastmile_qr_scan", "ios": "https://dc.lft.to/lastmile_qr_scan"}, "fusion_lat": 0.0, "name": "37c3363aa2e900873e178fb9cc4bd24b", "lon": -77.01119183333333, "is_disabled": 0, "is_reserved": 0, "fusion_lon": 0.0, "bike_id": "37c3363aa2e900873e178fb9cc4bd24b", "lat": 38.894900166666666}, {"type": "electric_scooter", "rental_uris": {"android": "https://dc.lft.to/lastmile_qr_scan", "ios": "https://dc.lft.to/lastmile_qr_scan"}, "fusion_lat": 0.0, "name": "23118ad8c8d929a022ddbe2e8b7bbd7d", "lon": -77.03996033333334, "is_disabled": 0, "is_reserved": 0, "fusion_lon": 0.0, "bike_id": "23118ad8c8d929a022ddbe2e8b7bbd7d", "lat": 38.91823383333333}, {"type": "electric_scooter", "rental_uris": {"android": "https://dc.lft.to/lastmile_qr_scan", "ios": "https://dc.lft.to/lastmile_qr_scan"}, "fusion_lat": 0.0, "name": "722d345ac78d6ca06a5821fe8a93f5a6", "lon": -76.9764485, "is_disabled": 0, "is_reserved": 0, "fusion_lon": 0.0, "bike_id": "722d345ac78d6ca06a5821fe8a93f5a6", "lat": 38.86462083333333}, {"type": "electric_scooter", "rental_uris": {"android": "https://dc.lft.to/lastmile_qr_scan", "ios": "https://dc.lft.to/lastmile_qr_scan"}, "fusion_lat": 0.0, "name": "b010769ed2ce11cc49099dcf29a9f919", "lon": -77.02977216666666, "is_disabled": 0, "is_reserved": 0, "fusion_lon": 0.0, "bike_id": "b010769ed2ce11cc49099dcf29a9f919", "lat": 38.91669266666667}, {"type": "electric_bike", "rental_uris": {"android": "https://dc.lft.to/lastmile_qr_scan", "ios": "https://dc.lft.to/lastmile_qr_scan"}, "fusion_lat": 0.0, "name": "c7617c00f5219314c6af3e181b7bbd3c", "lon": -77.076786, "is_disabled": 0, "is_reserved": 0, "fusion_lon": 0.0, "bike_id": "c7617c00f5219314c6af3e181b7bbd3c", "lat": 38.840781}, {"type": "electric_scooter", "rental_uris": {"android": "https://dc.lft.to/lastmile_qr_scan", "ios": "https://dc.lft.to/lastmile_qr_scan"}, "fusion_lat": 0.0, "name": "54c352fc1b40928a7dc22fbf804bdb9b", "lon": -77.03172333333333, "is_disabled": 0, "is_reserved": 0, "fusion_lon": 0.0, "bike_id": "54c352fc1b40928a7dc22fbf804bdb9b", "lat": 38.91821816666667}, {"type": "electric_scooter", "rental_uris": {"android": "https://dc.lft.to/lastmile_qr_scan", "ios": "https://dc.lft.to/lastmile_qr_scan"}, "fusion_lat": 0.0, "name": "99b873f5cd1046a5f020c0bb5d9ec557", "lon": -76.99499916666667, "is_disabled": 0, "is_reserved": 0, "fusion_lon": 0.0, "bike_id": "99b873f5cd1046a5f020c0bb5d9ec557", "lat": 38.87842116666667}, {"type": "electric_scooter", "rental_uris": {"android": "https://dc.lft.to/lastmile_qr_scan", "ios": "https://dc.lft.to/lastmile_qr_scan"}, "fusion_lat": 0.0, "name": "d13832d2f5f21c486968a62b82d77bd7", "lon": -76.99926633333334, "is_disabled": 0, "is_reserved": 0, "fusion_lon": 0.0, "bike_id": "d13832d2f5f21c486968a62b82d77bd7", "lat": 38.90771316666667}, {"type": "electric_scooter", "rental_uris": {"android": "https://dc.lft.to/lastmile_qr_scan", "ios": "https://dc.lft.to/lastmile_qr_scan"}, "fusion_lat": 0.0, "name": "52d297b7dd2d85ca7f2103b73f96fff2", "lon": -77.0175655, "is_disabled": 0, "is_reserved": 0, "fusion_lon": 0.0, "bike_id": "52d297b7dd2d85ca7f2103b73f96fff2", "lat": 38.91281933333333}, {"type": "electric_scooter", "rental_uris": {"android": "https://dc.lft.to/lastmile_qr_scan", "ios": "https://dc.lft.to/lastmile_qr_scan"}, "fusion_lat": 0.0, "name": "baa955935dfb88113402531d614adbcb", "lon": -77.03004916666667, "is_disabled": 0, "is_reserved": 0, "fusion_lon": 0.0, "bike_id": "baa955935dfb88113402531d614adbcb", "lat": 38.9204575}, {"type": "electric_scooter", "rental_uris": {"android": "https://dc.lft.to/lastmile_qr_scan", "ios": "https://dc.lft.to/lastmile_qr_scan"}, "fusion_lat": 0.0, "name": "814d8e445f62c3b493936194eaac9566", "lon": -77.009268, "is_disabled": 0, "is_reserved": 0, "fusion_lon": 0.0, "bike_id": "814d8e445f62c3b493936194eaac9566", "lat": 38.8960865}, {"type": "electric_scooter", "rental_uris": {"android": "https://dc.lft.to/lastmile_qr_scan", "ios": "https://dc.lft.to/lastmile_qr_scan"}, "fusion_lat": 0.0, "name": "b9daae9f0c7e808b332f588af5cade3c", "lon": -77.053187, "is_disabled": 0, "is_reserved": 0, "fusion_lon": 0.0, "bike_id": "b9daae9f0c7e808b332f588af5cade3c", "lat": 38.915534666666666}, {"type": "electric_scooter", "rental_uris": {"android": "https://dc.lft.to/lastmile_qr_scan", "ios": "https://dc.lft.to/lastmile_qr_scan"}, "fusion_lat": 0.0, "name": "b66b845263b0567c30fd64cd4d0033c4", "lon": -77.0432295, "is_disabled": 0, "is_reserved": 0, "fusion_lon": 0.0, "bike_id": "b66b845263b0567c30fd64cd4d0033c4", "lat": 38.892252166666665}, {"type": "electric_scooter", "rental_uris": {"android": "https://dc.lft.to/lastmile_qr_scan", "ios": "https://dc.lft.to/lastmile_qr_scan"}, "fusion_lat": 0.0, "name": "6df3f83b44ae70942cbb2f7cc865484c", "lon": -77.02694883333334, "is_disabled": 0, "is_reserved": 0, "fusion_lon": 0.0, "bike_id": "6df3f83b44ae70942cbb2f7cc865484c", "lat": 38.9068485}, {"type": "electric_scooter", "rental_uris": {"android": "https://dc.lft.to/lastmile_qr_scan", "ios": "https://dc.lft.to/lastmile_qr_scan"}, "fusion_lat": 0.0, "name": "bbd5f5e46f7861ef1edffeb3d6c8f237", "lon": -77.02084983333333, "is_disabled": 0, "is_reserved": 0, "fusion_lon": 0.0, "bike_id": "bbd5f5e46f7861ef1edffeb3d6c8f237", "lat": 38.921991}, {"type": "electric_scooter", "rental_uris": {"android": "https://dc.lft.to/lastmile_qr_scan", "ios": "https://dc.lft.to/lastmile_qr_scan"}, "fusion_lat": 0.0, "name": "382e46243eae302cc3f45a8383cd0f21", "lon": -76.98456933333334, "is_disabled": 0, "is_reserved": 0, "fusion_lon": 0.0, "bike_id": "382e46243eae302cc3f45a8383cd0f21", "lat": 38.90024183333333}, {"type": "electric_scooter", "rental_uris": {"android": "https://dc.lft.to/lastmile_qr_scan", "ios": "https://dc.lft.to/lastmile_qr_scan"}, "fusion_lat": 0.0, "name": "8dbd8aab96eb1a888e051fc78ed0e83b", "lon": -77.01044433333334, "is_disabled": 0, "is_reserved": 0, "fusion_lon": 0.0, "bike_id": "8dbd8aab96eb1a888e051fc78ed0e83b", "lat": 38.86672216666667}, {"type": "electric_scooter", "rental_uris": {"android": "https://dc.lft.to/lastmile_qr_scan", "ios": "https://dc.lft.to/lastmile_qr_scan"}, "fusion_lat": 0.0, "name": "8d18a4c3b643c18c5c04168bbfb2d365", "lon": -77.08519066666666, "is_disabled": 0, "is_reserved": 0, "fusion_lon": 0.0, "bike_id": "8d18a4c3b643c18c5c04168bbfb2d365", "lat": 38.959385}, {"type": "electric_scooter", "rental_uris": {"android": "https://dc.lft.to/lastmile_qr_scan", "ios": "https://dc.lft.to/lastmile_qr_scan"}, "fusion_lat": 0.0, "name": "85c2a06330673cef07d161fcb7776edc", "lon": -77.03871, "is_disabled": 0, "is_reserved": 0, "fusion_lon": 0.0, "bike_id": "85c2a06330673cef07d161fcb7776edc", "lat": 38.903436166666665}, {"type": "electric_scooter", "rental_uris": {"android": "https://dc.lft.to/lastmile_qr_scan", "ios": "https://dc.lft.to/lastmile_qr_scan"}, "fusion_lat": 0.0, "name": "e471233e0357ace92138543e61ddc1e9", "lon": -77.00746083333334, "is_disabled": 0, "is_reserved": 0, "fusion_lon": 0.0, "bike_id": "e471233e0357ace92138543e61ddc1e9", "lat": 38.89839666666666}, {"type": "electric_scooter", "rental_uris": {"android": "https://dc.lft.to/lastmile_qr_scan", "ios": "https://dc.lft.to/lastmile_qr_scan"}, "fusion_lat": 0.0, "name": "80404086115c847aec0b4e2f4b4c88aa", "lon": -77.018162, "is_disabled": 0, "is_reserved": 0, "fusion_lon": 0.0, "bike_id": "80404086115c847aec0b4e2f4b4c88aa", "lat": 38.923706333333335}, {"type": "electric_scooter", "rental_uris": {"android": "https://dc.lft.to/lastmile_qr_scan", "ios": "https://dc.lft.to/lastmile_qr_scan"}, "fusion_lat": 0.0, "name": "d3652374b6f4c4ba8215c40b33229aaa", "lon": -77.07167183333334, "is_disabled": 0, "is_reserved": 0, "fusion_lon": 0.0, "bike_id": "d3652374b6f4c4ba8215c40b33229aaa", "lat": 38.9583935}, {"type": "electric_scooter", "rental_uris": {"android": "https://dc.lft.to/lastmile_qr_scan", "ios": "https://dc.lft.to/lastmile_qr_scan"}, "fusion_lat": 0.0, "name": "4189915ae47111d0b81981bbbdbb5e5d", "lon": -77.00190766666667, "is_disabled": 0, "is_reserved": 0, "fusion_lon": 0.0, "bike_id": "4189915ae47111d0b81981bbbdbb5e5d", "lat": 38.88683733333333}, {"type": "electric_scooter", "rental_uris": {"android": "https://dc.lft.to/lastmile_qr_scan", "ios": "https://dc.lft.to/lastmile_qr_scan"}, "fusion_lat": 0.0, "name": "15aafcf0c6fa35e7cae0d25773edecfd", "lon": -77.03177266666667, "is_disabled": 0, "is_reserved": 0, "fusion_lon": 0.0, "bike_id": "15aafcf0c6fa35e7cae0d25773edecfd", "lat": 38.91551666666667}, {"type": "electric_scooter", "rental_uris": {"android": "https://dc.lft.to/lastmile_qr_scan", "ios": "https://dc.lft.to/lastmile_qr_scan"}, "fusion_lat": 0.0, "name": "305ab456d2ef5d0bbd6c804bdfeee028", "lon": -77.0239595, "is_disabled": 0, "is_reserved": 0, "fusion_lon": 0.0, "bike_id": "305ab456d2ef5d0bbd6c804bdfeee028", "lat": 38.93297716666667}, {"type": "electric_scooter", "rental_uris": {"android": "https://dc.lft.to/lastmile_qr_scan", "ios": "https://dc.lft.to/lastmile_qr_scan"}, "fusion_lat": 0.0, "name": "30dba5941338887b47f02446866e04a4", "lon": -77.0435125, "is_disabled": 0, "is_reserved": 0, "fusion_lon": 0.0, "bike_id": "30dba5941338887b47f02446866e04a4", "lat": 38.9129965}, {"type": "electric_scooter", "rental_uris": {"android": "https://dc.lft.to/lastmile_qr_scan", "ios": "https://dc.lft.to/lastmile_qr_scan"}, "fusion_lat": 0.0, "name": "acdcb4177bb9012d1d1523d8fcb35b66", "lon": -77.01227883333334, "is_disabled": 0, "is_reserved": 0, "fusion_lon": 0.0, "bike_id": "acdcb4177bb9012d1d1523d8fcb35b66", "lat": 38.907375}, {"type": "electric_scooter", "rental_uris": {"android": "https://dc.lft.to/lastmile_qr_scan", "ios": "https://dc.lft.to/lastmile_qr_scan"}, "fusion_lat": 0.0, "name": "9a9e35a5359b955c735412e945467a94", "lon": -77.03815866666666, "is_disabled": 0, "is_reserved": 0, "fusion_lon": 0.0, "bike_id": "9a9e35a5359b955c735412e945467a94", "lat": 38.92501433333334}, {"type": "electric_scooter", "rental_uris": {"android": "https://dc.lft.to/lastmile_qr_scan", "ios": "https://dc.lft.to/lastmile_qr_scan"}, "fusion_lat": 0.0, "name": "f43bca582a0ae81ca471d24ce2dc5abb", "lon": -77.017759, "is_disabled": 0, "is_reserved": 0, "fusion_lon": 0.0, "bike_id": "f43bca582a0ae81ca471d24ce2dc5abb", "lat": 38.90240566666667}, {"type": "electric_scooter", "rental_uris": {"android": "https://dc.lft.to/lastmile_qr_scan", "ios": "https://dc.lft.to/lastmile_qr_scan"}, "fusion_lat": 0.0, "name": "3b7693d07c1bb16dd996eee3a765f184", "lon": -77.02300583333333, "is_disabled": 0, "is_reserved": 0, "fusion_lon": 0.0, "bike_id": "3b7693d07c1bb16dd996eee3a765f184", "lat": 38.9283695}, {"type": "electric_scooter", "rental_uris": {"android": "https://dc.lft.to/lastmile_qr_scan", "ios": "https://dc.lft.to/lastmile_qr_scan"}, "fusion_lat": 0.0, "name": "20e4d12666460eb49261d04d23640875", "lon": -77.04552583333333, "is_disabled": 0, "is_reserved": 0, "fusion_lon": 0.0, "bike_id": "20e4d12666460eb49261d04d23640875", "lat": 38.909763166666664}, {"type": "electric_scooter", "rental_uris": {"android": "https://dc.lft.to/lastmile_qr_scan", "ios": "https://dc.lft.to/lastmile_qr_scan"}, "fusion_lat": 0.0, "name": "f40e23a137d9d8435230fea2a0e3ba87", "lon": -77.04140516666666, "is_disabled": 0, "is_reserved": 0, "fusion_lon": 0.0, "bike_id": "f40e23a137d9d8435230fea2a0e3ba87", "lat": 38.916861}, {"type": "electric_scooter", "rental_uris": {"android": "https://dc.lft.to/lastmile_qr_scan", "ios": "https://dc.lft.to/lastmile_qr_scan"}, "fusion_lat": 0.0, "name": "0be7324e225b55de378a7b788f9d3a65", "lon": -77.00929183333334, "is_disabled": 0, "is_reserved": 0, "fusion_lon": 0.0, "bike_id": "0be7324e225b55de378a7b788f9d3a65", "lat": 38.918445}, {"type": "electric_scooter", "rental_uris": {"android": "https://dc.lft.to/lastmile_qr_scan", "ios": "https://dc.lft.to/lastmile_qr_scan"}, "fusion_lat": 0.0, "name": "737ab020059e61394501f6bd8da3485c", "lon": -77.062852, "is_disabled": 0, "is_reserved": 0, "fusion_lon": 0.0, "bike_id": "737ab020059e61394501f6bd8da3485c", "lat": 38.906871}, {"type": "electric_scooter", "rental_uris": {"android": "https://dc.lft.to/lastmile_qr_scan", "ios": "https://dc.lft.to/lastmile_qr_scan"}, "fusion_lat": 0.0, "name": "418c87c4187d9b4de4fbe80bce7cfbda", "lon": -77.02719833333333, "is_disabled": 0, "is_reserved": 0, "fusion_lon": 0.0, "bike_id": "418c87c4187d9b4de4fbe80bce7cfbda", "lat": 38.897445833333336}, {"type": "electric_scooter", "rental_uris": {"android": "https://dc.lft.to/lastmile_qr_scan", "ios": "https://dc.lft.to/lastmile_qr_scan"}, "fusion_lat": 0.0, "name": "badde470d0b2b394222229c93011b17e", "lon": -77.02658816666667, "is_disabled": 0, "is_reserved": 0, "fusion_lon": 0.0, "bike_id": "badde470d0b2b394222229c93011b17e", "lat": 38.978150666666664}, {"type": "electric_scooter", "rental_uris": {"android": "https://dc.lft.to/lastmile_qr_scan", "ios": "https://dc.lft.to/lastmile_qr_scan"}, "fusion_lat": 0.0, "name": "8a2237686ad0bd1312ab796e52335025", "lon": -77.048847, "is_disabled": 0, "is_reserved": 0, "fusion_lon": 0.0, "bike_id": "8a2237686ad0bd1312ab796e52335025", "lat": 38.901052166666666}, {"type": "electric_bike", "rental_uris": {"android": "https://dc.lft.to/lastmile_qr_scan", "ios": "https://dc.lft.to/lastmile_qr_scan"}, "fusion_lat": 0.0, "name": "37313d7d887a0e4a7b27bec82dda221b", "lon": -77.08775183333333, "is_disabled": 0, "is_reserved": 0, "fusion_lon": 0.0, "bike_id": "37313d7d887a0e4a7b27bec82dda221b", "lat": 38.838989}, {"type": "electric_scooter", "rental_uris": {"android": "https://dc.lft.to/lastmile_qr_scan", "ios": "https://dc.lft.to/lastmile_qr_scan"}, "fusion_lat": 0.0, "name": "5cfc2afaa8d0a346ca0a6b8121f379e0", "lon": -77.0358535, "is_disabled": 0, "is_reserved": 0, "fusion_lon": 0.0, "bike_id": "5cfc2afaa8d0a346ca0a6b8121f379e0", "lat": 38.91701}, {"type": "electric_scooter", "rental_uris": {"android": "https://dc.lft.to/lastmile_qr_scan", "ios": "https://dc.lft.to/lastmile_qr_scan"}, "fusion_lat": 0.0, "name": "bbd073c412d3033a631116989c3c1895", "lon": -76.98373, "is_disabled": 0, "is_reserved": 0, "fusion_lon": 0.0, "bike_id": "bbd073c412d3033a631116989c3c1895", "lat": 38.8611535}, {"type": "electric_scooter", "rental_uris": {"android": "https://dc.lft.to/lastmile_qr_scan", "ios": "https://dc.lft.to/lastmile_qr_scan"}, "fusion_lat": 0.0, "name": "7600dc7a85c14a5c22f10bc096ab95ad", "lon": -77.032807, "is_disabled": 0, "is_reserved": 0, "fusion_lon": 0.0, "bike_id": "7600dc7a85c14a5c22f10bc096ab95ad", "lat": 38.9283455}, {"type": "electric_scooter", "rental_uris": {"android": "https://dc.lft.to/lastmile_qr_scan", "ios": "https://dc.lft.to/lastmile_qr_scan"}, "fusion_lat": 0.0, "name": "98182bc894df00ec08013c6a2f5c014b", "lon": -76.986486, "is_disabled": 0, "is_reserved": 0, "fusion_lon": 0.0, "bike_id": "98182bc894df00ec08013c6a2f5c014b", "lat": 38.906180666666664}, {"type": "electric_scooter", "rental_uris": {"android": "https://dc.lft.to/lastmile_qr_scan", "ios": "https://dc.lft.to/lastmile_qr_scan"}, "fusion_lat": 0.0, "name": "ca84c7c2ee8e65e99dfa7d02283eeda6", "lon": -76.97870683333333, "is_disabled": 0, "is_reserved": 0, "fusion_lon": 0.0, "bike_id": "ca84c7c2ee8e65e99dfa7d02283eeda6", "lat": 38.8830565}, {"type": "electric_scooter", "rental_uris": {"android": "https://dc.lft.to/lastmile_qr_scan", "ios": "https://dc.lft.to/lastmile_qr_scan"}, "fusion_lat": 0.0, "name": "616371cdff68690ac9036b89836c7990", "lon": -77.03263966666667, "is_disabled": 0, "is_reserved": 0, "fusion_lon": 0.0, "bike_id": "616371cdff68690ac9036b89836c7990", "lat": 38.9352365}, {"type": "electric_scooter", "rental_uris": {"android": "https://dc.lft.to/lastmile_qr_scan", "ios": "https://dc.lft.to/lastmile_qr_scan"}, "fusion_lat": 0.0, "name": "2dc300a9f64f53b43b49d74be5fed742", "lon": -76.97619616666667, "is_disabled": 0, "is_reserved": 0, "fusion_lon": 0.0, "bike_id": "2dc300a9f64f53b43b49d74be5fed742", "lat": 38.899606166666665}, {"type": "electric_scooter", "rental_uris": {"android": "https://dc.lft.to/lastmile_qr_scan", "ios": "https://dc.lft.to/lastmile_qr_scan"}, "fusion_lat": 0.0, "name": "b4d6fa99ce8ae388f7ffc0a5b715ae9a", "lon": -76.97710566666666, "is_disabled": 0, "is_reserved": 0, "fusion_lon": 0.0, "bike_id": "b4d6fa99ce8ae388f7ffc0a5b715ae9a", "lat": 38.8877585}, {"type": "electric_scooter", "rental_uris": {"android": "https://dc.lft.to/lastmile_qr_scan", "ios": "https://dc.lft.to/lastmile_qr_scan"}, "fusion_lat": 0.0, "name": "f4e85af7b05576a96f943908e385f1ca", "lon": -77.01890333333333, "is_disabled": 0, "is_reserved": 0, "fusion_lon": 0.0, "bike_id": "f4e85af7b05576a96f943908e385f1ca", "lat": 38.91317516666667}, {"type": "electric_scooter", "rental_uris": {"android": "https://dc.lft.to/lastmile_qr_scan", "ios": "https://dc.lft.to/lastmile_qr_scan"}, "fusion_lat": 0.0, "name": "908de46d7bf0f60bada87f3b25bbe17b", "lon": -76.99522983333334, "is_disabled": 0, "is_reserved": 0, "fusion_lon": 0.0, "bike_id": "908de46d7bf0f60bada87f3b25bbe17b", "lat": 38.8954735}, {"type": "electric_scooter", "rental_uris": {"android": "https://dc.lft.to/lastmile_qr_scan", "ios": "https://dc.lft.to/lastmile_qr_scan"}, "fusion_lat": 0.0, "name": "37c69ed71c8e112617c5972fa8adeb8e", "lon": -77.01885933333334, "is_disabled": 0, "is_reserved": 0, "fusion_lon": 0.0, "bike_id": "37c69ed71c8e112617c5972fa8adeb8e", "lat": 38.897476833333336}, {"type": "electric_scooter", "rental_uris": {"android": "https://dc.lft.to/lastmile_qr_scan", "ios": "https://dc.lft.to/lastmile_qr_scan"}, "fusion_lat": 0.0, "name": "aee192526fbf2fdca0c764e0d918ac61", "lon": -77.00794183333333, "is_disabled": 0, "is_reserved": 0, "fusion_lon": 0.0, "bike_id": "aee192526fbf2fdca0c764e0d918ac61", "lat": 38.896436}, {"type": "electric_scooter", "rental_uris": {"android": "https://dc.lft.to/lastmile_qr_scan", "ios": "https://dc.lft.to/lastmile_qr_scan"}, "fusion_lat": 0.0, "name": "538402a38955b1a7e6e5e0f51c925d88", "lon": -77.07236483333334, "is_disabled": 0, "is_reserved": 0, "fusion_lon": 0.0, "bike_id": "538402a38955b1a7e6e5e0f51c925d88", "lat": 38.940081166666666}, {"type": "electric_scooter", "rental_uris": {"android": "https://dc.lft.to/lastmile_qr_scan", "ios": "https://dc.lft.to/lastmile_qr_scan"}, "fusion_lat": 0.0, "name": "bc6193a14fdde19c9a593db249b94671", "lon": -76.9677275, "is_disabled": 0, "is_reserved": 0, "fusion_lon": 0.0, "bike_id": "bc6193a14fdde19c9a593db249b94671", "lat": 38.859239}, {"type": "electric_scooter", "rental_uris": {"android": "https://dc.lft.to/lastmile_qr_scan", "ios": "https://dc.lft.to/lastmile_qr_scan"}, "fusion_lat": 0.0, "name": "01a04ac0d1f270ef85c5fbb864c24b06", "lon": -76.97550933333333, "is_disabled": 0, "is_reserved": 0, "fusion_lon": 0.0, "bike_id": "01a04ac0d1f270ef85c5fbb864c24b06", "lat": 38.90259416666667}, {"type": "electric_scooter", "rental_uris": {"android": "https://dc.lft.to/lastmile_qr_scan", "ios": "https://dc.lft.to/lastmile_qr_scan"}, "fusion_lat": 0.0, "name": "d1677854eea58a29bedc870d7904a33d", "lon": -77.037678, "is_disabled": 0, "is_reserved": 0, "fusion_lon": 0.0, "bike_id": "d1677854eea58a29bedc870d7904a33d", "lat": 38.92556033333334}, {"type": "electric_scooter", "rental_uris": {"android": "https://dc.lft.to/lastmile_qr_scan", "ios": "https://dc.lft.to/lastmile_qr_scan"}, "fusion_lat": 0.0, "name": "722ea7a9a727f9fabc2c70606203c7f0", "lon": -77.03356766666667, "is_disabled": 0, "is_reserved": 0, "fusion_lon": 0.0, "bike_id": "722ea7a9a727f9fabc2c70606203c7f0", "lat": 38.91704266666667}, {"type": "electric_scooter", "rental_uris": {"android": "https://dc.lft.to/lastmile_qr_scan", "ios": "https://dc.lft.to/lastmile_qr_scan"}, "fusion_lat": 0.0, "name": "f6bd6b23d6b914a887648ff2cd8af514", "lon": -76.99124033333334, "is_disabled": 0, "is_reserved": 0, "fusion_lon": 0.0, "bike_id": "f6bd6b23d6b914a887648ff2cd8af514", "lat": 38.86209783333334}, {"type": "electric_scooter", "rental_uris": {"android": "https://dc.lft.to/lastmile_qr_scan", "ios": "https://dc.lft.to/lastmile_qr_scan"}, "fusion_lat": 0.0, "name": "e7656dd6c1d976de3b7eb07021af3fb2", "lon": -76.99466766666667, "is_disabled": 0, "is_reserved": 0, "fusion_lon": 0.0, "bike_id": "e7656dd6c1d976de3b7eb07021af3fb2", "lat": 38.8622745}, {"type": "electric_scooter", "rental_uris": {"android": "https://dc.lft.to/lastmile_qr_scan", "ios": "https://dc.lft.to/lastmile_qr_scan"}, "fusion_lat": 0.0, "name": "3b8d00ed8b3a78b3a225a75fbd8ec3c9", "lon": -77.06494116666667, "is_disabled": 0, "is_reserved": 0, "fusion_lon": 0.0, "bike_id": "3b8d00ed8b3a78b3a225a75fbd8ec3c9", "lat": 38.929077}, {"type": "electric_scooter", "rental_uris": {"android": "https://dc.lft.to/lastmile_qr_scan", "ios": "https://dc.lft.to/lastmile_qr_scan"}, "fusion_lat": 0.0, "name": "2585aa3e740ccec01e23ad2ab131f950", "lon": -77.03852466666666, "is_disabled": 0, "is_reserved": 0, "fusion_lon": 0.0, "bike_id": "2585aa3e740ccec01e23ad2ab131f950", "lat": 38.9163025}, {"type": "electric_scooter", "rental_uris": {"android": "https://dc.lft.to/lastmile_qr_scan", "ios": "https://dc.lft.to/lastmile_qr_scan"}, "fusion_lat": 0.0, "name": "73d9a7ff8a41450413fef958509f8e11", "lon": -77.02694583333333, "is_disabled": 0, "is_reserved": 0, "fusion_lon": 0.0, "bike_id": "73d9a7ff8a41450413fef958509f8e11", "lat": 38.912756}, {"type": "electric_scooter", "rental_uris": {"android": "https://dc.lft.to/lastmile_qr_scan", "ios": "https://dc.lft.to/lastmile_qr_scan"}, "fusion_lat": 0.0, "name": "5795e221dacebef96586c53659ed8f55", "lon": -77.000777, "is_disabled": 0, "is_reserved": 0, "fusion_lon": 0.0, "bike_id": "5795e221dacebef96586c53659ed8f55", "lat": 38.8897695}, {"type": "electric_scooter", "rental_uris": {"android": "https://dc.lft.to/lastmile_qr_scan", "ios": "https://dc.lft.to/lastmile_qr_scan"}, "fusion_lat": 0.0, "name": "6c880581503a2580e23dba711f56c9a4", "lon": -77.024132, "is_disabled": 0, "is_reserved": 0, "fusion_lon": 0.0, "bike_id": "6c880581503a2580e23dba711f56c9a4", "lat": 38.90972716666667}, {"type": "electric_scooter", "rental_uris": {"android": "https://dc.lft.to/lastmile_qr_scan", "ios": "https://dc.lft.to/lastmile_qr_scan"}, "fusion_lat": 0.0, "name": "52d5c3be0a163ada1a9dd46fac1d941e", "lon": -77.01210333333333, "is_disabled": 0, "is_reserved": 0, "fusion_lon": 0.0, "bike_id": "52d5c3be0a163ada1a9dd46fac1d941e", "lat": 38.9183645}, {"type": "electric_scooter", "rental_uris": {"android": "https://dc.lft.to/lastmile_qr_scan", "ios": "https://dc.lft.to/lastmile_qr_scan"}, "fusion_lat": 0.0, "name": "f6579315abde17ac0bf0a67a6495806f", "lon": -77.04025733333333, "is_disabled": 0, "is_reserved": 0, "fusion_lon": 0.0, "bike_id": "f6579315abde17ac0bf0a67a6495806f", "lat": 38.9000805}, {"type": "electric_scooter", "rental_uris": {"android": "https://dc.lft.to/lastmile_qr_scan", "ios": "https://dc.lft.to/lastmile_qr_scan"}, "fusion_lat": 0.0, "name": "d7a39ae03a2c944178f29e879b2e3a10", "lon": -77.02673233333333, "is_disabled": 0, "is_reserved": 0, "fusion_lon": 0.0, "bike_id": "d7a39ae03a2c944178f29e879b2e3a10", "lat": 38.984314166666664}, {"type": "electric_bike", "rental_uris": {"android": "https://dc.lft.to/lastmile_qr_scan", "ios": "https://dc.lft.to/lastmile_qr_scan"}, "fusion_lat": 0.0, "name": "49476fe3d65aab333ec34f99c1cd8f42", "lon": -76.99956183333333, "is_disabled": 0, "is_reserved": 0, "fusion_lon": 0.0, "bike_id": "49476fe3d65aab333ec34f99c1cd8f42", "lat": 38.8767145}, {"type": "electric_scooter", "rental_uris": {"android": "https://dc.lft.to/lastmile_qr_scan", "ios": "https://dc.lft.to/lastmile_qr_scan"}, "fusion_lat": 0.0, "name": "058b3ab0caa9df2d5cbc21bf6dcb3b8a", "lon": -77.02399916666667, "is_disabled": 0, "is_reserved": 0, "fusion_lon": 0.0, "bike_id": "058b3ab0caa9df2d5cbc21bf6dcb3b8a", "lat": 38.90582883333333}, {"type": "electric_scooter", "rental_uris": {"android": "https://dc.lft.to/lastmile_qr_scan", "ios": "https://dc.lft.to/lastmile_qr_scan"}, "fusion_lat": 0.0, "name": "52a14d617629cbaffe48aee97c4b3cbb", "lon": -77.00889016666666, "is_disabled": 0, "is_reserved": 0, "fusion_lon": 0.0, "bike_id": "52a14d617629cbaffe48aee97c4b3cbb", "lat": 38.91712916666667}, {"type": "electric_scooter", "rental_uris": {"android": "https://dc.lft.to/lastmile_qr_scan", "ios": "https://dc.lft.to/lastmile_qr_scan"}, "fusion_lat": 0.0, "name": "747387b65cbef6889ec9a5929f92b45c", "lon": -77.04466066666667, "is_disabled": 0, "is_reserved": 0, "fusion_lon": 0.0, "bike_id": "747387b65cbef6889ec9a5929f92b45c", "lat": 38.9153705}, {"type": "electric_scooter", "rental_uris": {"android": "https://dc.lft.to/lastmile_qr_scan", "ios": "https://dc.lft.to/lastmile_qr_scan"}, "fusion_lat": 0.0, "name": "ead6062f4af81fa380667b97a43e1130", "lon": -76.9537205, "is_disabled": 0, "is_reserved": 0, "fusion_lon": 0.0, "bike_id": "ead6062f4af81fa380667b97a43e1130", "lat": 38.892062}, {"type": "electric_scooter", "rental_uris": {"android": "https://dc.lft.to/lastmile_qr_scan", "ios": "https://dc.lft.to/lastmile_qr_scan"}, "fusion_lat": 0.0, "name": "829d82898db08c9362d10b244a73ff17", "lon": -77.02614116666666, "is_disabled": 0, "is_reserved": 0, "fusion_lon": 0.0, "bike_id": "829d82898db08c9362d10b244a73ff17", "lat": 38.91414116666667}, {"type": "electric_scooter", "rental_uris": {"android": "https://dc.lft.to/lastmile_qr_scan", "ios": "https://dc.lft.to/lastmile_qr_scan"}, "fusion_lat": 0.0, "name": "1c64dbecaeeef17aba46194cc505d88c", "lon": -76.9678505, "is_disabled": 0, "is_reserved": 0, "fusion_lon": 0.0, "bike_id": "1c64dbecaeeef17aba46194cc505d88c", "lat": 38.868476333333334}, {"type": "electric_scooter", "rental_uris": {"android": "https://dc.lft.to/lastmile_qr_scan", "ios": "https://dc.lft.to/lastmile_qr_scan"}, "fusion_lat": 0.0, "name": "ee8b6cab7483e848e168635cb64abe10", "lon": -77.04983533333333, "is_disabled": 0, "is_reserved": 0, "fusion_lon": 0.0, "bike_id": "ee8b6cab7483e848e168635cb64abe10", "lat": 38.905151833333335}, {"type": "electric_scooter", "rental_uris": {"android": "https://dc.lft.to/lastmile_qr_scan", "ios": "https://dc.lft.to/lastmile_qr_scan"}, "fusion_lat": 0.0, "name": "e923774061f533247cf5465c8190b9cb", "lon": -76.9984305, "is_disabled": 0, "is_reserved": 0, "fusion_lon": 0.0, "bike_id": "e923774061f533247cf5465c8190b9cb", "lat": 38.902168}, {"type": "electric_scooter", "rental_uris": {"android": "https://dc.lft.to/lastmile_qr_scan", "ios": "https://dc.lft.to/lastmile_qr_scan"}, "fusion_lat": 0.0, "name": "6443079cf3a4f205b39c727d5d8452a7", "lon": -77.0057735, "is_disabled": 0, "is_reserved": 0, "fusion_lon": 0.0, "bike_id": "6443079cf3a4f205b39c727d5d8452a7", "lat": 38.884375666666664}, {"type": "electric_scooter", "rental_uris": {"android": "https://dc.lft.to/lastmile_qr_scan", "ios": "https://dc.lft.to/lastmile_qr_scan"}, "fusion_lat": 0.0, "name": "0921e1fda83b2332133e82cff1fec1de", "lon": -76.9872325, "is_disabled": 0, "is_reserved": 0, "fusion_lon": 0.0, "bike_id": "0921e1fda83b2332133e82cff1fec1de", "lat": 38.866830666666665}, {"type": "electric_scooter", "rental_uris": {"android": "https://dc.lft.to/lastmile_qr_scan", "ios": "https://dc.lft.to/lastmile_qr_scan"}, "fusion_lat": 0.0, "name": "0bea81991f8d8429803d34ae93bb2135", "lon": -76.94876766666667, "is_disabled": 0, "is_reserved": 0, "fusion_lon": 0.0, "bike_id": "0bea81991f8d8429803d34ae93bb2135", "lat": 38.89552783333333}, {"type": "electric_scooter", "rental_uris": {"android": "https://dc.lft.to/lastmile_qr_scan", "ios": "https://dc.lft.to/lastmile_qr_scan"}, "fusion_lat": 0.0, "name": "e0bb4a3cb61561ba716668c0474987dd", "lon": -77.0326285, "is_disabled": 0, "is_reserved": 0, "fusion_lon": 0.0, "bike_id": "e0bb4a3cb61561ba716668c0474987dd", "lat": 38.93725583333333}, {"type": "electric_scooter", "rental_uris": {"android": "https://dc.lft.to/lastmile_qr_scan", "ios": "https://dc.lft.to/lastmile_qr_scan"}, "fusion_lat": 0.0, "name": "9870d76ee3092eb3b3303c5dc7b04727", "lon": -77.03863116666666, "is_disabled": 0, "is_reserved": 0, "fusion_lon": 0.0, "bike_id": "9870d76ee3092eb3b3303c5dc7b04727", "lat": 38.94503983333333}, {"type": "electric_scooter", "rental_uris": {"android": "https://dc.lft.to/lastmile_qr_scan", "ios": "https://dc.lft.to/lastmile_qr_scan"}, "fusion_lat": 0.0, "name": "510a6627d6a5538b9f2b8b47b0d9d130", "lon": -76.9864775, "is_disabled": 0, "is_reserved": 0, "fusion_lon": 0.0, "bike_id": "510a6627d6a5538b9f2b8b47b0d9d130", "lat": 38.90161966666667}, {"type": "electric_scooter", "rental_uris": {"android": "https://dc.lft.to/lastmile_qr_scan", "ios": "https://dc.lft.to/lastmile_qr_scan"}, "fusion_lat": 0.0, "name": "c279402451794babce47510241d82b08", "lon": -77.0346475, "is_disabled": 0, "is_reserved": 0, "fusion_lon": 0.0, "bike_id": "c279402451794babce47510241d82b08", "lat": 38.92063233333333}, {"type": "electric_scooter", "rental_uris": {"android": "https://dc.lft.to/lastmile_qr_scan", "ios": "https://dc.lft.to/lastmile_qr_scan"}, "fusion_lat": 0.0, "name": "adbccaab33cfec68cc34651090ea2423", "lon": -77.003576, "is_disabled": 0, "is_reserved": 0, "fusion_lon": 0.0, "bike_id": "adbccaab33cfec68cc34651090ea2423", "lat": 38.898871166666666}, {"type": "electric_scooter", "rental_uris": {"android": "https://dc.lft.to/lastmile_qr_scan", "ios": "https://dc.lft.to/lastmile_qr_scan"}, "fusion_lat": 0.0, "name": "73f89e87e98342ff1247e5d8ef7a8722", "lon": -77.03187833333334, "is_disabled": 0, "is_reserved": 0, "fusion_lon": 0.0, "bike_id": "73f89e87e98342ff1247e5d8ef7a8722", "lat": 38.90919016666667}, {"type": "electric_scooter", "rental_uris": {"android": "https://dc.lft.to/lastmile_qr_scan", "ios": "https://dc.lft.to/lastmile_qr_scan"}, "fusion_lat": 0.0, "name": "ff2fb335f79c7e2a1393f63b04f6e296", "lon": -77.02283716666666, "is_disabled": 0, "is_reserved": 0, "fusion_lon": 0.0, "bike_id": "ff2fb335f79c7e2a1393f63b04f6e296", "lat": 38.926855833333335}, {"type": "electric_scooter", "rental_uris": {"android": "https://dc.lft.to/lastmile_qr_scan", "ios": "https://dc.lft.to/lastmile_qr_scan"}, "fusion_lat": 0.0, "name": "5a9c9f6e858577371ca374e03b8220fe", "lon": -77.01234616666666, "is_disabled": 0, "is_reserved": 0, "fusion_lon": 0.0, "bike_id": "5a9c9f6e858577371ca374e03b8220fe", "lat": 38.830471}, {"type": "electric_scooter", "rental_uris": {"android": "https://dc.lft.to/lastmile_qr_scan", "ios": "https://dc.lft.to/lastmile_qr_scan"}, "fusion_lat": 0.0, "name": "acb9d346c35a48a629e94c552d6794f3", "lon": -77.044732, "is_disabled": 0, "is_reserved": 0, "fusion_lon": 0.0, "bike_id": "acb9d346c35a48a629e94c552d6794f3", "lat": 38.915299166666664}, {"type": "electric_scooter", "rental_uris": {"android": "https://dc.lft.to/lastmile_qr_scan", "ios": "https://dc.lft.to/lastmile_qr_scan"}, "fusion_lat": 0.0, "name": "08466a593421eaf253d584e321ed49b6", "lon": -77.0395805, "is_disabled": 0, "is_reserved": 0, "fusion_lon": 0.0, "bike_id": "08466a593421eaf253d584e321ed49b6", "lat": 38.89242}, {"type": "electric_scooter", "rental_uris": {"android": "https://dc.lft.to/lastmile_qr_scan", "ios": "https://dc.lft.to/lastmile_qr_scan"}, "fusion_lat": 0.0, "name": "87043bec21f1ae306947f5e34f959510", "lon": -77.0448335, "is_disabled": 0, "is_reserved": 0, "fusion_lon": 0.0, "bike_id": "87043bec21f1ae306947f5e34f959510", "lat": 38.9241}, {"type": "electric_scooter", "rental_uris": {"android": "https://dc.lft.to/lastmile_qr_scan", "ios": "https://dc.lft.to/lastmile_qr_scan"}, "fusion_lat": 0.0, "name": "63f854e5b5956198d001a748625951af", "lon": -77.04606483333333, "is_disabled": 0, "is_reserved": 0, "fusion_lon": 0.0, "bike_id": "63f854e5b5956198d001a748625951af", "lat": 38.91610466666667}, {"type": "electric_scooter", "rental_uris": {"android": "https://dc.lft.to/lastmile_qr_scan", "ios": "https://dc.lft.to/lastmile_qr_scan"}, "fusion_lat": 0.0, "name": "e6a7767ec4f4c1d9c1f7bd8c8af810df", "lon": -77.00339166666667, "is_disabled": 0, "is_reserved": 0, "fusion_lon": 0.0, "bike_id": "e6a7767ec4f4c1d9c1f7bd8c8af810df", "lat": 38.895224166666665}, {"type": "electric_scooter", "rental_uris": {"android": "https://dc.lft.to/lastmile_qr_scan", "ios": "https://dc.lft.to/lastmile_qr_scan"}, "fusion_lat": 0.0, "name": "e4e69cfab84d61e9ac7f5e4ee51b3b53", "lon": -77.03263483333333, "is_disabled": 0, "is_reserved": 0, "fusion_lon": 0.0, "bike_id": "e4e69cfab84d61e9ac7f5e4ee51b3b53", "lat": 38.93890533333333}, {"type": "electric_scooter", "rental_uris": {"android": "https://dc.lft.to/lastmile_qr_scan", "ios": "https://dc.lft.to/lastmile_qr_scan"}, "fusion_lat": 0.0, "name": "843f6a8a4916ec1607cd5b249166968e", "lon": -77.0473235, "is_disabled": 0, "is_reserved": 0, "fusion_lon": 0.0, "bike_id": "843f6a8a4916ec1607cd5b249166968e", "lat": 38.909688333333335}, {"type": "electric_scooter", "rental_uris": {"android": "https://dc.lft.to/lastmile_qr_scan", "ios": "https://dc.lft.to/lastmile_qr_scan"}, "fusion_lat": 0.0, "name": "71631cfcebfc53b0df83f85155f36f8a", "lon": -76.99770533333333, "is_disabled": 0, "is_reserved": 0, "fusion_lon": 0.0, "bike_id": "71631cfcebfc53b0df83f85155f36f8a", "lat": 38.92446133333333}, {"type": "electric_scooter", "rental_uris": {"android": "https://dc.lft.to/lastmile_qr_scan", "ios": "https://dc.lft.to/lastmile_qr_scan"}, "fusion_lat": 0.0, "name": "206e6c4fcb48c84f16d940895f241f0a", "lon": -77.02229116666666, "is_disabled": 0, "is_reserved": 0, "fusion_lon": 0.0, "bike_id": "206e6c4fcb48c84f16d940895f241f0a", "lat": 38.89222216666667}, {"type": "electric_bike", "rental_uris": {"android": "https://dc.lft.to/lastmile_qr_scan", "ios": "https://dc.lft.to/lastmile_qr_scan"}, "fusion_lat": 0.0, "name": "21596b2bf580de6ac11a432619841974", "lon": -76.9775185, "is_disabled": 0, "is_reserved": 0, "fusion_lon": 0.0, "bike_id": "21596b2bf580de6ac11a432619841974", "lat": 38.864576}, {"type": "electric_scooter", "rental_uris": {"android": "https://dc.lft.to/lastmile_qr_scan", "ios": "https://dc.lft.to/lastmile_qr_scan"}, "fusion_lat": 0.0, "name": "5cc1e355a33101e8eb9c1983c105d51e", "lon": -77.0611005, "is_disabled": 0, "is_reserved": 0, "fusion_lon": 0.0, "bike_id": "5cc1e355a33101e8eb9c1983c105d51e", "lat": 38.904511666666664}, {"type": "electric_scooter", "rental_uris": {"android": "https://dc.lft.to/lastmile_qr_scan", "ios": "https://dc.lft.to/lastmile_qr_scan"}, "fusion_lat": 0.0, "name": "52dbdd03735f24e41f88d27a90152dbd", "lon": -77.01991783333334, "is_disabled": 0, "is_reserved": 0, "fusion_lon": 0.0, "bike_id": "52dbdd03735f24e41f88d27a90152dbd", "lat": 38.91573133333333}, {"type": "electric_bike", "rental_uris": {"android": "https://dc.lft.to/lastmile_qr_scan", "ios": "https://dc.lft.to/lastmile_qr_scan"}, "fusion_lat": 0.0, "name": "5624cdb9af8685be3222b2d13b014f1f", "lon": -77.029893, "is_disabled": 0, "is_reserved": 0, "fusion_lon": 0.0, "bike_id": "5624cdb9af8685be3222b2d13b014f1f", "lat": 38.97440683333333}, {"type": "electric_scooter", "rental_uris": {"android": "https://dc.lft.to/lastmile_qr_scan", "ios": "https://dc.lft.to/lastmile_qr_scan"}, "fusion_lat": 0.0, "name": "e0bc22fd48a28e22b47df31f2da52afa", "lon": -77.0396735, "is_disabled": 0, "is_reserved": 0, "fusion_lon": 0.0, "bike_id": "e0bc22fd48a28e22b47df31f2da52afa", "lat": 38.891944333333335}, {"type": "electric_scooter", "rental_uris": {"android": "https://dc.lft.to/lastmile_qr_scan", "ios": "https://dc.lft.to/lastmile_qr_scan"}, "fusion_lat": 0.0, "name": "924bbc1bd8a51da97405e52d474d1904", "lon": -76.988444, "is_disabled": 0, "is_reserved": 0, "fusion_lon": 0.0, "bike_id": "924bbc1bd8a51da97405e52d474d1904", "lat": 38.90038666666667}, {"type": "electric_scooter", "rental_uris": {"android": "https://dc.lft.to/lastmile_qr_scan", "ios": "https://dc.lft.to/lastmile_qr_scan"}, "fusion_lat": 0.0, "name": "a961698ebfbafab61d7904ad434cb034", "lon": -77.03132866666667, "is_disabled": 0, "is_reserved": 0, "fusion_lon": 0.0, "bike_id": "a961698ebfbafab61d7904ad434cb034", "lat": 38.9237325}, {"type": "electric_scooter", "rental_uris": {"android": "https://dc.lft.to/lastmile_qr_scan", "ios": "https://dc.lft.to/lastmile_qr_scan"}, "fusion_lat": 0.0, "name": "61dd1abd974b2cd956dd31d4f52caa5d", "lon": -77.04094866666667, "is_disabled": 0, "is_reserved": 0, "fusion_lon": 0.0, "bike_id": "61dd1abd974b2cd956dd31d4f52caa5d", "lat": 38.9202135}, {"type": "electric_scooter", "rental_uris": {"android": "https://dc.lft.to/lastmile_qr_scan", "ios": "https://dc.lft.to/lastmile_qr_scan"}, "fusion_lat": 0.0, "name": "e28e26621f5ac2d5427397c6c882b1d1", "lon": -77.04866266666667, "is_disabled": 0, "is_reserved": 0, "fusion_lon": 0.0, "bike_id": "e28e26621f5ac2d5427397c6c882b1d1", "lat": 38.892255666666664}, {"type": "electric_scooter", "rental_uris": {"android": "https://dc.lft.to/lastmile_qr_scan", "ios": "https://dc.lft.to/lastmile_qr_scan"}, "fusion_lat": 0.0, "name": "6fed622049dfcb8d67923ff530dd7082", "lon": -77.0439585, "is_disabled": 0, "is_reserved": 0, "fusion_lon": 0.0, "bike_id": "6fed622049dfcb8d67923ff530dd7082", "lat": 38.909173833333334}, {"type": "electric_scooter", "rental_uris": {"android": "https://dc.lft.to/lastmile_qr_scan", "ios": "https://dc.lft.to/lastmile_qr_scan"}, "fusion_lat": 0.0, "name": "27c30b957c584ba9234b6c84ddf20635", "lon": -76.99119466666667, "is_disabled": 0, "is_reserved": 0, "fusion_lon": 0.0, "bike_id": "27c30b957c584ba9234b6c84ddf20635", "lat": 38.933634166666664}, {"type": "electric_scooter", "rental_uris": {"android": "https://dc.lft.to/lastmile_qr_scan", "ios": "https://dc.lft.to/lastmile_qr_scan"}, "fusion_lat": 0.0, "name": "58d719d5bac0fcf50e3f139132dd53a2", "lon": -77.0232735, "is_disabled": 0, "is_reserved": 0, "fusion_lon": 0.0, "bike_id": "58d719d5bac0fcf50e3f139132dd53a2", "lat": 38.908420166666666}, {"type": "electric_scooter", "rental_uris": {"android": "https://dc.lft.to/lastmile_qr_scan", "ios": "https://dc.lft.to/lastmile_qr_scan"}, "fusion_lat": 0.0, "name": "800549b7d62e379d422fee387f322849", "lon": -77.050247, "is_disabled": 0, "is_reserved": 0, "fusion_lon": 0.0, "bike_id": "800549b7d62e379d422fee387f322849", "lat": 38.9011955}, {"type": "electric_bike", "rental_uris": {"android": "https://dc.lft.to/lastmile_qr_scan", "ios": "https://dc.lft.to/lastmile_qr_scan"}, "fusion_lat": 0.0, "name": "4c4f890107ebfb14bcd1ed1df79aab25", "lon": -77.051082, "is_disabled": 0, "is_reserved": 0, "fusion_lon": 0.0, "bike_id": "4c4f890107ebfb14bcd1ed1df79aab25", "lat": 39.03671883333333}, {"type": "electric_scooter", "rental_uris": {"android": "https://dc.lft.to/lastmile_qr_scan", "ios": "https://dc.lft.to/lastmile_qr_scan"}, "fusion_lat": 0.0, "name": "f7d9411e87d3568611f54d7f6e4ba7fe", "lon": -76.99861, "is_disabled": 0, "is_reserved": 0, "fusion_lon": 0.0, "bike_id": "f7d9411e87d3568611f54d7f6e4ba7fe", "lat": 38.886396833333336}, {"type": "electric_scooter", "rental_uris": {"android": "https://dc.lft.to/lastmile_qr_scan", "ios": "https://dc.lft.to/lastmile_qr_scan"}, "fusion_lat": 0.0, "name": "7269fa9c8b7a08a5dad9cd0bd5f5bbf4", "lon": -77.03291833333333, "is_disabled": 0, "is_reserved": 0, "fusion_lon": 0.0, "bike_id": "7269fa9c8b7a08a5dad9cd0bd5f5bbf4", "lat": 38.90841866666667}, {"type": "electric_scooter", "rental_uris": {"android": "https://dc.lft.to/lastmile_qr_scan", "ios": "https://dc.lft.to/lastmile_qr_scan"}, "fusion_lat": 0.0, "name": "54120e0526246d688304108844c6e034", "lon": -77.0239505, "is_disabled": 0, "is_reserved": 0, "fusion_lon": 0.0, "bike_id": "54120e0526246d688304108844c6e034", "lat": 38.90580583333333}, {"type": "electric_scooter", "rental_uris": {"android": "https://dc.lft.to/lastmile_qr_scan", "ios": "https://dc.lft.to/lastmile_qr_scan"}, "fusion_lat": 0.0, "name": "36aecaac65837f698db8cc0f8d16b58a", "lon": -77.03882333333334, "is_disabled": 0, "is_reserved": 0, "fusion_lon": 0.0, "bike_id": "36aecaac65837f698db8cc0f8d16b58a", "lat": 38.89200816666666}, {"type": "electric_scooter", "rental_uris": {"android": "https://dc.lft.to/lastmile_qr_scan", "ios": "https://dc.lft.to/lastmile_qr_scan"}, "fusion_lat": 0.0, "name": "e516f9599b3afa09ad84b96f8763df81", "lon": -77.03043333333333, "is_disabled": 0, "is_reserved": 0, "fusion_lon": 0.0, "bike_id": "e516f9599b3afa09ad84b96f8763df81", "lat": 38.913403833333334}, {"type": "electric_bike", "rental_uris": {"android": "https://dc.lft.to/lastmile_qr_scan", "ios": "https://dc.lft.to/lastmile_qr_scan"}, "fusion_lat": 0.0, "name": "70d3a498323966e7a975f21a0681a718", "lon": -77.01224216666667, "is_disabled": 0, "is_reserved": 0, "fusion_lon": 0.0, "bike_id": "70d3a498323966e7a975f21a0681a718", "lat": 38.91279383333333}, {"type": "electric_scooter", "rental_uris": {"android": "https://dc.lft.to/lastmile_qr_scan", "ios": "https://dc.lft.to/lastmile_qr_scan"}, "fusion_lat": 0.0, "name": "86354876be409ce88e4a0a30e87f2079", "lon": -76.99823716666667, "is_disabled": 0, "is_reserved": 0, "fusion_lon": 0.0, "bike_id": "86354876be409ce88e4a0a30e87f2079", "lat": 38.90707733333333}, {"type": "electric_bike", "rental_uris": {"android": "https://dc.lft.to/lastmile_qr_scan", "ios": "https://dc.lft.to/lastmile_qr_scan"}, "fusion_lat": 0.0, "name": "1a5c712e2e2166ca9ca7c36ef6a8ce68", "lon": -77.00035633333333, "is_disabled": 0, "is_reserved": 0, "fusion_lon": 0.0, "bike_id": "1a5c712e2e2166ca9ca7c36ef6a8ce68", "lat": 38.96789}, {"type": "electric_scooter", "rental_uris": {"android": "https://dc.lft.to/lastmile_qr_scan", "ios": "https://dc.lft.to/lastmile_qr_scan"}, "fusion_lat": 0.0, "name": "5bd4fb039ecded058d53139caba363dd", "lon": -77.0134795, "is_disabled": 0, "is_reserved": 0, "fusion_lon": 0.0, "bike_id": "5bd4fb039ecded058d53139caba363dd", "lat": 38.892382}, {"type": "electric_scooter", "rental_uris": {"android": "https://dc.lft.to/lastmile_qr_scan", "ios": "https://dc.lft.to/lastmile_qr_scan"}, "fusion_lat": 0.0, "name": "9f2fac6f54b614167d7cce61085b5288", "lon": -77.02909316666667, "is_disabled": 0, "is_reserved": 0, "fusion_lon": 0.0, "bike_id": "9f2fac6f54b614167d7cce61085b5288", "lat": 38.895915}, {"type": "electric_scooter", "rental_uris": {"android": "https://dc.lft.to/lastmile_qr_scan", "ios": "https://dc.lft.to/lastmile_qr_scan"}, "fusion_lat": 0.0, "name": "132ed2dabbf93df677018b0924e6b61d", "lon": -77.01985066666667, "is_disabled": 0, "is_reserved": 0, "fusion_lon": 0.0, "bike_id": "132ed2dabbf93df677018b0924e6b61d", "lat": 38.875919333333336}, {"type": "electric_scooter", "rental_uris": {"android": "https://dc.lft.to/lastmile_qr_scan", "ios": "https://dc.lft.to/lastmile_qr_scan"}, "fusion_lat": 0.0, "name": "962edb2a3d4d48dde409bbb5b3592dbb", "lon": -77.04166416666666, "is_disabled": 0, "is_reserved": 0, "fusion_lon": 0.0, "bike_id": "962edb2a3d4d48dde409bbb5b3592dbb", "lat": 38.919839}, {"type": "electric_scooter", "rental_uris": {"android": "https://dc.lft.to/lastmile_qr_scan", "ios": "https://dc.lft.to/lastmile_qr_scan"}, "fusion_lat": 0.0, "name": "ad15f7d12864bc6aadf28820e6aac53f", "lon": -76.98743783333333, "is_disabled": 0, "is_reserved": 0, "fusion_lon": 0.0, "bike_id": "ad15f7d12864bc6aadf28820e6aac53f", "lat": 38.88615033333333}, {"type": "electric_scooter", "rental_uris": {"android": "https://dc.lft.to/lastmile_qr_scan", "ios": "https://dc.lft.to/lastmile_qr_scan"}, "fusion_lat": 0.0, "name": "63ba8817db249de5cbeba39c7d484de4", "lon": -77.03833033333333, "is_disabled": 0, "is_reserved": 0, "fusion_lon": 0.0, "bike_id": "63ba8817db249de5cbeba39c7d484de4", "lat": 38.92178666666667}, {"type": "electric_scooter", "rental_uris": {"android": "https://dc.lft.to/lastmile_qr_scan", "ios": "https://dc.lft.to/lastmile_qr_scan"}, "fusion_lat": 0.0, "name": "88b9e9166afabddc1d735748da6b3a68", "lon": -77.03900683333333, "is_disabled": 0, "is_reserved": 0, "fusion_lon": 0.0, "bike_id": "88b9e9166afabddc1d735748da6b3a68", "lat": 38.92230333333333}, {"type": "electric_scooter", "rental_uris": {"android": "https://dc.lft.to/lastmile_qr_scan", "ios": "https://dc.lft.to/lastmile_qr_scan"}, "fusion_lat": 0.0, "name": "0b541383f94a1a2a9c2526cc9abab8b1", "lon": -77.04474033333334, "is_disabled": 0, "is_reserved": 0, "fusion_lon": 0.0, "bike_id": "0b541383f94a1a2a9c2526cc9abab8b1", "lat": 38.90544233333333}, {"type": "electric_scooter", "rental_uris": {"android": "https://dc.lft.to/lastmile_qr_scan", "ios": "https://dc.lft.to/lastmile_qr_scan"}, "fusion_lat": 0.0, "name": "bbcf582e157be1df69fe564d09e388d7", "lon": -77.01988683333333, "is_disabled": 0, "is_reserved": 0, "fusion_lon": 0.0, "bike_id": "bbcf582e157be1df69fe564d09e388d7", "lat": 38.9157305}, {"type": "electric_scooter", "rental_uris": {"android": "https://dc.lft.to/lastmile_qr_scan", "ios": "https://dc.lft.to/lastmile_qr_scan"}, "fusion_lat": 0.0, "name": "5ac202b21f8e6767cc953cdef4035424", "lon": -76.98879683333334, "is_disabled": 0, "is_reserved": 0, "fusion_lon": 0.0, "bike_id": "5ac202b21f8e6767cc953cdef4035424", "lat": 38.8666465}, {"type": "electric_scooter", "rental_uris": {"android": "https://dc.lft.to/lastmile_qr_scan", "ios": "https://dc.lft.to/lastmile_qr_scan"}, "fusion_lat": 0.0, "name": "75782a303e196df316a9caad2499f378", "lon": -77.06247033333334, "is_disabled": 0, "is_reserved": 0, "fusion_lon": 0.0, "bike_id": "75782a303e196df316a9caad2499f378", "lat": 38.905272833333335}, {"type": "electric_scooter", "rental_uris": {"android": "https://dc.lft.to/lastmile_qr_scan", "ios": "https://dc.lft.to/lastmile_qr_scan"}, "fusion_lat": 0.0, "name": "f89a5f24456e9fb5915e32b984dfc205", "lon": -77.0466335, "is_disabled": 0, "is_reserved": 0, "fusion_lon": 0.0, "bike_id": "f89a5f24456e9fb5915e32b984dfc205", "lat": 38.9078485}, {"type": "electric_scooter", "rental_uris": {"android": "https://dc.lft.to/lastmile_qr_scan", "ios": "https://dc.lft.to/lastmile_qr_scan"}, "fusion_lat": 0.0, "name": "cb263dee5fb14b604883d1c65773cd7b", "lon": -77.02427066666667, "is_disabled": 0, "is_reserved": 0, "fusion_lon": 0.0, "bike_id": "cb263dee5fb14b604883d1c65773cd7b", "lat": 38.937161}, {"type": "electric_scooter", "rental_uris": {"android": "https://dc.lft.to/lastmile_qr_scan", "ios": "https://dc.lft.to/lastmile_qr_scan"}, "fusion_lat": 0.0, "name": "bad2d97505c5342e9abd99509880ac20", "lon": -77.034371, "is_disabled": 0, "is_reserved": 0, "fusion_lon": 0.0, "bike_id": "bad2d97505c5342e9abd99509880ac20", "lat": 38.9026625}, {"type": "electric_scooter", "rental_uris": {"android": "https://dc.lft.to/lastmile_qr_scan", "ios": "https://dc.lft.to/lastmile_qr_scan"}, "fusion_lat": 0.0, "name": "a3bc59af3842210489a14504adcf02ec", "lon": -77.06101966666667, "is_disabled": 0, "is_reserved": 0, "fusion_lon": 0.0, "bike_id": "a3bc59af3842210489a14504adcf02ec", "lat": 38.906896333333336}, {"type": "electric_bike", "rental_uris": {"android": "https://dc.lft.to/lastmile_qr_scan", "ios": "https://dc.lft.to/lastmile_qr_scan"}, "fusion_lat": 0.0, "name": "15c28158f81681af46ca6fd628398556", "lon": -77.00885316666667, "is_disabled": 0, "is_reserved": 0, "fusion_lon": 0.0, "bike_id": "15c28158f81681af46ca6fd628398556", "lat": 38.905807833333334}, {"type": "electric_scooter", "rental_uris": {"android": "https://dc.lft.to/lastmile_qr_scan", "ios": "https://dc.lft.to/lastmile_qr_scan"}, "fusion_lat": 0.0, "name": "3f2d7e6c1b2c6fea43f708d49e13f39e", "lon": -77.00771766666666, "is_disabled": 0, "is_reserved": 0, "fusion_lon": 0.0, "bike_id": "3f2d7e6c1b2c6fea43f708d49e13f39e", "lat": 38.89748433333333}, {"type": "electric_scooter", "rental_uris": {"android": "https://dc.lft.to/lastmile_qr_scan", "ios": "https://dc.lft.to/lastmile_qr_scan"}, "fusion_lat": 0.0, "name": "747aa78bc315cb4aee54604aadd1dcd0", "lon": -77.00429166666666, "is_disabled": 0, "is_reserved": 0, "fusion_lon": 0.0, "bike_id": "747aa78bc315cb4aee54604aadd1dcd0", "lat": 38.8766285}, {"type": "electric_scooter", "rental_uris": {"android": "https://dc.lft.to/lastmile_qr_scan", "ios": "https://dc.lft.to/lastmile_qr_scan"}, "fusion_lat": 0.0, "name": "b7765a5157da3839db62d5e6b61b4b36", "lon": -77.05396916666666, "is_disabled": 0, "is_reserved": 0, "fusion_lon": 0.0, "bike_id": "b7765a5157da3839db62d5e6b61b4b36", "lat": 38.8988835}, {"type": "electric_scooter", "rental_uris": {"android": "https://dc.lft.to/lastmile_qr_scan", "ios": "https://dc.lft.to/lastmile_qr_scan"}, "fusion_lat": 0.0, "name": "d6f4d182e667a27dd36b82767a92e725", "lon": -77.06291866666666, "is_disabled": 0, "is_reserved": 0, "fusion_lon": 0.0, "bike_id": "d6f4d182e667a27dd36b82767a92e725", "lat": 38.90681766666667}, {"type": "electric_scooter", "rental_uris": {"android": "https://dc.lft.to/lastmile_qr_scan", "ios": "https://dc.lft.to/lastmile_qr_scan"}, "fusion_lat": 0.0, "name": "a8cfcf1ab9043ef90b19420417aec8b3", "lon": -77.06796033333333, "is_disabled": 0, "is_reserved": 0, "fusion_lon": 0.0, "bike_id": "a8cfcf1ab9043ef90b19420417aec8b3", "lat": 38.91313133333333}, {"type": "electric_scooter", "rental_uris": {"android": "https://dc.lft.to/lastmile_qr_scan", "ios": "https://dc.lft.to/lastmile_qr_scan"}, "fusion_lat": 0.0, "name": "a12389b181a89d15b2516100b6911510", "lon": -77.03317383333334, "is_disabled": 0, "is_reserved": 0, "fusion_lon": 0.0, "bike_id": "a12389b181a89d15b2516100b6911510", "lat": 38.90005683333333}, {"type": "electric_scooter", "rental_uris": {"android": "https://dc.lft.to/lastmile_qr_scan", "ios": "https://dc.lft.to/lastmile_qr_scan"}, "fusion_lat": 0.0, "name": "f38eb9cac600915babc9cec63b38a598", "lon": -77.0261185, "is_disabled": 0, "is_reserved": 0, "fusion_lon": 0.0, "bike_id": "f38eb9cac600915babc9cec63b38a598", "lat": 38.929853666666666}, {"type": "electric_scooter", "rental_uris": {"android": "https://dc.lft.to/lastmile_qr_scan", "ios": "https://dc.lft.to/lastmile_qr_scan"}, "fusion_lat": 0.0, "name": "10eee6b3cc27b3bdb8af79d2fbe06394", "lon": -77.07161716666667, "is_disabled": 0, "is_reserved": 0, "fusion_lon": 0.0, "bike_id": "10eee6b3cc27b3bdb8af79d2fbe06394", "lat": 38.90777283333333}, {"type": "electric_scooter", "rental_uris": {"android": "https://dc.lft.to/lastmile_qr_scan", "ios": "https://dc.lft.to/lastmile_qr_scan"}, "fusion_lat": 0.0, "name": "6becbaaac8ccb06cb5b823680405803f", "lon": -77.04217066666666, "is_disabled": 0, "is_reserved": 0, "fusion_lon": 0.0, "bike_id": "6becbaaac8ccb06cb5b823680405803f", "lat": 38.90707533333333}, {"type": "electric_scooter", "rental_uris": {"android": "https://dc.lft.to/lastmile_qr_scan", "ios": "https://dc.lft.to/lastmile_qr_scan"}, "fusion_lat": 0.0, "name": "af1464d7ce5269c54736ca3d3ba743b5", "lon": -76.994758, "is_disabled": 0, "is_reserved": 0, "fusion_lon": 0.0, "bike_id": "af1464d7ce5269c54736ca3d3ba743b5", "lat": 38.862124333333334}, {"type": "electric_scooter", "rental_uris": {"android": "https://dc.lft.to/lastmile_qr_scan", "ios": "https://dc.lft.to/lastmile_qr_scan"}, "fusion_lat": 0.0, "name": "e7838515b6b2b9089c0d64e1179e2f7c", "lon": -77.0439965, "is_disabled": 0, "is_reserved": 0, "fusion_lon": 0.0, "bike_id": "e7838515b6b2b9089c0d64e1179e2f7c", "lat": 38.909174666666665}, {"type": "electric_scooter", "rental_uris": {"android": "https://dc.lft.to/lastmile_qr_scan", "ios": "https://dc.lft.to/lastmile_qr_scan"}, "fusion_lat": 0.0, "name": "3fbade8f0dd32f3407f5a9ecd6f3a8ff", "lon": -76.98725966666666, "is_disabled": 0, "is_reserved": 0, "fusion_lon": 0.0, "bike_id": "3fbade8f0dd32f3407f5a9ecd6f3a8ff", "lat": 38.867098666666664}, {"type": "electric_scooter", "rental_uris": {"android": "https://dc.lft.to/lastmile_qr_scan", "ios": "https://dc.lft.to/lastmile_qr_scan"}, "fusion_lat": 0.0, "name": "47f56f40b9233559a2d63e8e42c53c5c", "lon": -76.99331216666667, "is_disabled": 0, "is_reserved": 0, "fusion_lon": 0.0, "bike_id": "47f56f40b9233559a2d63e8e42c53c5c", "lat": 38.8714555}, {"type": "electric_scooter", "rental_uris": {"android": "https://dc.lft.to/lastmile_qr_scan", "ios": "https://dc.lft.to/lastmile_qr_scan"}, "fusion_lat": 0.0, "name": "ed1dd7c0bcf5ebcc9c9f6d148e911005", "lon": -76.94888983333334, "is_disabled": 0, "is_reserved": 0, "fusion_lon": 0.0, "bike_id": "ed1dd7c0bcf5ebcc9c9f6d148e911005", "lat": 38.895100166666666}, {"type": "electric_bike", "rental_uris": {"android": "https://dc.lft.to/lastmile_qr_scan", "ios": "https://dc.lft.to/lastmile_qr_scan"},