{"data": {"bikes": [{"is_disabled": 0, "is_reserved": 0, "fusion_lat": 0.0, "lat": 38.877792, "fusion_lon": 0.0, "rental_uris": {"ios": "https://dc.lft.to/lastmile_qr_scan", "android": "https://dc.lft.to/lastmile_qr_scan"}, "lon": -77.00212583333334, "bike_id": "755fa66dd3efedf61a7bee1e903be2e0", "type": "electric_scooter", "name": "755fa66dd3efedf61a7bee1e903be2e0"}, {"is_disabled": 0, "is_reserved": 0, "fusion_lat": 0.0, "lat": 38.90233716666667, "fusion_lon": 0.0, "rental_uris": {"ios": "https://dc.lft.to/lastmile_qr_scan", "android": "https://dc.lft.to/lastmile_qr_scan"}, "lon": -77.04543283333334, "bike_id": "1e6218047ce936f82ea5cea7bc5e032b", "type": "electric_scooter", "name": "1e6218047ce936f82ea5cea7bc5e032b"}, {"is_disabled": 0, "is_reserved": 0, "fusion_lat": 0.0, "lat": 38.956698, "fusion_lon": 0.0, "rental_uris": {"ios": "https://dc.lft.to/lastmile_qr_scan", "android": "https://dc.lft.to/lastmile_qr_scan"}, "lon": -77.03631533333333, "bike_id": "4c8f076e8dabbd5ea67f49e24585c23d", "type": "electric_scooter", "name": "4c8f076e8dabbd5ea67f49e24585c23d"}, {"is_disabled": 0, "is_reserved": 0, "fusion_lat": 0.0, "lat": 38.905896, "fusion_lon": 0.0, "rental_uris": {"ios": "https://dc.lft.to/lastmile_qr_scan", "android": "https://dc.lft.to/lastmile_qr_scan"}, "lon": -77.00610183333333, "bike_id": "f9259ed5788dc9bba00d424723c40c96", "type": "electric_scooter", "name": "f9259ed5788dc9bba00d424723c40c96"}, {"is_disabled": 0, "is_reserved": 0, "fusion_lat": 0.0, "lat": 38.90015266666666, "fusion_lon": 0.0, "rental_uris": {"ios": "https://dc.lft.to/lastmile_qr_scan", "android": "https://dc.lft.to/lastmile_qr_scan"}, "lon": -77.01204083333333, "bike_id": "ad9356734e56e487e278c058cbc00203", "type": "electric_scooter", "name": "ad9356734e56e487e278c058cbc00203"}, {"is_disabled": 0, "is_reserved": 0, "fusion_lat": 0.0, "lat": 38.90880083333333, "fusion_lon": 0.0, "rental_uris": {"ios": "https://dc.lft.to/lastmile_qr_scan", "android": "https://dc.lft.to/lastmile_qr_scan"}, "lon": -77.0432605, "bike_id": "5c168bf924eb1fba30c7890e184631e4", "type": "electric_scooter", "name": "5c168bf924eb1fba30c7890e184631e4"}, {"is_disabled": 0, "is_reserved": 0, "fusion_lat": 0.0, "lat": 38.86216733333333, "fusion_lon": 0.0, "rental_uris": {"ios": "https://dc.lft.to/lastmile_qr_scan", "android": "https://dc.lft.to/lastmile_qr_scan"}, "lon": -76.99478866666666, "bike_id": "5713666b031511423399255ae2c3a4e3", "type": "electric_scooter", "name": "5713666b031511423399255ae2c3a4e3"}, {"is_disabled": 0, "is_reserved": 0, "fusion_lat": 0.0, "lat": 38.91691383333333, "fusion_lon": 0.0, "rental_uris": {"ios": "https://dc.lft.to/lastmile_qr_scan", "android": "https://dc.lft.to/lastmile_qr_scan"}, "lon": -77.02959266666667, "bike_id": "701f4612f226deb83e6a1052c2c8f424", "type": "electric_scooter", "name": "701f4612f226deb83e6a1052c2c8f424"}, {"is_disabled": 0, "is_reserved": 0, "fusion_lat": 0.0, "lat": 38.87642233333333, "fusion_lon": 0.0, "rental_uris": {"ios": "https://dc.lft.to/lastmile_qr_scan", "android": "https://dc.lft.to/lastmile_qr_scan"}, "lon": -77.02081433333333, "bike_id": "acacef2758b27f44947d28461fba8135", "type": "electric_scooter", "name": "acacef2758b27f44947d28461fba8135"}, {"is_disabled": 0, "is_reserved": 0, "fusion_lat": 0.0, "lat": 38.934066, "fusion_lon": 0.0, "rental_uris": {"ios": "https://dc.lft.to/lastmile_qr_scan", "android": "https://dc.lft.to/lastmile_qr_scan"}, "lon": -77.041402, "bike_id": "82eaedbdff620947688a96c608d3e9e1", "type": "electric_scooter", "name": "82eaedbdff620947688a96c608d3e9e1"}, {"is_disabled": 0, "is_reserved": 0, "fusion_lat": 0.0, "lat": 38.90653066666667, "fusion_lon": 0.0, "rental_uris": {"ios": "https://dc.lft.to/lastmile_qr_scan", "android": "https://dc.lft.to/lastmile_qr_scan"}, "lon": -77.00573483333334, "bike_id": "8f612f9b67cecc44a68923441e15ec94", "type": "electric_scooter", "name": "8f612f9b67cecc44a68923441e15ec94"}, {"is_disabled": 0, "is_reserved": 0, "fusion_lat": 0.0, "lat": 38.892273333333335, "fusion_lon": 0.0, "rental_uris": {"ios": "https://dc.lft.to/lastmile_qr_scan", "android": "https://dc.lft.to/lastmile_qr_scan"}, "lon": -77.031928, "bike_id": "c5ae210eca7ae9646320c02a46259c9a", "type": "electric_scooter", "name": "c5ae210eca7ae9646320c02a46259c9a"}, {"is_disabled": 0, "is_reserved": 0, "fusion_lat": 0.0, "lat": 38.85084066666667, "fusion_lon": 0.0, "rental_uris": {"ios": "https://dc.lft.to/lastmile_qr_scan", "android": "https://dc.lft.to/lastmile_qr_scan"}, "lon": -76.98124266666667, "bike_id": "617e12aa08f279dd6115c04d32c157a3", "type": "electric_bike", "name": "617e12aa08f279dd6115c04d32c157a3"}, {"is_disabled": 0, "is_reserved": 0, "fusion_lat": 0.0, "lat": 38.91839266666667, "fusion_lon": 0.0, "rental_uris": {"ios": "https://dc.lft.to/lastmile_qr_scan", "android": "https://dc.lft.to/lastmile_qr_scan"}, "lon": -77.05316533333334, "bike_id": "8130b43159d01f88a517a8693530f59e", "type": "electric_scooter", "name": "8130b43159d01f88a517a8693530f59e"}, {"is_disabled": 0, "is_reserved": 0, "fusion_lat": 0.0, "lat": 38.904577, "fusion_lon": 0.0, "rental_uris": {"ios": "https://dc.lft.to/lastmile_qr_scan", "android": "https://dc.lft.to/lastmile_qr_scan"}, "lon": -76.9327545, "bike_id": "d8339a0b30e0c378ddd0fc18a594f26d", "type": "electric_scooter", "name": "d8339a0b30e0c378ddd0fc18a594f26d"}, {"is_disabled": 0, "is_reserved": 0, "fusion_lat": 0.0, "lat": 38.93993233333333, "fusion_lon": 0.0, "rental_uris": {"ios": "https://dc.lft.to/lastmile_qr_scan", "android": "https://dc.lft.to/lastmile_qr_scan"}, "lon": -77.0288885, "bike_id": "31cdff6d22d98d6bf8887b2d1f2b5568", "type": "electric_scooter", "name": "31cdff6d22d98d6bf8887b2d1f2b5568"}, {"is_disabled": 0, "is_reserved": 0, "fusion_lat": 0.0, "lat": 38.87330633333333, "fusion_lon": 0.0, "rental_uris": {"ios": "https://dc.lft.to/lastmile_qr_scan", "android": "https://dc.lft.to/lastmile_qr_scan"}, "lon": -77.006043, "bike_id": "5b84e889ced7008fa2028dc6a2d15728", "type": "electric_scooter", "name": "5b84e889ced7008fa2028dc6a2d15728"}, {"is_disabled": 0, "is_reserved": 0, "fusion_lat": 0.0, "lat": 38.905929666666665, "fusion_lon": 0.0, "rental_uris": {"ios": "https://dc.lft.to/lastmile_qr_scan", "android": "https://dc.lft.to/lastmile_qr_scan"}, "lon": -77.0218665, "bike_id": "84488f855b4820cf6a2eeb3ed7e53839", "type": "electric_scooter", "name": "84488f855b4820cf6a2eeb3ed7e53839"}, {"is_disabled": 0, "is_reserved": 0, "fusion_lat": 0.0, "lat": 38.92389883333333, "fusion_lon": 0.0, "rental_uris": {"ios": "https://dc.lft.to/lastmile_qr_scan", "android": "https://dc.lft.to/lastmile_qr_scan"}, "lon": -77.04045966666666, "bike_id": "f2b89290a99137eb7d7c32acb44bb2bd", "type": "electric_scooter", "name": "f2b89290a99137eb7d7c32acb44bb2bd"}, {"is_disabled": 0, "is_reserved": 0, "fusion_lat": 0.0, "lat": 38.921386166666665, "fusion_lon": 0.0, "rental_uris": {"ios": "https://dc.lft.to/lastmile_qr_scan", "android": "https://dc.lft.to/lastmile_qr_scan"}, "lon": -77.05158716666666, "bike_id": "660ebd401f4c4c2f87bc1fce420e20d8", "type": "electric_scooter", "name": "660ebd401f4c4c2f87bc1fce420e20d8"}, {"is_disabled": 0, "is_reserved": 0, "fusion_lat": 0.0, "lat": 38.923017333333334, "fusion_lon": 0.0, "rental_uris": {"ios": "https://dc.lft.to/lastmile_qr_scan", "android": "https://dc.lft.to/lastmile_qr_scan"}, "lon": -77.04146033333333, "bike_id": "a8075ac3c979fba131ed40247166707e", "type": "electric_scooter", "name": "a8075ac3c979fba131ed40247166707e"}, {"is_disabled": 0, "is_reserved": 0, "fusion_lat": 0.0, "lat": 38.883986666666665, "fusion_lon": 0.0, "rental_uris": {"ios": "https://dc.lft.to/lastmile_qr_scan", "android": "https://dc.lft.to/lastmile_qr_scan"}, "lon": -76.93040433333333, "bike_id": "98af6bd90c2446a147aedd096dff759c", "type": "electric_scooter", "name": "98af6bd90c2446a147aedd096dff759c"}, {"is_disabled": 0, "is_reserved": 0, "fusion_lat": 0.0, "lat": 38.90974533333333, "fusion_lon": 0.0, "rental_uris": {"ios": "https://dc.lft.to/lastmile_qr_scan", "android": "https://dc.lft.to/lastmile_qr_scan"}, "lon": -77.0241695, "bike_id": "325d6e309d787de5c6252a0b625304b1", "type": "electric_scooter", "name": "325d6e309d787de5c6252a0b625304b1"}, {"is_disabled": 0, "is_reserved": 0, "fusion_lat": 0.0, "lat": 38.85903783333333, "fusion_lon": 0.0, "rental_uris": {"ios": "https://dc.lft.to/lastmile_qr_scan", "android": "https://dc.lft.to/lastmile_qr_scan"}, "lon": -77.09559783333333, "bike_id": "de8e5e0dc29bf00f2753dfd5c662040e", "type": "electric_bike", "name": "de8e5e0dc29bf00f2753dfd5c662040e"}, {"is_disabled": 0, "is_reserved": 0, "fusion_lat": 0.0, "lat": 38.918369, "fusion_lon": 0.0, "rental_uris": {"ios": "https://dc.lft.to/lastmile_qr_scan", "android": "https://dc.lft.to/lastmile_qr_scan"}, "lon": -77.02288983333334, "bike_id": "b135056b7e1f25f43b9f35891598ffb2", "type": "electric_scooter", "name": "b135056b7e1f25f43b9f35891598ffb2"}, {"is_disabled": 0, "is_reserved": 0, "fusion_lat": 0.0, "lat": 38.95704666666666, "fusion_lon": 0.0, "rental_uris": {"ios": "https://dc.lft.to/lastmile_qr_scan", "android": "https://dc.lft.to/lastmile_qr_scan"}, "lon": -77.35974, "bike_id": "12f19534cc4df128641b849935fdeca6", "type": "electric_bike", "name": "12f19534cc4df128641b849935fdeca6"}, {"is_disabled": 0, "is_reserved": 0, "fusion_lat": 0.0, "lat": 38.90588533333333, "fusion_lon": 0.0, "rental_uris": {"ios": "https://dc.lft.to/lastmile_qr_scan", "android": "https://dc.lft.to/lastmile_qr_scan"}, "lon": -77.00259433333333, "bike_id": "0e9016142bee3254a60081d0344ad2e4", "type": "electric_scooter", "name": "0e9016142bee3254a60081d0344ad2e4"}, {"is_disabled": 0, "is_reserved": 0, "fusion_lat": 0.0, "lat": 38.905915, "fusion_lon": 0.0, "rental_uris": {"ios": "https://dc.lft.to/lastmile_qr_scan", "android": "https://dc.lft.to/lastmile_qr_scan"}, "lon": -77.021869, "bike_id": "7b9a8177b3e80f1f9e06a41392a63072", "type": "electric_scooter", "name": "7b9a8177b3e80f1f9e06a41392a63072"}, {"is_disabled": 0, "is_reserved": 0, "fusion_lat": 0.0, "lat": 38.91333616666667, "fusion_lon": 0.0, "rental_uris": {"ios": "https://dc.lft.to/lastmile_qr_scan", "android": "https://dc.lft.to/lastmile_qr_scan"}, "lon": -77.03184783333333, "bike_id": "ce7f523f0008366681d1cb460c6b12ea", "type": "electric_scooter", "name": "ce7f523f0008366681d1cb460c6b12ea"}, {"is_disabled": 0, "is_reserved": 0, "fusion_lat": 0.0, "lat": 38.903779, "fusion_lon": 0.0, "rental_uris": {"ios": "https://dc.lft.to/lastmile_qr_scan", "android": "https://dc.lft.to/lastmile_qr_scan"}, "lon": -77.03650366666666, "bike_id": "ef99f287dacb2c6b3ac2c8bec7700662", "type": "electric_scooter", "name": "ef99f287dacb2c6b3ac2c8bec7700662"}, {"is_disabled": 0, "is_reserved": 0, "fusion_lat": 0.0, "lat": 38.9214095, "fusion_lon": 0.0, "rental_uris": {"ios": "https://dc.lft.to/lastmile_qr_scan", "android": "https://dc.lft.to/lastmile_qr_scan"}, "lon": -77.02416316666667, "bike_id": "d59e11a7aa9f84d0e9010de171067b3d", "type": "electric_scooter", "name": "d59e11a7aa9f84d0e9010de171067b3d"}, {"is_disabled": 0, "is_reserved": 0, "fusion_lat": 0.0, "lat": 38.88376983333333, "fusion_lon": 0.0, "rental_uris": {"ios": "https://dc.lft.to/lastmile_qr_scan", "android": "https://dc.lft.to/lastmile_qr_scan"}, "lon": -76.92372516666667, "bike_id": "8968a63850701d8226eb788d78309fc3", "type": "electric_bike", "name": "8968a63850701d8226eb788d78309fc3"}, {"is_disabled": 0, "is_reserved": 0, "fusion_lat": 0.0, "lat": 38.923302, "fusion_lon": 0.0, "rental_uris": {"ios": "https://dc.lft.to/lastmile_qr_scan", "android": "https://dc.lft.to/lastmile_qr_scan"}, "lon": -77.03665966666667, "bike_id": "8a3fbf882c52aa592571beefd38356f5", "type": "electric_scooter", "name": "8a3fbf882c52aa592571beefd38356f5"}, {"is_disabled": 0, "is_reserved": 0, "fusion_lat": 0.0, "lat": 39.084345166666665, "fusion_lon": 0.0, "rental_uris": {"ios": "https://dc.lft.to/lastmile_qr_scan", "android": "https://dc.lft.to/lastmile_qr_scan"}, "lon": -76.95140616666667, "bike_id": "2ee9979d94a9abc500c3be3077bbfc9a", "type": "electric_bike", "name": "2ee9979d94a9abc500c3be3077bbfc9a"}, {"is_disabled": 0, "is_reserved": 0, "fusion_lat": 0.0, "lat": 38.887734333333334, "fusion_lon": 0.0, "rental_uris": {"ios": "https://dc.lft.to/lastmile_qr_scan", "android": "https://dc.lft.to/lastmile_qr_scan"}, "lon": -76.93262666666666, "bike_id": "cc699ee5ab3b217a9d149766be834d22", "type": "electric_scooter", "name": "cc699ee5ab3b217a9d149766be834d22"}, {"is_disabled": 0, "is_reserved": 0, "fusion_lat": 0.0, "lat": 38.9021895, "fusion_lon": 0.0, "rental_uris": {"ios": "https://dc.lft.to/lastmile_qr_scan", "android": "https://dc.lft.to/lastmile_qr_scan"}, "lon": -77.0510835, "bike_id": "b2af17b183e334cdcc83be917839e8af", "type": "electric_scooter", "name": "b2af17b183e334cdcc83be917839e8af"}, {"is_disabled": 0, "is_reserved": 0, "fusion_lat": 0.0, "lat": 38.880427833333336, "fusion_lon": 0.0, "rental_uris": {"ios": "https://dc.lft.to/lastmile_qr_scan", "android": "https://dc.lft.to/lastmile_qr_scan"}, "lon": -76.92724916666667, "bike_id": "27fefbffd43387f9ecfcb673cac6fdef", "type": "electric_scooter", "name": "27fefbffd43387f9ecfcb673cac6fdef"}, {"is_disabled": 0, "is_reserved": 0, "fusion_lat": 0.0, "lat": 38.91929, "fusion_lon": 0.0, "rental_uris": {"ios": "https://dc.lft.to/lastmile_qr_scan", "android": "https://dc.lft.to/lastmile_qr_scan"}, "lon": -77.04804266666666, "bike_id": "30575253a8ee3e92bb8c4721a36ad7c3", "type": "electric_scooter", "name": "30575253a8ee3e92bb8c4721a36ad7c3"}, {"is_disabled": 0, "is_reserved": 0, "fusion_lat": 0.0, "lat": 38.9144275, "fusion_lon": 0.0, "rental_uris": {"ios": "https://dc.lft.to/lastmile_qr_scan", "android": "https://dc.lft.to/lastmile_qr_scan"}, "lon": -77.02285716666667, "bike_id": "543528d8708d98b14cc722d310b6a07f", "type": "electric_scooter", "name": "543528d8708d98b14cc722d310b6a07f"}, {"is_disabled": 0, "is_reserved": 0, "fusion_lat": 0.0, "lat": 38.93657966666667, "fusion_lon": 0.0, "rental_uris": {"ios": "https://dc.lft.to/lastmile_qr_scan", "android": "https://dc.lft.to/lastmile_qr_scan"}, "lon": -77.0245505, "bike_id": "2d7d8eeb7847c07477e755f4d4e1956c", "type": "electric_scooter", "name": "2d7d8eeb7847c07477e755f4d4e1956c"}, {"is_disabled": 0, "is_reserved": 0, "fusion_lat": 0.0, "lat": 38.897823333333335, "fusion_lon": 0.0, "rental_uris": {"ios": "https://dc.lft.to/lastmile_qr_scan", "android": "https://dc.lft.to/lastmile_qr_scan"}, "lon": -77.01229716666667, "bike_id": "85b8127618921e10251d636b14c04a41", "type": "electric_scooter", "name": "85b8127618921e10251d636b14c04a41"}, {"is_disabled": 0, "is_reserved": 0, "fusion_lat": 0.0, "lat": 38.87065, "fusion_lon": 0.0, "rental_uris": {"ios": "https://dc.lft.to/lastmile_qr_scan", "android": "https://dc.lft.to/lastmile_qr_scan"}, "lon": -76.97976633333333, "bike_id": "3b95771176257065f863563c3cacca5d", "type": "electric_scooter", "name": "3b95771176257065f863563c3cacca5d"}, {"is_disabled": 0, "is_reserved": 0, "fusion_lat": 0.0, "lat": 38.875805166666666, "fusion_lon": 0.0, "rental_uris": {"ios": "https://dc.lft.to/lastmile_qr_scan", "android": "https://dc.lft.to/lastmile_qr_scan"}, "lon": -77.23410416666667, "bike_id": "8eb258383ea4584057303f5ef51a46f2", "type": "electric_bike", "name": "8eb258383ea4584057303f5ef51a46f2"}, {"is_disabled": 0, "is_reserved": 0, "fusion_lat": 0.0, "lat": 38.8098195, "fusion_lon": 0.0, "rental_uris": {"ios": "https://dc.lft.to/lastmile_qr_scan", "android": "https://dc.lft.to/lastmile_qr_scan"}, "lon": -77.07658066666667, "bike_id": "688dfa9a93416264d7300bb421aaf009", "type": "electric_bike", "name": "688dfa9a93416264d7300bb421aaf009"}, {"is_disabled": 0, "is_reserved": 0, "fusion_lat": 0.0, "lat": 38.92855433333333, "fusion_lon": 0.0, "rental_uris": {"ios": "https://dc.lft.to/lastmile_qr_scan", "android": "https://dc.lft.to/lastmile_qr_scan"}, "lon": -77.03602916666667, "bike_id": "e69257519400feb2382093bcf4da8a69", "type": "electric_scooter", "name": "e69257519400feb2382093bcf4da8a69"}, {"is_disabled": 0, "is_reserved": 0, "fusion_lat": 0.0, "lat": 38.809645, "fusion_lon": 0.0, "rental_uris": {"ios": "https://dc.lft.to/lastmile_qr_scan", "android": "https://dc.lft.to/lastmile_qr_scan"}, "lon": -77.04138266666666, "bike_id": "e4cb27f7ab3dd5dfef798556d33e58b9", "type": "electric_bike", "name": "e4cb27f7ab3dd5dfef798556d33e58b9"}, {"is_disabled": 0, "is_reserved": 0, "fusion_lat": 0.0, "lat": 38.91210433333333, "fusion_lon": 0.0, "rental_uris": {"ios": "https://dc.lft.to/lastmile_qr_scan", "android": "https://dc.lft.to/lastmile_qr_scan"}, "lon": -77.04467366666667, "bike_id": "c814d9f4708d1a29c8be5f068d76b3e7", "type": "electric_scooter", "name": "c814d9f4708d1a29c8be5f068d76b3e7"}, {"is_disabled": 0, "is_reserved": 0, "fusion_lat": 0.0, "lat": 38.898566333333335, "fusion_lon": 0.0, "rental_uris": {"ios": "https://dc.lft.to/lastmile_qr_scan", "android": "https://dc.lft.to/lastmile_qr_scan"}, "lon": -77.051296, "bike_id": "c0fdbe10134c190c99cc801126c69f67", "type": "electric_bike", "name": "c0fdbe10134c190c99cc801126c69f67"}, {"is_disabled": 0, "is_reserved": 0, "fusion_lat": 0.0, "lat": 38.9287135, "fusion_lon": 0.0, "rental_uris": {"ios": "https://dc.lft.to/lastmile_qr_scan", "android": "https://dc.lft.to/lastmile_qr_scan"}, "lon": -77.032932, "bike_id": "49c121a222c825bddaa0eae8710171de", "type": "electric_scooter", "name": "49c121a222c825bddaa0eae8710171de"}, {"is_disabled": 0, "is_reserved": 0, "fusion_lat": 0.0, "lat": 38.8987415, "fusion_lon": 0.0, "rental_uris": {"ios": "https://dc.lft.to/lastmile_qr_scan", "android": "https://dc.lft.to/lastmile_qr_scan"}, "lon": -77.0501495, "bike_id": "4972a8056c7c2f0d76b0a5bdbd1a54a6", "type": "electric_scooter", "name": "4972a8056c7c2f0d76b0a5bdbd1a54a6"}, {"is_disabled": 0, "is_reserved": 0, "fusion_lat": 0.0, "lat": 38.913267833333336, "fusion_lon": 0.0, "rental_uris": {"ios": "https://dc.lft.to/lastmile_qr_scan", "android": "https://dc.lft.to/lastmile_qr_scan"}, "lon": -77.0624595, "bike_id": "be6b82620f11b6268d920e362bd64ca1", "type": "electric_scooter", "name": "be6b82620f11b6268d920e362bd64ca1"}, {"is_disabled": 0, "is_reserved": 0, "fusion_lat": 0.0, "lat": 38.91713683333333, "fusion_lon": 0.0, "rental_uris": {"ios": "https://dc.lft.to/lastmile_qr_scan", "android": "https://dc.lft.to/lastmile_qr_scan"}, "lon": -77.03158833333333, "bike_id": "9ab8bb83c3202e70b933620f73261ccf", "type": "electric_scooter", "name": "9ab8bb83c3202e70b933620f73261ccf"}, {"is_disabled": 0, "is_reserved": 0, "fusion_lat": 0.0, "lat": 38.95359416666667, "fusion_lon": 0.0, "rental_uris": {"ios": "https://dc.lft.to/lastmile_qr_scan", "android": "https://dc.lft.to/lastmile_qr_scan"}, "lon": -76.9809525, "bike_id": "1e8bc8cb50fc6b32890b4be11fbf37ae", "type": "electric_bike", "name": "1e8bc8cb50fc6b32890b4be11fbf37ae"}, {"is_disabled": 0, "is_reserved": 0, "fusion_lat": 0.0, "lat": 38.914065666666666, "fusion_lon": 0.0, "rental_uris": {"ios": "https://dc.lft.to/lastmile_qr_scan", "android": "https://dc.lft.to/lastmile_qr_scan"}, "lon": -77.01145833333334, "bike_id": "dead3523619536917585b0d5351d0e24", "type": "electric_scooter", "name": "dead3523619536917585b0d5351d0e24"}, {"is_disabled": 0, "is_reserved": 0, "fusion_lat": 0.0, "lat": 38.88838466666667, "fusion_lon": 0.0, "rental_uris": {"ios": "https://dc.lft.to/lastmile_qr_scan", "android": "https://dc.lft.to/lastmile_qr_scan"}, "lon": -77.034036, "bike_id": "8433bb7cbcd58d46688b6f6a66e69e62", "type": "electric_scooter", "name": "8433bb7cbcd58d46688b6f6a66e69e62"}, {"is_disabled": 0, "is_reserved": 0, "fusion_lat": 0.0, "lat": 38.9002845, "fusion_lon": 0.0, "rental_uris": {"ios": "https://dc.lft.to/lastmile_qr_scan", "android": "https://dc.lft.to/lastmile_qr_scan"}, "lon": -76.998423, "bike_id": "98a0ae3b9b4870a6fefc676caf4454ff", "type": "electric_scooter", "name": "98a0ae3b9b4870a6fefc676caf4454ff"}, {"is_disabled": 0, "is_reserved": 0, "fusion_lat": 0.0, "lat": 38.92877983333333, "fusion_lon": 0.0, "rental_uris": {"ios": "https://dc.lft.to/lastmile_qr_scan", "android": "https://dc.lft.to/lastmile_qr_scan"}, "lon": -77.034485, "bike_id": "624514d1177372ace6399db0399db118", "type": "electric_scooter", "name": "624514d1177372ace6399db0399db118"}, {"is_disabled": 0, "is_reserved": 0, "fusion_lat": 0.0, "lat": 38.9360485, "fusion_lon": 0.0, "rental_uris": {"ios": "https://dc.lft.to/lastmile_qr_scan", "android": "https://dc.lft.to/lastmile_qr_scan"}, "lon": -77.03882, "bike_id": "7d281471ca8bbf98c7af09a5bb107c39", "type": "electric_scooter", "name": "7d281471ca8bbf98c7af09a5bb107c39"}, {"is_disabled": 0, "is_reserved": 0, "fusion_lat": 0.0, "lat": 38.884141166666666, "fusion_lon": 0.0, "rental_uris": {"ios": "https://dc.lft.to/lastmile_qr_scan", "android": "https://dc.lft.to/lastmile_qr_scan"}, "lon": -77.01757266666667, "bike_id": "1564a922c7d3108c87445b466ae17b3b", "type": "electric_scooter", "name": "1564a922c7d3108c87445b466ae17b3b"}, {"is_disabled": 0, "is_reserved": 0, "fusion_lat": 0.0, "lat": 38.92050583333334, "fusion_lon": 0.0, "rental_uris": {"ios": "https://dc.lft.to/lastmile_qr_scan", "android": "https://dc.lft.to/lastmile_qr_scan"}, "lon": -77.04540833333333, "bike_id": "5b6cf7d559fe65d2eff357884617effd", "type": "electric_scooter", "name": "5b6cf7d559fe65d2eff357884617effd"}, {"is_disabled": 0, "is_reserved": 0, "fusion_lat": 0.0, "lat": 38.835825, "fusion_lon": 0.0, "rental_uris": {"ios": "https://dc.lft.to/lastmile_qr_scan", "android": "https://dc.lft.to/lastmile_qr_scan"}, "lon": -76.99024216666666, "bike_id": "f57b067b2e0ecd344af6fb9ebf569e23", "type": "electric_bike", "name": "f57b067b2e0ecd344af6fb9ebf569e23"}, {"is_disabled": 0, "is_reserved": 0, "fusion_lat": 0.0, "lat": 38.932592, "fusion_lon": 0.0, "rental_uris": {"ios": "https://dc.lft.to/lastmile_qr_scan", "android": "https://dc.lft.to/lastmile_qr_scan"}, "lon": -77.0327915, "bike_id": "142613542c22698d7ec1c36559d9fa60", "type": "electric_scooter", "name": "142613542c22698d7ec1c36559d9fa60"}, {"is_disabled": 0, "is_reserved": 0, "fusion_lat": 0.0, "lat": 38.907784666666664, "fusion_lon": 0.0, "rental_uris": {"ios": "https://dc.lft.to/lastmile_qr_scan", "android": "https://dc.lft.to/lastmile_qr_scan"}, "lon": -77.04670583333333, "bike_id": "5a565fe74196dc1f120f568099d2862a", "type": "electric_scooter", "name": "5a565fe74196dc1f120f568099d2862a"}, {"is_disabled": 0, "is_reserved": 0, "fusion_lat": 0.0, "lat": 38.91910683333333, "fusion_lon": 0.0, "rental_uris": {"ios": "https://dc.lft.to/lastmile_qr_scan", "android": "https://dc.lft.to/lastmile_qr_scan"}, "lon": -77.10180466666667, "bike_id": "ee736d0163cb17052e6458112a5755d5", "type": "electric_bike", "name": "ee736d0163cb17052e6458112a5755d5"}, {"is_disabled": 0, "is_reserved": 0, "fusion_lat": 0.0, "lat": 38.90885316666667, "fusion_lon": 0.0, "rental_uris": {"ios": "https://dc.lft.to/lastmile_qr_scan", "android": "https://dc.lft.to/lastmile_qr_scan"}, "lon": -76.99778233333333, "bike_id": "d0803e5067fd0e2864785a7a4b1a3a63", "type": "electric_scooter", "name": "d0803e5067fd0e2864785a7a4b1a3a63"}, {"is_disabled": 0, "is_reserved": 0, "fusion_lat": 0.0, "lat": 38.89866383333333, "fusion_lon": 0.0, "rental_uris": {"ios": "https://dc.lft.to/lastmile_qr_scan", "android": "https://dc.lft.to/lastmile_qr_scan"}, "lon": -77.03960983333333, "bike_id": "1f1f8c7136edbddcfa314c56dfd0a062", "type": "electric_scooter", "name": "1f1f8c7136edbddcfa314c56dfd0a062"}, {"is_disabled": 0, "is_reserved": 0, "fusion_lat": 0.0, "lat": 38.905120333333336, "fusion_lon": 0.0, "rental_uris": {"ios": "https://dc.lft.to/lastmile_qr_scan", "android": "https://dc.lft.to/lastmile_qr_scan"}, "lon": -77.070134, "bike_id": "32473b2d467edaaffdde795c8e78c5c3", "type": "electric_scooter", "name": "32473b2d467edaaffdde795c8e78c5c3"}, {"is_disabled": 0, "is_reserved": 0, "fusion_lat": 0.0, "lat": 38.90527983333333, "fusion_lon": 0.0, "rental_uris": {"ios": "https://dc.lft.to/lastmile_qr_scan", "android": "https://dc.lft.to/lastmile_qr_scan"}, "lon": -77.041716, "bike_id": "1d04ffba6ab59c19910b713c013513a5", "type": "electric_scooter", "name": "1d04ffba6ab59c19910b713c013513a5"}, {"is_disabled": 0, "is_reserved": 0, "fusion_lat": 0.0, "lat": 38.90648733333333, "fusion_lon": 0.0, "rental_uris": {"ios": "https://dc.lft.to/lastmile_qr_scan", "android": "https://dc.lft.to/lastmile_qr_scan"}, "lon": -77.02469183333334, "bike_id": "990268524736fa368f62ffafb51f6cf4", "type": "electric_scooter", "name": "990268524736fa368f62ffafb51f6cf4"}, {"is_disabled": 0, "is_reserved": 0, "fusion_lat": 0.0, "lat": 38.89339016666667, "fusion_lon": 0.0, "rental_uris": {"ios": "https://dc.lft.to/lastmile_qr_scan", "android": "https://dc.lft.to/lastmile_qr_scan"}, "lon": -76.92890083333333, "bike_id": "03e7806268a629e48316599adcc8a034", "type": "electric_scooter", "name": "03e7806268a629e48316599adcc8a034"}, {"is_disabled": 0, "is_reserved": 0, "fusion_lat": 0.0, "lat": 38.901303166666665, "fusion_lon": 0.0, "rental_uris": {"ios": "https://dc.lft.to/lastmile_qr_scan", "android": "https://dc.lft.to/lastmile_qr_scan"}, "lon": -77.0406, "bike_id": "1d1e3d7d61a36769b4f39cf3b45e5b06", "type": "electric_scooter", "name": "1d1e3d7d61a36769b4f39cf3b45e5b06"}, {"is_disabled": 0, "is_reserved": 0, "fusion_lat": 0.0, "lat": 38.961878666666664, "fusion_lon": 0.0, "rental_uris": {"ios": "https://dc.lft.to/lastmile_qr_scan", "android": "https://dc.lft.to/lastmile_qr_scan"}, "lon": -77.09900466666667, "bike_id": "2ebd11c928218b0b251a8b8021f2f348", "type": "electric_bike", "name": "2ebd11c928218b0b251a8b8021f2f348"}, {"is_disabled": 0, "is_reserved": 0, "fusion_lat": 0.0, "lat": 38.899747166666664, "fusion_lon": 0.0, "rental_uris": {"ios": "https://dc.lft.to/lastmile_qr_scan", "android": "https://dc.lft.to/lastmile_qr_scan"}, "lon": -77.02176483333334, "bike_id": "d3ca8cb80ed20657090ee0e30bb7db22", "type": "electric_scooter", "name": "d3ca8cb80ed20657090ee0e30bb7db22"}, {"is_disabled": 0, "is_reserved": 0, "fusion_lat": 0.0, "lat": 38.9251795, "fusion_lon": 0.0, "rental_uris": {"ios": "https://dc.lft.to/lastmile_qr_scan", "android": "https://dc.lft.to/lastmile_qr_scan"}, "lon": -77.02962533333333, "bike_id": "59b4d2b33032ab3cacfc614118402dd1", "type": "electric_scooter", "name": "59b4d2b33032ab3cacfc614118402dd1"}, {"is_disabled": 0, "is_reserved": 0, "fusion_lat": 0.0, "lat": 38.89224883333333, "fusion_lon": 0.0, "rental_uris": {"ios": "https://dc.lft.to/lastmile_qr_scan", "android": "https://dc.lft.to/lastmile_qr_scan"}, "lon": -77.0468905, "bike_id": "eb70a279aebbb48b9e20a3dab2bad272", "type": "electric_scooter", "name": "eb70a279aebbb48b9e20a3dab2bad272"}, {"is_disabled": 0, "is_reserved": 0, "fusion_lat": 0.0, "lat": 38.876618, "fusion_lon": 0.0, "rental_uris": {"ios": "https://dc.lft.to/lastmile_qr_scan", "android": "https://dc.lft.to/lastmile_qr_scan"}, "lon": -77.00957966666667, "bike_id": "f01a9c47b6410e8f55189eb7d43ca0c0", "type": "electric_scooter", "name": "f01a9c47b6410e8f55189eb7d43ca0c0"}, {"is_disabled": 0, "is_reserved": 0, "fusion_lat": 0.0, "lat": 38.88359633333334, "fusion_lon": 0.0, "rental_uris": {"ios": "https://dc.lft.to/lastmile_qr_scan", "android": "https://dc.lft.to/lastmile_qr_scan"}, "lon": -76.92793183333333, "bike_id": "543c89762001b0110dd9ed1312a37a32", "type": "electric_scooter", "name": "543c89762001b0110dd9ed1312a37a32"}, {"is_disabled": 0, "is_reserved": 0, "fusion_lat": 0.0, "lat": 38.91848016666667, "fusion_lon": 0.0, "rental_uris": {"ios": "https://dc.lft.to/lastmile_qr_scan", "android": "https://dc.lft.to/lastmile_qr_scan"}, "lon": -77.03921216666667, "bike_id": "ce730f4bfc05bc2087ae97243a9c2031", "type": "electric_scooter", "name": "ce730f4bfc05bc2087ae97243a9c2031"}, {"is_disabled": 0, "is_reserved": 0, "fusion_lat": 0.0, "lat": 38.901680166666665, "fusion_lon": 0.0, "rental_uris": {"ios": "https://dc.lft.to/lastmile_qr_scan", "android": "https://dc.lft.to/lastmile_qr_scan"}, "lon": -77.04391516666666, "bike_id": "204ebd3d249f0936c0c0896b140659c7", "type": "electric_scooter", "name": "204ebd3d249f0936c0c0896b140659c7"}, {"is_disabled": 0, "is_reserved": 0, "fusion_lat": 0.0, "lat": 38.92865166666667, "fusion_lon": 0.0, "rental_uris": {"ios": "https://dc.lft.to/lastmile_qr_scan", "android": "https://dc.lft.to/lastmile_qr_scan"}, "lon": -77.0789085, "bike_id": "636d5d017a0c2521260f53683eb409ad", "type": "electric_scooter", "name": "636d5d017a0c2521260f53683eb409ad"}, {"is_disabled": 0, "is_reserved": 0, "fusion_lat": 0.0, "lat": 38.904761, "fusion_lon": 0.0, "rental_uris": {"ios": "https://dc.lft.to/lastmile_qr_scan", "android": "https://dc.lft.to/lastmile_qr_scan"}, "lon": -77.0488825, "bike_id": "40df731c99822e728f8c6512f65ffa04", "type": "electric_scooter", "name": "40df731c99822e728f8c6512f65ffa04"}, {"is_disabled": 0, "is_reserved": 0, "fusion_lat": 0.0, "lat": 38.908167666666664, "fusion_lon": 0.0, "rental_uris": {"ios": "https://dc.lft.to/lastmile_qr_scan", "android": "https://dc.lft.to/lastmile_qr_scan"}, "lon": -77.03941216666666, "bike_id": "452594f584b73f85565a49dc99a5ec8f", "type": "electric_scooter", "name": "452594f584b73f85565a49dc99a5ec8f"}, {"is_disabled": 0, "is_reserved": 0, "fusion_lat": 0.0, "lat": 38.923339, "fusion_lon": 0.0, "rental_uris": {"ios": "https://dc.lft.to/lastmile_qr_scan", "android": "https://dc.lft.to/lastmile_qr_scan"}, "lon": -77.05680133333334, "bike_id": "074d87acd8a8055a8cd11057cf252573", "type": "electric_scooter", "name": "074d87acd8a8055a8cd11057cf252573"}, {"is_disabled": 0, "is_reserved": 0, "fusion_lat": 0.0, "lat": 38.877943333333334, "fusion_lon": 0.0, "rental_uris": {"ios": "https://dc.lft.to/lastmile_qr_scan", "android": "https://dc.lft.to/lastmile_qr_scan"}, "lon": -77.00116233333334, "bike_id": "4a2fa066c0e577612e49c27dd1b2d086", "type": "electric_scooter", "name": "4a2fa066c0e577612e49c27dd1b2d086"}, {"is_disabled": 0, "is_reserved": 0, "fusion_lat": 0.0, "lat": 38.9141465, "fusion_lon": 0.0, "rental_uris": {"ios": "https://dc.lft.to/lastmile_qr_scan", "android": "https://dc.lft.to/lastmile_qr_scan"}, "lon": -77.0520885, "bike_id": "9b167130e42f6e419112546a4ef44984", "type": "electric_scooter", "name": "9b167130e42f6e419112546a4ef44984"}, {"is_disabled": 0, "is_reserved": 0, "fusion_lat": 0.0, "lat": 38.905134833333335, "fusion_lon": 0.0, "rental_uris": {"ios": "https://dc.lft.to/lastmile_qr_scan", "android": "https://dc.lft.to/lastmile_qr_scan"}, "lon": -76.95201233333333, "bike_id": "0377d8d4819f29403791e2423793735a", "type": "electric_scooter", "name": "0377d8d4819f29403791e2423793735a"}, {"is_disabled": 0, "is_reserved": 0, "fusion_lat": 0.0, "lat": 38.88625316666667, "fusion_lon": 0.0, "rental_uris": {"ios": "https://dc.lft.to/lastmile_qr_scan", "android": "https://dc.lft.to/lastmile_qr_scan"}, "lon": -76.92635033333333, "bike_id": "ac4e7b6329a5392b5e2a7aed0ba3d6e0", "type": "electric_scooter", "name": "ac4e7b6329a5392b5e2a7aed0ba3d6e0"}, {"is_disabled": 0, "is_reserved": 0, "fusion_lat": 0.0, "lat": 38.9251625, "fusion_lon": 0.0, "rental_uris": {"ios": "https://dc.lft.to/lastmile_qr_scan", "android": "https://dc.lft.to/lastmile_qr_scan"}, "lon": -76.9955845, "bike_id": "569fcf8f6e629c1b002e5194413ecca9", "type": "electric_scooter", "name": "569fcf8f6e629c1b002e5194413ecca9"}, {"is_disabled": 0, "is_reserved": 0, "fusion_lat": 0.0, "lat": 38.94332283333333, "fusion_lon": 0.0, "rental_uris": {"ios": "https://dc.lft.to/lastmile_qr_scan", "android": "https://dc.lft.to/lastmile_qr_scan"}, "lon": -77.02691083333333, "bike_id": "86df9ee3ab5d5efb345f9ea2ef0bd9f4", "type": "electric_scooter", "name": "86df9ee3ab5d5efb345f9ea2ef0bd9f4"}, {"is_disabled": 0, "is_reserved": 0, "fusion_lat": 0.0, "lat": 38.90004033333334, "fusion_lon": 0.0, "rental_uris": {"ios": "https://dc.lft.to/lastmile_qr_scan", "android": "https://dc.lft.to/lastmile_qr_scan"}, "lon": -77.02717966666667, "bike_id": "c906314f05bbdd92b65330ac1991d424", "type": "electric_scooter", "name": "c906314f05bbdd92b65330ac1991d424"}, {"is_disabled": 0, "is_reserved": 0, "fusion_lat": 0.0, "lat": 38.9236435, "fusion_lon": 0.0, "rental_uris": {"ios": "https://dc.lft.to/lastmile_qr_scan", "android": "https://dc.lft.to/lastmile_qr_scan"}, "lon": -77.02142816666667, "bike_id": "dddafaabdad3f40b66aa9c1bd158e53e", "type": "electric_scooter", "name": "dddafaabdad3f40b66aa9c1bd158e53e"}, {"is_disabled": 0, "is_reserved": 0, "fusion_lat": 0.0, "lat": 38.93068916666667, "fusion_lon": 0.0, "rental_uris": {"ios": "https://dc.lft.to/lastmile_qr_scan", "android": "https://dc.lft.to/lastmile_qr_scan"}, "lon": -77.04056066666666, "bike_id": "37dfbcbc0732d6d4ad8b136ac6b8298f", "type": "electric_scooter", "name": "37dfbcbc0732d6d4ad8b136ac6b8298f"}, {"is_disabled": 0, "is_reserved": 0, "fusion_lat": 0.0, "lat": 38.92586433333334, "fusion_lon": 0.0, "rental_uris": {"ios": "https://dc.lft.to/lastmile_qr_scan", "android": "https://dc.lft.to/lastmile_qr_scan"}, "lon": -77.05285316666667, "bike_id": "8d1ea80bfd5544df49f976eadcc1b1d2", "type": "electric_scooter", "name": "8d1ea80bfd5544df49f976eadcc1b1d2"}, {"is_disabled": 0, "is_reserved": 0, "fusion_lat": 0.0, "lat": 38.914757333333334, "fusion_lon": 0.0, "rental_uris": {"ios": "https://dc.lft.to/lastmile_qr_scan", "android": "https://dc.lft.to/lastmile_qr_scan"}, "lon": -77.009215, "bike_id": "18511ea8a721ef07ab1b982e991c2b2a", "type": "electric_scooter", "name": "18511ea8a721ef07ab1b982e991c2b2a"}, {"is_disabled": 0, "is_reserved": 0, "fusion_lat": 0.0, "lat": 39.026476, "fusion_lon": 0.0, "rental_uris": {"ios": "https://dc.lft.to/lastmile_qr_scan", "android": "https://dc.lft.to/lastmile_qr_scan"}, "lon": -77.03685116666666, "bike_id": "91c488c25bf0b6555d3c558303ce0a54", "type": "electric_bike", "name": "91c488c25bf0b6555d3c558303ce0a54"}, {"is_disabled": 0, "is_reserved": 0, "fusion_lat": 0.0, "lat": 38.914707666666665, "fusion_lon": 0.0, "rental_uris": {"ios": "https://dc.lft.to/lastmile_qr_scan", "android": "https://dc.lft.to/lastmile_qr_scan"}, "lon": -77.03217016666666, "bike_id": "e8b66efc4234aec71a2bfb9f49528e67", "type": "electric_scooter", "name": "e8b66efc4234aec71a2bfb9f49528e67"}, {"is_disabled": 0, "is_reserved": 0, "fusion_lat": 0.0, "lat": 38.920944666666664, "fusion_lon": 0.0, "rental_uris": {"ios": "https://dc.lft.to/lastmile_qr_scan", "android": "https://dc.lft.to/lastmile_qr_scan"}, "lon": -77.04122116666667, "bike_id": "b6a1d72f8f390b113cbb07ba58a59e8a", "type": "electric_scooter", "name": "b6a1d72f8f390b113cbb07ba58a59e8a"}, {"is_disabled": 0, "is_reserved": 0, "fusion_lat": 0.0, "lat": 38.903775833333334, "fusion_lon": 0.0, "rental_uris": {"ios": "https://dc.lft.to/lastmile_qr_scan", "android": "https://dc.lft.to/lastmile_qr_scan"}, "lon": -77.044973, "bike_id": "04151c7fdc3fb90c77e23349184f8130", "type": "electric_scooter", "name": "04151c7fdc3fb90c77e23349184f8130"}, {"is_disabled": 0, "is_reserved": 0, "fusion_lat": 0.0, "lat": 38.91845816666667, "fusion_lon": 0.0, "rental_uris": {"ios": "https://dc.lft.to/lastmile_qr_scan", "android": "https://dc.lft.to/lastmile_qr_scan"}, "lon": -77.0391505, "bike_id": "e32d08648b975df69ad4d92c88c40d0a", "type": "electric_scooter", "name": "e32d08648b975df69ad4d92c88c40d0a"}, {"is_disabled": 0, "is_reserved": 0, "fusion_lat": 0.0, "lat": 38.89685633333333, "fusion_lon": 0.0, "rental_uris": {"ios": "https://dc.lft.to/lastmile_qr_scan", "android": "https://dc.lft.to/lastmile_qr_scan"}, "lon": -76.93906883333334, "bike_id": "1e18f6d4e9ad02c2f597592b71deff42", "type": "electric_scooter", "name": "1e18f6d4e9ad02c2f597592b71deff42"}, {"is_disabled": 0, "is_reserved": 0, "fusion_lat": 0.0, "lat": 38.91982133333333, "fusion_lon": 0.0, "rental_uris": {"ios": "https://dc.lft.to/lastmile_qr_scan", "android": "https://dc.lft.to/lastmile_qr_scan"}, "lon": -77.0417205, "bike_id": "6307cd58da257a282b50c174535637fe", "type": "electric_scooter", "name": "6307cd58da257a282b50c174535637fe"}, {"is_disabled": 0, "is_reserved": 0, "fusion_lat": 0.0, "lat": 38.91805983333333, "fusion_lon": 0.0, "rental_uris": {"ios": "https://dc.lft.to/lastmile_qr_scan", "android": "https://dc.lft.to/lastmile_qr_scan"}, "lon": -77.037208, "bike_id": "343b037aef4c5bbf390c3e93ac0a516a", "type": "electric_scooter", "name": "343b037aef4c5bbf390c3e93ac0a516a"}, {"is_disabled": 0, "is_reserved": 0, "fusion_lat": 0.0, "lat": 38.995075166666666, "fusion_lon": 0.0, "rental_uris": {"ios": "https://dc.lft.to/lastmile_qr_scan", "android": "https://dc.lft.to/lastmile_qr_scan"}, "lon": -77.0289125, "bike_id": "b31b77c620e81c5ef74c5c3994642fac", "type": "electric_bike", "name": "b31b77c620e81c5ef74c5c3994642fac"}, {"is_disabled": 0, "is_reserved": 0, "fusion_lat": 0.0, "lat": 38.88509333333333, "fusion_lon": 0.0, "rental_uris": {"ios": "https://dc.lft.to/lastmile_qr_scan", "android": "https://dc.lft.to/lastmile_qr_scan"}, "lon": -77.00565216666666, "bike_id": "381075d74fee668289ad6e944c107824", "type": "electric_scooter", "name": "381075d74fee668289ad6e944c107824"}, {"is_disabled": 0, "is_reserved": 0, "fusion_lat": 0.0, "lat": 38.859345, "fusion_lon": 0.0, "rental_uris": {"ios": "https://dc.lft.to/lastmile_qr_scan", "android": "https://dc.lft.to/lastmile_qr_scan"}, "lon": -76.98684266666666, "bike_id": "ea2d46a48656c126c38455721b289659", "type": "electric_scooter", "name": "ea2d46a48656c126c38455721b289659"}, {"is_disabled": 0, "is_reserved": 0, "fusion_lat": 0.0, "lat": 38.8937375, "fusion_lon": 0.0, "rental_uris": {"ios": "https://dc.lft.to/lastmile_qr_scan", "android": "https://dc.lft.to/lastmile_qr_scan"}, "lon": -77.04675316666666, "bike_id": "cdc78266e110a2cbc068a269d59ec73c", "type": "electric_scooter", "name": "cdc78266e110a2cbc068a269d59ec73c"}, {"is_disabled": 0, "is_reserved": 0, "fusion_lat": 0.0, "lat": 38.911273666666666, "fusion_lon": 0.0, "rental_uris": {"ios": "https://dc.lft.to/lastmile_qr_scan", "android": "https://dc.lft.to/lastmile_qr_scan"}, "lon": -77.02198716666666, "bike_id": "1b5b534b1b643f79a2af068216c28c4a", "type": "electric_scooter", "name": "1b5b534b1b643f79a2af068216c28c4a"}, {"is_disabled": 0, "is_reserved": 0, "fusion_lat": 0.0, "lat": 38.91017466666667, "fusion_lon": 0.0, "rental_uris": {"ios": "https://dc.lft.to/lastmile_qr_scan", "android": "https://dc.lft.to/lastmile_qr_scan"}, "lon": -77.04457716666667, "bike_id": "109b65b9e0edc56dd214cad94291f358", "type": "electric_scooter", "name": "109b65b9e0edc56dd214cad94291f358"}, {"is_disabled": 0, "is_reserved": 0, "fusion_lat": 0.0, "lat": 38.887677833333335, "fusion_lon": 0.0, "rental_uris": {"ios": "https://dc.lft.to/lastmile_qr_scan", "android": "https://dc.lft.to/lastmile_qr_scan"}, "lon": -77.01462083333334, "bike_id": "c14a94538c4a2075eeaad217c1bf719a", "type": "electric_scooter", "name": "c14a94538c4a2075eeaad217c1bf719a"}, {"is_disabled": 0, "is_reserved": 0, "fusion_lat": 0.0, "lat": 38.95532, "fusion_lon": 0.0, "rental_uris": {"ios": "https://dc.lft.to/lastmile_qr_scan", "android": "https://dc.lft.to/lastmile_qr_scan"}, "lon": -76.96829816666667, "bike_id": "f9d3339964c9508e9fd9a75e171de6c2", "type": "electric_bike", "name": "f9d3339964c9508e9fd9a75e171de6c2"}, {"is_disabled": 0, "is_reserved": 0, "fusion_lat": 0.0, "lat": 38.87462133333333, "fusion_lon": 0.0, "rental_uris": {"ios": "https://dc.lft.to/lastmile_qr_scan", "android": "https://dc.lft.to/lastmile_qr_scan"}, "lon": -77.00406716666667, "bike_id": "96698f47564bea836f8bc9c71345a213", "type": "electric_scooter", "name": "96698f47564bea836f8bc9c71345a213"}, {"is_disabled": 0, "is_reserved": 0, "fusion_lat": 0.0, "lat": 39.0107715, "fusion_lon": 0.0, "rental_uris": {"ios": "https://dc.lft.to/lastmile_qr_scan", "android": "https://dc.lft.to/lastmile_qr_scan"}, "lon": -76.9106185, "bike_id": "3a9024a27a684a782b0b905d954c8754", "type": "electric_bike", "name": "3a9024a27a684a782b0b905d954c8754"}, {"is_disabled": 0, "is_reserved": 0, "fusion_lat": 0.0, "lat": 38.88693283333333, "fusion_lon": 0.0, "rental_uris": {"ios": "https://dc.lft.to/lastmile_qr_scan", "android": "https://dc.lft.to/lastmile_qr_scan"}, "lon": -76.97639383333333, "bike_id": "8a0e2655c3b1d59e78e38625d12f03df", "type": "electric_scooter", "name": "8a0e2655c3b1d59e78e38625d12f03df"}, {"is_disabled": 0, "is_reserved": 0, "fusion_lat": 0.0, "lat": 38.918405666666665, "fusion_lon": 0.0, "rental_uris": {"ios": "https://dc.lft.to/lastmile_qr_scan", "android": "https://dc.lft.to/lastmile_qr_scan"}, "lon": -77.03909833333333, "bike_id": "5def60177357c2671ebc595ddfdb48ab", "type": "electric_scooter", "name": "5def60177357c2671ebc595ddfdb48ab"}, {"is_disabled": 0, "is_reserved": 0, "fusion_lat": 0.0, "lat": 38.91817616666667, "fusion_lon": 0.0, "rental_uris": {"ios": "https://dc.lft.to/lastmile_qr_scan", "android": "https://dc.lft.to/lastmile_qr_scan"}, "lon": -77.03792716666666, "bike_id": "5e8b8a37e5fff8e81f88bff1a1b6acb3", "type": "electric_scooter", "name": "5e8b8a37e5fff8e81f88bff1a1b6acb3"}, {"is_disabled": 0, "is_reserved": 0, "fusion_lat": 0.0, "lat": 38.92220566666667, "fusion_lon": 0.0, "rental_uris": {"ios": "https://dc.lft.to/lastmile_qr_scan", "android": "https://dc.lft.to/lastmile_qr_scan"}, "lon": -77.04241916666666, "bike_id": "b9b49f3fe1c0f239589d0a2b53508935", "type": "electric_scooter", "name": "b9b49f3fe1c0f239589d0a2b53508935"}, {"is_disabled": 0, "is_reserved": 0, "fusion_lat": 0.0, "lat": 38.93284583333333, "fusion_lon": 0.0, "rental_uris": {"ios": "https://dc.lft.to/lastmile_qr_scan", "android": "https://dc.lft.to/lastmile_qr_scan"}, "lon": -77.03500033333333, "bike_id": "144ce8f4a6fb9f8c2f27163ef795999a", "type": "electric_scooter", "name": "144ce8f4a6fb9f8c2f27163ef795999a"}, {"is_disabled": 0, "is_reserved": 0, "fusion_lat": 0.0, "lat": 38.918890166666664, "fusion_lon": 0.0, "rental_uris": {"ios": "https://dc.lft.to/lastmile_qr_scan", "android": "https://dc.lft.to/lastmile_qr_scan"}, "lon": -77.046218, "bike_id": "511567eb977e68d8a7fa984de54ceda2", "type": "electric_scooter", "name": "511567eb977e68d8a7fa984de54ceda2"}, {"is_disabled": 0, "is_reserved": 0, "fusion_lat": 0.0, "lat": 38.922604166666666, "fusion_lon": 0.0, "rental_uris": {"ios": "https://dc.lft.to/lastmile_qr_scan", "android": "https://dc.lft.to/lastmile_qr_scan"}, "lon": -77.04304866666666, "bike_id": "891a0ddbc3005c046a6dca3d062dd3f1", "type": "electric_scooter", "name": "891a0ddbc3005c046a6dca3d062dd3f1"}, {"is_disabled": 0, "is_reserved": 0, "fusion_lat": 0.0, "lat": 38.90437883333333, "fusion_lon": 0.0, "rental_uris": {"ios": "https://dc.lft.to/lastmile_qr_scan", "android": "https://dc.lft.to/lastmile_qr_scan"}, "lon": -76.97229716666666, "bike_id": "0c8bcb59014d0ad1b187bbec544043bd", "type": "electric_bike", "name": "0c8bcb59014d0ad1b187bbec544043bd"}, {"is_disabled": 0, "is_reserved": 0, "fusion_lat": 0.0, "lat": 38.89817933333333, "fusion_lon": 0.0, "rental_uris": {"ios": "https://dc.lft.to/lastmile_qr_scan", "android": "https://dc.lft.to/lastmile_qr_scan"}, "lon": -77.04333816666667, "bike_id": "17f79d2b77e88b82948830adfe4bfc6d", "type": "electric_scooter", "name": "17f79d2b77e88b82948830adfe4bfc6d"}, {"is_disabled": 0, "is_reserved": 0, "fusion_lat": 0.0, "lat": 38.9254965, "fusion_lon": 0.0, "rental_uris": {"ios": "https://dc.lft.to/lastmile_qr_scan", "android": "https://dc.lft.to/lastmile_qr_scan"}, "lon": -77.03261266666667, "bike_id": "60cae0bc2f482c200b543d16c7ba14a9", "type": "electric_scooter", "name": "60cae0bc2f482c200b543d16c7ba14a9"}, {"is_disabled": 0, "is_reserved": 0, "fusion_lat": 0.0, "lat": 38.926666166666664, "fusion_lon": 0.0, "rental_uris": {"ios": "https://dc.lft.to/lastmile_qr_scan", "android": "https://dc.lft.to/lastmile_qr_scan"}, "lon": -77.0371385, "bike_id": "fe7df99a2f8b4d6786b7714b60bc4f95", "type": "electric_scooter", "name": "fe7df99a2f8b4d6786b7714b60bc4f95"}, {"is_disabled": 0, "is_reserved": 0, "fusion_lat": 0.0, "lat": 38.92290533333333, "fusion_lon": 0.0, "rental_uris": {"ios": "https://dc.lft.to/lastmile_qr_scan", "android": "https://dc.lft.to/lastmile_qr_scan"}, "lon": -77.03665966666667, "bike_id": "5b871fba00e5a0df85ec1ac69b94801c", "type": "electric_scooter", "name": "5b871fba00e5a0df85ec1ac69b94801c"}, {"is_disabled": 0, "is_reserved": 0, "fusion_lat": 0.0, "lat": 38.912539, "fusion_lon": 0.0, "rental_uris": {"ios": "https://dc.lft.to/lastmile_qr_scan", "android": "https://dc.lft.to/lastmile_qr_scan"}, "lon": -77.019476, "bike_id": "09a09e34cd5b8dbe159c468acb2fed01", "type": "electric_scooter", "name": "09a09e34cd5b8dbe159c468acb2fed01"}, {"is_disabled": 0, "is_reserved": 0, "fusion_lat": 0.0, "lat": 38.90842833333333, "fusion_lon": 0.0, "rental_uris": {"ios": "https://dc.lft.to/lastmile_qr_scan", "android": "https://dc.lft.to/lastmile_qr_scan"}, "lon": -76.93447666666667, "bike_id": "70446de84c5eacae94aeb237603a54da", "type": "electric_scooter", "name": "70446de84c5eacae94aeb237603a54da"}, {"is_disabled": 0, "is_reserved": 0, "fusion_lat": 0.0, "lat": 38.92259833333333, "fusion_lon": 0.0, "rental_uris": {"ios": "https://dc.lft.to/lastmile_qr_scan", "android": "https://dc.lft.to/lastmile_qr_scan"}, "lon": -77.02964633333333, "bike_id": "b502799f5b152c648dad58902a971807", "type": "electric_scooter", "name": "b502799f5b152c648dad58902a971807"}, {"is_disabled": 0, "is_reserved": 0, "fusion_lat": 0.0, "lat": 38.886254666666666, "fusion_lon": 0.0, "rental_uris": {"ios": "https://dc.lft.to/lastmile_qr_scan", "android": "https://dc.lft.to/lastmile_qr_scan"}, "lon": -77.02821066666667, "bike_id": "9743a9052b672e4928e0e9e274050b0e", "type": "electric_scooter", "name": "9743a9052b672e4928e0e9e274050b0e"}, {"is_disabled": 0, "is_reserved": 0, "fusion_lat": 0.0, "lat": 38.92515016666667, "fusion_lon": 0.0, "rental_uris": {"ios": "https://dc.lft.to/lastmile_qr_scan", "android": "https://dc.lft.to/lastmile_qr_scan"}, "lon": -77.02358566666666, "bike_id": "eccfdfacec9db6d77636ef4499e1c6e4", "type": "electric_scooter", "name": "eccfdfacec9db6d77636ef4499e1c6e4"}, {"is_disabled": 0, "is_reserved": 0, "fusion_lat": 0.0, "lat": 38.942668166666664, "fusion_lon": 0.0, "rental_uris": {"ios": "https://dc.lft.to/lastmile_qr_scan", "android": "https://dc.lft.to/lastmile_qr_scan"}, "lon": -77.02844666666667, "bike_id": "3507f0941c2f38288a812fd500e6dfc2", "type": "electric_bike", "name": "3507f0941c2f38288a812fd500e6dfc2"}, {"is_disabled": 0, "is_reserved": 0, "fusion_lat": 0.0, "lat": 38.925456833333335, "fusion_lon": 0.0, "rental_uris": {"ios": "https://dc.lft.to/lastmile_qr_scan", "android": "https://dc.lft.to/lastmile_qr_scan"}, "lon": -77.0226415, "bike_id": "abf98719456339a5164f3ae829967588", "type": "electric_scooter", "name": "abf98719456339a5164f3ae829967588"}, {"is_disabled": 0, "is_reserved": 0, "fusion_lat": 0.0, "lat": 38.91424466666667, "fusion_lon": 0.0, "rental_uris": {"ios": "https://dc.lft.to/lastmile_qr_scan", "android": "https://dc.lft.to/lastmile_qr_scan"}, "lon": -77.0317535, "bike_id": "b696a4ef3752d7747a91b377ad18e9b3", "type": "electric_scooter", "name": "b696a4ef3752d7747a91b377ad18e9b3"}, {"is_disabled": 0, "is_reserved": 0, "fusion_lat": 0.0, "lat": 38.96799933333333, "fusion_lon": 0.0, "rental_uris": {"ios": "https://dc.lft.to/lastmile_qr_scan", "android": "https://dc.lft.to/lastmile_qr_scan"}, "lon": -77.02434383333333, "bike_id": "e0d4de14589defab4f4eaadbde257af9", "type": "electric_scooter", "name": "e0d4de14589defab4f4eaadbde257af9"}, {"is_disabled": 0, "is_reserved": 0, "fusion_lat": 0.0, "lat": 38.92390966666667, "fusion_lon": 0.0, "rental_uris": {"ios": "https://dc.lft.to/lastmile_qr_scan", "android": "https://dc.lft.to/lastmile_qr_scan"}, "lon": -77.03100316666666, "bike_id": "142f429b598b83e3d087d1aacb31d116", "type": "electric_scooter", "name": "142f429b598b83e3d087d1aacb31d116"}, {"is_disabled": 0, "is_reserved": 0, "fusion_lat": 0.0, "lat": 38.94795583333333, "fusion_lon": 0.0, "rental_uris": {"ios": "https://dc.lft.to/lastmile_qr_scan", "android": "https://dc.lft.to/lastmile_qr_scan"}, "lon": -77.07897533333333, "bike_id": "cfbfebb00f9d283290f0985478b869c7", "type": "electric_scooter", "name": "cfbfebb00f9d283290f0985478b869c7"}, {"is_disabled": 0, "is_reserved": 0, "fusion_lat": 0.0, "lat": 38.880945833333335, "fusion_lon": 0.0, "rental_uris": {"ios": "https://dc.lft.to/lastmile_qr_scan", "android": "https://dc.lft.to/lastmile_qr_scan"}, "lon": -76.99268433333333, "bike_id": "39a7cf4f70dd6ab45d4cef5acaf4f988", "type": "electric_bike", "name": "39a7cf4f70dd6ab45d4cef5acaf4f988"}, {"is_disabled": 0, "is_reserved": 0, "fusion_lat": 0.0, "lat": 38.95279683333333, "fusion_lon": 0.0, "rental_uris": {"ios": "https://dc.lft.to/lastmile_qr_scan", "android": "https://dc.lft.to/lastmile_qr_scan"}, "lon": -77.06884383333333, "bike_id": "acde22ded61d4ce0a3a023f6410390d8", "type": "electric_scooter", "name": "acde22ded61d4ce0a3a023f6410390d8"}, {"is_disabled": 0, "is_reserved": 0, "fusion_lat": 0.0, "lat": 38.92683866666667, "fusion_lon": 0.0, "rental_uris": {"ios": "https://dc.lft.to/lastmile_qr_scan", "android": "https://dc.lft.to/lastmile_qr_scan"}, "lon": -77.01466166666667, "bike_id": "8f8e2f5997e339080a9c97d5ef576749", "type": "electric_scooter", "name": "8f8e2f5997e339080a9c97d5ef576749"}, {"is_disabled": 0, "is_reserved": 0, "fusion_lat": 0.0, "lat": 38.8717395, "fusion_lon": 0.0, "rental_uris": {"ios": "https://dc.lft.to/lastmile_qr_scan", "android": "https://dc.lft.to/lastmile_qr_scan"}, "lon": -77.00628666666667, "bike_id": "0a0173dad13102ecba03154b2ed59ff0", "type": "electric_scooter", "name": "0a0173dad13102ecba03154b2ed59ff0"}, {"is_disabled": 0, "is_reserved": 0, "fusion_lat": 0.0, "lat": 38.926585, "fusion_lon": 0.0, "rental_uris": {"ios": "https://dc.lft.to/lastmile_qr_scan", "android": "https://dc.lft.to/lastmile_qr_scan"}, "lon": -77.027153, "bike_id": "129019bed4b46032bf2c64806df52184", "type": "electric_scooter", "name": "129019bed4b46032bf2c64806df52184"}, {"is_disabled": 0, "is_reserved": 0, "fusion_lat": 0.0, "lat": 38.90955133333333, "fusion_lon": 0.0, "rental_uris": {"ios": "https://dc.lft.to/lastmile_qr_scan", "android": "https://dc.lft.to/lastmile_qr_scan"}, "lon": -77.0237415, "bike_id": "475688f03046e63e339d4143a70ac450", "type": "electric_scooter", "name": "475688f03046e63e339d4143a70ac450"}, {"is_disabled": 0, "is_reserved": 0, "fusion_lat": 0.0, "lat": 38.936894, "fusion_lon": 0.0, "rental_uris": {"ios": "https://dc.lft.to/lastmile_qr_scan", "android": "https://dc.lft.to/lastmile_qr_scan"}, "lon": -77.032842, "bike_id": "8a09edb4fc892d3d1a6d97a232b63eb8", "type": "electric_scooter", "name": "8a09edb4fc892d3d1a6d97a232b63eb8"}, {"is_disabled": 0, "is_reserved": 0, "fusion_lat": 0.0, "lat": 38.92615766666667, "fusion_lon": 0.0, "rental_uris": {"ios": "https://dc.lft.to/lastmile_qr_scan", "android": "https://dc.lft.to/lastmile_qr_scan"}, "lon": -77.02270516666667, "bike_id": "dea6131d4922c111f7db47e37a021dd5", "type": "electric_scooter", "name": "dea6131d4922c111f7db47e37a021dd5"}, {"is_disabled": 0, "is_reserved": 0, "fusion_lat": 0.0, "lat": 38.94296633333333, "fusion_lon": 0.0, "rental_uris": {"ios": "https://dc.lft.to/lastmile_qr_scan", "android": "https://dc.lft.to/lastmile_qr_scan"}, "lon": -77.07705916666667, "bike_id": "377096620d102d28925f87419e16a833", "type": "electric_scooter", "name": "377096620d102d28925f87419e16a833"}, {"is_disabled": 0, "is_reserved": 0, "fusion_lat": 0.0, "lat": 38.916239, "fusion_lon": 0.0, "rental_uris": {"ios": "https://dc.lft.to/lastmile_qr_scan", "android": "https://dc.lft.to/lastmile_qr_scan"}, "lon": -77.050681, "bike_id": "55889140366a46f6bb7e3ccbb36b1639", "type": "electric_scooter", "name": "55889140366a46f6bb7e3ccbb36b1639"}, {"is_disabled": 0, "is_reserved": 0, "fusion_lat": 0.0, "lat": 38.90681216666667, "fusion_lon": 0.0, "rental_uris": {"ios": "https://dc.lft.to/lastmile_qr_scan", "android": "https://dc.lft.to/lastmile_qr_scan"}, "lon": -77.02712983333333, "bike_id": "c114c38abb6b586cfd9ae7281220a192", "type": "electric_scooter", "name": "c114c38abb6b586cfd9ae7281220a192"}, {"is_disabled": 0, "is_reserved": 0, "fusion_lat": 0.0, "lat": 38.967737666666665, "fusion_lon": 0.0, "rental_uris": {"ios": "https://dc.lft.to/lastmile_qr_scan", "android": "https://dc.lft.to/lastmile_qr_scan"}, "lon": -77.03333416666666, "bike_id": "ff006783dfda60569a2d831807e3b5db", "type": "electric_scooter", "name": "ff006783dfda60569a2d831807e3b5db"}, {"is_disabled": 0, "is_reserved": 0, "fusion_lat": 0.0, "lat": 38.89204733333333, "fusion_lon": 0.0, "rental_uris": {"ios": "https://dc.lft.to/lastmile_qr_scan", "android": "https://dc.lft.to/lastmile_qr_scan"}, "lon": -77.043904, "bike_id": "61434d9fea18e8d43e8364e32cbea778", "type": "electric_scooter", "name": "61434d9fea18e8d43e8364e32cbea778"}, {"is_disabled": 0, "is_reserved": 0, "fusion_lat": 0.0, "lat": 38.92516716666667, "fusion_lon": 0.0, "rental_uris": {"ios": "https://dc.lft.to/lastmile_qr_scan", "android": "https://dc.lft.to/lastmile_qr_scan"}, "lon": -77.021281, "bike_id": "247a8533b4a7c05d0676b3bcc0141402", "type": "electric_scooter", "name": "247a8533b4a7c05d0676b3bcc0141402"}, {"is_disabled": 0, "is_reserved": 0, "fusion_lat": 0.0, "lat": 38.92163733333334, "fusion_lon": 0.0, "rental_uris": {"ios": "https://dc.lft.to/lastmile_qr_scan", "android": "https://dc.lft.to/lastmile_qr_scan"}, "lon": -77.03383583333333, "bike_id": "9a7961bf46d2124a127ce25ae8149c71", "type": "electric_scooter", "name": "9a7961bf46d2124a127ce25ae8149c71"}, {"is_disabled": 0, "is_reserved": 0, "fusion_lat": 0.0, "lat": 38.900889, "fusion_lon": 0.0, "rental_uris": {"ios": "https://dc.lft.to/lastmile_qr_scan", "android": "https://dc.lft.to/lastmile_qr_scan"}, "lon": -77.04763383333334, "bike_id": "aaeb480489640b46f2f0b414e621ba82", "type": "electric_scooter", "name": "aaeb480489640b46f2f0b414e621ba82"}, {"is_disabled": 0, "is_reserved": 0, "fusion_lat": 0.0, "lat": 38.92784233333333, "fusion_lon": 0.0, "rental_uris": {"ios": "https://dc.lft.to/lastmile_qr_scan", "android": "https://dc.lft.to/lastmile_qr_scan"}, "lon": -77.05256116666666, "bike_id": "2bb3af101b714722fb67b729a42a5540", "type": "electric_scooter", "name": "2bb3af101b714722fb67b729a42a5540"}, {"is_disabled": 0, "is_reserved": 0, "fusion_lat": 0.0, "lat": 38.865171333333336, "fusion_lon": 0.0, "rental_uris": {"ios": "https://dc.lft.to/lastmile_qr_scan", "android": "https://dc.lft.to/lastmile_qr_scan"}, "lon": -76.97338333333333, "bike_id": "2ecec31eba5ec8481961bd732548a0ce", "type": "electric_scooter", "name": "2ecec31eba5ec8481961bd732548a0ce"}, {"is_disabled": 0, "is_reserved": 0, "fusion_lat": 0.0, "lat": 38.887488166666664, "fusion_lon": 0.0, "rental_uris": {"ios": "https://dc.lft.to/lastmile_qr_scan", "android": "https://dc.lft.to/lastmile_qr_scan"}, "lon": -77.028441, "bike_id": "fb5f1c9c062038414d77644324e5583a", "type": "electric_scooter", "name": "fb5f1c9c062038414d77644324e5583a"}, {"is_disabled": 0, "is_reserved": 0, "fusion_lat": 0.0, "lat": 38.929687666666666, "fusion_lon": 0.0, "rental_uris": {"ios": "https://dc.lft.to/lastmile_qr_scan", "android": "https://dc.lft.to/lastmile_qr_scan"}, "lon": -77.02824316666667, "bike_id": "6baad31e3214c7506a381eee3163823b", "type": "electric_scooter", "name": "6baad31e3214c7506a381eee3163823b"}, {"is_disabled": 0, "is_reserved": 0, "fusion_lat": 0.0, "lat": 38.915169, "fusion_lon": 0.0, "rental_uris": {"ios": "https://dc.lft.to/lastmile_qr_scan", "android": "https://dc.lft.to/lastmile_qr_scan"}, "lon": -77.01847433333333, "bike_id": "fc9f5594955844fdc4a7d73e89dae4cb", "type": "electric_scooter", "name": "fc9f5594955844fdc4a7d73e89dae4cb"}, {"is_disabled": 0, "is_reserved": 0, "fusion_lat": 0.0, "lat": 38.9159735, "fusion_lon": 0.0, "rental_uris": {"ios": "https://dc.lft.to/lastmile_qr_scan", "android": "https://dc.lft.to/lastmile_qr_scan"}, "lon": -77.0454135, "bike_id": "205a7548df915549d0471ff9e469a949", "type": "electric_scooter", "name": "205a7548df915549d0471ff9e469a949"}, {"is_disabled": 0, "is_reserved": 0, "fusion_lat": 0.0, "lat": 38.87657033333333, "fusion_lon": 0.0, "rental_uris": {"ios": "https://dc.lft.to/lastmile_qr_scan", "android": "https://dc.lft.to/lastmile_qr_scan"}, "lon": -77.008208, "bike_id": "85c1282df198fc21cb91953570e249e8", "type": "electric_scooter", "name": "85c1282df198fc21cb91953570e249e8"}, {"is_disabled": 0, "is_reserved": 0, "fusion_lat": 0.0, "lat": 38.89466, "fusion_lon": 0.0, "rental_uris": {"ios": "https://dc.lft.to/lastmile_qr_scan", "android": "https://dc.lft.to/lastmile_qr_scan"}, "lon": -77.02195316666666, "bike_id": "6c306d615339447a32698e0b54f00454", "type": "electric_bike", "name": "6c306d615339447a32698e0b54f00454"}, {"is_disabled": 0, "is_reserved": 0, "fusion_lat": 0.0, "lat": 38.93226683333334, "fusion_lon": 0.0, "rental_uris": {"ios": "https://dc.lft.to/lastmile_qr_scan", "android": "https://dc.lft.to/lastmile_qr_scan"}, "lon": -76.9826175, "bike_id": "a664d5b8fb0eea319bc384aae0f4685a", "type": "electric_scooter", "name": "a664d5b8fb0eea319bc384aae0f4685a"}, {"is_disabled": 0, "is_reserved": 0, "fusion_lat": 0.0, "lat": 38.902657, "fusion_lon": 0.0, "rental_uris": {"ios": "https://dc.lft.to/lastmile_qr_scan", "android": "https://dc.lft.to/lastmile_qr_scan"}, "lon": -77.0398315, "bike_id": "d94ce89cfec8099decfdd725e5d39b59", "type": "electric_scooter", "name": "d94ce89cfec8099decfdd725e5d39b59"}, {"is_disabled": 0, "is_reserved": 0, "fusion_lat": 0.0, "lat": 38.90511333333333, "fusion_lon": 0.0, "rental_uris": {"ios": "https://dc.lft.to/lastmile_qr_scan", "android": "https://dc.lft.to/lastmile_qr_scan"}, "lon": -77.06572766666666, "bike_id": "67fd36f09985d00ab3d5954d2ef514cc", "type": "electric_scooter", "name": "67fd36f09985d00ab3d5954d2ef514cc"}, {"is_disabled": 0, "is_reserved": 0, "fusion_lat": 0.0, "lat": 38.921543166666666, "fusion_lon": 0.0, "rental_uris": {"ios": "https://dc.lft.to/lastmile_qr_scan", "android": "https://dc.lft.to/lastmile_qr_scan"}, "lon": -77.03507, "bike_id": "fc0f5bbc815835d1101a111739744111", "type": "electric_scooter", "name": "fc0f5bbc815835d1101a111739744111"}, {"is_disabled": 0, "is_reserved": 0, "fusion_lat": 0.0, "lat": 38.936635333333335, "fusion_lon": 0.0, "rental_uris": {"ios": "https://dc.lft.to/lastmile_qr_scan", "android": "https://dc.lft.to/lastmile_qr_scan"}, "lon": -77.06607266666667, "bike_id": "b311a2437a5165085edae6f15ba97b44", "type": "electric_scooter", "name": "b311a2437a5165085edae6f15ba97b44"}, {"is_disabled": 0, "is_reserved": 0, "fusion_lat": 0.0, "lat": 38.916957333333336, "fusion_lon": 0.0, "rental_uris": {"ios": "https://dc.lft.to/lastmile_qr_scan", "android": "https://dc.lft.to/lastmile_qr_scan"}, "lon": -77.037809, "bike_id": "c2c2f348d986a62bfdd5dd3a3ff334b7", "type": "electric_scooter", "name": "c2c2f348d986a62bfdd5dd3a3ff334b7"}, {"is_disabled": 0, "is_reserved": 0, "fusion_lat": 0.0, "lat": 38.92967866666667, "fusion_lon": 0.0, "rental_uris": {"ios": "https://dc.lft.to/lastmile_qr_scan", "android": "https://dc.lft.to/lastmile_qr_scan"}, "lon": -77.02341783333334, "bike_id": "c4139d96529765489d5db70051b606ea", "type": "electric_scooter", "name": "c4139d96529765489d5db70051b606ea"}, {"is_disabled": 0, "is_reserved": 0, "fusion_lat": 0.0, "lat": 38.89847866666667, "fusion_lon": 0.0, "rental_uris": {"ios": "https://dc.lft.to/lastmile_qr_scan", "android": "https://dc.lft.to/lastmile_qr_scan"}, "lon": -77.02936733333334, "bike_id": "44d5d6b7c568a2ae0332d8f0d5c77e27", "type": "electric_scooter", "name": "44d5d6b7c568a2ae0332d8f0d5c77e27"}, {"is_disabled": 0, "is_reserved": 0, "fusion_lat": 0.0, "lat": 38.9368855, "fusion_lon": 0.0, "rental_uris": {"ios": "https://dc.lft.to/lastmile_qr_scan", "android": "https://dc.lft.to/lastmile_qr_scan"}, "lon": -77.03626016666666, "bike_id": "548dff4e5f24493099c4b1d4e567771e", "type": "electric_scooter", "name": "548dff4e5f24493099c4b1d4e567771e"}, {"is_disabled": 0, "is_reserved": 0, "fusion_lat": 0.0, "lat": 38.907821166666665, "fusion_lon": 0.0, "rental_uris": {"ios": "https://dc.lft.to/lastmile_qr_scan", "android": "https://dc.lft.to/lastmile_qr_scan"}, "lon": -76.9971085, "bike_id": "8f5a0c4ad358b8db9f2decf93040fe38", "type": "electric_scooter", "name": "8f5a0c4ad358b8db9f2decf93040fe38"}, {"is_disabled": 0, "is_reserved": 0, "fusion_lat": 0.0, "lat": 38.8952775, "fusion_lon": 0.0, "rental_uris": {"ios": "https://dc.lft.to/lastmile_qr_scan", "android": "https://dc.lft.to/lastmile_qr_scan"}, "lon": -77.02952, "bike_id": "189f74091741371ad2c6df6da43f1687", "type": "electric_scooter", "name": "189f74091741371ad2c6df6da43f1687"}, {"is_disabled": 0, "is_reserved": 0, "fusion_lat": 0.0, "lat": 38.898561, "fusion_lon": 0.0, "rental_uris": {"ios": "https://dc.lft.to/lastmile_qr_scan", "android": "https://dc.lft.to/lastmile_qr_scan"}, "lon": -77.02736766666666, "bike_id": "e11feed434d98985ca1f75c35a69b278", "type": "electric_scooter", "name": "e11feed434d98985ca1f75c35a69b278"}, {"is_disabled": 0, "is_reserved": 0, "fusion_lat": 0.0, "lat": 38.923617166666666, "fusion_lon": 0.0, "rental_uris": {"ios": "https://dc.lft.to/lastmile_qr_scan", "android": "https://dc.lft.to/lastmile_qr_scan"}, "lon": -77.07308016666667, "bike_id": "f1a25a200225ffe2d46a56f82401909e", "type": "electric_scooter", "name": "f1a25a200225ffe2d46a56f82401909e"}, {"is_disabled": 0, "is_reserved": 0, "fusion_lat": 0.0, "lat": 38.923970833333335, "fusion_lon": 0.0, "rental_uris": {"ios": "https://dc.lft.to/lastmile_qr_scan", "android": "https://dc.lft.to/lastmile_qr_scan"}, "lon": -76.99368966666667, "bike_id": "ab3a8116caafac316a599afc0deff6a1", "type": "electric_scooter", "name": "ab3a8116caafac316a599afc0deff6a1"}, {"is_disabled": 0, "is_reserved": 0, "fusion_lat": 0.0, "lat": 38.89293266666667, "fusion_lon": 0.0, "rental_uris": {"ios": "https://dc.lft.to/lastmile_qr_scan", "android": "https://dc.lft.to/lastmile_qr_scan"}, "lon": -76.9761615, "bike_id": "4e672f3e3ec545883a86dabd66ebf2e8", "type": "electric_bike", "name": "4e672f3e3ec545883a86dabd66ebf2e8"}, {"is_disabled": 0, "is_reserved": 0, "fusion_lat": 0.0, "lat": 38.8921075, "fusion_lon": 0.0, "rental_uris": {"ios": "https://dc.lft.to/lastmile_qr_scan", "android": "https://dc.lft.to/lastmile_qr_scan"}, "lon": -76.99838133333333, "bike_id": "9bfb61233d2d92656257a0117f5507e0", "type": "electric_scooter", "name": "9bfb61233d2d92656257a0117f5507e0"}, {"is_disabled": 0, "is_reserved": 0, "fusion_lat": 0.0, "lat": 38.908033, "fusion_lon": 0.0, "rental_uris": {"ios": "https://dc.lft.to/lastmile_qr_scan", "android": "https://dc.lft.to/lastmile_qr_scan"}, "lon": -77.049859, "bike_id": "868086399cd9d5eed704b5de293d7b63", "type": "electric_scooter", "name": "868086399cd9d5eed704b5de293d7b63"}, {"is_disabled": 0, "is_reserved": 0, "fusion_lat": 0.0, "lat": 38.911084833333334, "fusion_lon": 0.0, "rental_uris": {"ios": "https://dc.lft.to/lastmile_qr_scan", "android": "https://dc.lft.to/lastmile_qr_scan"}, "lon": -77.02233216666667, "bike_id": "cc2cfdb279e8f7121b599993fdeb19ab", "type": "electric_scooter", "name": "cc2cfdb279e8f7121b599993fdeb19ab"}, {"is_disabled": 0, "is_reserved": 0, "fusion_lat": 0.0, "lat": 38.90522883333333, "fusion_lon": 0.0, "rental_uris": {"ios": "https://dc.lft.to/lastmile_qr_scan", "android": "https://dc.lft.to/lastmile_qr_scan"}, "lon": -77.04149966666667, "bike_id": "df2dc429dcb859c6ff83862de55fe462", "type": "electric_scooter", "name": "df2dc429dcb859c6ff83862de55fe462"}, {"is_disabled": 0, "is_reserved": 0, "fusion_lat": 0.0, "lat": 38.91996483333333, "fusion_lon": 0.0, "rental_uris": {"ios": "https://dc.lft.to/lastmile_qr_scan", "android": "https://dc.lft.to/lastmile_qr_scan"}, "lon": -77.0417985, "bike_id": "4d9f04c582acd95cb79ea7e3fb4b2b42", "type": "electric_scooter", "name": "4d9f04c582acd95cb79ea7e3fb4b2b42"}, {"is_disabled": 0, "is_reserved": 0, "fusion_lat": 0.0, "lat": 38.93704283333334, "fusion_lon": 0.0, "rental_uris": {"ios": "https://dc.lft.to/lastmile_qr_scan", "android": "https://dc.lft.to/lastmile_qr_scan"}, "lon": -77.05597566666667, "bike_id": "948f1724138b1489425b868af1c537b5", "type": "electric_scooter", "name": "948f1724138b1489425b868af1c537b5"}, {"is_disabled": 0, "is_reserved": 0, "fusion_lat": 0.0, "lat": 38.932618, "fusion_lon": 0.0, "rental_uris": {"ios": "https://dc.lft.to/lastmile_qr_scan", "android": "https://dc.lft.to/lastmile_qr_scan"}, "lon": -77.03282566666667, "bike_id": "0440d055560d89d1d50c93de9162f02c", "type": "electric_scooter", "name": "0440d055560d89d1d50c93de9162f02c"}, {"is_disabled": 0, "is_reserved": 0, "fusion_lat": 0.0, "lat": 38.90856983333333, "fusion_lon": 0.0, "rental_uris": {"ios": "https://dc.lft.to/lastmile_qr_scan", "android": "https://dc.lft.to/lastmile_qr_scan"}, "lon": -77.0482845, "bike_id": "92ede906c7f9785571e74bd83c43f25b", "type": "electric_scooter", "name": "92ede906c7f9785571e74bd83c43f25b"}, {"is_disabled": 0, "is_reserved": 0, "fusion_lat": 0.0, "lat": 38.902, "fusion_lon": 0.0, "rental_uris": {"ios": "https://dc.lft.to/lastmile_qr_scan", "android": "https://dc.lft.to/lastmile_qr_scan"}, "lon": -77.05102233333334, "bike_id": "a289a1ea9d65a11e16f7ec2375ebb753", "type": "electric_scooter", "name": "a289a1ea9d65a11e16f7ec2375ebb753"}, {"is_disabled": 0, "is_reserved": 0, "fusion_lat": 0.0, "lat": 38.913498833333335, "fusion_lon": 0.0, "rental_uris": {"ios": "https://dc.lft.to/lastmile_qr_scan", "android": "https://dc.lft.to/lastmile_qr_scan"}, "lon": -77.0321055, "bike_id": "0a8557054496198ad3d246c861584325", "type": "electric_scooter", "name": "0a8557054496198ad3d246c861584325"}, {"is_disabled": 0, "is_reserved": 0, "fusion_lat": 0.0, "lat": 38.93079383333333, "fusion_lon": 0.0, "rental_uris": {"ios": "https://dc.lft.to/lastmile_qr_scan", "android": "https://dc.lft.to/lastmile_qr_scan"}, "lon": -77.02759866666666, "bike_id": "5f9df5b8edf1d7154e326197fc0eb0c2", "type": "electric_scooter", "name": "5f9df5b8edf1d7154e326197fc0eb0c2"}, {"is_disabled": 0, "is_reserved": 0, "fusion_lat": 0.0, "lat": 38.908725, "fusion_lon": 0.0, "rental_uris": {"ios": "https://dc.lft.to/lastmile_qr_scan", "android": "https://dc.lft.to/lastmile_qr_scan"}, "lon": -77.08591866666667, "bike_id": "8bba20165595e9cc29b5c13489c1ebaa", "type": "electric_scooter", "name": "8bba20165595e9cc29b5c13489c1ebaa"}, {"is_disabled": 0, "is_reserved": 0, "fusion_lat": 0.0, "lat": 38.917158, "fusion_lon": 0.0, "rental_uris": {"ios": "https://dc.lft.to/lastmile_qr_scan", "android": "https://dc.lft.to/lastmile_qr_scan"}, "lon": -77.0238505, "bike_id": "cf81706ea0228cf5ed16705b4d3fe069", "type": "electric_scooter", "name": "cf81706ea0228cf5ed16705b4d3fe069"}, {"is_disabled": 0, "is_reserved": 0, "fusion_lat": 0.0, "lat": 38.9472135, "fusion_lon": 0.0, "rental_uris": {"ios": "https://dc.lft.to/lastmile_qr_scan", "android": "https://dc.lft.to/lastmile_qr_scan"}, "lon": -77.02351483333334, "bike_id": "2670948cd46382426432d01cbec572c4", "type": "electric_scooter", "name": "2670948cd46382426432d01cbec572c4"}, {"is_disabled": 0, "is_reserved": 0, "fusion_lat": 0.0, "lat": 38.91792316666667, "fusion_lon": 0.0, "rental_uris": {"ios": "https://dc.lft.to/lastmile_qr_scan", "android": "https://dc.lft.to/lastmile_qr_scan"}, "lon": -77.02479566666666, "bike_id": "8a72e1f872688648ae4e01830b02621f", "type": "electric_scooter", "name": "8a72e1f872688648ae4e01830b02621f"}, {"is_disabled": 0, "is_reserved": 0, "fusion_lat": 0.0, "lat": 38.929724666666665, "fusion_lon": 0.0, "rental_uris": {"ios": "https://dc.lft.to/lastmile_qr_scan", "android": "https://dc.lft.to/lastmile_qr_scan"}, "lon": -77.0420155, "bike_id": "cee01e758a6aebea0070bf412454edee", "type": "electric_scooter", "name": "cee01e758a6aebea0070bf412454edee"}, {"is_disabled": 0, "is_reserved": 0, "fusion_lat": 0.0, "lat": 38.895884, "fusion_lon": 0.0, "rental_uris": {"ios": "https://dc.lft.to/lastmile_qr_scan", "android": "https://dc.lft.to/lastmile_qr_scan"}, "lon": -77.02499016666667, "bike_id": "845875e7e488e6f6541188ee89ab7676", "type": "electric_scooter", "name": "845875e7e488e6f6541188ee89ab7676"}, {"is_disabled": 0, "is_reserved": 0, "fusion_lat": 0.0, "lat": 38.9044575, "fusion_lon": 0.0, "rental_uris": {"ios": "https://dc.lft.to/lastmile_qr_scan", "android": "https://dc.lft.to/lastmile_qr_scan"}, "lon": -77.025996, "bike_id": "387732b561a2108bc4482fcba95929b2", "type": "electric_scooter", "name": "387732b561a2108bc4482fcba95929b2"}, {"is_disabled": 0, "is_reserved": 0, "fusion_lat": 0.0, "lat": 38.90405416666667, "fusion_lon": 0.0, "rental_uris": {"ios": "https://dc.lft.to/lastmile_qr_scan", "android": "https://dc.lft.to/lastmile_qr_scan"}, "lon": -77.04839933333334, "bike_id": "0d670b833ee68a72d03122622829b942", "type": "electric_scooter", "name": "0d670b833ee68a72d03122622829b942"}, {"is_disabled": 0, "is_reserved": 0, "fusion_lat": 0.0, "lat": 38.94182816666667, "fusion_lon": 0.0, "rental_uris": {"ios": "https://dc.lft.to/lastmile_qr_scan", "android": "https://dc.lft.to/lastmile_qr_scan"}, "lon": -77.03392616666666, "bike_id": "b63a99237f0041d42d792a7e4e83289d", "type": "electric_scooter", "name": "b63a99237f0041d42d792a7e4e83289d"}, {"is_disabled": 0, "is_reserved": 0, "fusion_lat": 0.0, "lat": 38.93255816666667, "fusion_lon": 0.0, "rental_uris": {"ios": "https://dc.lft.to/lastmile_qr_scan", "android": "https://dc.lft.to/lastmile_qr_scan"}, "lon": -77.02979966666666, "bike_id": "f6a70718a0958bc20a092baac2bf68c7", "type": "electric_scooter", "name": "f6a70718a0958bc20a092baac2bf68c7"}, {"is_disabled": 0, "is_reserved": 0, "fusion_lat": 0.0, "lat": 38.922580333333336, "fusion_lon": 0.0, "rental_uris": {"ios": "https://dc.lft.to/lastmile_qr_scan", "android": "https://dc.lft.to/lastmile_qr_scan"}, "lon": -77.02961733333333, "bike_id": "4e14d2c627305a55fcfa151a5afc0e81", "type": "electric_scooter", "name": "4e14d2c627305a55fcfa151a5afc0e81"}, {"is_disabled": 0, "is_reserved": 0, "fusion_lat": 0.0, "lat": 38.953194333333336, "fusion_lon": 0.0, "rental_uris": {"ios": "https://dc.lft.to/lastmile_qr_scan", "android": "https://dc.lft.to/lastmile_qr_scan"}, "lon": -76.99460583333334, "bike_id": "e8c0c95b940da2df6290373b06f1ebec", "type": "electric_scooter", "name": "e8c0c95b940da2df6290373b06f1ebec"}, {"is_disabled": 0, "is_reserved": 0, "fusion_lat": 0.0, "lat": 38.871750166666665, "fusion_lon": 0.0, "rental_uris": {"ios": "https://dc.lft.to/lastmile_qr_scan", "android": "https://dc.lft.to/lastmile_qr_scan"}, "lon": -77.23393766666666, "bike_id": "b41156ac42a9c540ace8364c60c92fb9", "type": "electric_bike", "name": "b41156ac42a9c540ace8364c60c92fb9"}, {"is_disabled": 0, "is_reserved": 0, "fusion_lat": 0.0, "lat": 38.92652833333333, "fusion_lon": 0.0, "rental_uris": {"ios": "https://dc.lft.to/lastmile_qr_scan", "android": "https://dc.lft.to/lastmile_qr_scan"}, "lon": -77.03853716666667, "bike_id": "b0874a6147c4612dba6c461534a32bf4", "type": "electric_scooter", "name": "b0874a6147c4612dba6c461534a32bf4"}, {"is_disabled": 0, "is_reserved": 0, "fusion_lat": 0.0, "lat": 38.9086295, "fusion_lon": 0.0, "rental_uris": {"ios": "https://dc.lft.to/lastmile_qr_scan", "android": "https://dc.lft.to/lastmile_qr_scan"}, "lon": -76.99953, "bike_id": "37a5660d18bf7899da563780ad19e130", "type": "electric_scooter", "name": "37a5660d18bf7899da563780ad19e130"}, {"is_disabled": 0, "is_reserved": 0, "fusion_lat": 0.0, "lat": 38.885231833333336, "fusion_lon": 0.0, "rental_uris": {"ios": "https://dc.lft.to/lastmile_qr_scan", "android": "https://dc.lft.to/lastmile_qr_scan"}, "lon": -76.977118, "bike_id": "706a4ef7023f560063e23219e2fb00f1", "type": "electric_scooter", "name": "706a4ef7023f560063e23219e2fb00f1"}, {"is_disabled": 0, "is_reserved": 0, "fusion_lat": 0.0, "lat": 38.8988075, "fusion_lon": 0.0, "rental_uris": {"ios": "https://dc.lft.to/lastmile_qr_scan", "android": "https://dc.lft.to/lastmile_qr_scan"}, "lon": -77.0327375, "bike_id": "ee257b04c13d714931ab8e52f8c008c9", "type": "electric_scooter", "name": "ee257b04c13d714931ab8e52f8c008c9"}, {"is_disabled": 0, "is_reserved": 0, "fusion_lat": 0.0, "lat": 38.924288833333335, "fusion_lon": 0.0, "rental_uris": {"ios": "https://dc.lft.to/lastmile_qr_scan", "android": "https://dc.lft.to/lastmile_qr_scan"}, "lon": -77.0271555, "bike_id": "908786a6a0d06a693c85320ebb013fd2", "type": "electric_scooter", "name": "908786a6a0d06a693c85320ebb013fd2"}, {"is_disabled": 0, "is_reserved": 0, "fusion_lat": 0.0, "lat": 38.89098516666667, "fusion_lon": 0.0, "rental_uris": {"ios": "https://dc.lft.to/lastmile_qr_scan", "android": "https://dc.lft.to/lastmile_qr_scan"}, "lon": -76.94297433333334, "bike_id": "872146c25bea31235494e0fe4f10622a", "type": "electric_scooter", "name": "872146c25bea31235494e0fe4f10622a"}, {"is_disabled": 0, "is_reserved": 0, "fusion_lat": 0.0, "lat": 38.937073, "fusion_lon": 0.0, "rental_uris": {"ios": "https://dc.lft.to/lastmile_qr_scan", "android": "https://dc.lft.to/lastmile_qr_scan"}, "lon": -77.055982, "bike_id": "8ef80a0385fc341d578fb013eede0530", "type": "electric_scooter", "name": "8ef80a0385fc341d578fb013eede0530"}, {"is_disabled": 0, "is_reserved": 0, "fusion_lat": 0.0, "lat": 38.97847016666667, "fusion_lon": 0.0, "rental_uris": {"ios": "https://dc.lft.to/lastmile_qr_scan", "android": "https://dc.lft.to/lastmile_qr_scan"}, "lon": -76.928878, "bike_id": "cacbcadfc56e2656d21068e724108301", "type": "electric_bike", "name": "cacbcadfc56e2656d21068e724108301"}, {"is_disabled": 0, "is_reserved": 0, "fusion_lat": 0.0, "lat": 38.92384583333333, "fusion_lon": 0.0, "rental_uris": {"ios": "https://dc.lft.to/lastmile_qr_scan", "android": "https://dc.lft.to/lastmile_qr_scan"}, "lon": -77.02743483333333, "bike_id": "5475d1ec3d079d86658e06e7a85c6e21", "type": "electric_scooter", "name": "5475d1ec3d079d86658e06e7a85c6e21"}, {"is_disabled": 0, "is_reserved": 0, "fusion_lat": 0.0, "lat": 38.90589666666666, "fusion_lon": 0.0, "rental_uris": {"ios": "https://dc.lft.to/lastmile_qr_scan", "android": "https://dc.lft.to/lastmile_qr_scan"}, "lon": -77.04484483333333, "bike_id": "222c7ec5af5d22a229079beb1c7520db", "type": "electric_bike", "name": "222c7ec5af5d22a229079beb1c7520db"}, {"is_disabled": 0, "is_reserved": 0, "fusion_lat": 0.0, "lat": 38.91800933333333, "fusion_lon": 0.0, "rental_uris": {"ios": "https://dc.lft.to/lastmile_qr_scan", "android": "https://dc.lft.to/lastmile_qr_scan"}, "lon": -77.03442566666666, "bike_id": "015c58fd533f24da191e108a14382d33", "type": "electric_scooter", "name": "015c58fd533f24da191e108a14382d33"}, {"is_disabled": 0, "is_reserved": 0, "fusion_lat": 0.0, "lat": 38.907152833333335, "fusion_lon": 0.0, "rental_uris": {"ios": "https://dc.lft.to/lastmile_qr_scan", "android": "https://dc.lft.to/lastmile_qr_scan"}, "lon": -77.07600416666666, "bike_id": "8aceffe389af1fc8024c99b59df9f233", "type": "electric_scooter", "name": "8aceffe389af1fc8024c99b59df9f233"}, {"is_disabled": 0, "is_reserved": 0, "fusion_lat": 0.0, "lat": 38.92394566666667, "fusion_lon": 0.0, "rental_uris": {"ios": "https://dc.lft.to/lastmile_qr_scan", "android": "https://dc.lft.to/lastmile_qr_scan"}, "lon": -77.00004533333333, "bike_id": "ccb3feb6a01edea91f2ebc626975bc5d", "type": "electric_bike", "name": "ccb3feb6a01edea91f2ebc626975bc5d"}, {"is_disabled": 0, "is_reserved": 0, "fusion_lat": 0.0, "lat": 38.906557666666664, "fusion_lon": 0.0, "rental_uris": {"ios": "https://dc.lft.to/lastmile_qr_scan", "android": "https://dc.lft.to/lastmile_qr_scan"}, "lon": -76.97939166666667, "bike_id": "7b3318b875abbf3de07f8e13ceec267d", "type": "electric_scooter", "name": "7b3318b875abbf3de07f8e13ceec267d"}, {"is_disabled": 0, "is_reserved": 0, "fusion_lat": 0.0, "lat": 38.86284, "fusion_lon": 0.0, "rental_uris": {"ios": "https://dc.lft.to/lastmile_qr_scan", "android": "https://dc.lft.to/lastmile_qr_scan"}, "lon": -76.94518516666666, "bike_id": "6702c087d22a5628b2d77ac800c58b67", "type": "electric_bike", "name": "6702c087d22a5628b2d77ac800c58b67"}, {"is_disabled": 0, "is_reserved": 0, "fusion_lat": 0.0, "lat": 38.9249555, "fusion_lon": 0.0, "rental_uris": {"ios": "https://dc.lft.to/lastmile_qr_scan", "android": "https://dc.lft.to/lastmile_qr_scan"}, "lon": -77.02519533333333, "bike_id": "9ab39e1381a9e4df231c4ff1e8997ae5", "type": "electric_scooter", "name": "9ab39e1381a9e4df231c4ff1e8997ae5"}, {"is_disabled": 0, "is_reserved": 0, "fusion_lat": 0.0, "lat": 38.93551766666667, "fusion_lon": 0.0, "rental_uris": {"ios": "https://dc.lft.to/lastmile_qr_scan", "android": "https://dc.lft.to/lastmile_qr_scan"}, "lon": -77.0729985, "bike_id": "d870814b2b17bb646ebf91cd3e9aef82", "type": "electric_scooter", "name": "d870814b2b17bb646ebf91cd3e9aef82"}, {"is_disabled": 0, "is_reserved": 0, "fusion_lat": 0.0, "lat": 38.9166315, "fusion_lon": 0.0, "rental_uris": {"ios": "https://dc.lft.to/lastmile_qr_scan", "android": "https://dc.lft.to/lastmile_qr_scan"}, "lon": -77.02404583333333, "bike_id": "234572bbc694c62b0cb426db4c09ffe0", "type": "electric_scooter", "name": "234572bbc694c62b0cb426db4c09ffe0"}, {"is_disabled": 0, "is_reserved": 0, "fusion_lat": 0.0, "lat": 38.893823166666664, "fusion_lon": 0.0, "rental_uris": {"ios": "https://dc.lft.to/lastmile_qr_scan", "android": "https://dc.lft.to/lastmile_qr_scan"}, "lon": -77.01991566666666, "bike_id": "f11fdc6b9e0e01ad76f732581d99d616", "type": "electric_scooter", "name": "f11fdc6b9e0e01ad76f732581d99d616"}, {"is_disabled": 0, "is_reserved": 0, "fusion_lat": 0.0, "lat": 38.90113233333334, "fusion_lon": 0.0, "rental_uris": {"ios": "https://dc.lft.to/lastmile_qr_scan", "android": "https://dc.lft.to/lastmile_qr_scan"}, "lon": -77.05003633333334, "bike_id": "83eafb7778ef22adcf19b940b424f855", "type": "electric_scooter", "name": "83eafb7778ef22adcf19b940b424f855"}, {"is_disabled": 0, "is_reserved": 0, "fusion_lat": 0.0, "lat": 38.97556616666667, "fusion_lon": 0.0, "rental_uris": {"ios": "https://dc.lft.to/lastmile_qr_scan", "android": "https://dc.lft.to/lastmile_qr_scan"}, "lon": -77.02682966666667, "bike_id": "55629148434da68e51aaf1873efc7cb5", "type": "electric_scooter", "name": "55629148434da68e51aaf1873efc7cb5"}, {"is_disabled": 0, "is_reserved": 0, "fusion_lat": 0.0, "lat": 38.8404245, "fusion_lon": 0.0, "rental_uris": {"ios": "https://dc.lft.to/lastmile_qr_scan", "android": "https://dc.lft.to/lastmile_qr_scan"}, "lon": -76.98858833333334, "bike_id": "dce1bceb4c443beb842af489034e8ebd", "type": "electric_bike", "name": "dce1bceb4c443beb842af489034e8ebd"}, {"is_disabled": 0, "is_reserved": 0, "fusion_lat": 0.0, "lat": 38.89615366666666, "fusion_lon": 0.0, "rental_uris": {"ios": "https://dc.lft.to/lastmile_qr_scan", "android": "https://dc.lft.to/lastmile_qr_scan"}, "lon": -77.04052183333333, "bike_id": "b11e48bc46eaee1202f35fdd67dc5392", "type": "electric_scooter", "name": "b11e48bc46eaee1202f35fdd67dc5392"}, {"is_disabled": 0, "is_reserved": 0, "fusion_lat": 0.0, "lat": 38.8947325, "fusion_lon": 0.0, "rental_uris": {"ios": "https://dc.lft.to/lastmile_qr_scan", "android": "https://dc.lft.to/lastmile_qr_scan"}, "lon": -76.992612, "bike_id": "c8feb53ca253c9ed0b9eaee4b510e718", "type": "electric_scooter", "name": "c8feb53ca253c9ed0b9eaee4b510e718"}, {"is_disabled": 0, "is_reserved": 0, "fusion_lat": 0.0, "lat": 38.842808833333336, "fusion_lon": 0.0, "rental_uris": {"ios": "https://dc.lft.to/lastmile_qr_scan", "android": "https://dc.lft.to/lastmile_qr_scan"}, "lon": -76.98839033333333, "bike_id": "7ce566cba085fad197012f666c713c75", "type": "electric_bike", "name": "7ce566cba085fad197012f666c713c75"}, {"is_disabled": 0, "is_reserved": 0, "fusion_lat": 0.0, "lat": 38.91322016666667, "fusion_lon": 0.0, "rental_uris": {"ios": "https://dc.lft.to/lastmile_qr_scan", "android": "https://dc.lft.to/lastmile_qr_scan"}, "lon": -77.0199785, "bike_id": "3e58dc5f14e4ca0448e8db45ada1cb72", "type": "electric_scooter", "name": "3e58dc5f14e4ca0448e8db45ada1cb72"}, {"is_disabled": 0, "is_reserved": 0, "fusion_lat": 0.0, "lat": 38.925301166666664, "fusion_lon": 0.0, "rental_uris": {"ios": "https://dc.lft.to/lastmile_qr_scan", "android": "https://dc.lft.to/lastmile_qr_scan"}, "lon": -77.03888783333333, "bike_id": "016b09e04e63388c472e3262b3ff53dd", "type": "electric_scooter", "name": "016b09e04e63388c472e3262b3ff53dd"}, {"is_disabled": 0, "is_reserved": 0, "fusion_lat": 0.0, "lat": 38.88548216666667, "fusion_lon": 0.0, "rental_uris": {"ios": "https://dc.lft.to/lastmile_qr_scan", "android": "https://dc.lft.to/lastmile_qr_scan"}, "lon": -77.11691333333333, "bike_id": "b4e4e255ad7554fa41b68d3beb6935f3", "type": "electric_bike", "name": "b4e4e255ad7554fa41b68d3beb6935f3"}, {"is_disabled": 0, "is_reserved": 0, "fusion_lat": 0.0, "lat": 38.915561, "fusion_lon": 0.0, "rental_uris": {"ios": "https://dc.lft.to/lastmile_qr_scan", "android": "https://dc.lft.to/lastmile_qr_scan"}, "lon": -77.04181266666667, "bike_id": "1370d7e03f6e93e4b64324f349cdbdae", "type": "electric_bike", "name": "1370d7e03f6e93e4b64324f349cdbdae"}, {"is_disabled": 0, "is_reserved": 0, "fusion_lat": 0.0, "lat": 38.91915916666667, "fusion_lon": 0.0, "rental_uris": {"ios": "https://dc.lft.to/lastmile_qr_scan", "android": "https://dc.lft.to/lastmile_qr_scan"}, "lon": -77.03181766666667, "bike_id": "1238c8394b87748dcba18b7cb51f4816", "type": "electric_scooter", "name": "1238c8394b87748dcba18b7cb51f4816"}, {"is_disabled": 0, "is_reserved": 0, "fusion_lat": 0.0, "lat": 38.90109916666667, "fusion_lon": 0.0, "rental_uris": {"ios": "https://dc.lft.to/lastmile_qr_scan", "android": "https://dc.lft.to/lastmile_qr_scan"}, "lon": -77.02478716666667, "bike_id": "ed751d1a1b455adeb26c1d3a1d6482d0", "type": "electric_scooter", "name": "ed751d1a1b455adeb26c1d3a1d6482d0"}, {"is_disabled": 0, "is_reserved": 0, "fusion_lat": 0.0, "lat": 38.96365683333333, "fusion_lon": 0.0, "rental_uris": {"ios": "https://dc.lft.to/lastmile_qr_scan", "android": "https://dc.lft.to/lastmile_qr_scan"}, "lon": -77.03442083333333, "bike_id": "84763b7e1834280c17790e76f4dd78e8", "type": "electric_scooter", "name": "84763b7e1834280c17790e76f4dd78e8"}, {"is_disabled": 0, "is_reserved": 0, "fusion_lat": 0.0, "lat": 38.903582, "fusion_lon": 0.0, "rental_uris": {"ios": "https://dc.lft.to/lastmile_qr_scan", "android": "https://dc.lft.to/lastmile_qr_scan"}, "lon": -77.06001616666667, "bike_id": "93d1025e02aaa43873002d228c6956d1", "type": "electric_scooter", "name": "93d1025e02aaa43873002d228c6956d1"}, {"is_disabled": 0, "is_reserved": 0, "fusion_lat": 0.0, "lat": 38.842635333333334, "fusion_lon": 0.0, "rental_uris": {"ios": "https://dc.lft.to/lastmile_qr_scan", "android": "https://dc.lft.to/lastmile_qr_scan"}, "lon": -76.98838183333334, "bike_id": "ea131311bdd8fa7b986324fee5499497", "type": "electric_scooter", "name": "ea131311bdd8fa7b986324fee5499497"}, {"is_disabled": 0, "is_reserved": 0, "fusion_lat": 0.0, "lat": 38.904489166666664, "fusion_lon": 0.0, "rental_uris": {"ios": "https://dc.lft.to/lastmile_qr_scan", "android": "https://dc.lft.to/lastmile_qr_scan"}, "lon": -76.973117, "bike_id": "e9a518c4f9800646091b426e6cdd488d", "type": "electric_scooter", "name": "e9a518c4f9800646091b426e6cdd488d"}, {"is_disabled": 0, "is_reserved": 0, "fusion_lat": 0.0, "lat": 38.919164333333335, "fusion_lon": 0.0, "rental_uris": {"ios": "https://dc.lft.to/lastmile_qr_scan", "android": "https://dc.lft.to/lastmile_qr_scan"}, "lon": -77.02532866666667, "bike_id": "002d6442999e18b2ddab19f4ab60870c", "type": "electric_scooter", "name": "002d6442999e18b2ddab19f4ab60870c"}, {"is_disabled": 0, "is_reserved": 0, "fusion_lat": 0.0, "lat": 38.916372833333334, "fusion_lon": 0.0, "rental_uris": {"ios": "https://dc.lft.to/lastmile_qr_scan", "android": "https://dc.lft.to/lastmile_qr_scan"}, "lon": -77.03212566666667, "bike_id": "91acc4e1277aa57e9405cf2e958605da", "type": "electric_scooter", "name": "91acc4e1277aa57e9405cf2e958605da"}, {"is_disabled": 0, "is_reserved": 0, "fusion_lat": 0.0, "lat": 38.9195545, "fusion_lon": 0.0, "rental_uris": {"ios": "https://dc.lft.to/lastmile_qr_scan", "android": "https://dc.lft.to/lastmile_qr_scan"}, "lon": -77.01392133333333, "bike_id": "dba4acfa3332ba68c204aac8411654d9", "type": "electric_scooter", "name": "dba4acfa3332ba68c204aac8411654d9"}, {"is_disabled": 0, "is_reserved": 0, "fusion_lat": 0.0, "lat": 38.9037885, "fusion_lon": 0.0, "rental_uris": {"ios": "https://dc.lft.to/lastmile_qr_scan", "android": "https://dc.lft.to/lastmile_qr_scan"}, "lon": -77.02011733333333, "bike_id": "5bc2218f4e39516815344a6bd3d309b8", "type": "electric_scooter", "name": "5bc2218f4e39516815344a6bd3d309b8"}, {"is_disabled": 0, "is_reserved": 0, "fusion_lat": 0.0, "lat": 38.926863833333336, "fusion_lon": 0.0, "rental_uris": {"ios": "https://dc.lft.to/lastmile_qr_scan", "android": "https://dc.lft.to/lastmile_qr_scan"}, "lon": -77.02290966666666, "bike_id": "ab24b282615f4681f199f897a3bf1ba4", "type": "electric_scooter", "name": "ab24b282615f4681f199f897a3bf1ba4"}, {"is_disabled": 0, "is_reserved": 0, "fusion_lat": 0.0, "lat": 38.91070533333333, "fusion_lon": 0.0, "rental_uris": {"ios": "https://dc.lft.to/lastmile_qr_scan", "android": "https://dc.lft.to/lastmile_qr_scan"}, "lon": -77.01994083333334, "bike_id": "6fb71a9c656c13dce3aadc1d1112ca6a", "type": "electric_scooter", "name": "6fb71a9c656c13dce3aadc1d1112ca6a"}, {"is_disabled": 0, "is_reserved": 0, "fusion_lat": 0.0, "lat": 38.89726133333333, "fusion_lon": 0.0, "rental_uris": {"ios": "https://dc.lft.to/lastmile_qr_scan", "android": "https://dc.lft.to/lastmile_qr_scan"}, "lon": -77.03163533333333, "bike_id": "c779db5b07e450174445ebcda1f92fcc", "type": "electric_scooter", "name": "c779db5b07e450174445ebcda1f92fcc"}, {"is_disabled": 0, "is_reserved": 0, "fusion_lat": 0.0, "lat": 38.8919545, "fusion_lon": 0.0, "rental_uris": {"ios": "https://dc.lft.to/lastmile_qr_scan", "android": "https://dc.lft.to/lastmile_qr_scan"}, "lon": -77.02227983333333, "bike_id": "d88519234d4dee67a3f4fb9654b4642c", "type": "electric_scooter", "name": "d88519234d4dee67a3f4fb9654b4642c"}, {"is_disabled": 0, "is_reserved": 0, "fusion_lat": 0.0, "lat": 38.9290955, "fusion_lon": 0.0, "rental_uris": {"ios": "https://dc.lft.to/lastmile_qr_scan", "android": "https://dc.lft.to/lastmile_qr_scan"}, "lon": -77.0598555, "bike_id": "476b2825165178dd379b15dad5ed5b7c", "type": "electric_scooter", "name": "476b2825165178dd379b15dad5ed5b7c"}, {"is_disabled": 0, "is_reserved": 0, "fusion_lat": 0.0, "lat": 38.9213825, "fusion_lon": 0.0, "rental_uris": {"ios": "https://dc.lft.to/lastmile_qr_scan", "android": "https://dc.lft.to/lastmile_qr_scan"}, "lon": -77.00088383333333, "bike_id": "f6b568e3083ddb55251a23522406d0cf", "type": "electric_scooter", "name": "f6b568e3083ddb55251a23522406d0cf"}, {"is_disabled": 0, "is_reserved": 0, "fusion_lat": 0.0, "lat": 38.9244105, "fusion_lon": 0.0, "rental_uris": {"ios": "https://dc.lft.to/lastmile_qr_scan", "android": "https://dc.lft.to/lastmile_qr_scan"}, "lon": -77.05218033333334, "bike_id": "360d86702e54ff1e5d0335c6f0b7d9fd", "type": "electric_scooter", "name": "360d86702e54ff1e5d0335c6f0b7d9fd"}, {"is_disabled": 0, "is_reserved": 0, "fusion_lat": 0.0, "lat": 38.890860333333336, "fusion_lon": 0.0, "rental_uris": {"ios": "https://dc.lft.to/lastmile_qr_scan", "android": "https://dc.lft.to/lastmile_qr_scan"}, "lon": -76.954718, "bike_id": "3a11f061b5e1d7b56a56eca45ff31f2a", "type": "electric_bike", "name": "3a11f061b5e1d7b56a56eca45ff31f2a"}, {"is_disabled": 0, "is_reserved": 0, "fusion_lat": 0.0, "lat": 38.931960833333335, "fusion_lon": 0.0, "rental_uris": {"ios": "https://dc.lft.to/lastmile_qr_scan", "android": "https://dc.lft.to/lastmile_qr_scan"}, "lon": -77.01869916666666, "bike_id": "1f20e366fca058c594e292f0cdf4708d", "type": "electric_scooter", "name": "1f20e366fca058c594e292f0cdf4708d"}, {"is_disabled": 0, "is_reserved": 0, "fusion_lat": 0.0, "lat": 38.9182455, "fusion_lon": 0.0, "rental_uris": {"ios": "https://dc.lft.to/lastmile_qr_scan", "android": "https://dc.lft.to/lastmile_qr_scan"}, "lon": -77.0451895, "bike_id": "3ff74b5f7d71c0340a9c19b972f972cb", "type": "electric_scooter", "name": "3ff74b5f7d71c0340a9c19b972f972cb"}, {"is_disabled": 0, "is_reserved": 0, "fusion_lat": 0.0, "lat": 38.95636233333333, "fusion_lon": 0.0, "rental_uris": {"ios": "https://dc.lft.to/lastmile_qr_scan", "android": "https://dc.lft.to/lastmile_qr_scan"}, "lon": -77.03627083333333, "bike_id": "3ab656714cfe3b074df619282954d398", "type": "electric_scooter", "name": "3ab656714cfe3b074df619282954d398"}, {"is_disabled": 0, "is_reserved": 0, "fusion_lat": 0.0, "lat": 38.898466, "fusion_lon": 0.0, "rental_uris": {"ios": "https://dc.lft.to/lastmile_qr_scan", "android": "https://dc.lft.to/lastmile_qr_scan"}, "lon": -77.04498766666667, "bike_id": "9070873f9f57abc12b6958dd6d9b78b9", "type": "electric_scooter", "name": "9070873f9f57abc12b6958dd6d9b78b9"}, {"is_disabled": 0, "is_reserved": 0, "fusion_lat": 0.0, "lat": 38.923595, "fusion_lon": 0.0, "rental_uris": {"ios": "https://dc.lft.to/lastmile_qr_scan", "android": "https://dc.lft.to/lastmile_qr_scan"}, "lon": -77.03372816666666, "bike_id": "2bb0e417d41e4d6daf4bc9a214317c69", "type": "electric_scooter", "name": "2bb0e417d41e4d6daf4bc9a214317c69"}, {"is_disabled": 0, "is_reserved": 0, "fusion_lat": 0.0, "lat": 38.8844575, "fusion_lon": 0.0, "rental_uris": {"ios": "https://dc.lft.to/lastmile_qr_scan", "android": "https://dc.lft.to/lastmile_qr_scan"}, "lon": -77.02928616666667, "bike_id": "c9edb004f900aa4ebd81991fa58eada7", "type": "electric_scooter", "name": "c9edb004f900aa4ebd81991fa58eada7"}, {"is_disabled": 0, "is_reserved": 0, "fusion_lat": 0.0, "lat": 38.899012166666665, "fusion_lon": 0.0, "rental_uris": {"ios": "https://dc.lft.to/lastmile_qr_scan", "android": "https://dc.lft.to/lastmile_qr_scan"}, "lon": -77.03207316666666, "bike_id": "6c1b7b02be00b9dce966e062b284aa7f", "type": "electric_scooter", "name": "6c1b7b02be00b9dce966e062b284aa7f"}, {"is_disabled": 0, "is_reserved": 0, "fusion_lat": 0.0, "lat": 38.90574483333333, "fusion_lon": 0.0, "rental_uris": {"ios": "https://dc.lft.to/lastmile_qr_scan", "android": "https://dc.lft.to/lastmile_qr_scan"}, "lon": -77.00404083333333, "bike_id": "6de0b8c5e7817dcad95f867223b2a4da", "type": "electric_scooter", "name": "6de0b8c5e7817dcad95f867223b2a4da"}, {"is_disabled": 0, "is_reserved": 0, "fusion_lat": 0.0, "lat": 38.90660366666667, "fusion_lon": 0.0, "rental_uris": {"ios": "https://dc.lft.to/lastmile_qr_scan", "android": "https://dc.lft.to/lastmile_qr_scan"}, "lon": -77.04500766666666, "bike_id": "e32e80ee4923e1cdb27210a776518609", "type": "electric_scooter", "name": "e32e80ee4923e1cdb27210a776518609"}, {"is_disabled": 0, "is_reserved": 0, "fusion_lat": 0.0, "lat": 38.871657166666665, "fusion_lon": 0.0, "rental_uris": {"ios": "https://dc.lft.to/lastmile_qr_scan", "android": "https://dc.lft.to/lastmile_qr_scan"}, "lon": -77.0135825, "bike_id": "798629b681acfc81da565c1ef28076a3", "type": "electric_scooter", "name": "798629b681acfc81da565c1ef28076a3"}, {"is_disabled": 0, "is_reserved": 0, "fusion_lat": 0.0, "lat": 38.922058666666665, "fusion_lon": 0.0, "rental_uris": {"ios": "https://dc.lft.to/lastmile_qr_scan", "android": "https://dc.lft.to/lastmile_qr_scan"}, "lon": -77.02032716666666, "bike_id": "54177a97837e594c3314a80a3e6d28d2", "type": "electric_scooter", "name": "54177a97837e594c3314a80a3e6d28d2"}, {"is_disabled": 0, "is_reserved": 0, "fusion_lat": 0.0, "lat": 38.92273383333333, "fusion_lon": 0.0, "rental_uris": {"ios": "https://dc.lft.to/lastmile_qr_scan", "android": "https://dc.lft.to/lastmile_qr_scan"}, "lon": -77.04282466666666, "bike_id": "0f127c8be3ffb9c1c526ff7d2249635a", "type": "electric_scooter", "name": "0f127c8be3ffb9c1c526ff7d2249635a"}, {"is_disabled": 0, "is_reserved": 0, "fusion_lat": 0.0, "lat": 38.92529966666667, "fusion_lon": 0.0, "rental_uris": {"ios": "https://dc.lft.to/lastmile_qr_scan", "android": "https://dc.lft.to/lastmile_qr_scan"}, "lon": -77.03853666666667, "bike_id": "aa3236900b2c32545102a0786e2c225a", "type": "electric_scooter", "name": "aa3236900b2c32545102a0786e2c225a"}, {"is_disabled": 0, "is_reserved": 0, "fusion_lat": 0.0, "lat": 38.97482516666667, "fusion_lon": 0.0, "rental_uris": {"ios": "https://dc.lft.to/lastmile_qr_scan", "android": "https://dc.lft.to/lastmile_qr_scan"}, "lon": -77.01486983333334, "bike_id": "8f8e9ad62e4ed093a95f50a5f80e293b", "type": "electric_scooter", "name": "8f8e9ad62e4ed093a95f50a5f80e293b"}, {"is_disabled": 0, "is_reserved": 0, "fusion_lat": 0.0, "lat": 38.896581833333336, "fusion_lon": 0.0, "rental_uris": {"ios": "https://dc.lft.to/lastmile_qr_scan", "android": "https://dc.lft.to/lastmile_qr_scan"}, "lon": -77.02721866666667, "bike_id": "b94920992ec10ad68bf995168470f3c2", "type": "electric_scooter", "name": "b94920992ec10ad68bf995168470f3c2"}, {"is_disabled": 0, "is_reserved": 0, "fusion_lat": 0.0, "lat": 38.91625416666667, "fusion_lon": 0.0, "rental_uris": {"ios": "https://dc.lft.to/lastmile_qr_scan", "android": "https://dc.lft.to/lastmile_qr_scan"}, "lon": -77.05074583333334, "bike_id": "11b5338c7119e9218379be927b67ade4", "type": "electric_scooter", "name": "11b5338c7119e9218379be927b67ade4"}, {"is_disabled": 0, "is_reserved": 0, "fusion_lat": 0.0, "lat": 38.906836, "fusion_lon": 0.0, "rental_uris": {"ios": "https://dc.lft.to/lastmile_qr_scan", "android": "https://dc.lft.to/lastmile_qr_scan"}, "lon": -77.0270785, "bike_id": "819e37655ddca02e1db449b097811608", "type": "electric_scooter", "name": "819e37655ddca02e1db449b097811608"}, {"is_disabled": 0, "is_reserved": 0, "fusion_lat": 0.0, "lat": 38.873766833333335, "fusion_lon": 0.0, "rental_uris": {"ios": "https://dc.lft.to/lastmile_qr_scan", "android": "https://dc.lft.to/lastmile_qr_scan"}, "lon": -77.00096283333333, "bike_id": "b7b7677660c4363389965404613c9fc5", "type": "electric_scooter", "name": "b7b7677660c4363389965404613c9fc5"}, {"is_disabled": 0, "is_reserved": 0, "fusion_lat": 0.0, "lat": 38.894860666666666, "fusion_lon": 0.0, "rental_uris": {"ios": "https://dc.lft.to/lastmile_qr_scan", "android": "https://dc.lft.to/lastmile_qr_scan"}, "lon": -76.97881366666667, "bike_id": "16f0b42c70fc3b9c049f7bf99af42298", "type": "electric_scooter", "name": "16f0b42c70fc3b9c049f7bf99af42298"}, {"is_disabled": 0, "is_reserved": 0, "fusion_lat": 0.0, "lat": 38.914014333333334, "fusion_lon": 0.0, "rental_uris": {"ios": "https://dc.lft.to/lastmile_qr_scan", "android": "https://dc.lft.to/lastmile_qr_scan"}, "lon": -77.04886816666667, "bike_id": "1c367d2ba5ac7df1d2f128c6426624cd", "type": "electric_scooter", "name": "1c367d2ba5ac7df1d2f128c6426624cd"}, {"is_disabled": 0, "is_reserved": 0, "fusion_lat": 0.0, "lat": 38.91483216666666, "fusion_lon": 0.0, "rental_uris": {"ios": "https://dc.lft.to/lastmile_qr_scan", "android": "https://dc.lft.to/lastmile_qr_scan"}, "lon": -77.0188945, "bike_id": "4a8c955fc651f08e0490f5ee0f28fff2", "type": "electric_scooter", "name": "4a8c955fc651f08e0490f5ee0f28fff2"}, {"is_disabled": 0, "is_reserved": 0, "fusion_lat": 0.0, "lat": 38.9217325, "fusion_lon": 0.0, "rental_uris": {"ios": "https://dc.lft.to/lastmile_qr_scan", "android": "https://dc.lft.to/lastmile_qr_scan"}, "lon": -77.04228083333334, "bike_id": "4570b322b2befe42feaddf1142e8b918", "type": "electric_scooter", "name": "4570b322b2befe42feaddf1142e8b918"}, {"is_disabled": 0, "is_reserved": 0, "fusion_lat": 0.0, "lat": 38.8966945, "fusion_lon": 0.0, "rental_uris": {"ios": "https://dc.lft.to/lastmile_qr_scan", "android": "https://dc.lft.to/lastmile_qr_scan"}, "lon": -76.94905116666666, "bike_id": "1e4170bc845240d4094c069c484bf76e", "type": "electric_scooter", "name": "1e4170bc845240d4094c069c484bf76e"}, {"is_disabled": 0, "is_reserved": 0, "fusion_lat": 0.0, "lat": 38.90951883333334, "fusion_lon": 0.0, "rental_uris": {"ios": "https://dc.lft.to/lastmile_qr_scan", "android": "https://dc.lft.to/lastmile_qr_scan"}, "lon": -77.047288, "bike_id": "b107ef5f05ddf963b07436d42c7580c9", "type": "electric_scooter", "name": "b107ef5f05ddf963b07436d42c7580c9"}, {"is_disabled": 0, "is_reserved": 0, "fusion_lat": 0.0, "lat": 38.9171735, "fusion_lon": 0.0, "rental_uris": {"ios": "https://dc.lft.to/lastmile_qr_scan", "android": "https://dc.lft.to/lastmile_qr_scan"}, "lon": -77.024056, "bike_id": "4d94020b61ee87801fe9a1f7d8fb7541", "type": "electric_scooter", "name": "4d94020b61ee87801fe9a1f7d8fb7541"}, {"is_disabled": 0, "is_reserved": 0, "fusion_lat": 0.0, "lat": 38.909765666666665, "fusion_lon": 0.0, "rental_uris": {"ios": "https://dc.lft.to/lastmile_qr_scan", "android": "https://dc.lft.to/lastmile_qr_scan"}, "lon": -77.02417116666666, "bike_id": "de0c6b00a46ae08e86fc50b920dd16bd", "type": "electric_scooter", "name": "de0c6b00a46ae08e86fc50b920dd16bd"}, {"is_disabled": 0, "is_reserved": 0, "fusion_lat": 0.0, "lat": 38.9283905, "fusion_lon": 0.0, "rental_uris": {"ios": "https://dc.lft.to/lastmile_qr_scan", "android": "https://dc.lft.to/lastmile_qr_scan"}, "lon": -77.014114, "bike_id": "046917beb058ff8c53edc99b1562f526", "type": "electric_scooter", "name": "046917beb058ff8c53edc99b1562f526"}, {"is_disabled": 0, "is_reserved": 0, "fusion_lat": 0.0, "lat": 38.9155215, "fusion_lon": 0.0, "rental_uris": {"ios": "https://dc.lft.to/lastmile_qr_scan", "android": "https://dc.lft.to/lastmile_qr_scan"}, "lon": -77.04468866666667, "bike_id": "7648f0d5a72ca644e8a54264d104b20e", "type": "electric_scooter", "name": "7648f0d5a72ca644e8a54264d104b20e"}, {"is_disabled": 0, "is_reserved": 0, "fusion_lat": 0.0, "lat": 38.941781166666665, "fusion_lon": 0.0, "rental_uris": {"ios": "https://dc.lft.to/lastmile_qr_scan", "android": "https://dc.lft.to/lastmile_qr_scan"}, "lon": -77.015361, "bike_id": "b5eebcff59f87928734fdc70d854f31b", "type": "electric_scooter", "name": "b5eebcff59f87928734fdc70d854f31b"}, {"is_disabled": 0, "is_reserved": 0, "fusion_lat": 0.0, "lat": 38.94294633333333, "fusion_lon": 0.0, "rental_uris": {"ios": "https://dc.lft.to/lastmile_qr_scan", "android": "https://dc.lft.to/lastmile_qr_scan"}, "lon": -77.02170766666667, "bike_id": "fdf50d0b8d74196177501adf058b5b52", "type": "electric_scooter", "name": "fdf50d0b8d74196177501adf058b5b52"}, {"is_disabled": 0, "is_reserved": 0, "fusion_lat": 0.0, "lat": 38.91406816666667, "fusion_lon": 0.0, "rental_uris": {"ios": "https://dc.lft.to/lastmile_qr_scan", "android": "https://dc.lft.to/lastmile_qr_scan"}, "lon": -77.0181425, "bike_id": "edc87b8ee5e5fe3ae36b3e44b911ce4b", "type": "electric_scooter", "name": "edc87b8ee5e5fe3ae36b3e44b911ce4b"}, {"is_disabled": 0, "is_reserved": 0, "fusion_lat": 0.0, "lat": 38.86563316666667, "fusion_lon": 0.0, "rental_uris": {"ios": "https://dc.lft.to/lastmile_qr_scan", "android": "https://dc.lft.to/lastmile_qr_scan"}, "lon": -76.97482483333333, "bike_id": "70d69ec9fcffd9553a8a50fdfedf8e4b", "type": "electric_bike", "name": "70d69ec9fcffd9553a8a50fdfedf8e4b"}, {"is_disabled": 0, "is_reserved": 0, "fusion_lat": 0.0, "lat": 38.88222916666667, "fusion_lon": 0.0, "rental_uris": {"ios": "https://dc.lft.to/lastmile_qr_scan", "android": "https://dc.lft.to/lastmile_qr_scan"}, "lon": -76.9974015, "bike_id": "7a8353ce013757fe93ea387cb03d9630", "type": "electric_scooter", "name": "7a8353ce013757fe93ea387cb03d9630"}, {"is_disabled": 0, "is_reserved": 0, "fusion_lat": 0.0, "lat": 38.8243205, "fusion_lon": 0.0, "rental_uris": {"ios": "https://dc.lft.to/lastmile_qr_scan", "android": "https://dc.lft.to/lastmile_qr_scan"}, "lon": -77.12038933333334, "bike_id": "43f514f5321ee6510aa4f670be14c7ff", "type": "electric_bike", "name": "43f514f5321ee6510aa4f670be14c7ff"}, {"is_disabled": 0, "is_reserved": 0, "fusion_lat": 0.0, "lat": 38.85643733333333, "fusion_lon": 0.0, "rental_uris": {"ios": "https://dc.lft.to/lastmile_qr_scan", "android": "https://dc.lft.to/lastmile_qr_scan"}, "lon": -77.0683265, "bike_id": "741706dac097b76f2acc8ee7146c6c96", "type": "electric_bike", "name": "741706dac097b76f2acc8ee7146c6c96"}, {"is_disabled": 0, "is_reserved": 0, "fusion_lat": 0.0, "lat": 38.92364633333333, "fusion_lon": 0.0, "rental_uris": {"ios": "https://dc.lft.to/lastmile_qr_scan", "android": "https://dc.lft.to/lastmile_qr_scan"}, "lon": -77.02061733333333, "bike_id": "6287f63b06b6a89bdde3881b0d9db64b", "type": "electric_scooter", "name": "6287f63b06b6a89bdde3881b0d9db64b"}, {"is_disabled": 0, "is_reserved": 0, "fusion_lat": 0.0, "lat": 38.900763833333336, "fusion_lon": 0.0, "rental_uris": {"ios": "https://dc.lft.to/lastmile_qr_scan", "android": "https://dc.lft.to/lastmile_qr_scan"}, "lon": -77.03802316666666, "bike_id": "1425dade3e8468e9f361ed1d9d3f3610", "type": "electric_scooter", "name": "1425dade3e8468e9f361ed1d9d3f3610"},