{"data": {"bikes": [{"name": "0fc1fff0c99f2ecf266a6d2ff7960eb8", "fusion_lat": 0.0, "type": "electric_scooter", "lat": 38.925491666666666, "is_reserved": 0, "is_disabled": 0, "fusion_lon": 0.0, "bike_id": "0fc1fff0c99f2ecf266a6d2ff7960eb8", "lon": -77.03222383333333, "rental_uris": {"ios": "https://dc.lft.to/lastmile_qr_scan", "android": "https://dc.lft.to/lastmile_qr_scan"}}, {"name": "3779e3e2dee6a5225dbd1311971502a4", "fusion_lat": 0.0, "type": "electric_scooter", "lat": 38.9052835, "is_reserved": 0, "is_disabled": 0, "fusion_lon": 0.0, "bike_id": "3779e3e2dee6a5225dbd1311971502a4", "lon": -77.04755666666667, "rental_uris": {"ios": "https://dc.lft.to/lastmile_qr_scan", "android": "https://dc.lft.to/lastmile_qr_scan"}}, {"name": "2729cca710083aa103fd10e8cb53e7d4", "fusion_lat": 0.0, "type": "electric_bike", "lat": 38.96008616666667, "is_reserved": 0, "is_disabled": 0, "fusion_lon": 0.0, "bike_id": "2729cca710083aa103fd10e8cb53e7d4", "lon": -76.99870966666667, "rental_uris": {"ios": "https://dc.lft.to/lastmile_qr_scan", "android": "https://dc.lft.to/lastmile_qr_scan"}}, {"name": "738a842aa9b346b4de2ccad3780ccf7a", "fusion_lat": 0.0, "type": "electric_scooter", "lat": 38.93871166666667, "is_reserved": 0, "is_disabled": 0, "fusion_lon": 0.0, "bike_id": "738a842aa9b346b4de2ccad3780ccf7a", "lon": -77.03258133333334, "rental_uris": {"ios": "https://dc.lft.to/lastmile_qr_scan", "android": "https://dc.lft.to/lastmile_qr_scan"}}, {"name": "3ead1c6ece588bd0af4cb67111dfc370", "fusion_lat": 0.0, "type": "electric_scooter", "lat": 38.861543833333336, "is_reserved": 0, "is_disabled": 0, "fusion_lon": 0.0, "bike_id": "3ead1c6ece588bd0af4cb67111dfc370", "lon": -76.98900166666667, "rental_uris": {"ios": "https://dc.lft.to/lastmile_qr_scan", "android": "https://dc.lft.to/lastmile_qr_scan"}}, {"name": "6e51fc6b36d847933f96ce4031d0a736", "fusion_lat": 0.0, "type": "electric_scooter", "lat": 38.908997166666666, "is_reserved": 0, "is_disabled": 0, "fusion_lon": 0.0, "bike_id": "6e51fc6b36d847933f96ce4031d0a736", "lon": -77.04868516666667, "rental_uris": {"ios": "https://dc.lft.to/lastmile_qr_scan", "android": "https://dc.lft.to/lastmile_qr_scan"}}, {"name": "080afaa32825e225df4190473d36e5cd", "fusion_lat": 0.0, "type": "electric_scooter", "lat": 38.8802775, "is_reserved": 0, "is_disabled": 0, "fusion_lon": 0.0, "bike_id": "080afaa32825e225df4190473d36e5cd", "lon": -77.02502233333334, "rental_uris": {"ios": "https://dc.lft.to/lastmile_qr_scan", "android": "https://dc.lft.to/lastmile_qr_scan"}}, {"name": "43a9ab0009a3d59202bb9dd029c3e987", "fusion_lat": 0.0, "type": "electric_scooter", "lat": 38.9346305, "is_reserved": 0, "is_disabled": 0, "fusion_lon": 0.0, "bike_id": "43a9ab0009a3d59202bb9dd029c3e987", "lon": -77.03522266666667, "rental_uris": {"ios": "https://dc.lft.to/lastmile_qr_scan", "android": "https://dc.lft.to/lastmile_qr_scan"}}, {"name": "414670a8fe5bb543ea019df0c6a0c623", "fusion_lat": 0.0, "type": "electric_scooter", "lat": 38.962264166666664, "is_reserved": 0, "is_disabled": 0, "fusion_lon": 0.0, "bike_id": "414670a8fe5bb543ea019df0c6a0c623", "lon": -77.02976383333333, "rental_uris": {"ios": "https://dc.lft.to/lastmile_qr_scan", "android": "https://dc.lft.to/lastmile_qr_scan"}}, {"name": "5c872d22037a983887f1a22ff878e266", "fusion_lat": 0.0, "type": "electric_scooter", "lat": 38.925779, "is_reserved": 0, "is_disabled": 0, "fusion_lon": 0.0, "bike_id": "5c872d22037a983887f1a22ff878e266", "lon": -76.9949215, "rental_uris": {"ios": "https://dc.lft.to/lastmile_qr_scan", "android": "https://dc.lft.to/lastmile_qr_scan"}}, {"name": "a6477e7a580132e26b6cf60cbcede6f3", "fusion_lat": 0.0, "type": "electric_scooter", "lat": 38.928219166666665, "is_reserved": 0, "is_disabled": 0, "fusion_lon": 0.0, "bike_id": "a6477e7a580132e26b6cf60cbcede6f3", "lon": -77.02259283333333, "rental_uris": {"ios": "https://dc.lft.to/lastmile_qr_scan", "android": "https://dc.lft.to/lastmile_qr_scan"}}, {"name": "85176341400b827810c52aaa1f5ccee5", "fusion_lat": 0.0, "type": "electric_scooter", "lat": 38.90564, "is_reserved": 0, "is_disabled": 0, "fusion_lon": 0.0, "bike_id": "85176341400b827810c52aaa1f5ccee5", "lon": -77.04889116666666, "rental_uris": {"ios": "https://dc.lft.to/lastmile_qr_scan", "android": "https://dc.lft.to/lastmile_qr_scan"}}, {"name": "24c628b5195e93a25313f19991bb1c17", "fusion_lat": 0.0, "type": "electric_bike", "lat": 38.930792, "is_reserved": 0, "is_disabled": 0, "fusion_lon": 0.0, "bike_id": "24c628b5195e93a25313f19991bb1c17", "lon": -77.03753183333333, "rental_uris": {"ios": "https://dc.lft.to/lastmile_qr_scan", "android": "https://dc.lft.to/lastmile_qr_scan"}}, {"name": "1eaec9377901f481ec45a3f7bddca732", "fusion_lat": 0.0, "type": "electric_scooter", "lat": 38.88227333333333, "is_reserved": 0, "is_disabled": 0, "fusion_lon": 0.0, "bike_id": "1eaec9377901f481ec45a3f7bddca732", "lon": -77.02581616666667, "rental_uris": {"ios": "https://dc.lft.to/lastmile_qr_scan", "android": "https://dc.lft.to/lastmile_qr_scan"}}, {"name": "16ca5c1ce3cefb38c7642771acdcd771", "fusion_lat": 0.0, "type": "electric_scooter", "lat": 38.922342666666665, "is_reserved": 0, "is_disabled": 0, "fusion_lon": 0.0, "bike_id": "16ca5c1ce3cefb38c7642771acdcd771", "lon": -77.04716533333334, "rental_uris": {"ios": "https://dc.lft.to/lastmile_qr_scan", "android": "https://dc.lft.to/lastmile_qr_scan"}}, {"name": "43ec0c48d3f8e50ecd85845c9717cd9e", "fusion_lat": 0.0, "type": "electric_scooter", "lat": 38.883604, "is_reserved": 0, "is_disabled": 0, "fusion_lon": 0.0, "bike_id": "43ec0c48d3f8e50ecd85845c9717cd9e", "lon": -77.02612583333334, "rental_uris": {"ios": "https://dc.lft.to/lastmile_qr_scan", "android": "https://dc.lft.to/lastmile_qr_scan"}}, {"name": "fcb4c790e60483b3e0814fabacd22fc2", "fusion_lat": 0.0, "type": "electric_bike", "lat": 38.970875, "is_reserved": 0, "is_disabled": 0, "fusion_lon": 0.0, "bike_id": "fcb4c790e60483b3e0814fabacd22fc2", "lon": -77.0696435, "rental_uris": {"ios": "https://dc.lft.to/lastmile_qr_scan", "android": "https://dc.lft.to/lastmile_qr_scan"}}, {"name": "035d1b34ca95a59298c4a875048a8cb1", "fusion_lat": 0.0, "type": "electric_scooter", "lat": 38.87653183333333, "is_reserved": 0, "is_disabled": 0, "fusion_lon": 0.0, "bike_id": "035d1b34ca95a59298c4a875048a8cb1", "lon": -77.004306, "rental_uris": {"ios": "https://dc.lft.to/lastmile_qr_scan", "android": "https://dc.lft.to/lastmile_qr_scan"}}, {"name": "6e2b8776558f30cb6959ec4a6f3ef775", "fusion_lat": 0.0, "type": "electric_scooter", "lat": 38.911895, "is_reserved": 0, "is_disabled": 0, "fusion_lon": 0.0, "bike_id": "6e2b8776558f30cb6959ec4a6f3ef775", "lon": -77.04537216666667, "rental_uris": {"ios": "https://dc.lft.to/lastmile_qr_scan", "android": "https://dc.lft.to/lastmile_qr_scan"}}, {"name": "9134c6921995a73be2017a49d0826657", "fusion_lat": 0.0, "type": "electric_scooter", "lat": 38.90091983333333, "is_reserved": 0, "is_disabled": 0, "fusion_lon": 0.0, "bike_id": "9134c6921995a73be2017a49d0826657", "lon": -77.04633533333333, "rental_uris": {"ios": "https://dc.lft.to/lastmile_qr_scan", "android": "https://dc.lft.to/lastmile_qr_scan"}}, {"name": "3a9e42d6007774c5d63e24c9f8c02ee1", "fusion_lat": 0.0, "type": "electric_scooter", "lat": 38.888234833333335, "is_reserved": 0, "is_disabled": 0, "fusion_lon": 0.0, "bike_id": "3a9e42d6007774c5d63e24c9f8c02ee1", "lon": -77.04936266666667, "rental_uris": {"ios": "https://dc.lft.to/lastmile_qr_scan", "android": "https://dc.lft.to/lastmile_qr_scan"}}, {"name": "e1eb1c005eb489701d9c7783b104c52e", "fusion_lat": 0.0, "type": "electric_bike", "lat": 38.86377683333333, "is_reserved": 0, "is_disabled": 0, "fusion_lon": 0.0, "bike_id": "e1eb1c005eb489701d9c7783b104c52e", "lon": -77.128976, "rental_uris": {"ios": "https://dc.lft.to/lastmile_qr_scan", "android": "https://dc.lft.to/lastmile_qr_scan"}}, {"name": "b84d423caac8b0703df8438ead9e2959", "fusion_lat": 0.0, "type": "electric_scooter", "lat": 38.9262995, "is_reserved": 0, "is_disabled": 0, "fusion_lon": 0.0, "bike_id": "b84d423caac8b0703df8438ead9e2959", "lon": -77.037951, "rental_uris": {"ios": "https://dc.lft.to/lastmile_qr_scan", "android": "https://dc.lft.to/lastmile_qr_scan"}}, {"name": "9b82d6981bd4b2d229371efa08172d8d", "fusion_lat": 0.0, "type": "electric_scooter", "lat": 38.91872033333333, "is_reserved": 0, "is_disabled": 0, "fusion_lon": 0.0, "bike_id": "9b82d6981bd4b2d229371efa08172d8d", "lon": -77.04483933333333, "rental_uris": {"ios": "https://dc.lft.to/lastmile_qr_scan", "android": "https://dc.lft.to/lastmile_qr_scan"}}, {"name": "e8e3abaccdd6664f2a9d48abe54de718", "fusion_lat": 0.0, "type": "electric_scooter", "lat": 38.9202035, "is_reserved": 0, "is_disabled": 0, "fusion_lon": 0.0, "bike_id": "e8e3abaccdd6664f2a9d48abe54de718", "lon": -77.03123916666667, "rental_uris": {"ios": "https://dc.lft.to/lastmile_qr_scan", "android": "https://dc.lft.to/lastmile_qr_scan"}}, {"name": "e2df9d0d82468b5e4a8f57ae7073688e", "fusion_lat": 0.0, "type": "electric_scooter", "lat": 38.90553966666667, "is_reserved": 0, "is_disabled": 0, "fusion_lon": 0.0, "bike_id": "e2df9d0d82468b5e4a8f57ae7073688e", "lon": -77.00555083333333, "rental_uris": {"ios": "https://dc.lft.to/lastmile_qr_scan", "android": "https://dc.lft.to/lastmile_qr_scan"}}, {"name": "ff638675573146d35a7d02febb2bcc3a", "fusion_lat": 0.0, "type": "electric_scooter", "lat": 38.910636833333335, "is_reserved": 0, "is_disabled": 0, "fusion_lon": 0.0, "bike_id": "ff638675573146d35a7d02febb2bcc3a", "lon": -77.00854866666667, "rental_uris": {"ios": "https://dc.lft.to/lastmile_qr_scan", "android": "https://dc.lft.to/lastmile_qr_scan"}}, {"name": "bce108525f29ae4e6628d90f150d0ea8", "fusion_lat": 0.0, "type": "electric_scooter", "lat": 38.892286666666664, "is_reserved": 0, "is_disabled": 0, "fusion_lon": 0.0, "bike_id": "bce108525f29ae4e6628d90f150d0ea8", "lon": -77.01513633333333, "rental_uris": {"ios": "https://dc.lft.to/lastmile_qr_scan", "android": "https://dc.lft.to/lastmile_qr_scan"}}, {"name": "c2a5bd8651be3a4053124e9c0184d2f0", "fusion_lat": 0.0, "type": "electric_scooter", "lat": 38.91562666666667, "is_reserved": 0, "is_disabled": 0, "fusion_lon": 0.0, "bike_id": "c2a5bd8651be3a4053124e9c0184d2f0", "lon": -77.012036, "rental_uris": {"ios": "https://dc.lft.to/lastmile_qr_scan", "android": "https://dc.lft.to/lastmile_qr_scan"}}, {"name": "9a34469e58288bf1a37d5a14775d8885", "fusion_lat": 0.0, "type": "electric_scooter", "lat": 38.91327366666667, "is_reserved": 0, "is_disabled": 0, "fusion_lon": 0.0, "bike_id": "9a34469e58288bf1a37d5a14775d8885", "lon": -77.04864966666666, "rental_uris": {"ios": "https://dc.lft.to/lastmile_qr_scan", "android": "https://dc.lft.to/lastmile_qr_scan"}}, {"name": "c3e06969238ec7b2496a7fee41082228", "fusion_lat": 0.0, "type": "electric_scooter", "lat": 38.89525733333333, "is_reserved": 0, "is_disabled": 0, "fusion_lon": 0.0, "bike_id": "c3e06969238ec7b2496a7fee41082228", "lon": -76.94917083333333, "rental_uris": {"ios": "https://dc.lft.to/lastmile_qr_scan", "android": "https://dc.lft.to/lastmile_qr_scan"}}, {"name": "bbe56fe92b5b9f9f6da049ca412e6740", "fusion_lat": 0.0, "type": "electric_bike", "lat": 39.105639833333335, "is_reserved": 0, "is_disabled": 0, "fusion_lon": 0.0, "bike_id": "bbe56fe92b5b9f9f6da049ca412e6740", "lon": -77.15266066666666, "rental_uris": {"ios": "https://dc.lft.to/lastmile_qr_scan", "android": "https://dc.lft.to/lastmile_qr_scan"}}, {"name": "a3437f442d62fc51182aee541eda48b6", "fusion_lat": 0.0, "type": "electric_scooter", "lat": 38.919818166666666, "is_reserved": 0, "is_disabled": 0, "fusion_lon": 0.0, "bike_id": "a3437f442d62fc51182aee541eda48b6", "lon": -77.03808, "rental_uris": {"ios": "https://dc.lft.to/lastmile_qr_scan", "android": "https://dc.lft.to/lastmile_qr_scan"}}, {"name": "42afd35574c635654a915ad5c701b8e3", "fusion_lat": 0.0, "type": "electric_scooter", "lat": 38.905746666666666, "is_reserved": 0, "is_disabled": 0, "fusion_lon": 0.0, "bike_id": "42afd35574c635654a915ad5c701b8e3", "lon": -77.01424766666666, "rental_uris": {"ios": "https://dc.lft.to/lastmile_qr_scan", "android": "https://dc.lft.to/lastmile_qr_scan"}}, {"name": "ddb40231e67c89262c06e3e8d9c61f3c", "fusion_lat": 0.0, "type": "electric_scooter", "lat": 38.90666566666667, "is_reserved": 0, "is_disabled": 0, "fusion_lon": 0.0, "bike_id": "ddb40231e67c89262c06e3e8d9c61f3c", "lon": -77.027117, "rental_uris": {"ios": "https://dc.lft.to/lastmile_qr_scan", "android": "https://dc.lft.to/lastmile_qr_scan"}}, {"name": "47454a309f08c9c372a948d178c5ed5f", "fusion_lat": 0.0, "type": "electric_scooter", "lat": 38.8962355, "is_reserved": 0, "is_disabled": 0, "fusion_lon": 0.0, "bike_id": "47454a309f08c9c372a948d178c5ed5f", "lon": -77.02363116666666, "rental_uris": {"ios": "https://dc.lft.to/lastmile_qr_scan", "android": "https://dc.lft.to/lastmile_qr_scan"}}, {"name": "ea8f95c316f613e87c9e9c507b892848", "fusion_lat": 0.0, "type": "electric_scooter", "lat": 38.896035166666664, "is_reserved": 0, "is_disabled": 0, "fusion_lon": 0.0, "bike_id": "ea8f95c316f613e87c9e9c507b892848", "lon": -77.04113483333333, "rental_uris": {"ios": "https://dc.lft.to/lastmile_qr_scan", "android": "https://dc.lft.to/lastmile_qr_scan"}}, {"name": "5b804bc43bad52345f77e4dee11180bf", "fusion_lat": 0.0, "type": "electric_scooter", "lat": 38.87643, "is_reserved": 0, "is_disabled": 0, "fusion_lon": 0.0, "bike_id": "5b804bc43bad52345f77e4dee11180bf", "lon": -76.96504866666666, "rental_uris": {"ios": "https://dc.lft.to/lastmile_qr_scan", "android": "https://dc.lft.to/lastmile_qr_scan"}}, {"name": "b3e156c8a5b540c3a695d3ccb24024a0", "fusion_lat": 0.0, "type": "electric_scooter", "lat": 38.9170525, "is_reserved": 0, "is_disabled": 0, "fusion_lon": 0.0, "bike_id": "b3e156c8a5b540c3a695d3ccb24024a0", "lon": -77.03863783333334, "rental_uris": {"ios": "https://dc.lft.to/lastmile_qr_scan", "android": "https://dc.lft.to/lastmile_qr_scan"}}, {"name": "8c99783df8bfaacd8aeb516f64fc1f04", "fusion_lat": 0.0, "type": "electric_bike", "lat": 38.88651433333333, "is_reserved": 0, "is_disabled": 0, "fusion_lon": 0.0, "bike_id": "8c99783df8bfaacd8aeb516f64fc1f04", "lon": -77.16230233333333, "rental_uris": {"ios": "https://dc.lft.to/lastmile_qr_scan", "android": "https://dc.lft.to/lastmile_qr_scan"}}, {"name": "834899064b940a7c4200343a0f855387", "fusion_lat": 0.0, "type": "electric_bike", "lat": 38.922633166666664, "is_reserved": 0, "is_disabled": 0, "fusion_lon": 0.0, "bike_id": "834899064b940a7c4200343a0f855387", "lon": -77.02242933333333, "rental_uris": {"ios": "https://dc.lft.to/lastmile_qr_scan", "android": "https://dc.lft.to/lastmile_qr_scan"}}, {"name": "2c14d4701074d6ea03a89da3b5f27264", "fusion_lat": 0.0, "type": "electric_scooter", "lat": 38.946897666666665, "is_reserved": 0, "is_disabled": 0, "fusion_lon": 0.0, "bike_id": "2c14d4701074d6ea03a89da3b5f27264", "lon": -77.0698835, "rental_uris": {"ios": "https://dc.lft.to/lastmile_qr_scan", "android": "https://dc.lft.to/lastmile_qr_scan"}}, {"name": "3e2266a01c3cb1701c5a3976b331c286", "fusion_lat": 0.0, "type": "electric_scooter", "lat": 38.918146666666665, "is_reserved": 0, "is_disabled": 0, "fusion_lon": 0.0, "bike_id": "3e2266a01c3cb1701c5a3976b331c286", "lon": -77.0400145, "rental_uris": {"ios": "https://dc.lft.to/lastmile_qr_scan", "android": "https://dc.lft.to/lastmile_qr_scan"}}, {"name": "72536ff8b5b98d4da4aeaf08af872696", "fusion_lat": 0.0, "type": "electric_scooter", "lat": 38.909556, "is_reserved": 0, "is_disabled": 0, "fusion_lon": 0.0, "bike_id": "72536ff8b5b98d4da4aeaf08af872696", "lon": -77.02404416666667, "rental_uris": {"ios": "https://dc.lft.to/lastmile_qr_scan", "android": "https://dc.lft.to/lastmile_qr_scan"}}, {"name": "b7674c051d2787675758860b89f418ed", "fusion_lat": 0.0, "type": "electric_scooter", "lat": 38.92025433333333, "is_reserved": 0, "is_disabled": 0, "fusion_lon": 0.0, "bike_id": "b7674c051d2787675758860b89f418ed", "lon": -77.03856366666666, "rental_uris": {"ios": "https://dc.lft.to/lastmile_qr_scan", "android": "https://dc.lft.to/lastmile_qr_scan"}}, {"name": "cb008f3ddd0db89b6165e308f1387416", "fusion_lat": 0.0, "type": "electric_scooter", "lat": 38.92682533333333, "is_reserved": 0, "is_disabled": 0, "fusion_lon": 0.0, "bike_id": "cb008f3ddd0db89b6165e308f1387416", "lon": -77.01572366666667, "rental_uris": {"ios": "https://dc.lft.to/lastmile_qr_scan", "android": "https://dc.lft.to/lastmile_qr_scan"}}, {"name": "9e2a6f64c2cd4f4a855aea5e0d48d1b0", "fusion_lat": 0.0, "type": "electric_scooter", "lat": 38.908786666666664, "is_reserved": 0, "is_disabled": 0, "fusion_lon": 0.0, "bike_id": "9e2a6f64c2cd4f4a855aea5e0d48d1b0", "lon": -77.00576333333333, "rental_uris": {"ios": "https://dc.lft.to/lastmile_qr_scan", "android": "https://dc.lft.to/lastmile_qr_scan"}}, {"name": "553f9d220db4b479474e15b6258fd9f6", "fusion_lat": 0.0, "type": "electric_scooter", "lat": 38.90400966666667, "is_reserved": 0, "is_disabled": 0, "fusion_lon": 0.0, "bike_id": "553f9d220db4b479474e15b6258fd9f6", "lon": -77.06399633333334, "rental_uris": {"ios": "https://dc.lft.to/lastmile_qr_scan", "android": "https://dc.lft.to/lastmile_qr_scan"}}, {"name": "e4ab36d2a8a6e636041c9f0cbf3dd80a", "fusion_lat": 0.0, "type": "electric_scooter", "lat": 38.91494383333333, "is_reserved": 0, "is_disabled": 0, "fusion_lon": 0.0, "bike_id": "e4ab36d2a8a6e636041c9f0cbf3dd80a", "lon": -77.0121855, "rental_uris": {"ios": "https://dc.lft.to/lastmile_qr_scan", "android": "https://dc.lft.to/lastmile_qr_scan"}}, {"name": "fdfa951a43f0cade23559acbf09edbe7", "fusion_lat": 0.0, "type": "electric_scooter", "lat": 38.933334333333335, "is_reserved": 0, "is_disabled": 0, "fusion_lon": 0.0, "bike_id": "fdfa951a43f0cade23559acbf09edbe7", "lon": -77.0274375, "rental_uris": {"ios": "https://dc.lft.to/lastmile_qr_scan", "android": "https://dc.lft.to/lastmile_qr_scan"}}, {"name": "25e006c6d8af4737a3cf8ab9fe6855a0", "fusion_lat": 0.0, "type": "electric_scooter", "lat": 38.8987465, "is_reserved": 0, "is_disabled": 0, "fusion_lon": 0.0, "bike_id": "25e006c6d8af4737a3cf8ab9fe6855a0", "lon": -76.931587, "rental_uris": {"ios": "https://dc.lft.to/lastmile_qr_scan", "android": "https://dc.lft.to/lastmile_qr_scan"}}, {"name": "112bbba5af905343189e46069d6d6d91", "fusion_lat": 0.0, "type": "electric_scooter", "lat": 38.90880633333333, "is_reserved": 0, "is_disabled": 0, "fusion_lon": 0.0, "bike_id": "112bbba5af905343189e46069d6d6d91", "lon": -77.0432235, "rental_uris": {"ios": "https://dc.lft.to/lastmile_qr_scan", "android": "https://dc.lft.to/lastmile_qr_scan"}}, {"name": "cd05a51707644c9b0fbd8888ed389a6e", "fusion_lat": 0.0, "type": "electric_scooter", "lat": 38.930928333333334, "is_reserved": 0, "is_disabled": 0, "fusion_lon": 0.0, "bike_id": "cd05a51707644c9b0fbd8888ed389a6e", "lon": -77.02395783333333, "rental_uris": {"ios": "https://dc.lft.to/lastmile_qr_scan", "android": "https://dc.lft.to/lastmile_qr_scan"}}, {"name": "c90ab6607d80eddb52b0490f40ac45f9", "fusion_lat": 0.0, "type": "electric_scooter", "lat": 38.923819333333334, "is_reserved": 0, "is_disabled": 0, "fusion_lon": 0.0, "bike_id": "c90ab6607d80eddb52b0490f40ac45f9", "lon": -77.02978733333333, "rental_uris": {"ios": "https://dc.lft.to/lastmile_qr_scan", "android": "https://dc.lft.to/lastmile_qr_scan"}}, {"name": "20f9458c54ea30b12aeba7cd3796897a", "fusion_lat": 0.0, "type": "electric_scooter", "lat": 38.903123666666666, "is_reserved": 0, "is_disabled": 0, "fusion_lon": 0.0, "bike_id": "20f9458c54ea30b12aeba7cd3796897a", "lon": -76.98249366666667, "rental_uris": {"ios": "https://dc.lft.to/lastmile_qr_scan", "android": "https://dc.lft.to/lastmile_qr_scan"}}, {"name": "091a1d9d037ba64bc63cdfe8befa8b4d", "fusion_lat": 0.0, "type": "electric_scooter", "lat": 38.86153916666667, "is_reserved": 0, "is_disabled": 0, "fusion_lon": 0.0, "bike_id": "091a1d9d037ba64bc63cdfe8befa8b4d", "lon": -76.98901933333333, "rental_uris": {"ios": "https://dc.lft.to/lastmile_qr_scan", "android": "https://dc.lft.to/lastmile_qr_scan"}}, {"name": "0387c3924bb9c3c6d12feee9530b0f06", "fusion_lat": 0.0, "type": "electric_scooter", "lat": 38.90202983333333, "is_reserved": 0, "is_disabled": 0, "fusion_lon": 0.0, "bike_id": "0387c3924bb9c3c6d12feee9530b0f06", "lon": -77.02171833333334, "rental_uris": {"ios": "https://dc.lft.to/lastmile_qr_scan", "android": "https://dc.lft.to/lastmile_qr_scan"}}, {"name": "71a9e1f9ef1668dbf004fb306af0138b", "fusion_lat": 0.0, "type": "electric_scooter", "lat": 38.92593016666667, "is_reserved": 0, "is_disabled": 0, "fusion_lon": 0.0, "bike_id": "71a9e1f9ef1668dbf004fb306af0138b", "lon": -77.02497583333333, "rental_uris": {"ios": "https://dc.lft.to/lastmile_qr_scan", "android": "https://dc.lft.to/lastmile_qr_scan"}}, {"name": "17bf48027b38259d4d0aaf3c167d7a1d", "fusion_lat": 0.0, "type": "electric_scooter", "lat": 38.923474666666664, "is_reserved": 0, "is_disabled": 0, "fusion_lon": 0.0, "bike_id": "17bf48027b38259d4d0aaf3c167d7a1d", "lon": -77.03540633333333, "rental_uris": {"ios": "https://dc.lft.to/lastmile_qr_scan", "android": "https://dc.lft.to/lastmile_qr_scan"}}, {"name": "e1bbc0b909ab9d3c8089ea48f1097ecb", "fusion_lat": 0.0, "type": "electric_scooter", "lat": 38.90511566666667, "is_reserved": 0, "is_disabled": 0, "fusion_lon": 0.0, "bike_id": "e1bbc0b909ab9d3c8089ea48f1097ecb", "lon": -77.068786, "rental_uris": {"ios": "https://dc.lft.to/lastmile_qr_scan", "android": "https://dc.lft.to/lastmile_qr_scan"}}, {"name": "f6247bea18ed66cc877bb0eef481973a", "fusion_lat": 0.0, "type": "electric_scooter", "lat": 38.911214666666666, "is_reserved": 0, "is_disabled": 0, "fusion_lon": 0.0, "bike_id": "f6247bea18ed66cc877bb0eef481973a", "lon": -77.0477155, "rental_uris": {"ios": "https://dc.lft.to/lastmile_qr_scan", "android": "https://dc.lft.to/lastmile_qr_scan"}}, {"name": "8622697bb0c66d4934954d6207d434bb", "fusion_lat": 0.0, "type": "electric_scooter", "lat": 38.92702633333333, "is_reserved": 0, "is_disabled": 0, "fusion_lon": 0.0, "bike_id": "8622697bb0c66d4934954d6207d434bb", "lon": -77.03727583333334, "rental_uris": {"ios": "https://dc.lft.to/lastmile_qr_scan", "android": "https://dc.lft.to/lastmile_qr_scan"}}, {"name": "a92ed7d26605bd01fdfa6de55c5fb604", "fusion_lat": 0.0, "type": "electric_scooter", "lat": 38.91256033333333, "is_reserved": 0, "is_disabled": 0, "fusion_lon": 0.0, "bike_id": "a92ed7d26605bd01fdfa6de55c5fb604", "lon": -77.03865483333334, "rental_uris": {"ios": "https://dc.lft.to/lastmile_qr_scan", "android": "https://dc.lft.to/lastmile_qr_scan"}}, {"name": "e0d095040c167b1c74b55e5f2d6649b9", "fusion_lat": 0.0, "type": "electric_bike", "lat": 38.8531545, "is_reserved": 0, "is_disabled": 0, "fusion_lon": 0.0, "bike_id": "e0d095040c167b1c74b55e5f2d6649b9", "lon": -76.980067, "rental_uris": {"ios": "https://dc.lft.to/lastmile_qr_scan", "android": "https://dc.lft.to/lastmile_qr_scan"}}, {"name": "2fc4366ec5889a6153f66422f0e46011", "fusion_lat": 0.0, "type": "electric_scooter", "lat": 38.90024116666667, "is_reserved": 0, "is_disabled": 0, "fusion_lon": 0.0, "bike_id": "2fc4366ec5889a6153f66422f0e46011", "lon": -76.99856633333333, "rental_uris": {"ios": "https://dc.lft.to/lastmile_qr_scan", "android": "https://dc.lft.to/lastmile_qr_scan"}}, {"name": "4c3cfcb7ef96dd5cf82a04cf9e2bba19", "fusion_lat": 0.0, "type": "electric_scooter", "lat": 38.93105666666666, "is_reserved": 0, "is_disabled": 0, "fusion_lon": 0.0, "bike_id": "4c3cfcb7ef96dd5cf82a04cf9e2bba19", "lon": -77.0351145, "rental_uris": {"ios": "https://dc.lft.to/lastmile_qr_scan", "android": "https://dc.lft.to/lastmile_qr_scan"}}, {"name": "2bcf8877eb89c99dfebbccf3a936bb3c", "fusion_lat": 0.0, "type": "electric_scooter", "lat": 38.885055666666666, "is_reserved": 0, "is_disabled": 0, "fusion_lon": 0.0, "bike_id": "2bcf8877eb89c99dfebbccf3a936bb3c", "lon": -77.005693, "rental_uris": {"ios": "https://dc.lft.to/lastmile_qr_scan", "android": "https://dc.lft.to/lastmile_qr_scan"}}, {"name": "e7ba28012a9c79df42a457851a4604a7", "fusion_lat": 0.0, "type": "electric_scooter", "lat": 38.92768616666667, "is_reserved": 0, "is_disabled": 0, "fusion_lon": 0.0, "bike_id": "e7ba28012a9c79df42a457851a4604a7", "lon": -77.0278465, "rental_uris": {"ios": "https://dc.lft.to/lastmile_qr_scan", "android": "https://dc.lft.to/lastmile_qr_scan"}}, {"name": "bcc230706e5fc0e1f5b521a3d9303d77", "fusion_lat": 0.0, "type": "electric_scooter", "lat": 38.8954245, "is_reserved": 0, "is_disabled": 0, "fusion_lon": 0.0, "bike_id": "bcc230706e5fc0e1f5b521a3d9303d77", "lon": -76.9487485, "rental_uris": {"ios": "https://dc.lft.to/lastmile_qr_scan", "android": "https://dc.lft.to/lastmile_qr_scan"}}, {"name": "57eabb52422febc1d63ac59a6e548302", "fusion_lat": 0.0, "type": "electric_scooter", "lat": 38.89551633333333, "is_reserved": 0, "is_disabled": 0, "fusion_lon": 0.0, "bike_id": "57eabb52422febc1d63ac59a6e548302", "lon": -76.98374283333334, "rental_uris": {"ios": "https://dc.lft.to/lastmile_qr_scan", "android": "https://dc.lft.to/lastmile_qr_scan"}}, {"name": "fa224b972f4be27497c98bb679d76aae", "fusion_lat": 0.0, "type": "electric_scooter", "lat": 38.9005415, "is_reserved": 0, "is_disabled": 0, "fusion_lon": 0.0, "bike_id": "fa224b972f4be27497c98bb679d76aae", "lon": -76.94758916666666, "rental_uris": {"ios": "https://dc.lft.to/lastmile_qr_scan", "android": "https://dc.lft.to/lastmile_qr_scan"}}, {"name": "29b6736c936cbcdaef88d8b614c9de5d", "fusion_lat": 0.0, "type": "electric_bike", "lat": 38.85219016666667, "is_reserved": 0, "is_disabled": 0, "fusion_lon": 0.0, "bike_id": "29b6736c936cbcdaef88d8b614c9de5d", "lon": -77.129611, "rental_uris": {"ios": "https://dc.lft.to/lastmile_qr_scan", "android": "https://dc.lft.to/lastmile_qr_scan"}}, {"name": "6cc7abf0823fe20718fa31c26fcb81aa", "fusion_lat": 0.0, "type": "electric_scooter", "lat": 38.90675616666667, "is_reserved": 0, "is_disabled": 0, "fusion_lon": 0.0, "bike_id": "6cc7abf0823fe20718fa31c26fcb81aa", "lon": -77.03840933333333, "rental_uris": {"ios": "https://dc.lft.to/lastmile_qr_scan", "android": "https://dc.lft.to/lastmile_qr_scan"}}, {"name": "4dda41ad8680732cac02d462189c5af0", "fusion_lat": 0.0, "type": "electric_bike", "lat": 38.98453083333333, "is_reserved": 0, "is_disabled": 0, "fusion_lon": 0.0, "bike_id": "4dda41ad8680732cac02d462189c5af0", "lon": -76.9552315, "rental_uris": {"ios": "https://dc.lft.to/lastmile_qr_scan", "android": "https://dc.lft.to/lastmile_qr_scan"}}, {"name": "f7680720d9e7fbbf24cf256c94d2e232", "fusion_lat": 0.0, "type": "electric_scooter", "lat": 38.893877833333335, "is_reserved": 0, "is_disabled": 0, "fusion_lon": 0.0, "bike_id": "f7680720d9e7fbbf24cf256c94d2e232", "lon": -77.05474683333334, "rental_uris": {"ios": "https://dc.lft.to/lastmile_qr_scan", "android": "https://dc.lft.to/lastmile_qr_scan"}}, {"name": "3219a3f37e28d7a977d71de14f55cc71", "fusion_lat": 0.0, "type": "electric_scooter", "lat": 38.900344, "is_reserved": 0, "is_disabled": 0, "fusion_lon": 0.0, "bike_id": "3219a3f37e28d7a977d71de14f55cc71", "lon": -77.00193633333333, "rental_uris": {"ios": "https://dc.lft.to/lastmile_qr_scan", "android": "https://dc.lft.to/lastmile_qr_scan"}}, {"name": "0def0774b497fc1d991fc183a2501cf4", "fusion_lat": 0.0, "type": "electric_scooter", "lat": 38.930536833333335, "is_reserved": 0, "is_disabled": 0, "fusion_lon": 0.0, "bike_id": "0def0774b497fc1d991fc183a2501cf4", "lon": -77.02321166666667, "rental_uris": {"ios": "https://dc.lft.to/lastmile_qr_scan", "android": "https://dc.lft.to/lastmile_qr_scan"}}, {"name": "a679122640d29619c315c0e36c7880d6", "fusion_lat": 0.0, "type": "electric_scooter", "lat": 38.88509833333333, "is_reserved": 0, "is_disabled": 0, "fusion_lon": 0.0, "bike_id": "a679122640d29619c315c0e36c7880d6", "lon": -77.03352616666666, "rental_uris": {"ios": "https://dc.lft.to/lastmile_qr_scan", "android": "https://dc.lft.to/lastmile_qr_scan"}}, {"name": "b3704e8c3d81db96707b2cbbc74c3f84", "fusion_lat": 0.0, "type": "electric_bike", "lat": 38.865973333333336, "is_reserved": 0, "is_disabled": 0, "fusion_lon": 0.0, "bike_id": "b3704e8c3d81db96707b2cbbc74c3f84", "lon": -76.93229133333334, "rental_uris": {"ios": "https://dc.lft.to/lastmile_qr_scan", "android": "https://dc.lft.to/lastmile_qr_scan"}}, {"name": "f1469e30df2d32929976551fe1317333", "fusion_lat": 0.0, "type": "electric_scooter", "lat": 38.880388333333336, "is_reserved": 0, "is_disabled": 0, "fusion_lon": 0.0, "bike_id": "f1469e30df2d32929976551fe1317333", "lon": -76.959874, "rental_uris": {"ios": "https://dc.lft.to/lastmile_qr_scan", "android": "https://dc.lft.to/lastmile_qr_scan"}}, {"name": "06aded01e0952d49397377a63bff0f06", "fusion_lat": 0.0, "type": "electric_scooter", "lat": 38.878339833333335, "is_reserved": 0, "is_disabled": 0, "fusion_lon": 0.0, "bike_id": "06aded01e0952d49397377a63bff0f06", "lon": -77.02276983333333, "rental_uris": {"ios": "https://dc.lft.to/lastmile_qr_scan", "android": "https://dc.lft.to/lastmile_qr_scan"}}, {"name": "c23a8c9e37c6b6f1882630ba434a5a66", "fusion_lat": 0.0, "type": "electric_scooter", "lat": 38.939143333333334, "is_reserved": 0, "is_disabled": 0, "fusion_lon": 0.0, "bike_id": "c23a8c9e37c6b6f1882630ba434a5a66", "lon": -77.0366085, "rental_uris": {"ios": "https://dc.lft.to/lastmile_qr_scan", "android": "https://dc.lft.to/lastmile_qr_scan"}}, {"name": "4d3fd0820597e4b28f4c658f2a09e7e0", "fusion_lat": 0.0, "type": "electric_scooter", "lat": 38.91782416666667, "is_reserved": 0, "is_disabled": 0, "fusion_lon": 0.0, "bike_id": "4d3fd0820597e4b28f4c658f2a09e7e0", "lon": -77.02343383333333, "rental_uris": {"ios": "https://dc.lft.to/lastmile_qr_scan", "android": "https://dc.lft.to/lastmile_qr_scan"}}, {"name": "bf4bc1fc7aa66e6c3d07e0a3eb277472", "fusion_lat": 0.0, "type": "electric_scooter", "lat": 38.906589333333336, "is_reserved": 0, "is_disabled": 0, "fusion_lon": 0.0, "bike_id": "bf4bc1fc7aa66e6c3d07e0a3eb277472", "lon": -77.02709433333334, "rental_uris": {"ios": "https://dc.lft.to/lastmile_qr_scan", "android": "https://dc.lft.to/lastmile_qr_scan"}}, {"name": "2ea802e698a526b468c82c3d72e67cf0", "fusion_lat": 0.0, "type": "electric_scooter", "lat": 38.902431, "is_reserved": 0, "is_disabled": 0, "fusion_lon": 0.0, "bike_id": "2ea802e698a526b468c82c3d72e67cf0", "lon": -77.0170455, "rental_uris": {"ios": "https://dc.lft.to/lastmile_qr_scan", "android": "https://dc.lft.to/lastmile_qr_scan"}}, {"name": "8cf398ce2b9c54db96251175791cddea", "fusion_lat": 0.0, "type": "electric_scooter", "lat": 38.94221816666666, "is_reserved": 0, "is_disabled": 0, "fusion_lon": 0.0, "bike_id": "8cf398ce2b9c54db96251175791cddea", "lon": -77.02153616666666, "rental_uris": {"ios": "https://dc.lft.to/lastmile_qr_scan", "android": "https://dc.lft.to/lastmile_qr_scan"}}, {"name": "d8fad818d9e703517b496c3a2dbf88fe", "fusion_lat": 0.0, "type": "electric_scooter", "lat": 38.905182833333335, "is_reserved": 0, "is_disabled": 0, "fusion_lon": 0.0, "bike_id": "d8fad818d9e703517b496c3a2dbf88fe", "lon": -77.04341916666667, "rental_uris": {"ios": "https://dc.lft.to/lastmile_qr_scan", "android": "https://dc.lft.to/lastmile_qr_scan"}}, {"name": "d3f998be1c110e8c0668bb0b8ed3d4be", "fusion_lat": 0.0, "type": "electric_scooter", "lat": 38.89219033333333, "is_reserved": 0, "is_disabled": 0, "fusion_lon": 0.0, "bike_id": "d3f998be1c110e8c0668bb0b8ed3d4be", "lon": -77.02227466666666, "rental_uris": {"ios": "https://dc.lft.to/lastmile_qr_scan", "android": "https://dc.lft.to/lastmile_qr_scan"}}, {"name": "9d6aae586e2f70db645b8cb6f96b20fd", "fusion_lat": 0.0, "type": "electric_scooter", "lat": 38.92177083333333, "is_reserved": 0, "is_disabled": 0, "fusion_lon": 0.0, "bike_id": "9d6aae586e2f70db645b8cb6f96b20fd", "lon": -77.026681, "rental_uris": {"ios": "https://dc.lft.to/lastmile_qr_scan", "android": "https://dc.lft.to/lastmile_qr_scan"}}, {"name": "9c76cf759575b301f7cdb4fdf7dc6535", "fusion_lat": 0.0, "type": "electric_scooter", "lat": 38.875744, "is_reserved": 0, "is_disabled": 0, "fusion_lon": 0.0, "bike_id": "9c76cf759575b301f7cdb4fdf7dc6535", "lon": -77.01056983333334, "rental_uris": {"ios": "https://dc.lft.to/lastmile_qr_scan", "android": "https://dc.lft.to/lastmile_qr_scan"}}, {"name": "5d7ddd8990427c13870f43bf513cab92", "fusion_lat": 0.0, "type": "electric_bike", "lat": 38.942702, "is_reserved": 0, "is_disabled": 0, "fusion_lon": 0.0, "bike_id": "5d7ddd8990427c13870f43bf513cab92", "lon": -76.98072966666666, "rental_uris": {"ios": "https://dc.lft.to/lastmile_qr_scan", "android": "https://dc.lft.to/lastmile_qr_scan"}}, {"name": "c2890c09d5f1568fa65eb4d8409c0baf", "fusion_lat": 0.0, "type": "electric_scooter", "lat": 38.9101085, "is_reserved": 0, "is_disabled": 0, "fusion_lon": 0.0, "bike_id": "c2890c09d5f1568fa65eb4d8409c0baf", "lon": -76.99387316666666, "rental_uris": {"ios": "https://dc.lft.to/lastmile_qr_scan", "android": "https://dc.lft.to/lastmile_qr_scan"}}, {"name": "f385fbd3a38b167f8e38cf5791ee6ade", "fusion_lat": 0.0, "type": "electric_scooter", "lat": 38.898512, "is_reserved": 0, "is_disabled": 0, "fusion_lon": 0.0, "bike_id": "f385fbd3a38b167f8e38cf5791ee6ade", "lon": -77.02370033333334, "rental_uris": {"ios": "https://dc.lft.to/lastmile_qr_scan", "android": "https://dc.lft.to/lastmile_qr_scan"}}, {"name": "c13867e7552914aa2933ea569ca473a1", "fusion_lat": 0.0, "type": "electric_scooter", "lat": 38.91802083333333, "is_reserved": 0, "is_disabled": 0, "fusion_lon": 0.0, "bike_id": "c13867e7552914aa2933ea569ca473a1", "lon": -77.02816183333333, "rental_uris": {"ios": "https://dc.lft.to/lastmile_qr_scan", "android": "https://dc.lft.to/lastmile_qr_scan"}}, {"name": "6a8f43d72556f38f5cf8195b78fa19db", "fusion_lat": 0.0, "type": "electric_bike", "lat": 38.87479033333334, "is_reserved": 0, "is_disabled": 0, "fusion_lon": 0.0, "bike_id": "6a8f43d72556f38f5cf8195b78fa19db", "lon": -76.96522483333334, "rental_uris": {"ios": "https://dc.lft.to/lastmile_qr_scan", "android": "https://dc.lft.to/lastmile_qr_scan"}}, {"name": "4db1389b215b52c3d7c3612d844f08f3", "fusion_lat": 0.0, "type": "electric_scooter", "lat": 38.883624, "is_reserved": 0, "is_disabled": 0, "fusion_lon": 0.0, "bike_id": "4db1389b215b52c3d7c3612d844f08f3", "lon": -77.02615416666667, "rental_uris": {"ios": "https://dc.lft.to/lastmile_qr_scan", "android": "https://dc.lft.to/lastmile_qr_scan"}}, {"name": "04a6d6b1a7b48d4d3043bc14bd6d095f", "fusion_lat": 0.0, "type": "electric_scooter", "lat": 38.92058333333333, "is_reserved": 0, "is_disabled": 0, "fusion_lon": 0.0, "bike_id": "04a6d6b1a7b48d4d3043bc14bd6d095f", "lon": -77.04251333333333, "rental_uris": {"ios": "https://dc.lft.to/lastmile_qr_scan", "android": "https://dc.lft.to/lastmile_qr_scan"}}, {"name": "4f3c58bec9473492f18a6f16c433eec8", "fusion_lat": 0.0, "type": "electric_scooter", "lat": 38.927485833333336, "is_reserved": 0, "is_disabled": 0, "fusion_lon": 0.0, "bike_id": "4f3c58bec9473492f18a6f16c433eec8", "lon": -77.034738, "rental_uris": {"ios": "https://dc.lft.to/lastmile_qr_scan", "android": "https://dc.lft.to/lastmile_qr_scan"}}, {"name": "936164f215181c8782eb9482e740b097", "fusion_lat": 0.0, "type": "electric_scooter", "lat": 38.900350333333336, "is_reserved": 0, "is_disabled": 0, "fusion_lon": 0.0, "bike_id": "936164f215181c8782eb9482e740b097", "lon": -77.006307, "rental_uris": {"ios": "https://dc.lft.to/lastmile_qr_scan", "android": "https://dc.lft.to/lastmile_qr_scan"}}, {"name": "5c1f24c75dfe0ab01004338f52cbe136", "fusion_lat": 0.0, "type": "electric_scooter", "lat": 38.90699816666667, "is_reserved": 0, "is_disabled": 0, "fusion_lon": 0.0, "bike_id": "5c1f24c75dfe0ab01004338f52cbe136", "lon": -77.0238625, "rental_uris": {"ios": "https://dc.lft.to/lastmile_qr_scan", "android": "https://dc.lft.to/lastmile_qr_scan"}}, {"name": "05543eb3eb32169e41cdb27afcb6aa76", "fusion_lat": 0.0, "type": "electric_scooter", "lat": 38.866589166666664, "is_reserved": 0, "is_disabled": 0, "fusion_lon": 0.0, "bike_id": "05543eb3eb32169e41cdb27afcb6aa76", "lon": -76.9888065, "rental_uris": {"ios": "https://dc.lft.to/lastmile_qr_scan", "android": "https://dc.lft.to/lastmile_qr_scan"}}, {"name": "f2e1538bbe7700ed4aaa670879943583", "fusion_lat": 0.0, "type": "electric_scooter", "lat": 38.88598616666667, "is_reserved": 0, "is_disabled": 0, "fusion_lon": 0.0, "bike_id": "f2e1538bbe7700ed4aaa670879943583", "lon": -77.01968983333333, "rental_uris": {"ios": "https://dc.lft.to/lastmile_qr_scan", "android": "https://dc.lft.to/lastmile_qr_scan"}}, {"name": "26fbf5eedfda6b4341bf9044fd2043f0", "fusion_lat": 0.0, "type": "electric_scooter", "lat": 38.905767166666664, "is_reserved": 0, "is_disabled": 0, "fusion_lon": 0.0, "bike_id": "26fbf5eedfda6b4341bf9044fd2043f0", "lon": -77.022073, "rental_uris": {"ios": "https://dc.lft.to/lastmile_qr_scan", "android": "https://dc.lft.to/lastmile_qr_scan"}}, {"name": "21e66a8e6561c22d9151b51954157f4d", "fusion_lat": 0.0, "type": "electric_scooter", "lat": 38.903225666666664, "is_reserved": 0, "is_disabled": 0, "fusion_lon": 0.0, "bike_id": "21e66a8e6561c22d9151b51954157f4d", "lon": -77.06575666666667, "rental_uris": {"ios": "https://dc.lft.to/lastmile_qr_scan", "android": "https://dc.lft.to/lastmile_qr_scan"}}, {"name": "2ff46a926a34a4268c4fd00317835b71", "fusion_lat": 0.0, "type": "electric_scooter", "lat": 38.93182183333333, "is_reserved": 0, "is_disabled": 0, "fusion_lon": 0.0, "bike_id": "2ff46a926a34a4268c4fd00317835b71", "lon": -77.02832983333333, "rental_uris": {"ios": "https://dc.lft.to/lastmile_qr_scan", "android": "https://dc.lft.to/lastmile_qr_scan"}}, {"name": "a41985a9726e799a523faf78052149f7", "fusion_lat": 0.0, "type": "electric_scooter", "lat": 38.905497, "is_reserved": 0, "is_disabled": 0, "fusion_lon": 0.0, "bike_id": "a41985a9726e799a523faf78052149f7", "lon": -77.034083, "rental_uris": {"ios": "https://dc.lft.to/lastmile_qr_scan", "android": "https://dc.lft.to/lastmile_qr_scan"}}, {"name": "879b608be1b138f1557af7e9014dcc52", "fusion_lat": 0.0, "type": "electric_scooter", "lat": 38.93971366666667, "is_reserved": 0, "is_disabled": 0, "fusion_lon": 0.0, "bike_id": "879b608be1b138f1557af7e9014dcc52", "lon": -77.0355995, "rental_uris": {"ios": "https://dc.lft.to/lastmile_qr_scan", "android": "https://dc.lft.to/lastmile_qr_scan"}}, {"name": "0dfd1be5bd802a5481828978877b79b4", "fusion_lat": 0.0, "type": "electric_scooter", "lat": 38.890460833333336, "is_reserved": 0, "is_disabled": 0, "fusion_lon": 0.0, "bike_id": "0dfd1be5bd802a5481828978877b79b4", "lon": -76.9375015, "rental_uris": {"ios": "https://dc.lft.to/lastmile_qr_scan", "android": "https://dc.lft.to/lastmile_qr_scan"}}, {"name": "2e02bbc238bacb7da20abe3a31848580", "fusion_lat": 0.0, "type": "electric_scooter", "lat": 38.902477166666664, "is_reserved": 0, "is_disabled": 0, "fusion_lon": 0.0, "bike_id": "2e02bbc238bacb7da20abe3a31848580", "lon": -77.033358, "rental_uris": {"ios": "https://dc.lft.to/lastmile_qr_scan", "android": "https://dc.lft.to/lastmile_qr_scan"}}, {"name": "b0594e5b59f81a3a7007df19950792ea", "fusion_lat": 0.0, "type": "electric_scooter", "lat": 38.925240333333335, "is_reserved": 0, "is_disabled": 0, "fusion_lon": 0.0, "bike_id": "b0594e5b59f81a3a7007df19950792ea", "lon": -77.05551833333334, "rental_uris": {"ios": "https://dc.lft.to/lastmile_qr_scan", "android": "https://dc.lft.to/lastmile_qr_scan"}}, {"name": "a0fea1c1111124406dae21ce26f4aefa", "fusion_lat": 0.0, "type": "electric_scooter", "lat": 38.90524716666667, "is_reserved": 0, "is_disabled": 0, "fusion_lon": 0.0, "bike_id": "a0fea1c1111124406dae21ce26f4aefa", "lon": -77.041775, "rental_uris": {"ios": "https://dc.lft.to/lastmile_qr_scan", "android": "https://dc.lft.to/lastmile_qr_scan"}}, {"name": "a7c1b22151a32bd2fd041a5118b75ea9", "fusion_lat": 0.0, "type": "electric_scooter", "lat": 38.887392166666665, "is_reserved": 0, "is_disabled": 0, "fusion_lon": 0.0, "bike_id": "a7c1b22151a32bd2fd041a5118b75ea9", "lon": -77.02134016666666, "rental_uris": {"ios": "https://dc.lft.to/lastmile_qr_scan", "android": "https://dc.lft.to/lastmile_qr_scan"}}, {"name": "add9a2baefd0225718985d2af7069941", "fusion_lat": 0.0, "type": "electric_scooter", "lat": 38.88427683333333, "is_reserved": 0, "is_disabled": 0, "fusion_lon": 0.0, "bike_id": "add9a2baefd0225718985d2af7069941", "lon": -76.957504, "rental_uris": {"ios": "https://dc.lft.to/lastmile_qr_scan", "android": "https://dc.lft.to/lastmile_qr_scan"}}, {"name": "f1645a7e6a8535715e805bd08d2d585a", "fusion_lat": 0.0, "type": "electric_scooter", "lat": 38.89877216666667, "is_reserved": 0, "is_disabled": 0, "fusion_lon": 0.0, "bike_id": "f1645a7e6a8535715e805bd08d2d585a", "lon": -76.9315885, "rental_uris": {"ios": "https://dc.lft.to/lastmile_qr_scan", "android": "https://dc.lft.to/lastmile_qr_scan"}}, {"name": "678831f7ba77f0f5eded34197c47de5e", "fusion_lat": 0.0, "type": "electric_scooter", "lat": 38.911197333333334, "is_reserved": 0, "is_disabled": 0, "fusion_lon": 0.0, "bike_id": "678831f7ba77f0f5eded34197c47de5e", "lon": -76.997333, "rental_uris": {"ios": "https://dc.lft.to/lastmile_qr_scan", "android": "https://dc.lft.to/lastmile_qr_scan"}}, {"name": "2ba840a9bdb61136959dce1c92b4fb7d", "fusion_lat": 0.0, "type": "electric_scooter", "lat": 38.85708733333333, "is_reserved": 0, "is_disabled": 0, "fusion_lon": 0.0, "bike_id": "2ba840a9bdb61136959dce1c92b4fb7d", "lon": -76.98133366666667, "rental_uris": {"ios": "https://dc.lft.to/lastmile_qr_scan", "android": "https://dc.lft.to/lastmile_qr_scan"}}, {"name": "65ef61b545b2159968b98901cd8e2351", "fusion_lat": 0.0, "type": "electric_scooter", "lat": 38.935463666666664, "is_reserved": 0, "is_disabled": 0, "fusion_lon": 0.0, "bike_id": "65ef61b545b2159968b98901cd8e2351", "lon": -77.05980483333333, "rental_uris": {"ios": "https://dc.lft.to/lastmile_qr_scan", "android": "https://dc.lft.to/lastmile_qr_scan"}}, {"name": "9404b78047417728f062fa1b3b8ad492", "fusion_lat": 0.0, "type": "electric_scooter", "lat": 38.92565233333333, "is_reserved": 0, "is_disabled": 0, "fusion_lon": 0.0, "bike_id": "9404b78047417728f062fa1b3b8ad492", "lon": -77.0296155, "rental_uris": {"ios": "https://dc.lft.to/lastmile_qr_scan", "android": "https://dc.lft.to/lastmile_qr_scan"}}, {"name": "d4711b022d9c4382ba41519618624b38", "fusion_lat": 0.0, "type": "electric_scooter", "lat": 38.91485216666667, "is_reserved": 0, "is_disabled": 0, "fusion_lon": 0.0, "bike_id": "d4711b022d9c4382ba41519618624b38", "lon": -77.02182033333334, "rental_uris": {"ios": "https://dc.lft.to/lastmile_qr_scan", "android": "https://dc.lft.to/lastmile_qr_scan"}}, {"name": "c479e3a0675e879e134f1f5e507f1d2a", "fusion_lat": 0.0, "type": "electric_scooter", "lat": 38.903684, "is_reserved": 0, "is_disabled": 0, "fusion_lon": 0.0, "bike_id": "c479e3a0675e879e134f1f5e507f1d2a", "lon": -77.04471566666666, "rental_uris": {"ios": "https://dc.lft.to/lastmile_qr_scan", "android": "https://dc.lft.to/lastmile_qr_scan"}}, {"name": "469ecba6ddf47f65c384afc66a22d741", "fusion_lat": 0.0, "type": "electric_bike", "lat": 38.88634066666667, "is_reserved": 0, "is_disabled": 0, "fusion_lon": 0.0, "bike_id": "469ecba6ddf47f65c384afc66a22d741", "lon": -76.9547245, "rental_uris": {"ios": "https://dc.lft.to/lastmile_qr_scan", "android": "https://dc.lft.to/lastmile_qr_scan"}}, {"name": "f330bb2c99d26b49ea73c41f17493d1f", "fusion_lat": 0.0, "type": "electric_scooter", "lat": 38.89526083333333, "is_reserved": 0, "is_disabled": 0, "fusion_lon": 0.0, "bike_id": "f330bb2c99d26b49ea73c41f17493d1f", "lon": -77.00343833333334, "rental_uris": {"ios": "https://dc.lft.to/lastmile_qr_scan", "android": "https://dc.lft.to/lastmile_qr_scan"}}, {"name": "92a9dba29d0405e016e4692912cbca2d", "fusion_lat": 0.0, "type": "electric_scooter", "lat": 38.93641983333333, "is_reserved": 0, "is_disabled": 0, "fusion_lon": 0.0, "bike_id": "92a9dba29d0405e016e4692912cbca2d", "lon": -77.0345605, "rental_uris": {"ios": "https://dc.lft.to/lastmile_qr_scan", "android": "https://dc.lft.to/lastmile_qr_scan"}}, {"name": "faddce22ed3f3fd0ba98878124398a14", "fusion_lat": 0.0, "type": "electric_scooter", "lat": 38.90198016666667, "is_reserved": 0, "is_disabled": 0, "fusion_lon": 0.0, "bike_id": "faddce22ed3f3fd0ba98878124398a14", "lon": -77.02168483333334, "rental_uris": {"ios": "https://dc.lft.to/lastmile_qr_scan", "android": "https://dc.lft.to/lastmile_qr_scan"}}, {"name": "c9dfcfd2beb8dbf01c541949166db13f", "fusion_lat": 0.0, "type": "electric_scooter", "lat": 38.924757166666666, "is_reserved": 0, "is_disabled": 0, "fusion_lon": 0.0, "bike_id": "c9dfcfd2beb8dbf01c541949166db13f", "lon": -77.02748583333333, "rental_uris": {"ios": "https://dc.lft.to/lastmile_qr_scan", "android": "https://dc.lft.to/lastmile_qr_scan"}}, {"name": "f7e0dea8f0060a60664673fe42482e56", "fusion_lat": 0.0, "type": "electric_scooter", "lat": 38.912628, "is_reserved": 0, "is_disabled": 0, "fusion_lon": 0.0, "bike_id": "f7e0dea8f0060a60664673fe42482e56", "lon": -77.03585416666667, "rental_uris": {"ios": "https://dc.lft.to/lastmile_qr_scan", "android": "https://dc.lft.to/lastmile_qr_scan"}}, {"name": "6412a8f1d7d3f2ee8b75f9732ed6081c", "fusion_lat": 0.0, "type": "electric_scooter", "lat": 38.900313833333335, "is_reserved": 0, "is_disabled": 0, "fusion_lon": 0.0, "bike_id": "6412a8f1d7d3f2ee8b75f9732ed6081c", "lon": -76.98519416666667, "rental_uris": {"ios": "https://dc.lft.to/lastmile_qr_scan", "android": "https://dc.lft.to/lastmile_qr_scan"}}, {"name": "ddf47bc534ed43d56663f46a949805c6", "fusion_lat": 0.0, "type": "electric_bike", "lat": 38.898338833333334, "is_reserved": 0, "is_disabled": 0, "fusion_lon": 0.0, "bike_id": "ddf47bc534ed43d56663f46a949805c6", "lon": -77.11798116666667, "rental_uris": {"ios": "https://dc.lft.to/lastmile_qr_scan", "android": "https://dc.lft.to/lastmile_qr_scan"}}, {"name": "74fe12e9d13d8ee64a2e3354ee8a30ba", "fusion_lat": 0.0, "type": "electric_scooter", "lat": 38.93193516666667, "is_reserved": 0, "is_disabled": 0, "fusion_lon": 0.0, "bike_id": "74fe12e9d13d8ee64a2e3354ee8a30ba", "lon": -77.02765716666667, "rental_uris": {"ios": "https://dc.lft.to/lastmile_qr_scan", "android": "https://dc.lft.to/lastmile_qr_scan"}}, {"name": "180e6de7391ddc8a96801a6b081702c1", "fusion_lat": 0.0, "type": "electric_scooter", "lat": 38.886103, "is_reserved": 0, "is_disabled": 0, "fusion_lon": 0.0, "bike_id": "180e6de7391ddc8a96801a6b081702c1", "lon": -76.97816716666667, "rental_uris": {"ios": "https://dc.lft.to/lastmile_qr_scan", "android": "https://dc.lft.to/lastmile_qr_scan"}}, {"name": "915798eadedc0a312fc2bcc0149aaf8d", "fusion_lat": 0.0, "type": "electric_scooter", "lat": 38.887376333333336, "is_reserved": 0, "is_disabled": 0, "fusion_lon": 0.0, "bike_id": "915798eadedc0a312fc2bcc0149aaf8d", "lon": -77.0153305, "rental_uris": {"ios": "https://dc.lft.to/lastmile_qr_scan", "android": "https://dc.lft.to/lastmile_qr_scan"}}, {"name": "3fb296184369398bff9ba29f095982d3", "fusion_lat": 0.0, "type": "electric_scooter", "lat": 38.91844716666667, "is_reserved": 0, "is_disabled": 0, "fusion_lon": 0.0, "bike_id": "3fb296184369398bff9ba29f095982d3", "lon": -77.00168066666667, "rental_uris": {"ios": "https://dc.lft.to/lastmile_qr_scan", "android": "https://dc.lft.to/lastmile_qr_scan"}}, {"name": "0203655635c5784140682e428eb0705f", "fusion_lat": 0.0, "type": "electric_bike", "lat": 38.9328465, "is_reserved": 0, "is_disabled": 0, "fusion_lon": 0.0, "bike_id": "0203655635c5784140682e428eb0705f", "lon": -76.995092, "rental_uris": {"ios": "https://dc.lft.to/lastmile_qr_scan", "android": "https://dc.lft.to/lastmile_qr_scan"}}, {"name": "8cf7632a546fd45220e3e5f4a0f268c7", "fusion_lat": 0.0, "type": "electric_scooter", "lat": 38.90542133333334, "is_reserved": 0, "is_disabled": 0, "fusion_lon": 0.0, "bike_id": "8cf7632a546fd45220e3e5f4a0f268c7", "lon": -77.06285766666667, "rental_uris": {"ios": "https://dc.lft.to/lastmile_qr_scan", "android": "https://dc.lft.to/lastmile_qr_scan"}}, {"name": "f2240023e184b15a9cddb19cdb825952", "fusion_lat": 0.0, "type": "electric_scooter", "lat": 38.87785066666667, "is_reserved": 0, "is_disabled": 0, "fusion_lon": 0.0, "bike_id": "f2240023e184b15a9cddb19cdb825952", "lon": -76.99408066666666, "rental_uris": {"ios": "https://dc.lft.to/lastmile_qr_scan", "android": "https://dc.lft.to/lastmile_qr_scan"}}, {"name": "22ba8b90b0fcf8bedc6ee10626ab5c69", "fusion_lat": 0.0, "type": "electric_bike", "lat": 39.08858583333333, "is_reserved": 0, "is_disabled": 0, "fusion_lon": 0.0, "bike_id": "22ba8b90b0fcf8bedc6ee10626ab5c69", "lon": -77.17843333333333, "rental_uris": {"ios": "https://dc.lft.to/lastmile_qr_scan", "android": "https://dc.lft.to/lastmile_qr_scan"}}, {"name": "808db7f8f87116158e877ef429c16dc9", "fusion_lat": 0.0, "type": "electric_scooter", "lat": 38.866898, "is_reserved": 0, "is_disabled": 0, "fusion_lon": 0.0, "bike_id": "808db7f8f87116158e877ef429c16dc9", "lon": -76.9890375, "rental_uris": {"ios": "https://dc.lft.to/lastmile_qr_scan", "android": "https://dc.lft.to/lastmile_qr_scan"}}, {"name": "b29f4f1be1adcd8fe23cf3dd1e10c986", "fusion_lat": 0.0, "type": "electric_scooter", "lat": 38.87661, "is_reserved": 0, "is_disabled": 0, "fusion_lon": 0.0, "bike_id": "b29f4f1be1adcd8fe23cf3dd1e10c986", "lon": -77.000676, "rental_uris": {"ios": "https://dc.lft.to/lastmile_qr_scan", "android": "https://dc.lft.to/lastmile_qr_scan"}}, {"name": "22921bfea12c52565fc753e69d83b6c2", "fusion_lat": 0.0, "type": "electric_scooter", "lat": 38.90672633333333, "is_reserved": 0, "is_disabled": 0, "fusion_lon": 0.0, "bike_id": "22921bfea12c52565fc753e69d83b6c2", "lon": -77.03839, "rental_uris": {"ios": "https://dc.lft.to/lastmile_qr_scan", "android": "https://dc.lft.to/lastmile_qr_scan"}}, {"name": "64f55a2ef78c6204be50ad522a18ae4b", "fusion_lat": 0.0, "type": "electric_scooter", "lat": 38.90271383333334, "is_reserved": 0, "is_disabled": 0, "fusion_lon": 0.0, "bike_id": "64f55a2ef78c6204be50ad522a18ae4b", "lon": -76.98709233333334, "rental_uris": {"ios": "https://dc.lft.to/lastmile_qr_scan", "android": "https://dc.lft.to/lastmile_qr_scan"}}, {"name": "75cdf4b166673cd98f10d5a1a2677e99", "fusion_lat": 0.0, "type": "electric_scooter", "lat": 38.91129816666667, "is_reserved": 0, "is_disabled": 0, "fusion_lon": 0.0, "bike_id": "75cdf4b166673cd98f10d5a1a2677e99", "lon": -77.038344, "rental_uris": {"ios": "https://dc.lft.to/lastmile_qr_scan", "android": "https://dc.lft.to/lastmile_qr_scan"}}, {"name": "f215dabf283e35e369439559e4844f06", "fusion_lat": 0.0, "type": "electric_scooter", "lat": 38.8653325, "is_reserved": 0, "is_disabled": 0, "fusion_lon": 0.0, "bike_id": "f215dabf283e35e369439559e4844f06", "lon": -76.98707516666667, "rental_uris": {"ios": "https://dc.lft.to/lastmile_qr_scan", "android": "https://dc.lft.to/lastmile_qr_scan"}}, {"name": "8a7eb61f99500c9e5ece875832c947a4", "fusion_lat": 0.0, "type": "electric_scooter", "lat": 38.9039605, "is_reserved": 0, "is_disabled": 0, "fusion_lon": 0.0, "bike_id": "8a7eb61f99500c9e5ece875832c947a4", "lon": -77.02199183333333, "rental_uris": {"ios": "https://dc.lft.to/lastmile_qr_scan", "android": "https://dc.lft.to/lastmile_qr_scan"}}, {"name": "4047ef43cfcb2a89bf6518a83e9d5b24", "fusion_lat": 0.0, "type": "electric_bike", "lat": 39.0531635, "is_reserved": 0, "is_disabled": 0, "fusion_lon": 0.0, "bike_id": "4047ef43cfcb2a89bf6518a83e9d5b24", "lon": -77.047701, "rental_uris": {"ios": "https://dc.lft.to/lastmile_qr_scan", "android": "https://dc.lft.to/lastmile_qr_scan"}}, {"name": "4d1f8fe208eb48be34759558db7001b5", "fusion_lat": 0.0, "type": "electric_bike", "lat": 38.93518066666667, "is_reserved": 0, "is_disabled": 0, "fusion_lon": 0.0, "bike_id": "4d1f8fe208eb48be34759558db7001b5", "lon": -76.950622, "rental_uris": {"ios": "https://dc.lft.to/lastmile_qr_scan", "android": "https://dc.lft.to/lastmile_qr_scan"}}, {"name": "9401e972dc9a4ab3688f785b99ff89a7", "fusion_lat": 0.0, "type": "electric_bike", "lat": 38.92850383333333, "is_reserved": 0, "is_disabled": 0, "fusion_lon": 0.0, "bike_id": "9401e972dc9a4ab3688f785b99ff89a7", "lon": -77.22221683333333, "rental_uris": {"ios": "https://dc.lft.to/lastmile_qr_scan", "android": "https://dc.lft.to/lastmile_qr_scan"}}, {"name": "74d9205920e797f58d609e0c230be3b6", "fusion_lat": 0.0, "type": "electric_scooter", "lat": 38.9057005, "is_reserved": 0, "is_disabled": 0, "fusion_lon": 0.0, "bike_id": "74d9205920e797f58d609e0c230be3b6", "lon": -77.0221375, "rental_uris": {"ios": "https://dc.lft.to/lastmile_qr_scan", "android": "https://dc.lft.to/lastmile_qr_scan"}}, {"name": "d0c2a29429f0225eec4f9361e90ea15e", "fusion_lat": 0.0, "type": "electric_scooter", "lat": 38.92879933333333, "is_reserved": 0, "is_disabled": 0, "fusion_lon": 0.0, "bike_id": "d0c2a29429f0225eec4f9361e90ea15e", "lon": -77.02310766666666, "rental_uris": {"ios": "https://dc.lft.to/lastmile_qr_scan", "android": "https://dc.lft.to/lastmile_qr_scan"}}, {"name": "50dddc558c9ffb3b09705bb46a329f2f", "fusion_lat": 0.0, "type": "electric_scooter", "lat": 38.90544833333333, "is_reserved": 0, "is_disabled": 0, "fusion_lon": 0.0, "bike_id": "50dddc558c9ffb3b09705bb46a329f2f", "lon": -77.047325, "rental_uris": {"ios": "https://dc.lft.to/lastmile_qr_scan", "android": "https://dc.lft.to/lastmile_qr_scan"}}, {"name": "5e23e4526ca0996ea461f320b7f9287e", "fusion_lat": 0.0, "type": "electric_scooter", "lat": 38.92636433333333, "is_reserved": 0, "is_disabled": 0, "fusion_lon": 0.0, "bike_id": "5e23e4526ca0996ea461f320b7f9287e", "lon": -77.03695433333333, "rental_uris": {"ios": "https://dc.lft.to/lastmile_qr_scan", "android": "https://dc.lft.to/lastmile_qr_scan"}}, {"name": "8f7031e78704c4693003502fff256d9c", "fusion_lat": 0.0, "type": "electric_scooter", "lat": 38.90955316666667, "is_reserved": 0, "is_disabled": 0, "fusion_lon": 0.0, "bike_id": "8f7031e78704c4693003502fff256d9c", "lon": -77.03887583333334, "rental_uris": {"ios": "https://dc.lft.to/lastmile_qr_scan", "android": "https://dc.lft.to/lastmile_qr_scan"}}, {"name": "c722fba168f66252005d92366e6b1209", "fusion_lat": 0.0, "type": "electric_scooter", "lat": 38.89896433333333, "is_reserved": 0, "is_disabled": 0, "fusion_lon": 0.0, "bike_id": "c722fba168f66252005d92366e6b1209", "lon": -77.02167233333333, "rental_uris": {"ios": "https://dc.lft.to/lastmile_qr_scan", "android": "https://dc.lft.to/lastmile_qr_scan"}}, {"name": "5d561b6c161058b1c54f49b716b52c61", "fusion_lat": 0.0, "type": "electric_scooter", "lat": 38.93496716666667, "is_reserved": 0, "is_disabled": 0, "fusion_lon": 0.0, "bike_id": "5d561b6c161058b1c54f49b716b52c61", "lon": -77.02542083333333, "rental_uris": {"ios": "https://dc.lft.to/lastmile_qr_scan", "android": "https://dc.lft.to/lastmile_qr_scan"}}, {"name": "adbca5751028be920a9f69714d379e88", "fusion_lat": 0.0, "type": "electric_scooter", "lat": 38.921096166666665, "is_reserved": 0, "is_disabled": 0, "fusion_lon": 0.0, "bike_id": "adbca5751028be920a9f69714d379e88", "lon": -77.043893, "rental_uris": {"ios": "https://dc.lft.to/lastmile_qr_scan", "android": "https://dc.lft.to/lastmile_qr_scan"}}, {"name": "39bfc00b86ffe3c33d228c689aebfdf2", "fusion_lat": 0.0, "type": "electric_scooter", "lat": 38.901996, "is_reserved": 0, "is_disabled": 0, "fusion_lon": 0.0, "bike_id": "39bfc00b86ffe3c33d228c689aebfdf2", "lon": -77.02173183333333, "rental_uris": {"ios": "https://dc.lft.to/lastmile_qr_scan", "android": "https://dc.lft.to/lastmile_qr_scan"}}, {"name": "28046574166cc5532bd5a96c5c7bd9c9", "fusion_lat": 0.0, "type": "electric_scooter", "lat": 38.889132833333335, "is_reserved": 0, "is_disabled": 0, "fusion_lon": 0.0, "bike_id": "28046574166cc5532bd5a96c5c7bd9c9", "lon": -76.95373716666667, "rental_uris": {"ios": "https://dc.lft.to/lastmile_qr_scan", "android": "https://dc.lft.to/lastmile_qr_scan"}}, {"name": "123928ede0c685cd361d0c7764cca2db", "fusion_lat": 0.0, "type": "electric_scooter", "lat": 38.90696483333333, "is_reserved": 0, "is_disabled": 0, "fusion_lon": 0.0, "bike_id": "123928ede0c685cd361d0c7764cca2db", "lon": -77.0238055, "rental_uris": {"ios": "https://dc.lft.to/lastmile_qr_scan", "android": "https://dc.lft.to/lastmile_qr_scan"}}, {"name": "43869e4ea168c6a5b93846b2fdaef9cf", "fusion_lat": 0.0, "type": "electric_scooter", "lat": 38.93267133333333, "is_reserved": 0, "is_disabled": 0, "fusion_lon": 0.0, "bike_id": "43869e4ea168c6a5b93846b2fdaef9cf", "lon": -77.03895616666667, "rental_uris": {"ios": "https://dc.lft.to/lastmile_qr_scan", "android": "https://dc.lft.to/lastmile_qr_scan"}}, {"name": "5f0bf586394d0a81d519cd67dc90e936", "fusion_lat": 0.0, "type": "electric_scooter", "lat": 38.91271866666666, "is_reserved": 0, "is_disabled": 0, "fusion_lon": 0.0, "bike_id": "5f0bf586394d0a81d519cd67dc90e936", "lon": -77.03873533333334, "rental_uris": {"ios": "https://dc.lft.to/lastmile_qr_scan", "android": "https://dc.lft.to/lastmile_qr_scan"}}, {"name": "e279cf22dbd89556bc97558727ef66cf", "fusion_lat": 0.0, "type": "electric_scooter", "lat": 38.8873415, "is_reserved": 0, "is_disabled": 0, "fusion_lon": 0.0, "bike_id": "e279cf22dbd89556bc97558727ef66cf", "lon": -76.9964485, "rental_uris": {"ios": "https://dc.lft.to/lastmile_qr_scan", "android": "https://dc.lft.to/lastmile_qr_scan"}}, {"name": "d139f0331de06bb70fbe8d327fbe2e97", "fusion_lat": 0.0, "type": "electric_scooter", "lat": 38.916494666666665, "is_reserved": 0, "is_disabled": 0, "fusion_lon": 0.0, "bike_id": "d139f0331de06bb70fbe8d327fbe2e97", "lon": -77.03190433333333, "rental_uris": {"ios": "https://dc.lft.to/lastmile_qr_scan", "android": "https://dc.lft.to/lastmile_qr_scan"}}, {"name": "fc6315c610daf8b2ef2576e5a5084490", "fusion_lat": 0.0, "type": "electric_scooter", "lat": 38.91661333333333, "is_reserved": 0, "is_disabled": 0, "fusion_lon": 0.0, "bike_id": "fc6315c610daf8b2ef2576e5a5084490", "lon": -77.0370385, "rental_uris": {"ios": "https://dc.lft.to/lastmile_qr_scan", "android": "https://dc.lft.to/lastmile_qr_scan"}}, {"name": "f8b394da8a236c092d6ae83c8d5cd627", "fusion_lat": 0.0, "type": "electric_scooter", "lat": 38.93611083333333, "is_reserved": 0, "is_disabled": 0, "fusion_lon": 0.0, "bike_id": "f8b394da8a236c092d6ae83c8d5cd627", "lon": -77.03210566666667, "rental_uris": {"ios": "https://dc.lft.to/lastmile_qr_scan", "android": "https://dc.lft.to/lastmile_qr_scan"}}, {"name": "8f4233479f85c601b36ca5f12c6b0f10", "fusion_lat": 0.0, "type": "electric_scooter", "lat": 38.911664333333334, "is_reserved": 0, "is_disabled": 0, "fusion_lon": 0.0, "bike_id": "8f4233479f85c601b36ca5f12c6b0f10", "lon": -77.0112605, "rental_uris": {"ios": "https://dc.lft.to/lastmile_qr_scan", "android": "https://dc.lft.to/lastmile_qr_scan"}}, {"name": "9a65ab09b237a86b252536e09e62aa0b", "fusion_lat": 0.0, "type": "electric_scooter", "lat": 38.887611666666665, "is_reserved": 0, "is_disabled": 0, "fusion_lon": 0.0, "bike_id": "9a65ab09b237a86b252536e09e62aa0b", "lon": -76.955996, "rental_uris": {"ios": "https://dc.lft.to/lastmile_qr_scan", "android": "https://dc.lft.to/lastmile_qr_scan"}}, {"name": "9b4bfa7a805e428f02c64a82623f16dc", "fusion_lat": 0.0, "type": "electric_scooter", "lat": 38.93586116666667, "is_reserved": 0, "is_disabled": 0, "fusion_lon": 0.0, "bike_id": "9b4bfa7a805e428f02c64a82623f16dc", "lon": -76.99111166666667, "rental_uris": {"ios": "https://dc.lft.to/lastmile_qr_scan", "android": "https://dc.lft.to/lastmile_qr_scan"}}, {"name": "74e59451fe0080db357dc00bc6f5afc5", "fusion_lat": 0.0, "type": "electric_bike", "lat": 38.9592595, "is_reserved": 0, "is_disabled": 0, "fusion_lon": 0.0, "bike_id": "74e59451fe0080db357dc00bc6f5afc5", "lon": -76.925373, "rental_uris": {"ios": "https://dc.lft.to/lastmile_qr_scan", "android": "https://dc.lft.to/lastmile_qr_scan"}}, {"name": "ee1856daa1d861743ecbcc4fc78ba2b9", "fusion_lat": 0.0, "type": "electric_scooter", "lat": 38.907834333333334, "is_reserved": 0, "is_disabled": 0, "fusion_lon": 0.0, "bike_id": "ee1856daa1d861743ecbcc4fc78ba2b9", "lon": -77.072549, "rental_uris": {"ios": "https://dc.lft.to/lastmile_qr_scan", "android": "https://dc.lft.to/lastmile_qr_scan"}}, {"name": "60ab50e36d86826a620c99bea52c848c", "fusion_lat": 0.0, "type": "electric_scooter", "lat": 38.8987985, "is_reserved": 0, "is_disabled": 0, "fusion_lon": 0.0, "bike_id": "60ab50e36d86826a620c99bea52c848c", "lon": -77.03272116666666, "rental_uris": {"ios": "https://dc.lft.to/lastmile_qr_scan", "android": "https://dc.lft.to/lastmile_qr_scan"}}, {"name": "84d3dd99bbefc0d4151ed623c91a1cf1", "fusion_lat": 0.0, "type": "electric_scooter", "lat": 38.9281925, "is_reserved": 0, "is_disabled": 0, "fusion_lon": 0.0, "bike_id": "84d3dd99bbefc0d4151ed623c91a1cf1", "lon": -77.02262066666667, "rental_uris": {"ios": "https://dc.lft.to/lastmile_qr_scan", "android": "https://dc.lft.to/lastmile_qr_scan"}}, {"name": "37a491590c55d8c8a16eeafe7e5a036d", "fusion_lat": 0.0, "type": "electric_scooter", "lat": 38.895447, "is_reserved": 0, "is_disabled": 0, "fusion_lon": 0.0, "bike_id": "37a491590c55d8c8a16eeafe7e5a036d", "lon": -76.94872433333333, "rental_uris": {"ios": "https://dc.lft.to/lastmile_qr_scan", "android": "https://dc.lft.to/lastmile_qr_scan"}}, {"name": "031436227d4d5762015a3e2072e9d583", "fusion_lat": 0.0, "type": "electric_bike", "lat": 38.9269155, "is_reserved": 0, "is_disabled": 0, "fusion_lon": 0.0, "bike_id": "031436227d4d5762015a3e2072e9d583", "lon": -77.00789566666667, "rental_uris": {"ios": "https://dc.lft.to/lastmile_qr_scan", "android": "https://dc.lft.to/lastmile_qr_scan"}}, {"name": "b79a602b18166aa84fdb2c772e9e0701", "fusion_lat": 0.0, "type": "electric_bike", "lat": 38.93956816666667, "is_reserved": 0, "is_disabled": 0, "fusion_lon": 0.0, "bike_id": "b79a602b18166aa84fdb2c772e9e0701", "lon": -77.3609405, "rental_uris": {"ios": "https://dc.lft.to/lastmile_qr_scan", "android": "https://dc.lft.to/lastmile_qr_scan"}}, {"name": "78eccb52f9d4e968577ebda40e6c0504", "fusion_lat": 0.0, "type": "electric_bike", "lat": 38.8774975, "is_reserved": 0, "is_disabled": 0, "fusion_lon": 0.0, "bike_id": "78eccb52f9d4e968577ebda40e6c0504", "lon": -76.9798805, "rental_uris": {"ios": "https://dc.lft.to/lastmile_qr_scan", "android": "https://dc.lft.to/lastmile_qr_scan"}}, {"name": "53fd538b7d083d3c22a8ab54e1ad2d30", "fusion_lat": 0.0, "type": "electric_scooter", "lat": 38.90386483333333, "is_reserved": 0, "is_disabled": 0, "fusion_lon": 0.0, "bike_id": "53fd538b7d083d3c22a8ab54e1ad2d30", "lon": -77.04507366666667, "rental_uris": {"ios": "https://dc.lft.to/lastmile_qr_scan", "android": "https://dc.lft.to/lastmile_qr_scan"}}, {"name": "3db4ac315ea659c62d772f2fdf5b8979", "fusion_lat": 0.0, "type": "electric_scooter", "lat": 38.91327416666667, "is_reserved": 0, "is_disabled": 0, "fusion_lon": 0.0, "bike_id": "3db4ac315ea659c62d772f2fdf5b8979", "lon": -77.03190266666667, "rental_uris": {"ios": "https://dc.lft.to/lastmile_qr_scan", "android": "https://dc.lft.to/lastmile_qr_scan"}}, {"name": "06185889adccf0f6e4979dcf3385ba94", "fusion_lat": 0.0, "type": "electric_scooter", "lat": 38.93119383333333, "is_reserved": 0, "is_disabled": 0, "fusion_lon": 0.0, "bike_id": "06185889adccf0f6e4979dcf3385ba94", "lon": -77.03861333333333, "rental_uris": {"ios": "https://dc.lft.to/lastmile_qr_scan", "android": "https://dc.lft.to/lastmile_qr_scan"}}, {"name": "a980b5117f9fd15ec6cf661f976ae48a", "fusion_lat": 0.0, "type": "electric_bike", "lat": 38.845926166666665, "is_reserved": 0, "is_disabled": 0, "fusion_lon": 0.0, "bike_id": "a980b5117f9fd15ec6cf661f976ae48a", "lon": -76.96877033333334, "rental_uris": {"ios": "https://dc.lft.to/lastmile_qr_scan", "android": "https://dc.lft.to/lastmile_qr_scan"}}, {"name": "718ef6dfaf977768a8ad3f90f1176217", "fusion_lat": 0.0, "type": "electric_scooter", "lat": 38.908202333333335, "is_reserved": 0, "is_disabled": 0, "fusion_lon": 0.0, "bike_id": "718ef6dfaf977768a8ad3f90f1176217", "lon": -77.03913016666667, "rental_uris": {"ios": "https://dc.lft.to/lastmile_qr_scan", "android": "https://dc.lft.to/lastmile_qr_scan"}}, {"name": "c083a6cd997458bca9e4baea62f5d1b8", "fusion_lat": 0.0, "type": "electric_scooter", "lat": 38.909581, "is_reserved": 0, "is_disabled": 0, "fusion_lon": 0.0, "bike_id": "c083a6cd997458bca9e4baea62f5d1b8", "lon": -77.0342755, "rental_uris": {"ios": "https://dc.lft.to/lastmile_qr_scan", "android": "https://dc.lft.to/lastmile_qr_scan"}}, {"name": "62deb6fd2922127534247c54f2f74d58", "fusion_lat": 0.0, "type": "electric_scooter", "lat": 38.900302, "is_reserved": 0, "is_disabled": 0, "fusion_lon": 0.0, "bike_id": "62deb6fd2922127534247c54f2f74d58", "lon": -77.053353, "rental_uris": {"ios": "https://dc.lft.to/lastmile_qr_scan", "android": "https://dc.lft.to/lastmile_qr_scan"}}, {"name": "a62ece8cd462077bb74d4bed4c8e42b8", "fusion_lat": 0.0, "type": "electric_scooter", "lat": 38.9233955, "is_reserved": 0, "is_disabled": 0, "fusion_lon": 0.0, "bike_id": "a62ece8cd462077bb74d4bed4c8e42b8", "lon": -77.0511795, "rental_uris": {"ios": "https://dc.lft.to/lastmile_qr_scan", "android": "https://dc.lft.to/lastmile_qr_scan"}}, {"name": "660a89031d5d33206b01ccad74d550e7", "fusion_lat": 0.0, "type": "electric_scooter", "lat": 38.911159833333336, "is_reserved": 0, "is_disabled": 0, "fusion_lon": 0.0, "bike_id": "660a89031d5d33206b01ccad74d550e7", "lon": -77.0446445, "rental_uris": {"ios": "https://dc.lft.to/lastmile_qr_scan", "android": "https://dc.lft.to/lastmile_qr_scan"}}, {"name": "89f0d4ca22341e216c2b2868e90fa2b3", "fusion_lat": 0.0, "type": "electric_scooter", "lat": 38.87080983333333, "is_reserved": 0, "is_disabled": 0, "fusion_lon": 0.0, "bike_id": "89f0d4ca22341e216c2b2868e90fa2b3", "lon": -77.01379166666666, "rental_uris": {"ios": "https://dc.lft.to/lastmile_qr_scan", "android": "https://dc.lft.to/lastmile_qr_scan"}}, {"name": "6ffb845cd297c9269773720f418b9c27", "fusion_lat": 0.0, "type": "electric_scooter", "lat": 38.89356566666667, "is_reserved": 0, "is_disabled": 0, "fusion_lon": 0.0, "bike_id": "6ffb845cd297c9269773720f418b9c27", "lon": -77.00337933333333, "rental_uris": {"ios": "https://dc.lft.to/lastmile_qr_scan", "android": "https://dc.lft.to/lastmile_qr_scan"}}, {"name": "28f1c925c79a1a9ee7e4bad394c116af", "fusion_lat": 0.0, "type": "electric_scooter", "lat": 38.911160333333335, "is_reserved": 0, "is_disabled": 0, "fusion_lon": 0.0, "bike_id": "28f1c925c79a1a9ee7e4bad394c116af", "lon": -77.043662, "rental_uris": {"ios": "https://dc.lft.to/lastmile_qr_scan", "android": "https://dc.lft.to/lastmile_qr_scan"}}, {"name": "d825646dd55ed3c31874e32d728ccdb0", "fusion_lat": 0.0, "type": "electric_scooter", "lat": 38.89222866666667, "is_reserved": 0, "is_disabled": 0, "fusion_lon": 0.0, "bike_id": "d825646dd55ed3c31874e32d728ccdb0", "lon": -77.03017516666667, "rental_uris": {"ios": "https://dc.lft.to/lastmile_qr_scan", "android": "https://dc.lft.to/lastmile_qr_scan"}}, {"name": "748a5e2795e5b746e637af6192a93c40", "fusion_lat": 0.0, "type": "electric_scooter", "lat": 38.91818033333333, "is_reserved": 0, "is_disabled": 0, "fusion_lon": 0.0, "bike_id": "748a5e2795e5b746e637af6192a93c40", "lon": -77.040046, "rental_uris": {"ios": "https://dc.lft.to/lastmile_qr_scan", "android": "https://dc.lft.to/lastmile_qr_scan"}}, {"name": "3ff5652fa0bfeb24d62a4e449a486e0a", "fusion_lat": 0.0, "type": "electric_scooter", "lat": 38.90901933333333, "is_reserved": 0, "is_disabled": 0, "fusion_lon": 0.0, "bike_id": "3ff5652fa0bfeb24d62a4e449a486e0a", "lon": -77.02712333333334, "rental_uris": {"ios": "https://dc.lft.to/lastmile_qr_scan", "android": "https://dc.lft.to/lastmile_qr_scan"}}, {"name": "d59d37eb4a5eb7171312f53f4099cd4e", "fusion_lat": 0.0, "type": "electric_bike", "lat": 38.92784733333333, "is_reserved": 0, "is_disabled": 0, "fusion_lon": 0.0, "bike_id": "d59d37eb4a5eb7171312f53f4099cd4e", "lon": -77.05256216666666, "rental_uris": {"ios": "https://dc.lft.to/lastmile_qr_scan", "android": "https://dc.lft.to/lastmile_qr_scan"}}, {"name": "070a8e21838eb98be62ebbd5b6d26db7", "fusion_lat": 0.0, "type": "electric_scooter", "lat": 38.90978066666667, "is_reserved": 0, "is_disabled": 0, "fusion_lon": 0.0, "bike_id": "070a8e21838eb98be62ebbd5b6d26db7", "lon": -77.067116, "rental_uris": {"ios": "https://dc.lft.to/lastmile_qr_scan", "android": "https://dc.lft.to/lastmile_qr_scan"}}, {"name": "7ad17bb8993641626da85a58a6dc83bf", "fusion_lat": 0.0, "type": "electric_scooter", "lat": 38.9023585, "is_reserved": 0, "is_disabled": 0, "fusion_lon": 0.0, "bike_id": "7ad17bb8993641626da85a58a6dc83bf", "lon": -77.00197333333334, "rental_uris": {"ios": "https://dc.lft.to/lastmile_qr_scan", "android": "https://dc.lft.to/lastmile_qr_scan"}}, {"name": "984a394c41d429b912abc599744c8c68", "fusion_lat": 0.0, "type": "electric_scooter", "lat": 38.85836966666667, "is_reserved": 0, "is_disabled": 0, "fusion_lon": 0.0, "bike_id": "984a394c41d429b912abc599744c8c68", "lon": -76.98897166666667, "rental_uris": {"ios": "https://dc.lft.to/lastmile_qr_scan", "android": "https://dc.lft.to/lastmile_qr_scan"}}, {"name": "7c52d613990116e0f67d6a1af299c282", "fusion_lat": 0.0, "type": "electric_scooter", "lat": 38.93321133333333, "is_reserved": 0, "is_disabled": 0, "fusion_lon": 0.0, "bike_id": "7c52d613990116e0f67d6a1af299c282", "lon": -77.0509295, "rental_uris": {"ios": "https://dc.lft.to/lastmile_qr_scan", "android": "https://dc.lft.to/lastmile_qr_scan"}}, {"name": "fbe1872bb03fbbeb7e3e3b6194dfa43b", "fusion_lat": 0.0, "type": "electric_scooter", "lat": 38.87920616666667, "is_reserved": 0, "is_disabled": 0, "fusion_lon": 0.0, "bike_id": "fbe1872bb03fbbeb7e3e3b6194dfa43b", "lon": -76.9925535, "rental_uris": {"ios": "https://dc.lft.to/lastmile_qr_scan", "android": "https://dc.lft.to/lastmile_qr_scan"}}, {"name": "3f9811f11b913de014b478983e74506b", "fusion_lat": 0.0, "type": "electric_scooter", "lat": 38.91269783333333, "is_reserved": 0, "is_disabled": 0, "fusion_lon": 0.0, "bike_id": "3f9811f11b913de014b478983e74506b", "lon": -77.02964683333333, "rental_uris": {"ios": "https://dc.lft.to/lastmile_qr_scan", "android": "https://dc.lft.to/lastmile_qr_scan"}}, {"name": "a9f384245c991604ab3e001c8174ba15", "fusion_lat": 0.0, "type": "electric_scooter", "lat": 38.93719216666667, "is_reserved": 0, "is_disabled": 0, "fusion_lon": 0.0, "bike_id": "a9f384245c991604ab3e001c8174ba15", "lon": -77.02014466666667, "rental_uris": {"ios": "https://dc.lft.to/lastmile_qr_scan", "android": "https://dc.lft.to/lastmile_qr_scan"}}, {"name": "e9d1a843bdfa79d7f8ff507a02ec16ac", "fusion_lat": 0.0, "type": "electric_scooter", "lat": 38.942858333333334, "is_reserved": 0, "is_disabled": 0, "fusion_lon": 0.0, "bike_id": "e9d1a843bdfa79d7f8ff507a02ec16ac", "lon": -77.0217275, "rental_uris": {"ios": "https://dc.lft.to/lastmile_qr_scan", "android": "https://dc.lft.to/lastmile_qr_scan"}}, {"name": "0e4c92b3744db68cebf7bf53e3ddd9b8", "fusion_lat": 0.0, "type": "electric_scooter", "lat": 38.874166333333335, "is_reserved": 0, "is_disabled": 0, "fusion_lon": 0.0, "bike_id": "0e4c92b3744db68cebf7bf53e3ddd9b8", "lon": -76.960865, "rental_uris": {"ios": "https://dc.lft.to/lastmile_qr_scan", "android": "https://dc.lft.to/lastmile_qr_scan"}}, {"name": "654c6963e3254e3f5b3ecf8998c9d108", "fusion_lat": 0.0, "type": "electric_scooter", "lat": 38.918781833333334, "is_reserved": 0, "is_disabled": 0, "fusion_lon": 0.0, "bike_id": "654c6963e3254e3f5b3ecf8998c9d108", "lon": -77.0230065, "rental_uris": {"ios": "https://dc.lft.to/lastmile_qr_scan", "android": "https://dc.lft.to/lastmile_qr_scan"}}, {"name": "749f34b1fed65c82810b35a7d47b0b2b", "fusion_lat": 0.0, "type": "electric_scooter", "lat": 38.887366166666666, "is_reserved": 0, "is_disabled": 0, "fusion_lon": 0.0, "bike_id": "749f34b1fed65c82810b35a7d47b0b2b", "lon": -76.99645366666667, "rental_uris": {"ios": "https://dc.lft.to/lastmile_qr_scan", "android": "https://dc.lft.to/lastmile_qr_scan"}}, {"name": "780e4178cf7ab09bc2042a8162a777ef", "fusion_lat": 0.0, "type": "electric_scooter", "lat": 38.92069683333333, "is_reserved": 0, "is_disabled": 0, "fusion_lon": 0.0, "bike_id": "780e4178cf7ab09bc2042a8162a777ef", "lon": -76.99853216666666, "rental_uris": {"ios": "https://dc.lft.to/lastmile_qr_scan", "android": "https://dc.lft.to/lastmile_qr_scan"}}, {"name": "aea3411d0096a5b97a7e09f5edeccfe2", "fusion_lat": 0.0, "type": "electric_scooter", "lat": 38.921528, "is_reserved": 0, "is_disabled": 0, "fusion_lon": 0.0, "bike_id": "aea3411d0096a5b97a7e09f5edeccfe2", "lon": -77.03438366666667, "rental_uris": {"ios": "https://dc.lft.to/lastmile_qr_scan", "android": "https://dc.lft.to/lastmile_qr_scan"}}, {"name": "b2c1b19655e7b48c7614205991797cea", "fusion_lat": 0.0, "type": "electric_scooter", "lat": 38.918679, "is_reserved": 0, "is_disabled": 0, "fusion_lon": 0.0, "bike_id": "b2c1b19655e7b48c7614205991797cea", "lon": -77.044751, "rental_uris": {"ios": "https://dc.lft.to/lastmile_qr_scan", "android": "https://dc.lft.to/lastmile_qr_scan"}}, {"name": "3d38fea1644bb9496248bc384c05d3c4", "fusion_lat": 0.0, "type": "electric_scooter", "lat": 38.8804505, "is_reserved": 0, "is_disabled": 0, "fusion_lon": 0.0, "bike_id": "3d38fea1644bb9496248bc384c05d3c4", "lon": -77.01324583333333, "rental_uris": {"ios": "https://dc.lft.to/lastmile_qr_scan", "android": "https://dc.lft.to/lastmile_qr_scan"}}, {"name": "ce3184ba9ee95ff3269141a0cb50a0cb", "fusion_lat": 0.0, "type": "electric_scooter", "lat": 38.923689, "is_reserved": 0, "is_disabled": 0, "fusion_lon": 0.0, "bike_id": "ce3184ba9ee95ff3269141a0cb50a0cb", "lon": -77.01943733333333, "rental_uris": {"ios": "https://dc.lft.to/lastmile_qr_scan", "android": "https://dc.lft.to/lastmile_qr_scan"}}, {"name": "e90a88bb9e26fa5f449a4e84fcc6442f", "fusion_lat": 0.0, "type": "electric_bike", "lat": 38.9462085, "is_reserved": 0, "is_disabled": 0, "fusion_lon": 0.0, "bike_id": "e90a88bb9e26fa5f449a4e84fcc6442f", "lon": -76.94626916666667, "rental_uris": {"ios": "https://dc.lft.to/lastmile_qr_scan", "android": "https://dc.lft.to/lastmile_qr_scan"}}, {"name": "f10e6a0cecf90204a238fb7d4a66656a", "fusion_lat": 0.0, "type": "electric_bike", "lat": 38.873111333333334, "is_reserved": 0, "is_disabled": 0, "fusion_lon": 0.0, "bike_id": "f10e6a0cecf90204a238fb7d4a66656a", "lon": -77.0109465, "rental_uris": {"ios": "https://dc.lft.to/lastmile_qr_scan", "android": "https://dc.lft.to/lastmile_qr_scan"}}, {"name": "5ea1242ce184f0a8be4a6b7494b3ba01", "fusion_lat": 0.0, "type": "electric_scooter", "lat": 38.89898016666667, "is_reserved": 0, "is_disabled": 0, "fusion_lon": 0.0, "bike_id": "5ea1242ce184f0a8be4a6b7494b3ba01", "lon": -77.03931516666667, "rental_uris": {"ios": "https://dc.lft.to/lastmile_qr_scan", "android": "https://dc.lft.to/lastmile_qr_scan"}}, {"name": "b85f1e76d5ed0de632c0133e85b3f893", "fusion_lat": 0.0, "type": "electric_scooter", "lat": 38.93425466666667, "is_reserved": 0, "is_disabled": 0, "fusion_lon": 0.0, "bike_id": "b85f1e76d5ed0de632c0133e85b3f893", "lon": -77.02213916666666, "rental_uris": {"ios": "https://dc.lft.to/lastmile_qr_scan", "android": "https://dc.lft.to/lastmile_qr_scan"}}, {"name": "61f59b070734a434191f7893cb38181b", "fusion_lat": 0.0, "type": "electric_scooter", "lat": 38.91711216666667, "is_reserved": 0, "is_disabled": 0, "fusion_lon": 0.0, "bike_id": "61f59b070734a434191f7893cb38181b", "lon": -77.031246, "rental_uris": {"ios": "https://dc.lft.to/lastmile_qr_scan", "android": "https://dc.lft.to/lastmile_qr_scan"}}, {"name": "a0a54a3374caf111978c86ee4df7f5dc", "fusion_lat": 0.0, "type": "electric_scooter", "lat": 38.90648783333334, "is_reserved": 0, "is_disabled": 0, "fusion_lon": 0.0, "bike_id": "a0a54a3374caf111978c86ee4df7f5dc", "lon": -77.0531035, "rental_uris": {"ios": "https://dc.lft.to/lastmile_qr_scan", "android": "https://dc.lft.to/lastmile_qr_scan"}}, {"name": "beb6b1fbfd8671f396f53e9a21b5c5f3", "fusion_lat": 0.0, "type": "electric_scooter", "lat": 38.915541166666664, "is_reserved": 0, "is_disabled": 0, "fusion_lon": 0.0, "bike_id": "beb6b1fbfd8671f396f53e9a21b5c5f3", "lon": -77.035098, "rental_uris": {"ios": "https://dc.lft.to/lastmile_qr_scan", "android": "https://dc.lft.to/lastmile_qr_scan"}}, {"name": "4e8ffc48a69592c3a441cf9034901e4d", "fusion_lat": 0.0, "type": "electric_scooter", "lat": 38.89547433333333, "is_reserved": 0, "is_disabled": 0, "fusion_lon": 0.0, "bike_id": "4e8ffc48a69592c3a441cf9034901e4d", "lon": -77.02925233333333, "rental_uris": {"ios": "https://dc.lft.to/lastmile_qr_scan", "android": "https://dc.lft.to/lastmile_qr_scan"}}, {"name": "332e2ee1feb1e92eefba5eebfbe045bd", "fusion_lat": 0.0, "type": "electric_scooter", "lat": 38.916181333333334, "is_reserved": 0, "is_disabled": 0, "fusion_lon": 0.0, "bike_id": "332e2ee1feb1e92eefba5eebfbe045bd", "lon": -77.03156166666666, "rental_uris": {"ios": "https://dc.lft.to/lastmile_qr_scan", "android": "https://dc.lft.to/lastmile_qr_scan"}}, {"name": "2b0b95d6e8c49d8c25ad6af45047f9eb", "fusion_lat": 0.0, "type": "electric_scooter", "lat": 38.932343833333334, "is_reserved": 0, "is_disabled": 0, "fusion_lon": 0.0, "bike_id": "2b0b95d6e8c49d8c25ad6af45047f9eb", "lon": -77.03856183333333, "rental_uris": {"ios": "https://dc.lft.to/lastmile_qr_scan", "android": "https://dc.lft.to/lastmile_qr_scan"}}, {"name": "5198f8948e439b7ead49eefdf4268ec3", "fusion_lat": 0.0, "type": "electric_scooter", "lat": 38.887299666666664, "is_reserved": 0, "is_disabled": 0, "fusion_lon": 0.0, "bike_id": "5198f8948e439b7ead49eefdf4268ec3", "lon": -77.01765583333334, "rental_uris": {"ios": "https://dc.lft.to/lastmile_qr_scan", "android": "https://dc.lft.to/lastmile_qr_scan"}}, {"name": "3c1955eb0819727e91fae225975a6042", "fusion_lat": 0.0, "type": "electric_scooter", "lat": 38.90013483333333, "is_reserved": 0, "is_disabled": 0, "fusion_lon": 0.0, "bike_id": "3c1955eb0819727e91fae225975a6042", "lon": -77.03992783333334, "rental_uris": {"ios": "https://dc.lft.to/lastmile_qr_scan", "android": "https://dc.lft.to/lastmile_qr_scan"}}, {"name": "2d25cc461bda59c734210ffe0551416e", "fusion_lat": 0.0, "type": "electric_scooter", "lat": 38.9067605, "is_reserved": 0, "is_disabled": 0, "fusion_lon": 0.0, "bike_id": "2d25cc461bda59c734210ffe0551416e", "lon": -77.03807666666667, "rental_uris": {"ios": "https://dc.lft.to/lastmile_qr_scan", "android": "https://dc.lft.to/lastmile_qr_scan"}}, {"name": "4c6d8452fd3c7787bc7dc601195807b3", "fusion_lat": 0.0, "type": "electric_scooter", "lat": 38.91267783333333, "is_reserved": 0, "is_disabled": 0, "fusion_lon": 0.0, "bike_id": "4c6d8452fd3c7787bc7dc601195807b3", "lon": -77.03869466666667, "rental_uris": {"ios": "https://dc.lft.to/lastmile_qr_scan", "android": "https://dc.lft.to/lastmile_qr_scan"}}, {"name": "2affde4d2a777ef35fb400bf033b5d19", "fusion_lat": 0.0, "type": "electric_scooter", "lat": 38.897944333333335, "is_reserved": 0, "is_disabled": 0, "fusion_lon": 0.0, "bike_id": "2affde4d2a777ef35fb400bf033b5d19", "lon": -77.0461295, "rental_uris": {"ios": "https://dc.lft.to/lastmile_qr_scan", "android": "https://dc.lft.to/lastmile_qr_scan"}}, {"name": "2aa815eebceacc9daa56888c9b0d97b7", "fusion_lat": 0.0, "type": "electric_scooter", "lat": 38.92220583333334, "is_reserved": 0, "is_disabled": 0, "fusion_lon": 0.0, "bike_id": "2aa815eebceacc9daa56888c9b0d97b7", "lon": -77.02115683333334, "rental_uris": {"ios": "https://dc.lft.to/lastmile_qr_scan", "android": "https://dc.lft.to/lastmile_qr_scan"}}, {"name": "3ed9769ad05ad2c5bf67999537d7983f", "fusion_lat": 0.0, "type": "electric_scooter", "lat": 38.91797316666667, "is_reserved": 0, "is_disabled": 0, "fusion_lon": 0.0, "bike_id": "3ed9769ad05ad2c5bf67999537d7983f", "lon": -77.04017216666666, "rental_uris": {"ios": "https://dc.lft.to/lastmile_qr_scan", "android": "https://dc.lft.to/lastmile_qr_scan"}}, {"name": "76dd2d12683e0cbefe8768c4e3d83cde", "fusion_lat": 0.0, "type": "electric_scooter", "lat": 38.905612166666664, "is_reserved": 0, "is_disabled": 0, "fusion_lon": 0.0, "bike_id": "76dd2d12683e0cbefe8768c4e3d83cde", "lon": -77.00598333333333, "rental_uris": {"ios": "https://dc.lft.to/lastmile_qr_scan", "android": "https://dc.lft.to/lastmile_qr_scan"}}, {"name": "fa8a091cc2a5e1a21342fa43ccb2e712", "fusion_lat": 0.0, "type": "electric_bike", "lat": 38.852466666666665, "is_reserved": 0, "is_disabled": 0, "fusion_lon": 0.0, "bike_id": "fa8a091cc2a5e1a21342fa43ccb2e712", "lon": -77.11424516666666, "rental_uris": {"ios": "https://dc.lft.to/lastmile_qr_scan", "android": "https://dc.lft.to/lastmile_qr_scan"}}, {"name": "9ad72384288ba4257ba75fbd81d6e59b", "fusion_lat": 0.0, "type": "electric_scooter", "lat": 38.918145, "is_reserved": 0, "is_disabled": 0, "fusion_lon": 0.0, "bike_id": "9ad72384288ba4257ba75fbd81d6e59b", "lon": -77.03208116666667, "rental_uris": {"ios": "https://dc.lft.to/lastmile_qr_scan", "android": "https://dc.lft.to/lastmile_qr_scan"}}, {"name": "c77b664570b0fce23806dffdf574fffa", "fusion_lat": 0.0, "type": "electric_scooter", "lat": 38.892169, "is_reserved": 0, "is_disabled": 0, "fusion_lon": 0.0, "bike_id": "c77b664570b0fce23806dffdf574fffa", "lon": -77.02227466666666, "rental_uris": {"ios": "https://dc.lft.to/lastmile_qr_scan", "android": "https://dc.lft.to/lastmile_qr_scan"}}, {"name": "1c38709585ea263f6ec7a65d0ef8a279", "fusion_lat": 0.0, "type": "electric_scooter", "lat": 38.91708333333333, "is_reserved": 0, "is_disabled": 0, "fusion_lon": 0.0, "bike_id": "1c38709585ea263f6ec7a65d0ef8a279", "lon": -77.03141516666666, "rental_uris": {"ios": "https://dc.lft.to/lastmile_qr_scan", "android": "https://dc.lft.to/lastmile_qr_scan"}}, {"name": "827fb7b28c8698e6448d2b63b6c97976", "fusion_lat": 0.0, "type": "electric_scooter", "lat": 38.88490733333333, "is_reserved": 0, "is_disabled": 0, "fusion_lon": 0.0, "bike_id": "827fb7b28c8698e6448d2b63b6c97976", "lon": -77.00712016666667, "rental_uris": {"ios": "https://dc.lft.to/lastmile_qr_scan", "android": "https://dc.lft.to/lastmile_qr_scan"}}, {"name": "bff16b007b4700f5bcb93949b0883e65", "fusion_lat": 0.0, "type": "electric_scooter", "lat": 38.8777015, "is_reserved": 0, "is_disabled": 0, "fusion_lon": 0.0, "bike_id": "bff16b007b4700f5bcb93949b0883e65", "lon": -76.99420233333333, "rental_uris": {"ios": "https://dc.lft.to/lastmile_qr_scan", "android": "https://dc.lft.to/lastmile_qr_scan"}}, {"name": "25828aab0a38dfd52be2b5a7a3fbccb9", "fusion_lat": 0.0, "type": "electric_scooter", "lat": 38.910069, "is_reserved": 0, "is_disabled": 0, "fusion_lon": 0.0, "bike_id": "25828aab0a38dfd52be2b5a7a3fbccb9", "lon": -76.996724, "rental_uris": {"ios": "https://dc.lft.to/lastmile_qr_scan", "android": "https://dc.lft.to/lastmile_qr_scan"}}, {"name": "b5b7facbabe96cd3f94fa10fc0f8c33d", "fusion_lat": 0.0, "type": "electric_bike", "lat": 38.884025, "is_reserved": 0, "is_disabled": 0, "fusion_lon": 0.0, "bike_id": "b5b7facbabe96cd3f94fa10fc0f8c33d", "lon": -76.960548, "rental_uris": {"ios": "https://dc.lft.to/lastmile_qr_scan", "android": "https://dc.lft.to/lastmile_qr_scan"}}, {"name": "6ca5687df107aed331df1f66be23693c", "fusion_lat": 0.0, "type": "electric_scooter", "lat": 38.90049966666667, "is_reserved": 0, "is_disabled": 0, "fusion_lon": 0.0, "bike_id": "6ca5687df107aed331df1f66be23693c", "lon": -77.048724, "rental_uris": {"ios": "https://dc.lft.to/lastmile_qr_scan", "android": "https://dc.lft.to/lastmile_qr_scan"}}, {"name": "04eecf3134057d9c4fb51d5666236ac4", "fusion_lat": 0.0, "type": "electric_scooter", "lat": 38.91937, "is_reserved": 0, "is_disabled": 0, "fusion_lon": 0.0, "bike_id": "04eecf3134057d9c4fb51d5666236ac4", "lon": -77.034316, "rental_uris": {"ios": "https://dc.lft.to/lastmile_qr_scan", "android": "https://dc.lft.to/lastmile_qr_scan"}}, {"name": "f6bef85030855c8bf714676f2dc1dfad", "fusion_lat": 0.0, "type": "electric_scooter", "lat": 38.9370245, "is_reserved": 0, "is_disabled": 0, "fusion_lon": 0.0, "bike_id": "f6bef85030855c8bf714676f2dc1dfad", "lon": -77.06102966666667, "rental_uris": {"ios": "https://dc.lft.to/lastmile_qr_scan", "android": "https://dc.lft.to/lastmile_qr_scan"}}, {"name": "e62abf3f6058deb77492ed683ab754d6", "fusion_lat": 0.0, "type": "electric_scooter", "lat": 38.903491333333335, "is_reserved": 0, "is_disabled": 0, "fusion_lon": 0.0, "bike_id": "e62abf3f6058deb77492ed683ab754d6", "lon": -77.021963, "rental_uris": {"ios": "https://dc.lft.to/lastmile_qr_scan", "android": "https://dc.lft.to/lastmile_qr_scan"}}, {"name": "0c37eb35f809dd5fea10ea02dc2636c3", "fusion_lat": 0.0, "type": "electric_scooter", "lat": 38.9260305, "is_reserved": 0, "is_disabled": 0, "fusion_lon": 0.0, "bike_id": "0c37eb35f809dd5fea10ea02dc2636c3", "lon": -77.02153966666667, "rental_uris": {"ios": "https://dc.lft.to/lastmile_qr_scan", "android": "https://dc.lft.to/lastmile_qr_scan"}}, {"name": "5924f33ec2c94fd665d90b05e6490953", "fusion_lat": 0.0, "type": "electric_scooter", "lat": 38.906742, "is_reserved": 0, "is_disabled": 0, "fusion_lon": 0.0, "bike_id": "5924f33ec2c94fd665d90b05e6490953", "lon": -77.02689833333334, "rental_uris": {"ios": "https://dc.lft.to/lastmile_qr_scan", "android": "https://dc.lft.to/lastmile_qr_scan"}}, {"name": "fdae11740af6961a815f4eeb0640c784", "fusion_lat": 0.0, "type": "electric_scooter", "lat": 38.93535216666667, "is_reserved": 0, "is_disabled": 0, "fusion_lon": 0.0, "bike_id": "fdae11740af6961a815f4eeb0640c784", "lon": -77.034054, "rental_uris": {"ios": "https://dc.lft.to/lastmile_qr_scan", "android": "https://dc.lft.to/lastmile_qr_scan"}}, {"name": "afaccc0c58d376f0169ab68bbb473f7d", "fusion_lat": 0.0, "type": "electric_scooter", "lat": 38.917641333333336, "is_reserved": 0, "is_disabled": 0, "fusion_lon": 0.0, "bike_id": "afaccc0c58d376f0169ab68bbb473f7d", "lon": -77.031951, "rental_uris": {"ios": "https://dc.lft.to/lastmile_qr_scan", "android": "https://dc.lft.to/lastmile_qr_scan"}}, {"name": "654c9c7a5141d47991d0afbe78d8dc32", "fusion_lat": 0.0, "type": "electric_scooter", "lat": 38.8985185, "is_reserved": 0, "is_disabled": 0, "fusion_lon": 0.0, "bike_id": "654c9c7a5141d47991d0afbe78d8dc32", "lon": -77.03953116666666, "rental_uris": {"ios": "https://dc.lft.to/lastmile_qr_scan", "android": "https://dc.lft.to/lastmile_qr_scan"}}, {"name": "fb85ee16f713b510cca1576cb2bd737d", "fusion_lat": 0.0, "type": "electric_scooter", "lat": 38.87658116666667, "is_reserved": 0, "is_disabled": 0, "fusion_lon": 0.0, "bike_id": "fb85ee16f713b510cca1576cb2bd737d", "lon": -77.000679, "rental_uris": {"ios": "https://dc.lft.to/lastmile_qr_scan", "android": "https://dc.lft.to/lastmile_qr_scan"}}, {"name": "6bb09c1ee06cc2a679af4ab2bd8d3fbc", "fusion_lat": 0.0, "type": "electric_scooter", "lat": 38.93014516666667, "is_reserved": 0, "is_disabled": 0, "fusion_lon": 0.0, "bike_id": "6bb09c1ee06cc2a679af4ab2bd8d3fbc", "lon": -77.01254416666667, "rental_uris": {"ios": "https://dc.lft.to/lastmile_qr_scan", "android": "https://dc.lft.to/lastmile_qr_scan"}}, {"name": "d773cceafb255df1b9243c6a8f617041", "fusion_lat": 0.0, "type": "electric_bike", "lat": 38.854294333333335, "is_reserved": 0, "is_disabled": 0, "fusion_lon": 0.0, "bike_id": "d773cceafb255df1b9243c6a8f617041", "lon": -76.909616, "rental_uris": {"ios": "https://dc.lft.to/lastmile_qr_scan", "android": "https://dc.lft.to/lastmile_qr_scan"}}, {"name": "741541f4d42d92b82bc8462c42eadeaa", "fusion_lat": 0.0, "type": "electric_bike", "lat": 38.810502166666666, "is_reserved": 0, "is_disabled": 0, "fusion_lon": 0.0, "bike_id": "741541f4d42d92b82bc8462c42eadeaa", "lon": -77.08511933333334, "rental_uris": {"ios": "https://dc.lft.to/lastmile_qr_scan", "android": "https://dc.lft.to/lastmile_qr_scan"}}, {"name": "3d64ab871e698d5d020db0bd9e5d8a6a", "fusion_lat": 0.0, "type": "electric_scooter", "lat": 38.895219166666664, "is_reserved": 0, "is_disabled": 0, "fusion_lon": 0.0, "bike_id": "3d64ab871e698d5d020db0bd9e5d8a6a", "lon": -76.94891116666666, "rental_uris": {"ios": "https://dc.lft.to/lastmile_qr_scan", "android": "https://dc.lft.to/lastmile_qr_scan"}}, {"name": "729379d63c3a62e68e591a4dd8921747", "fusion_lat": 0.0, "type": "electric_scooter", "lat": 38.89679066666667, "is_reserved": 0, "is_disabled": 0, "fusion_lon": 0.0, "bike_id": "729379d63c3a62e68e591a4dd8921747", "lon": -77.0049485, "rental_uris": {"ios": "https://dc.lft.to/lastmile_qr_scan", "android": "https://dc.lft.to/lastmile_qr_scan"}}, {"name": "724264da3d84b796655b1e6ab7f51aed", "fusion_lat": 0.0, "type": "electric_scooter", "lat": 38.892253, "is_reserved": 0, "is_disabled": 0, "fusion_lon": 0.0, "bike_id": "724264da3d84b796655b1e6ab7f51aed", "lon": -77.04996366666667, "rental_uris": {"ios": "https://dc.lft.to/lastmile_qr_scan", "android": "https://dc.lft.to/lastmile_qr_scan"}}, {"name": "38082a9cbb111d0a69e79336c12cafa5", "fusion_lat": 0.0, "type": "electric_scooter", "lat": 38.9026905, "is_reserved": 0, "is_disabled": 0, "fusion_lon": 0.0, "bike_id": "38082a9cbb111d0a69e79336c12cafa5", "lon": -77.04424616666667, "rental_uris": {"ios": "https://dc.lft.to/lastmile_qr_scan", "android": "https://dc.lft.to/lastmile_qr_scan"}}, {"name": "23ea40524e159e0b11e1c6736ce98aac", "fusion_lat": 0.0, "type": "electric_scooter", "lat": 38.939291833333336, "is_reserved": 0, "is_disabled": 0, "fusion_lon": 0.0, "bike_id": "23ea40524e159e0b11e1c6736ce98aac", "lon": -77.036696, "rental_uris": {"ios": "https://dc.lft.to/lastmile_qr_scan", "android": "https://dc.lft.to/lastmile_qr_scan"}}, {"name": "2c5a7f01556fce9d446c7296f5b8f0e5", "fusion_lat": 0.0, "type": "electric_scooter", "lat": 38.924305, "is_reserved": 0, "is_disabled": 0, "fusion_lon": 0.0, "bike_id": "2c5a7f01556fce9d446c7296f5b8f0e5", "lon": -77.04249866666666, "rental_uris": {"ios": "https://dc.lft.to/lastmile_qr_scan", "android": "https://dc.lft.to/lastmile_qr_scan"}}, {"name": "a108af16894db8f6ba0f93183800eff4", "fusion_lat": 0.0, "type": "electric_scooter", "lat": 38.924271833333336, "is_reserved": 0, "is_disabled": 0, "fusion_lon": 0.0, "bike_id": "a108af16894db8f6ba0f93183800eff4", "lon": -77.04211866666667, "rental_uris": {"ios": "https://dc.lft.to/lastmile_qr_scan", "android": "https://dc.lft.to/lastmile_qr_scan"}}, {"name": "a7fa78c4a9ca9b77be7f1340ae586961", "fusion_lat": 0.0, "type": "electric_scooter", "lat": 38.916837, "is_reserved": 0, "is_disabled": 0, "fusion_lon": 0.0, "bike_id": "a7fa78c4a9ca9b77be7f1340ae586961", "lon": -77.0308745, "rental_uris": {"ios": "https://dc.lft.to/lastmile_qr_scan", "android": "https://dc.lft.to/lastmile_qr_scan"}}, {"name": "87a015ad98273a34b7b8f01382a6833e", "fusion_lat": 0.0, "type": "electric_scooter", "lat": 38.86659066666667, "is_reserved": 0, "is_disabled": 0, "fusion_lon": 0.0, "bike_id": "87a015ad98273a34b7b8f01382a6833e", "lon": -76.98884366666667, "rental_uris": {"ios": "https://dc.lft.to/lastmile_qr_scan", "android": "https://dc.lft.to/lastmile_qr_scan"}}, {"name": "dc0b94bcfebb0ba2a9812b556709a832", "fusion_lat": 0.0, "type": "electric_scooter", "lat": 38.8848575, "is_reserved": 0, "is_disabled": 0, "fusion_lon": 0.0, "bike_id": "dc0b94bcfebb0ba2a9812b556709a832", "lon": -77.00710333333333, "rental_uris": {"ios": "https://dc.lft.to/lastmile_qr_scan", "android": "https://dc.lft.to/lastmile_qr_scan"}}, {"name": "e11c65a0484884b40c84140c9913422e", "fusion_lat": 0.0, "type": "electric_scooter", "lat": 38.899449833333335, "is_reserved": 0, "is_disabled": 0, "fusion_lon": 0.0, "bike_id": "e11c65a0484884b40c84140c9913422e", "lon": -77.00918966666667, "rental_uris": {"ios": "https://dc.lft.to/lastmile_qr_scan", "android": "https://dc.lft.to/lastmile_qr_scan"}}, {"name": "5b713570461c78cd52543f1afa06aaee", "fusion_lat": 0.0, "type": "electric_scooter", "lat": 38.887431166666666, "is_reserved": 0, "is_disabled": 0, "fusion_lon": 0.0, "bike_id": "5b713570461c78cd52543f1afa06aaee", "lon": -77.02571316666666, "rental_uris": {"ios": "https://dc.lft.to/lastmile_qr_scan", "android": "https://dc.lft.to/lastmile_qr_scan"}}, {"name": "8c87cd934bf4fb86cc8d2bcfc259ff03", "fusion_lat": 0.0, "type": "electric_scooter", "lat": 38.900388666666665, "is_reserved": 0, "is_disabled": 0, "fusion_lon": 0.0, "bike_id": "8c87cd934bf4fb86cc8d2bcfc259ff03", "lon": -77.00539166666667, "rental_uris": {"ios": "https://dc.lft.to/lastmile_qr_scan", "android": "https://dc.lft.to/lastmile_qr_scan"}}, {"name": "bc3851756ff3dbdf11bbdd970fd15597", "fusion_lat": 0.0, "type": "electric_scooter", "lat": 38.8974105, "is_reserved": 0, "is_disabled": 0, "fusion_lon": 0.0, "bike_id": "bc3851756ff3dbdf11bbdd970fd15597", "lon": -76.9960955, "rental_uris": {"ios": "https://dc.lft.to/lastmile_qr_scan", "android": "https://dc.lft.to/lastmile_qr_scan"}}, {"name": "0339f8cab970b7379cfa8269d029c280", "fusion_lat": 0.0, "type": "electric_scooter", "lat": 38.90064533333333, "is_reserved": 0, "is_disabled": 0, "fusion_lon": 0.0, "bike_id": "0339f8cab970b7379cfa8269d029c280", "lon": -77.05008433333333, "rental_uris": {"ios": "https://dc.lft.to/lastmile_qr_scan", "android": "https://dc.lft.to/lastmile_qr_scan"}}, {"name": "2ef86b5123de3b27a61c795c79e466e4", "fusion_lat": 0.0, "type": "electric_scooter", "lat": 38.935209, "is_reserved": 0, "is_disabled": 0, "fusion_lon": 0.0, "bike_id": "2ef86b5123de3b27a61c795c79e466e4", "lon": -77.02842466666667, "rental_uris": {"ios": "https://dc.lft.to/lastmile_qr_scan", "android": "https://dc.lft.to/lastmile_qr_scan"}}, {"name": "79abda51fdd1ab162bafe512486a90e6", "fusion_lat": 0.0, "type": "electric_scooter", "lat": 38.930966, "is_reserved": 0, "is_disabled": 0, "fusion_lon": 0.0, "bike_id": "79abda51fdd1ab162bafe512486a90e6", "lon": -77.02398066666667, "rental_uris": {"ios": "https://dc.lft.to/lastmile_qr_scan", "android": "https://dc.lft.to/lastmile_qr_scan"}}, {"name": "9570be9300967a142c4a08f8406cf1d3", "fusion_lat": 0.0, "type": "electric_scooter", "lat": 38.898503833333336, "is_reserved": 0, "is_disabled": 0, "fusion_lon": 0.0, "bike_id": "9570be9300967a142c4a08f8406cf1d3", "lon": -77.0073895, "rental_uris": {"ios": "https://dc.lft.to/lastmile_qr_scan", "android": "https://dc.lft.to/lastmile_qr_scan"}}, {"name": "c60bf6e37f3beff6dfc8a53c9f26bb8f", "fusion_lat": 0.0, "type": "electric_scooter", "lat": 38.918553333333335, "is_reserved": 0, "is_disabled": 0, "fusion_lon": 0.0, "bike_id": "c60bf6e37f3beff6dfc8a53c9f26bb8f", "lon": -77.0149955, "rental_uris": {"ios": "https://dc.lft.to/lastmile_qr_scan", "android": "https://dc.lft.to/lastmile_qr_scan"}}, {"name": "349f8be6b72f596b3d2e59812884a5f5", "fusion_lat": 0.0, "type": "electric_scooter", "lat": 38.8953295, "is_reserved": 0, "is_disabled": 0, "fusion_lon": 0.0, "bike_id": "349f8be6b72f596b3d2e59812884a5f5", "lon": -77.02376916666667, "rental_uris": {"ios": "https://dc.lft.to/lastmile_qr_scan", "android": "https://dc.lft.to/lastmile_qr_scan"}}, {"name": "ff71284628ca90efd3e332d79e47f284", "fusion_lat": 0.0, "type": "electric_bike", "lat": 38.89772983333334, "is_reserved": 0, "is_disabled": 0, "fusion_lon": 0.0, "bike_id": "ff71284628ca90efd3e332d79e47f284", "lon": -76.9043765, "rental_uris": {"ios": "https://dc.lft.to/lastmile_qr_scan", "android": "https://dc.lft.to/lastmile_qr_scan"}}, {"name": "1ac9c99940d38d680098ebb33141643f", "fusion_lat": 0.0, "type": "electric_scooter", "lat": 38.907145666666665, "is_reserved": 0, "is_disabled": 0, "fusion_lon": 0.0, "bike_id": "1ac9c99940d38d680098ebb33141643f", "lon": -77.04314083333334, "rental_uris": {"ios": "https://dc.lft.to/lastmile_qr_scan", "android": "https://dc.lft.to/lastmile_qr_scan"}}, {"name": "05c39d02b480810870f3b8276ca6fd7b", "fusion_lat": 0.0, "type": "electric_scooter", "lat": 38.926772666666665, "is_reserved": 0, "is_disabled": 0, "fusion_lon": 0.0, "bike_id": "05c39d02b480810870f3b8276ca6fd7b", "lon": -77.01520966666666, "rental_uris": {"ios": "https://dc.lft.to/lastmile_qr_scan", "android": "https://dc.lft.to/lastmile_qr_scan"}}, {"name": "50b6fb0e1e422906fbcc7c1865fd372b", "fusion_lat": 0.0, "type": "electric_scooter", "lat": 38.93896616666667, "is_reserved": 0, "is_disabled": 0, "fusion_lon": 0.0, "bike_id": "50b6fb0e1e422906fbcc7c1865fd372b", "lon": -77.032771, "rental_uris": {"ios": "https://dc.lft.to/lastmile_qr_scan", "android": "https://dc.lft.to/lastmile_qr_scan"}}, {"name": "5d7e3b5576335058138ea66234628f25", "fusion_lat": 0.0, "type": "electric_scooter", "lat": 38.935628666666666, "is_reserved": 0, "is_disabled": 0, "fusion_lon": 0.0, "bike_id": "5d7e3b5576335058138ea66234628f25", "lon": -77.02124033333334, "rental_uris": {"ios": "https://dc.lft.to/lastmile_qr_scan", "android": "https://dc.lft.to/lastmile_qr_scan"}}, {"name": "cb66f9439a167748ff09d6e71d8ba3ea", "fusion_lat": 0.0, "type": "electric_scooter", "lat": 38.907698833333335, "is_reserved": 0, "is_disabled": 0, "fusion_lon": 0.0, "bike_id": "cb66f9439a167748ff09d6e71d8ba3ea", "lon": -77.03826316666667, "rental_uris": {"ios": "https://dc.lft.to/lastmile_qr_scan", "android": "https://dc.lft.to/lastmile_qr_scan"}}, {"name": "e851bf32073d6f92c69783aa318f4fb7", "fusion_lat": 0.0, "type": "electric_bike", "lat": 38.9945495, "is_reserved": 0, "is_disabled": 0, "fusion_lon": 0.0, "bike_id": "e851bf32073d6f92c69783aa318f4fb7", "lon": -76.90815866666667, "rental_uris": {"ios": "https://dc.lft.to/lastmile_qr_scan", "android": "https://dc.lft.to/lastmile_qr_scan"}}, {"name": "8d84827599647640f38da47cd438f7ba", "fusion_lat": 0.0, "type": "electric_scooter", "lat": 38.92004766666667, "is_reserved": 0, "is_disabled": 0, "fusion_lon": 0.0, "bike_id": "8d84827599647640f38da47cd438f7ba", "lon": -77.03167583333334, "rental_uris": {"ios": "https://dc.lft.to/lastmile_qr_scan", "android": "https://dc.lft.to/lastmile_qr_scan"}}, {"name": "80f6ed1098a65827e0693338e4b4d4a3", "fusion_lat": 0.0, "type": "electric_scooter", "lat": 38.904264, "is_reserved": 0, "is_disabled": 0, "fusion_lon": 0.0, "bike_id": "80f6ed1098a65827e0693338e4b4d4a3", "lon": -77.025909, "rental_uris": {"ios": "https://dc.lft.to/lastmile_qr_scan", "android": "https://dc.lft.to/lastmile_qr_scan"}}, {"name": "5bad7c97e7ba8c928c6a04d6ae266615", "fusion_lat": 0.0, "type": "electric_bike", "lat": 38.87234616666667, "is_reserved": 0, "is_disabled": 0, "fusion_lon": 0.0, "bike_id": "5bad7c97e7ba8c928c6a04d6ae266615", "lon": -77.01170133333333, "rental_uris": {"ios": "https://dc.lft.to/lastmile_qr_scan", "android": "https://dc.lft.to/lastmile_qr_scan"}}, {"name": "281cd2aa25f3de4e85019d7cdf5b998c", "fusion_lat": 0.0, "type": "electric_scooter", "lat": 38.88379483333333, "is_reserved": 0, "is_disabled": 0, "fusion_lon": 0.0, "bike_id": "281cd2aa25f3de4e85019d7cdf5b998c", "lon": -77.01759933333334, "rental_uris": {"ios": "https://dc.lft.to/lastmile_qr_scan", "android": "https://dc.lft.to/lastmile_qr_scan"}}, {"name": "fdce38d729d84693a6dd0868e15ec985", "fusion_lat": 0.0, "type": "electric_scooter", "lat": 38.907353, "is_reserved": 0, "is_disabled": 0, "fusion_lon": 0.0, "bike_id": "fdce38d729d84693a6dd0868e15ec985", "lon": -77.00346633333334, "rental_uris": {"ios": "https://dc.lft.to/lastmile_qr_scan", "android": "https://dc.lft.to/lastmile_qr_scan"}}, {"name": "63e47e4da3f8dc47d6452c6649056517", "fusion_lat": 0.0, "type": "electric_scooter", "lat": 38.898814, "is_reserved": 0, "is_disabled": 0, "fusion_lon": 0.0, "bike_id": "63e47e4da3f8dc47d6452c6649056517", "lon": -77.01969333333334, "rental_uris": {"ios": "https://dc.lft.to/lastmile_qr_scan", "android": "https://dc.lft.to/lastmile_qr_scan"}}, {"name": "46e55c2e86dad2ef99c494dd05020219", "fusion_lat": 0.0, "type": "electric_scooter", "lat": 38.905618, "is_reserved": 0, "is_disabled": 0, "fusion_lon": 0.0, "bike_id": "46e55c2e86dad2ef99c494dd05020219", "lon": -77.03421516666667, "rental_uris": {"ios": "https://dc.lft.to/lastmile_qr_scan", "android": "https://dc.lft.to/lastmile_qr_scan"}}, {"name": "8206de3f1faf8738722bd592e5e51c6d", "fusion_lat": 0.0, "type": "electric_scooter", "lat": 38.905383666666665, "is_reserved": 0, "is_disabled": 0, "fusion_lon": 0.0, "bike_id": "8206de3f1faf8738722bd592e5e51c6d", "lon": -77.05003966666666, "rental_uris": {"ios": "https://dc.lft.to/lastmile_qr_scan", "android": "https://dc.lft.to/lastmile_qr_scan"}}, {"name": "76e0d9ec668385d6ae89659c2927e953", "fusion_lat": 0.0, "type": "electric_scooter", "lat": 38.902824833333334, "is_reserved": 0, "is_disabled": 0, "fusion_lon": 0.0, "bike_id": "76e0d9ec668385d6ae89659c2927e953", "lon": -77.06266983333333, "rental_uris": {"ios": "https://dc.lft.to/lastmile_qr_scan", "android": "https://dc.lft.to/lastmile_qr_scan"}}, {"name": "206b7a2b6cba7980f4c5ef7dc05030eb", "fusion_lat": 0.0, "type": "electric_scooter", "lat": 38.918201833333335, "is_reserved": 0, "is_disabled": 0, "fusion_lon": 0.0, "bike_id": "206b7a2b6cba7980f4c5ef7dc05030eb", "lon": -77.04003133333333, "rental_uris": {"ios": "https://dc.lft.to/lastmile_qr_scan", "android": "https://dc.lft.to/lastmile_qr_scan"}},