{"data": {"bikes": [{"is_disabled": 0, "rental_uris": {"android": "https://dc.lft.to/lastmile_qr_scan", "ios": "https://dc.lft.to/lastmile_qr_scan"}, "is_reserved": 0, "name": "a39936c08d332d530558a24dcb6d5c9f", "lon": -77.03869883333333, "type": "electric_scooter", "bike_id": "a39936c08d332d530558a24dcb6d5c9f", "fusion_lon": 0.0, "lat": 38.92153883333334, "fusion_lat": 0.0}, {"is_disabled": 0, "rental_uris": {"android": "https://dc.lft.to/lastmile_qr_scan", "ios": "https://dc.lft.to/lastmile_qr_scan"}, "is_reserved": 0, "name": "c2a60ef186fe961391c84e95649621f6", "lon": -77.00530033333334, "type": "electric_scooter", "bike_id": "c2a60ef186fe961391c84e95649621f6", "fusion_lon": 0.0, "lat": 38.880457666666665, "fusion_lat": 0.0}, {"is_disabled": 0, "rental_uris": {"android": "https://dc.lft.to/lastmile_qr_scan", "ios": "https://dc.lft.to/lastmile_qr_scan"}, "is_reserved": 0, "name": "256af559f3cff20c6f997b2240a1471a", "lon": -77.03193633333333, "type": "electric_scooter", "bike_id": "256af559f3cff20c6f997b2240a1471a", "fusion_lon": 0.0, "lat": 38.918173833333334, "fusion_lat": 0.0}, {"is_disabled": 0, "rental_uris": {"android": "https://dc.lft.to/lastmile_qr_scan", "ios": "https://dc.lft.to/lastmile_qr_scan"}, "is_reserved": 0, "name": "1074ec8e0fb630afe4170b487a74d8a2", "lon": -77.02718883333333, "type": "electric_scooter", "bike_id": "1074ec8e0fb630afe4170b487a74d8a2", "fusion_lon": 0.0, "lat": 38.90355233333333, "fusion_lat": 0.0}, {"is_disabled": 0, "rental_uris": {"android": "https://dc.lft.to/lastmile_qr_scan", "ios": "https://dc.lft.to/lastmile_qr_scan"}, "is_reserved": 0, "name": "8405b4d0bc30be0a5d08867193d4cd42", "lon": -77.04881816666666, "type": "electric_scooter", "bike_id": "8405b4d0bc30be0a5d08867193d4cd42", "fusion_lon": 0.0, "lat": 38.910242833333335, "fusion_lat": 0.0}, {"is_disabled": 0, "rental_uris": {"android": "https://dc.lft.to/lastmile_qr_scan", "ios": "https://dc.lft.to/lastmile_qr_scan"}, "is_reserved": 0, "name": "bc58bd3a5151a9fb379a8ede72aa22dd", "lon": -77.10026466666666, "type": "electric_bike", "bike_id": "bc58bd3a5151a9fb379a8ede72aa22dd", "fusion_lon": 0.0, "lat": 38.990585, "fusion_lat": 0.0}, {"is_disabled": 0, "rental_uris": {"android": "https://dc.lft.to/lastmile_qr_scan", "ios": "https://dc.lft.to/lastmile_qr_scan"}, "is_reserved": 0, "name": "7f3171722b8aee92cf9e0d8ce6d8a449", "lon": -77.05503583333333, "type": "electric_scooter", "bike_id": "7f3171722b8aee92cf9e0d8ce6d8a449", "fusion_lon": 0.0, "lat": 38.929795166666665, "fusion_lat": 0.0}, {"is_disabled": 0, "rental_uris": {"android": "https://dc.lft.to/lastmile_qr_scan", "ios": "https://dc.lft.to/lastmile_qr_scan"}, "is_reserved": 0, "name": "2f3c1fa1c4338ee9c4190f7d38abf259", "lon": -77.02821583333333, "type": "electric_scooter", "bike_id": "2f3c1fa1c4338ee9c4190f7d38abf259", "fusion_lon": 0.0, "lat": 38.904613166666664, "fusion_lat": 0.0}, {"is_disabled": 0, "rental_uris": {"android": "https://dc.lft.to/lastmile_qr_scan", "ios": "https://dc.lft.to/lastmile_qr_scan"}, "is_reserved": 0, "name": "b2df56f9a3c3023c4d29d75dcb2f88c4", "lon": -77.0215515, "type": "electric_scooter", "bike_id": "b2df56f9a3c3023c4d29d75dcb2f88c4", "fusion_lon": 0.0, "lat": 38.92604766666667, "fusion_lat": 0.0}, {"is_disabled": 0, "rental_uris": {"android": "https://dc.lft.to/lastmile_qr_scan", "ios": "https://dc.lft.to/lastmile_qr_scan"}, "is_reserved": 0, "name": "6d989b07c85235623b44f6771ebe9adb", "lon": -77.01908166666666, "type": "electric_scooter", "bike_id": "6d989b07c85235623b44f6771ebe9adb", "fusion_lon": 0.0, "lat": 38.911957666666666, "fusion_lat": 0.0}, {"is_disabled": 0, "rental_uris": {"android": "https://dc.lft.to/lastmile_qr_scan", "ios": "https://dc.lft.to/lastmile_qr_scan"}, "is_reserved": 0, "name": "032213d4d28c1bb08cb389c47f5d498e", "lon": -77.03819683333333, "type": "electric_scooter", "bike_id": "032213d4d28c1bb08cb389c47f5d498e", "fusion_lon": 0.0, "lat": 38.91502916666666, "fusion_lat": 0.0}, {"is_disabled": 0, "rental_uris": {"android": "https://dc.lft.to/lastmile_qr_scan", "ios": "https://dc.lft.to/lastmile_qr_scan"}, "is_reserved": 0, "name": "faa05b19db1be703ba05209222cec15c", "lon": -77.0351725, "type": "electric_scooter", "bike_id": "faa05b19db1be703ba05209222cec15c", "fusion_lon": 0.0, "lat": 38.921408666666665, "fusion_lat": 0.0}, {"is_disabled": 0, "rental_uris": {"android": "https://dc.lft.to/lastmile_qr_scan", "ios": "https://dc.lft.to/lastmile_qr_scan"}, "is_reserved": 0, "name": "de991d2a3ef91c6a4d5449c33051500f", "lon": -77.01768116666666, "type": "electric_scooter", "bike_id": "de991d2a3ef91c6a4d5449c33051500f", "fusion_lon": 0.0, "lat": 38.877208833333334, "fusion_lat": 0.0}, {"is_disabled": 0, "rental_uris": {"android": "https://dc.lft.to/lastmile_qr_scan", "ios": "https://dc.lft.to/lastmile_qr_scan"}, "is_reserved": 0, "name": "4957fc37270200e952eab94890e651ab", "lon": -77.027852, "type": "electric_scooter", "bike_id": "4957fc37270200e952eab94890e651ab", "fusion_lon": 0.0, "lat": 38.961923666666664, "fusion_lat": 0.0}, {"is_disabled": 0, "rental_uris": {"android": "https://dc.lft.to/lastmile_qr_scan", "ios": "https://dc.lft.to/lastmile_qr_scan"}, "is_reserved": 0, "name": "e3491c5b29c4eea722209acb25b7aecc", "lon": -77.04899883333333, "type": "electric_bike", "bike_id": "e3491c5b29c4eea722209acb25b7aecc", "fusion_lon": 0.0, "lat": 38.874892333333335, "fusion_lat": 0.0}, {"is_disabled": 0, "rental_uris": {"android": "https://dc.lft.to/lastmile_qr_scan", "ios": "https://dc.lft.to/lastmile_qr_scan"}, "is_reserved": 0, "name": "f9a8185e754fad5e81fc2846864d86b4", "lon": -77.04210583333334, "type": "electric_scooter", "bike_id": "f9a8185e754fad5e81fc2846864d86b4", "fusion_lon": 0.0, "lat": 38.91126666666667, "fusion_lat": 0.0}, {"is_disabled": 0, "rental_uris": {"android": "https://dc.lft.to/lastmile_qr_scan", "ios": "https://dc.lft.to/lastmile_qr_scan"}, "is_reserved": 0, "name": "5c94796b026b3304f8d02173722d87d7", "lon": -77.014133, "type": "electric_scooter", "bike_id": "5c94796b026b3304f8d02173722d87d7", "fusion_lon": 0.0, "lat": 38.927856, "fusion_lat": 0.0}, {"is_disabled": 0, "rental_uris": {"android": "https://dc.lft.to/lastmile_qr_scan", "ios": "https://dc.lft.to/lastmile_qr_scan"}, "is_reserved": 0, "name": "01246e598968bf182ef19023edeb2995", "lon": -77.041818, "type": "electric_scooter", "bike_id": "01246e598968bf182ef19023edeb2995", "fusion_lon": 0.0, "lat": 38.91552516666667, "fusion_lat": 0.0}, {"is_disabled": 0, "rental_uris": {"android": "https://dc.lft.to/lastmile_qr_scan", "ios": "https://dc.lft.to/lastmile_qr_scan"}, "is_reserved": 0, "name": "e247e97312d962e830add5d4b98033be", "lon": -76.87494433333333, "type": "electric_bike", "bike_id": "e247e97312d962e830add5d4b98033be", "fusion_lon": 0.0, "lat": 38.99089016666667, "fusion_lat": 0.0}, {"is_disabled": 0, "rental_uris": {"android": "https://dc.lft.to/lastmile_qr_scan", "ios": "https://dc.lft.to/lastmile_qr_scan"}, "is_reserved": 0, "name": "7a4419f3fc05e28c8aac67f3d6b19899", "lon": -77.04699883333333, "type": "electric_scooter", "bike_id": "7a4419f3fc05e28c8aac67f3d6b19899", "fusion_lon": 0.0, "lat": 38.9157295, "fusion_lat": 0.0}, {"is_disabled": 0, "rental_uris": {"android": "https://dc.lft.to/lastmile_qr_scan", "ios": "https://dc.lft.to/lastmile_qr_scan"}, "is_reserved": 0, "name": "56c6aa89999dad18f2cc7a27cad1b2f8", "lon": -77.05519966666667, "type": "electric_scooter", "bike_id": "56c6aa89999dad18f2cc7a27cad1b2f8", "fusion_lon": 0.0, "lat": 38.921639666666664, "fusion_lat": 0.0}, {"is_disabled": 0, "rental_uris": {"android": "https://dc.lft.to/lastmile_qr_scan", "ios": "https://dc.lft.to/lastmile_qr_scan"}, "is_reserved": 0, "name": "c4c15288b938ef299026de4ecdd39292", "lon": -77.0416895, "type": "electric_scooter", "bike_id": "c4c15288b938ef299026de4ecdd39292", "fusion_lon": 0.0, "lat": 38.91272633333333, "fusion_lat": 0.0}, {"is_disabled": 0, "rental_uris": {"android": "https://dc.lft.to/lastmile_qr_scan", "ios": "https://dc.lft.to/lastmile_qr_scan"}, "is_reserved": 0, "name": "ebedfc1fcd02e693f8520af695963a72", "lon": -77.04668866666667, "type": "electric_scooter", "bike_id": "ebedfc1fcd02e693f8520af695963a72", "fusion_lon": 0.0, "lat": 38.907404166666666, "fusion_lat": 0.0}, {"is_disabled": 0, "rental_uris": {"android": "https://dc.lft.to/lastmile_qr_scan", "ios": "https://dc.lft.to/lastmile_qr_scan"}, "is_reserved": 0, "name": "f06a6a63f85728d82def34769b2e352c", "lon": -77.01719283333334, "type": "electric_scooter", "bike_id": "f06a6a63f85728d82def34769b2e352c", "fusion_lon": 0.0, "lat": 38.9051695, "fusion_lat": 0.0}, {"is_disabled": 0, "rental_uris": {"android": "https://dc.lft.to/lastmile_qr_scan", "ios": "https://dc.lft.to/lastmile_qr_scan"}, "is_reserved": 0, "name": "9df58cc36dbd42aec452992e1a06dc96", "lon": -77.0610005, "type": "electric_scooter", "bike_id": "9df58cc36dbd42aec452992e1a06dc96", "fusion_lon": 0.0, "lat": 38.94369583333334, "fusion_lat": 0.0}, {"is_disabled": 0, "rental_uris": {"android": "https://dc.lft.to/lastmile_qr_scan", "ios": "https://dc.lft.to/lastmile_qr_scan"}, "is_reserved": 0, "name": "6163aacee6753e7dcdb677eedca88a77", "lon": -77.03447766666666, "type": "electric_scooter", "bike_id": "6163aacee6753e7dcdb677eedca88a77", "fusion_lon": 0.0, "lat": 38.9343415, "fusion_lat": 0.0}, {"is_disabled": 0, "rental_uris": {"android": "https://dc.lft.to/lastmile_qr_scan", "ios": "https://dc.lft.to/lastmile_qr_scan"}, "is_reserved": 0, "name": "08f4965b3fc1eb36d824b2709b39c09d", "lon": -77.0176425, "type": "electric_scooter", "bike_id": "08f4965b3fc1eb36d824b2709b39c09d", "fusion_lon": 0.0, "lat": 38.919004666666666, "fusion_lat": 0.0}, {"is_disabled": 0, "rental_uris": {"android": "https://dc.lft.to/lastmile_qr_scan", "ios": "https://dc.lft.to/lastmile_qr_scan"}, "is_reserved": 0, "name": "ad5087f4ed7819d1a9040a8d87bc1db6", "lon": -76.9988475, "type": "electric_scooter", "bike_id": "ad5087f4ed7819d1a9040a8d87bc1db6", "fusion_lon": 0.0, "lat": 38.88974966666667, "fusion_lat": 0.0}, {"is_disabled": 0, "rental_uris": {"android": "https://dc.lft.to/lastmile_qr_scan", "ios": "https://dc.lft.to/lastmile_qr_scan"}, "is_reserved": 0, "name": "be72b72af2f4d640da24601e743f85b5", "lon": -77.0334875, "type": "electric_scooter", "bike_id": "be72b72af2f4d640da24601e743f85b5", "fusion_lon": 0.0, "lat": 38.93797466666667, "fusion_lat": 0.0}, {"is_disabled": 0, "rental_uris": {"android": "https://dc.lft.to/lastmile_qr_scan", "ios": "https://dc.lft.to/lastmile_qr_scan"}, "is_reserved": 0, "name": "5a83686c58efcccb2087e801b78dae16", "lon": -76.92941416666666, "type": "electric_bike", "bike_id": "5a83686c58efcccb2087e801b78dae16", "fusion_lon": 0.0, "lat": 38.90292766666666, "fusion_lat": 0.0}, {"is_disabled": 0, "rental_uris": {"android": "https://dc.lft.to/lastmile_qr_scan", "ios": "https://dc.lft.to/lastmile_qr_scan"}, "is_reserved": 0, "name": "e2541a5d9a90ea4ed48f6f7aedf28c3c", "lon": -76.93385783333333, "type": "electric_scooter", "bike_id": "e2541a5d9a90ea4ed48f6f7aedf28c3c", "fusion_lon": 0.0, "lat": 38.89920383333333, "fusion_lat": 0.0}, {"is_disabled": 0, "rental_uris": {"android": "https://dc.lft.to/lastmile_qr_scan", "ios": "https://dc.lft.to/lastmile_qr_scan"}, "is_reserved": 0, "name": "78d2ac99d5f208d3fbfb18adbafb7e09", "lon": -76.96174216666667, "type": "electric_bike", "bike_id": "78d2ac99d5f208d3fbfb18adbafb7e09", "fusion_lon": 0.0, "lat": 38.918632833333334, "fusion_lat": 0.0}, {"is_disabled": 0, "rental_uris": {"android": "https://dc.lft.to/lastmile_qr_scan", "ios": "https://dc.lft.to/lastmile_qr_scan"}, "is_reserved": 0, "name": "d52be79c82de259974e7817a7f6a6f9d", "lon": -77.031232, "type": "electric_scooter", "bike_id": "d52be79c82de259974e7817a7f6a6f9d", "fusion_lon": 0.0, "lat": 38.92369983333333, "fusion_lat": 0.0}, {"is_disabled": 0, "rental_uris": {"android": "https://dc.lft.to/lastmile_qr_scan", "ios": "https://dc.lft.to/lastmile_qr_scan"}, "is_reserved": 0, "name": "13b1fbfa55e6ec1819729bcafbaea544", "lon": -77.0222175, "type": "electric_scooter", "bike_id": "13b1fbfa55e6ec1819729bcafbaea544", "fusion_lon": 0.0, "lat": 38.91271416666667, "fusion_lat": 0.0}, {"is_disabled": 0, "rental_uris": {"android": "https://dc.lft.to/lastmile_qr_scan", "ios": "https://dc.lft.to/lastmile_qr_scan"}, "is_reserved": 0, "name": "09c692f504f97a492df7660b66eaf754", "lon": -77.04008483333334, "type": "electric_scooter", "bike_id": "09c692f504f97a492df7660b66eaf754", "fusion_lon": 0.0, "lat": 38.910003333333336, "fusion_lat": 0.0}, {"is_disabled": 0, "rental_uris": {"android": "https://dc.lft.to/lastmile_qr_scan", "ios": "https://dc.lft.to/lastmile_qr_scan"}, "is_reserved": 0, "name": "855cc3c6b99bff7d2b7b116360eb2d36", "lon": -77.032155, "type": "electric_scooter", "bike_id": "855cc3c6b99bff7d2b7b116360eb2d36", "fusion_lon": 0.0, "lat": 38.915300333333334, "fusion_lat": 0.0}, {"is_disabled": 0, "rental_uris": {"android": "https://dc.lft.to/lastmile_qr_scan", "ios": "https://dc.lft.to/lastmile_qr_scan"}, "is_reserved": 0, "name": "23bb5c1dc173bbe5ad26744ae6e24d93", "lon": -77.03151016666666, "type": "electric_scooter", "bike_id": "23bb5c1dc173bbe5ad26744ae6e24d93", "fusion_lon": 0.0, "lat": 38.909778833333334, "fusion_lat": 0.0}, {"is_disabled": 0, "rental_uris": {"android": "https://dc.lft.to/lastmile_qr_scan", "ios": "https://dc.lft.to/lastmile_qr_scan"}, "is_reserved": 0, "name": "481ca46085a13a2558384a97fc9250bf", "lon": -77.00196316666667, "type": "electric_scooter", "bike_id": "481ca46085a13a2558384a97fc9250bf", "fusion_lon": 0.0, "lat": 38.91635266666667, "fusion_lat": 0.0}, {"is_disabled": 0, "rental_uris": {"android": "https://dc.lft.to/lastmile_qr_scan", "ios": "https://dc.lft.to/lastmile_qr_scan"}, "is_reserved": 0, "name": "b269b151bc07e7e52b5cb34eae891025", "lon": -77.03830933333333, "type": "electric_scooter", "bike_id": "b269b151bc07e7e52b5cb34eae891025", "fusion_lon": 0.0, "lat": 38.91113033333333, "fusion_lat": 0.0}, {"is_disabled": 0, "rental_uris": {"android": "https://dc.lft.to/lastmile_qr_scan", "ios": "https://dc.lft.to/lastmile_qr_scan"}, "is_reserved": 0, "name": "7330d32f54820fedd06349e0422f8c1a", "lon": -77.03205516666667, "type": "electric_scooter", "bike_id": "7330d32f54820fedd06349e0422f8c1a", "fusion_lon": 0.0, "lat": 38.91801983333333, "fusion_lat": 0.0}, {"is_disabled": 0, "rental_uris": {"android": "https://dc.lft.to/lastmile_qr_scan", "ios": "https://dc.lft.to/lastmile_qr_scan"}, "is_reserved": 0, "name": "f53fe2576e1d96bc43efb40cdd69861c", "lon": -77.02511516666667, "type": "electric_bike", "bike_id": "f53fe2576e1d96bc43efb40cdd69861c", "fusion_lon": 0.0, "lat": 38.93408816666667, "fusion_lat": 0.0}, {"is_disabled": 0, "rental_uris": {"android": "https://dc.lft.to/lastmile_qr_scan", "ios": "https://dc.lft.to/lastmile_qr_scan"}, "is_reserved": 0, "name": "950a737d1dd21b59a084ca75205a5418", "lon": -77.01507416666666, "type": "electric_scooter", "bike_id": "950a737d1dd21b59a084ca75205a5418", "fusion_lon": 0.0, "lat": 38.9023805, "fusion_lat": 0.0}, {"is_disabled": 0, "rental_uris": {"android": "https://dc.lft.to/lastmile_qr_scan", "ios": "https://dc.lft.to/lastmile_qr_scan"}, "is_reserved": 0, "name": "c03bc79701c2ee52e66a7b6191e11649", "lon": -77.01181666666666, "type": "electric_scooter", "bike_id": "c03bc79701c2ee52e66a7b6191e11649", "fusion_lon": 0.0, "lat": 38.870811333333336, "fusion_lat": 0.0}, {"is_disabled": 0, "rental_uris": {"android": "https://dc.lft.to/lastmile_qr_scan", "ios": "https://dc.lft.to/lastmile_qr_scan"}, "is_reserved": 0, "name": "c1dd0c986f62ad6280e7f9ce8ce1a219", "lon": -77.02525083333333, "type": "electric_scooter", "bike_id": "c1dd0c986f62ad6280e7f9ce8ce1a219", "fusion_lon": 0.0, "lat": 38.975744, "fusion_lat": 0.0}, {"is_disabled": 0, "rental_uris": {"android": "https://dc.lft.to/lastmile_qr_scan", "ios": "https://dc.lft.to/lastmile_qr_scan"}, "is_reserved": 0, "name": "c91ed288d3347efe1089c27c1bc23542", "lon": -77.035916, "type": "electric_scooter", "bike_id": "c91ed288d3347efe1089c27c1bc23542", "fusion_lon": 0.0, "lat": 38.90770116666667, "fusion_lat": 0.0}, {"is_disabled": 0, "rental_uris": {"android": "https://dc.lft.to/lastmile_qr_scan", "ios": "https://dc.lft.to/lastmile_qr_scan"}, "is_reserved": 0, "name": "8bb26bd6d8c1218bf0b75943c13297fb", "lon": -76.98799083333333, "type": "electric_scooter", "bike_id": "8bb26bd6d8c1218bf0b75943c13297fb", "fusion_lon": 0.0, "lat": 38.892066166666666, "fusion_lat": 0.0}, {"is_disabled": 0, "rental_uris": {"android": "https://dc.lft.to/lastmile_qr_scan", "ios": "https://dc.lft.to/lastmile_qr_scan"}, "is_reserved": 0, "name": "e4d155d4a7f7fb5439730b15f48f62bd", "lon": -77.06351416666666, "type": "electric_scooter", "bike_id": "e4d155d4a7f7fb5439730b15f48f62bd", "fusion_lon": 0.0, "lat": 38.9443765, "fusion_lat": 0.0}, {"is_disabled": 0, "rental_uris": {"android": "https://dc.lft.to/lastmile_qr_scan", "ios": "https://dc.lft.to/lastmile_qr_scan"}, "is_reserved": 0, "name": "773bcf879a83593ce3a39e34ed9b79fb", "lon": -77.02476883333334, "type": "electric_scooter", "bike_id": "773bcf879a83593ce3a39e34ed9b79fb", "fusion_lon": 0.0, "lat": 38.902497333333336, "fusion_lat": 0.0}, {"is_disabled": 0, "rental_uris": {"android": "https://dc.lft.to/lastmile_qr_scan", "ios": "https://dc.lft.to/lastmile_qr_scan"}, "is_reserved": 0, "name": "4483e29df1c7121f3a51f81eb6c313e3", "lon": -77.03280683333334, "type": "electric_scooter", "bike_id": "4483e29df1c7121f3a51f81eb6c313e3", "fusion_lon": 0.0, "lat": 38.9372415, "fusion_lat": 0.0}, {"is_disabled": 0, "rental_uris": {"android": "https://dc.lft.to/lastmile_qr_scan", "ios": "https://dc.lft.to/lastmile_qr_scan"}, "is_reserved": 0, "name": "8ff65f24f90d45e3083d3b8c0347076a", "lon": -77.00583683333333, "type": "electric_bike", "bike_id": "8ff65f24f90d45e3083d3b8c0347076a", "fusion_lon": 0.0, "lat": 38.8368765, "fusion_lat": 0.0}, {"is_disabled": 0, "rental_uris": {"android": "https://dc.lft.to/lastmile_qr_scan", "ios": "https://dc.lft.to/lastmile_qr_scan"}, "is_reserved": 0, "name": "3087898c24157df140d69f24a9c51ae8", "lon": -77.03102716666666, "type": "electric_scooter", "bike_id": "3087898c24157df140d69f24a9c51ae8", "fusion_lon": 0.0, "lat": 38.9354235, "fusion_lat": 0.0}, {"is_disabled": 0, "rental_uris": {"android": "https://dc.lft.to/lastmile_qr_scan", "ios": "https://dc.lft.to/lastmile_qr_scan"}, "is_reserved": 0, "name": "158e6e9fee2a3396c66fa27e482c7757", "lon": -77.046487, "type": "electric_scooter", "bike_id": "158e6e9fee2a3396c66fa27e482c7757", "fusion_lon": 0.0, "lat": 38.892978166666666, "fusion_lat": 0.0}, {"is_disabled": 0, "rental_uris": {"android": "https://dc.lft.to/lastmile_qr_scan", "ios": "https://dc.lft.to/lastmile_qr_scan"}, "is_reserved": 0, "name": "69ca690bef59f29dde155369f79331f9", "lon": -77.031818, "type": "electric_scooter", "bike_id": "69ca690bef59f29dde155369f79331f9", "fusion_lon": 0.0, "lat": 38.913981666666665, "fusion_lat": 0.0}, {"is_disabled": 0, "rental_uris": {"android": "https://dc.lft.to/lastmile_qr_scan", "ios": "https://dc.lft.to/lastmile_qr_scan"}, "is_reserved": 0, "name": "0dfdcd60d93590f1a085f15821a5710e", "lon": -77.03225216666667, "type": "electric_scooter", "bike_id": "0dfdcd60d93590f1a085f15821a5710e", "fusion_lon": 0.0, "lat": 38.90972216666667, "fusion_lat": 0.0}, {"is_disabled": 0, "rental_uris": {"android": "https://dc.lft.to/lastmile_qr_scan", "ios": "https://dc.lft.to/lastmile_qr_scan"}, "is_reserved": 0, "name": "d46c46e55ae7b528c0ede0dff05187e9", "lon": -76.94630316666667, "type": "electric_bike", "bike_id": "d46c46e55ae7b528c0ede0dff05187e9", "fusion_lon": 0.0, "lat": 38.832314833333335, "fusion_lat": 0.0}, {"is_disabled": 0, "rental_uris": {"android": "https://dc.lft.to/lastmile_qr_scan", "ios": "https://dc.lft.to/lastmile_qr_scan"}, "is_reserved": 0, "name": "574123f82522156e43c1ed71ad2f924c", "lon": -77.03191, "type": "electric_scooter", "bike_id": "574123f82522156e43c1ed71ad2f924c", "fusion_lon": 0.0, "lat": 38.91557683333333, "fusion_lat": 0.0}, {"is_disabled": 0, "rental_uris": {"android": "https://dc.lft.to/lastmile_qr_scan", "ios": "https://dc.lft.to/lastmile_qr_scan"}, "is_reserved": 0, "name": "6f050018b41dd29e2c41a8cd8b1559a8", "lon": -77.041711, "type": "electric_scooter", "bike_id": "6f050018b41dd29e2c41a8cd8b1559a8", "fusion_lon": 0.0, "lat": 38.91548433333333, "fusion_lat": 0.0}, {"is_disabled": 0, "rental_uris": {"android": "https://dc.lft.to/lastmile_qr_scan", "ios": "https://dc.lft.to/lastmile_qr_scan"}, "is_reserved": 0, "name": "fc56273b702b4d484ee6d9f1bd08d6ca", "lon": -77.02731383333334, "type": "electric_scooter", "bike_id": "fc56273b702b4d484ee6d9f1bd08d6ca", "fusion_lon": 0.0, "lat": 38.9408725, "fusion_lat": 0.0}, {"is_disabled": 0, "rental_uris": {"android": "https://dc.lft.to/lastmile_qr_scan", "ios": "https://dc.lft.to/lastmile_qr_scan"}, "is_reserved": 0, "name": "66f03fcc23aef8493fbbb67a90f8ab3d", "lon": -76.9951755, "type": "electric_scooter", "bike_id": "66f03fcc23aef8493fbbb67a90f8ab3d", "fusion_lon": 0.0, "lat": 38.89485166666667, "fusion_lat": 0.0}, {"is_disabled": 0, "rental_uris": {"android": "https://dc.lft.to/lastmile_qr_scan", "ios": "https://dc.lft.to/lastmile_qr_scan"}, "is_reserved": 0, "name": "561f4949f35690e68a0f583ea9ceab90", "lon": -77.040858, "type": "electric_scooter", "bike_id": "561f4949f35690e68a0f583ea9ceab90", "fusion_lon": 0.0, "lat": 38.911116, "fusion_lat": 0.0}, {"is_disabled": 0, "rental_uris": {"android": "https://dc.lft.to/lastmile_qr_scan", "ios": "https://dc.lft.to/lastmile_qr_scan"}, "is_reserved": 0, "name": "459ce04d1295f4a14011499e55cb0dcc", "lon": -77.03067833333333, "type": "electric_scooter", "bike_id": "459ce04d1295f4a14011499e55cb0dcc", "fusion_lon": 0.0, "lat": 38.9238615, "fusion_lat": 0.0}, {"is_disabled": 0, "rental_uris": {"android": "https://dc.lft.to/lastmile_qr_scan", "ios": "https://dc.lft.to/lastmile_qr_scan"}, "is_reserved": 0, "name": "b6cd889cb6d53cc001df3ff3fe1b0c25", "lon": -76.997073, "type": "electric_scooter", "bike_id": "b6cd889cb6d53cc001df3ff3fe1b0c25", "fusion_lon": 0.0, "lat": 38.8387215, "fusion_lat": 0.0}, {"is_disabled": 0, "rental_uris": {"android": "https://dc.lft.to/lastmile_qr_scan", "ios": "https://dc.lft.to/lastmile_qr_scan"}, "is_reserved": 0, "name": "bcbaaab408c2e5f14830fd57b488f286", "lon": -77.03186966666667, "type": "electric_scooter", "bike_id": "bcbaaab408c2e5f14830fd57b488f286", "fusion_lon": 0.0, "lat": 38.91926183333333, "fusion_lat": 0.0}, {"is_disabled": 0, "rental_uris": {"android": "https://dc.lft.to/lastmile_qr_scan", "ios": "https://dc.lft.to/lastmile_qr_scan"}, "is_reserved": 0, "name": "c5fbed24ef210080a85c497f29ca8b30", "lon": -77.0916155, "type": "electric_bike", "bike_id": "c5fbed24ef210080a85c497f29ca8b30", "fusion_lon": 0.0, "lat": 38.967619166666665, "fusion_lat": 0.0}, {"is_disabled": 0, "rental_uris": {"android": "https://dc.lft.to/lastmile_qr_scan", "ios": "https://dc.lft.to/lastmile_qr_scan"}, "is_reserved": 0, "name": "2cdaa3c8393d944860fe565f3010d29e", "lon": -76.9867645, "type": "electric_scooter", "bike_id": "2cdaa3c8393d944860fe565f3010d29e", "fusion_lon": 0.0, "lat": 38.85811833333333, "fusion_lat": 0.0}, {"is_disabled": 0, "rental_uris": {"android": "https://dc.lft.to/lastmile_qr_scan", "ios": "https://dc.lft.to/lastmile_qr_scan"}, "is_reserved": 0, "name": "8d79690b2c41ac1f2884583c7f9578de", "lon": -77.03492266666667, "type": "electric_scooter", "bike_id": "8d79690b2c41ac1f2884583c7f9578de", "fusion_lon": 0.0, "lat": 38.932747666666664, "fusion_lat": 0.0}, {"is_disabled": 0, "rental_uris": {"android": "https://dc.lft.to/lastmile_qr_scan", "ios": "https://dc.lft.to/lastmile_qr_scan"}, "is_reserved": 0, "name": "57dee2584d0976c30624c5d53b5e32ef", "lon": -77.00917883333334, "type": "electric_scooter", "bike_id": "57dee2584d0976c30624c5d53b5e32ef", "fusion_lon": 0.0, "lat": 38.95953316666667, "fusion_lat": 0.0}, {"is_disabled": 0, "rental_uris": {"android": "https://dc.lft.to/lastmile_qr_scan", "ios": "https://dc.lft.to/lastmile_qr_scan"}, "is_reserved": 0, "name": "ae734346e7e20184c43de5adff3fc28d", "lon": -77.07269933333333, "type": "electric_scooter", "bike_id": "ae734346e7e20184c43de5adff3fc28d", "fusion_lon": 0.0, "lat": 38.90673783333333, "fusion_lat": 0.0}, {"is_disabled": 0, "rental_uris": {"android": "https://dc.lft.to/lastmile_qr_scan", "ios": "https://dc.lft.to/lastmile_qr_scan"}, "is_reserved": 0, "name": "ad91b9fe274d3139f87030fd9771bcb6", "lon": -77.02102333333333, "type": "electric_bike", "bike_id": "ad91b9fe274d3139f87030fd9771bcb6", "fusion_lon": 0.0, "lat": 39.023006, "fusion_lat": 0.0}, {"is_disabled": 0, "rental_uris": {"android": "https://dc.lft.to/lastmile_qr_scan", "ios": "https://dc.lft.to/lastmile_qr_scan"}, "is_reserved": 0, "name": "26cc51fd82e5a888de2a328464a0fa9c", "lon": -77.02721833333334, "type": "electric_scooter", "bike_id": "26cc51fd82e5a888de2a328464a0fa9c", "fusion_lon": 0.0, "lat": 38.90855883333333, "fusion_lat": 0.0}, {"is_disabled": 0, "rental_uris": {"android": "https://dc.lft.to/lastmile_qr_scan", "ios": "https://dc.lft.to/lastmile_qr_scan"}, "is_reserved": 0, "name": "e8fb42f42a59271f4552ef77d8c787cc", "lon": -77.04032783333334, "type": "electric_scooter", "bike_id": "e8fb42f42a59271f4552ef77d8c787cc", "fusion_lon": 0.0, "lat": 38.913068833333334, "fusion_lat": 0.0}, {"is_disabled": 0, "rental_uris": {"android": "https://dc.lft.to/lastmile_qr_scan", "ios": "https://dc.lft.to/lastmile_qr_scan"}, "is_reserved": 0, "name": "a54363e7044ab8f82afb5422b466933b", "lon": -77.02724316666666, "type": "electric_scooter", "bike_id": "a54363e7044ab8f82afb5422b466933b", "fusion_lon": 0.0, "lat": 38.94089433333333, "fusion_lat": 0.0}, {"is_disabled": 0, "rental_uris": {"android": "https://dc.lft.to/lastmile_qr_scan", "ios": "https://dc.lft.to/lastmile_qr_scan"}, "is_reserved": 0, "name": "0a7996764ca74f0dc5a568e21420030e", "lon": -76.937789, "type": "electric_scooter", "bike_id": "0a7996764ca74f0dc5a568e21420030e", "fusion_lon": 0.0, "lat": 38.899643833333336, "fusion_lat": 0.0}, {"is_disabled": 0, "rental_uris": {"android": "https://dc.lft.to/lastmile_qr_scan", "ios": "https://dc.lft.to/lastmile_qr_scan"}, "is_reserved": 0, "name": "246699883513348de05c10ca1c6447e0", "lon": -77.0277945, "type": "electric_scooter", "bike_id": "246699883513348de05c10ca1c6447e0", "fusion_lon": 0.0, "lat": 38.92686166666667, "fusion_lat": 0.0}, {"is_disabled": 0, "rental_uris": {"android": "https://dc.lft.to/lastmile_qr_scan", "ios": "https://dc.lft.to/lastmile_qr_scan"}, "is_reserved": 0, "name": "6516b0b59a69a1cb262e9eb5679d9663", "lon": -77.0316075, "type": "electric_scooter", "bike_id": "6516b0b59a69a1cb262e9eb5679d9663", "fusion_lon": 0.0, "lat": 38.92791716666667, "fusion_lat": 0.0}, {"is_disabled": 0, "rental_uris": {"android": "https://dc.lft.to/lastmile_qr_scan", "ios": "https://dc.lft.to/lastmile_qr_scan"}, "is_reserved": 0, "name": "b1962f51c9d0164be018901904c2c1a9", "lon": -77.04350666666667, "type": "electric_scooter", "bike_id": "b1962f51c9d0164be018901904c2c1a9", "fusion_lon": 0.0, "lat": 38.9212645, "fusion_lat": 0.0}, {"is_disabled": 0, "rental_uris": {"android": "https://dc.lft.to/lastmile_qr_scan", "ios": "https://dc.lft.to/lastmile_qr_scan"}, "is_reserved": 0, "name": "fd644fb44e89214679922b215f4cd9bd", "lon": -77.12900766666667, "type": "electric_bike", "bike_id": "fd644fb44e89214679922b215f4cd9bd", "fusion_lon": 0.0, "lat": 38.863785666666665, "fusion_lat": 0.0}, {"is_disabled": 0, "rental_uris": {"android": "https://dc.lft.to/lastmile_qr_scan", "ios": "https://dc.lft.to/lastmile_qr_scan"}, "is_reserved": 0, "name": "2241fa5f59fc9f5279e9ba8123a9f7dc", "lon": -77.03838966666666, "type": "electric_scooter", "bike_id": "2241fa5f59fc9f5279e9ba8123a9f7dc", "fusion_lon": 0.0, "lat": 38.90672983333333, "fusion_lat": 0.0}, {"is_disabled": 0, "rental_uris": {"android": "https://dc.lft.to/lastmile_qr_scan", "ios": "https://dc.lft.to/lastmile_qr_scan"}, "is_reserved": 0, "name": "5750f8eb66e4946690177bdd8002fb34", "lon": -77.05941816666666, "type": "electric_scooter", "bike_id": "5750f8eb66e4946690177bdd8002fb34", "fusion_lon": 0.0, "lat": 38.936742333333335, "fusion_lat": 0.0}, {"is_disabled": 0, "rental_uris": {"android": "https://dc.lft.to/lastmile_qr_scan", "ios": "https://dc.lft.to/lastmile_qr_scan"}, "is_reserved": 0, "name": "8b3a281f3856daa148b1a773f586996a", "lon": -77.03857116666667, "type": "electric_scooter", "bike_id": "8b3a281f3856daa148b1a773f586996a", "fusion_lon": 0.0, "lat": 38.91718916666667, "fusion_lat": 0.0}, {"is_disabled": 0, "rental_uris": {"android": "https://dc.lft.to/lastmile_qr_scan", "ios": "https://dc.lft.to/lastmile_qr_scan"}, "is_reserved": 0, "name": "46f9393683e5c5c06b7d1f632f383857", "lon": -77.03085033333333, "type": "electric_scooter", "bike_id": "46f9393683e5c5c06b7d1f632f383857", "fusion_lon": 0.0, "lat": 38.958294, "fusion_lat": 0.0}, {"is_disabled": 0, "rental_uris": {"android": "https://dc.lft.to/lastmile_qr_scan", "ios": "https://dc.lft.to/lastmile_qr_scan"}, "is_reserved": 0, "name": "125ddab6c27529cdf345f95336329145", "lon": -77.0056785, "type": "electric_scooter", "bike_id": "125ddab6c27529cdf345f95336329145", "fusion_lon": 0.0, "lat": 38.88502583333333, "fusion_lat": 0.0}, {"is_disabled": 0, "rental_uris": {"android": "https://dc.lft.to/lastmile_qr_scan", "ios": "https://dc.lft.to/lastmile_qr_scan"}, "is_reserved": 0, "name": "2a1194e3b921024245c8be2f6fb70f32", "lon": -77.03386533333334, "type": "electric_scooter", "bike_id": "2a1194e3b921024245c8be2f6fb70f32", "fusion_lon": 0.0, "lat": 38.91911433333333, "fusion_lat": 0.0}, {"is_disabled": 0, "rental_uris": {"android": "https://dc.lft.to/lastmile_qr_scan", "ios": "https://dc.lft.to/lastmile_qr_scan"}, "is_reserved": 0, "name": "2a6bee3af5ade756451a10ea0c18a5ad", "lon": -77.0601215, "type": "electric_scooter", "bike_id": "2a6bee3af5ade756451a10ea0c18a5ad", "fusion_lon": 0.0, "lat": 38.90527616666667, "fusion_lat": 0.0}, {"is_disabled": 0, "rental_uris": {"android": "https://dc.lft.to/lastmile_qr_scan", "ios": "https://dc.lft.to/lastmile_qr_scan"}, "is_reserved": 0, "name": "2d7fa48e6a72b506bcbce392c93594fa", "lon": -77.01644833333333, "type": "electric_scooter", "bike_id": "2d7fa48e6a72b506bcbce392c93594fa", "fusion_lon": 0.0, "lat": 38.8763955, "fusion_lat": 0.0}, {"is_disabled": 0, "rental_uris": {"android": "https://dc.lft.to/lastmile_qr_scan", "ios": "https://dc.lft.to/lastmile_qr_scan"}, "is_reserved": 0, "name": "d8e93e8aaa61619342f5fcb0090a138d", "lon": -77.0345765, "type": "electric_scooter", "bike_id": "d8e93e8aaa61619342f5fcb0090a138d", "fusion_lon": 0.0, "lat": 38.921509, "fusion_lat": 0.0}, {"is_disabled": 0, "rental_uris": {"android": "https://dc.lft.to/lastmile_qr_scan", "ios": "https://dc.lft.to/lastmile_qr_scan"}, "is_reserved": 0, "name": "e2aea5e2ea302326a8bb624d1da4921a", "lon": -77.04371066666667, "type": "electric_scooter", "bike_id": "e2aea5e2ea302326a8bb624d1da4921a", "fusion_lon": 0.0, "lat": 38.91054183333333, "fusion_lat": 0.0}, {"is_disabled": 0, "rental_uris": {"android": "https://dc.lft.to/lastmile_qr_scan", "ios": "https://dc.lft.to/lastmile_qr_scan"}, "is_reserved": 0, "name": "3f3929b5dc29777869836d1fdac428c8", "lon": -77.02953066666667, "type": "electric_scooter", "bike_id": "3f3929b5dc29777869836d1fdac428c8", "fusion_lon": 0.0, "lat": 38.904284833333335, "fusion_lat": 0.0}, {"is_disabled": 0, "rental_uris": {"android": "https://dc.lft.to/lastmile_qr_scan", "ios": "https://dc.lft.to/lastmile_qr_scan"}, "is_reserved": 0, "name": "968f5e83b6743716a7407c696fb38804", "lon": -77.037821, "type": "electric_scooter", "bike_id": "968f5e83b6743716a7407c696fb38804", "fusion_lon": 0.0, "lat": 38.93024166666667, "fusion_lat": 0.0}, {"is_disabled": 0, "rental_uris": {"android": "https://dc.lft.to/lastmile_qr_scan", "ios": "https://dc.lft.to/lastmile_qr_scan"}, "is_reserved": 0, "name": "4fe52941c130c0524026a99b2326eeba", "lon": -77.032642, "type": "electric_scooter", "bike_id": "4fe52941c130c0524026a99b2326eeba", "fusion_lon": 0.0, "lat": 38.93327, "fusion_lat": 0.0}, {"is_disabled": 0, "rental_uris": {"android": "https://dc.lft.to/lastmile_qr_scan", "ios": "https://dc.lft.to/lastmile_qr_scan"}, "is_reserved": 0, "name": "b91ec36ee2b7be114bef07fc4a9153e5", "lon": -76.94718416666667, "type": "electric_scooter", "bike_id": "b91ec36ee2b7be114bef07fc4a9153e5", "fusion_lon": 0.0, "lat": 38.897099833333336, "fusion_lat": 0.0}, {"is_disabled": 0, "rental_uris": {"android": "https://dc.lft.to/lastmile_qr_scan", "ios": "https://dc.lft.to/lastmile_qr_scan"}, "is_reserved": 0, "name": "db3b4a0b415c8cc8658c8d6df25c415c", "lon": -76.991904, "type": "electric_scooter", "bike_id": "db3b4a0b415c8cc8658c8d6df25c415c", "fusion_lon": 0.0, "lat": 38.889633, "fusion_lat": 0.0}, {"is_disabled": 0, "rental_uris": {"android": "https://dc.lft.to/lastmile_qr_scan", "ios": "https://dc.lft.to/lastmile_qr_scan"}, "is_reserved": 0, "name": "c86a7061ae8957fa5ca0295a8ed8bf31", "lon": -77.02778966666666, "type": "electric_scooter", "bike_id": "c86a7061ae8957fa5ca0295a8ed8bf31", "fusion_lon": 0.0, "lat": 38.92768366666667, "fusion_lat": 0.0}, {"is_disabled": 0, "rental_uris": {"android": "https://dc.lft.to/lastmile_qr_scan", "ios": "https://dc.lft.to/lastmile_qr_scan"}, "is_reserved": 0, "name": "8005a934a2da6bdbc9e60ca7ac034b6c", "lon": -77.00086233333333, "type": "electric_scooter", "bike_id": "8005a934a2da6bdbc9e60ca7ac034b6c", "fusion_lon": 0.0, "lat": 38.9255405, "fusion_lat": 0.0}, {"is_disabled": 0, "rental_uris": {"android": "https://dc.lft.to/lastmile_qr_scan", "ios": "https://dc.lft.to/lastmile_qr_scan"}, "is_reserved": 0, "name": "9253be1ed29fe35e645ee6832717896d", "lon": -77.0238905, "type": "electric_scooter", "bike_id": "9253be1ed29fe35e645ee6832717896d", "fusion_lon": 0.0, "lat": 38.90704733333333, "fusion_lat": 0.0}, {"is_disabled": 0, "rental_uris": {"android": "https://dc.lft.to/lastmile_qr_scan", "ios": "https://dc.lft.to/lastmile_qr_scan"}, "is_reserved": 0, "name": "eb5a5c07b715408ba83e600dc3de1eab", "lon": -77.03851283333333, "type": "electric_scooter", "bike_id": "eb5a5c07b715408ba83e600dc3de1eab", "fusion_lon": 0.0, "lat": 38.909295166666666, "fusion_lat": 0.0}, {"is_disabled": 0, "rental_uris": {"android": "https://dc.lft.to/lastmile_qr_scan", "ios": "https://dc.lft.to/lastmile_qr_scan"}, "is_reserved": 0, "name": "ef00a74f893abbbe1e1b252c5529d844", "lon": -76.97327633333333, "type": "electric_bike", "bike_id": "ef00a74f893abbbe1e1b252c5529d844", "fusion_lon": 0.0, "lat": 38.850660166666664, "fusion_lat": 0.0}, {"is_disabled": 0, "rental_uris": {"android": "https://dc.lft.to/lastmile_qr_scan", "ios": "https://dc.lft.to/lastmile_qr_scan"}, "is_reserved": 0, "name": "8fd097f7c0397f117c119c851a77e39a", "lon": -77.01289933333334, "type": "electric_scooter", "bike_id": "8fd097f7c0397f117c119c851a77e39a", "fusion_lon": 0.0, "lat": 38.92022016666667, "fusion_lat": 0.0}, {"is_disabled": 0, "rental_uris": {"android": "https://dc.lft.to/lastmile_qr_scan", "ios": "https://dc.lft.to/lastmile_qr_scan"}, "is_reserved": 0, "name": "62d6fd89046deecfa40db276ce958f94", "lon": -77.023654, "type": "electric_scooter", "bike_id": "62d6fd89046deecfa40db276ce958f94", "fusion_lon": 0.0, "lat": 38.93144933333333, "fusion_lat": 0.0}, {"is_disabled": 0, "rental_uris": {"android": "https://dc.lft.to/lastmile_qr_scan", "ios": "https://dc.lft.to/lastmile_qr_scan"}, "is_reserved": 0, "name": "222aa00920c9e53a584f1bbe82c18fb6", "lon": -77.02484483333333, "type": "electric_scooter", "bike_id": "222aa00920c9e53a584f1bbe82c18fb6", "fusion_lon": 0.0, "lat": 38.916158833333334, "fusion_lat": 0.0}, {"is_disabled": 0, "rental_uris": {"android": "https://dc.lft.to/lastmile_qr_scan", "ios": "https://dc.lft.to/lastmile_qr_scan"}, "is_reserved": 0, "name": "30363859be5808b4199a880b1c5f32f2", "lon": -77.03612033333333, "type": "electric_scooter", "bike_id": "30363859be5808b4199a880b1c5f32f2", "fusion_lon": 0.0, "lat": 38.93151316666667, "fusion_lat": 0.0}, {"is_disabled": 0, "rental_uris": {"android": "https://dc.lft.to/lastmile_qr_scan", "ios": "https://dc.lft.to/lastmile_qr_scan"}, "is_reserved": 0, "name": "8beb84e40fbfdffa83eb93df88ddbdb0", "lon": -77.05094233333334, "type": "electric_scooter", "bike_id": "8beb84e40fbfdffa83eb93df88ddbdb0", "fusion_lon": 0.0, "lat": 38.923395, "fusion_lat": 0.0}, {"is_disabled": 0, "rental_uris": {"android": "https://dc.lft.to/lastmile_qr_scan", "ios": "https://dc.lft.to/lastmile_qr_scan"}, "is_reserved": 0, "name": "10d48e80cf2b378efbdcccd816cc9cc5", "lon": -77.043405, "type": "electric_scooter", "bike_id": "10d48e80cf2b378efbdcccd816cc9cc5", "fusion_lon": 0.0, "lat": 38.90509183333333, "fusion_lat": 0.0}, {"is_disabled": 0, "rental_uris": {"android": "https://dc.lft.to/lastmile_qr_scan", "ios": "https://dc.lft.to/lastmile_qr_scan"}, "is_reserved": 0, "name": "db7ed08e22f8d529a56c69bf77af159d", "lon": -77.03520333333333, "type": "electric_scooter", "bike_id": "db7ed08e22f8d529a56c69bf77af159d", "fusion_lon": 0.0, "lat": 38.92258783333333, "fusion_lat": 0.0}, {"is_disabled": 0, "rental_uris": {"android": "https://dc.lft.to/lastmile_qr_scan", "ios": "https://dc.lft.to/lastmile_qr_scan"}, "is_reserved": 0, "name": "09293a519f8f5e859ebecb24fd903756", "lon": -77.0292395, "type": "electric_scooter", "bike_id": "09293a519f8f5e859ebecb24fd903756", "fusion_lon": 0.0, "lat": 38.91031666666667, "fusion_lat": 0.0}, {"is_disabled": 0, "rental_uris": {"android": "https://dc.lft.to/lastmile_qr_scan", "ios": "https://dc.lft.to/lastmile_qr_scan"}, "is_reserved": 0, "name": "7a76a60563c61562c860bcd4d7e52db1", "lon": -77.0393275, "type": "electric_scooter", "bike_id": "7a76a60563c61562c860bcd4d7e52db1", "fusion_lon": 0.0, "lat": 38.89955283333333, "fusion_lat": 0.0}, {"is_disabled": 0, "rental_uris": {"android": "https://dc.lft.to/lastmile_qr_scan", "ios": "https://dc.lft.to/lastmile_qr_scan"}, "is_reserved": 0, "name": "c8dfdf477f4c6261ea40a9921a3880c2", "lon": -77.044569, "type": "electric_scooter", "bike_id": "c8dfdf477f4c6261ea40a9921a3880c2", "fusion_lon": 0.0, "lat": 38.918649, "fusion_lat": 0.0}, {"is_disabled": 0, "rental_uris": {"android": "https://dc.lft.to/lastmile_qr_scan", "ios": "https://dc.lft.to/lastmile_qr_scan"}, "is_reserved": 0, "name": "98c00901410c81517d3b082e65a7800e", "lon": -77.040204, "type": "electric_scooter", "bike_id": "98c00901410c81517d3b082e65a7800e", "fusion_lon": 0.0, "lat": 38.92199333333333, "fusion_lat": 0.0}, {"is_disabled": 0, "rental_uris": {"android": "https://dc.lft.to/lastmile_qr_scan", "ios": "https://dc.lft.to/lastmile_qr_scan"}, "is_reserved": 0, "name": "6e78eaeee6fda4a7a70503667b2090c1", "lon": -77.02689183333334, "type": "electric_scooter", "bike_id": "6e78eaeee6fda4a7a70503667b2090c1", "fusion_lon": 0.0, "lat": 38.908698333333334, "fusion_lat": 0.0}, {"is_disabled": 0, "rental_uris": {"android": "https://dc.lft.to/lastmile_qr_scan", "ios": "https://dc.lft.to/lastmile_qr_scan"}, "is_reserved": 0, "name": "8520da422ec93b3a22d140294444a61d", "lon": -77.02228116666667, "type": "electric_scooter", "bike_id": "8520da422ec93b3a22d140294444a61d", "fusion_lon": 0.0, "lat": 38.91568266666667, "fusion_lat": 0.0}, {"is_disabled": 0, "rental_uris": {"android": "https://dc.lft.to/lastmile_qr_scan", "ios": "https://dc.lft.to/lastmile_qr_scan"}, "is_reserved": 0, "name": "055a1f611f9031395395ab0b15acade1", "lon": -77.02892333333334, "type": "electric_bike", "bike_id": "055a1f611f9031395395ab0b15acade1", "fusion_lon": 0.0, "lat": 38.99879766666667, "fusion_lat": 0.0}, {"is_disabled": 0, "rental_uris": {"android": "https://dc.lft.to/lastmile_qr_scan", "ios": "https://dc.lft.to/lastmile_qr_scan"}, "is_reserved": 0, "name": "cb90e944ce7833dfdd03a36de86003c3", "lon": -77.0177545, "type": "electric_scooter", "bike_id": "cb90e944ce7833dfdd03a36de86003c3", "fusion_lon": 0.0, "lat": 38.92113766666667, "fusion_lat": 0.0}, {"is_disabled": 0, "rental_uris": {"android": "https://dc.lft.to/lastmile_qr_scan", "ios": "https://dc.lft.to/lastmile_qr_scan"}, "is_reserved": 0, "name": "4d8ef8e07dd8c3010b17b23e70afc56e", "lon": -77.04720583333334, "type": "electric_scooter", "bike_id": "4d8ef8e07dd8c3010b17b23e70afc56e", "fusion_lon": 0.0, "lat": 38.89849133333333, "fusion_lat": 0.0}, {"is_disabled": 0, "rental_uris": {"android": "https://dc.lft.to/lastmile_qr_scan", "ios": "https://dc.lft.to/lastmile_qr_scan"}, "is_reserved": 0, "name": "0ac796b9b377592719f544c4a6ee7ac8", "lon": -77.04165883333333, "type": "electric_scooter", "bike_id": "0ac796b9b377592719f544c4a6ee7ac8", "fusion_lon": 0.0, "lat": 38.913056166666664, "fusion_lat": 0.0}, {"is_disabled": 0, "rental_uris": {"android": "https://dc.lft.to/lastmile_qr_scan", "ios": "https://dc.lft.to/lastmile_qr_scan"}, "is_reserved": 0, "name": "b2717542c18e5264fa808c660ed9cce2", "lon": -76.97408233333333, "type": "electric_scooter", "bike_id": "b2717542c18e5264fa808c660ed9cce2", "fusion_lon": 0.0, "lat": 38.86511083333333, "fusion_lat": 0.0}, {"is_disabled": 0, "rental_uris": {"android": "https://dc.lft.to/lastmile_qr_scan", "ios": "https://dc.lft.to/lastmile_qr_scan"}, "is_reserved": 0, "name": "067c4842f0b81949ef42017bd975a809", "lon": -77.06763383333333, "type": "electric_scooter", "bike_id": "067c4842f0b81949ef42017bd975a809", "fusion_lon": 0.0, "lat": 38.949773666666665, "fusion_lat": 0.0}, {"is_disabled": 0, "rental_uris": {"android": "https://dc.lft.to/lastmile_qr_scan", "ios": "https://dc.lft.to/lastmile_qr_scan"}, "is_reserved": 0, "name": "86f29a241a26ee99a8079ee155f1608f", "lon": -77.08202716666666, "type": "electric_bike", "bike_id": "86f29a241a26ee99a8079ee155f1608f", "fusion_lon": 0.0, "lat": 38.92207616666666, "fusion_lat": 0.0}, {"is_disabled": 0, "rental_uris": {"android": "https://dc.lft.to/lastmile_qr_scan", "ios": "https://dc.lft.to/lastmile_qr_scan"}, "is_reserved": 0, "name": "baa3a848ef236140381263b62697d02e", "lon": -76.97220266666666, "type": "electric_bike", "bike_id": "baa3a848ef236140381263b62697d02e", "fusion_lon": 0.0, "lat": 38.8448405, "fusion_lat": 0.0}, {"is_disabled": 0, "rental_uris": {"android": "https://dc.lft.to/lastmile_qr_scan", "ios": "https://dc.lft.to/lastmile_qr_scan"}, "is_reserved": 0, "name": "8b901ebce64f240a2e4213c1e90edbfc", "lon": -77.02353466666666, "type": "electric_scooter", "bike_id": "8b901ebce64f240a2e4213c1e90edbfc", "fusion_lon": 0.0, "lat": 38.915911333333334, "fusion_lat": 0.0}, {"is_disabled": 0, "rental_uris": {"android": "https://dc.lft.to/lastmile_qr_scan", "ios": "https://dc.lft.to/lastmile_qr_scan"}, "is_reserved": 0, "name": "d341738653e64c3beb5efe54c819e502", "lon": -77.02301683333333, "type": "electric_scooter", "bike_id": "d341738653e64c3beb5efe54c819e502", "fusion_lon": 0.0, "lat": 38.91611966666667, "fusion_lat": 0.0}, {"is_disabled": 0, "rental_uris": {"android": "https://dc.lft.to/lastmile_qr_scan", "ios": "https://dc.lft.to/lastmile_qr_scan"}, "is_reserved": 0, "name": "56107a376c973195fd4ad5d3ddae6053", "lon": -77.04565366666667, "type": "electric_scooter", "bike_id": "56107a376c973195fd4ad5d3ddae6053", "fusion_lon": 0.0, "lat": 38.9178195, "fusion_lat": 0.0}, {"is_disabled": 0, "rental_uris": {"android": "https://dc.lft.to/lastmile_qr_scan", "ios": "https://dc.lft.to/lastmile_qr_scan"}, "is_reserved": 0, "name": "df439fa1aeb26ee33b7c1edd83e7ffa7", "lon": -77.05438383333333, "type": "electric_scooter", "bike_id": "df439fa1aeb26ee33b7c1edd83e7ffa7", "fusion_lon": 0.0, "lat": 38.89602933333333, "fusion_lat": 0.0}, {"is_disabled": 0, "rental_uris": {"android": "https://dc.lft.to/lastmile_qr_scan", "ios": "https://dc.lft.to/lastmile_qr_scan"}, "is_reserved": 0, "name": "1cb4cc5b15a9d7180037005a226271a0", "lon": -77.03656266666667, "type": "electric_scooter", "bike_id": "1cb4cc5b15a9d7180037005a226271a0", "fusion_lon": 0.0, "lat": 38.9124805, "fusion_lat": 0.0}, {"is_disabled": 0, "rental_uris": {"android": "https://dc.lft.to/lastmile_qr_scan", "ios": "https://dc.lft.to/lastmile_qr_scan"}, "is_reserved": 0, "name": "ceb25db53a6123d652a8ccbf44a31052", "lon": -77.10440033333333, "type": "electric_bike", "bike_id": "ceb25db53a6123d652a8ccbf44a31052", "fusion_lon": 0.0, "lat": 39.02860033333333, "fusion_lat": 0.0}, {"is_disabled": 0, "rental_uris": {"android": "https://dc.lft.to/lastmile_qr_scan", "ios": "https://dc.lft.to/lastmile_qr_scan"}, "is_reserved": 0, "name": "5884d84c879c7f9b93faec8e819ffa66", "lon": -77.046404, "type": "electric_scooter", "bike_id": "5884d84c879c7f9b93faec8e819ffa66", "fusion_lon": 0.0, "lat": 38.90550133333333, "fusion_lat": 0.0}, {"is_disabled": 0, "rental_uris": {"android": "https://dc.lft.to/lastmile_qr_scan", "ios": "https://dc.lft.to/lastmile_qr_scan"}, "is_reserved": 0, "name": "99ce262b14e64cb138a4aeac2d819865", "lon": -77.00858633333333, "type": "electric_scooter", "bike_id": "99ce262b14e64cb138a4aeac2d819865", "fusion_lon": 0.0, "lat": 38.906463333333335, "fusion_lat": 0.0}, {"is_disabled": 0, "rental_uris": {"android": "https://dc.lft.to/lastmile_qr_scan", "ios": "https://dc.lft.to/lastmile_qr_scan"}, "is_reserved": 0, "name": "306540e2fe2217ce45e3e77aa9cf6e7a", "lon": -76.97514633333333, "type": "electric_bike", "bike_id": "306540e2fe2217ce45e3e77aa9cf6e7a", "fusion_lon": 0.0, "lat": 38.903151666666666, "fusion_lat": 0.0}, {"is_disabled": 0, "rental_uris": {"android": "https://dc.lft.to/lastmile_qr_scan", "ios": "https://dc.lft.to/lastmile_qr_scan"}, "is_reserved": 0, "name": "11dfc2c1e17a614414affab8917d1364", "lon": -76.94824483333333, "type": "electric_scooter", "bike_id": "11dfc2c1e17a614414affab8917d1364", "fusion_lon": 0.0, "lat": 38.8851285, "fusion_lat": 0.0}, {"is_disabled": 0, "rental_uris": {"android": "https://dc.lft.to/lastmile_qr_scan", "ios": "https://dc.lft.to/lastmile_qr_scan"}, "is_reserved": 0, "name": "11fba8ee818d78f70b8bf1bdd2d3d87b", "lon": -77.03869416666667, "type": "electric_scooter", "bike_id": "11fba8ee818d78f70b8bf1bdd2d3d87b", "fusion_lon": 0.0, "lat": 38.915554166666666, "fusion_lat": 0.0}, {"is_disabled": 0, "rental_uris": {"android": "https://dc.lft.to/lastmile_qr_scan", "ios": "https://dc.lft.to/lastmile_qr_scan"}, "is_reserved": 0, "name": "83d0217ab82f73286699673a611f9198", "lon": -77.020021, "type": "electric_scooter", "bike_id": "83d0217ab82f73286699673a611f9198", "fusion_lon": 0.0, "lat": 38.91580583333333, "fusion_lat": 0.0}, {"is_disabled": 0, "rental_uris": {"android": "https://dc.lft.to/lastmile_qr_scan", "ios": "https://dc.lft.to/lastmile_qr_scan"}, "is_reserved": 0, "name": "34b76df014ce5e3203fa3b6bd0402e82", "lon": -76.97879316666666, "type": "electric_scooter", "bike_id": "34b76df014ce5e3203fa3b6bd0402e82", "fusion_lon": 0.0, "lat": 38.927216666666666, "fusion_lat": 0.0}, {"is_disabled": 0, "rental_uris": {"android": "https://dc.lft.to/lastmile_qr_scan", "ios": "https://dc.lft.to/lastmile_qr_scan"}, "is_reserved": 0, "name": "560d523a1e3b280e93fa2a401916e057", "lon": -77.012224, "type": "electric_scooter", "bike_id": "560d523a1e3b280e93fa2a401916e057", "fusion_lon": 0.0, "lat": 38.88582433333333, "fusion_lat": 0.0}, {"is_disabled": 0, "rental_uris": {"android": "https://dc.lft.to/lastmile_qr_scan", "ios": "https://dc.lft.to/lastmile_qr_scan"}, "is_reserved": 0, "name": "66c738758072efedee0173c5fe64428f", "lon": -77.03294316666667, "type": "electric_scooter", "bike_id": "66c738758072efedee0173c5fe64428f", "fusion_lon": 0.0, "lat": 38.898374, "fusion_lat": 0.0}, {"is_disabled": 0, "rental_uris": {"android": "https://dc.lft.to/lastmile_qr_scan", "ios": "https://dc.lft.to/lastmile_qr_scan"}, "is_reserved": 0, "name": "bb1f1a0ab02e3194fb0149a64872a15e", "lon": -77.03187883333334, "type": "electric_scooter", "bike_id": "bb1f1a0ab02e3194fb0149a64872a15e", "fusion_lon": 0.0, "lat": 38.91903533333333, "fusion_lat": 0.0}, {"is_disabled": 0, "rental_uris": {"android": "https://dc.lft.to/lastmile_qr_scan", "ios": "https://dc.lft.to/lastmile_qr_scan"}, "is_reserved": 0, "name": "1186b713635f8a9abcf1083c2849eae7", "lon": -77.01217, "type": "electric_scooter", "bike_id": "1186b713635f8a9abcf1083c2849eae7", "fusion_lon": 0.0, "lat": 38.91497533333333, "fusion_lat": 0.0}, {"is_disabled": 0, "rental_uris": {"android": "https://dc.lft.to/lastmile_qr_scan", "ios": "https://dc.lft.to/lastmile_qr_scan"}, "is_reserved": 0, "name": "7ec030979518840ccc4762c5ef5afc2c", "lon": -77.01180933333333, "type": "electric_scooter", "bike_id": "7ec030979518840ccc4762c5ef5afc2c", "fusion_lon": 0.0, "lat": 38.868084833333334, "fusion_lat": 0.0}, {"is_disabled": 0, "rental_uris": {"android": "https://dc.lft.to/lastmile_qr_scan", "ios": "https://dc.lft.to/lastmile_qr_scan"}, "is_reserved": 0, "name": "1af1370637ba0f40076266173bc0d919", "lon": -76.98894383333334, "type": "electric_scooter", "bike_id": "1af1370637ba0f40076266173bc0d919", "fusion_lon": 0.0, "lat": 38.86673316666667, "fusion_lat": 0.0}, {"is_disabled": 0, "rental_uris": {"android": "https://dc.lft.to/lastmile_qr_scan", "ios": "https://dc.lft.to/lastmile_qr_scan"}, "is_reserved": 0, "name": "185fe705be02d3e5bd5a777c4a74f6d5", "lon": -77.0346805, "type": "electric_scooter", "bike_id": "185fe705be02d3e5bd5a777c4a74f6d5", "fusion_lon": 0.0, "lat": 38.916657666666666, "fusion_lat": 0.0}, {"is_disabled": 0, "rental_uris": {"android": "https://dc.lft.to/lastmile_qr_scan", "ios": "https://dc.lft.to/lastmile_qr_scan"}, "is_reserved": 0, "name": "609d8a21944d05303fd23e12f4372356", "lon": -77.34410816666667, "type": "electric_bike", "bike_id": "609d8a21944d05303fd23e12f4372356", "fusion_lon": 0.0, "lat": 38.945914, "fusion_lat": 0.0}, {"is_disabled": 0, "rental_uris": {"android": "https://dc.lft.to/lastmile_qr_scan", "ios": "https://dc.lft.to/lastmile_qr_scan"}, "is_reserved": 0, "name": "8b86cb2ca99da222bd624759e743d0a9", "lon": -77.14328066666667, "type": "electric_bike", "bike_id": "8b86cb2ca99da222bd624759e743d0a9", "fusion_lon": 0.0, "lat": 39.05456916666667, "fusion_lat": 0.0}, {"is_disabled": 0, "rental_uris": {"android": "https://dc.lft.to/lastmile_qr_scan", "ios": "https://dc.lft.to/lastmile_qr_scan"}, "is_reserved": 0, "name": "4b357f0579b4ae22a46af85cd918ab62", "lon": -77.032848, "type": "electric_scooter", "bike_id": "4b357f0579b4ae22a46af85cd918ab62", "fusion_lon": 0.0, "lat": 38.92745133333333, "fusion_lat": 0.0}, {"is_disabled": 0, "rental_uris": {"android": "https://dc.lft.to/lastmile_qr_scan", "ios": "https://dc.lft.to/lastmile_qr_scan"}, "is_reserved": 0, "name": "4db137b4424bdee7fb60cb08840968e7", "lon": -76.94895116666666, "type": "electric_scooter", "bike_id": "4db137b4424bdee7fb60cb08840968e7", "fusion_lon": 0.0, "lat": 38.895282333333334, "fusion_lat": 0.0}, {"is_disabled": 0, "rental_uris": {"android": "https://dc.lft.to/lastmile_qr_scan", "ios": "https://dc.lft.to/lastmile_qr_scan"}, "is_reserved": 0, "name": "e3cc36b940cced91fd8b7310ec805618", "lon": -77.06184583333334, "type": "electric_scooter", "bike_id": "e3cc36b940cced91fd8b7310ec805618", "fusion_lon": 0.0, "lat": 38.93012133333333, "fusion_lat": 0.0}, {"is_disabled": 0, "rental_uris": {"android": "https://dc.lft.to/lastmile_qr_scan", "ios": "https://dc.lft.to/lastmile_qr_scan"}, "is_reserved": 0, "name": "04c713c788f2e628c42220ce8ad28973", "lon": -77.01629116666666, "type": "electric_scooter", "bike_id": "04c713c788f2e628c42220ce8ad28973", "fusion_lon": 0.0, "lat": 38.9038035, "fusion_lat": 0.0}, {"is_disabled": 0, "rental_uris": {"android": "https://dc.lft.to/lastmile_qr_scan", "ios": "https://dc.lft.to/lastmile_qr_scan"}, "is_reserved": 0, "name": "608b05414cadc08af8da59c35e6a89d1", "lon": -76.97943666666667, "type": "electric_scooter", "bike_id": "608b05414cadc08af8da59c35e6a89d1", "fusion_lon": 0.0, "lat": 38.90503016666667, "fusion_lat": 0.0}, {"is_disabled": 0, "rental_uris": {"android": "https://dc.lft.to/lastmile_qr_scan", "ios": "https://dc.lft.to/lastmile_qr_scan"}, "is_reserved": 0, "name": "41b7dd3c85a2a271c1a5f41acdd73842", "lon": -77.020078, "type": "electric_scooter", "bike_id": "41b7dd3c85a2a271c1a5f41acdd73842", "fusion_lon": 0.0, "lat": 38.92414016666667, "fusion_lat": 0.0}, {"is_disabled": 0, "rental_uris": {"android": "https://dc.lft.to/lastmile_qr_scan", "ios": "https://dc.lft.to/lastmile_qr_scan"}, "is_reserved": 0, "name": "c059e4dcf9b5df98690b69742b753a97", "lon": -77.04006166666667, "type": "electric_scooter", "bike_id": "c059e4dcf9b5df98690b69742b753a97", "fusion_lon": 0.0, "lat": 38.92090433333333, "fusion_lat": 0.0}, {"is_disabled": 0, "rental_uris": {"android": "https://dc.lft.to/lastmile_qr_scan", "ios": "https://dc.lft.to/lastmile_qr_scan"}, "is_reserved": 0, "name": "2fef6d1941bf1a2e38ff6c8a838b5405", "lon": -77.04511533333333, "type": "electric_scooter", "bike_id": "2fef6d1941bf1a2e38ff6c8a838b5405", "fusion_lon": 0.0, "lat": 38.9037875, "fusion_lat": 0.0}, {"is_disabled": 0, "rental_uris": {"android": "https://dc.lft.to/lastmile_qr_scan", "ios": "https://dc.lft.to/lastmile_qr_scan"}, "is_reserved": 0, "name": "944c836cd17cca23fdd9ff470f7207c6", "lon": -77.03467033333334, "type": "electric_scooter", "bike_id": "944c836cd17cca23fdd9ff470f7207c6", "fusion_lon": 0.0, "lat": 38.90746866666667, "fusion_lat": 0.0}, {"is_disabled": 0, "rental_uris": {"android": "https://dc.lft.to/lastmile_qr_scan", "ios": "https://dc.lft.to/lastmile_qr_scan"}, "is_reserved": 0, "name": "871179eb9993567dd8f81b4de7b238b3", "lon": -77.02518633333334, "type": "electric_scooter", "bike_id": "871179eb9993567dd8f81b4de7b238b3", "fusion_lon": 0.0, "lat": 38.921361166666664, "fusion_lat": 0.0}, {"is_disabled": 0, "rental_uris": {"android": "https://dc.lft.to/lastmile_qr_scan", "ios": "https://dc.lft.to/lastmile_qr_scan"}, "is_reserved": 0, "name": "097fdf849ca691c0c826500a29c60f58", "lon": -77.02158816666666, "type": "electric_scooter", "bike_id": "097fdf849ca691c0c826500a29c60f58", "fusion_lon": 0.0, "lat": 38.926041166666664, "fusion_lat": 0.0}, {"is_disabled": 0, "rental_uris": {"android": "https://dc.lft.to/lastmile_qr_scan", "ios": "https://dc.lft.to/lastmile_qr_scan"}, "is_reserved": 0, "name": "6a1568629499a4ed486018651a5d2286", "lon": -77.00714766666667, "type": "electric_scooter", "bike_id": "6a1568629499a4ed486018651a5d2286", "fusion_lon": 0.0, "lat": 38.88502483333333, "fusion_lat": 0.0}, {"is_disabled": 0, "rental_uris": {"android": "https://dc.lft.to/lastmile_qr_scan", "ios": "https://dc.lft.to/lastmile_qr_scan"}, "is_reserved": 0, "name": "97b65b4ff62cf32f62d4d9299aed4d56", "lon": -77.00516716666667, "type": "electric_scooter", "bike_id": "97b65b4ff62cf32f62d4d9299aed4d56", "fusion_lon": 0.0, "lat": 38.8487675, "fusion_lat": 0.0}, {"is_disabled": 0, "rental_uris": {"android": "https://dc.lft.to/lastmile_qr_scan", "ios": "https://dc.lft.to/lastmile_qr_scan"}, "is_reserved": 0, "name": "0281e56c3a8b562b8e62edcebff5eb62", "lon": -77.0593105, "type": "electric_scooter", "bike_id": "0281e56c3a8b562b8e62edcebff5eb62", "fusion_lon": 0.0, "lat": 38.90137216666667, "fusion_lat": 0.0}, {"is_disabled": 0, "rental_uris": {"android": "https://dc.lft.to/lastmile_qr_scan", "ios": "https://dc.lft.to/lastmile_qr_scan"}, "is_reserved": 0, "name": "5d8216afeb4a011fbd44ba228f572202", "lon": -77.01385366666666, "type": "electric_scooter", "bike_id": "5d8216afeb4a011fbd44ba228f572202", "fusion_lon": 0.0, "lat": 38.910092, "fusion_lat": 0.0}, {"is_disabled": 0, "rental_uris": {"android": "https://dc.lft.to/lastmile_qr_scan", "ios": "https://dc.lft.to/lastmile_qr_scan"}, "is_reserved": 0, "name": "54827f9fd3f2c769fee46fd4ced2380b", "lon": -77.0336375, "type": "electric_scooter", "bike_id": "54827f9fd3f2c769fee46fd4ced2380b", "fusion_lon": 0.0, "lat": 38.91714316666667, "fusion_lat": 0.0}, {"is_disabled": 0, "rental_uris": {"android": "https://dc.lft.to/lastmile_qr_scan", "ios": "https://dc.lft.to/lastmile_qr_scan"}, "is_reserved": 0, "name": "f9addefd1583c9a201d3b5735297e0d1", "lon": -77.01435933333333, "type": "electric_scooter", "bike_id": "f9addefd1583c9a201d3b5735297e0d1", "fusion_lon": 0.0, "lat": 38.87777883333333, "fusion_lat": 0.0}, {"is_disabled": 0, "rental_uris": {"android": "https://dc.lft.to/lastmile_qr_scan", "ios": "https://dc.lft.to/lastmile_qr_scan"}, "is_reserved": 0, "name": "3dbdef58939d432bab15690e9e372ebd", "lon": -77.0386365, "type": "electric_scooter", "bike_id": "3dbdef58939d432bab15690e9e372ebd", "fusion_lon": 0.0, "lat": 38.91707733333333, "fusion_lat": 0.0}, {"is_disabled": 0, "rental_uris": {"android": "https://dc.lft.to/lastmile_qr_scan", "ios": "https://dc.lft.to/lastmile_qr_scan"}, "is_reserved": 0, "name": "4e065fe64a0fb733409c85dae8e39ff5", "lon": -77.0346735, "type": "electric_scooter", "bike_id": "4e065fe64a0fb733409c85dae8e39ff5", "fusion_lon": 0.0, "lat": 38.905637166666665, "fusion_lat": 0.0}, {"is_disabled": 0, "rental_uris": {"android": "https://dc.lft.to/lastmile_qr_scan", "ios": "https://dc.lft.to/lastmile_qr_scan"}, "is_reserved": 0, "name": "ce3c6b3108d49d37239537ff5cd8954e", "lon": -76.93186633333333, "type": "electric_scooter", "bike_id": "ce3c6b3108d49d37239537ff5cd8954e", "fusion_lon": 0.0, "lat": 38.898774333333336, "fusion_lat": 0.0}, {"is_disabled": 0, "rental_uris": {"android": "https://dc.lft.to/lastmile_qr_scan", "ios": "https://dc.lft.to/lastmile_qr_scan"}, "is_reserved": 0, "name": "7936a393b55b71a81e0b4d594c15416e", "lon": -77.0278735, "type": "electric_scooter", "bike_id": "7936a393b55b71a81e0b4d594c15416e", "fusion_lon": 0.0, "lat": 38.9612815, "fusion_lat": 0.0}, {"is_disabled": 0, "rental_uris": {"android": "https://dc.lft.to/lastmile_qr_scan", "ios": "https://dc.lft.to/lastmile_qr_scan"}, "is_reserved": 0, "name": "428b53dcfc4c51bc7a4d40ad1b0956d0", "lon": -76.981657, "type": "electric_bike", "bike_id": "428b53dcfc4c51bc7a4d40ad1b0956d0", "fusion_lon": 0.0, "lat": 38.959595166666666, "fusion_lat": 0.0}, {"is_disabled": 0, "rental_uris": {"android": "https://dc.lft.to/lastmile_qr_scan", "ios": "https://dc.lft.to/lastmile_qr_scan"}, "is_reserved": 0, "name": "1ced1207d246126ffb1603c714dc496b", "lon": -77.0246655, "type": "electric_bike", "bike_id": "1ced1207d246126ffb1603c714dc496b", "fusion_lon": 0.0, "lat": 38.955775333333335, "fusion_lat": 0.0}, {"is_disabled": 0, "rental_uris": {"android": "https://dc.lft.to/lastmile_qr_scan", "ios": "https://dc.lft.to/lastmile_qr_scan"}, "is_reserved": 0, "name": "c367c76441fdbedb583397af4d050ea5", "lon": -77.057057, "type": "electric_scooter", "bike_id": "c367c76441fdbedb583397af4d050ea5", "fusion_lon": 0.0, "lat": 38.926252166666664, "fusion_lat": 0.0}, {"is_disabled": 0, "rental_uris": {"android": "https://dc.lft.to/lastmile_qr_scan", "ios": "https://dc.lft.to/lastmile_qr_scan"}, "is_reserved": 0, "name": "58bd8c588f9553c751f5aa7c0fe0b608", "lon": -77.01981533333333, "type": "electric_scooter", "bike_id": "58bd8c588f9553c751f5aa7c0fe0b608", "fusion_lon": 0.0, "lat": 38.91194433333333, "fusion_lat": 0.0}, {"is_disabled": 0, "rental_uris": {"android": "https://dc.lft.to/lastmile_qr_scan", "ios": "https://dc.lft.to/lastmile_qr_scan"}, "is_reserved": 0, "name": "52964d75122ed825726dfe86a39db845", "lon": -77.024037, "type": "electric_scooter", "bike_id": "52964d75122ed825726dfe86a39db845", "fusion_lon": 0.0, "lat": 38.905722833333336, "fusion_lat": 0.0}, {"is_disabled": 0, "rental_uris": {"android": "https://dc.lft.to/lastmile_qr_scan", "ios": "https://dc.lft.to/lastmile_qr_scan"}, "is_reserved": 0, "name": "1b17324bad83e9721b2a05b5ef511af3", "lon": -76.95675366666667, "type": "electric_scooter", "bike_id": "1b17324bad83e9721b2a05b5ef511af3", "fusion_lon": 0.0, "lat": 38.88767216666667, "fusion_lat": 0.0}, {"is_disabled": 0, "rental_uris": {"android": "https://dc.lft.to/lastmile_qr_scan", "ios": "https://dc.lft.to/lastmile_qr_scan"}, "is_reserved": 0, "name": "1a88e25d4ccbcaff5c912be78e2daed5", "lon": -77.04154633333333, "type": "electric_scooter", "bike_id": "1a88e25d4ccbcaff5c912be78e2daed5", "fusion_lon": 0.0, "lat": 38.9126485, "fusion_lat": 0.0}, {"is_disabled": 0, "rental_uris": {"android": "https://dc.lft.to/lastmile_qr_scan", "ios": "https://dc.lft.to/lastmile_qr_scan"}, "is_reserved": 0, "name": "5f78644e35b32c76babf80e81d1c7749", "lon": -77.046359, "type": "electric_scooter", "bike_id": "5f78644e35b32c76babf80e81d1c7749", "fusion_lon": 0.0, "lat": 38.905499, "fusion_lat": 0.0}, {"is_disabled": 0, "rental_uris": {"android": "https://dc.lft.to/lastmile_qr_scan", "ios": "https://dc.lft.to/lastmile_qr_scan"}, "is_reserved": 0, "name": "7362321aabeef1e3af5fb7f6181c1d7f", "lon": -77.04051083333333, "type": "electric_scooter", "bike_id": "7362321aabeef1e3af5fb7f6181c1d7f", "fusion_lon": 0.0, "lat": 38.910384, "fusion_lat": 0.0}, {"is_disabled": 0, "rental_uris": {"android": "https://dc.lft.to/lastmile_qr_scan", "ios": "https://dc.lft.to/lastmile_qr_scan"}, "is_reserved": 0, "name": "a7a8aff5ac1a21e56288d4ddc4a02ca2", "lon": -77.02974566666667, "type": "electric_scooter", "bike_id": "a7a8aff5ac1a21e56288d4ddc4a02ca2", "fusion_lon": 0.0, "lat": 38.907203, "fusion_lat": 0.0}, {"is_disabled": 0, "rental_uris": {"android": "https://dc.lft.to/lastmile_qr_scan", "ios": "https://dc.lft.to/lastmile_qr_scan"}, "is_reserved": 0, "name": "ccc019af1d958c9f6709800b116aafab", "lon": -77.03055616666667, "type": "electric_scooter", "bike_id": "ccc019af1d958c9f6709800b116aafab", "fusion_lon": 0.0, "lat": 38.89979233333333, "fusion_lat": 0.0}, {"is_disabled": 0, "rental_uris": {"android": "https://dc.lft.to/lastmile_qr_scan", "ios": "https://dc.lft.to/lastmile_qr_scan"}, "is_reserved": 0, "name": "ad6997e4f6c82a3c327f4cd7c5bc4ca8", "lon": -77.0237755, "type": "electric_scooter", "bike_id": "ad6997e4f6c82a3c327f4cd7c5bc4ca8", "fusion_lon": 0.0, "lat": 38.93259366666667, "fusion_lat": 0.0}, {"is_disabled": 0, "rental_uris": {"android": "https://dc.lft.to/lastmile_qr_scan", "ios": "https://dc.lft.to/lastmile_qr_scan"}, "is_reserved": 0, "name": "0fa939e17717d2e93f217223be0673c3", "lon": -76.93371216666667, "type": "electric_scooter", "bike_id": "0fa939e17717d2e93f217223be0673c3", "fusion_lon": 0.0, "lat": 38.89923733333333, "fusion_lat": 0.0}, {"is_disabled": 0, "rental_uris": {"android": "https://dc.lft.to/lastmile_qr_scan", "ios": "https://dc.lft.to/lastmile_qr_scan"}, "is_reserved": 0, "name": "58cf18b10df9d97675189c817944c181", "lon": -77.00913683333333, "type": "electric_scooter", "bike_id": "58cf18b10df9d97675189c817944c181", "fusion_lon": 0.0, "lat": 38.89553133333333, "fusion_lat": 0.0}, {"is_disabled": 0, "rental_uris": {"android": "https://dc.lft.to/lastmile_qr_scan", "ios": "https://dc.lft.to/lastmile_qr_scan"}, "is_reserved": 0, "name": "98d1a2c1a7ed166e1f9e3498cf1497bf", "lon": -76.96526033333333, "type": "electric_scooter", "bike_id": "98d1a2c1a7ed166e1f9e3498cf1497bf", "fusion_lon": 0.0, "lat": 38.87631116666667, "fusion_lat": 0.0}, {"is_disabled": 0, "rental_uris": {"android": "https://dc.lft.to/lastmile_qr_scan", "ios": "https://dc.lft.to/lastmile_qr_scan"}, "is_reserved": 0, "name": "8a2cc8bb562dead81fa8db6a1d1988ee", "lon": -77.025045, "type": "electric_scooter", "bike_id": "8a2cc8bb562dead81fa8db6a1d1988ee", "fusion_lon": 0.0, "lat": 38.9193, "fusion_lat": 0.0}, {"is_disabled": 0, "rental_uris": {"android": "https://dc.lft.to/lastmile_qr_scan", "ios": "https://dc.lft.to/lastmile_qr_scan"}, "is_reserved": 0, "name": "f72d8a4c4b5e57c84a05377919a61f93", "lon": -77.03193266666666, "type": "electric_bike", "bike_id": "f72d8a4c4b5e57c84a05377919a61f93", "fusion_lon": 0.0, "lat": 38.91999716666667, "fusion_lat": 0.0}, {"is_disabled": 0, "rental_uris": {"android": "https://dc.lft.to/lastmile_qr_scan", "ios": "https://dc.lft.to/lastmile_qr_scan"}, "is_reserved": 0, "name": "115877e471c591ae8c8082f36e779b42", "lon": -76.9900255, "type": "electric_scooter", "bike_id": "115877e471c591ae8c8082f36e779b42", "fusion_lon": 0.0, "lat": 38.86506166666667, "fusion_lat": 0.0}, {"is_disabled": 0, "rental_uris": {"android": "https://dc.lft.to/lastmile_qr_scan", "ios": "https://dc.lft.to/lastmile_qr_scan"}, "is_reserved": 0, "name": "b0619ccd71b149e97de86e855d5ed330", "lon": -77.02842633333333, "type": "electric_scooter", "bike_id": "b0619ccd71b149e97de86e855d5ed330", "fusion_lon": 0.0, "lat": 38.92235816666667, "fusion_lat": 0.0}, {"is_disabled": 0, "rental_uris": {"android": "https://dc.lft.to/lastmile_qr_scan", "ios": "https://dc.lft.to/lastmile_qr_scan"}, "is_reserved": 0, "name": "9a4a08617a488948bbd73feddc2d2e62", "lon": -77.012504, "type": "electric_scooter", "bike_id": "9a4a08617a488948bbd73feddc2d2e62", "fusion_lon": 0.0, "lat": 38.908473, "fusion_lat": 0.0}, {"is_disabled": 0, "rental_uris": {"android": "https://dc.lft.to/lastmile_qr_scan", "ios": "https://dc.lft.to/lastmile_qr_scan"}, "is_reserved": 0, "name": "8c88674674f5fa92c71a9f47d1d22deb", "lon": -77.03997783333334, "type": "electric_scooter", "bike_id": "8c88674674f5fa92c71a9f47d1d22deb", "fusion_lon": 0.0, "lat": 38.91416916666667, "fusion_lat": 0.0}, {"is_disabled": 0, "rental_uris": {"android": "https://dc.lft.to/lastmile_qr_scan", "ios": "https://dc.lft.to/lastmile_qr_scan"}, "is_reserved": 0, "name": "d6520083825b8ba1d9005f86dc516e9a", "lon": -77.02375483333333, "type": "electric_scooter", "bike_id": "d6520083825b8ba1d9005f86dc516e9a", "fusion_lon": 0.0, "lat": 38.89238833333334, "fusion_lat": 0.0}, {"is_disabled": 0, "rental_uris": {"android": "https://dc.lft.to/lastmile_qr_scan", "ios": "https://dc.lft.to/lastmile_qr_scan"}, "is_reserved": 0, "name": "13671508f5427a72dd294cabf428b21f", "lon": -76.94865583333333, "type": "electric_bike", "bike_id": "13671508f5427a72dd294cabf428b21f", "fusion_lon": 0.0, "lat": 38.889760333333335, "fusion_lat": 0.0}, {"is_disabled": 0, "rental_uris": {"android": "https://dc.lft.to/lastmile_qr_scan", "ios": "https://dc.lft.to/lastmile_qr_scan"}, "is_reserved": 0, "name": "1f56f7a62b2fbdeb54378784b30f8b4f", "lon": -76.983795, "type": "electric_scooter", "bike_id": "1f56f7a62b2fbdeb54378784b30f8b4f", "fusion_lon": 0.0, "lat": 38.84444533333333, "fusion_lat": 0.0}, {"is_disabled": 0, "rental_uris": {"android": "https://dc.lft.to/lastmile_qr_scan", "ios": "https://dc.lft.to/lastmile_qr_scan"}, "is_reserved": 0, "name": "3544f0b195b347229512be1efd654d99", "lon": -77.016873, "type": "electric_scooter", "bike_id": "3544f0b195b347229512be1efd654d99", "fusion_lon": 0.0, "lat": 38.92898516666666, "fusion_lat": 0.0}, {"is_disabled": 0, "rental_uris": {"android": "https://dc.lft.to/lastmile_qr_scan", "ios": "https://dc.lft.to/lastmile_qr_scan"}, "is_reserved": 0, "name": "6662fc367541a04455b24ce5833de8b6", "lon": -76.87775633333334, "type": "electric_bike", "bike_id": "6662fc367541a04455b24ce5833de8b6", "fusion_lon": 0.0, "lat": 38.992250166666665, "fusion_lat": 0.0}, {"is_disabled": 0, "rental_uris": {"android": "https://dc.lft.to/lastmile_qr_scan", "ios": "https://dc.lft.to/lastmile_qr_scan"}, "is_reserved": 0, "name": "68814fbf634f1c9b67cbc1f2c9224861", "lon": -77.0146835, "type": "electric_scooter", "bike_id": "68814fbf634f1c9b67cbc1f2c9224861", "fusion_lon": 0.0, "lat": 38.876366833333336, "fusion_lat": 0.0}, {"is_disabled": 0, "rental_uris": {"android": "https://dc.lft.to/lastmile_qr_scan", "ios": "https://dc.lft.to/lastmile_qr_scan"}, "is_reserved": 0, "name": "da9751e3d224c1b1338f7e3e86f3d4cf", "lon": -77.10691666666666, "type": "electric_bike", "bike_id": "da9751e3d224c1b1338f7e3e86f3d4cf", "fusion_lon": 0.0, "lat": 38.85542183333333, "fusion_lat": 0.0}, {"is_disabled": 0, "rental_uris": {"android": "https://dc.lft.to/lastmile_qr_scan", "ios": "https://dc.lft.to/lastmile_qr_scan"}, "is_reserved": 0, "name": "ce7cc9807cdd5d4b78cc25cdf449a12a", "lon": -77.00781583333334, "type": "electric_bike", "bike_id": "ce7cc9807cdd5d4b78cc25cdf449a12a", "fusion_lon": 0.0, "lat": 38.981288166666666, "fusion_lat": 0.0}, {"is_disabled": 0, "rental_uris": {"android": "https://dc.lft.to/lastmile_qr_scan", "ios": "https://dc.lft.to/lastmile_qr_scan"}, "is_reserved": 0, "name": "cd726694cfb95188118356a115632681", "lon": -77.013121, "type": "electric_scooter", "bike_id": "cd726694cfb95188118356a115632681", "fusion_lon": 0.0, "lat": 38.901352833333334, "fusion_lat": 0.0}, {"is_disabled": 0, "rental_uris": {"android": "https://dc.lft.to/lastmile_qr_scan", "ios": "https://dc.lft.to/lastmile_qr_scan"}, "is_reserved": 0, "name": "ad528de43643476afc0104a41adff6f6", "lon": -76.96390516666666, "type": "electric_bike", "bike_id": "ad528de43643476afc0104a41adff6f6", "fusion_lon": 0.0, "lat": 38.975754, "fusion_lat": 0.0}, {"is_disabled": 0, "rental_uris": {"android": "https://dc.lft.to/lastmile_qr_scan", "ios": "https://dc.lft.to/lastmile_qr_scan"}, "is_reserved": 0, "name": "f872da67c2dc87cb280638043d926e25", "lon": -77.0296445, "type": "electric_scooter", "bike_id": "f872da67c2dc87cb280638043d926e25", "fusion_lon": 0.0, "lat": 38.92462883333334, "fusion_lat": 0.0}, {"is_disabled": 0, "rental_uris": {"android": "https://dc.lft.to/lastmile_qr_scan", "ios": "https://dc.lft.to/lastmile_qr_scan"}, "is_reserved": 0, "name": "7efafc696c432e28a99e706fa1bfa0be", "lon": -76.93198216666667, "type": "electric_bike", "bike_id": "7efafc696c432e28a99e706fa1bfa0be", "fusion_lon": 0.0, "lat": 38.872355, "fusion_lat": 0.0}, {"is_disabled": 0, "rental_uris": {"android": "https://dc.lft.to/lastmile_qr_scan", "ios": "https://dc.lft.to/lastmile_qr_scan"}, "is_reserved": 0, "name": "594a705eb8d238578fb01ade6465cf36", "lon": -76.98073816666667, "type": "electric_scooter", "bike_id": "594a705eb8d238578fb01ade6465cf36", "fusion_lon": 0.0, "lat": 38.91936183333333, "fusion_lat": 0.0}, {"is_disabled": 0, "rental_uris": {"android": "https://dc.lft.to/lastmile_qr_scan", "ios": "https://dc.lft.to/lastmile_qr_scan"}, "is_reserved": 0, "name": "18378ab01bc1866bd1ef0836b05e97f5", "lon": -77.03899683333333, "type": "electric_scooter", "bike_id": "18378ab01bc1866bd1ef0836b05e97f5", "fusion_lon": 0.0, "lat": 38.91423866666667, "fusion_lat": 0.0}, {"is_disabled": 0, "rental_uris": {"android": "https://dc.lft.to/lastmile_qr_scan", "ios": "https://dc.lft.to/lastmile_qr_scan"}, "is_reserved": 0, "name": "8fa2d6d9f7b092a76ae41ad5d8effecf", "lon": -77.00590566666666, "type": "electric_scooter", "bike_id": "8fa2d6d9f7b092a76ae41ad5d8effecf", "fusion_lon": 0.0, "lat": 38.927552166666665, "fusion_lat": 0.0}, {"is_disabled": 0, "rental_uris": {"android": "https://dc.lft.to/lastmile_qr_scan", "ios": "https://dc.lft.to/lastmile_qr_scan"}, "is_reserved": 0, "name": "f357f78181ef19555dc040f13d8317bf", "lon": -77.00811666666667, "type": "electric_scooter", "bike_id": "f357f78181ef19555dc040f13d8317bf", "fusion_lon": 0.0, "lat": 38.883262, "fusion_lat": 0.0}, {"is_disabled": 0, "rental_uris": {"android": "https://dc.lft.to/lastmile_qr_scan", "ios": "https://dc.lft.to/lastmile_qr_scan"}, "is_reserved": 0, "name": "94087be15ad2eb5bb861e2a00073f0a6", "lon": -76.99702116666667, "type": "electric_scooter", "bike_id": "94087be15ad2eb5bb861e2a00073f0a6", "fusion_lon": 0.0, "lat": 38.83866733333333, "fusion_lat": 0.0}, {"is_disabled": 0, "rental_uris": {"android": "https://dc.lft.to/lastmile_qr_scan", "ios": "https://dc.lft.to/lastmile_qr_scan"}, "is_reserved": 0, "name": "24a39064d678fe91ff3dafa83f92b52d", "lon": -77.01854733333333, "type": "electric_scooter", "bike_id": "24a39064d678fe91ff3dafa83f92b52d", "fusion_lon": 0.0, "lat": 38.954362, "fusion_lat": 0.0}, {"is_disabled": 0, "rental_uris": {"android": "https://dc.lft.to/lastmile_qr_scan", "ios": "https://dc.lft.to/lastmile_qr_scan"}, "is_reserved": 0, "name": "c36a654d821f3e4276520ae09c673cee", "lon": -77.0212365, "type": "electric_bike", "bike_id": "c36a654d821f3e4276520ae09c673cee", "fusion_lon": 0.0, "lat": 38.935780666666666, "fusion_lat": 0.0}, {"is_disabled": 0, "rental_uris": {"android": "https://dc.lft.to/lastmile_qr_scan", "ios": "https://dc.lft.to/lastmile_qr_scan"}, "is_reserved": 0, "name": "e30d3e15d251c6b7b3ca6369645258cf", "lon": -77.00079166666667, "type": "electric_bike", "bike_id": "e30d3e15d251c6b7b3ca6369645258cf", "fusion_lon": 0.0, "lat": 38.8859405, "fusion_lat": 0.0}, {"is_disabled": 0, "rental_uris": {"android": "https://dc.lft.to/lastmile_qr_scan", "ios": "https://dc.lft.to/lastmile_qr_scan"}, "is_reserved": 0, "name": "1bdc213e945f59ac41a69b6eb9cf8cb7", "lon": -77.01890083333333, "type": "electric_scooter", "bike_id": "1bdc213e945f59ac41a69b6eb9cf8cb7", "fusion_lon": 0.0, "lat": 38.92952583333334, "fusion_lat": 0.0}, {"is_disabled": 0, "rental_uris": {"android": "https://dc.lft.to/lastmile_qr_scan", "ios": "https://dc.lft.to/lastmile_qr_scan"}, "is_reserved": 0, "name": "ba5d0a2b2d5ba50ed5fcfd02bcb787f1", "lon": -77.02372633333333, "type": "electric_scooter", "bike_id": "ba5d0a2b2d5ba50ed5fcfd02bcb787f1", "fusion_lon": 0.0, "lat": 38.91912266666667, "fusion_lat": 0.0}, {"is_disabled": 0, "rental_uris": {"android": "https://dc.lft.to/lastmile_qr_scan", "ios": "https://dc.lft.to/lastmile_qr_scan"}, "is_reserved": 0, "name": "1a564a4b99223384ef7235590a7d1142", "lon": -77.00873316666667, "type": "electric_scooter", "bike_id": "1a564a4b99223384ef7235590a7d1142", "fusion_lon": 0.0, "lat": 38.90573, "fusion_lat": 0.0}, {"is_disabled": 0, "rental_uris": {"android": "https://dc.lft.to/lastmile_qr_scan", "ios": "https://dc.lft.to/lastmile_qr_scan"}, "is_reserved": 0, "name": "a01210f198cea4aad139fc377d6fd9bd", "lon": -77.04328516666666, "type": "electric_scooter", "bike_id": "a01210f198cea4aad139fc377d6fd9bd", "fusion_lon": 0.0, "lat": 38.923294, "fusion_lat": 0.0}, {"is_disabled": 0, "rental_uris": {"android": "https://dc.lft.to/lastmile_qr_scan", "ios": "https://dc.lft.to/lastmile_qr_scan"}, "is_reserved": 0, "name": "f6e53ad07aefa3fda09eeb35d8cfe906", "lon": -77.032665, "type": "electric_scooter", "bike_id": "f6e53ad07aefa3fda09eeb35d8cfe906", "fusion_lon": 0.0, "lat": 38.921018, "fusion_lat": 0.0}, {"is_disabled": 0, "rental_uris": {"android": "https://dc.lft.to/lastmile_qr_scan", "ios": "https://dc.lft.to/lastmile_qr_scan"}, "is_reserved": 0, "name": "bd0e7c52319ceb3e1ed19552b8a5f952", "lon": -77.01226833333334, "type": "electric_scooter", "bike_id": "bd0e7c52319ceb3e1ed19552b8a5f952", "fusion_lon": 0.0, "lat": 38.907167333333334, "fusion_lat": 0.0}, {"is_disabled": 0, "rental_uris": {"android": "https://dc.lft.to/lastmile_qr_scan", "ios": "https://dc.lft.to/lastmile_qr_scan"}, "is_reserved": 0, "name": "5954b299b8cbac6784d8d49f3cd5e5a3", "lon": -77.03445633333334, "type": "electric_scooter", "bike_id": "5954b299b8cbac6784d8d49f3cd5e5a3", "fusion_lon": 0.0, "lat": 38.90889166666667, "fusion_lat": 0.0}, {"is_disabled": 0, "rental_uris": {"android": "https://dc.lft.to/lastmile_qr_scan", "ios": "https://dc.lft.to/lastmile_qr_scan"}, "is_reserved": 0, "name": "d371f231f36b336a7e71ab4765d8d5ab", "lon": -76.979169, "type": "electric_scooter", "bike_id": "d371f231f36b336a7e71ab4765d8d5ab", "fusion_lon": 0.0, "lat": 38.90429833333334, "fusion_lat": 0.0}, {"is_disabled": 0, "rental_uris": {"android": "https://dc.lft.to/lastmile_qr_scan", "ios": "https://dc.lft.to/lastmile_qr_scan"}, "is_reserved": 0, "name": "b2bc32b8450efe48f77e54cb66857fc6", "lon": -77.02498283333334, "type": "electric_bike", "bike_id": "b2bc32b8450efe48f77e54cb66857fc6", "fusion_lon": 0.0, "lat": 38.97407283333333, "fusion_lat": 0.0}, {"is_disabled": 0, "rental_uris": {"android": "https://dc.lft.to/lastmile_qr_scan", "ios": "https://dc.lft.to/lastmile_qr_scan"}, "is_reserved": 0, "name": "a30c60dc988b38c38cb258b652621c2d", "lon": -77.05482366666666, "type": "electric_scooter", "bike_id": "a30c60dc988b38c38cb258b652621c2d", "fusion_lon": 0.0, "lat": 38.904395, "fusion_lat": 0.0}, {"is_disabled": 0, "rental_uris": {"android": "https://dc.lft.to/lastmile_qr_scan", "ios": "https://dc.lft.to/lastmile_qr_scan"}, "is_reserved": 0, "name": "3c2d38980b27dc7b34748d5eecb298d0", "lon": -77.01858433333334, "type": "electric_scooter", "bike_id": "3c2d38980b27dc7b34748d5eecb298d0", "fusion_lon": 0.0, "lat": 38.900429, "fusion_lat": 0.0}, {"is_disabled": 0, "rental_uris": {"android": "https://dc.lft.to/lastmile_qr_scan", "ios": "https://dc.lft.to/lastmile_qr_scan"}, "is_reserved": 0, "name": "019d945dd9ac0f674ce54931a3118995", "lon": -76.93348733333333, "type": "electric_scooter", "bike_id": "019d945dd9ac0f674ce54931a3118995", "fusion_lon": 0.0, "lat": 38.901921333333334, "fusion_lat": 0.0}, {"is_disabled": 0, "rental_uris": {"android": "https://dc.lft.to/lastmile_qr_scan", "ios": "https://dc.lft.to/lastmile_qr_scan"}, "is_reserved": 0, "name": "4b043f5c1d50975c0a7aaf61b4b78c0f", "lon": -77.03775366666666, "type": "electric_bike", "bike_id": "4b043f5c1d50975c0a7aaf61b4b78c0f", "fusion_lon": 0.0, "lat": 38.99671016666667, "fusion_lat": 0.0}, {"is_disabled": 0, "rental_uris": {"android": "https://dc.lft.to/lastmile_qr_scan", "ios": "https://dc.lft.to/lastmile_qr_scan"}, "is_reserved": 0, "name": "71fa229ea9e4d304b053bacb9172ab2b", "lon": -77.02226983333334, "type": "electric_scooter", "bike_id": "71fa229ea9e4d304b053bacb9172ab2b", "fusion_lon": 0.0, "lat": 38.892221666666664, "fusion_lat": 0.0}, {"is_disabled": 0, "rental_uris": {"android": "https://dc.lft.to/lastmile_qr_scan", "ios": "https://dc.lft.to/lastmile_qr_scan"}, "is_reserved": 0, "name": "a838b14eeb65f21ee0f666f940a949e2", "lon": -77.09832933333334, "type": "electric_bike", "bike_id": "a838b14eeb65f21ee0f666f940a949e2", "fusion_lon": 0.0, "lat": 38.857916333333336, "fusion_lat": 0.0}, {"is_disabled": 0, "rental_uris": {"android": "https://dc.lft.to/lastmile_qr_scan", "ios": "https://dc.lft.to/lastmile_qr_scan"}, "is_reserved": 0, "name": "57f91842f494a7d90d577b603df9b1f7", "lon": -77.02172933333334, "type": "electric_scooter", "bike_id": "57f91842f494a7d90d577b603df9b1f7", "fusion_lon": 0.0, "lat": 38.942919833333335, "fusion_lat": 0.0}, {"is_disabled": 0, "rental_uris": {"android": "https://dc.lft.to/lastmile_qr_scan", "ios": "https://dc.lft.to/lastmile_qr_scan"}, "is_reserved": 0, "name": "b2ced42b4ccff991c165247f6aa47ae2", "lon": -76.93525083333333, "type": "electric_scooter", "bike_id": "b2ced42b4ccff991c165247f6aa47ae2", "fusion_lon": 0.0, "lat": 38.87895816666666, "fusion_lat": 0.0}, {"is_disabled": 0, "rental_uris": {"android": "https://dc.lft.to/lastmile_qr_scan", "ios": "https://dc.lft.to/lastmile_qr_scan"}, "is_reserved": 0, "name": "af5855c098bd8bc38f33e7b3e092ee0b", "lon": -77.03878483333334, "type": "electric_scooter", "bike_id": "af5855c098bd8bc38f33e7b3e092ee0b", "fusion_lon": 0.0, "lat": 38.915599666666665, "fusion_lat": 0.0}, {"is_disabled": 0, "rental_uris": {"android": "https://dc.lft.to/lastmile_qr_scan", "ios": "https://dc.lft.to/lastmile_qr_scan"}, "is_reserved": 0, "name": "0802ec37fa32aac5b1960aca41e8fcdc", "lon": -76.99084166666667, "type": "electric_scooter", "bike_id": "0802ec37fa32aac5b1960aca41e8fcdc", "fusion_lon": 0.0, "lat": 38.90420816666666, "fusion_lat": 0.0}, {"is_disabled": 0, "rental_uris": {"android": "https://dc.lft.to/lastmile_qr_scan", "ios": "https://dc.lft.to/lastmile_qr_scan"}, "is_reserved": 0, "name": "f8bed6c30b5e044260808444bb28bee7", "lon": -77.00529583333334, "type": "electric_scooter", "bike_id": "f8bed6c30b5e044260808444bb28bee7", "fusion_lon": 0.0, "lat": 38.877144333333334, "fusion_lat": 0.0}, {"is_disabled": 0, "rental_uris": {"android": "https://dc.lft.to/lastmile_qr_scan", "ios": "https://dc.lft.to/lastmile_qr_scan"}, "is_reserved": 0, "name": "04295ddf99143bc82312e2eaa16fe73d", "lon": -77.0310155, "type": "electric_scooter", "bike_id": "04295ddf99143bc82312e2eaa16fe73d", "fusion_lon": 0.0, "lat": 38.92861166666667, "fusion_lat": 0.0}, {"is_disabled": 0, "rental_uris": {"android": "https://dc.lft.to/lastmile_qr_scan", "ios": "https://dc.lft.to/lastmile_qr_scan"}, "is_reserved": 0, "name": "a3dda436f4d7aaf63608636edc6c099c", "lon": -77.087843, "type": "electric_bike", "bike_id": "a3dda436f4d7aaf63608636edc6c099c", "fusion_lon": 0.0, "lat": 38.82334516666667, "fusion_lat": 0.0}, {"is_disabled": 0, "rental_uris": {"android": "https://dc.lft.to/lastmile_qr_scan", "ios": "https://dc.lft.to/lastmile_qr_scan"}, "is_reserved": 0, "name": "56f3ff5edc50c659ee5d3ab3058cbe70", "lon": -77.04833433333333, "type": "electric_scooter", "bike_id": "56f3ff5edc50c659ee5d3ab3058cbe70", "fusion_lon": 0.0, "lat": 38.904542166666666, "fusion_lat": 0.0}, {"is_disabled": 0, "rental_uris": {"android": "https://dc.lft.to/lastmile_qr_scan", "ios": "https://dc.lft.to/lastmile_qr_scan"}, "is_reserved": 0, "name": "2384ee5639b0598c1241aecac43d46ba", "lon": -77.00069283333333, "type": "electric_scooter", "bike_id": "2384ee5639b0598c1241aecac43d46ba", "fusion_lon": 0.0, "lat": 38.9005015, "fusion_lat": 0.0}, {"is_disabled": 0, "rental_uris": {"android": "https://dc.lft.to/lastmile_qr_scan", "ios": "https://dc.lft.to/lastmile_qr_scan"}, "is_reserved": 0, "name": "bbc8d0c09e77dbdc33d8bbb67d964a6a", "lon": -77.03185533333334, "type": "electric_scooter", "bike_id": "bbc8d0c09e77dbdc33d8bbb67d964a6a", "fusion_lon": 0.0, "lat": 38.910105, "fusion_lat": 0.0}, {"is_disabled": 0, "rental_uris": {"android": "https://dc.lft.to/lastmile_qr_scan", "ios": "https://dc.lft.to/lastmile_qr_scan"}, "is_reserved": 0, "name": "08cd9e23828d40c02034c644ee657534", "lon": -77.00201066666666, "type": "electric_scooter", "bike_id": "08cd9e23828d40c02034c644ee657534", "fusion_lon": 0.0, "lat": 38.902392666666664, "fusion_lat": 0.0}, {"is_disabled": 0, "rental_uris": {"android": "https://dc.lft.to/lastmile_qr_scan", "ios": "https://dc.lft.to/lastmile_qr_scan"}, "is_reserved": 0, "name": "3a6d990a14f226594b9c8bd64b01d763", "lon": -77.03453333333333, "type": "electric_scooter", "bike_id": "3a6d990a14f226594b9c8bd64b01d763", "fusion_lon": 0.0, "lat": 38.925414, "fusion_lat": 0.0}, {"is_disabled": 0, "rental_uris": {"android": "https://dc.lft.to/lastmile_qr_scan", "ios": "https://dc.lft.to/lastmile_qr_scan"}, "is_reserved": 0, "name": "0a2e5d849d85c42402b1391c6c762a4e", "lon": -76.94888833333333, "type": "electric_scooter", "bike_id": "0a2e5d849d85c42402b1391c6c762a4e", "fusion_lon": 0.0, "lat": 38.895122, "fusion_lat": 0.0}, {"is_disabled": 0, "rental_uris": {"android": "https://dc.lft.to/lastmile_qr_scan", "ios": "https://dc.lft.to/lastmile_qr_scan"}, "is_reserved": 0, "name": "e5e585ceb7bbb87b1c5a785daf620024", "lon": -77.02790066666667, "type": "electric_scooter", "bike_id": "e5e585ceb7bbb87b1c5a785daf620024", "fusion_lon": 0.0, "lat": 38.9612615, "fusion_lat": 0.0}, {"is_disabled": 0, "rental_uris": {"android": "https://dc.lft.to/lastmile_qr_scan", "ios": "https://dc.lft.to/lastmile_qr_scan"}, "is_reserved": 0, "name": "2c088e531864e77fd2436a7d0cb88fdd", "lon": -77.002018, "type": "electric_scooter", "bike_id": "2c088e531864e77fd2436a7d0cb88fdd", "fusion_lon": 0.0, "lat": 38.902361166666665, "fusion_lat": 0.0}, {"is_disabled": 0, "rental_uris": {"android": "https://dc.lft.to/lastmile_qr_scan", "ios": "https://dc.lft.to/lastmile_qr_scan"}, "is_reserved": 0, "name": "c76a3bae719588043aef846bf2f12b1c", "lon": -77.01223516666667, "type": "electric_scooter", "bike_id": "c76a3bae719588043aef846bf2f12b1c", "fusion_lon": 0.0, "lat": 38.914982333333334, "fusion_lat": 0.0}, {"is_disabled": 0, "rental_uris": {"android": "https://dc.lft.to/lastmile_qr_scan", "ios": "https://dc.lft.to/lastmile_qr_scan"}, "is_reserved": 0, "name": "c770a01b0991bd895d88f73c0beb8d0e", "lon": -77.0272215, "type": "electric_scooter", "bike_id": "c770a01b0991bd895d88f73c0beb8d0e", "fusion_lon": 0.0, "lat": 38.911042, "fusion_lat": 0.0}, {"is_disabled": 0, "rental_uris": {"android": "https://dc.lft.to/lastmile_qr_scan", "ios": "https://dc.lft.to/lastmile_qr_scan"}, "is_reserved": 0, "name": "daccff06cbe2f7ac237d051232eae593", "lon": -77.03819366666667, "type": "electric_scooter", "bike_id": "daccff06cbe2f7ac237d051232eae593", "fusion_lon": 0.0, "lat": 38.909731666666666, "fusion_lat": 0.0}, {"is_disabled": 0, "rental_uris": {"android": "https://dc.lft.to/lastmile_qr_scan", "ios": "https://dc.lft.to/lastmile_qr_scan"}, "is_reserved": 0, "name": "f03f5e7201baacf2519d511fdab35ba2", "lon": -77.06764566666666, "type": "electric_scooter", "bike_id": "f03f5e7201baacf2519d511fdab35ba2", "fusion_lon": 0.0, "lat": 38.905036333333335, "fusion_lat": 0.0}, {"is_disabled": 0, "rental_uris": {"android": "https://dc.lft.to/lastmile_qr_scan", "ios": "https://dc.lft.to/lastmile_qr_scan"}, "is_reserved": 0, "name": "190d344f2082610c82808eee4ed1abd8", "lon": -77.03294533333333, "type": "electric_scooter", "bike_id": "190d344f2082610c82808eee4ed1abd8", "fusion_lon": 0.0, "lat": 38.9084885, "fusion_lat": 0.0}, {"is_disabled": 0, "rental_uris": {"android": "https://dc.lft.to/lastmile_qr_scan", "ios": "https://dc.lft.to/lastmile_qr_scan"}, "is_reserved": 0, "name": "a0c41425f964506b47a069a9d3dcbf1c", "lon": -77.032635, "type": "electric_scooter", "bike_id": "a0c41425f964506b47a069a9d3dcbf1c", "fusion_lon": 0.0, "lat": 38.932618166666664, "fusion_lat": 0.0}, {"is_disabled": 0, "rental_uris": {"android": "https://dc.lft.to/lastmile_qr_scan", "ios": "https://dc.lft.to/lastmile_qr_scan"}, "is_reserved": 0, "name": "040a42b507881db920f65e4aae74444d", "lon": -77.02865183333333, "type": "electric_scooter", "bike_id": "040a42b507881db920f65e4aae74444d", "fusion_lon": 0.0, "lat": 38.902379833333335, "fusion_lat": 0.0}, {"is_disabled": 0, "rental_uris": {"android": "https://dc.lft.to/lastmile_qr_scan", "ios": "https://dc.lft.to/lastmile_qr_scan"}, "is_reserved": 0, "name": "b09de16a7f9d44bd0eeab09a4e23b813", "lon": -77.04180283333334, "type": "electric_scooter", "bike_id": "b09de16a7f9d44bd0eeab09a4e23b813", "fusion_lon": 0.0, "lat": 38.91547833333333, "fusion_lat": 0.0}, {"is_disabled": 0, "rental_uris": {"android": "https://dc.lft.to/lastmile_qr_scan", "ios": "https://dc.lft.to/lastmile_qr_scan"}, "is_reserved": 0, "name": "6e37d97e4c1271f56efdd749cb8533b4", "lon": -77.0222645, "type": "electric_scooter", "bike_id": "6e37d97e4c1271f56efdd749cb8533b4", "fusion_lon": 0.0, "lat": 38.9141995, "fusion_lat": 0.0}, {"is_disabled": 0, "rental_uris": {"android": "https://dc.lft.to/lastmile_qr_scan", "ios": "https://dc.lft.to/lastmile_qr_scan"}, "is_reserved": 0, "name": "aef44dbc5eb9c29668ba744b667ab07e", "lon": -77.031756, "type": "electric_scooter", "bike_id": "aef44dbc5eb9c29668ba744b667ab07e", "fusion_lon": 0.0, "lat": 38.930508, "fusion_lat": 0.0}, {"is_disabled": 0, "rental_uris": {"android": "https://dc.lft.to/lastmile_qr_scan", "ios": "https://dc.lft.to/lastmile_qr_scan"}, "is_reserved": 0, "name": "b204bc2552723253f129463ab5f3a809", "lon": -77.04456133333333, "type": "electric_scooter", "bike_id": "b204bc2552723253f129463ab5f3a809", "fusion_lon": 0.0, "lat": 38.914018166666665, "fusion_lat": 0.0}, {"is_disabled": 0, "rental_uris": {"android": "https://dc.lft.to/lastmile_qr_scan", "ios": "https://dc.lft.to/lastmile_qr_scan"}, "is_reserved": 0, "name": "47f752ce4a01db2bb6fba5069b98f157", "lon": -77.00682416666666, "type": "electric_scooter", "bike_id": "47f752ce4a01db2bb6fba5069b98f157", "fusion_lon": 0.0, "lat": 38.90514666666667, "fusion_lat": 0.0}, {"is_disabled": 0, "rental_uris": {"android": "https://dc.lft.to/lastmile_qr_scan", "ios": "https://dc.lft.to/lastmile_qr_scan"}, "is_reserved": 0, "name": "c6c38e536188719d1ca39379f21d370f", "lon": -77.019812, "type": "electric_scooter", "bike_id": "c6c38e536188719d1ca39379f21d370f", "fusion_lon": 0.0, "lat": 38.89509533333333, "fusion_lat": 0.0}, {"is_disabled": 0, "rental_uris": {"android": "https://dc.lft.to/lastmile_qr_scan", "ios": "https://dc.lft.to/lastmile_qr_scan"}, "is_reserved": 0, "name": "b049dca521c6645d14d3a1ce203fc572", "lon": -76.99910883333334, "type": "electric_scooter", "bike_id": "b049dca521c6645d14d3a1ce203fc572", "fusion_lon": 0.0, "lat": 38.924567, "fusion_lat": 0.0}, {"is_disabled": 0, "rental_uris": {"android": "https://dc.lft.to/lastmile_qr_scan", "ios": "https://dc.lft.to/lastmile_qr_scan"}, "is_reserved": 0, "name": "b951cb1c428d54bdc5cd61d2877c8a3b", "lon": -77.03199933333333, "type": "electric_bike", "bike_id": "b951cb1c428d54bdc5cd61d2877c8a3b", "fusion_lon": 0.0, "lat": 38.92362766666667, "fusion_lat": 0.0}, {"is_disabled": 0, "rental_uris": {"android": "https://dc.lft.to/lastmile_qr_scan", "ios": "https://dc.lft.to/lastmile_qr_scan"}, "is_reserved": 0, "name": "60b1956c3d6e8c73a338ad9f85e6a8f4", "lon": -77.132333, "type": "electric_bike", "bike_id": "60b1956c3d6e8c73a338ad9f85e6a8f4", "fusion_lon": 0.0, "lat": 38.86972733333333, "fusion_lat": 0.0}, {"is_disabled": 0, "rental_uris": {"android": "https://dc.lft.to/lastmile_qr_scan", "ios": "https://dc.lft.to/lastmile_qr_scan"}, "is_reserved": 0, "name": "89dabbc5418eb95fc0d364cd6eda0f87", "lon": -77.0246875, "type": "electric_scooter", "bike_id": "89dabbc5418eb95fc0d364cd6eda0f87", "fusion_lon": 0.0, "lat": 38.88477916666667, "fusion_lat": 0.0}, {"is_disabled": 0, "rental_uris": {"android": "https://dc.lft.to/lastmile_qr_scan", "ios": "https://dc.lft.to/lastmile_qr_scan"}, "is_reserved": 0, "name": "2245c8bcd959c2b690209f15b6a0f83d", "lon": -77.03311316666667, "type": "electric_scooter", "bike_id": "2245c8bcd959c2b690209f15b6a0f83d", "fusion_lon": 0.0, "lat": 38.91637133333333, "fusion_lat": 0.0}, {"is_disabled": 0, "rental_uris": {"android": "https://dc.lft.to/lastmile_qr_scan", "ios": "https://dc.lft.to/lastmile_qr_scan"}, "is_reserved": 0, "name": "f40da18a1217b70ac07e2af3f835f01d", "lon": -77.05123583333334, "type": "electric_scooter", "bike_id": "f40da18a1217b70ac07e2af3f835f01d", "fusion_lon": 0.0, "lat": 38.923429666666664, "fusion_lat": 0.0}, {"is_disabled": 0, "rental_uris": {"android": "https://dc.lft.to/lastmile_qr_scan", "ios": "https://dc.lft.to/lastmile_qr_scan"}, "is_reserved": 0, "name": "d6f0dc065e4e0385561351755c0bfa45", "lon": -77.0005905, "type": "electric_scooter", "bike_id": "d6f0dc065e4e0385561351755c0bfa45", "fusion_lon": 0.0, "lat": 38.920880833333335, "fusion_lat": 0.0}, {"is_disabled": 0, "rental_uris": {"android": "https://dc.lft.to/lastmile_qr_scan", "ios": "https://dc.lft.to/lastmile_qr_scan"}, "is_reserved": 0, "name": "b59124d7600c21853fdf8031b29be5e4", "lon": -76.9993425, "type": "electric_scooter", "bike_id": "b59124d7600c21853fdf8031b29be5e4", "fusion_lon": 0.0, "lat": 38.93230033333333, "fusion_lat": 0.0}, {"is_disabled": 0, "rental_uris": {"android": "https://dc.lft.to/lastmile_qr_scan", "ios": "https://dc.lft.to/lastmile_qr_scan"}, "is_reserved": 0, "name": "b9f6a0788ec8f97f803e4163045bb026", "lon": -77.00368016666667, "type": "electric_scooter", "bike_id": "b9f6a0788ec8f97f803e4163045bb026", "fusion_lon": 0.0, "lat": 38.877587, "fusion_lat": 0.0}, {"is_disabled": 0, "rental_uris": {"android": "https://dc.lft.to/lastmile_qr_scan", "ios": "https://dc.lft.to/lastmile_qr_scan"}, "is_reserved": 0, "name": "7fe7bafe9ec189b735808c19751f0a56", "lon": -76.996404, "type": "electric_scooter", "bike_id": "7fe7bafe9ec189b735808c19751f0a56", "fusion_lon": 0.0, "lat": 38.90037216666666, "fusion_lat": 0.0}, {"is_disabled": 0, "rental_uris": {"android": "https://dc.lft.to/lastmile_qr_scan", "ios": "https://dc.lft.to/lastmile_qr_scan"}, "is_reserved": 0, "name": "32b81923654d39c59c36d3bfacc805b7", "lon": -77.005427, "type": "electric_scooter", "bike_id": "32b81923654d39c59c36d3bfacc805b7", "fusion_lon": 0.0, "lat": 38.878852333333334, "fusion_lat": 0.0}, {"is_disabled": 0, "rental_uris": {"android": "https://dc.lft.to/lastmile_qr_scan", "ios": "https://dc.lft.to/lastmile_qr_scan"}, "is_reserved": 0, "name": "1cef6497c40bffbad08554638aafaf3e", "lon": -77.0660655, "type": "electric_scooter", "bike_id": "1cef6497c40bffbad08554638aafaf3e", "fusion_lon": 0.0, "lat": 38.90737416666666, "fusion_lat": 0.0}, {"is_disabled": 0, "rental_uris": {"android": "https://dc.lft.to/lastmile_qr_scan", "ios": "https://dc.lft.to/lastmile_qr_scan"}, "is_reserved": 0, "name": "c0dba3939754e1b3311c9313314028c3", "lon": -77.02306166666666, "type": "electric_scooter", "bike_id": "c0dba3939754e1b3311c9313314028c3", "fusion_lon": 0.0, "lat": 38.9178245, "fusion_lat": 0.0}, {"is_disabled": 0, "rental_uris": {"android": "https://dc.lft.to/lastmile_qr_scan", "ios": "https://dc.lft.to/lastmile_qr_scan"}, "is_reserved": 0, "name": "b0af80e37f5769a77231117cb97debb9", "lon": -77.0217155, "type": "electric_scooter", "bike_id": "b0af80e37f5769a77231117cb97debb9", "fusion_lon": 0.0, "lat": 38.942922, "fusion_lat": 0.0}, {"is_disabled": 0, "rental_uris": {"android": "https://dc.lft.to/lastmile_qr_scan", "ios": "https://dc.lft.to/lastmile_qr_scan"}, "is_reserved": 0, "name": "9cabc424aa63bbbfa0eaedddce3aecd1", "lon": -76.98798833333333, "type": "electric_bike", "bike_id": "9cabc424aa63bbbfa0eaedddce3aecd1", "fusion_lon": 0.0, "lat": 38.922074, "fusion_lat": 0.0}, {"is_disabled": 0, "rental_uris": {"android": "https://dc.lft.to/lastmile_qr_scan", "ios": "https://dc.lft.to/lastmile_qr_scan"}, "is_reserved": 0, "name": "c82b57d74d8d6d75662cd924e84e5d2b", "lon": -76.940602, "type": "electric_scooter", "bike_id": "c82b57d74d8d6d75662cd924e84e5d2b", "fusion_lon": 0.0, "lat": 38.89038983333333, "fusion_lat": 0.0}, {"is_disabled": 0, "rental_uris": {"android": "https://dc.lft.to/lastmile_qr_scan", "ios": "https://dc.lft.to/lastmile_qr_scan"}, "is_reserved": 0, "name": "e2acc2dfa9572375d98f110242f4c2c8", "lon": -77.03210133333333, "type": "electric_scooter", "bike_id": "e2acc2dfa9572375d98f110242f4c2c8", "fusion_lon": 0.0, "lat": 38.917804, "fusion_lat": 0.0}, {"is_disabled": 0, "rental_uris": {"android": "https://dc.lft.to/lastmile_qr_scan", "ios": "https://dc.lft.to/lastmile_qr_scan"}, "is_reserved": 0, "name": "70b47715397178ababf5460cb2daa274", "lon": -77.12581483333334, "type": "electric_bike", "bike_id": "70b47715397178ababf5460cb2daa274", "fusion_lon": 0.0, "lat": 38.8514445, "fusion_lat": 0.0}, {"is_disabled": 0, "rental_uris": {"android": "https://dc.lft.to/lastmile_qr_scan", "ios": "https://dc.lft.to/lastmile_qr_scan"}, "is_reserved": 0, "name": "e5c9a7a8fd6225374d2ad9b491e2cbea", "lon": -76.93739516666666, "type": "electric_scooter", "bike_id": "e5c9a7a8fd6225374d2ad9b491e2cbea", "fusion_lon": 0.0, "lat": 38.8901105, "fusion_lat": 0.0}, {"is_disabled": 0, "rental_uris": {"android": "https://dc.lft.to/lastmile_qr_scan", "ios": "https://dc.lft.to/lastmile_qr_scan"}, "is_reserved": 0, "name": "44d9c9ca51a6ab2f7fb07dc3853cf6ef", "lon": -76.987749, "type": "electric_scooter", "bike_id": "44d9c9ca51a6ab2f7fb07dc3853cf6ef", "fusion_lon": 0.0, "lat": 38.91168733333333, "fusion_lat": 0.0}, {"is_disabled": 0, "rental_uris": {"android": "https://dc.lft.to/lastmile_qr_scan", "ios": "https://dc.lft.to/lastmile_qr_scan"}, "is_reserved": 0, "name": "0b61ca12cd4bdba12788f70f59d0c6da", "lon": -77.03045216666666, "type": "electric_scooter", "bike_id": "0b61ca12cd4bdba12788f70f59d0c6da", "fusion_lon": 0.0, "lat": 38.93457183333334, "fusion_lat": 0.0}, {"is_disabled": 0, "rental_uris": {"android": "https://dc.lft.to/lastmile_qr_scan", "ios": "https://dc.lft.to/lastmile_qr_scan"}, "is_reserved": 0, "name": "da8ff99e67cea292de44dee712bf6645", "lon": -77.047183, "type": "electric_scooter", "bike_id": "da8ff99e67cea292de44dee712bf6645", "fusion_lon": 0.0, "lat": 38.89724416666667, "fusion_lat": 0.0}, {"is_disabled": 0, "rental_uris": {"android": "https://dc.lft.to/lastmile_qr_scan", "ios": "https://dc.lft.to/lastmile_qr_scan"}, "is_reserved": 0, "name": "a990b2d840b0364459168df4ca853cba", "lon": -76.982712, "type": "electric_scooter", "bike_id": "a990b2d840b0364459168df4ca853cba", "fusion_lon": 0.0, "lat": 38.8852955, "fusion_lat": 0.0}, {"is_disabled": 0, "rental_uris": {"android": "https://dc.lft.to/lastmile_qr_scan", "ios": "https://dc.lft.to/lastmile_qr_scan"}, "is_reserved": 0, "name": "9c603a9f1ba519c1a4d81b85002d9537", "lon": -77.01804516666667, "type": "electric_scooter", "bike_id": "9c603a9f1ba519c1a4d81b85002d9537", "fusion_lon": 0.0, "lat": 38.92217633333333, "fusion_lat": 0.0}, {"is_disabled": 0, "rental_uris": {"android": "https://dc.lft.to/lastmile_qr_scan", "ios": "https://dc.lft.to/lastmile_qr_scan"}, "is_reserved": 0, "name": "e36e4afc2d7cbef7889c9965a3440fc1", "lon": -76.9323105, "type": "electric_bike", "bike_id": "e36e4afc2d7cbef7889c9965a3440fc1", "fusion_lon": 0.0, "lat": 38.865921666666665, "fusion_lat": 0.0}, {"is_disabled": 0, "rental_uris": {"android": "https://dc.lft.to/lastmile_qr_scan", "ios": "https://dc.lft.to/lastmile_qr_scan"}, "is_reserved": 0, "name": "c589e1b29309d43f29f00f6e056d79ed", "lon": -77.03742366666667, "type": "electric_scooter", "bike_id": "c589e1b29309d43f29f00f6e056d79ed", "fusion_lon": 0.0, "lat": 38.911909666666666, "fusion_lat": 0.0}, {"is_disabled": 0, "rental_uris": {"android": "https://dc.lft.to/lastmile_qr_scan", "ios": "https://dc.lft.to/lastmile_qr_scan"}, "is_reserved": 0, "name": "f181dca152e947636b2bfb5a9a07fc63", "lon": -77.03738716666666, "type": "electric_scooter", "bike_id": "f181dca152e947636b2bfb5a9a07fc63", "fusion_lon": 0.0, "lat": 38.91120683333333, "fusion_lat": 0.0}, {"is_disabled": 0, "rental_uris": {"android": "https://dc.lft.to/lastmile_qr_scan", "ios": "https://dc.lft.to/lastmile_qr_scan"}, "is_reserved": 0, "name": "09ccb324eef92428b3cf1256f8fedbb3", "lon": -77.04028183333334, "type": "electric_scooter", "bike_id": "09ccb324eef92428b3cf1256f8fedbb3", "fusion_lon": 0.0, "lat": 38.917980166666666, "fusion_lat": 0.0}, {"is_disabled": 0, "rental_uris": {"android": "https://dc.lft.to/lastmile_qr_scan", "ios": "https://dc.lft.to/lastmile_qr_scan"}, "is_reserved": 0, "name": "53fec34cd7ed5737bc96a4f491cb9dd2", "lon": -77.0473185, "type": "electric_scooter", "bike_id": "53fec34cd7ed5737bc96a4f491cb9dd2", "fusion_lon": 0.0, "lat": 38.90594216666667, "fusion_lat": 0.0}, {"is_disabled": 0, "rental_uris": {"android": "https://dc.lft.to/lastmile_qr_scan", "ios": "https://dc.lft.to/lastmile_qr_scan"}, "is_reserved": 0, "name": "f5457072ab1115fecffb111d18bfd04d", "lon": -77.0378495, "type": "electric_scooter", "bike_id": "f5457072ab1115fecffb111d18bfd04d", "fusion_lon": 0.0, "lat": 38.930192166666664, "fusion_lat": 0.0}, {"is_disabled": 0, "rental_uris": {"android": "https://dc.lft.to/lastmile_qr_scan", "ios": "https://dc.lft.to/lastmile_qr_scan"}, "is_reserved": 0, "name": "9f02a522bb5fbcd2e97cafbff7736bca", "lon": -77.02005566666666, "type": "electric_scooter", "bike_id": "9f02a522bb5fbcd2e97cafbff7736bca", "fusion_lon": 0.0, "lat": 38.89732266666667, "fusion_lat": 0.0}, {"is_disabled": 0, "rental_uris": {"android": "https://dc.lft.to/lastmile_qr_scan", "ios": "https://dc.lft.to/lastmile_qr_scan"}, "is_reserved": 0, "name": "029cb9b97c6a43168c408547de18fe66", "lon": -77.0341635, "type": "electric_scooter", "bike_id": "029cb9b97c6a43168c408547de18fe66", "fusion_lon": 0.0, "lat": 38.93542716666666, "fusion_lat": 0.0}, {"is_disabled": 0, "rental_uris": {"android": "https://dc.lft.to/lastmile_qr_scan", "ios": "https://dc.lft.to/lastmile_qr_scan"}, "is_reserved": 0, "name": "45eafbbad2c674bce3099cc48b844c53", "lon": -76.97620166666667, "type": "electric_scooter", "bike_id": "45eafbbad2c674bce3099cc48b844c53", "fusion_lon": 0.0, "lat": 38.93144516666667, "fusion_lat": 0.0}, {"is_disabled": 0, "rental_uris": {"android": "https://dc.lft.to/lastmile_qr_scan", "ios": "https://dc.lft.to/lastmile_qr_scan"}, "is_reserved": 0, "name": "c16b8d7f8d91a6683168c6217f159e52", "lon": -76.92761316666666, "type": "electric_bike", "bike_id": "c16b8d7f8d91a6683168c6217f159e52", "fusion_lon": 0.0, "lat": 38.960327666666664, "fusion_lat": 0.0}, {"is_disabled": 0, "rental_uris": {"android": "https://dc.lft.to/lastmile_qr_scan", "ios": "https://dc.lft.to/lastmile_qr_scan"}, "is_reserved": 0, "name": "d597650663eceb434bccd20c56e4b460", "lon": -77.05186516666667, "type": "electric_scooter", "bike_id": "d597650663eceb434bccd20c56e4b460", "fusion_lon": 0.0, "lat": 38.89808633333333, "fusion_lat": 0.0}, {"is_disabled": 0, "rental_uris": {"android": "https://dc.lft.to/lastmile_qr_scan", "ios": "https://dc.lft.to/lastmile_qr_scan"}, "is_reserved": 0, "name": "61896355ae8727e4d0cc597bfc9fdf6a", "lon": -77.0103675, "type": "electric_scooter", "bike_id": "61896355ae8727e4d0cc597bfc9fdf6a", "fusion_lon": 0.0, "lat": 38.866641, "fusion_lat": 0.0}, {"is_disabled": 0, "rental_uris": {"android": "https://dc.lft.to/lastmile_qr_scan", "ios": "https://dc.lft.to/lastmile_qr_scan"}, "is_reserved": 0, "name": "5ff6eda7c091d9f525b0d65e1ff4e626", "lon": -77.00216483333334, "type": "electric_bike", "bike_id": "5ff6eda7c091d9f525b0d65e1ff4e626", "fusion_lon": 0.0, "lat": 38.81945566666667, "fusion_lat": 0.0},