{"data": {"bikes": [{"rental_uris": {"android": "https://dc.lft.to/lastmile_qr_scan", "ios": "https://dc.lft.to/lastmile_qr_scan"}, "lat": 38.92485816666667, "fusion_lon": 0.0, "fusion_lat": 0.0, "type": "electric_scooter", "bike_id": "afd69cf9272349e5f1c12f9676402712", "lon": -77.057544, "is_reserved": 0, "is_disabled": 0, "name": "afd69cf9272349e5f1c12f9676402712"}, {"rental_uris": {"android": "https://dc.lft.to/lastmile_qr_scan", "ios": "https://dc.lft.to/lastmile_qr_scan"}, "lat": 38.8788015, "fusion_lon": 0.0, "fusion_lat": 0.0, "type": "electric_scooter", "bike_id": "88905bdf6c5f5fa36d31ffa536e04e06", "lon": -77.0231475, "is_reserved": 0, "is_disabled": 0, "name": "88905bdf6c5f5fa36d31ffa536e04e06"}, {"rental_uris": {"android": "https://dc.lft.to/lastmile_qr_scan", "ios": "https://dc.lft.to/lastmile_qr_scan"}, "lat": 38.9202005, "fusion_lon": 0.0, "fusion_lat": 0.0, "type": "electric_bike", "bike_id": "59eed9a2e3d897b5e230729b5d6a0e80", "lon": -77.00333383333333, "is_reserved": 0, "is_disabled": 0, "name": "59eed9a2e3d897b5e230729b5d6a0e80"}, {"rental_uris": {"android": "https://dc.lft.to/lastmile_qr_scan", "ios": "https://dc.lft.to/lastmile_qr_scan"}, "lat": 38.9199185, "fusion_lon": 0.0, "fusion_lat": 0.0, "type": "electric_scooter", "bike_id": "acee747d6dfe0c7387e0cf9cc4eeb9b6", "lon": -77.01784783333333, "is_reserved": 0, "is_disabled": 0, "name": "acee747d6dfe0c7387e0cf9cc4eeb9b6"}, {"rental_uris": {"android": "https://dc.lft.to/lastmile_qr_scan", "ios": "https://dc.lft.to/lastmile_qr_scan"}, "lat": 38.9195205, "fusion_lon": 0.0, "fusion_lat": 0.0, "type": "electric_bike", "bike_id": "26fee7f3a2283405bf5f3ed58290e697", "lon": -77.02501016666666, "is_reserved": 0, "is_disabled": 0, "name": "26fee7f3a2283405bf5f3ed58290e697"}, {"rental_uris": {"android": "https://dc.lft.to/lastmile_qr_scan", "ios": "https://dc.lft.to/lastmile_qr_scan"}, "lat": 38.915437, "fusion_lon": 0.0, "fusion_lat": 0.0, "type": "electric_scooter", "bike_id": "fc06b6cfc08b3764da085b3c3d9e697a", "lon": -77.04440516666666, "is_reserved": 0, "is_disabled": 0, "name": "fc06b6cfc08b3764da085b3c3d9e697a"}, {"rental_uris": {"android": "https://dc.lft.to/lastmile_qr_scan", "ios": "https://dc.lft.to/lastmile_qr_scan"}, "lat": 38.914157333333335, "fusion_lon": 0.0, "fusion_lat": 0.0, "type": "electric_scooter", "bike_id": "c08d5ce622a38e54649600ea31178ebe", "lon": -77.02227483333333, "is_reserved": 0, "is_disabled": 0, "name": "c08d5ce622a38e54649600ea31178ebe"}, {"rental_uris": {"android": "https://dc.lft.to/lastmile_qr_scan", "ios": "https://dc.lft.to/lastmile_qr_scan"}, "lat": 38.93866466666667, "fusion_lon": 0.0, "fusion_lat": 0.0, "type": "electric_scooter", "bike_id": "7bcc79c1bc149a2aababae6580613b28", "lon": -77.02736233333333, "is_reserved": 0, "is_disabled": 0, "name": "7bcc79c1bc149a2aababae6580613b28"}, {"rental_uris": {"android": "https://dc.lft.to/lastmile_qr_scan", "ios": "https://dc.lft.to/lastmile_qr_scan"}, "lat": 38.9059785, "fusion_lon": 0.0, "fusion_lat": 0.0, "type": "electric_scooter", "bike_id": "30b2a0a7465ca5a871fce0f09ec333ea", "lon": -77.0399705, "is_reserved": 0, "is_disabled": 0, "name": "30b2a0a7465ca5a871fce0f09ec333ea"}, {"rental_uris": {"android": "https://dc.lft.to/lastmile_qr_scan", "ios": "https://dc.lft.to/lastmile_qr_scan"}, "lat": 38.90166516666667, "fusion_lon": 0.0, "fusion_lat": 0.0, "type": "electric_scooter", "bike_id": "de75402e533b1777692786fb216f1fb2", "lon": -77.02291433333333, "is_reserved": 0, "is_disabled": 0, "name": "de75402e533b1777692786fb216f1fb2"}, {"rental_uris": {"android": "https://dc.lft.to/lastmile_qr_scan", "ios": "https://dc.lft.to/lastmile_qr_scan"}, "lat": 38.9268755, "fusion_lon": 0.0, "fusion_lat": 0.0, "type": "electric_scooter", "bike_id": "12fe4d757d447b35ee9125088183c459", "lon": -77.03572783333334, "is_reserved": 0, "is_disabled": 0, "name": "12fe4d757d447b35ee9125088183c459"}, {"rental_uris": {"android": "https://dc.lft.to/lastmile_qr_scan", "ios": "https://dc.lft.to/lastmile_qr_scan"}, "lat": 38.926050333333336, "fusion_lon": 0.0, "fusion_lat": 0.0, "type": "electric_scooter", "bike_id": "1436bcc4f677d55ee943e49546f670c2", "lon": -77.05703716666666, "is_reserved": 0, "is_disabled": 0, "name": "1436bcc4f677d55ee943e49546f670c2"}, {"rental_uris": {"android": "https://dc.lft.to/lastmile_qr_scan", "ios": "https://dc.lft.to/lastmile_qr_scan"}, "lat": 38.935338333333334, "fusion_lon": 0.0, "fusion_lat": 0.0, "type": "electric_scooter", "bike_id": "857d89cc04a1e2aa05273c9e59f0174b", "lon": -77.023503, "is_reserved": 0, "is_disabled": 0, "name": "857d89cc04a1e2aa05273c9e59f0174b"}, {"rental_uris": {"android": "https://dc.lft.to/lastmile_qr_scan", "ios": "https://dc.lft.to/lastmile_qr_scan"}, "lat": 38.906965666666665, "fusion_lon": 0.0, "fusion_lat": 0.0, "type": "electric_scooter", "bike_id": "26389155d97a6a1f922bcc48ed518fc4", "lon": -76.99955366666667, "is_reserved": 0, "is_disabled": 0, "name": "26389155d97a6a1f922bcc48ed518fc4"}, {"rental_uris": {"android": "https://dc.lft.to/lastmile_qr_scan", "ios": "https://dc.lft.to/lastmile_qr_scan"}, "lat": 38.914971666666666, "fusion_lon": 0.0, "fusion_lat": 0.0, "type": "electric_scooter", "bike_id": "7d565438c87d8638a9ac7b95650f1c0c", "lon": -77.01853033333333, "is_reserved": 0, "is_disabled": 0, "name": "7d565438c87d8638a9ac7b95650f1c0c"}, {"rental_uris": {"android": "https://dc.lft.to/lastmile_qr_scan", "ios": "https://dc.lft.to/lastmile_qr_scan"}, "lat": 38.920205, "fusion_lon": 0.0, "fusion_lat": 0.0, "type": "electric_scooter", "bike_id": "fbaed4b0909e6d9ac90a3cfcee0575e6", "lon": -77.03116383333334, "is_reserved": 0, "is_disabled": 0, "name": "fbaed4b0909e6d9ac90a3cfcee0575e6"}, {"rental_uris": {"android": "https://dc.lft.to/lastmile_qr_scan", "ios": "https://dc.lft.to/lastmile_qr_scan"}, "lat": 38.9072255, "fusion_lon": 0.0, "fusion_lat": 0.0, "type": "electric_scooter", "bike_id": "0e45e634786694393dfc7796afa6643e", "lon": -77.040408, "is_reserved": 0, "is_disabled": 0, "name": "0e45e634786694393dfc7796afa6643e"}, {"rental_uris": {"android": "https://dc.lft.to/lastmile_qr_scan", "ios": "https://dc.lft.to/lastmile_qr_scan"}, "lat": 38.920471, "fusion_lon": 0.0, "fusion_lat": 0.0, "type": "electric_scooter", "bike_id": "f2ff83d119c3d51c58f165ec5ceceef7", "lon": -77.038823, "is_reserved": 0, "is_disabled": 0, "name": "f2ff83d119c3d51c58f165ec5ceceef7"}, {"rental_uris": {"android": "https://dc.lft.to/lastmile_qr_scan", "ios": "https://dc.lft.to/lastmile_qr_scan"}, "lat": 38.93953466666667, "fusion_lon": 0.0, "fusion_lat": 0.0, "type": "electric_scooter", "bike_id": "dd443fa6c9378eb58698600efe348c97", "lon": -77.07242183333334, "is_reserved": 0, "is_disabled": 0, "name": "dd443fa6c9378eb58698600efe348c97"}, {"rental_uris": {"android": "https://dc.lft.to/lastmile_qr_scan", "ios": "https://dc.lft.to/lastmile_qr_scan"}, "lat": 38.895587666666664, "fusion_lon": 0.0, "fusion_lat": 0.0, "type": "electric_scooter", "bike_id": "1af876005082dbc683ec6784a7b160e6", "lon": -77.00918383333334, "is_reserved": 0, "is_disabled": 0, "name": "1af876005082dbc683ec6784a7b160e6"}, {"rental_uris": {"android": "https://dc.lft.to/lastmile_qr_scan", "ios": "https://dc.lft.to/lastmile_qr_scan"}, "lat": 38.96272, "fusion_lon": 0.0, "fusion_lat": 0.0, "type": "electric_scooter", "bike_id": "798fcf7a32402b2743e4114477c90aef", "lon": -77.0302235, "is_reserved": 0, "is_disabled": 0, "name": "798fcf7a32402b2743e4114477c90aef"}, {"rental_uris": {"android": "https://dc.lft.to/lastmile_qr_scan", "ios": "https://dc.lft.to/lastmile_qr_scan"}, "lat": 38.892272, "fusion_lon": 0.0, "fusion_lat": 0.0, "type": "electric_scooter", "bike_id": "d444e8203a3a894d0efed1ed4e6e7c1b", "lon": -77.03159116666667, "is_reserved": 0, "is_disabled": 0, "name": "d444e8203a3a894d0efed1ed4e6e7c1b"}, {"rental_uris": {"android": "https://dc.lft.to/lastmile_qr_scan", "ios": "https://dc.lft.to/lastmile_qr_scan"}, "lat": 38.94569933333333, "fusion_lon": 0.0, "fusion_lat": 0.0, "type": "electric_bike", "bike_id": "e9fead4b4a035d311b9da549e0ca7383", "lon": -76.98113383333333, "is_reserved": 0, "is_disabled": 0, "name": "e9fead4b4a035d311b9da549e0ca7383"}, {"rental_uris": {"android": "https://dc.lft.to/lastmile_qr_scan", "ios": "https://dc.lft.to/lastmile_qr_scan"}, "lat": 38.90605466666667, "fusion_lon": 0.0, "fusion_lat": 0.0, "type": "electric_scooter", "bike_id": "8ee298603ca22d30769d0db88413a1f2", "lon": -77.0637965, "is_reserved": 0, "is_disabled": 0, "name": "8ee298603ca22d30769d0db88413a1f2"}, {"rental_uris": {"android": "https://dc.lft.to/lastmile_qr_scan", "ios": "https://dc.lft.to/lastmile_qr_scan"}, "lat": 38.90037216666666, "fusion_lon": 0.0, "fusion_lat": 0.0, "type": "electric_bike", "bike_id": "3d163893a71c80cea5139a338c50e493", "lon": -76.9722385, "is_reserved": 0, "is_disabled": 0, "name": "3d163893a71c80cea5139a338c50e493"}, {"rental_uris": {"android": "https://dc.lft.to/lastmile_qr_scan", "ios": "https://dc.lft.to/lastmile_qr_scan"}, "lat": 38.89020883333333, "fusion_lon": 0.0, "fusion_lat": 0.0, "type": "electric_scooter", "bike_id": "370bbb28704b1fb3dd4805f261c87eec", "lon": -76.937357, "is_reserved": 0, "is_disabled": 0, "name": "370bbb28704b1fb3dd4805f261c87eec"}, {"rental_uris": {"android": "https://dc.lft.to/lastmile_qr_scan", "ios": "https://dc.lft.to/lastmile_qr_scan"}, "lat": 38.9232885, "fusion_lon": 0.0, "fusion_lat": 0.0, "type": "electric_scooter", "bike_id": "175827bbf49a3a4a96e3e67750dee28c", "lon": -77.01954633333334, "is_reserved": 0, "is_disabled": 0, "name": "175827bbf49a3a4a96e3e67750dee28c"}, {"rental_uris": {"android": "https://dc.lft.to/lastmile_qr_scan", "ios": "https://dc.lft.to/lastmile_qr_scan"}, "lat": 38.90192833333333, "fusion_lon": 0.0, "fusion_lat": 0.0, "type": "electric_bike", "bike_id": "da2aa01a7234d5ee6da6bbff686a6278", "lon": -77.03920866666667, "is_reserved": 0, "is_disabled": 0, "name": "da2aa01a7234d5ee6da6bbff686a6278"}, {"rental_uris": {"android": "https://dc.lft.to/lastmile_qr_scan", "ios": "https://dc.lft.to/lastmile_qr_scan"}, "lat": 38.926136166666666, "fusion_lon": 0.0, "fusion_lat": 0.0, "type": "electric_scooter", "bike_id": "b9dbf52622bf1729bee6a901292ae93e", "lon": -77.02162983333334, "is_reserved": 0, "is_disabled": 0, "name": "b9dbf52622bf1729bee6a901292ae93e"}, {"rental_uris": {"android": "https://dc.lft.to/lastmile_qr_scan", "ios": "https://dc.lft.to/lastmile_qr_scan"}, "lat": 38.944941166666666, "fusion_lon": 0.0, "fusion_lat": 0.0, "type": "electric_scooter", "bike_id": "829d782f8c85bf07466dcd590c75c8c1", "lon": -77.02843216666666, "is_reserved": 0, "is_disabled": 0, "name": "829d782f8c85bf07466dcd590c75c8c1"}, {"rental_uris": {"android": "https://dc.lft.to/lastmile_qr_scan", "ios": "https://dc.lft.to/lastmile_qr_scan"}, "lat": 38.89832333333333, "fusion_lon": 0.0, "fusion_lat": 0.0, "type": "electric_scooter", "bike_id": "684bc70bfaee024dec4fbfdb6a22d8ad", "lon": -77.040262, "is_reserved": 0, "is_disabled": 0, "name": "684bc70bfaee024dec4fbfdb6a22d8ad"}, {"rental_uris": {"android": "https://dc.lft.to/lastmile_qr_scan", "ios": "https://dc.lft.to/lastmile_qr_scan"}, "lat": 38.914073333333334, "fusion_lon": 0.0, "fusion_lat": 0.0, "type": "electric_scooter", "bike_id": "fa42faa9b8a3760a1eee21e381c5fea1", "lon": -77.031365, "is_reserved": 0, "is_disabled": 0, "name": "fa42faa9b8a3760a1eee21e381c5fea1"}, {"rental_uris": {"android": "https://dc.lft.to/lastmile_qr_scan", "ios": "https://dc.lft.to/lastmile_qr_scan"}, "lat": 38.919703, "fusion_lon": 0.0, "fusion_lat": 0.0, "type": "electric_scooter", "bike_id": "ca63db01d54249c098dbde6403e5d0ad", "lon": -77.02196733333334, "is_reserved": 0, "is_disabled": 0, "name": "ca63db01d54249c098dbde6403e5d0ad"}, {"rental_uris": {"android": "https://dc.lft.to/lastmile_qr_scan", "ios": "https://dc.lft.to/lastmile_qr_scan"}, "lat": 38.90342883333334, "fusion_lon": 0.0, "fusion_lat": 0.0, "type": "electric_scooter", "bike_id": "3bd643a3b97547dd2cb3639d7ffc6d5b", "lon": -77.03838983333333, "is_reserved": 0, "is_disabled": 0, "name": "3bd643a3b97547dd2cb3639d7ffc6d5b"}, {"rental_uris": {"android": "https://dc.lft.to/lastmile_qr_scan", "ios": "https://dc.lft.to/lastmile_qr_scan"}, "lat": 39.08433216666667, "fusion_lon": 0.0, "fusion_lat": 0.0, "type": "electric_bike", "bike_id": "f43b9ef6cd9ab2916f80c2f0506afe49", "lon": -76.95158216666667, "is_reserved": 0, "is_disabled": 0, "name": "f43b9ef6cd9ab2916f80c2f0506afe49"}, {"rental_uris": {"android": "https://dc.lft.to/lastmile_qr_scan", "ios": "https://dc.lft.to/lastmile_qr_scan"}, "lat": 38.909481166666666, "fusion_lon": 0.0, "fusion_lat": 0.0, "type": "electric_scooter", "bike_id": "89aee94c8555c277b0d7e9affe8b1c72", "lon": -76.935926, "is_reserved": 0, "is_disabled": 0, "name": "89aee94c8555c277b0d7e9affe8b1c72"}, {"rental_uris": {"android": "https://dc.lft.to/lastmile_qr_scan", "ios": "https://dc.lft.to/lastmile_qr_scan"}, "lat": 38.88503266666667, "fusion_lon": 0.0, "fusion_lat": 0.0, "type": "electric_scooter", "bike_id": "98542ad5f2d8d7f9eb65967afabbdcf1", "lon": -77.005657, "is_reserved": 0, "is_disabled": 0, "name": "98542ad5f2d8d7f9eb65967afabbdcf1"}, {"rental_uris": {"android": "https://dc.lft.to/lastmile_qr_scan", "ios": "https://dc.lft.to/lastmile_qr_scan"}, "lat": 38.922559, "fusion_lon": 0.0, "fusion_lat": 0.0, "type": "electric_scooter", "bike_id": "72228d89724cd311bf6636065d9a7493", "lon": -77.04284016666666, "is_reserved": 0, "is_disabled": 0, "name": "72228d89724cd311bf6636065d9a7493"}, {"rental_uris": {"android": "https://dc.lft.to/lastmile_qr_scan", "ios": "https://dc.lft.to/lastmile_qr_scan"}, "lat": 38.93022966666667, "fusion_lon": 0.0, "fusion_lat": 0.0, "type": "electric_scooter", "bike_id": "10ec1861cb4d2fb290a3d2836a3f6f61", "lon": -77.03800283333334, "is_reserved": 0, "is_disabled": 0, "name": "10ec1861cb4d2fb290a3d2836a3f6f61"}, {"rental_uris": {"android": "https://dc.lft.to/lastmile_qr_scan", "ios": "https://dc.lft.to/lastmile_qr_scan"}, "lat": 38.90304716666667, "fusion_lon": 0.0, "fusion_lat": 0.0, "type": "electric_scooter", "bike_id": "982784f212a1f26e6d6ed9b225594c09", "lon": -77.04337933333333, "is_reserved": 0, "is_disabled": 0, "name": "982784f212a1f26e6d6ed9b225594c09"}, {"rental_uris": {"android": "https://dc.lft.to/lastmile_qr_scan", "ios": "https://dc.lft.to/lastmile_qr_scan"}, "lat": 38.929696666666665, "fusion_lon": 0.0, "fusion_lat": 0.0, "type": "electric_scooter", "bike_id": "5761d08cb0471fc8bff44889b8e96bb0", "lon": -77.05519483333333, "is_reserved": 0, "is_disabled": 0, "name": "5761d08cb0471fc8bff44889b8e96bb0"}, {"rental_uris": {"android": "https://dc.lft.to/lastmile_qr_scan", "ios": "https://dc.lft.to/lastmile_qr_scan"}, "lat": 38.907836833333334, "fusion_lon": 0.0, "fusion_lat": 0.0, "type": "electric_scooter", "bike_id": "61a1ae5bd86c96ccbe9e158b3db62dde", "lon": -77.045045, "is_reserved": 0, "is_disabled": 0, "name": "61a1ae5bd86c96ccbe9e158b3db62dde"}, {"rental_uris": {"android": "https://dc.lft.to/lastmile_qr_scan", "ios": "https://dc.lft.to/lastmile_qr_scan"}, "lat": 38.89886666666666, "fusion_lon": 0.0, "fusion_lat": 0.0, "type": "electric_scooter", "bike_id": "08414c1f587842c8f7b75e46b1275bfc", "lon": -77.00144116666667, "is_reserved": 0, "is_disabled": 0, "name": "08414c1f587842c8f7b75e46b1275bfc"}, {"rental_uris": {"android": "https://dc.lft.to/lastmile_qr_scan", "ios": "https://dc.lft.to/lastmile_qr_scan"}, "lat": 38.908824, "fusion_lon": 0.0, "fusion_lat": 0.0, "type": "electric_scooter", "bike_id": "7391750e6c18345513372ba09ec8c591", "lon": -76.9915195, "is_reserved": 0, "is_disabled": 0, "name": "7391750e6c18345513372ba09ec8c591"}, {"rental_uris": {"android": "https://dc.lft.to/lastmile_qr_scan", "ios": "https://dc.lft.to/lastmile_qr_scan"}, "lat": 38.90444433333333, "fusion_lon": 0.0, "fusion_lat": 0.0, "type": "electric_scooter", "bike_id": "f13dc0af16e57ebcd3b976ec946c6dde", "lon": -77.04184416666666, "is_reserved": 0, "is_disabled": 0, "name": "f13dc0af16e57ebcd3b976ec946c6dde"}, {"rental_uris": {"android": "https://dc.lft.to/lastmile_qr_scan", "ios": "https://dc.lft.to/lastmile_qr_scan"}, "lat": 38.9208625, "fusion_lon": 0.0, "fusion_lat": 0.0, "type": "electric_scooter", "bike_id": "f15e8d426074abec7016a34100ba3b58", "lon": -77.02512016666667, "is_reserved": 0, "is_disabled": 0, "name": "f15e8d426074abec7016a34100ba3b58"}, {"rental_uris": {"android": "https://dc.lft.to/lastmile_qr_scan", "ios": "https://dc.lft.to/lastmile_qr_scan"}, "lat": 38.924677, "fusion_lon": 0.0, "fusion_lat": 0.0, "type": "electric_scooter", "bike_id": "7179703760767bd9f529aa1262fad5ae", "lon": -77.022065, "is_reserved": 0, "is_disabled": 0, "name": "7179703760767bd9f529aa1262fad5ae"}, {"rental_uris": {"android": "https://dc.lft.to/lastmile_qr_scan", "ios": "https://dc.lft.to/lastmile_qr_scan"}, "lat": 38.92709633333333, "fusion_lon": 0.0, "fusion_lat": 0.0, "type": "electric_scooter", "bike_id": "49720443550d1416b35affa85f7bf491", "lon": -77.0411105, "is_reserved": 0, "is_disabled": 0, "name": "49720443550d1416b35affa85f7bf491"}, {"rental_uris": {"android": "https://dc.lft.to/lastmile_qr_scan", "ios": "https://dc.lft.to/lastmile_qr_scan"}, "lat": 38.91623833333333, "fusion_lon": 0.0, "fusion_lat": 0.0, "type": "electric_scooter", "bike_id": "16e7f656d796a42583e57635bbf35123", "lon": -77.03277583333333, "is_reserved": 0, "is_disabled": 0, "name": "16e7f656d796a42583e57635bbf35123"}, {"rental_uris": {"android": "https://dc.lft.to/lastmile_qr_scan", "ios": "https://dc.lft.to/lastmile_qr_scan"}, "lat": 38.88398333333333, "fusion_lon": 0.0, "fusion_lat": 0.0, "type": "electric_scooter", "bike_id": "3ec3cb45d8acbf025ebeef69c9068614", "lon": -76.9856365, "is_reserved": 0, "is_disabled": 0, "name": "3ec3cb45d8acbf025ebeef69c9068614"}, {"rental_uris": {"android": "https://dc.lft.to/lastmile_qr_scan", "ios": "https://dc.lft.to/lastmile_qr_scan"}, "lat": 38.96800116666667, "fusion_lon": 0.0, "fusion_lat": 0.0, "type": "electric_scooter", "bike_id": "b37b9db24a428dee486f7d3db0d8d64d", "lon": -77.02415533333334, "is_reserved": 0, "is_disabled": 0, "name": "b37b9db24a428dee486f7d3db0d8d64d"}, {"rental_uris": {"android": "https://dc.lft.to/lastmile_qr_scan", "ios": "https://dc.lft.to/lastmile_qr_scan"}, "lat": 38.926233833333335, "fusion_lon": 0.0, "fusion_lat": 0.0, "type": "electric_scooter", "bike_id": "4dde37688ad0dc7f1339912fd9d34ccf", "lon": -77.04311733333333, "is_reserved": 0, "is_disabled": 0, "name": "4dde37688ad0dc7f1339912fd9d34ccf"}, {"rental_uris": {"android": "https://dc.lft.to/lastmile_qr_scan", "ios": "https://dc.lft.to/lastmile_qr_scan"}, "lat": 38.8845845, "fusion_lon": 0.0, "fusion_lat": 0.0, "type": "electric_scooter", "bike_id": "c47abee3ca1fcab1d858dabe0280872d", "lon": -76.929571, "is_reserved": 0, "is_disabled": 0, "name": "c47abee3ca1fcab1d858dabe0280872d"}, {"rental_uris": {"android": "https://dc.lft.to/lastmile_qr_scan", "ios": "https://dc.lft.to/lastmile_qr_scan"}, "lat": 38.89086183333333, "fusion_lon": 0.0, "fusion_lat": 0.0, "type": "electric_scooter", "bike_id": "42d0647b40df25a2896df9a1f0196247", "lon": -77.00344316666667, "is_reserved": 0, "is_disabled": 0, "name": "42d0647b40df25a2896df9a1f0196247"}, {"rental_uris": {"android": "https://dc.lft.to/lastmile_qr_scan", "ios": "https://dc.lft.to/lastmile_qr_scan"}, "lat": 38.89061733333333, "fusion_lon": 0.0, "fusion_lat": 0.0, "type": "electric_scooter", "bike_id": "a0702e22e02842e89a9102844729f545", "lon": -77.0230085, "is_reserved": 0, "is_disabled": 0, "name": "a0702e22e02842e89a9102844729f545"}, {"rental_uris": {"android": "https://dc.lft.to/lastmile_qr_scan", "ios": "https://dc.lft.to/lastmile_qr_scan"}, "lat": 38.92021, "fusion_lon": 0.0, "fusion_lat": 0.0, "type": "electric_scooter", "bike_id": "392dba7954d42a79b14b8f4ff5a2f58a", "lon": -77.02803733333333, "is_reserved": 0, "is_disabled": 0, "name": "392dba7954d42a79b14b8f4ff5a2f58a"}, {"rental_uris": {"android": "https://dc.lft.to/lastmile_qr_scan", "ios": "https://dc.lft.to/lastmile_qr_scan"}, "lat": 38.9492255, "fusion_lon": 0.0, "fusion_lat": 0.0, "type": "electric_scooter", "bike_id": "b13569c27f749df2bd0c3f549191fa80", "lon": -77.01856516666666, "is_reserved": 0, "is_disabled": 0, "name": "b13569c27f749df2bd0c3f549191fa80"}, {"rental_uris": {"android": "https://dc.lft.to/lastmile_qr_scan", "ios": "https://dc.lft.to/lastmile_qr_scan"}, "lat": 38.90380183333333, "fusion_lon": 0.0, "fusion_lat": 0.0, "type": "electric_scooter", "bike_id": "8de6cac2e62e3af6ea8182c16a074f58", "lon": -77.04739883333333, "is_reserved": 0, "is_disabled": 0, "name": "8de6cac2e62e3af6ea8182c16a074f58"}, {"rental_uris": {"android": "https://dc.lft.to/lastmile_qr_scan", "ios": "https://dc.lft.to/lastmile_qr_scan"}, "lat": 38.896210833333335, "fusion_lon": 0.0, "fusion_lat": 0.0, "type": "electric_scooter", "bike_id": "63bd8af6dbefa6b1f13ae17500ca8b1e", "lon": -76.98565583333334, "is_reserved": 0, "is_disabled": 0, "name": "63bd8af6dbefa6b1f13ae17500ca8b1e"}, {"rental_uris": {"android": "https://dc.lft.to/lastmile_qr_scan", "ios": "https://dc.lft.to/lastmile_qr_scan"}, "lat": 38.90442083333333, "fusion_lon": 0.0, "fusion_lat": 0.0, "type": "electric_scooter", "bike_id": "65e99b10f4b7f4c4e8db3c25c7174bd5", "lon": -77.03499383333333, "is_reserved": 0, "is_disabled": 0, "name": "65e99b10f4b7f4c4e8db3c25c7174bd5"}, {"rental_uris": {"android": "https://dc.lft.to/lastmile_qr_scan", "ios": "https://dc.lft.to/lastmile_qr_scan"}, "lat": 38.87419716666667, "fusion_lon": 0.0, "fusion_lat": 0.0, "type": "electric_scooter", "bike_id": "62441ea8a31ea7d20cbec3dcd0d5f71b", "lon": -77.000487, "is_reserved": 0, "is_disabled": 0, "name": "62441ea8a31ea7d20cbec3dcd0d5f71b"}, {"rental_uris": {"android": "https://dc.lft.to/lastmile_qr_scan", "ios": "https://dc.lft.to/lastmile_qr_scan"}, "lat": 39.000004, "fusion_lon": 0.0, "fusion_lat": 0.0, "type": "electric_bike", "bike_id": "c1dd00c2768d0522dba3a96c9cdbddd6", "lon": -76.9180135, "is_reserved": 0, "is_disabled": 0, "name": "c1dd00c2768d0522dba3a96c9cdbddd6"}, {"rental_uris": {"android": "https://dc.lft.to/lastmile_qr_scan", "ios": "https://dc.lft.to/lastmile_qr_scan"}, "lat": 38.895089, "fusion_lon": 0.0, "fusion_lat": 0.0, "type": "electric_scooter", "bike_id": "02efcc0935edb7c2553da821f3099737", "lon": -77.00887483333334, "is_reserved": 0, "is_disabled": 0, "name": "02efcc0935edb7c2553da821f3099737"}, {"rental_uris": {"android": "https://dc.lft.to/lastmile_qr_scan", "ios": "https://dc.lft.to/lastmile_qr_scan"}, "lat": 38.88083983333333, "fusion_lon": 0.0, "fusion_lat": 0.0, "type": "electric_scooter", "bike_id": "02c133d844fdd52db03a390175e2e6dd", "lon": -76.99502966666667, "is_reserved": 0, "is_disabled": 0, "name": "02c133d844fdd52db03a390175e2e6dd"}, {"rental_uris": {"android": "https://dc.lft.to/lastmile_qr_scan", "ios": "https://dc.lft.to/lastmile_qr_scan"}, "lat": 38.905699, "fusion_lon": 0.0, "fusion_lat": 0.0, "type": "electric_scooter", "bike_id": "57a77ace3b73c1cab8cec0758d9b1d1d", "lon": -77.0345555, "is_reserved": 0, "is_disabled": 0, "name": "57a77ace3b73c1cab8cec0758d9b1d1d"}, {"rental_uris": {"android": "https://dc.lft.to/lastmile_qr_scan", "ios": "https://dc.lft.to/lastmile_qr_scan"}, "lat": 38.9034825, "fusion_lon": 0.0, "fusion_lat": 0.0, "type": "electric_scooter", "bike_id": "ebf4120fb9ad899168cfb846d7df91fb", "lon": -76.929418, "is_reserved": 0, "is_disabled": 0, "name": "ebf4120fb9ad899168cfb846d7df91fb"}, {"rental_uris": {"android": "https://dc.lft.to/lastmile_qr_scan", "ios": "https://dc.lft.to/lastmile_qr_scan"}, "lat": 38.91109083333333, "fusion_lon": 0.0, "fusion_lat": 0.0, "type": "electric_scooter", "bike_id": "ce82695349961f532b47dfff94a9d643", "lon": -77.05032366666667, "is_reserved": 0, "is_disabled": 0, "name": "ce82695349961f532b47dfff94a9d643"}, {"rental_uris": {"android": "https://dc.lft.to/lastmile_qr_scan", "ios": "https://dc.lft.to/lastmile_qr_scan"}, "lat": 38.89728183333333, "fusion_lon": 0.0, "fusion_lat": 0.0, "type": "electric_scooter", "bike_id": "eb61091901557166429663aa905f69ee", "lon": -77.031674, "is_reserved": 0, "is_disabled": 0, "name": "eb61091901557166429663aa905f69ee"}, {"rental_uris": {"android": "https://dc.lft.to/lastmile_qr_scan", "ios": "https://dc.lft.to/lastmile_qr_scan"}, "lat": 38.91381833333333, "fusion_lon": 0.0, "fusion_lat": 0.0, "type": "electric_scooter", "bike_id": "828f69b4fe9fd0b57006882ef34d80ae", "lon": -77.06655516666666, "is_reserved": 0, "is_disabled": 0, "name": "828f69b4fe9fd0b57006882ef34d80ae"}, {"rental_uris": {"android": "https://dc.lft.to/lastmile_qr_scan", "ios": "https://dc.lft.to/lastmile_qr_scan"}, "lat": 38.935225833333334, "fusion_lon": 0.0, "fusion_lat": 0.0, "type": "electric_scooter", "bike_id": "6ac9cb2e9f1716d81b5960eaa46fbb0e", "lon": -77.08702366666667, "is_reserved": 0, "is_disabled": 0, "name": "6ac9cb2e9f1716d81b5960eaa46fbb0e"}, {"rental_uris": {"android": "https://dc.lft.to/lastmile_qr_scan", "ios": "https://dc.lft.to/lastmile_qr_scan"}, "lat": 38.931143166666665, "fusion_lon": 0.0, "fusion_lat": 0.0, "type": "electric_scooter", "bike_id": "91f56bb7e6286616d3d00885e2b1e8b6", "lon": -77.02097283333333, "is_reserved": 0, "is_disabled": 0, "name": "91f56bb7e6286616d3d00885e2b1e8b6"}, {"rental_uris": {"android": "https://dc.lft.to/lastmile_qr_scan", "ios": "https://dc.lft.to/lastmile_qr_scan"}, "lat": 38.908742333333336, "fusion_lon": 0.0, "fusion_lat": 0.0, "type": "electric_scooter", "bike_id": "3beedba99213000140bda4cda1b087dc", "lon": -77.07139283333333, "is_reserved": 0, "is_disabled": 0, "name": "3beedba99213000140bda4cda1b087dc"}, {"rental_uris": {"android": "https://dc.lft.to/lastmile_qr_scan", "ios": "https://dc.lft.to/lastmile_qr_scan"}, "lat": 38.904025833333336, "fusion_lon": 0.0, "fusion_lat": 0.0, "type": "electric_scooter", "bike_id": "8e251837e216115d72e535742f9ba5b5", "lon": -77.04345733333334, "is_reserved": 0, "is_disabled": 0, "name": "8e251837e216115d72e535742f9ba5b5"}, {"rental_uris": {"android": "https://dc.lft.to/lastmile_qr_scan", "ios": "https://dc.lft.to/lastmile_qr_scan"}, "lat": 38.91412833333333, "fusion_lon": 0.0, "fusion_lat": 0.0, "type": "electric_scooter", "bike_id": "f1a7190f581fadf9925f0ceb0c067f91", "lon": -77.02584816666666, "is_reserved": 0, "is_disabled": 0, "name": "f1a7190f581fadf9925f0ceb0c067f91"}, {"rental_uris": {"android": "https://dc.lft.to/lastmile_qr_scan", "ios": "https://dc.lft.to/lastmile_qr_scan"}, "lat": 38.89979266666667, "fusion_lon": 0.0, "fusion_lat": 0.0, "type": "electric_scooter", "bike_id": "eee88be7faa84f39b3246e8a0fcd5eca", "lon": -77.02723933333333, "is_reserved": 0, "is_disabled": 0, "name": "eee88be7faa84f39b3246e8a0fcd5eca"}, {"rental_uris": {"android": "https://dc.lft.to/lastmile_qr_scan", "ios": "https://dc.lft.to/lastmile_qr_scan"}, "lat": 38.9196845, "fusion_lon": 0.0, "fusion_lat": 0.0, "type": "electric_scooter", "bike_id": "8cb3b468b6b822b00a5e0e23abd79f56", "lon": -77.02495683333333, "is_reserved": 0, "is_disabled": 0, "name": "8cb3b468b6b822b00a5e0e23abd79f56"}, {"rental_uris": {"android": "https://dc.lft.to/lastmile_qr_scan", "ios": "https://dc.lft.to/lastmile_qr_scan"}, "lat": 38.90530783333333, "fusion_lon": 0.0, "fusion_lat": 0.0, "type": "electric_scooter", "bike_id": "a1b121b07b5eb2e866f2e84d9e71cadf", "lon": -77.05027133333333, "is_reserved": 0, "is_disabled": 0, "name": "a1b121b07b5eb2e866f2e84d9e71cadf"}, {"rental_uris": {"android": "https://dc.lft.to/lastmile_qr_scan", "ios": "https://dc.lft.to/lastmile_qr_scan"}, "lat": 38.9285995, "fusion_lon": 0.0, "fusion_lat": 0.0, "type": "electric_scooter", "bike_id": "8d188868c711d6cab1f12162bd9cf566", "lon": -77.031685, "is_reserved": 0, "is_disabled": 0, "name": "8d188868c711d6cab1f12162bd9cf566"}, {"rental_uris": {"android": "https://dc.lft.to/lastmile_qr_scan", "ios": "https://dc.lft.to/lastmile_qr_scan"}, "lat": 38.935405333333335, "fusion_lon": 0.0, "fusion_lat": 0.0, "type": "electric_scooter", "bike_id": "d5ea4cab2b220a3e2916d08a5152ce14", "lon": -77.03423083333334, "is_reserved": 0, "is_disabled": 0, "name": "d5ea4cab2b220a3e2916d08a5152ce14"}, {"rental_uris": {"android": "https://dc.lft.to/lastmile_qr_scan", "ios": "https://dc.lft.to/lastmile_qr_scan"}, "lat": 38.884681, "fusion_lon": 0.0, "fusion_lat": 0.0, "type": "electric_scooter", "bike_id": "b5f75262c6dfb6dedd0ae0a0c0b33556", "lon": -77.02490683333333, "is_reserved": 0, "is_disabled": 0, "name": "b5f75262c6dfb6dedd0ae0a0c0b33556"}, {"rental_uris": {"android": "https://dc.lft.to/lastmile_qr_scan", "ios": "https://dc.lft.to/lastmile_qr_scan"}, "lat": 38.920187, "fusion_lon": 0.0, "fusion_lat": 0.0, "type": "electric_scooter", "bike_id": "21939cc164a413de7cb59edc4b9faf21", "lon": -77.06361616666666, "is_reserved": 0, "is_disabled": 0, "name": "21939cc164a413de7cb59edc4b9faf21"}, {"rental_uris": {"android": "https://dc.lft.to/lastmile_qr_scan", "ios": "https://dc.lft.to/lastmile_qr_scan"}, "lat": 38.94174783333333, "fusion_lon": 0.0, "fusion_lat": 0.0, "type": "electric_scooter", "bike_id": "a4b8b6a955f2ad319a0135eed4b66c37", "lon": -77.02338116666667, "is_reserved": 0, "is_disabled": 0, "name": "a4b8b6a955f2ad319a0135eed4b66c37"}, {"rental_uris": {"android": "https://dc.lft.to/lastmile_qr_scan", "ios": "https://dc.lft.to/lastmile_qr_scan"}, "lat": 38.906247, "fusion_lon": 0.0, "fusion_lat": 0.0, "type": "electric_scooter", "bike_id": "2d3fc0522617d2c6401aa3225fd2d76a", "lon": -77.0059235, "is_reserved": 0, "is_disabled": 0, "name": "2d3fc0522617d2c6401aa3225fd2d76a"}, {"rental_uris": {"android": "https://dc.lft.to/lastmile_qr_scan", "ios": "https://dc.lft.to/lastmile_qr_scan"}, "lat": 38.920523, "fusion_lon": 0.0, "fusion_lat": 0.0, "type": "electric_scooter", "bike_id": "1a11f68357d0eebb5e7d8ba403010360", "lon": -77.0165845, "is_reserved": 0, "is_disabled": 0, "name": "1a11f68357d0eebb5e7d8ba403010360"}, {"rental_uris": {"android": "https://dc.lft.to/lastmile_qr_scan", "ios": "https://dc.lft.to/lastmile_qr_scan"}, "lat": 38.89359066666667, "fusion_lon": 0.0, "fusion_lat": 0.0, "type": "electric_scooter", "bike_id": "9ebab933d6e5fb14fb2a823d06f309a9", "lon": -77.04480733333334, "is_reserved": 0, "is_disabled": 0, "name": "9ebab933d6e5fb14fb2a823d06f309a9"}, {"rental_uris": {"android": "https://dc.lft.to/lastmile_qr_scan", "ios": "https://dc.lft.to/lastmile_qr_scan"}, "lat": 38.855991, "fusion_lon": 0.0, "fusion_lat": 0.0, "type": "electric_bike", "bike_id": "95d82e8060969249f8b7d233ad0126e0", "lon": -76.972714, "is_reserved": 0, "is_disabled": 0, "name": "95d82e8060969249f8b7d233ad0126e0"}, {"rental_uris": {"android": "https://dc.lft.to/lastmile_qr_scan", "ios": "https://dc.lft.to/lastmile_qr_scan"}, "lat": 38.8714665, "fusion_lon": 0.0, "fusion_lat": 0.0, "type": "electric_bike", "bike_id": "44e0f8ceeb9a1fb8099bbba4b43261cf", "lon": -77.23001816666667, "is_reserved": 0, "is_disabled": 0, "name": "44e0f8ceeb9a1fb8099bbba4b43261cf"}, {"rental_uris": {"android": "https://dc.lft.to/lastmile_qr_scan", "ios": "https://dc.lft.to/lastmile_qr_scan"}, "lat": 38.9855745, "fusion_lon": 0.0, "fusion_lat": 0.0, "type": "electric_bike", "bike_id": "6793bf8987c3fa86ab7d351811b5b198", "lon": -77.0039555, "is_reserved": 0, "is_disabled": 0, "name": "6793bf8987c3fa86ab7d351811b5b198"}, {"rental_uris": {"android": "https://dc.lft.to/lastmile_qr_scan", "ios": "https://dc.lft.to/lastmile_qr_scan"}, "lat": 38.904785333333336, "fusion_lon": 0.0, "fusion_lat": 0.0, "type": "electric_bike", "bike_id": "bbf3ce3cd8c48ee101dfb74824b97160", "lon": -77.05284366666666, "is_reserved": 0, "is_disabled": 0, "name": "bbf3ce3cd8c48ee101dfb74824b97160"}, {"rental_uris": {"android": "https://dc.lft.to/lastmile_qr_scan", "ios": "https://dc.lft.to/lastmile_qr_scan"}, "lat": 38.87837483333333, "fusion_lon": 0.0, "fusion_lat": 0.0, "type": "electric_scooter", "bike_id": "a367bf6ca56027bdec06fcb9ac1e2264", "lon": -77.02274133333333, "is_reserved": 0, "is_disabled": 0, "name": "a367bf6ca56027bdec06fcb9ac1e2264"}, {"rental_uris": {"android": "https://dc.lft.to/lastmile_qr_scan", "ios": "https://dc.lft.to/lastmile_qr_scan"}, "lat": 38.92685183333333, "fusion_lon": 0.0, "fusion_lat": 0.0, "type": "electric_scooter", "bike_id": "31041f5e2d399de1d12f3c4ca17b5521", "lon": -77.01570983333333, "is_reserved": 0, "is_disabled": 0, "name": "31041f5e2d399de1d12f3c4ca17b5521"}, {"rental_uris": {"android": "https://dc.lft.to/lastmile_qr_scan", "ios": "https://dc.lft.to/lastmile_qr_scan"}, "lat": 38.91102983333333, "fusion_lon": 0.0, "fusion_lat": 0.0, "type": "electric_scooter", "bike_id": "8b84a3923cc6779e7fc8fd54ac5e70ff", "lon": -77.02637966666667, "is_reserved": 0, "is_disabled": 0, "name": "8b84a3923cc6779e7fc8fd54ac5e70ff"}, {"rental_uris": {"android": "https://dc.lft.to/lastmile_qr_scan", "ios": "https://dc.lft.to/lastmile_qr_scan"}, "lat": 38.89197683333333, "fusion_lon": 0.0, "fusion_lat": 0.0, "type": "electric_scooter", "bike_id": "78ae5911b58a1eab28f1a806babaae20", "lon": -77.00280366666667, "is_reserved": 0, "is_disabled": 0, "name": "78ae5911b58a1eab28f1a806babaae20"}, {"rental_uris": {"android": "https://dc.lft.to/lastmile_qr_scan", "ios": "https://dc.lft.to/lastmile_qr_scan"}, "lat": 38.930645, "fusion_lon": 0.0, "fusion_lat": 0.0, "type": "electric_scooter", "bike_id": "c241406df813ed4f595f6c0c175da98b", "lon": -77.03669166666667, "is_reserved": 0, "is_disabled": 0, "name": "c241406df813ed4f595f6c0c175da98b"}, {"rental_uris": {"android": "https://dc.lft.to/lastmile_qr_scan", "ios": "https://dc.lft.to/lastmile_qr_scan"}, "lat": 38.872175666666664, "fusion_lon": 0.0, "fusion_lat": 0.0, "type": "electric_scooter", "bike_id": "3efde7be3f89785abd24765489795cab", "lon": -77.00573333333334, "is_reserved": 0, "is_disabled": 0, "name": "3efde7be3f89785abd24765489795cab"}, {"rental_uris": {"android": "https://dc.lft.to/lastmile_qr_scan", "ios": "https://dc.lft.to/lastmile_qr_scan"}, "lat": 38.88860666666667, "fusion_lon": 0.0, "fusion_lat": 0.0, "type": "electric_scooter", "bike_id": "b4093d20c62c7dbb655e6429b04b31bb", "lon": -77.00180033333334, "is_reserved": 0, "is_disabled": 0, "name": "b4093d20c62c7dbb655e6429b04b31bb"}, {"rental_uris": {"android": "https://dc.lft.to/lastmile_qr_scan", "ios": "https://dc.lft.to/lastmile_qr_scan"}, "lat": 38.913609666666666, "fusion_lon": 0.0, "fusion_lat": 0.0, "type": "electric_scooter", "bike_id": "a894df966096d5f05e71333a363f8a68", "lon": -77.04576733333333, "is_reserved": 0, "is_disabled": 0, "name": "a894df966096d5f05e71333a363f8a68"}, {"rental_uris": {"android": "https://dc.lft.to/lastmile_qr_scan", "ios": "https://dc.lft.to/lastmile_qr_scan"}, "lat": 38.914896666666664, "fusion_lon": 0.0, "fusion_lat": 0.0, "type": "electric_scooter", "bike_id": "2770ce75db6360d3ebb17c997da3bb46", "lon": -76.9853705, "is_reserved": 0, "is_disabled": 0, "name": "2770ce75db6360d3ebb17c997da3bb46"}, {"rental_uris": {"android": "https://dc.lft.to/lastmile_qr_scan", "ios": "https://dc.lft.to/lastmile_qr_scan"}, "lat": 38.89352933333333, "fusion_lon": 0.0, "fusion_lat": 0.0, "type": "electric_scooter", "bike_id": "012c110d2c48d09cbf86a7e6b053062c", "lon": -77.00330733333334, "is_reserved": 0, "is_disabled": 0, "name": "012c110d2c48d09cbf86a7e6b053062c"}, {"rental_uris": {"android": "https://dc.lft.to/lastmile_qr_scan", "ios": "https://dc.lft.to/lastmile_qr_scan"}, "lat": 38.935638833333336, "fusion_lon": 0.0, "fusion_lat": 0.0, "type": "electric_scooter", "bike_id": "f8e72652399f7567145f5784e549774c", "lon": -77.05876783333333, "is_reserved": 0, "is_disabled": 0, "name": "f8e72652399f7567145f5784e549774c"}, {"rental_uris": {"android": "https://dc.lft.to/lastmile_qr_scan", "ios": "https://dc.lft.to/lastmile_qr_scan"}, "lat": 38.88719833333333, "fusion_lon": 0.0, "fusion_lat": 0.0, "type": "electric_scooter", "bike_id": "f44ab71bb9f866600cfa3ac974e472be", "lon": -77.02201766666667, "is_reserved": 0, "is_disabled": 0, "name": "f44ab71bb9f866600cfa3ac974e472be"}, {"rental_uris": {"android": "https://dc.lft.to/lastmile_qr_scan", "ios": "https://dc.lft.to/lastmile_qr_scan"}, "lat": 38.92482233333333, "fusion_lon": 0.0, "fusion_lat": 0.0, "type": "electric_scooter", "bike_id": "3c7c3b4b214d6db395882ccf0324704a", "lon": -77.022294, "is_reserved": 0, "is_disabled": 0, "name": "3c7c3b4b214d6db395882ccf0324704a"}, {"rental_uris": {"android": "https://dc.lft.to/lastmile_qr_scan", "ios": "https://dc.lft.to/lastmile_qr_scan"}, "lat": 38.904918, "fusion_lon": 0.0, "fusion_lat": 0.0, "type": "electric_scooter", "bike_id": "07fc53656cd4875fbcde902e1c360861", "lon": -77.06789133333334, "is_reserved": 0, "is_disabled": 0, "name": "07fc53656cd4875fbcde902e1c360861"}, {"rental_uris": {"android": "https://dc.lft.to/lastmile_qr_scan", "ios": "https://dc.lft.to/lastmile_qr_scan"}, "lat": 38.92239816666667, "fusion_lon": 0.0, "fusion_lat": 0.0, "type": "electric_scooter", "bike_id": "f5eed2adb773f40827992c53d2dbde2b", "lon": -77.02814616666667, "is_reserved": 0, "is_disabled": 0, "name": "f5eed2adb773f40827992c53d2dbde2b"}, {"rental_uris": {"android": "https://dc.lft.to/lastmile_qr_scan", "ios": "https://dc.lft.to/lastmile_qr_scan"}, "lat": 38.901405833333335, "fusion_lon": 0.0, "fusion_lat": 0.0, "type": "electric_scooter", "bike_id": "06a00b93821a9f400957400baedbdc49", "lon": -76.9960765, "is_reserved": 0, "is_disabled": 0, "name": "06a00b93821a9f400957400baedbdc49"}, {"rental_uris": {"android": "https://dc.lft.to/lastmile_qr_scan", "ios": "https://dc.lft.to/lastmile_qr_scan"}, "lat": 38.8922535, "fusion_lon": 0.0, "fusion_lat": 0.0, "type": "electric_scooter", "bike_id": "67d48b15dce3be9e701bf7327632db3b", "lon": -77.02535216666666, "is_reserved": 0, "is_disabled": 0, "name": "67d48b15dce3be9e701bf7327632db3b"}, {"rental_uris": {"android": "https://dc.lft.to/lastmile_qr_scan", "ios": "https://dc.lft.to/lastmile_qr_scan"}, "lat": 38.905107666666666, "fusion_lon": 0.0, "fusion_lat": 0.0, "type": "electric_scooter", "bike_id": "11ffa9d6cdb9b0cf02f8d8f0b5f1b72d", "lon": -77.03071616666666, "is_reserved": 0, "is_disabled": 0, "name": "11ffa9d6cdb9b0cf02f8d8f0b5f1b72d"}, {"rental_uris": {"android": "https://dc.lft.to/lastmile_qr_scan", "ios": "https://dc.lft.to/lastmile_qr_scan"}, "lat": 38.8989225, "fusion_lon": 0.0, "fusion_lat": 0.0, "type": "electric_scooter", "bike_id": "11b3b18c694c231c4136a3caffcf2529", "lon": -77.04047983333334, "is_reserved": 0, "is_disabled": 0, "name": "11b3b18c694c231c4136a3caffcf2529"}, {"rental_uris": {"android": "https://dc.lft.to/lastmile_qr_scan", "ios": "https://dc.lft.to/lastmile_qr_scan"}, "lat": 38.9051615, "fusion_lon": 0.0, "fusion_lat": 0.0, "type": "electric_scooter", "bike_id": "22ee6f5e3e8beec0a563b1a35a7f5f37", "lon": -77.0687285, "is_reserved": 0, "is_disabled": 0, "name": "22ee6f5e3e8beec0a563b1a35a7f5f37"}, {"rental_uris": {"android": "https://dc.lft.to/lastmile_qr_scan", "ios": "https://dc.lft.to/lastmile_qr_scan"}, "lat": 38.897467, "fusion_lon": 0.0, "fusion_lat": 0.0, "type": "electric_scooter", "bike_id": "2dc94219550e07bacb5e52c1adaeb2eb", "lon": -77.01357416666667, "is_reserved": 0, "is_disabled": 0, "name": "2dc94219550e07bacb5e52c1adaeb2eb"}, {"rental_uris": {"android": "https://dc.lft.to/lastmile_qr_scan", "ios": "https://dc.lft.to/lastmile_qr_scan"}, "lat": 38.94440933333333, "fusion_lon": 0.0, "fusion_lat": 0.0, "type": "electric_scooter", "bike_id": "395526fdb52e097ae8b70b976e0b4282", "lon": -77.02914316666667, "is_reserved": 0, "is_disabled": 0, "name": "395526fdb52e097ae8b70b976e0b4282"}, {"rental_uris": {"android": "https://dc.lft.to/lastmile_qr_scan", "ios": "https://dc.lft.to/lastmile_qr_scan"}, "lat": 38.911069499999996, "fusion_lon": 0.0, "fusion_lat": 0.0, "type": "electric_scooter", "bike_id": "04b2111186eba2c67df357211a2ce0ad", "lon": -77.04396116666666, "is_reserved": 0, "is_disabled": 0, "name": "04b2111186eba2c67df357211a2ce0ad"}, {"rental_uris": {"android": "https://dc.lft.to/lastmile_qr_scan", "ios": "https://dc.lft.to/lastmile_qr_scan"}, "lat": 38.9326545, "fusion_lon": 0.0, "fusion_lat": 0.0, "type": "electric_scooter", "bike_id": "070d3043be089b6137310c57608e6232", "lon": -77.0209475, "is_reserved": 0, "is_disabled": 0, "name": "070d3043be089b6137310c57608e6232"}, {"rental_uris": {"android": "https://dc.lft.to/lastmile_qr_scan", "ios": "https://dc.lft.to/lastmile_qr_scan"}, "lat": 38.9206145, "fusion_lon": 0.0, "fusion_lat": 0.0, "type": "electric_scooter", "bike_id": "60bb67148c8b6d3d09823933b5a5e3c2", "lon": -77.023663, "is_reserved": 0, "is_disabled": 0, "name": "60bb67148c8b6d3d09823933b5a5e3c2"}, {"rental_uris": {"android": "https://dc.lft.to/lastmile_qr_scan", "ios": "https://dc.lft.to/lastmile_qr_scan"}, "lat": 38.83827566666667, "fusion_lon": 0.0, "fusion_lat": 0.0, "type": "electric_bike", "bike_id": "43fd2097e8b3cba538c6dda7994f8f3f", "lon": -77.0791115, "is_reserved": 0, "is_disabled": 0, "name": "43fd2097e8b3cba538c6dda7994f8f3f"}, {"rental_uris": {"android": "https://dc.lft.to/lastmile_qr_scan", "ios": "https://dc.lft.to/lastmile_qr_scan"}, "lat": 38.92419616666667, "fusion_lon": 0.0, "fusion_lat": 0.0, "type": "electric_scooter", "bike_id": "246ea8aff213a4f0c6a2466cc28b76ca", "lon": -77.01942283333334, "is_reserved": 0, "is_disabled": 0, "name": "246ea8aff213a4f0c6a2466cc28b76ca"}, {"rental_uris": {"android": "https://dc.lft.to/lastmile_qr_scan", "ios": "https://dc.lft.to/lastmile_qr_scan"}, "lat": 38.83137266666667, "fusion_lon": 0.0, "fusion_lat": 0.0, "type": "electric_bike", "bike_id": "479719a9e873d9be752533f05e5d4495", "lon": -77.113201, "is_reserved": 0, "is_disabled": 0, "name": "479719a9e873d9be752533f05e5d4495"}, {"rental_uris": {"android": "https://dc.lft.to/lastmile_qr_scan", "ios": "https://dc.lft.to/lastmile_qr_scan"}, "lat": 38.948825, "fusion_lon": 0.0, "fusion_lat": 0.0, "type": "electric_scooter", "bike_id": "45f57479af4bfe67aad0808b371fd6ce", "lon": -77.0805465, "is_reserved": 0, "is_disabled": 0, "name": "45f57479af4bfe67aad0808b371fd6ce"}, {"rental_uris": {"android": "https://dc.lft.to/lastmile_qr_scan", "ios": "https://dc.lft.to/lastmile_qr_scan"}, "lat": 38.92894483333333, "fusion_lon": 0.0, "fusion_lat": 0.0, "type": "electric_bike", "bike_id": "7ff2081a4a988596eb09796e1828c737", "lon": -77.23176483333333, "is_reserved": 0, "is_disabled": 0, "name": "7ff2081a4a988596eb09796e1828c737"}, {"rental_uris": {"android": "https://dc.lft.to/lastmile_qr_scan", "ios": "https://dc.lft.to/lastmile_qr_scan"}, "lat": 38.892224166666665, "fusion_lon": 0.0, "fusion_lat": 0.0, "type": "electric_scooter", "bike_id": "7dce89b1ffb7d68600a52104b70ae77d", "lon": -77.03168883333333, "is_reserved": 0, "is_disabled": 0, "name": "7dce89b1ffb7d68600a52104b70ae77d"}, {"rental_uris": {"android": "https://dc.lft.to/lastmile_qr_scan", "ios": "https://dc.lft.to/lastmile_qr_scan"}, "lat": 38.88645066666667, "fusion_lon": 0.0, "fusion_lat": 0.0, "type": "electric_scooter", "bike_id": "c7e01faff1b657165a69816cab7190bc", "lon": -77.000948, "is_reserved": 0, "is_disabled": 0, "name": "c7e01faff1b657165a69816cab7190bc"}, {"rental_uris": {"android": "https://dc.lft.to/lastmile_qr_scan", "ios": "https://dc.lft.to/lastmile_qr_scan"}, "lat": 38.927719, "fusion_lon": 0.0, "fusion_lat": 0.0, "type": "electric_scooter", "bike_id": "30f70816b91584f50b97d64d959a50ae", "lon": -77.02760333333333, "is_reserved": 0, "is_disabled": 0, "name": "30f70816b91584f50b97d64d959a50ae"}, {"rental_uris": {"android": "https://dc.lft.to/lastmile_qr_scan", "ios": "https://dc.lft.to/lastmile_qr_scan"}, "lat": 38.91105916666667, "fusion_lon": 0.0, "fusion_lat": 0.0, "type": "electric_scooter", "bike_id": "0a77311479b33770a9abb99847eb3bbd", "lon": -77.0035835, "is_reserved": 0, "is_disabled": 0, "name": "0a77311479b33770a9abb99847eb3bbd"}, {"rental_uris": {"android": "https://dc.lft.to/lastmile_qr_scan", "ios": "https://dc.lft.to/lastmile_qr_scan"}, "lat": 38.90782983333333, "fusion_lon": 0.0, "fusion_lat": 0.0, "type": "electric_scooter", "bike_id": "2dd1ddce30bdaecdd054c53d87406e7f", "lon": -77.04508383333334, "is_reserved": 0, "is_disabled": 0, "name": "2dd1ddce30bdaecdd054c53d87406e7f"}, {"rental_uris": {"android": "https://dc.lft.to/lastmile_qr_scan", "ios": "https://dc.lft.to/lastmile_qr_scan"}, "lat": 38.91584, "fusion_lon": 0.0, "fusion_lat": 0.0, "type": "electric_scooter", "bike_id": "616032e527c5b4436bcbf084fec5cebf", "lon": -77.04521266666667, "is_reserved": 0, "is_disabled": 0, "name": "616032e527c5b4436bcbf084fec5cebf"}, {"rental_uris": {"android": "https://dc.lft.to/lastmile_qr_scan", "ios": "https://dc.lft.to/lastmile_qr_scan"}, "lat": 38.901185, "fusion_lon": 0.0, "fusion_lat": 0.0, "type": "electric_scooter", "bike_id": "eb7948fe8893f3a046f903d58e3faad4", "lon": -77.04346783333334, "is_reserved": 0, "is_disabled": 0, "name": "eb7948fe8893f3a046f903d58e3faad4"}, {"rental_uris": {"android": "https://dc.lft.to/lastmile_qr_scan", "ios": "https://dc.lft.to/lastmile_qr_scan"}, "lat": 38.95812333333333, "fusion_lon": 0.0, "fusion_lat": 0.0, "type": "electric_scooter", "bike_id": "81b25e528bbd50640e0a86f07d4868bf", "lon": -77.01453866666667, "is_reserved": 0, "is_disabled": 0, "name": "81b25e528bbd50640e0a86f07d4868bf"}, {"rental_uris": {"android": "https://dc.lft.to/lastmile_qr_scan", "ios": "https://dc.lft.to/lastmile_qr_scan"}, "lat": 38.90344183333333, "fusion_lon": 0.0, "fusion_lat": 0.0, "type": "electric_scooter", "bike_id": "8742b6319e16280991e447d16160ffe2", "lon": -77.059059, "is_reserved": 0, "is_disabled": 0, "name": "8742b6319e16280991e447d16160ffe2"}, {"rental_uris": {"android": "https://dc.lft.to/lastmile_qr_scan", "ios": "https://dc.lft.to/lastmile_qr_scan"}, "lat": 38.8989335, "fusion_lon": 0.0, "fusion_lat": 0.0, "type": "electric_scooter", "bike_id": "1e151a8d1ec3b136c4723d0f898dea92", "lon": -77.03934366666667, "is_reserved": 0, "is_disabled": 0, "name": "1e151a8d1ec3b136c4723d0f898dea92"}, {"rental_uris": {"android": "https://dc.lft.to/lastmile_qr_scan", "ios": "https://dc.lft.to/lastmile_qr_scan"}, "lat": 38.91184466666667, "fusion_lon": 0.0, "fusion_lat": 0.0, "type": "electric_scooter", "bike_id": "41dcb503ad3fad16703bf115309c80fd", "lon": -77.04573933333333, "is_reserved": 0, "is_disabled": 0, "name": "41dcb503ad3fad16703bf115309c80fd"}, {"rental_uris": {"android": "https://dc.lft.to/lastmile_qr_scan", "ios": "https://dc.lft.to/lastmile_qr_scan"}, "lat": 38.909599666666665, "fusion_lon": 0.0, "fusion_lat": 0.0, "type": "electric_scooter", "bike_id": "694253aa47f953f8aa06b79b46c8f271", "lon": -77.01438866666666, "is_reserved": 0, "is_disabled": 0, "name": "694253aa47f953f8aa06b79b46c8f271"}, {"rental_uris": {"android": "https://dc.lft.to/lastmile_qr_scan", "ios": "https://dc.lft.to/lastmile_qr_scan"}, "lat": 38.92005016666667, "fusion_lon": 0.0, "fusion_lat": 0.0, "type": "electric_bike", "bike_id": "45313ca220967c3bb0d446d91d659886", "lon": -77.041722, "is_reserved": 0, "is_disabled": 0, "name": "45313ca220967c3bb0d446d91d659886"}, {"rental_uris": {"android": "https://dc.lft.to/lastmile_qr_scan", "ios": "https://dc.lft.to/lastmile_qr_scan"}, "lat": 38.90369833333333, "fusion_lon": 0.0, "fusion_lat": 0.0, "type": "electric_scooter", "bike_id": "93a9f8bf4bfdedf26d09115de3f7c372", "lon": -77.03144866666666, "is_reserved": 0, "is_disabled": 0, "name": "93a9f8bf4bfdedf26d09115de3f7c372"}, {"rental_uris": {"android": "https://dc.lft.to/lastmile_qr_scan", "ios": "https://dc.lft.to/lastmile_qr_scan"}, "lat": 38.89869616666667, "fusion_lon": 0.0, "fusion_lat": 0.0, "type": "electric_scooter", "bike_id": "b311650012a51afac1077f8704ee0cab", "lon": -76.94663483333333, "is_reserved": 0, "is_disabled": 0, "name": "b311650012a51afac1077f8704ee0cab"}, {"rental_uris": {"android": "https://dc.lft.to/lastmile_qr_scan", "ios": "https://dc.lft.to/lastmile_qr_scan"}, "lat": 38.928729, "fusion_lon": 0.0, "fusion_lat": 0.0, "type": "electric_scooter", "bike_id": "ef78b6a6274fe68bf1247220def6fc5f", "lon": -77.033335, "is_reserved": 0, "is_disabled": 0, "name": "ef78b6a6274fe68bf1247220def6fc5f"}, {"rental_uris": {"android": "https://dc.lft.to/lastmile_qr_scan", "ios": "https://dc.lft.to/lastmile_qr_scan"}, "lat": 38.892048833333334, "fusion_lon": 0.0, "fusion_lat": 0.0, "type": "electric_scooter", "bike_id": "e6cff2f00889c3caded4d19162138fd6", "lon": -77.00297566666667, "is_reserved": 0, "is_disabled": 0, "name": "e6cff2f00889c3caded4d19162138fd6"}, {"rental_uris": {"android": "https://dc.lft.to/lastmile_qr_scan", "ios": "https://dc.lft.to/lastmile_qr_scan"}, "lat": 39.034282166666664, "fusion_lon": 0.0, "fusion_lat": 0.0, "type": "electric_bike", "bike_id": "b51942f8fb8e33d298e1b94dd0bd7caa", "lon": -77.04282916666666, "is_reserved": 0, "is_disabled": 0, "name": "b51942f8fb8e33d298e1b94dd0bd7caa"}, {"rental_uris": {"android": "https://dc.lft.to/lastmile_qr_scan", "ios": "https://dc.lft.to/lastmile_qr_scan"}, "lat": 38.90260383333333, "fusion_lon": 0.0, "fusion_lat": 0.0, "type": "electric_scooter", "bike_id": "2549ea1d8449a00966f9e3ff052ed09d", "lon": -77.02828233333334, "is_reserved": 0, "is_disabled": 0, "name": "2549ea1d8449a00966f9e3ff052ed09d"}, {"rental_uris": {"android": "https://dc.lft.to/lastmile_qr_scan", "ios": "https://dc.lft.to/lastmile_qr_scan"}, "lat": 38.8917735, "fusion_lon": 0.0, "fusion_lat": 0.0, "type": "electric_scooter", "bike_id": "2e9f6377156076269ecb1a982b9ef703", "lon": -77.01553433333333, "is_reserved": 0, "is_disabled": 0, "name": "2e9f6377156076269ecb1a982b9ef703"}, {"rental_uris": {"android": "https://dc.lft.to/lastmile_qr_scan", "ios": "https://dc.lft.to/lastmile_qr_scan"}, "lat": 38.87377816666667, "fusion_lon": 0.0, "fusion_lat": 0.0, "type": "electric_scooter", "bike_id": "15fc92241a4c725286d5e54d461cf5fc", "lon": -77.00135216666666, "is_reserved": 0, "is_disabled": 0, "name": "15fc92241a4c725286d5e54d461cf5fc"}, {"rental_uris": {"android": "https://dc.lft.to/lastmile_qr_scan", "ios": "https://dc.lft.to/lastmile_qr_scan"}, "lat": 38.9155315, "fusion_lon": 0.0, "fusion_lat": 0.0, "type": "electric_scooter", "bike_id": "d91f128be9595f8daebccc83dcc7685a", "lon": -77.022101, "is_reserved": 0, "is_disabled": 0, "name": "d91f128be9595f8daebccc83dcc7685a"}, {"rental_uris": {"android": "https://dc.lft.to/lastmile_qr_scan", "ios": "https://dc.lft.to/lastmile_qr_scan"}, "lat": 38.907568833333336, "fusion_lon": 0.0, "fusion_lat": 0.0, "type": "electric_scooter", "bike_id": "41dde7fa03dbfd0cb8b40c907eca7dea", "lon": -76.98850633333333, "is_reserved": 0, "is_disabled": 0, "name": "41dde7fa03dbfd0cb8b40c907eca7dea"}, {"rental_uris": {"android": "https://dc.lft.to/lastmile_qr_scan", "ios": "https://dc.lft.to/lastmile_qr_scan"}, "lat": 38.955405999999996, "fusion_lon": 0.0, "fusion_lat": 0.0, "type": "electric_bike", "bike_id": "ab34b2773c2f17c05429613c37eea457", "lon": -76.96856516666666, "is_reserved": 0, "is_disabled": 0, "name": "ab34b2773c2f17c05429613c37eea457"}, {"rental_uris": {"android": "https://dc.lft.to/lastmile_qr_scan", "ios": "https://dc.lft.to/lastmile_qr_scan"}, "lat": 38.9027605, "fusion_lon": 0.0, "fusion_lat": 0.0, "type": "electric_scooter", "bike_id": "5590ad79c736428176741958e0236771", "lon": -77.034425, "is_reserved": 0, "is_disabled": 0, "name": "5590ad79c736428176741958e0236771"}, {"rental_uris": {"android": "https://dc.lft.to/lastmile_qr_scan", "ios": "https://dc.lft.to/lastmile_qr_scan"}, "lat": 38.92430866666667, "fusion_lon": 0.0, "fusion_lat": 0.0, "type": "electric_scooter", "bike_id": "9cdeb1a1de3e64c3fb0468dac943f6ea", "lon": -77.02243066666666, "is_reserved": 0, "is_disabled": 0, "name": "9cdeb1a1de3e64c3fb0468dac943f6ea"}, {"rental_uris": {"android": "https://dc.lft.to/lastmile_qr_scan", "ios": "https://dc.lft.to/lastmile_qr_scan"}, "lat": 38.838674833333336, "fusion_lon": 0.0, "fusion_lat": 0.0, "type": "electric_bike", "bike_id": "40308283313c5a6e455e98ae7f4d62f8", "lon": -76.99697866666666, "is_reserved": 0, "is_disabled": 0, "name": "40308283313c5a6e455e98ae7f4d62f8"}, {"rental_uris": {"android": "https://dc.lft.to/lastmile_qr_scan", "ios": "https://dc.lft.to/lastmile_qr_scan"}, "lat": 38.9019225, "fusion_lon": 0.0, "fusion_lat": 0.0, "type": "electric_scooter", "bike_id": "b7a8613201016dcc1919427ee04e106a", "lon": -77.05064266666666, "is_reserved": 0, "is_disabled": 0, "name": "b7a8613201016dcc1919427ee04e106a"}, {"rental_uris": {"android": "https://dc.lft.to/lastmile_qr_scan", "ios": "https://dc.lft.to/lastmile_qr_scan"}, "lat": 38.9201815, "fusion_lon": 0.0, "fusion_lat": 0.0, "type": "electric_scooter", "bike_id": "3f38b792ac965060aef3994328eeda71", "lon": -77.03122183333333, "is_reserved": 0, "is_disabled": 0, "name": "3f38b792ac965060aef3994328eeda71"}, {"rental_uris": {"android": "https://dc.lft.to/lastmile_qr_scan", "ios": "https://dc.lft.to/lastmile_qr_scan"}, "lat": 38.93407366666667, "fusion_lon": 0.0, "fusion_lat": 0.0, "type": "electric_scooter", "bike_id": "7d89504bbf4a359d32c8773dd8465315", "lon": -77.04133483333334, "is_reserved": 0, "is_disabled": 0, "name": "7d89504bbf4a359d32c8773dd8465315"}, {"rental_uris": {"android": "https://dc.lft.to/lastmile_qr_scan", "ios": "https://dc.lft.to/lastmile_qr_scan"}, "lat": 38.922416166666665, "fusion_lon": 0.0, "fusion_lat": 0.0, "type": "electric_scooter", "bike_id": "ae423da5e0be4e771c55e18ad58f7cbb", "lon": -77.03895083333333, "is_reserved": 0, "is_disabled": 0, "name": "ae423da5e0be4e771c55e18ad58f7cbb"}, {"rental_uris": {"android": "https://dc.lft.to/lastmile_qr_scan", "ios": "https://dc.lft.to/lastmile_qr_scan"}, "lat": 38.91632283333333, "fusion_lon": 0.0, "fusion_lat": 0.0, "type": "electric_scooter", "bike_id": "1ab86bc1ee1822e3a3b4191b76b27648", "lon": -77.02379533333334, "is_reserved": 0, "is_disabled": 0, "name": "1ab86bc1ee1822e3a3b4191b76b27648"}, {"rental_uris": {"android": "https://dc.lft.to/lastmile_qr_scan", "ios": "https://dc.lft.to/lastmile_qr_scan"}, "lat": 38.94441533333333, "fusion_lon": 0.0, "fusion_lat": 0.0, "type": "electric_scooter", "bike_id": "ff8140bdbf3e76ba146f29db616fe240", "lon": -77.0234185, "is_reserved": 0, "is_disabled": 0, "name": "ff8140bdbf3e76ba146f29db616fe240"}, {"rental_uris": {"android": "https://dc.lft.to/lastmile_qr_scan", "ios": "https://dc.lft.to/lastmile_qr_scan"}, "lat": 38.927159, "fusion_lon": 0.0, "fusion_lat": 0.0, "type": "electric_scooter", "bike_id": "1c63feb8983a1a053d0e118c0ab9d467", "lon": -77.05983483333333, "is_reserved": 0, "is_disabled": 0, "name": "1c63feb8983a1a053d0e118c0ab9d467"}, {"rental_uris": {"android": "https://dc.lft.to/lastmile_qr_scan", "ios": "https://dc.lft.to/lastmile_qr_scan"}, "lat": 38.94282883333333, "fusion_lon": 0.0, "fusion_lat": 0.0, "type": "electric_scooter", "bike_id": "bd7b5d516008906198c9fa2ee2a748dd", "lon": -77.029308, "is_reserved": 0, "is_disabled": 0, "name": "bd7b5d516008906198c9fa2ee2a748dd"}, {"rental_uris": {"android": "https://dc.lft.to/lastmile_qr_scan", "ios": "https://dc.lft.to/lastmile_qr_scan"}, "lat": 38.8935705, "fusion_lon": 0.0, "fusion_lat": 0.0, "type": "electric_scooter", "bike_id": "2ec1ec10bd1f81c3d2a0150c867faa36", "lon": -77.02805733333334, "is_reserved": 0, "is_disabled": 0, "name": "2ec1ec10bd1f81c3d2a0150c867faa36"}, {"rental_uris": {"android": "https://dc.lft.to/lastmile_qr_scan", "ios": "https://dc.lft.to/lastmile_qr_scan"}, "lat": 38.93537333333333, "fusion_lon": 0.0, "fusion_lat": 0.0, "type": "electric_scooter", "bike_id": "5944f57f49b1a1b46a76de48f39d751d", "lon": -77.030925, "is_reserved": 0, "is_disabled": 0, "name": "5944f57f49b1a1b46a76de48f39d751d"}, {"rental_uris": {"android": "https://dc.lft.to/lastmile_qr_scan", "ios": "https://dc.lft.to/lastmile_qr_scan"}, "lat": 38.9041965, "fusion_lon": 0.0, "fusion_lat": 0.0, "type": "electric_scooter", "bike_id": "54452cfba262d4bc9c2edbbd91122f9a", "lon": -77.05336916666667, "is_reserved": 0, "is_disabled": 0, "name": "54452cfba262d4bc9c2edbbd91122f9a"}, {"rental_uris": {"android": "https://dc.lft.to/lastmile_qr_scan", "ios": "https://dc.lft.to/lastmile_qr_scan"}, "lat": 38.89824, "fusion_lon": 0.0, "fusion_lat": 0.0, "type": "electric_scooter", "bike_id": "55af067f1349238ff769ffe88efd1ce2", "lon": -77.01205416666667, "is_reserved": 0, "is_disabled": 0, "name": "55af067f1349238ff769ffe88efd1ce2"}, {"rental_uris": {"android": "https://dc.lft.to/lastmile_qr_scan", "ios": "https://dc.lft.to/lastmile_qr_scan"}, "lat": 38.920844833333334, "fusion_lon": 0.0, "fusion_lat": 0.0, "type": "electric_scooter", "bike_id": "102e0c4349a68d85774e46abc35e5655", "lon": -77.02519, "is_reserved": 0, "is_disabled": 0, "name": "102e0c4349a68d85774e46abc35e5655"}, {"rental_uris": {"android": "https://dc.lft.to/lastmile_qr_scan", "ios": "https://dc.lft.to/lastmile_qr_scan"}, "lat": 38.996775666666665, "fusion_lon": 0.0, "fusion_lat": 0.0, "type": "electric_bike", "bike_id": "92e4edc98630b3f88abe1fe87c1cfa5a", "lon": -77.0378055, "is_reserved": 0, "is_disabled": 0, "name": "92e4edc98630b3f88abe1fe87c1cfa5a"}, {"rental_uris": {"android": "https://dc.lft.to/lastmile_qr_scan", "ios": "https://dc.lft.to/lastmile_qr_scan"}, "lat": 38.90065933333333, "fusion_lon": 0.0, "fusion_lat": 0.0, "type": "electric_scooter", "bike_id": "6a41d87c3cbedb413601f06229ce18a6", "lon": -77.04854916666666, "is_reserved": 0, "is_disabled": 0, "name": "6a41d87c3cbedb413601f06229ce18a6"}, {"rental_uris": {"android": "https://dc.lft.to/lastmile_qr_scan", "ios": "https://dc.lft.to/lastmile_qr_scan"}, "lat": 38.9165985, "fusion_lon": 0.0, "fusion_lat": 0.0, "type": "electric_scooter", "bike_id": "df74a0f76014d1bc95e213d4290a1a62", "lon": -77.04382783333334, "is_reserved": 0, "is_disabled": 0, "name": "df74a0f76014d1bc95e213d4290a1a62"}, {"rental_uris": {"android": "https://dc.lft.to/lastmile_qr_scan", "ios": "https://dc.lft.to/lastmile_qr_scan"}, "lat": 38.89973366666667, "fusion_lon": 0.0, "fusion_lat": 0.0, "type": "electric_scooter", "bike_id": "f8edf8b538b394fe6dee630a6841b362", "lon": -77.03074816666667, "is_reserved": 0, "is_disabled": 0, "name": "f8edf8b538b394fe6dee630a6841b362"}, {"rental_uris": {"android": "https://dc.lft.to/lastmile_qr_scan", "ios": "https://dc.lft.to/lastmile_qr_scan"}, "lat": 38.898305666666666, "fusion_lon": 0.0, "fusion_lat": 0.0, "type": "electric_scooter", "bike_id": "8414cbcc9fb049346cc46f51325a49bc", "lon": -77.04550183333333, "is_reserved": 0, "is_disabled": 0, "name": "8414cbcc9fb049346cc46f51325a49bc"}, {"rental_uris": {"android": "https://dc.lft.to/lastmile_qr_scan", "ios": "https://dc.lft.to/lastmile_qr_scan"}, "lat": 38.9003995, "fusion_lon": 0.0, "fusion_lat": 0.0, "type": "electric_scooter", "bike_id": "ef175b5d47e2876d8d986ee1bfe7b889", "lon": -76.9915055, "is_reserved": 0, "is_disabled": 0, "name": "ef175b5d47e2876d8d986ee1bfe7b889"}, {"rental_uris": {"android": "https://dc.lft.to/lastmile_qr_scan", "ios": "https://dc.lft.to/lastmile_qr_scan"}, "lat": 38.90669316666666, "fusion_lon": 0.0, "fusion_lat": 0.0, "type": "electric_scooter", "bike_id": "2abd1044e99463530a3edb40b5cc58f9", "lon": -77.05124233333333, "is_reserved": 0, "is_disabled": 0, "name": "2abd1044e99463530a3edb40b5cc58f9"}, {"rental_uris": {"android": "https://dc.lft.to/lastmile_qr_scan", "ios": "https://dc.lft.to/lastmile_qr_scan"}, "lat": 38.937801, "fusion_lon": 0.0, "fusion_lat": 0.0, "type": "electric_scooter", "bike_id": "1a18d20d0505160489e417e74e06fedc", "lon": -77.019915, "is_reserved": 0, "is_disabled": 0, "name": "1a18d20d0505160489e417e74e06fedc"}, {"rental_uris": {"android": "https://dc.lft.to/lastmile_qr_scan", "ios": "https://dc.lft.to/lastmile_qr_scan"}, "lat": 38.915429, "fusion_lon": 0.0, "fusion_lat": 0.0, "type": "electric_scooter", "bike_id": "6271e06e34833d215f0db58808b0d402", "lon": -77.04424983333334, "is_reserved": 0, "is_disabled": 0, "name": "6271e06e34833d215f0db58808b0d402"}, {"rental_uris": {"android": "https://dc.lft.to/lastmile_qr_scan", "ios": "https://dc.lft.to/lastmile_qr_scan"}, "lat": 38.91129883333333, "fusion_lon": 0.0, "fusion_lat": 0.0, "type": "electric_scooter", "bike_id": "e16508064ccd364eceb592e598312044", "lon": -77.00923683333333, "is_reserved": 0, "is_disabled": 0, "name": "e16508064ccd364eceb592e598312044"}, {"rental_uris": {"android": "https://dc.lft.to/lastmile_qr_scan", "ios": "https://dc.lft.to/lastmile_qr_scan"}, "lat": 38.860301666666665, "fusion_lon": 0.0, "fusion_lat": 0.0, "type": "electric_scooter", "bike_id": "a3f9f70be1d64b5562645e6a3d4c0739", "lon": -76.983703, "is_reserved": 0, "is_disabled": 0, "name": "a3f9f70be1d64b5562645e6a3d4c0739"}, {"rental_uris": {"android": "https://dc.lft.to/lastmile_qr_scan", "ios": "https://dc.lft.to/lastmile_qr_scan"}, "lat": 38.87139533333333, "fusion_lon": 0.0, "fusion_lat": 0.0, "type": "electric_scooter", "bike_id": "2925ed932fb337b64400a7aa8d674bd8", "lon": -77.00625516666666, "is_reserved": 0, "is_disabled": 0, "name": "2925ed932fb337b64400a7aa8d674bd8"}, {"rental_uris": {"android": "https://dc.lft.to/lastmile_qr_scan", "ios": "https://dc.lft.to/lastmile_qr_scan"}, "lat": 38.94842233333333, "fusion_lon": 0.0, "fusion_lat": 0.0, "type": "electric_scooter", "bike_id": "558122f7501c03a92f7fe55f62a346fd", "lon": -77.02527466666666, "is_reserved": 0, "is_disabled": 0, "name": "558122f7501c03a92f7fe55f62a346fd"}, {"rental_uris": {"android": "https://dc.lft.to/lastmile_qr_scan", "ios": "https://dc.lft.to/lastmile_qr_scan"}, "lat": 38.91416233333333, "fusion_lon": 0.0, "fusion_lat": 0.0, "type": "electric_scooter", "bike_id": "bbfc6bb83ba363315699f49b5d9c0edd", "lon": -77.0222795, "is_reserved": 0, "is_disabled": 0, "name": "bbfc6bb83ba363315699f49b5d9c0edd"}, {"rental_uris": {"android": "https://dc.lft.to/lastmile_qr_scan", "ios": "https://dc.lft.to/lastmile_qr_scan"}, "lat": 38.912726666666664, "fusion_lon": 0.0, "fusion_lat": 0.0, "type": "electric_scooter", "bike_id": "8af390f521dde0f1227bd36c9b8087a2", "lon": -77.02226966666667, "is_reserved": 0, "is_disabled": 0, "name": "8af390f521dde0f1227bd36c9b8087a2"}, {"rental_uris": {"android": "https://dc.lft.to/lastmile_qr_scan", "ios": "https://dc.lft.to/lastmile_qr_scan"}, "lat": 38.896175, "fusion_lon": 0.0, "fusion_lat": 0.0, "type": "electric_scooter", "bike_id": "21b363531cb4cd2093e71af4ca6196bb", "lon": -76.9973355, "is_reserved": 0, "is_disabled": 0, "name": "21b363531cb4cd2093e71af4ca6196bb"}, {"rental_uris": {"android": "https://dc.lft.to/lastmile_qr_scan", "ios": "https://dc.lft.to/lastmile_qr_scan"}, "lat": 38.899662666666664, "fusion_lon": 0.0, "fusion_lat": 0.0, "type": "electric_scooter", "bike_id": "89a073d09b2e74ff672749f9e964f478", "lon": -77.0487105, "is_reserved": 0, "is_disabled": 0, "name": "89a073d09b2e74ff672749f9e964f478"}, {"rental_uris": {"android": "https://dc.lft.to/lastmile_qr_scan", "ios": "https://dc.lft.to/lastmile_qr_scan"}, "lat": 38.89479016666667, "fusion_lon": 0.0, "fusion_lat": 0.0, "type": "electric_scooter", "bike_id": "a6981005e7c044b8963f16bd912b9f32", "lon": -77.0110405, "is_reserved": 0, "is_disabled": 0, "name": "a6981005e7c044b8963f16bd912b9f32"}, {"rental_uris": {"android": "https://dc.lft.to/lastmile_qr_scan", "ios": "https://dc.lft.to/lastmile_qr_scan"}, "lat": 38.917088666666665, "fusion_lon": 0.0, "fusion_lat": 0.0, "type": "electric_scooter", "bike_id": "69566496c4543424c653e8f660da93a6", "lon": -77.011634, "is_reserved": 0, "is_disabled": 0, "name": "69566496c4543424c653e8f660da93a6"}, {"rental_uris": {"android": "https://dc.lft.to/lastmile_qr_scan", "ios": "https://dc.lft.to/lastmile_qr_scan"}, "lat": 38.92455066666667, "fusion_lon": 0.0, "fusion_lat": 0.0, "type": "electric_scooter", "bike_id": "2016faca1204fb5ae51b41b874f7bcb5", "lon": -77.021492, "is_reserved": 0, "is_disabled": 0, "name": "2016faca1204fb5ae51b41b874f7bcb5"}, {"rental_uris": {"android": "https://dc.lft.to/lastmile_qr_scan", "ios": "https://dc.lft.to/lastmile_qr_scan"}, "lat": 38.91192233333334, "fusion_lon": 0.0, "fusion_lat": 0.0, "type": "electric_scooter", "bike_id": "4e220631eedc793fd4076c1eaf7f7610", "lon": -77.03212033333334, "is_reserved": 0, "is_disabled": 0, "name": "4e220631eedc793fd4076c1eaf7f7610"}, {"rental_uris": {"android": "https://dc.lft.to/lastmile_qr_scan", "ios": "https://dc.lft.to/lastmile_qr_scan"}, "lat": 38.9362655, "fusion_lon": 0.0, "fusion_lat": 0.0, "type": "electric_bike", "bike_id": "6b0d557d0d93ee97c2f79babbdb610d0", "lon": -77.03653983333334, "is_reserved": 0, "is_disabled": 0, "name": "6b0d557d0d93ee97c2f79babbdb610d0"}, {"rental_uris": {"android": "https://dc.lft.to/lastmile_qr_scan", "ios": "https://dc.lft.to/lastmile_qr_scan"}, "lat": 38.90668933333333, "fusion_lon": 0.0, "fusion_lat": 0.0, "type": "electric_scooter", "bike_id": "13f9aad3ee0a6fc097090977fa636027", "lon": -77.05132716666667, "is_reserved": 0, "is_disabled": 0, "name": "13f9aad3ee0a6fc097090977fa636027"}, {"rental_uris": {"android": "https://dc.lft.to/lastmile_qr_scan", "ios": "https://dc.lft.to/lastmile_qr_scan"}, "lat": 38.9015915, "fusion_lon": 0.0, "fusion_lat": 0.0, "type": "electric_scooter", "bike_id": "791f808d2fd6736027ab9baf6949190e", "lon": -77.05059183333333, "is_reserved": 0, "is_disabled": 0, "name": "791f808d2fd6736027ab9baf6949190e"}, {"rental_uris": {"android": "https://dc.lft.to/lastmile_qr_scan", "ios": "https://dc.lft.to/lastmile_qr_scan"}, "lat": 38.8922265, "fusion_lon": 0.0, "fusion_lat": 0.0, "type": "electric_scooter", "bike_id": "70c110b2fc8273f7f54d5e39002f636a", "lon": -77.046825, "is_reserved": 0, "is_disabled": 0, "name": "70c110b2fc8273f7f54d5e39002f636a"}, {"rental_uris": {"android": "https://dc.lft.to/lastmile_qr_scan", "ios": "https://dc.lft.to/lastmile_qr_scan"}, "lat": 38.91033683333333, "fusion_lon": 0.0, "fusion_lat": 0.0, "type": "electric_bike", "bike_id": "1231ea8a864873918bd6105594436b2e", "lon": -77.03797066666667, "is_reserved": 0, "is_disabled": 0, "name": "1231ea8a864873918bd6105594436b2e"}, {"rental_uris": {"android": "https://dc.lft.to/lastmile_qr_scan", "ios": "https://dc.lft.to/lastmile_qr_scan"}, "lat": 38.87636066666666, "fusion_lon": 0.0, "fusion_lat": 0.0, "type": "electric_scooter", "bike_id": "edf8cfd8d0883ef1eb3e286d6589f3ad", "lon": -77.00371733333333, "is_reserved": 0, "is_disabled": 0, "name": "edf8cfd8d0883ef1eb3e286d6589f3ad"}, {"rental_uris": {"android": "https://dc.lft.to/lastmile_qr_scan", "ios": "https://dc.lft.to/lastmile_qr_scan"}, "lat": 38.9017615, "fusion_lon": 0.0, "fusion_lat": 0.0, "type": "electric_scooter", "bike_id": "c6a7f56da8356f96fb0b0dba08bb5ea9", "lon": -76.92946383333333, "is_reserved": 0, "is_disabled": 0, "name": "c6a7f56da8356f96fb0b0dba08bb5ea9"}, {"rental_uris": {"android": "https://dc.lft.to/lastmile_qr_scan", "ios": "https://dc.lft.to/lastmile_qr_scan"}, "lat": 38.9170655, "fusion_lon": 0.0, "fusion_lat": 0.0, "type": "electric_scooter", "bike_id": "1b72fbd685e053dae1362daac9f7bc4e", "lon": -77.00714983333333, "is_reserved": 0, "is_disabled": 0, "name": "1b72fbd685e053dae1362daac9f7bc4e"}, {"rental_uris": {"android": "https://dc.lft.to/lastmile_qr_scan", "ios": "https://dc.lft.to/lastmile_qr_scan"}, "lat": 38.92047783333334, "fusion_lon": 0.0, "fusion_lat": 0.0, "type": "electric_scooter", "bike_id": "1773e1722ebd5e3ee78fb350be468312", "lon": -77.03439783333333, "is_reserved": 0, "is_disabled": 0, "name": "1773e1722ebd5e3ee78fb350be468312"}, {"rental_uris": {"android": "https://dc.lft.to/lastmile_qr_scan", "ios": "https://dc.lft.to/lastmile_qr_scan"}, "lat": 38.89354983333333, "fusion_lon": 0.0, "fusion_lat": 0.0, "type": "electric_scooter", "bike_id": "59a451fc62e26037d17b4eb95643a7e1", "lon": -77.0033645, "is_reserved": 0, "is_disabled": 0, "name": "59a451fc62e26037d17b4eb95643a7e1"}, {"rental_uris": {"android": "https://dc.lft.to/lastmile_qr_scan", "ios": "https://dc.lft.to/lastmile_qr_scan"}, "lat": 38.923973333333336, "fusion_lon": 0.0, "fusion_lat": 0.0, "type": "electric_scooter", "bike_id": "5e0fcd5f4e410e37c83f196886e46418", "lon": -77.04288516666666, "is_reserved": 0, "is_disabled": 0, "name": "5e0fcd5f4e410e37c83f196886e46418"}, {"rental_uris": {"android": "https://dc.lft.to/lastmile_qr_scan", "ios": "https://dc.lft.to/lastmile_qr_scan"}, "lat": 38.888599166666665, "fusion_lon": 0.0, "fusion_lat": 0.0, "type": "electric_scooter", "bike_id": "4aa67aa2e49cce282c8cb962d5244204", "lon": -76.97905283333333, "is_reserved": 0, "is_disabled": 0, "name": "4aa67aa2e49cce282c8cb962d5244204"}, {"rental_uris": {"android": "https://dc.lft.to/lastmile_qr_scan", "ios": "https://dc.lft.to/lastmile_qr_scan"}, "lat": 38.8904775, "fusion_lon": 0.0, "fusion_lat": 0.0, "type": "electric_scooter", "bike_id": "3fd64ea0076bc508dd5a03deb94da96d", "lon": -76.989823, "is_reserved": 0, "is_disabled": 0, "name": "3fd64ea0076bc508dd5a03deb94da96d"}, {"rental_uris": {"android": "https://dc.lft.to/lastmile_qr_scan", "ios": "https://dc.lft.to/lastmile_qr_scan"}, "lat": 38.9037425, "fusion_lon": 0.0, "fusion_lat": 0.0, "type": "electric_scooter", "bike_id": "ee8d19def07e62bb0bc25c57568c9f2b", "lon": -77.04080483333334, "is_reserved": 0, "is_disabled": 0, "name": "ee8d19def07e62bb0bc25c57568c9f2b"}, {"rental_uris": {"android": "https://dc.lft.to/lastmile_qr_scan", "ios": "https://dc.lft.to/lastmile_qr_scan"}, "lat": 38.90576183333334, "fusion_lon": 0.0, "fusion_lat": 0.0, "type": "electric_scooter", "bike_id": "6c06e6356fbc0f8b4ccdad91fafe6358", "lon": -77.0026065, "is_reserved": 0, "is_disabled": 0, "name": "6c06e6356fbc0f8b4ccdad91fafe6358"}, {"rental_uris": {"android": "https://dc.lft.to/lastmile_qr_scan", "ios": "https://dc.lft.to/lastmile_qr_scan"}, "lat": 38.884891333333336, "fusion_lon": 0.0, "fusion_lat": 0.0, "type": "electric_scooter", "bike_id": "0befd20286e09cea1651ae2a158f9c2f", "lon": -77.00715533333333, "is_reserved": 0, "is_disabled": 0, "name": "0befd20286e09cea1651ae2a158f9c2f"}, {"rental_uris": {"android": "https://dc.lft.to/lastmile_qr_scan", "ios": "https://dc.lft.to/lastmile_qr_scan"}, "lat": 38.89534833333333, "fusion_lon": 0.0, "fusion_lat": 0.0, "type": "electric_scooter", "bike_id": "da76eb923f2b470616d22747eca504e9", "lon": -76.94889766666667, "is_reserved": 0, "is_disabled": 0, "name": "da76eb923f2b470616d22747eca504e9"}, {"rental_uris": {"android": "https://dc.lft.to/lastmile_qr_scan", "ios": "https://dc.lft.to/lastmile_qr_scan"}, "lat": 38.87577816666666, "fusion_lon": 0.0, "fusion_lat": 0.0, "type": "electric_bike", "bike_id": "9757a47917531ef419fabfb07a1ad1ec", "lon": -77.23409733333334, "is_reserved": 0, "is_disabled": 0, "name": "9757a47917531ef419fabfb07a1ad1ec"}, {"rental_uris": {"android": "https://dc.lft.to/lastmile_qr_scan", "ios": "https://dc.lft.to/lastmile_qr_scan"}, "lat": 38.87885816666667, "fusion_lon": 0.0, "fusion_lat": 0.0, "type": "electric_scooter", "bike_id": "68332f1fa00b6237f21daf14d017b4fe", "lon": -77.000501, "is_reserved": 0, "is_disabled": 0, "name": "68332f1fa00b6237f21daf14d017b4fe"}, {"rental_uris": {"android": "https://dc.lft.to/lastmile_qr_scan", "ios": "https://dc.lft.to/lastmile_qr_scan"}, "lat": 38.90976916666666, "fusion_lon": 0.0, "fusion_lat": 0.0, "type": "electric_scooter", "bike_id": "8f9985ce3e75ff912f746c49d0fbf2d2", "lon": -77.00885083333333, "is_reserved": 0, "is_disabled": 0, "name": "8f9985ce3e75ff912f746c49d0fbf2d2"}, {"rental_uris": {"android": "https://dc.lft.to/lastmile_qr_scan", "ios": "https://dc.lft.to/lastmile_qr_scan"}, "lat": 38.94051283333334, "fusion_lon": 0.0, "fusion_lat": 0.0, "type": "electric_scooter", "bike_id": "5c8206121d408b9ac38581c21f17cc9e", "lon": -77.02978366666666, "is_reserved": 0, "is_disabled": 0, "name": "5c8206121d408b9ac38581c21f17cc9e"}, {"rental_uris": {"android": "https://dc.lft.to/lastmile_qr_scan", "ios": "https://dc.lft.to/lastmile_qr_scan"}, "lat": 38.922491666666666, "fusion_lon": 0.0, "fusion_lat": 0.0, "type": "electric_scooter", "bike_id": "ac4f33384c06a6a2c03655e1290707a4", "lon": -77.07695783333334, "is_reserved": 0, "is_disabled": 0, "name": "ac4f33384c06a6a2c03655e1290707a4"}, {"rental_uris": {"android": "https://dc.lft.to/lastmile_qr_scan", "ios": "https://dc.lft.to/lastmile_qr_scan"}, "lat": 38.90009233333333, "fusion_lon": 0.0, "fusion_lat": 0.0, "type": "electric_scooter", "bike_id": "dfa4178f909385cf619c2125155e4007", "lon": -76.98866866666667, "is_reserved": 0, "is_disabled": 0, "name": "dfa4178f909385cf619c2125155e4007"}, {"rental_uris": {"android": "https://dc.lft.to/lastmile_qr_scan", "ios": "https://dc.lft.to/lastmile_qr_scan"}, "lat": 38.922780833333334, "fusion_lon": 0.0, "fusion_lat": 0.0, "type": "electric_scooter", "bike_id": "78963d745638a52a09bf9a0209911c32", "lon": -77.02127183333333, "is_reserved": 0, "is_disabled": 0, "name": "78963d745638a52a09bf9a0209911c32"}, {"rental_uris": {"android": "https://dc.lft.to/lastmile_qr_scan", "ios": "https://dc.lft.to/lastmile_qr_scan"}, "lat": 38.91007966666667, "fusion_lon": 0.0, "fusion_lat": 0.0, "type": "electric_scooter", "bike_id": "addf18b31da5cf2674a817fbd2838ff3", "lon": -76.99405883333333, "is_reserved": 0, "is_disabled": 0, "name": "addf18b31da5cf2674a817fbd2838ff3"}, {"rental_uris": {"android": "https://dc.lft.to/lastmile_qr_scan", "ios": "https://dc.lft.to/lastmile_qr_scan"}, "lat": 38.920353666666664, "fusion_lon": 0.0, "fusion_lat": 0.0, "type": "electric_scooter", "bike_id": "f0eb661afa95a85d5d9d060cd46f521c", "lon": -77.02587866666667, "is_reserved": 0, "is_disabled": 0, "name": "f0eb661afa95a85d5d9d060cd46f521c"}, {"rental_uris": {"android": "https://dc.lft.to/lastmile_qr_scan", "ios": "https://dc.lft.to/lastmile_qr_scan"}, "lat": 38.89108383333333, "fusion_lon": 0.0, "fusion_lat": 0.0, "type": "electric_scooter", "bike_id": "59a688243f626c2983d4c36f74afe351", "lon": -76.98831566666667, "is_reserved": 0, "is_disabled": 0, "name": "59a688243f626c2983d4c36f74afe351"}, {"rental_uris": {"android": "https://dc.lft.to/lastmile_qr_scan", "ios": "https://dc.lft.to/lastmile_qr_scan"}, "lat": 38.9022375, "fusion_lon": 0.0, "fusion_lat": 0.0, "type": "electric_scooter", "bike_id": "8346f0065e9f7e5a7094b09bf4c07df4", "lon": -77.03233683333333, "is_reserved": 0, "is_disabled": 0, "name": "8346f0065e9f7e5a7094b09bf4c07df4"}, {"rental_uris": {"android": "https://dc.lft.to/lastmile_qr_scan", "ios": "https://dc.lft.to/lastmile_qr_scan"}, "lat": 38.90866666666667, "fusion_lon": 0.0, "fusion_lat": 0.0, "type": "electric_scooter", "bike_id": "a6f7aaccf360359c2bbaf772e5eba277", "lon": -77.0134965, "is_reserved": 0, "is_disabled": 0, "name": "a6f7aaccf360359c2bbaf772e5eba277"}, {"rental_uris": {"android": "https://dc.lft.to/lastmile_qr_scan", "ios": "https://dc.lft.to/lastmile_qr_scan"}, "lat": 38.89365466666667, "fusion_lon": 0.0, "fusion_lat": 0.0, "type": "electric_scooter", "bike_id": "2819f17bfd302d165591b60f3df9be42", "lon": -77.01547366666667, "is_reserved": 0, "is_disabled": 0, "name": "2819f17bfd302d165591b60f3df9be42"}, {"rental_uris": {"android": "https://dc.lft.to/lastmile_qr_scan", "ios": "https://dc.lft.to/lastmile_qr_scan"}, "lat": 38.92004333333333, "fusion_lon": 0.0, "fusion_lat": 0.0, "type": "electric_scooter", "bike_id": "e2855374b85140dace14547776cc9597", "lon": -77.0215335, "is_reserved": 0, "is_disabled": 0, "name": "e2855374b85140dace14547776cc9597"}, {"rental_uris": {"android": "https://dc.lft.to/lastmile_qr_scan", "ios": "https://dc.lft.to/lastmile_qr_scan"}, "lat": 38.909409333333336, "fusion_lon": 0.0, "fusion_lat": 0.0, "type": "electric_scooter", "bike_id": "25dfa7e45bceb43708f209aa26ee9d5f", "lon": -77.04408466666666, "is_reserved": 0, "is_disabled": 0, "name": "25dfa7e45bceb43708f209aa26ee9d5f"}, {"rental_uris": {"android": "https://dc.lft.to/lastmile_qr_scan", "ios": "https://dc.lft.to/lastmile_qr_scan"}, "lat": 38.917799333333335, "fusion_lon": 0.0, "fusion_lat": 0.0, "type": "electric_scooter", "bike_id": "25e65544677b82cea966f1bfb9a6956f", "lon": -76.97317766666667, "is_reserved": 0, "is_disabled": 0, "name": "25e65544677b82cea966f1bfb9a6956f"}, {"rental_uris": {"android": "https://dc.lft.to/lastmile_qr_scan", "ios": "https://dc.lft.to/lastmile_qr_scan"}, "lat": 38.92111, "fusion_lon": 0.0, "fusion_lat": 0.0, "type": "electric_scooter", "bike_id": "ab23da3d6c14a0b884782b09c526656d", "lon": -77.0177045, "is_reserved": 0, "is_disabled": 0, "name": "ab23da3d6c14a0b884782b09c526656d"}, {"rental_uris": {"android": "https://dc.lft.to/lastmile_qr_scan", "ios": "https://dc.lft.to/lastmile_qr_scan"}, "lat": 38.873928, "fusion_lon": 0.0, "fusion_lat": 0.0, "type": "electric_scooter", "bike_id": "3aace719dcfbef1ff1548bbd8a7cf3d9", "lon": -77.0002795, "is_reserved": 0, "is_disabled": 0, "name": "3aace719dcfbef1ff1548bbd8a7cf3d9"}, {"rental_uris": {"android": "https://dc.lft.to/lastmile_qr_scan", "ios": "https://dc.lft.to/lastmile_qr_scan"}, "lat": 38.91655633333333, "fusion_lon": 0.0, "fusion_lat": 0.0, "type": "electric_scooter", "bike_id": "932e0884d88e3f3a359a00f33e13cda4", "lon": -77.031828, "is_reserved": 0, "is_disabled": 0, "name": "932e0884d88e3f3a359a00f33e13cda4"}, {"rental_uris": {"android": "https://dc.lft.to/lastmile_qr_scan", "ios": "https://dc.lft.to/lastmile_qr_scan"}, "lat": 38.89349083333333, "fusion_lon": 0.0, "fusion_lat": 0.0, "type": "electric_scooter", "bike_id": "825c5178bffa7d7f7dc3709bed8d48bc", "lon": -77.00283, "is_reserved": 0, "is_disabled": 0, "name": "825c5178bffa7d7f7dc3709bed8d48bc"}, {"rental_uris": {"android": "https://dc.lft.to/lastmile_qr_scan", "ios": "https://dc.lft.to/lastmile_qr_scan"}, "lat": 38.900876333333336, "fusion_lon": 0.0, "fusion_lat": 0.0, "type": "electric_scooter", "bike_id": "27f22eb6cba81d052ee5c44e910bc9b7", "lon": -77.01298833333334, "is_reserved": 0, "is_disabled": 0, "name": "27f22eb6cba81d052ee5c44e910bc9b7"}, {"rental_uris": {"android": "https://dc.lft.to/lastmile_qr_scan", "ios": "https://dc.lft.to/lastmile_qr_scan"}, "lat": 38.942257, "fusion_lon": 0.0, "fusion_lat": 0.0, "type": "electric_scooter", "bike_id": "f597a755de474196f602244190a85d99", "lon": -77.06222333333334, "is_reserved": 0, "is_disabled": 0, "name": "f597a755de474196f602244190a85d99"}, {"rental_uris": {"android": "https://dc.lft.to/lastmile_qr_scan", "ios": "https://dc.lft.to/lastmile_qr_scan"}, "lat": 38.93079383333333, "fusion_lon": 0.0, "fusion_lat": 0.0, "type": "electric_scooter", "bike_id": "b06c5a81c9564f6a65918e3a6dfc9bd9", "lon": -77.00199983333333, "is_reserved": 0, "is_disabled": 0, "name": "b06c5a81c9564f6a65918e3a6dfc9bd9"}, {"rental_uris": {"android": "https://dc.lft.to/lastmile_qr_scan", "ios": "https://dc.lft.to/lastmile_qr_scan"}, "lat": 38.93883016666667, "fusion_lon": 0.0, "fusion_lat": 0.0, "type": "electric_scooter", "bike_id": "4ba9536980d15c4b15e5343ae9c47c2d", "lon": -77.02833916666667, "is_reserved": 0, "is_disabled": 0, "name": "4ba9536980d15c4b15e5343ae9c47c2d"}, {"rental_uris": {"android": "https://dc.lft.to/lastmile_qr_scan", "ios": "https://dc.lft.to/lastmile_qr_scan"}, "lat": 38.90030816666667, "fusion_lon": 0.0, "fusion_lat": 0.0, "type": "electric_scooter", "bike_id": "9fa2a92900ca4865c864556f9d92128e", "lon": -77.037116, "is_reserved": 0, "is_disabled": 0, "name": "9fa2a92900ca4865c864556f9d92128e"}, {"rental_uris": {"android": "https://dc.lft.to/lastmile_qr_scan", "ios": "https://dc.lft.to/lastmile_qr_scan"}, "lat": 38.91475166666667, "fusion_lon": 0.0, "fusion_lat": 0.0, "type": "electric_scooter", "bike_id": "b565a2790a930dd42ffb3bf7e00953e7", "lon": -77.05448533333333, "is_reserved": 0, "is_disabled": 0, "name": "b565a2790a930dd42ffb3bf7e00953e7"}, {"rental_uris": {"android": "https://dc.lft.to/lastmile_qr_scan", "ios": "https://dc.lft.to/lastmile_qr_scan"}, "lat": 38.899916833333336, "fusion_lon": 0.0, "fusion_lat": 0.0, "type": "electric_scooter", "bike_id": "cce717befbef2ee7a6039032bb6e5b96", "lon": -77.02211916666667, "is_reserved": 0, "is_disabled": 0, "name": "cce717befbef2ee7a6039032bb6e5b96"}, {"rental_uris": {"android": "https://dc.lft.to/lastmile_qr_scan", "ios": "https://dc.lft.to/lastmile_qr_scan"}, "lat": 38.934759166666666, "fusion_lon": 0.0, "fusion_lat": 0.0, "type": "electric_scooter", "bike_id": "bd7d62687bbd9b7c5a058e5e7369d1f2", "lon": -76.98837316666666, "is_reserved": 0, "is_disabled": 0, "name": "bd7d62687bbd9b7c5a058e5e7369d1f2"}, {"rental_uris": {"android": "https://dc.lft.to/lastmile_qr_scan", "ios": "https://dc.lft.to/lastmile_qr_scan"}, "lat": 38.921705, "fusion_lon": 0.0, "fusion_lat": 0.0, "type": "electric_scooter", "bike_id": "20ef8ddae5ee9511e9ea7da0ad739da5", "lon": -77.0267475, "is_reserved": 0, "is_disabled": 0, "name": "20ef8ddae5ee9511e9ea7da0ad739da5"}, {"rental_uris": {"android": "https://dc.lft.to/lastmile_qr_scan", "ios": "https://dc.lft.to/lastmile_qr_scan"}, "lat": 38.944993333333336, "fusion_lon": 0.0, "fusion_lat": 0.0, "type": "electric_scooter", "bike_id": "4bc82de4b98f449916cb5a251970d742", "lon": -77.02845016666667, "is_reserved": 0, "is_disabled": 0, "name": "4bc82de4b98f449916cb5a251970d742"}, {"rental_uris": {"android": "https://dc.lft.to/lastmile_qr_scan", "ios": "https://dc.lft.to/lastmile_qr_scan"}, "lat": 38.92361783333333, "fusion_lon": 0.0, "fusion_lat": 0.0, "type": "electric_scooter", "bike_id": "8e5aa2425650af3f77e30fa4b52f7878", "lon": -77.02055533333333, "is_reserved": 0, "is_disabled": 0, "name": "8e5aa2425650af3f77e30fa4b52f7878"}, {"rental_uris": {"android": "https://dc.lft.to/lastmile_qr_scan", "ios": "https://dc.lft.to/lastmile_qr_scan"}, "lat": 38.902431, "fusion_lon": 0.0, "fusion_lat": 0.0, "type": "electric_scooter", "bike_id": "fccbb937f9bc0e36f5c06f9f38065db0", "lon": -77.03323316666666, "is_reserved": 0, "is_disabled": 0, "name": "fccbb937f9bc0e36f5c06f9f38065db0"}, {"rental_uris": {"android": "https://dc.lft.to/lastmile_qr_scan", "ios": "https://dc.lft.to/lastmile_qr_scan"}, "lat": 38.92239, "fusion_lon": 0.0, "fusion_lat": 0.0, "type": "electric_scooter", "bike_id": "39e8e557bf6e87011a8825c42bc5a598", "lon": -77.03663416666667, "is_reserved": 0, "is_disabled": 0, "name": "39e8e557bf6e87011a8825c42bc5a598"}, {"rental_uris": {"android": "https://dc.lft.to/lastmile_qr_scan", "ios": "https://dc.lft.to/lastmile_qr_scan"}, "lat": 38.89607683333333, "fusion_lon": 0.0, "fusion_lat": 0.0, "type": "electric_scooter", "bike_id": "4727a3d4ca195daedd24c1573e514357", "lon": -77.02248016666667, "is_reserved": 0, "is_disabled": 0, "name": "4727a3d4ca195daedd24c1573e514357"}, {"rental_uris": {"android": "https://dc.lft.to/lastmile_qr_scan", "ios": "https://dc.lft.to/lastmile_qr_scan"}, "lat": 38.89916783333334, "fusion_lon": 0.0, "fusion_lat": 0.0, "type": "electric_scooter", "bike_id": "3b7684d0623d21eb441e267fb16f4c47", "lon": -77.03933466666666, "is_reserved": 0, "is_disabled": 0, "name": "3b7684d0623d21eb441e267fb16f4c47"}, {"rental_uris": {"android": "https://dc.lft.to/lastmile_qr_scan", "ios": "https://dc.lft.to/lastmile_qr_scan"}, "lat": 38.892226, "fusion_lon": 0.0, "fusion_lat": 0.0, "type": "electric_scooter", "bike_id": "2799b9a40f7b147e4a9d4d8307758984", "lon": -77.02535516666667, "is_reserved": 0, "is_disabled": 0, "name": "2799b9a40f7b147e4a9d4d8307758984"}, {"rental_uris": {"android": "https://dc.lft.to/lastmile_qr_scan", "ios": "https://dc.lft.to/lastmile_qr_scan"}, "lat": 38.896252833333335, "fusion_lon": 0.0, "fusion_lat": 0.0, "type": "electric_scooter", "bike_id": "04ec840a820cf58a4df1031a934d99df", "lon": -77.025875, "is_reserved": 0, "is_disabled": 0, "name": "04ec840a820cf58a4df1031a934d99df"}, {"rental_uris": {"android": "https://dc.lft.to/lastmile_qr_scan", "ios": "https://dc.lft.to/lastmile_qr_scan"}, "lat": 38.897117333333334, "fusion_lon": 0.0, "fusion_lat": 0.0, "type": "electric_scooter", "bike_id": "7236376bfb85d5ef035feebe7e2313ee", "lon": -77.03078833333333, "is_reserved": 0, "is_disabled": 0, "name": "7236376bfb85d5ef035feebe7e2313ee"}, {"rental_uris": {"android": "https://dc.lft.to/lastmile_qr_scan", "ios": "https://dc.lft.to/lastmile_qr_scan"}, "lat": 38.88603833333333, "fusion_lon": 0.0, "fusion_lat": 0.0, "type": "electric_scooter", "bike_id": "49a89cbd914a597b661b594166c6d6b1", "lon": -77.00335616666666, "is_reserved": 0, "is_disabled": 0, "name": "49a89cbd914a597b661b594166c6d6b1"}, {"rental_uris": {"android": "https://dc.lft.to/lastmile_qr_scan", "ios": "https://dc.lft.to/lastmile_qr_scan"}, "lat": 38.9163495, "fusion_lon": 0.0, "fusion_lat": 0.0, "type": "electric_scooter", "bike_id": "a230ea1cac6222c2a8fc8a0f08ce97df", "lon": -77.03499383333333, "is_reserved": 0, "is_disabled": 0, "name": "a230ea1cac6222c2a8fc8a0f08ce97df"}, {"rental_uris": {"android": "https://dc.lft.to/lastmile_qr_scan", "ios": "https://dc.lft.to/lastmile_qr_scan"}, "lat": 38.9247285, "fusion_lon": 0.0, "fusion_lat": 0.0, "type": "electric_scooter", "bike_id": "7158115af9eb43f89a137d75024e1308", "lon": -77.02202066666666, "is_reserved": 0, "is_disabled": 0, "name": "7158115af9eb43f89a137d75024e1308"}, {"rental_uris": {"android": "https://dc.lft.to/lastmile_qr_scan", "ios": "https://dc.lft.to/lastmile_qr_scan"}, "lat": 38.943229333333335, "fusion_lon": 0.0, "fusion_lat": 0.0, "type": "electric_scooter", "bike_id": "8eebd4b1a8ca0003970179857ea1c2bb", "lon": -77.01309, "is_reserved": 0, "is_disabled": 0, "name": "8eebd4b1a8ca0003970179857ea1c2bb"}, {"rental_uris": {"android": "https://dc.lft.to/lastmile_qr_scan", "ios": "https://dc.lft.to/lastmile_qr_scan"}, "lat": 38.89971833333333, "fusion_lon": 0.0, "fusion_lat": 0.0, "type": "electric_scooter", "bike_id": "71f2bc001e3d107ab785f4f909a44152", "lon": -77.0219825, "is_reserved": 0, "is_disabled": 0, "name": "71f2bc001e3d107ab785f4f909a44152"}, {"rental_uris": {"android": "https://dc.lft.to/lastmile_qr_scan", "ios": "https://dc.lft.to/lastmile_qr_scan"}, "lat": 38.92675, "fusion_lon": 0.0, "fusion_lat": 0.0, "type": "electric_scooter", "bike_id": "58c58ce7010b29b446515172b5149be3", "lon": -77.04053066666667, "is_reserved": 0, "is_disabled": 0, "name": "58c58ce7010b29b446515172b5149be3"}, {"rental_uris": {"android": "https://dc.lft.to/lastmile_qr_scan", "ios": "https://dc.lft.to/lastmile_qr_scan"}, "lat": 38.92748383333333, "fusion_lon": 0.0, "fusion_lat": 0.0, "type": "electric_scooter", "bike_id": "07ecc366b89aa773bca2db03cbd7e937", "lon": -77.0253505, "is_reserved": 0, "is_disabled": 0, "name": "07ecc366b89aa773bca2db03cbd7e937"}, {"rental_uris": {"android": "https://dc.lft.to/lastmile_qr_scan", "ios": "https://dc.lft.to/lastmile_qr_scan"}, "lat": 38.9306365, "fusion_lon": 0.0, "fusion_lat": 0.0, "type": "electric_scooter", "bike_id": "2364ce4777d6805b5dbb71ec55629621", "lon": -77.03939516666667, "is_reserved": 0, "is_disabled": 0, "name": "2364ce4777d6805b5dbb71ec55629621"}, {"rental_uris": {"android": "https://dc.lft.to/lastmile_qr_scan", "ios": "https://dc.lft.to/lastmile_qr_scan"}, "lat": 38.89274616666667, "fusion_lon": 0.0, "fusion_lat": 0.0, "type": "electric_scooter", "bike_id": "2f2ffe4ab2ec4bb4e99f5228906b68e6", "lon": -76.98366266666666, "is_reserved": 0, "is_disabled": 0, "name": "2f2ffe4ab2ec4bb4e99f5228906b68e6"}, {"rental_uris": {"android": "https://dc.lft.to/lastmile_qr_scan", "ios": "https://dc.lft.to/lastmile_qr_scan"}, "lat": 38.93969233333333, "fusion_lon": 0.0, "fusion_lat": 0.0, "type": "electric_scooter", "bike_id": "7bc3ec13f1e6ec362542991568e89ca8", "lon": -77.0294235, "is_reserved": 0, "is_disabled": 0, "name": "7bc3ec13f1e6ec362542991568e89ca8"}, {"rental_uris": {"android": "https://dc.lft.to/lastmile_qr_scan", "ios": "https://dc.lft.to/lastmile_qr_scan"}, "lat": 38.90255583333333, "fusion_lon": 0.0, "fusion_lat": 0.0, "type": "electric_scooter", "bike_id": "8d8a379896c5aa677d56c1a3c59db993", "lon": -77.0351635, "is_reserved": 0, "is_disabled": 0, "name": "8d8a379896c5aa677d56c1a3c59db993"}, {"rental_uris": {"android": "https://dc.lft.to/lastmile_qr_scan", "ios": "https://dc.lft.to/lastmile_qr_scan"}, "lat": 38.908547166666665, "fusion_lon": 0.0, "fusion_lat": 0.0, "type": "electric_scooter", "bike_id": "73ae39f699ba8dca3929e4f86397fb89", "lon": -77.04580183333333, "is_reserved": 0, "is_disabled": 0, "name": "73ae39f699ba8dca3929e4f86397fb89"}, {"rental_uris": {"android": "https://dc.lft.to/lastmile_qr_scan", "ios": "https://dc.lft.to/lastmile_qr_scan"}, "lat": 38.9177065, "fusion_lon": 0.0, "fusion_lat": 0.0, "type": "electric_scooter", "bike_id": "9d75399ec0ec84715a2992701cd87934", "lon": -77.02295133333334, "is_reserved": 0, "is_disabled": 0, "name": "9d75399ec0ec84715a2992701cd87934"}, {"rental_uris": {"android": "https://dc.lft.to/lastmile_qr_scan", "ios": "https://dc.lft.to/lastmile_qr_scan"}, "lat": 38.8993275, "fusion_lon": 0.0, "fusion_lat": 0.0, "type": "electric_scooter", "bike_id": "b0d3819b6be25d9bcb3ba5cf7ba9db3a", "lon": -77.04999566666666, "is_reserved": 0, "is_disabled": 0, "name": "b0d3819b6be25d9bcb3ba5cf7ba9db3a"}, {"rental_uris": {"android": "https://dc.lft.to/lastmile_qr_scan", "ios": "https://dc.lft.to/lastmile_qr_scan"}, "lat": 38.898717500000004, "fusion_lon": 0.0, "fusion_lat": 0.0, "type": "electric_scooter", "bike_id": "c6d7ca0f96be313d1bb2ab8b88dacf1f", "lon": -76.94661816666667, "is_reserved": 0, "is_disabled": 0, "name": "c6d7ca0f96be313d1bb2ab8b88dacf1f"}, {"rental_uris": {"android": "https://dc.lft.to/lastmile_qr_scan", "ios": "https://dc.lft.to/lastmile_qr_scan"}, "lat": 38.906740166666665, "fusion_lon": 0.0, "fusion_lat": 0.0, "type": "electric_scooter", "bike_id": "577d5b5b406f168f4d2eea7289fbfd50", "lon": -77.07147316666666, "is_reserved": 0, "is_disabled": 0, "name": "577d5b5b406f168f4d2eea7289fbfd50"}, {"rental_uris": {"android": "https://dc.lft.to/lastmile_qr_scan", "ios": "https://dc.lft.to/lastmile_qr_scan"}, "lat": 38.8873745, "fusion_lon": 0.0, "fusion_lat": 0.0, "type": "electric_scooter", "bike_id": "b81f58eea52c9cef48eccc7b36e021bb", "lon": -77.02575983333334, "is_reserved": 0, "is_disabled": 0, "name": "b81f58eea52c9cef48eccc7b36e021bb"}, {"rental_uris": {"android": "https://dc.lft.to/lastmile_qr_scan", "ios": "https://dc.lft.to/lastmile_qr_scan"}, "lat": 38.931089, "fusion_lon": 0.0, "fusion_lat": 0.0, "type": "electric_scooter", "bike_id": "ebe8322ae4d24b7f4264c7ac93943f55", "lon": -77.09121133333333, "is_reserved": 0, "is_disabled": 0, "name": "ebe8322ae4d24b7f4264c7ac93943f55"}, {"rental_uris": {"android": "https://dc.lft.to/lastmile_qr_scan", "ios": "https://dc.lft.to/lastmile_qr_scan"}, "lat": 38.88507116666667, "fusion_lon": 0.0, "fusion_lat": 0.0, "type": "electric_scooter", "bike_id": "1a50bb3a0d82fd92be29fde1819db937", "lon": -77.00566516666666, "is_reserved": 0, "is_disabled": 0, "name": "1a50bb3a0d82fd92be29fde1819db937"}, {"rental_uris": {"android": "https://dc.lft.to/lastmile_qr_scan", "ios": "https://dc.lft.to/lastmile_qr_scan"}, "lat": 38.88393966666667, "fusion_lon": 0.0, "fusion_lat": 0.0, "type": "electric_scooter", "bike_id": "d4aa1e7610ff7d9e73661a516e4ca797", "lon": -76.99505616666667, "is_reserved": 0, "is_disabled": 0, "name": "d4aa1e7610ff7d9e73661a516e4ca797"}, {"rental_uris": {"android": "https://dc.lft.to/lastmile_qr_scan", "ios": "https://dc.lft.to/lastmile_qr_scan"}, "lat": 38.9032725, "fusion_lon": 0.0, "fusion_lat": 0.0, "type": "electric_scooter", "bike_id": "0230bd9f00d9a6f678565303484710e1", "lon": -77.03314766666666, "is_reserved": 0, "is_disabled": 0, "name": "0230bd9f00d9a6f678565303484710e1"}, {"rental_uris": {"android": "https://dc.lft.to/lastmile_qr_scan", "ios": "https://dc.lft.to/lastmile_qr_scan"}, "lat": 38.924683, "fusion_lon": 0.0, "fusion_lat": 0.0, "type": "electric_scooter", "bike_id": "24f988fc45ed1d791ee140e7c74d2449", "lon": -77.05234933333334, "is_reserved": 0, "is_disabled": 0, "name": "24f988fc45ed1d791ee140e7c74d2449"}, {"rental_uris": {"android": "https://dc.lft.to/lastmile_qr_scan", "ios": "https://dc.lft.to/lastmile_qr_scan"}, "lat": 38.91662316666667, "fusion_lon": 0.0, "fusion_lat": 0.0, "type": "electric_scooter", "bike_id": "0484dc2d602e0357af5533049d7f9e78", "lon": -77.02203, "is_reserved": 0, "is_disabled": 0, "name": "0484dc2d602e0357af5533049d7f9e78"}, {"rental_uris": {"android": "https://dc.lft.to/lastmile_qr_scan", "ios": "https://dc.lft.to/lastmile_qr_scan"}, "lat": 38.929376833333336, "fusion_lon": 0.0, "fusion_lat": 0.0, "type": "electric_scooter", "bike_id": "55ebfbac084e77bdb98e51a68b596a4c", "lon": -77.0191, "is_reserved": 0, "is_disabled": 0, "name": "55ebfbac084e77bdb98e51a68b596a4c"}, {"rental_uris": {"android": "https://dc.lft.to/lastmile_qr_scan", "ios": "https://dc.lft.to/lastmile_qr_scan"}, "lat": 38.90470833333333, "fusion_lon": 0.0, "fusion_lat": 0.0, "type": "electric_scooter", "bike_id": "6af18f576750d2dc5401edc75e17f6d5", "lon": -77.021384, "is_reserved": 0, "is_disabled": 0, "name": "6af18f576750d2dc5401edc75e17f6d5"}, {"rental_uris": {"android": "https://dc.lft.to/lastmile_qr_scan", "ios": "https://dc.lft.to/lastmile_qr_scan"}, "lat": 38.92070416666667, "fusion_lon": 0.0, "fusion_lat": 0.0, "type": "electric_scooter", "bike_id": "151af9bcd51a0363cc77e1a1f0a29e08", "lon": -77.02190633333333, "is_reserved": 0, "is_disabled": 0, "name": "151af9bcd51a0363cc77e1a1f0a29e08"}, {"rental_uris": {"android": "https://dc.lft.to/lastmile_qr_scan", "ios": "https://dc.lft.to/lastmile_qr_scan"}, "lat": 38.89914683333333, "fusion_lon": 0.0, "fusion_lat": 0.0, "type": "electric_scooter", "bike_id": "bcb7557a61053556c9e16a749611d6ab", "lon": -77.03985183333333, "is_reserved": 0, "is_disabled": 0, "name": "bcb7557a61053556c9e16a749611d6ab"}, {"rental_uris": {"android": "https://dc.lft.to/lastmile_qr_scan", "ios": "https://dc.lft.to/lastmile_qr_scan"}, "lat": 38.90815766666667, "fusion_lon": 0.0, "fusion_lat": 0.0, "type": "electric_scooter", "bike_id": "191b471c5663ecc239331824194d21ba", "lon": -77.043306, "is_reserved": 0, "is_disabled": 0, "name": "191b471c5663ecc239331824194d21ba"}, {"rental_uris": {"android": "https://dc.lft.to/lastmile_qr_scan", "ios": "https://dc.lft.to/lastmile_qr_scan"}, "lat": 38.921270166666666, "fusion_lon": 0.0, "fusion_lat": 0.0, "type": "electric_scooter", "bike_id": "2b044cf95e76135ef249207eb6b690cc", "lon": -77.04112816666667, "is_reserved": 0, "is_disabled": 0, "name": "2b044cf95e76135ef249207eb6b690cc"}, {"rental_uris": {"android": "https://dc.lft.to/lastmile_qr_scan", "ios": "https://dc.lft.to/lastmile_qr_scan"}, "lat": 38.907954333333336, "fusion_lon": 0.0, "fusion_lat": 0.0, "type": "electric_scooter", "bike_id": "5c0a908434c90fc4d802ee87affbe62b", "lon": -77.00010333333333, "is_reserved": 0, "is_disabled": 0, "name": "5c0a908434c90fc4d802ee87affbe62b"}, {"rental_uris": {"android": "https://dc.lft.to/lastmile_qr_scan", "ios": "https://dc.lft.to/lastmile_qr_scan"}, "lat": 38.897175, "fusion_lon": 0.0, "fusion_lat": 0.0, "type": "electric_scooter", "bike_id": "c7f195e1c4dba1fb478a27fa5186b136", "lon": -77.00798366666666, "is_reserved": 0, "is_disabled": 0, "name": "c7f195e1c4dba1fb478a27fa5186b136"}, {"rental_uris": {"android": "https://dc.lft.to/lastmile_qr_scan", "ios": "https://dc.lft.to/lastmile_qr_scan"}, "lat": 38.916005, "fusion_lon": 0.0, "fusion_lat": 0.0, "type": "electric_scooter", "bike_id": "2ab7274ed9a775d1fd19d6c769a94e6b", "lon": -77.01214266666666, "is_reserved": 0, "is_disabled": 0, "name": "2ab7274ed9a775d1fd19d6c769a94e6b"}, {"rental_uris": {"android": "https://dc.lft.to/lastmile_qr_scan", "ios": "https://dc.lft.to/lastmile_qr_scan"}, "lat": 38.9279245, "fusion_lon": 0.0, "fusion_lat": 0.0, "type": "electric_scooter", "bike_id": "260fe13957685ff512083cb41464d996", "lon": -77.02126866666667, "is_reserved": 0, "is_disabled": 0, "name": "260fe13957685ff512083cb41464d996"}, {"rental_uris": {"android": "https://dc.lft.to/lastmile_qr_scan", "ios": "https://dc.lft.to/lastmile_qr_scan"}, "lat": 38.93424666666667, "fusion_lon": 0.0, "fusion_lat": 0.0, "type": "electric_scooter", "bike_id": "79fba12b24efd5bd1739c85577edb2de", "lon": -77.04001633333333, "is_reserved": 0, "is_disabled": 0, "name": "79fba12b24efd5bd1739c85577edb2de"}, {"rental_uris": {"android": "https://dc.lft.to/lastmile_qr_scan", "ios": "https://dc.lft.to/lastmile_qr_scan"}, "lat": 38.906341, "fusion_lon": 0.0, "fusion_lat": 0.0, "type": "electric_scooter", "bike_id": "f0ef47d758b25ee1f679648e860e642b", "lon": -77.00586716666666, "is_reserved": 0, "is_disabled": 0, "name": "f0ef47d758b25ee1f679648e860e642b"}, {"rental_uris": {"android": "https://dc.lft.to/lastmile_qr_scan", "ios": "https://dc.lft.to/lastmile_qr_scan"}, "lat": 38.90468416666667, "fusion_lon": 0.0, "fusion_lat": 0.0, "type": "electric_scooter", "bike_id": "8a0e53e24260cacf2b2e3c5a16cf99ed", "lon": -77.02947683333333, "is_reserved": 0, "is_disabled": 0, "name": "8a0e53e24260cacf2b2e3c5a16cf99ed"}, {"rental_uris": {"android": "https://dc.lft.to/lastmile_qr_scan", "ios": "https://dc.lft.to/lastmile_qr_scan"}, "lat": 38.87558583333333, "fusion_lon": 0.0, "fusion_lat": 0.0, "type": "electric_scooter", "bike_id": "8bcac8d7c7c0ac1b333b19cc730a58ce", "lon": -77.00603233333334, "is_reserved": 0, "is_disabled": 0, "name": "8bcac8d7c7c0ac1b333b19cc730a58ce"}, {"rental_uris": {"android": "https://dc.lft.to/lastmile_qr_scan", "ios": "https://dc.lft.to/lastmile_qr_scan"}, "lat": 38.89288716666667, "fusion_lon": 0.0, "fusion_lat": 0.0, "type": "electric_bike", "bike_id": "4e171784a739abeb7c5cc42cba028b98", "lon": -76.97614383333334, "is_reserved": 0, "is_disabled": 0, "name": "4e171784a739abeb7c5cc42cba028b98"}, {"rental_uris": {"android": "https://dc.lft.to/lastmile_qr_scan", "ios": "https://dc.lft.to/lastmile_qr_scan"}, "lat": 38.88136316666667, "fusion_lon": 0.0, "fusion_lat": 0.0, "type": "electric_scooter", "bike_id": "c8bb94db20749b3c25e8acb161f4278e", "lon": -76.99627516666666, "is_reserved": 0, "is_disabled": 0, "name": "c8bb94db20749b3c25e8acb161f4278e"}, {"rental_uris": {"android": "https://dc.lft.to/lastmile_qr_scan", "ios": "https://dc.lft.to/lastmile_qr_scan"}, "lat": 38.92227366666667, "fusion_lon": 0.0, "fusion_lat": 0.0, "type": "electric_scooter", "bike_id": "ff710bc882c5eb4d34ac20bae05e8c37", "lon": -77.04303683333333, "is_reserved": 0, "is_disabled": 0, "name": "ff710bc882c5eb4d34ac20bae05e8c37"}, {"rental_uris": {"android": "https://dc.lft.to/lastmile_qr_scan", "ios": "https://dc.lft.to/lastmile_qr_scan"}, "lat": 38.910629166666666, "fusion_lon": 0.0, "fusion_lat": 0.0, "type": "electric_scooter", "bike_id": "37bd31a63d10021a674167ef969b2fcc", "lon": -77.030923, "is_reserved": 0, "is_disabled": 0, "name": "37bd31a63d10021a674167ef969b2fcc"}, {"rental_uris": {"android": "https://dc.lft.to/lastmile_qr_scan", "ios": "https://dc.lft.to/lastmile_qr_scan"}, "lat": 38.99831616666667, "fusion_lon": 0.0, "fusion_lat": 0.0, "type": "electric_bike", "bike_id": "566fcd6edaf8708fbef850bd451efcdb", "lon": -76.99782016666667, "is_reserved": 0, "is_disabled": 0, "name": "566fcd6edaf8708fbef850bd451efcdb"}, {"rental_uris": {"android": "https://dc.lft.to/lastmile_qr_scan", "ios": "https://dc.lft.to/lastmile_qr_scan"}, "lat": 38.92783766666667, "fusion_lon": 0.0, "fusion_lat": 0.0, "type": "electric_scooter", "bike_id": "9e10fcfb838dace81bc5bbe5d38ef561", "lon": -77.02110416666666, "is_reserved": 0, "is_disabled": 0, "name": "9e10fcfb838dace81bc5bbe5d38ef561"}, {"rental_uris": {"android": "https://dc.lft.to/lastmile_qr_scan", "ios": "https://dc.lft.to/lastmile_qr_scan"}, "lat": 38.8920635, "fusion_lon": 0.0, "fusion_lat": 0.0, "type": "electric_scooter", "bike_id": "12b99e48e8651ab1d9035484d7f80248", "lon": -76.96101166666666, "is_reserved": 0, "is_disabled": 0, "name": "12b99e48e8651ab1d9035484d7f80248"}, {"rental_uris": {"android": "https://dc.lft.to/lastmile_qr_scan", "ios": "https://dc.lft.to/lastmile_qr_scan"}, "lat": 38.86375183333333, "fusion_lon": 0.0, "fusion_lat": 0.0, "type": "electric_scooter", "bike_id": "760266a986a6ea52286886461be35bb2", "lon": -76.9905685, "is_reserved": 0, "is_disabled": 0, "name": "760266a986a6ea52286886461be35bb2"}, {"rental_uris": {"android": "https://dc.lft.to/lastmile_qr_scan", "ios": "https://dc.lft.to/lastmile_qr_scan"}, "lat": 38.90652733333334, "fusion_lon": 0.0, "fusion_lat": 0.0, "type": "electric_scooter", "bike_id": "c0a1143324999c09d481b06e3041023e", "lon": -76.98371516666667, "is_reserved": 0, "is_disabled": 0, "name": "c0a1143324999c09d481b06e3041023e"}, {"rental_uris": {"android": "https://dc.lft.to/lastmile_qr_scan", "ios": "https://dc.lft.to/lastmile_qr_scan"}, "lat": 38.9180765, "fusion_lon": 0.0, "fusion_lat": 0.0, "type": "electric_scooter", "bike_id": "31a1702812213a6b4ac3429d9d7451d9", "lon": -77.03296433333334, "is_reserved": 0, "is_disabled": 0, "name": "31a1702812213a6b4ac3429d9d7451d9"},