{"data": {"bikes": [{"type": "electric_scooter", "fusion_lon": 0.0, "bike_id": "fb7a7ef6c272e071e5ddaa4829513bb2", "is_disabled": 0, "lat": 38.925089, "rental_uris": {"ios": "https://dc.lft.to/lastmile_qr_scan", "android": "https://dc.lft.to/lastmile_qr_scan"}, "is_reserved": 0, "lon": -77.02405766666666, "fusion_lat": 0.0, "name": "fb7a7ef6c272e071e5ddaa4829513bb2"}, {"type": "electric_bike", "fusion_lon": 0.0, "bike_id": "32c5064aab2674f679659185342440d9", "is_disabled": 0, "lat": 38.94635933333333, "rental_uris": {"ios": "https://dc.lft.to/lastmile_qr_scan", "android": "https://dc.lft.to/lastmile_qr_scan"}, "is_reserved": 0, "lon": -76.9931375, "fusion_lat": 0.0, "name": "32c5064aab2674f679659185342440d9"}, {"type": "electric_scooter", "fusion_lon": 0.0, "bike_id": "72ed78e5f958653aa72f3049ac5071d2", "is_disabled": 0, "lat": 38.92147466666667, "rental_uris": {"ios": "https://dc.lft.to/lastmile_qr_scan", "android": "https://dc.lft.to/lastmile_qr_scan"}, "is_reserved": 0, "lon": -77.03869533333334, "fusion_lat": 0.0, "name": "72ed78e5f958653aa72f3049ac5071d2"}, {"type": "electric_scooter", "fusion_lon": 0.0, "bike_id": "59b05fb3be01b7a894bc96196b13a90e", "is_disabled": 0, "lat": 38.874706, "rental_uris": {"ios": "https://dc.lft.to/lastmile_qr_scan", "android": "https://dc.lft.to/lastmile_qr_scan"}, "is_reserved": 0, "lon": -77.00555316666667, "fusion_lat": 0.0, "name": "59b05fb3be01b7a894bc96196b13a90e"}, {"type": "electric_scooter", "fusion_lon": 0.0, "bike_id": "3f230dff1f3301fa60991b894cf7f690", "is_disabled": 0, "lat": 38.90734783333333, "rental_uris": {"ios": "https://dc.lft.to/lastmile_qr_scan", "android": "https://dc.lft.to/lastmile_qr_scan"}, "is_reserved": 0, "lon": -76.979771, "fusion_lat": 0.0, "name": "3f230dff1f3301fa60991b894cf7f690"}, {"type": "electric_scooter", "fusion_lon": 0.0, "bike_id": "cb3161df94fb15a8797e089fb2c523cb", "is_disabled": 0, "lat": 38.8986705, "rental_uris": {"ios": "https://dc.lft.to/lastmile_qr_scan", "android": "https://dc.lft.to/lastmile_qr_scan"}, "is_reserved": 0, "lon": -77.0258145, "fusion_lat": 0.0, "name": "cb3161df94fb15a8797e089fb2c523cb"}, {"type": "electric_scooter", "fusion_lon": 0.0, "bike_id": "b273b4370c6d51149f52077244231d29", "is_disabled": 0, "lat": 38.92997666666667, "rental_uris": {"ios": "https://dc.lft.to/lastmile_qr_scan", "android": "https://dc.lft.to/lastmile_qr_scan"}, "is_reserved": 0, "lon": -77.02351666666667, "fusion_lat": 0.0, "name": "b273b4370c6d51149f52077244231d29"}, {"type": "electric_bike", "fusion_lon": 0.0, "bike_id": "84afa34862c28ddc3233f17970e8f348", "is_disabled": 0, "lat": 38.919966, "rental_uris": {"ios": "https://dc.lft.to/lastmile_qr_scan", "android": "https://dc.lft.to/lastmile_qr_scan"}, "is_reserved": 0, "lon": -76.95821583333333, "fusion_lat": 0.0, "name": "84afa34862c28ddc3233f17970e8f348"}, {"type": "electric_scooter", "fusion_lon": 0.0, "bike_id": "4e9a199875c3c6867f49906914a3cc52", "is_disabled": 0, "lat": 38.904093333333336, "rental_uris": {"ios": "https://dc.lft.to/lastmile_qr_scan", "android": "https://dc.lft.to/lastmile_qr_scan"}, "is_reserved": 0, "lon": -76.97332683333333, "fusion_lat": 0.0, "name": "4e9a199875c3c6867f49906914a3cc52"}, {"type": "electric_scooter", "fusion_lon": 0.0, "bike_id": "ed5465b80f445d253cf2068f7599077e", "is_disabled": 0, "lat": 38.9330695, "rental_uris": {"ios": "https://dc.lft.to/lastmile_qr_scan", "android": "https://dc.lft.to/lastmile_qr_scan"}, "is_reserved": 0, "lon": -77.0215545, "fusion_lat": 0.0, "name": "ed5465b80f445d253cf2068f7599077e"}, {"type": "electric_scooter", "fusion_lon": 0.0, "bike_id": "9c090bdb8fd5fd96fd5e52aa9f9e78a7", "is_disabled": 0, "lat": 38.92709933333333, "rental_uris": {"ios": "https://dc.lft.to/lastmile_qr_scan", "android": "https://dc.lft.to/lastmile_qr_scan"}, "is_reserved": 0, "lon": -77.020895, "fusion_lat": 0.0, "name": "9c090bdb8fd5fd96fd5e52aa9f9e78a7"}, {"type": "electric_scooter", "fusion_lon": 0.0, "bike_id": "3e2ba158e015734107f7e151cc54853a", "is_disabled": 0, "lat": 38.90238933333333, "rental_uris": {"ios": "https://dc.lft.to/lastmile_qr_scan", "android": "https://dc.lft.to/lastmile_qr_scan"}, "is_reserved": 0, "lon": -77.03590766666666, "fusion_lat": 0.0, "name": "3e2ba158e015734107f7e151cc54853a"}, {"type": "electric_scooter", "fusion_lon": 0.0, "bike_id": "0e6d662100e3ae7884bd79e1e9f9f1c5", "is_disabled": 0, "lat": 38.920835333333336, "rental_uris": {"ios": "https://dc.lft.to/lastmile_qr_scan", "android": "https://dc.lft.to/lastmile_qr_scan"}, "is_reserved": 0, "lon": -77.025165, "fusion_lat": 0.0, "name": "0e6d662100e3ae7884bd79e1e9f9f1c5"}, {"type": "electric_scooter", "fusion_lon": 0.0, "bike_id": "a37e40606ad15d452886b7921eb19d78", "is_disabled": 0, "lat": 38.892297666666664, "rental_uris": {"ios": "https://dc.lft.to/lastmile_qr_scan", "android": "https://dc.lft.to/lastmile_qr_scan"}, "is_reserved": 0, "lon": -77.050007, "fusion_lat": 0.0, "name": "a37e40606ad15d452886b7921eb19d78"}, {"type": "electric_scooter", "fusion_lon": 0.0, "bike_id": "2565cae8cdd793299b2e573ad49f9c5d", "is_disabled": 0, "lat": 38.91819233333333, "rental_uris": {"ios": "https://dc.lft.to/lastmile_qr_scan", "android": "https://dc.lft.to/lastmile_qr_scan"}, "is_reserved": 0, "lon": -77.02586933333333, "fusion_lat": 0.0, "name": "2565cae8cdd793299b2e573ad49f9c5d"}, {"type": "electric_scooter", "fusion_lon": 0.0, "bike_id": "946b8748032e382bdffc47786452b2fb", "is_disabled": 0, "lat": 38.88411633333333, "rental_uris": {"ios": "https://dc.lft.to/lastmile_qr_scan", "android": "https://dc.lft.to/lastmile_qr_scan"}, "is_reserved": 0, "lon": -77.00452733333333, "fusion_lat": 0.0, "name": "946b8748032e382bdffc47786452b2fb"}, {"type": "electric_scooter", "fusion_lon": 0.0, "bike_id": "b23cfdfa2175360ac224a524e7b9f6da", "is_disabled": 0, "lat": 38.917553833333336, "rental_uris": {"ios": "https://dc.lft.to/lastmile_qr_scan", "android": "https://dc.lft.to/lastmile_qr_scan"}, "is_reserved": 0, "lon": -77.04052466666667, "fusion_lat": 0.0, "name": "b23cfdfa2175360ac224a524e7b9f6da"}, {"type": "electric_scooter", "fusion_lon": 0.0, "bike_id": "25045125a77a455ead6434fd6c4163d8", "is_disabled": 0, "lat": 38.91483616666667, "rental_uris": {"ios": "https://dc.lft.to/lastmile_qr_scan", "android": "https://dc.lft.to/lastmile_qr_scan"}, "is_reserved": 0, "lon": -77.02190966666667, "fusion_lat": 0.0, "name": "25045125a77a455ead6434fd6c4163d8"}, {"type": "electric_scooter", "fusion_lon": 0.0, "bike_id": "3f3b367c2ce618e52e9f35be25ca4ce5", "is_disabled": 0, "lat": 38.90731266666667, "rental_uris": {"ios": "https://dc.lft.to/lastmile_qr_scan", "android": "https://dc.lft.to/lastmile_qr_scan"}, "is_reserved": 0, "lon": -77.04235966666667, "fusion_lat": 0.0, "name": "3f3b367c2ce618e52e9f35be25ca4ce5"}, {"type": "electric_scooter", "fusion_lon": 0.0, "bike_id": "c50a8649516772bb3519d32148401041", "is_disabled": 0, "lat": 38.904097666666665, "rental_uris": {"ios": "https://dc.lft.to/lastmile_qr_scan", "android": "https://dc.lft.to/lastmile_qr_scan"}, "is_reserved": 0, "lon": -76.97327816666666, "fusion_lat": 0.0, "name": "c50a8649516772bb3519d32148401041"}, {"type": "electric_scooter", "fusion_lon": 0.0, "bike_id": "171513217584b2401c389b43aa338876", "is_disabled": 0, "lat": 38.9273725, "rental_uris": {"ios": "https://dc.lft.to/lastmile_qr_scan", "android": "https://dc.lft.to/lastmile_qr_scan"}, "is_reserved": 0, "lon": -77.03561583333334, "fusion_lat": 0.0, "name": "171513217584b2401c389b43aa338876"}, {"type": "electric_scooter", "fusion_lon": 0.0, "bike_id": "52574546822c53f0f78a28de4d733fb9", "is_disabled": 0, "lat": 38.91785083333333, "rental_uris": {"ios": "https://dc.lft.to/lastmile_qr_scan", "android": "https://dc.lft.to/lastmile_qr_scan"}, "is_reserved": 0, "lon": -77.04100633333333, "fusion_lat": 0.0, "name": "52574546822c53f0f78a28de4d733fb9"}, {"type": "electric_scooter", "fusion_lon": 0.0, "bike_id": "fa8a6a59be4c42024fa2b1654f0a960d", "is_disabled": 0, "lat": 38.883445333333334, "rental_uris": {"ios": "https://dc.lft.to/lastmile_qr_scan", "android": "https://dc.lft.to/lastmile_qr_scan"}, "is_reserved": 0, "lon": -76.9350145, "fusion_lat": 0.0, "name": "fa8a6a59be4c42024fa2b1654f0a960d"}, {"type": "electric_scooter", "fusion_lon": 0.0, "bike_id": "93ee3dfa97d28fd0df12b3673aa1fd3b", "is_disabled": 0, "lat": 38.91893066666667, "rental_uris": {"ios": "https://dc.lft.to/lastmile_qr_scan", "android": "https://dc.lft.to/lastmile_qr_scan"}, "is_reserved": 0, "lon": -77.03818433333333, "fusion_lat": 0.0, "name": "93ee3dfa97d28fd0df12b3673aa1fd3b"}, {"type": "electric_scooter", "fusion_lon": 0.0, "bike_id": "a93aec907facd37886c89487a04d26af", "is_disabled": 0, "lat": 38.91905233333333, "rental_uris": {"ios": "https://dc.lft.to/lastmile_qr_scan", "android": "https://dc.lft.to/lastmile_qr_scan"}, "is_reserved": 0, "lon": -77.02049316666667, "fusion_lat": 0.0, "name": "a93aec907facd37886c89487a04d26af"}, {"type": "electric_scooter", "fusion_lon": 0.0, "bike_id": "09845c5428835b01a8064e0fef1bec3a", "is_disabled": 0, "lat": 38.941934333333336, "rental_uris": {"ios": "https://dc.lft.to/lastmile_qr_scan", "android": "https://dc.lft.to/lastmile_qr_scan"}, "is_reserved": 0, "lon": -77.0384445, "fusion_lat": 0.0, "name": "09845c5428835b01a8064e0fef1bec3a"}, {"type": "electric_scooter", "fusion_lon": 0.0, "bike_id": "6c9a2bd622f5fa615845f1bc202612a3", "is_disabled": 0, "lat": 38.90688266666667, "rental_uris": {"ios": "https://dc.lft.to/lastmile_qr_scan", "android": "https://dc.lft.to/lastmile_qr_scan"}, "is_reserved": 0, "lon": -76.9849595, "fusion_lat": 0.0, "name": "6c9a2bd622f5fa615845f1bc202612a3"}, {"type": "electric_scooter", "fusion_lon": 0.0, "bike_id": "07ac68d13f0c6bdd3f3abf4bb4c68eb4", "is_disabled": 0, "lat": 38.918903666666665, "rental_uris": {"ios": "https://dc.lft.to/lastmile_qr_scan", "android": "https://dc.lft.to/lastmile_qr_scan"}, "is_reserved": 0, "lon": -77.03496866666667, "fusion_lat": 0.0, "name": "07ac68d13f0c6bdd3f3abf4bb4c68eb4"}, {"type": "electric_scooter", "fusion_lon": 0.0, "bike_id": "b36f7668197d82f6a47aa3ea8d4cb5af", "is_disabled": 0, "lat": 38.911886, "rental_uris": {"ios": "https://dc.lft.to/lastmile_qr_scan", "android": "https://dc.lft.to/lastmile_qr_scan"}, "is_reserved": 0, "lon": -77.03808633333334, "fusion_lat": 0.0, "name": "b36f7668197d82f6a47aa3ea8d4cb5af"}, {"type": "electric_scooter", "fusion_lon": 0.0, "bike_id": "747d3939b30182bd95d8b85e0779b307", "is_disabled": 0, "lat": 38.8872955, "rental_uris": {"ios": "https://dc.lft.to/lastmile_qr_scan", "android": "https://dc.lft.to/lastmile_qr_scan"}, "is_reserved": 0, "lon": -76.98357166666666, "fusion_lat": 0.0, "name": "747d3939b30182bd95d8b85e0779b307"}, {"type": "electric_scooter", "fusion_lon": 0.0, "bike_id": "41b1b5e811b3a299957dce3dfcdb4c11", "is_disabled": 0, "lat": 38.909907, "rental_uris": {"ios": "https://dc.lft.to/lastmile_qr_scan", "android": "https://dc.lft.to/lastmile_qr_scan"}, "is_reserved": 0, "lon": -77.00886466666667, "fusion_lat": 0.0, "name": "41b1b5e811b3a299957dce3dfcdb4c11"}, {"type": "electric_scooter", "fusion_lon": 0.0, "bike_id": "c4bbae677d20cfbc8e04320eebd1b6c2", "is_disabled": 0, "lat": 38.887367833333336, "rental_uris": {"ios": "https://dc.lft.to/lastmile_qr_scan", "android": "https://dc.lft.to/lastmile_qr_scan"}, "is_reserved": 0, "lon": -77.02386433333334, "fusion_lat": 0.0, "name": "c4bbae677d20cfbc8e04320eebd1b6c2"}, {"type": "electric_scooter", "fusion_lon": 0.0, "bike_id": "f4c4321d5e8a419bd7af48247d9a9e94", "is_disabled": 0, "lat": 38.9064435, "rental_uris": {"ios": "https://dc.lft.to/lastmile_qr_scan", "android": "https://dc.lft.to/lastmile_qr_scan"}, "is_reserved": 0, "lon": -77.0113965, "fusion_lat": 0.0, "name": "f4c4321d5e8a419bd7af48247d9a9e94"}, {"type": "electric_scooter", "fusion_lon": 0.0, "bike_id": "c3ccb01699aa37641458ea147ef542b2", "is_disabled": 0, "lat": 38.93222183333334, "rental_uris": {"ios": "https://dc.lft.to/lastmile_qr_scan", "android": "https://dc.lft.to/lastmile_qr_scan"}, "is_reserved": 0, "lon": -77.02378966666667, "fusion_lat": 0.0, "name": "c3ccb01699aa37641458ea147ef542b2"}, {"type": "electric_bike", "fusion_lon": 0.0, "bike_id": "8db658d6092b33ffae387d0ad1485097", "is_disabled": 0, "lat": 38.8830315, "rental_uris": {"ios": "https://dc.lft.to/lastmile_qr_scan", "android": "https://dc.lft.to/lastmile_qr_scan"}, "is_reserved": 0, "lon": -76.9497585, "fusion_lat": 0.0, "name": "8db658d6092b33ffae387d0ad1485097"}, {"type": "electric_scooter", "fusion_lon": 0.0, "bike_id": "f7392cf248e08b4425ec2f6384f6a682", "is_disabled": 0, "lat": 38.9366635, "rental_uris": {"ios": "https://dc.lft.to/lastmile_qr_scan", "android": "https://dc.lft.to/lastmile_qr_scan"}, "is_reserved": 0, "lon": -77.033946, "fusion_lat": 0.0, "name": "f7392cf248e08b4425ec2f6384f6a682"}, {"type": "electric_scooter", "fusion_lon": 0.0, "bike_id": "a92bb2510ecb5ff731d8103fa5579532", "is_disabled": 0, "lat": 38.94414666666667, "rental_uris": {"ios": "https://dc.lft.to/lastmile_qr_scan", "android": "https://dc.lft.to/lastmile_qr_scan"}, "is_reserved": 0, "lon": -77.00496966666667, "fusion_lat": 0.0, "name": "a92bb2510ecb5ff731d8103fa5579532"}, {"type": "electric_scooter", "fusion_lon": 0.0, "bike_id": "76734b7d6bc1507989028cbc3d2ad4ef", "is_disabled": 0, "lat": 38.914614, "rental_uris": {"ios": "https://dc.lft.to/lastmile_qr_scan", "android": "https://dc.lft.to/lastmile_qr_scan"}, "is_reserved": 0, "lon": -77.0149085, "fusion_lat": 0.0, "name": "76734b7d6bc1507989028cbc3d2ad4ef"}, {"type": "electric_scooter", "fusion_lon": 0.0, "bike_id": "e22dad90a2be6f5b2ccb1a289a97a746", "is_disabled": 0, "lat": 38.877530666666665, "rental_uris": {"ios": "https://dc.lft.to/lastmile_qr_scan", "android": "https://dc.lft.to/lastmile_qr_scan"}, "is_reserved": 0, "lon": -77.00746433333333, "fusion_lat": 0.0, "name": "e22dad90a2be6f5b2ccb1a289a97a746"}, {"type": "electric_scooter", "fusion_lon": 0.0, "bike_id": "f6cb9ca21ed50dc1693c634d911363c2", "is_disabled": 0, "lat": 38.910611, "rental_uris": {"ios": "https://dc.lft.to/lastmile_qr_scan", "android": "https://dc.lft.to/lastmile_qr_scan"}, "is_reserved": 0, "lon": -77.0265605, "fusion_lat": 0.0, "name": "f6cb9ca21ed50dc1693c634d911363c2"}, {"type": "electric_scooter", "fusion_lon": 0.0, "bike_id": "c76b3ec30c2f59e39f970433c4fa6c38", "is_disabled": 0, "lat": 38.85946883333333, "rental_uris": {"ios": "https://dc.lft.to/lastmile_qr_scan", "android": "https://dc.lft.to/lastmile_qr_scan"}, "is_reserved": 0, "lon": -76.95877966666667, "fusion_lat": 0.0, "name": "c76b3ec30c2f59e39f970433c4fa6c38"}, {"type": "electric_scooter", "fusion_lon": 0.0, "bike_id": "92eacc2734e515d2ab54377e9a718677", "is_disabled": 0, "lat": 38.92110383333333, "rental_uris": {"ios": "https://dc.lft.to/lastmile_qr_scan", "android": "https://dc.lft.to/lastmile_qr_scan"}, "is_reserved": 0, "lon": -77.04830233333334, "fusion_lat": 0.0, "name": "92eacc2734e515d2ab54377e9a718677"}, {"type": "electric_scooter", "fusion_lon": 0.0, "bike_id": "a45e33313e3347a6df77b6cf09f7c8d3", "is_disabled": 0, "lat": 38.934845833333334, "rental_uris": {"ios": "https://dc.lft.to/lastmile_qr_scan", "android": "https://dc.lft.to/lastmile_qr_scan"}, "is_reserved": 0, "lon": -77.0241385, "fusion_lat": 0.0, "name": "a45e33313e3347a6df77b6cf09f7c8d3"}, {"type": "electric_bike", "fusion_lon": 0.0, "bike_id": "d3f21510da3829e3a69a392ce5b058a1", "is_disabled": 0, "lat": 38.83522133333334, "rental_uris": {"ios": "https://dc.lft.to/lastmile_qr_scan", "android": "https://dc.lft.to/lastmile_qr_scan"}, "is_reserved": 0, "lon": -76.98706683333333, "fusion_lat": 0.0, "name": "d3f21510da3829e3a69a392ce5b058a1"}, {"type": "electric_scooter", "fusion_lon": 0.0, "bike_id": "8cb6ecc9e890fc2662e9e2d5c00a5491", "is_disabled": 0, "lat": 38.89442116666667, "rental_uris": {"ios": "https://dc.lft.to/lastmile_qr_scan", "android": "https://dc.lft.to/lastmile_qr_scan"}, "is_reserved": 0, "lon": -76.997192, "fusion_lat": 0.0, "name": "8cb6ecc9e890fc2662e9e2d5c00a5491"}, {"type": "electric_scooter", "fusion_lon": 0.0, "bike_id": "a9aa55e1d47ff1a4bd5d11e3ec854e53", "is_disabled": 0, "lat": 38.906618, "rental_uris": {"ios": "https://dc.lft.to/lastmile_qr_scan", "android": "https://dc.lft.to/lastmile_qr_scan"}, "is_reserved": 0, "lon": -76.979405, "fusion_lat": 0.0, "name": "a9aa55e1d47ff1a4bd5d11e3ec854e53"}, {"type": "electric_scooter", "fusion_lon": 0.0, "bike_id": "45cd0d96d6e7d1e9cb51607e0f84b346", "is_disabled": 0, "lat": 38.905682, "rental_uris": {"ios": "https://dc.lft.to/lastmile_qr_scan", "android": "https://dc.lft.to/lastmile_qr_scan"}, "is_reserved": 0, "lon": -77.005947, "fusion_lat": 0.0, "name": "45cd0d96d6e7d1e9cb51607e0f84b346"}, {"type": "electric_scooter", "fusion_lon": 0.0, "bike_id": "a51001024f6f1cc6decee8641ae0522f", "is_disabled": 0, "lat": 38.904273833333335, "rental_uris": {"ios": "https://dc.lft.to/lastmile_qr_scan", "android": "https://dc.lft.to/lastmile_qr_scan"}, "is_reserved": 0, "lon": -77.024151, "fusion_lat": 0.0, "name": "a51001024f6f1cc6decee8641ae0522f"}, {"type": "electric_scooter", "fusion_lon": 0.0, "bike_id": "361ec497bff830755a27c5bc26c9beed", "is_disabled": 0, "lat": 38.882046333333335, "rental_uris": {"ios": "https://dc.lft.to/lastmile_qr_scan", "android": "https://dc.lft.to/lastmile_qr_scan"}, "is_reserved": 0, "lon": -77.01764333333334, "fusion_lat": 0.0, "name": "361ec497bff830755a27c5bc26c9beed"}, {"type": "electric_scooter", "fusion_lon": 0.0, "bike_id": "e8388eb0a1a471d3c2f8ad6ad3710043", "is_disabled": 0, "lat": 38.89963316666667, "rental_uris": {"ios": "https://dc.lft.to/lastmile_qr_scan", "android": "https://dc.lft.to/lastmile_qr_scan"}, "is_reserved": 0, "lon": -77.0213105, "fusion_lat": 0.0, "name": "e8388eb0a1a471d3c2f8ad6ad3710043"}, {"type": "electric_scooter", "fusion_lon": 0.0, "bike_id": "b76185e505d9e3aece8b2bc8e4cbcb88", "is_disabled": 0, "lat": 38.916329833333336, "rental_uris": {"ios": "https://dc.lft.to/lastmile_qr_scan", "android": "https://dc.lft.to/lastmile_qr_scan"}, "is_reserved": 0, "lon": -77.03986333333333, "fusion_lat": 0.0, "name": "b76185e505d9e3aece8b2bc8e4cbcb88"}, {"type": "electric_scooter", "fusion_lon": 0.0, "bike_id": "7cfc07bf267db79533e5b8d32c7cff8d", "is_disabled": 0, "lat": 38.90345216666667, "rental_uris": {"ios": "https://dc.lft.to/lastmile_qr_scan", "android": "https://dc.lft.to/lastmile_qr_scan"}, "is_reserved": 0, "lon": -77.03187266666667, "fusion_lat": 0.0, "name": "7cfc07bf267db79533e5b8d32c7cff8d"}, {"type": "electric_scooter", "fusion_lon": 0.0, "bike_id": "fcfc9619486062683b5aeb1b89e32ac0", "is_disabled": 0, "lat": 38.8899835, "rental_uris": {"ios": "https://dc.lft.to/lastmile_qr_scan", "android": "https://dc.lft.to/lastmile_qr_scan"}, "is_reserved": 0, "lon": -76.954349, "fusion_lat": 0.0, "name": "fcfc9619486062683b5aeb1b89e32ac0"}, {"type": "electric_scooter", "fusion_lon": 0.0, "bike_id": "3703a95b2fedc9a94cea8cd53fbb9650", "is_disabled": 0, "lat": 38.934289, "rental_uris": {"ios": "https://dc.lft.to/lastmile_qr_scan", "android": "https://dc.lft.to/lastmile_qr_scan"}, "is_reserved": 0, "lon": -77.03999716666667, "fusion_lat": 0.0, "name": "3703a95b2fedc9a94cea8cd53fbb9650"}, {"type": "electric_scooter", "fusion_lon": 0.0, "bike_id": "9166d1a41efa9a8972ca14e5f54f17d3", "is_disabled": 0, "lat": 38.91807516666667, "rental_uris": {"ios": "https://dc.lft.to/lastmile_qr_scan", "android": "https://dc.lft.to/lastmile_qr_scan"}, "is_reserved": 0, "lon": -77.03996516666666, "fusion_lat": 0.0, "name": "9166d1a41efa9a8972ca14e5f54f17d3"}, {"type": "electric_bike", "fusion_lon": 0.0, "bike_id": "297c9b3ee940962e4290d84b695211cf", "is_disabled": 0, "lat": 38.8360685, "rental_uris": {"ios": "https://dc.lft.to/lastmile_qr_scan", "android": "https://dc.lft.to/lastmile_qr_scan"}, "is_reserved": 0, "lon": -77.0038145, "fusion_lat": 0.0, "name": "297c9b3ee940962e4290d84b695211cf"}, {"type": "electric_scooter", "fusion_lon": 0.0, "bike_id": "40c4b304adf85ab47763b6add9a9641e", "is_disabled": 0, "lat": 38.92383266666667, "rental_uris": {"ios": "https://dc.lft.to/lastmile_qr_scan", "android": "https://dc.lft.to/lastmile_qr_scan"}, "is_reserved": 0, "lon": -77.02693366666666, "fusion_lat": 0.0, "name": "40c4b304adf85ab47763b6add9a9641e"}, {"type": "electric_scooter", "fusion_lon": 0.0, "bike_id": "92a2e84b9bbc010f4306d64b4050568d", "is_disabled": 0, "lat": 38.93560766666667, "rental_uris": {"ios": "https://dc.lft.to/lastmile_qr_scan", "android": "https://dc.lft.to/lastmile_qr_scan"}, "is_reserved": 0, "lon": -77.07461316666667, "fusion_lat": 0.0, "name": "92a2e84b9bbc010f4306d64b4050568d"}, {"type": "electric_scooter", "fusion_lon": 0.0, "bike_id": "3557d079f76d900deb7afe2ceafafb8b", "is_disabled": 0, "lat": 38.932322166666665, "rental_uris": {"ios": "https://dc.lft.to/lastmile_qr_scan", "android": "https://dc.lft.to/lastmile_qr_scan"}, "is_reserved": 0, "lon": -77.023838, "fusion_lat": 0.0, "name": "3557d079f76d900deb7afe2ceafafb8b"}, {"type": "electric_scooter", "fusion_lon": 0.0, "bike_id": "4af65f7f82251c9a922d2c99616a508c", "is_disabled": 0, "lat": 38.9051205, "rental_uris": {"ios": "https://dc.lft.to/lastmile_qr_scan", "android": "https://dc.lft.to/lastmile_qr_scan"}, "is_reserved": 0, "lon": -77.034681, "fusion_lat": 0.0, "name": "4af65f7f82251c9a922d2c99616a508c"}, {"type": "electric_scooter", "fusion_lon": 0.0, "bike_id": "deea4a660556606836ab0e76653f8c77", "is_disabled": 0, "lat": 38.90643266666667, "rental_uris": {"ios": "https://dc.lft.to/lastmile_qr_scan", "android": "https://dc.lft.to/lastmile_qr_scan"}, "is_reserved": 0, "lon": -77.01766833333333, "fusion_lat": 0.0, "name": "deea4a660556606836ab0e76653f8c77"}, {"type": "electric_bike", "fusion_lon": 0.0, "bike_id": "0e1bea3a54937cede32ba1fa1ab4a930", "is_disabled": 0, "lat": 38.925368, "rental_uris": {"ios": "https://dc.lft.to/lastmile_qr_scan", "android": "https://dc.lft.to/lastmile_qr_scan"}, "is_reserved": 0, "lon": -77.00114566666667, "fusion_lat": 0.0, "name": "0e1bea3a54937cede32ba1fa1ab4a930"}, {"type": "electric_scooter", "fusion_lon": 0.0, "bike_id": "1ea1b184d61c63abdba79b8b6a85b4cd", "is_disabled": 0, "lat": 38.91968633333333, "rental_uris": {"ios": "https://dc.lft.to/lastmile_qr_scan", "android": "https://dc.lft.to/lastmile_qr_scan"}, "is_reserved": 0, "lon": -77.0484945, "fusion_lat": 0.0, "name": "1ea1b184d61c63abdba79b8b6a85b4cd"}, {"type": "electric_scooter", "fusion_lon": 0.0, "bike_id": "1874fe63ba7bfa1388b29bf91ceda81a", "is_disabled": 0, "lat": 38.893296166666666, "rental_uris": {"ios": "https://dc.lft.to/lastmile_qr_scan", "android": "https://dc.lft.to/lastmile_qr_scan"}, "is_reserved": 0, "lon": -77.03183933333334, "fusion_lat": 0.0, "name": "1874fe63ba7bfa1388b29bf91ceda81a"}, {"type": "electric_scooter", "fusion_lon": 0.0, "bike_id": "f0206e08570e1c0443d14a18831b9fd1", "is_disabled": 0, "lat": 38.9279805, "rental_uris": {"ios": "https://dc.lft.to/lastmile_qr_scan", "android": "https://dc.lft.to/lastmile_qr_scan"}, "is_reserved": 0, "lon": -77.05431333333334, "fusion_lat": 0.0, "name": "f0206e08570e1c0443d14a18831b9fd1"}, {"type": "electric_scooter", "fusion_lon": 0.0, "bike_id": "722604773075293874aa0035a4c75390", "is_disabled": 0, "lat": 38.899763, "rental_uris": {"ios": "https://dc.lft.to/lastmile_qr_scan", "android": "https://dc.lft.to/lastmile_qr_scan"}, "is_reserved": 0, "lon": -76.98543966666666, "fusion_lat": 0.0, "name": "722604773075293874aa0035a4c75390"}, {"type": "electric_scooter", "fusion_lon": 0.0, "bike_id": "a37c07c4cfff15aeb992fcec9f66de96", "is_disabled": 0, "lat": 38.9097245, "rental_uris": {"ios": "https://dc.lft.to/lastmile_qr_scan", "android": "https://dc.lft.to/lastmile_qr_scan"}, "is_reserved": 0, "lon": -77.04076766666667, "fusion_lat": 0.0, "name": "a37c07c4cfff15aeb992fcec9f66de96"}, {"type": "electric_scooter", "fusion_lon": 0.0, "bike_id": "3cbbfe2642ec07cbdd8830c1c53fc66c", "is_disabled": 0, "lat": 38.900267166666666, "rental_uris": {"ios": "https://dc.lft.to/lastmile_qr_scan", "android": "https://dc.lft.to/lastmile_qr_scan"}, "is_reserved": 0, "lon": -77.00223733333333, "fusion_lat": 0.0, "name": "3cbbfe2642ec07cbdd8830c1c53fc66c"}, {"type": "electric_scooter", "fusion_lon": 0.0, "bike_id": "adedd636d2b7a8039ee9785e3d730513", "is_disabled": 0, "lat": 38.8976565, "rental_uris": {"ios": "https://dc.lft.to/lastmile_qr_scan", "android": "https://dc.lft.to/lastmile_qr_scan"}, "is_reserved": 0, "lon": -76.9257585, "fusion_lat": 0.0, "name": "adedd636d2b7a8039ee9785e3d730513"}, {"type": "electric_scooter", "fusion_lon": 0.0, "bike_id": "6aadb8f95ccac62a5f756fd76fc8ac49", "is_disabled": 0, "lat": 38.9384765, "rental_uris": {"ios": "https://dc.lft.to/lastmile_qr_scan", "android": "https://dc.lft.to/lastmile_qr_scan"}, "is_reserved": 0, "lon": -77.03396133333334, "fusion_lat": 0.0, "name": "6aadb8f95ccac62a5f756fd76fc8ac49"}, {"type": "electric_scooter", "fusion_lon": 0.0, "bike_id": "6feb998ff78f0d8f7189bee5da62733c", "is_disabled": 0, "lat": 38.89269266666667, "rental_uris": {"ios": "https://dc.lft.to/lastmile_qr_scan", "android": "https://dc.lft.to/lastmile_qr_scan"}, "is_reserved": 0, "lon": -77.04203933333334, "fusion_lat": 0.0, "name": "6feb998ff78f0d8f7189bee5da62733c"}, {"type": "electric_scooter", "fusion_lon": 0.0, "bike_id": "9e9100a3e52277b16094867f7298b797", "is_disabled": 0, "lat": 38.919338333333336, "rental_uris": {"ios": "https://dc.lft.to/lastmile_qr_scan", "android": "https://dc.lft.to/lastmile_qr_scan"}, "is_reserved": 0, "lon": -77.0450215, "fusion_lat": 0.0, "name": "9e9100a3e52277b16094867f7298b797"}, {"type": "electric_scooter", "fusion_lon": 0.0, "bike_id": "601cc89918faf1d736b9af0b06a7e5fe", "is_disabled": 0, "lat": 38.9343035, "rental_uris": {"ios": "https://dc.lft.to/lastmile_qr_scan", "android": "https://dc.lft.to/lastmile_qr_scan"}, "is_reserved": 0, "lon": -77.04003816666666, "fusion_lat": 0.0, "name": "601cc89918faf1d736b9af0b06a7e5fe"}, {"type": "electric_scooter", "fusion_lon": 0.0, "bike_id": "61f697680f5a8dffc6e9e2c656e280c3", "is_disabled": 0, "lat": 38.90026683333333, "rental_uris": {"ios": "https://dc.lft.to/lastmile_qr_scan", "android": "https://dc.lft.to/lastmile_qr_scan"}, "is_reserved": 0, "lon": -76.99644583333334, "fusion_lat": 0.0, "name": "61f697680f5a8dffc6e9e2c656e280c3"}, {"type": "electric_scooter", "fusion_lon": 0.0, "bike_id": "3c06f4b65687a655a1a63468b993151a", "is_disabled": 0, "lat": 38.93540016666667, "rental_uris": {"ios": "https://dc.lft.to/lastmile_qr_scan", "android": "https://dc.lft.to/lastmile_qr_scan"}, "is_reserved": 0, "lon": -77.0341505, "fusion_lat": 0.0, "name": "3c06f4b65687a655a1a63468b993151a"}, {"type": "electric_scooter", "fusion_lon": 0.0, "bike_id": "64ce23fd0f2f2b8772a1847f11ca76bf", "is_disabled": 0, "lat": 38.917380333333334, "rental_uris": {"ios": "https://dc.lft.to/lastmile_qr_scan", "android": "https://dc.lft.to/lastmile_qr_scan"}, "is_reserved": 0, "lon": -77.06846116666667, "fusion_lat": 0.0, "name": "64ce23fd0f2f2b8772a1847f11ca76bf"}, {"type": "electric_scooter", "fusion_lon": 0.0, "bike_id": "b13135e3a0579e6c89742ba9ce9a8f51", "is_disabled": 0, "lat": 38.914175166666666, "rental_uris": {"ios": "https://dc.lft.to/lastmile_qr_scan", "android": "https://dc.lft.to/lastmile_qr_scan"}, "is_reserved": 0, "lon": -77.03175483333334, "fusion_lat": 0.0, "name": "b13135e3a0579e6c89742ba9ce9a8f51"}, {"type": "electric_scooter", "fusion_lon": 0.0, "bike_id": "0fc76529331f1bb2707780aa50c29ac4", "is_disabled": 0, "lat": 38.90733483333333, "rental_uris": {"ios": "https://dc.lft.to/lastmile_qr_scan", "android": "https://dc.lft.to/lastmile_qr_scan"}, "is_reserved": 0, "lon": -77.0016305, "fusion_lat": 0.0, "name": "0fc76529331f1bb2707780aa50c29ac4"}, {"type": "electric_scooter", "fusion_lon": 0.0, "bike_id": "4a77d9fb0f1cf8f0fdce346061cf46f4", "is_disabled": 0, "lat": 38.94190183333333, "rental_uris": {"ios": "https://dc.lft.to/lastmile_qr_scan", "android": "https://dc.lft.to/lastmile_qr_scan"}, "is_reserved": 0, "lon": -77.0247885, "fusion_lat": 0.0, "name": "4a77d9fb0f1cf8f0fdce346061cf46f4"}, {"type": "electric_scooter", "fusion_lon": 0.0, "bike_id": "4235a04182becc620cdc0f4c24a68b15", "is_disabled": 0, "lat": 38.90723966666667, "rental_uris": {"ios": "https://dc.lft.to/lastmile_qr_scan", "android": "https://dc.lft.to/lastmile_qr_scan"}, "is_reserved": 0, "lon": -77.02421833333334, "fusion_lat": 0.0, "name": "4235a04182becc620cdc0f4c24a68b15"}, {"type": "electric_scooter", "fusion_lon": 0.0, "bike_id": "82f4d196b31f68d263fa0c896fa5f571", "is_disabled": 0, "lat": 38.88141983333333, "rental_uris": {"ios": "https://dc.lft.to/lastmile_qr_scan", "android": "https://dc.lft.to/lastmile_qr_scan"}, "is_reserved": 0, "lon": -77.01760983333334, "fusion_lat": 0.0, "name": "82f4d196b31f68d263fa0c896fa5f571"}, {"type": "electric_scooter", "fusion_lon": 0.0, "bike_id": "222f05ad1dfaf0e1af03d24f489c5697", "is_disabled": 0, "lat": 38.902538166666666, "rental_uris": {"ios": "https://dc.lft.to/lastmile_qr_scan", "android": "https://dc.lft.to/lastmile_qr_scan"}, "is_reserved": 0, "lon": -77.02689816666667, "fusion_lat": 0.0, "name": "222f05ad1dfaf0e1af03d24f489c5697"}, {"type": "electric_scooter", "fusion_lon": 0.0, "bike_id": "205d19cd8011a55dddfc66c474c06abb", "is_disabled": 0, "lat": 38.936036333333334, "rental_uris": {"ios": "https://dc.lft.to/lastmile_qr_scan", "android": "https://dc.lft.to/lastmile_qr_scan"}, "is_reserved": 0, "lon": -77.05709266666666, "fusion_lat": 0.0, "name": "205d19cd8011a55dddfc66c474c06abb"}, {"type": "electric_scooter", "fusion_lon": 0.0, "bike_id": "c3df177f55a10d93d1fc1a083ac6346e", "is_disabled": 0, "lat": 38.919791333333336, "rental_uris": {"ios": "https://dc.lft.to/lastmile_qr_scan", "android": "https://dc.lft.to/lastmile_qr_scan"}, "is_reserved": 0, "lon": -77.02491616666667, "fusion_lat": 0.0, "name": "c3df177f55a10d93d1fc1a083ac6346e"}, {"type": "electric_scooter", "fusion_lon": 0.0, "bike_id": "028c0c0942992aa88bd3e71a5b180e0d", "is_disabled": 0, "lat": 38.920610333333336, "rental_uris": {"ios": "https://dc.lft.to/lastmile_qr_scan", "android": "https://dc.lft.to/lastmile_qr_scan"}, "is_reserved": 0, "lon": -77.016879, "fusion_lat": 0.0, "name": "028c0c0942992aa88bd3e71a5b180e0d"}, {"type": "electric_scooter", "fusion_lon": 0.0, "bike_id": "af74eeb06833b5c584d2f6a6388c2468", "is_disabled": 0, "lat": 38.907226, "rental_uris": {"ios": "https://dc.lft.to/lastmile_qr_scan", "android": "https://dc.lft.to/lastmile_qr_scan"}, "is_reserved": 0, "lon": -77.04770966666666, "fusion_lat": 0.0, "name": "af74eeb06833b5c584d2f6a6388c2468"}, {"type": "electric_scooter", "fusion_lon": 0.0, "bike_id": "a1402283b369580f573e53698f40e59e", "is_disabled": 0, "lat": 38.937101, "rental_uris": {"ios": "https://dc.lft.to/lastmile_qr_scan", "android": "https://dc.lft.to/lastmile_qr_scan"}, "is_reserved": 0, "lon": -77.02461633333333, "fusion_lat": 0.0, "name": "a1402283b369580f573e53698f40e59e"}, {"type": "electric_scooter", "fusion_lon": 0.0, "bike_id": "d3e5c502022111fb3f958c586a0b6b97", "is_disabled": 0, "lat": 38.8921825, "rental_uris": {"ios": "https://dc.lft.to/lastmile_qr_scan", "android": "https://dc.lft.to/lastmile_qr_scan"}, "is_reserved": 0, "lon": -76.95704066666667, "fusion_lat": 0.0, "name": "d3e5c502022111fb3f958c586a0b6b97"}, {"type": "electric_scooter", "fusion_lon": 0.0, "bike_id": "9dd69e72bf71fe7776834aea8e900749", "is_disabled": 0, "lat": 38.9165305, "rental_uris": {"ios": "https://dc.lft.to/lastmile_qr_scan", "android": "https://dc.lft.to/lastmile_qr_scan"}, "is_reserved": 0, "lon": -77.03679383333333, "fusion_lat": 0.0, "name": "9dd69e72bf71fe7776834aea8e900749"}, {"type": "electric_scooter", "fusion_lon": 0.0, "bike_id": "950c243a57bc7af656402ebe7e8bd3e8", "is_disabled": 0, "lat": 38.91356116666667, "rental_uris": {"ios": "https://dc.lft.to/lastmile_qr_scan", "android": "https://dc.lft.to/lastmile_qr_scan"}, "is_reserved": 0, "lon": -77.0204475, "fusion_lat": 0.0, "name": "950c243a57bc7af656402ebe7e8bd3e8"}, {"type": "electric_scooter", "fusion_lon": 0.0, "bike_id": "9ea29db0265c666f2ddbc4e5ecfe7c81", "is_disabled": 0, "lat": 38.892271666666666, "rental_uris": {"ios": "https://dc.lft.to/lastmile_qr_scan", "android": "https://dc.lft.to/lastmile_qr_scan"}, "is_reserved": 0, "lon": -77.02418083333333, "fusion_lat": 0.0, "name": "9ea29db0265c666f2ddbc4e5ecfe7c81"}, {"type": "electric_scooter", "fusion_lon": 0.0, "bike_id": "81cb7932639590188466ac21b7b0f47d", "is_disabled": 0, "lat": 38.90043416666666, "rental_uris": {"ios": "https://dc.lft.to/lastmile_qr_scan", "android": "https://dc.lft.to/lastmile_qr_scan"}, "is_reserved": 0, "lon": -76.997588, "fusion_lat": 0.0, "name": "81cb7932639590188466ac21b7b0f47d"}, {"type": "electric_scooter", "fusion_lon": 0.0, "bike_id": "81361a308b314ea937108a79b2e82d05", "is_disabled": 0, "lat": 38.895283666666664, "rental_uris": {"ios": "https://dc.lft.to/lastmile_qr_scan", "android": "https://dc.lft.to/lastmile_qr_scan"}, "is_reserved": 0, "lon": -77.01603233333333, "fusion_lat": 0.0, "name": "81361a308b314ea937108a79b2e82d05"}, {"type": "electric_scooter", "fusion_lon": 0.0, "bike_id": "c141e77844b05f7fdaf1a006d53fd5a4", "is_disabled": 0, "lat": 38.874704666666666, "rental_uris": {"ios": "https://dc.lft.to/lastmile_qr_scan", "android": "https://dc.lft.to/lastmile_qr_scan"}, "is_reserved": 0, "lon": -77.0041885, "fusion_lat": 0.0, "name": "c141e77844b05f7fdaf1a006d53fd5a4"}, {"type": "electric_scooter", "fusion_lon": 0.0, "bike_id": "fb878a411398974314b5ac26305a0002", "is_disabled": 0, "lat": 38.8996855, "rental_uris": {"ios": "https://dc.lft.to/lastmile_qr_scan", "android": "https://dc.lft.to/lastmile_qr_scan"}, "is_reserved": 0, "lon": -77.02167683333333, "fusion_lat": 0.0, "name": "fb878a411398974314b5ac26305a0002"}, {"type": "electric_scooter", "fusion_lon": 0.0, "bike_id": "a6b2af6fe77e1f2001a0c14711b7975e", "is_disabled": 0, "lat": 38.91984083333333, "rental_uris": {"ios": "https://dc.lft.to/lastmile_qr_scan", "android": "https://dc.lft.to/lastmile_qr_scan"}, "is_reserved": 0, "lon": -77.02364483333334, "fusion_lat": 0.0, "name": "a6b2af6fe77e1f2001a0c14711b7975e"}, {"type": "electric_scooter", "fusion_lon": 0.0, "bike_id": "eb676f9fa74e6db4f1b849c3c2e2a9b1", "is_disabled": 0, "lat": 38.916921, "rental_uris": {"ios": "https://dc.lft.to/lastmile_qr_scan", "android": "https://dc.lft.to/lastmile_qr_scan"}, "is_reserved": 0, "lon": -77.0259755, "fusion_lat": 0.0, "name": "eb676f9fa74e6db4f1b849c3c2e2a9b1"}, {"type": "electric_scooter", "fusion_lon": 0.0, "bike_id": "33f53eb9ec3c246926be0fc51275aee4", "is_disabled": 0, "lat": 38.92630583333333, "rental_uris": {"ios": "https://dc.lft.to/lastmile_qr_scan", "android": "https://dc.lft.to/lastmile_qr_scan"}, "is_reserved": 0, "lon": -77.02267583333334, "fusion_lat": 0.0, "name": "33f53eb9ec3c246926be0fc51275aee4"}, {"type": "electric_scooter", "fusion_lon": 0.0, "bike_id": "d94eec28d28d8a90002e1358480dfa42", "is_disabled": 0, "lat": 38.91309316666667, "rental_uris": {"ios": "https://dc.lft.to/lastmile_qr_scan", "android": "https://dc.lft.to/lastmile_qr_scan"}, "is_reserved": 0, "lon": -77.03638683333334, "fusion_lat": 0.0, "name": "d94eec28d28d8a90002e1358480dfa42"}, {"type": "electric_scooter", "fusion_lon": 0.0, "bike_id": "ca44a70af6aefae1d78fba08c24bfd68", "is_disabled": 0, "lat": 38.92462616666667, "rental_uris": {"ios": "https://dc.lft.to/lastmile_qr_scan", "android": "https://dc.lft.to/lastmile_qr_scan"}, "is_reserved": 0, "lon": -77.04034466666667, "fusion_lat": 0.0, "name": "ca44a70af6aefae1d78fba08c24bfd68"}, {"type": "electric_scooter", "fusion_lon": 0.0, "bike_id": "954552e7df2477cbce412e852c7db21b", "is_disabled": 0, "lat": 38.92473066666667, "rental_uris": {"ios": "https://dc.lft.to/lastmile_qr_scan", "android": "https://dc.lft.to/lastmile_qr_scan"}, "is_reserved": 0, "lon": -77.02551083333333, "fusion_lat": 0.0, "name": "954552e7df2477cbce412e852c7db21b"}, {"type": "electric_scooter", "fusion_lon": 0.0, "bike_id": "43fcb16d6fb0d5f5bcaf488b2ee7395d", "is_disabled": 0, "lat": 38.923095333333336, "rental_uris": {"ios": "https://dc.lft.to/lastmile_qr_scan", "android": "https://dc.lft.to/lastmile_qr_scan"}, "is_reserved": 0, "lon": -77.03042716666667, "fusion_lat": 0.0, "name": "43fcb16d6fb0d5f5bcaf488b2ee7395d"}, {"type": "electric_scooter", "fusion_lon": 0.0, "bike_id": "5b04df10025ad2f9d4c5804a335b3584", "is_disabled": 0, "lat": 38.892277, "rental_uris": {"ios": "https://dc.lft.to/lastmile_qr_scan", "android": "https://dc.lft.to/lastmile_qr_scan"}, "is_reserved": 0, "lon": -77.0282505, "fusion_lat": 0.0, "name": "5b04df10025ad2f9d4c5804a335b3584"}, {"type": "electric_scooter", "fusion_lon": 0.0, "bike_id": "e3cb71d26156b34a9cf27c30e3941747", "is_disabled": 0, "lat": 38.90006, "rental_uris": {"ios": "https://dc.lft.to/lastmile_qr_scan", "android": "https://dc.lft.to/lastmile_qr_scan"}, "is_reserved": 0, "lon": -77.02593, "fusion_lat": 0.0, "name": "e3cb71d26156b34a9cf27c30e3941747"}, {"type": "electric_scooter", "fusion_lon": 0.0, "bike_id": "d8ea990e9d2627bbbac51a25c9f06839", "is_disabled": 0, "lat": 38.911903, "rental_uris": {"ios": "https://dc.lft.to/lastmile_qr_scan", "android": "https://dc.lft.to/lastmile_qr_scan"}, "is_reserved": 0, "lon": -77.00175183333333, "fusion_lat": 0.0, "name": "d8ea990e9d2627bbbac51a25c9f06839"}, {"type": "electric_scooter", "fusion_lon": 0.0, "bike_id": "6aeb7a3507fda8504c8d1947d5b62db6", "is_disabled": 0, "lat": 38.920151, "rental_uris": {"ios": "https://dc.lft.to/lastmile_qr_scan", "android": "https://dc.lft.to/lastmile_qr_scan"}, "is_reserved": 0, "lon": -77.03148716666666, "fusion_lat": 0.0, "name": "6aeb7a3507fda8504c8d1947d5b62db6"}, {"type": "electric_scooter", "fusion_lon": 0.0, "bike_id": "d5010ffcf51577c392e369a9c41aba78", "is_disabled": 0, "lat": 38.912728666666666, "rental_uris": {"ios": "https://dc.lft.to/lastmile_qr_scan", "android": "https://dc.lft.to/lastmile_qr_scan"}, "is_reserved": 0, "lon": -77.02963, "fusion_lat": 0.0, "name": "d5010ffcf51577c392e369a9c41aba78"}, {"type": "electric_scooter", "fusion_lon": 0.0, "bike_id": "109ed3bd02b7769037963ccb6f6ada55", "is_disabled": 0, "lat": 38.93557116666667, "rental_uris": {"ios": "https://dc.lft.to/lastmile_qr_scan", "android": "https://dc.lft.to/lastmile_qr_scan"}, "is_reserved": 0, "lon": -77.074575, "fusion_lat": 0.0, "name": "109ed3bd02b7769037963ccb6f6ada55"}, {"type": "electric_scooter", "fusion_lon": 0.0, "bike_id": "1d5fe92eb365757ed029e063a3b289d0", "is_disabled": 0, "lat": 38.915258, "rental_uris": {"ios": "https://dc.lft.to/lastmile_qr_scan", "android": "https://dc.lft.to/lastmile_qr_scan"}, "is_reserved": 0, "lon": -77.03200816666667, "fusion_lat": 0.0, "name": "1d5fe92eb365757ed029e063a3b289d0"}, {"type": "electric_scooter", "fusion_lon": 0.0, "bike_id": "99db544e14bffaebfefad49a53312553", "is_disabled": 0, "lat": 38.921374666666665, "rental_uris": {"ios": "https://dc.lft.to/lastmile_qr_scan", "android": "https://dc.lft.to/lastmile_qr_scan"}, "is_reserved": 0, "lon": -77.04124316666666, "fusion_lat": 0.0, "name": "99db544e14bffaebfefad49a53312553"}, {"type": "electric_scooter", "fusion_lon": 0.0, "bike_id": "184c8a2ac93dae528408596024113fa4", "is_disabled": 0, "lat": 38.91483316666667, "rental_uris": {"ios": "https://dc.lft.to/lastmile_qr_scan", "android": "https://dc.lft.to/lastmile_qr_scan"}, "is_reserved": 0, "lon": -77.0415915, "fusion_lat": 0.0, "name": "184c8a2ac93dae528408596024113fa4"}, {"type": "electric_scooter", "fusion_lon": 0.0, "bike_id": "b7845b1131536cdabf28a53e1f913957", "is_disabled": 0, "lat": 38.88722683333334, "rental_uris": {"ios": "https://dc.lft.to/lastmile_qr_scan", "android": "https://dc.lft.to/lastmile_qr_scan"}, "is_reserved": 0, "lon": -76.983506, "fusion_lat": 0.0, "name": "b7845b1131536cdabf28a53e1f913957"}, {"type": "electric_bike", "fusion_lon": 0.0, "bike_id": "5f776bae4ee0a11dcb7ee30704618926", "is_disabled": 0, "lat": 38.92883883333333, "rental_uris": {"ios": "https://dc.lft.to/lastmile_qr_scan", "android": "https://dc.lft.to/lastmile_qr_scan"}, "is_reserved": 0, "lon": -77.0378945, "fusion_lat": 0.0, "name": "5f776bae4ee0a11dcb7ee30704618926"}, {"type": "electric_scooter", "fusion_lon": 0.0, "bike_id": "2bb31c769197583cd5e28b61ef2f422c", "is_disabled": 0, "lat": 38.899291, "rental_uris": {"ios": "https://dc.lft.to/lastmile_qr_scan", "android": "https://dc.lft.to/lastmile_qr_scan"}, "is_reserved": 0, "lon": -76.9973985, "fusion_lat": 0.0, "name": "2bb31c769197583cd5e28b61ef2f422c"}, {"type": "electric_scooter", "fusion_lon": 0.0, "bike_id": "0dc3c0b6d94753fd1118c5449dbc815c", "is_disabled": 0, "lat": 38.89592916666667, "rental_uris": {"ios": "https://dc.lft.to/lastmile_qr_scan", "android": "https://dc.lft.to/lastmile_qr_scan"}, "is_reserved": 0, "lon": -77.02970466666666, "fusion_lat": 0.0, "name": "0dc3c0b6d94753fd1118c5449dbc815c"}, {"type": "electric_scooter", "fusion_lon": 0.0, "bike_id": "a5183ab5042a4b61dc7e09179e478dee", "is_disabled": 0, "lat": 38.90574933333333, "rental_uris": {"ios": "https://dc.lft.to/lastmile_qr_scan", "android": "https://dc.lft.to/lastmile_qr_scan"}, "is_reserved": 0, "lon": -77.043221, "fusion_lat": 0.0, "name": "a5183ab5042a4b61dc7e09179e478dee"}, {"type": "electric_bike", "fusion_lon": 0.0, "bike_id": "c9197f89b2254ab18cc7878f45dc4cd7", "is_disabled": 0, "lat": 38.78455016666667, "rental_uris": {"ios": "https://dc.lft.to/lastmile_qr_scan", "android": "https://dc.lft.to/lastmile_qr_scan"}, "is_reserved": 0, "lon": -77.01639666666667, "fusion_lat": 0.0, "name": "c9197f89b2254ab18cc7878f45dc4cd7"}, {"type": "electric_scooter", "fusion_lon": 0.0, "bike_id": "0c0a034fc6dc414094637383bb6120c7", "is_disabled": 0, "lat": 38.912443, "rental_uris": {"ios": "https://dc.lft.to/lastmile_qr_scan", "android": "https://dc.lft.to/lastmile_qr_scan"}, "is_reserved": 0, "lon": -77.03646866666666, "fusion_lat": 0.0, "name": "0c0a034fc6dc414094637383bb6120c7"}, {"type": "electric_scooter", "fusion_lon": 0.0, "bike_id": "6c32ceee6ff751aae1decc49040c3c0e", "is_disabled": 0, "lat": 38.9119265, "rental_uris": {"ios": "https://dc.lft.to/lastmile_qr_scan", "android": "https://dc.lft.to/lastmile_qr_scan"}, "is_reserved": 0, "lon": -77.03202583333334, "fusion_lat": 0.0, "name": "6c32ceee6ff751aae1decc49040c3c0e"}, {"type": "electric_scooter", "fusion_lon": 0.0, "bike_id": "cab84126781c7e1d84c0107ff18a0b3b", "is_disabled": 0, "lat": 38.860271833333336, "rental_uris": {"ios": "https://dc.lft.to/lastmile_qr_scan", "android": "https://dc.lft.to/lastmile_qr_scan"}, "is_reserved": 0, "lon": -76.96999683333334, "fusion_lat": 0.0, "name": "cab84126781c7e1d84c0107ff18a0b3b"}, {"type": "electric_bike", "fusion_lon": 0.0, "bike_id": "796265784469a03b0fceaeb1e1f6e8b2", "is_disabled": 0, "lat": 38.967847666666664, "rental_uris": {"ios": "https://dc.lft.to/lastmile_qr_scan", "android": "https://dc.lft.to/lastmile_qr_scan"}, "is_reserved": 0, "lon": -76.96261766666667, "fusion_lat": 0.0, "name": "796265784469a03b0fceaeb1e1f6e8b2"}, {"type": "electric_bike", "fusion_lon": 0.0, "bike_id": "8085fc53ec5380defa305ac0772750fd", "is_disabled": 0, "lat": 38.944743, "rental_uris": {"ios": "https://dc.lft.to/lastmile_qr_scan", "android": "https://dc.lft.to/lastmile_qr_scan"}, "is_reserved": 0, "lon": -76.986856, "fusion_lat": 0.0, "name": "8085fc53ec5380defa305ac0772750fd"}, {"type": "electric_bike", "fusion_lon": 0.0, "bike_id": "5225f89a95e992becf1117af2848d1a2", "is_disabled": 0, "lat": 38.89851133333333, "rental_uris": {"ios": "https://dc.lft.to/lastmile_qr_scan", "android": "https://dc.lft.to/lastmile_qr_scan"}, "is_reserved": 0, "lon": -76.93190416666667, "fusion_lat": 0.0, "name": "5225f89a95e992becf1117af2848d1a2"}, {"type": "electric_scooter", "fusion_lon": 0.0, "bike_id": "643c12e252b1536c1beb25f68e602b0a", "is_disabled": 0, "lat": 38.918267, "rental_uris": {"ios": "https://dc.lft.to/lastmile_qr_scan", "android": "https://dc.lft.to/lastmile_qr_scan"}, "is_reserved": 0, "lon": -77.04505133333333, "fusion_lat": 0.0, "name": "643c12e252b1536c1beb25f68e602b0a"}, {"type": "electric_scooter", "fusion_lon": 0.0, "bike_id": "3bf1eba97d5850a80df6d8cc9ef7dbb6", "is_disabled": 0, "lat": 38.87404683333333, "rental_uris": {"ios": "https://dc.lft.to/lastmile_qr_scan", "android": "https://dc.lft.to/lastmile_qr_scan"}, "is_reserved": 0, "lon": -77.0020965, "fusion_lat": 0.0, "name": "3bf1eba97d5850a80df6d8cc9ef7dbb6"}, {"type": "electric_scooter", "fusion_lon": 0.0, "bike_id": "7ab651e6474f9691316e5688698adb71", "is_disabled": 0, "lat": 38.9003135, "rental_uris": {"ios": "https://dc.lft.to/lastmile_qr_scan", "android": "https://dc.lft.to/lastmile_qr_scan"}, "is_reserved": 0, "lon": -77.0118215, "fusion_lat": 0.0, "name": "7ab651e6474f9691316e5688698adb71"}, {"type": "electric_scooter", "fusion_lon": 0.0, "bike_id": "458e917da9a5b3292513a272efb90331", "is_disabled": 0, "lat": 38.899772666666664, "rental_uris": {"ios": "https://dc.lft.to/lastmile_qr_scan", "android": "https://dc.lft.to/lastmile_qr_scan"}, "is_reserved": 0, "lon": -76.99256583333333, "fusion_lat": 0.0, "name": "458e917da9a5b3292513a272efb90331"}, {"type": "electric_scooter", "fusion_lon": 0.0, "bike_id": "639d270c6a78b74e1524f0d30395b682", "is_disabled": 0, "lat": 38.8855795, "rental_uris": {"ios": "https://dc.lft.to/lastmile_qr_scan", "android": "https://dc.lft.to/lastmile_qr_scan"}, "is_reserved": 0, "lon": -76.99799183333333, "fusion_lat": 0.0, "name": "639d270c6a78b74e1524f0d30395b682"}, {"type": "electric_scooter", "fusion_lon": 0.0, "bike_id": "56e2690dcd6e3884c1b70adb8f32042c", "is_disabled": 0, "lat": 38.927073166666666, "rental_uris": {"ios": "https://dc.lft.to/lastmile_qr_scan", "android": "https://dc.lft.to/lastmile_qr_scan"}, "is_reserved": 0, "lon": -77.0209765, "fusion_lat": 0.0, "name": "56e2690dcd6e3884c1b70adb8f32042c"}, {"type": "electric_scooter", "fusion_lon": 0.0, "bike_id": "0ffa7211808fe50167bd85009759e20d", "is_disabled": 0, "lat": 38.9041015, "rental_uris": {"ios": "https://dc.lft.to/lastmile_qr_scan", "android": "https://dc.lft.to/lastmile_qr_scan"}, "is_reserved": 0, "lon": -77.06262133333334, "fusion_lat": 0.0, "name": "0ffa7211808fe50167bd85009759e20d"}, {"type": "electric_scooter", "fusion_lon": 0.0, "bike_id": "b07d9e7a13e15ffc02bee549e8d157ba", "is_disabled": 0, "lat": 38.89241083333334, "rental_uris": {"ios": "https://dc.lft.to/lastmile_qr_scan", "android": "https://dc.lft.to/lastmile_qr_scan"}, "is_reserved": 0, "lon": -77.0416685, "fusion_lat": 0.0, "name": "b07d9e7a13e15ffc02bee549e8d157ba"}, {"type": "electric_scooter", "fusion_lon": 0.0, "bike_id": "1dd8c13a8a7abb51e83ab87ea1397170", "is_disabled": 0, "lat": 38.92237466666667, "rental_uris": {"ios": "https://dc.lft.to/lastmile_qr_scan", "android": "https://dc.lft.to/lastmile_qr_scan"}, "is_reserved": 0, "lon": -77.02115966666666, "fusion_lat": 0.0, "name": "1dd8c13a8a7abb51e83ab87ea1397170"}, {"type": "electric_scooter", "fusion_lon": 0.0, "bike_id": "b71c6d4c24c48b9bb3927e35c8971904", "is_disabled": 0, "lat": 38.90012883333333, "rental_uris": {"ios": "https://dc.lft.to/lastmile_qr_scan", "android": "https://dc.lft.to/lastmile_qr_scan"}, "is_reserved": 0, "lon": -77.01257533333333, "fusion_lat": 0.0, "name": "b71c6d4c24c48b9bb3927e35c8971904"}, {"type": "electric_scooter", "fusion_lon": 0.0, "bike_id": "12709343be923c5cc14e6b142347ae12", "is_disabled": 0, "lat": 38.913431833333334, "rental_uris": {"ios": "https://dc.lft.to/lastmile_qr_scan", "android": "https://dc.lft.to/lastmile_qr_scan"}, "is_reserved": 0, "lon": -77.01503566666666, "fusion_lat": 0.0, "name": "12709343be923c5cc14e6b142347ae12"}, {"type": "electric_scooter", "fusion_lon": 0.0, "bike_id": "e8f14301e5d120d94fd33fa729f8ab6b", "is_disabled": 0, "lat": 38.898415166666666, "rental_uris": {"ios": "https://dc.lft.to/lastmile_qr_scan", "android": "https://dc.lft.to/lastmile_qr_scan"}, "is_reserved": 0, "lon": -77.02803183333333, "fusion_lat": 0.0, "name": "e8f14301e5d120d94fd33fa729f8ab6b"}, {"type": "electric_scooter", "fusion_lon": 0.0, "bike_id": "5f6b079a16e1c2c009c144a896dbe6a4", "is_disabled": 0, "lat": 38.91391866666667, "rental_uris": {"ios": "https://dc.lft.to/lastmile_qr_scan", "android": "https://dc.lft.to/lastmile_qr_scan"}, "is_reserved": 0, "lon": -77.0344905, "fusion_lat": 0.0, "name": "5f6b079a16e1c2c009c144a896dbe6a4"}, {"type": "electric_scooter", "fusion_lon": 0.0, "bike_id": "7ee437792fb309400718bba03f8b431d", "is_disabled": 0, "lat": 38.921324, "rental_uris": {"ios": "https://dc.lft.to/lastmile_qr_scan", "android": "https://dc.lft.to/lastmile_qr_scan"}, "is_reserved": 0, "lon": -77.01806316666666, "fusion_lat": 0.0, "name": "7ee437792fb309400718bba03f8b431d"}, {"type": "electric_scooter", "fusion_lon": 0.0, "bike_id": "2da67de48dee02ae70c90bdc7d2b2a7e", "is_disabled": 0, "lat": 38.92334266666667, "rental_uris": {"ios": "https://dc.lft.to/lastmile_qr_scan", "android": "https://dc.lft.to/lastmile_qr_scan"}, "is_reserved": 0, "lon": -77.05684933333333, "fusion_lat": 0.0, "name": "2da67de48dee02ae70c90bdc7d2b2a7e"}, {"type": "electric_scooter", "fusion_lon": 0.0, "bike_id": "48973a4bea096a4b49d5f5884014cd44", "is_disabled": 0, "lat": 38.919298166666664, "rental_uris": {"ios": "https://dc.lft.to/lastmile_qr_scan", "android": "https://dc.lft.to/lastmile_qr_scan"}, "is_reserved": 0, "lon": -77.024961, "fusion_lat": 0.0, "name": "48973a4bea096a4b49d5f5884014cd44"}, {"type": "electric_scooter", "fusion_lon": 0.0, "bike_id": "090eb97ace1e1f55332e48dbcb1db2a0", "is_disabled": 0, "lat": 38.93356683333333, "rental_uris": {"ios": "https://dc.lft.to/lastmile_qr_scan", "android": "https://dc.lft.to/lastmile_qr_scan"}, "is_reserved": 0, "lon": -77.07298833333333, "fusion_lat": 0.0, "name": "090eb97ace1e1f55332e48dbcb1db2a0"}, {"type": "electric_bike", "fusion_lon": 0.0, "bike_id": "8d163a8093bde1b1eec7e57bcec251ad", "is_disabled": 0, "lat": 38.831578, "rental_uris": {"ios": "https://dc.lft.to/lastmile_qr_scan", "android": "https://dc.lft.to/lastmile_qr_scan"}, "is_reserved": 0, "lon": -76.995701, "fusion_lat": 0.0, "name": "8d163a8093bde1b1eec7e57bcec251ad"}, {"type": "electric_scooter", "fusion_lon": 0.0, "bike_id": "599b2e3397b87375314a556b9ecaafe7", "is_disabled": 0, "lat": 38.89343983333333, "rental_uris": {"ios": "https://dc.lft.to/lastmile_qr_scan", "android": "https://dc.lft.to/lastmile_qr_scan"}, "is_reserved": 0, "lon": -76.99380233333333, "fusion_lat": 0.0, "name": "599b2e3397b87375314a556b9ecaafe7"}, {"type": "electric_scooter", "fusion_lon": 0.0, "bike_id": "87f381149bb64a78eea7058a5502ac37", "is_disabled": 0, "lat": 38.877095, "rental_uris": {"ios": "https://dc.lft.to/lastmile_qr_scan", "android": "https://dc.lft.to/lastmile_qr_scan"}, "is_reserved": 0, "lon": -77.006798, "fusion_lat": 0.0, "name": "87f381149bb64a78eea7058a5502ac37"}, {"type": "electric_scooter", "fusion_lon": 0.0, "bike_id": "d7ea02aa6001f327afd4f1dc896971ff", "is_disabled": 0, "lat": 38.796089, "rental_uris": {"ios": "https://dc.lft.to/lastmile_qr_scan", "android": "https://dc.lft.to/lastmile_qr_scan"}, "is_reserved": 0, "lon": -77.0748435, "fusion_lat": 0.0, "name": "d7ea02aa6001f327afd4f1dc896971ff"}, {"type": "electric_bike", "fusion_lon": 0.0, "bike_id": "9e6ba51f960414be965b79970b391076", "is_disabled": 0, "lat": 38.85769533333333, "rental_uris": {"ios": "https://dc.lft.to/lastmile_qr_scan", "android": "https://dc.lft.to/lastmile_qr_scan"}, "is_reserved": 0, "lon": -76.98769466666667, "fusion_lat": 0.0, "name": "9e6ba51f960414be965b79970b391076"}, {"type": "electric_scooter", "fusion_lon": 0.0, "bike_id": "99a03ad37f587c50faf79f743d15b235", "is_disabled": 0, "lat": 38.91700433333333, "rental_uris": {"ios": "https://dc.lft.to/lastmile_qr_scan", "android": "https://dc.lft.to/lastmile_qr_scan"}, "is_reserved": 0, "lon": -77.034635, "fusion_lat": 0.0, "name": "99a03ad37f587c50faf79f743d15b235"}, {"type": "electric_scooter", "fusion_lon": 0.0, "bike_id": "a74d199704994c3b34b51dd5d2c2c4f0", "is_disabled": 0, "lat": 38.90244633333333, "rental_uris": {"ios": "https://dc.lft.to/lastmile_qr_scan", "android": "https://dc.lft.to/lastmile_qr_scan"}, "is_reserved": 0, "lon": -77.03753133333333, "fusion_lat": 0.0, "name": "a74d199704994c3b34b51dd5d2c2c4f0"}, {"type": "electric_scooter", "fusion_lon": 0.0, "bike_id": "90f2347e7220cd6bd6bd2677af0b7ac7", "is_disabled": 0, "lat": 38.9230805, "rental_uris": {"ios": "https://dc.lft.to/lastmile_qr_scan", "android": "https://dc.lft.to/lastmile_qr_scan"}, "is_reserved": 0, "lon": -77.03796983333334, "fusion_lat": 0.0, "name": "90f2347e7220cd6bd6bd2677af0b7ac7"}, {"type": "electric_scooter", "fusion_lon": 0.0, "bike_id": "d2889b630f4fdfdf45729aaef1e9fcb5", "is_disabled": 0, "lat": 38.923303, "rental_uris": {"ios": "https://dc.lft.to/lastmile_qr_scan", "android": "https://dc.lft.to/lastmile_qr_scan"}, "is_reserved": 0, "lon": -77.00046316666666, "fusion_lat": 0.0, "name": "d2889b630f4fdfdf45729aaef1e9fcb5"}, {"type": "electric_scooter", "fusion_lon": 0.0, "bike_id": "d126f3b7e5bfa04abe494ef517346965", "is_disabled": 0, "lat": 38.930595833333335, "rental_uris": {"ios": "https://dc.lft.to/lastmile_qr_scan", "android": "https://dc.lft.to/lastmile_qr_scan"}, "is_reserved": 0, "lon": -77.03211166666667, "fusion_lat": 0.0, "name": "d126f3b7e5bfa04abe494ef517346965"}, {"type": "electric_scooter", "fusion_lon": 0.0, "bike_id": "d92170d4892d67d7a239792f50b45f88", "is_disabled": 0, "lat": 38.91694966666667, "rental_uris": {"ios": "https://dc.lft.to/lastmile_qr_scan", "android": "https://dc.lft.to/lastmile_qr_scan"}, "is_reserved": 0, "lon": -77.03767133333334, "fusion_lat": 0.0, "name": "d92170d4892d67d7a239792f50b45f88"}, {"type": "electric_scooter", "fusion_lon": 0.0, "bike_id": "4b5e646617644ac658dfbd1f776ef55b", "is_disabled": 0, "lat": 38.909716333333336, "rental_uris": {"ios": "https://dc.lft.to/lastmile_qr_scan", "android": "https://dc.lft.to/lastmile_qr_scan"}, "is_reserved": 0, "lon": -77.04621683333333, "fusion_lat": 0.0, "name": "4b5e646617644ac658dfbd1f776ef55b"}, {"type": "electric_scooter", "fusion_lon": 0.0, "bike_id": "28d700a1e5dbda3408ca4ab792f7e1ac", "is_disabled": 0, "lat": 38.9000655, "rental_uris": {"ios": "https://dc.lft.to/lastmile_qr_scan", "android": "https://dc.lft.to/lastmile_qr_scan"}, "is_reserved": 0, "lon": -77.02164683333334, "fusion_lat": 0.0, "name": "28d700a1e5dbda3408ca4ab792f7e1ac"}, {"type": "electric_scooter", "fusion_lon": 0.0, "bike_id": "ab4b78b720af3d3e89a72e4d89a14407", "is_disabled": 0, "lat": 38.900273, "rental_uris": {"ios": "https://dc.lft.to/lastmile_qr_scan", "android": "https://dc.lft.to/lastmile_qr_scan"}, "is_reserved": 0, "lon": -77.04841866666666, "fusion_lat": 0.0, "name": "ab4b78b720af3d3e89a72e4d89a14407"}, {"type": "electric_scooter", "fusion_lon": 0.0, "bike_id": "707a7a7899e09d45a39d529c34f9a9dc", "is_disabled": 0, "lat": 38.918959, "rental_uris": {"ios": "https://dc.lft.to/lastmile_qr_scan", "android": "https://dc.lft.to/lastmile_qr_scan"}, "is_reserved": 0, "lon": -77.02479466666666, "fusion_lat": 0.0, "name": "707a7a7899e09d45a39d529c34f9a9dc"}, {"type": "electric_scooter", "fusion_lon": 0.0, "bike_id": "1592533e9b2c9c0ecfe167a5298918f7", "is_disabled": 0, "lat": 38.89960083333333, "rental_uris": {"ios": "https://dc.lft.to/lastmile_qr_scan", "android": "https://dc.lft.to/lastmile_qr_scan"}, "is_reserved": 0, "lon": -77.0162445, "fusion_lat": 0.0, "name": "1592533e9b2c9c0ecfe167a5298918f7"}, {"type": "electric_scooter", "fusion_lon": 0.0, "bike_id": "b579d9d943cbe11287573d67bcfc6330", "is_disabled": 0, "lat": 38.905362, "rental_uris": {"ios": "https://dc.lft.to/lastmile_qr_scan", "android": "https://dc.lft.to/lastmile_qr_scan"}, "is_reserved": 0, "lon": -77.0471985, "fusion_lat": 0.0, "name": "b579d9d943cbe11287573d67bcfc6330"}, {"type": "electric_scooter", "fusion_lon": 0.0, "bike_id": "beaa2a3cf4161030d97e705f4bb31be8", "is_disabled": 0, "lat": 38.899229, "rental_uris": {"ios": "https://dc.lft.to/lastmile_qr_scan", "android": "https://dc.lft.to/lastmile_qr_scan"}, "is_reserved": 0, "lon": -77.00338433333333, "fusion_lat": 0.0, "name": "beaa2a3cf4161030d97e705f4bb31be8"}, {"type": "electric_scooter", "fusion_lon": 0.0, "bike_id": "dea34dc10c2009ad7c1434522852c458", "is_disabled": 0, "lat": 38.90724783333334, "rental_uris": {"ios": "https://dc.lft.to/lastmile_qr_scan", "android": "https://dc.lft.to/lastmile_qr_scan"}, "is_reserved": 0, "lon": -77.04973333333334, "fusion_lat": 0.0, "name": "dea34dc10c2009ad7c1434522852c458"}, {"type": "electric_scooter", "fusion_lon": 0.0, "bike_id": "1921bb70508a678617a4af20c889c6bf", "is_disabled": 0, "lat": 38.905064, "rental_uris": {"ios": "https://dc.lft.to/lastmile_qr_scan", "android": "https://dc.lft.to/lastmile_qr_scan"}, "is_reserved": 0, "lon": -76.99183733333334, "fusion_lat": 0.0, "name": "1921bb70508a678617a4af20c889c6bf"}, {"type": "electric_scooter", "fusion_lon": 0.0, "bike_id": "5511c8a32b79c327468a19eb0d5beb5d", "is_disabled": 0, "lat": 38.929391333333335, "rental_uris": {"ios": "https://dc.lft.to/lastmile_qr_scan", "android": "https://dc.lft.to/lastmile_qr_scan"}, "is_reserved": 0, "lon": -77.01641383333333, "fusion_lat": 0.0, "name": "5511c8a32b79c327468a19eb0d5beb5d"}, {"type": "electric_bike", "fusion_lon": 0.0, "bike_id": "13c3227107bd0b07a5c68da517833b7f", "is_disabled": 0, "lat": 38.9447485, "rental_uris": {"ios": "https://dc.lft.to/lastmile_qr_scan", "android": "https://dc.lft.to/lastmile_qr_scan"}, "is_reserved": 0, "lon": -76.98688916666667, "fusion_lat": 0.0, "name": "13c3227107bd0b07a5c68da517833b7f"}, {"type": "electric_scooter", "fusion_lon": 0.0, "bike_id": "6d9125d803a2fc5ac58491982b2d8306", "is_disabled": 0, "lat": 38.89222066666667, "rental_uris": {"ios": "https://dc.lft.to/lastmile_qr_scan", "android": "https://dc.lft.to/lastmile_qr_scan"}, "is_reserved": 0, "lon": -77.013957, "fusion_lat": 0.0, "name": "6d9125d803a2fc5ac58491982b2d8306"}, {"type": "electric_scooter", "fusion_lon": 0.0, "bike_id": "e80af57c225529e170431ca1b64865b3", "is_disabled": 0, "lat": 38.914997666666665, "rental_uris": {"ios": "https://dc.lft.to/lastmile_qr_scan", "android": "https://dc.lft.to/lastmile_qr_scan"}, "is_reserved": 0, "lon": -77.0122605, "fusion_lat": 0.0, "name": "e80af57c225529e170431ca1b64865b3"}, {"type": "electric_scooter", "fusion_lon": 0.0, "bike_id": "32ff61116f6ce789301bdd4558bf1ab2", "is_disabled": 0, "lat": 38.906052333333335, "rental_uris": {"ios": "https://dc.lft.to/lastmile_qr_scan", "android": "https://dc.lft.to/lastmile_qr_scan"}, "is_reserved": 0, "lon": -77.04347766666666, "fusion_lat": 0.0, "name": "32ff61116f6ce789301bdd4558bf1ab2"}, {"type": "electric_bike", "fusion_lon": 0.0, "bike_id": "a881bf6c45d71fd94e37e2b9bdabb89d", "is_disabled": 0, "lat": 38.89810216666667, "rental_uris": {"ios": "https://dc.lft.to/lastmile_qr_scan", "android": "https://dc.lft.to/lastmile_qr_scan"}, "is_reserved": 0, "lon": -76.99065816666666, "fusion_lat": 0.0, "name": "a881bf6c45d71fd94e37e2b9bdabb89d"}, {"type": "electric_scooter", "fusion_lon": 0.0, "bike_id": "ff0658495fbc8d9d5753a11f0633661a", "is_disabled": 0, "lat": 38.92350616666667, "rental_uris": {"ios": "https://dc.lft.to/lastmile_qr_scan", "android": "https://dc.lft.to/lastmile_qr_scan"}, "is_reserved": 0, "lon": -77.03639566666666, "fusion_lat": 0.0, "name": "ff0658495fbc8d9d5753a11f0633661a"}, {"type": "electric_scooter", "fusion_lon": 0.0, "bike_id": "c060839958390a78b7928073982c2599", "is_disabled": 0, "lat": 38.9049435, "rental_uris": {"ios": "https://dc.lft.to/lastmile_qr_scan", "android": "https://dc.lft.to/lastmile_qr_scan"}, "is_reserved": 0, "lon": -77.02595433333333, "fusion_lat": 0.0, "name": "c060839958390a78b7928073982c2599"}, {"type": "electric_scooter", "fusion_lon": 0.0, "bike_id": "28216685fb9ab05b2be2dc93990782c9", "is_disabled": 0, "lat": 38.94901333333333, "rental_uris": {"ios": "https://dc.lft.to/lastmile_qr_scan", "android": "https://dc.lft.to/lastmile_qr_scan"}, "is_reserved": 0, "lon": -77.0238655, "fusion_lat": 0.0, "name": "28216685fb9ab05b2be2dc93990782c9"}, {"type": "electric_bike", "fusion_lon": 0.0, "bike_id": "feac1c7962439495617ef97d05dde308", "is_disabled": 0, "lat": 38.964732833333336, "rental_uris": {"ios": "https://dc.lft.to/lastmile_qr_scan", "android": "https://dc.lft.to/lastmile_qr_scan"}, "is_reserved": 0, "lon": -77.0356205, "fusion_lat": 0.0, "name": "feac1c7962439495617ef97d05dde308"}, {"type": "electric_bike", "fusion_lon": 0.0, "bike_id": "3e3f02865ebc19ec33a1ba468f5aa6b8", "is_disabled": 0, "lat": 38.89192166666667, "rental_uris": {"ios": "https://dc.lft.to/lastmile_qr_scan", "android": "https://dc.lft.to/lastmile_qr_scan"}, "is_reserved": 0, "lon": -76.99388516666667, "fusion_lat": 0.0, "name": "3e3f02865ebc19ec33a1ba468f5aa6b8"}, {"type": "electric_scooter", "fusion_lon": 0.0, "bike_id": "5f689ada7f9af56022d7d957528ebe48", "is_disabled": 0, "lat": 38.92339066666667, "rental_uris": {"ios": "https://dc.lft.to/lastmile_qr_scan", "android": "https://dc.lft.to/lastmile_qr_scan"}, "is_reserved": 0, "lon": -77.03611333333333, "fusion_lat": 0.0, "name": "5f689ada7f9af56022d7d957528ebe48"}, {"type": "electric_scooter", "fusion_lon": 0.0, "bike_id": "4dc2074b6065a7624c77fae885457e3f", "is_disabled": 0, "lat": 38.927888333333335, "rental_uris": {"ios": "https://dc.lft.to/lastmile_qr_scan", "android": "https://dc.lft.to/lastmile_qr_scan"}, "is_reserved": 0, "lon": -77.05422766666666, "fusion_lat": 0.0, "name": "4dc2074b6065a7624c77fae885457e3f"}, {"type": "electric_scooter", "fusion_lon": 0.0, "bike_id": "cdfdd1b785af05f6ef8583d65d7d3c05", "is_disabled": 0, "lat": 38.902669, "rental_uris": {"ios": "https://dc.lft.to/lastmile_qr_scan", "android": "https://dc.lft.to/lastmile_qr_scan"}, "is_reserved": 0, "lon": -77.0032625, "fusion_lat": 0.0, "name": "cdfdd1b785af05f6ef8583d65d7d3c05"}, {"type": "electric_scooter", "fusion_lon": 0.0, "bike_id": "08471755cb87ce50fe359d9a2d0b3733", "is_disabled": 0, "lat": 38.8922705, "rental_uris": {"ios": "https://dc.lft.to/lastmile_qr_scan", "android": "https://dc.lft.to/lastmile_qr_scan"}, "is_reserved": 0, "lon": -77.0465515, "fusion_lat": 0.0, "name": "08471755cb87ce50fe359d9a2d0b3733"}, {"type": "electric_scooter", "fusion_lon": 0.0, "bike_id": "7cfd9b034e3be860852a70736fbfd6ad", "is_disabled": 0, "lat": 38.93339616666667, "rental_uris": {"ios": "https://dc.lft.to/lastmile_qr_scan", "android": "https://dc.lft.to/lastmile_qr_scan"}, "is_reserved": 0, "lon": -77.038153, "fusion_lat": 0.0, "name": "7cfd9b034e3be860852a70736fbfd6ad"}, {"type": "electric_scooter", "fusion_lon": 0.0, "bike_id": "bbf72e11c014d3c045ecf1507f98763c", "is_disabled": 0, "lat": 38.8923845, "rental_uris": {"ios": "https://dc.lft.to/lastmile_qr_scan", "android": "https://dc.lft.to/lastmile_qr_scan"}, "is_reserved": 0, "lon": -77.032134, "fusion_lat": 0.0, "name": "bbf72e11c014d3c045ecf1507f98763c"}, {"type": "electric_scooter", "fusion_lon": 0.0, "bike_id": "16d4400038c62dfb6e4a68c4e9465063", "is_disabled": 0, "lat": 38.905761, "rental_uris": {"ios": "https://dc.lft.to/lastmile_qr_scan", "android": "https://dc.lft.to/lastmile_qr_scan"}, "is_reserved": 0, "lon": -77.03480266666666, "fusion_lat": 0.0, "name": "16d4400038c62dfb6e4a68c4e9465063"}, {"type": "electric_scooter", "fusion_lon": 0.0, "bike_id": "40246d12542c953ed23d4529ea6c361a", "is_disabled": 0, "lat": 38.920424, "rental_uris": {"ios": "https://dc.lft.to/lastmile_qr_scan", "android": "https://dc.lft.to/lastmile_qr_scan"}, "is_reserved": 0, "lon": -77.034422, "fusion_lat": 0.0, "name": "40246d12542c953ed23d4529ea6c361a"}, {"type": "electric_scooter", "fusion_lon": 0.0, "bike_id": "34e9a6a3622328e784c6c6a16308fc44", "is_disabled": 0, "lat": 38.9179335, "rental_uris": {"ios": "https://dc.lft.to/lastmile_qr_scan", "android": "https://dc.lft.to/lastmile_qr_scan"}, "is_reserved": 0, "lon": -77.03164566666666, "fusion_lat": 0.0, "name": "34e9a6a3622328e784c6c6a16308fc44"}, {"type": "electric_scooter", "fusion_lon": 0.0, "bike_id": "07aabc39c98a18a4556bb117d89c528b", "is_disabled": 0, "lat": 38.8922735, "rental_uris": {"ios": "https://dc.lft.to/lastmile_qr_scan", "android": "https://dc.lft.to/lastmile_qr_scan"}, "is_reserved": 0, "lon": -77.02827616666667, "fusion_lat": 0.0, "name": "07aabc39c98a18a4556bb117d89c528b"}, {"type": "electric_scooter", "fusion_lon": 0.0, "bike_id": "1b44498d652fcf53e9268edfcc747ef3", "is_disabled": 0, "lat": 38.8960635, "rental_uris": {"ios": "https://dc.lft.to/lastmile_qr_scan", "android": "https://dc.lft.to/lastmile_qr_scan"}, "is_reserved": 0, "lon": -76.9988575, "fusion_lat": 0.0, "name": "1b44498d652fcf53e9268edfcc747ef3"}, {"type": "electric_scooter", "fusion_lon": 0.0, "bike_id": "98422c2223a2b7d8788a6a8a4646186e", "is_disabled": 0, "lat": 38.913647166666664, "rental_uris": {"ios": "https://dc.lft.to/lastmile_qr_scan", "android": "https://dc.lft.to/lastmile_qr_scan"}, "is_reserved": 0, "lon": -77.022183, "fusion_lat": 0.0, "name": "98422c2223a2b7d8788a6a8a4646186e"}, {"type": "electric_scooter", "fusion_lon": 0.0, "bike_id": "a3dd85682b7506dd135fe771e6699307", "is_disabled": 0, "lat": 38.91640683333333, "rental_uris": {"ios": "https://dc.lft.to/lastmile_qr_scan", "android": "https://dc.lft.to/lastmile_qr_scan"}, "is_reserved": 0, "lon": -77.02268033333333, "fusion_lat": 0.0, "name": "a3dd85682b7506dd135fe771e6699307"}, {"type": "electric_scooter", "fusion_lon": 0.0, "bike_id": "ff87eeb32b545dff4392ec06901848e8", "is_disabled": 0, "lat": 38.911079666666666, "rental_uris": {"ios": "https://dc.lft.to/lastmile_qr_scan", "android": "https://dc.lft.to/lastmile_qr_scan"}, "is_reserved": 0, "lon": -77.011577, "fusion_lat": 0.0, "name": "ff87eeb32b545dff4392ec06901848e8"}, {"type": "electric_scooter", "fusion_lon": 0.0, "bike_id": "883d19f2938b129ebfbe5f6f95db641d", "is_disabled": 0, "lat": 38.95415583333333, "rental_uris": {"ios": "https://dc.lft.to/lastmile_qr_scan", "android": "https://dc.lft.to/lastmile_qr_scan"}, "is_reserved": 0, "lon": -77.01369883333334, "fusion_lat": 0.0, "name": "883d19f2938b129ebfbe5f6f95db641d"}, {"type": "electric_scooter", "fusion_lon": 0.0, "bike_id": "773f38c8854aabf41a6de1a319f895d1", "is_disabled": 0, "lat": 38.86541116666667, "rental_uris": {"ios": "https://dc.lft.to/lastmile_qr_scan", "android": "https://dc.lft.to/lastmile_qr_scan"}, "is_reserved": 0, "lon": -76.98709066666666, "fusion_lat": 0.0, "name": "773f38c8854aabf41a6de1a319f895d1"}, {"type": "electric_scooter", "fusion_lon": 0.0, "bike_id": "dc99d8237eb75578e9a304645ea48b32", "is_disabled": 0, "lat": 38.96609, "rental_uris": {"ios": "https://dc.lft.to/lastmile_qr_scan", "android": "https://dc.lft.to/lastmile_qr_scan"}, "is_reserved": 0, "lon": -77.02746966666666, "fusion_lat": 0.0, "name": "dc99d8237eb75578e9a304645ea48b32"}, {"type": "electric_scooter", "fusion_lon": 0.0, "bike_id": "bb2b77b6770f6ef02cd780940bfbce64", "is_disabled": 0, "lat": 38.939396333333335, "rental_uris": {"ios": "https://dc.lft.to/lastmile_qr_scan", "android": "https://dc.lft.to/lastmile_qr_scan"}, "is_reserved": 0, "lon": -77.07517616666667, "fusion_lat": 0.0, "name": "bb2b77b6770f6ef02cd780940bfbce64"}, {"type": "electric_scooter", "fusion_lon": 0.0, "bike_id": "46ec4d035d4220334544ffeceda30c5f", "is_disabled": 0, "lat": 38.8746785, "rental_uris": {"ios": "https://dc.lft.to/lastmile_qr_scan", "android": "https://dc.lft.to/lastmile_qr_scan"}, "is_reserved": 0, "lon": -77.00555283333334, "fusion_lat": 0.0, "name": "46ec4d035d4220334544ffeceda30c5f"}, {"type": "electric_scooter", "fusion_lon": 0.0, "bike_id": "0825c766db7958c627224811912fe18e", "is_disabled": 0, "lat": 38.9339965, "rental_uris": {"ios": "https://dc.lft.to/lastmile_qr_scan", "android": "https://dc.lft.to/lastmile_qr_scan"}, "is_reserved": 0, "lon": -77.0574385, "fusion_lat": 0.0, "name": "0825c766db7958c627224811912fe18e"}, {"type": "electric_scooter", "fusion_lon": 0.0, "bike_id": "e8aaddeeac035675c73950a9744e4623", "is_disabled": 0, "lat": 38.91878483333333, "rental_uris": {"ios": "https://dc.lft.to/lastmile_qr_scan", "android": "https://dc.lft.to/lastmile_qr_scan"}, "is_reserved": 0, "lon": -77.035695, "fusion_lat": 0.0, "name": "e8aaddeeac035675c73950a9744e4623"}, {"type": "electric_scooter", "fusion_lon": 0.0, "bike_id": "eb60adbe0c7161e674e27b3c8488c881", "is_disabled": 0, "lat": 38.8626945, "rental_uris": {"ios": "https://dc.lft.to/lastmile_qr_scan", "android": "https://dc.lft.to/lastmile_qr_scan"}, "is_reserved": 0, "lon": -76.99529066666666, "fusion_lat": 0.0, "name": "eb60adbe0c7161e674e27b3c8488c881"}, {"type": "electric_scooter", "fusion_lon": 0.0, "bike_id": "194f857c1de1f0b362ddbcef1233a6f4", "is_disabled": 0, "lat": 38.916824166666665, "rental_uris": {"ios": "https://dc.lft.to/lastmile_qr_scan", "android": "https://dc.lft.to/lastmile_qr_scan"}, "is_reserved": 0, "lon": -77.02522316666666, "fusion_lat": 0.0, "name": "194f857c1de1f0b362ddbcef1233a6f4"}, {"type": "electric_scooter", "fusion_lon": 0.0, "bike_id": "79c4fbf5a38fec3ad5a0736d807116a8", "is_disabled": 0, "lat": 38.87469016666667, "rental_uris": {"ios": "https://dc.lft.to/lastmile_qr_scan", "android": "https://dc.lft.to/lastmile_qr_scan"}, "is_reserved": 0, "lon": -77.005321, "fusion_lat": 0.0, "name": "79c4fbf5a38fec3ad5a0736d807116a8"}, {"type": "electric_scooter", "fusion_lon": 0.0, "bike_id": "755e57b59d6bcaa916b7ee67652b60f2", "is_disabled": 0, "lat": 38.8872645, "rental_uris": {"ios": "https://dc.lft.to/lastmile_qr_scan", "android": "https://dc.lft.to/lastmile_qr_scan"}, "is_reserved": 0, "lon": -76.9835355, "fusion_lat": 0.0, "name": "755e57b59d6bcaa916b7ee67652b60f2"}, {"type": "electric_scooter", "fusion_lon": 0.0, "bike_id": "a48527310cd5f325fa16aeb039413b92", "is_disabled": 0, "lat": 38.952774833333336, "rental_uris": {"ios": "https://dc.lft.to/lastmile_qr_scan", "android": "https://dc.lft.to/lastmile_qr_scan"}, "is_reserved": 0, "lon": -77.068786, "fusion_lat": 0.0, "name": "a48527310cd5f325fa16aeb039413b92"}, {"type": "electric_scooter", "fusion_lon": 0.0, "bike_id": "63c4e483c691d9d9e0a5449102c95568", "is_disabled": 0, "lat": 38.926085666666665, "rental_uris": {"ios": "https://dc.lft.to/lastmile_qr_scan", "android": "https://dc.lft.to/lastmile_qr_scan"}, "is_reserved": 0, "lon": -77.03958616666667, "fusion_lat": 0.0, "name": "63c4e483c691d9d9e0a5449102c95568"}, {"type": "electric_scooter", "fusion_lon": 0.0, "bike_id": "2a9e12aebea544db8dacd47078454886", "is_disabled": 0, "lat": 38.917964833333336, "rental_uris": {"ios": "https://dc.lft.to/lastmile_qr_scan", "android": "https://dc.lft.to/lastmile_qr_scan"}, "is_reserved": 0, "lon": -77.0321185, "fusion_lat": 0.0, "name": "2a9e12aebea544db8dacd47078454886"}, {"type": "electric_scooter", "fusion_lon": 0.0, "bike_id": "0e695c76d350990b40e619d3100d2caf", "is_disabled": 0, "lat": 38.887146, "rental_uris": {"ios": "https://dc.lft.to/lastmile_qr_scan", "android": "https://dc.lft.to/lastmile_qr_scan"}, "is_reserved": 0, "lon": -77.0220235, "fusion_lat": 0.0, "name": "0e695c76d350990b40e619d3100d2caf"}, {"type": "electric_scooter", "fusion_lon": 0.0, "bike_id": "c92fdd671c751ac578af36087d72e7aa", "is_disabled": 0, "lat": 38.89531433333333, "rental_uris": {"ios": "https://dc.lft.to/lastmile_qr_scan", "android": "https://dc.lft.to/lastmile_qr_scan"}, "is_reserved": 0, "lon": -76.9492065, "fusion_lat": 0.0, "name": "c92fdd671c751ac578af36087d72e7aa"}, {"type": "electric_bike", "fusion_lon": 0.0, "bike_id": "cf4dbd873cb1fb11fbc1af5ad693e971", "is_disabled": 0, "lat": 38.96529566666667, "rental_uris": {"ios": "https://dc.lft.to/lastmile_qr_scan", "android": "https://dc.lft.to/lastmile_qr_scan"}, "is_reserved": 0, "lon": -77.02815333333334, "fusion_lat": 0.0, "name": "cf4dbd873cb1fb11fbc1af5ad693e971"}, {"type": "electric_scooter", "fusion_lon": 0.0, "bike_id": "0d26fe6db5a8c05d10fdf06822fedf9d", "is_disabled": 0, "lat": 38.90008983333333, "rental_uris": {"ios": "https://dc.lft.to/lastmile_qr_scan", "android": "https://dc.lft.to/lastmile_qr_scan"}, "is_reserved": 0, "lon": -77.00396233333333, "fusion_lat": 0.0, "name": "0d26fe6db5a8c05d10fdf06822fedf9d"}, {"type": "electric_scooter", "fusion_lon": 0.0, "bike_id": "d33148f946a824891ac668d8a683ae42", "is_disabled": 0, "lat": 38.922617833333334, "rental_uris": {"ios": "https://dc.lft.to/lastmile_qr_scan", "android": "https://dc.lft.to/lastmile_qr_scan"}, "is_reserved": 0, "lon": -77.01954416666666, "fusion_lat": 0.0, "name": "d33148f946a824891ac668d8a683ae42"}, {"type": "electric_scooter", "fusion_lon": 0.0, "bike_id": "fb2dd9a5e94d9036721dc8e0712c98ae", "is_disabled": 0, "lat": 38.9328435, "rental_uris": {"ios": "https://dc.lft.to/lastmile_qr_scan", "android": "https://dc.lft.to/lastmile_qr_scan"}, "is_reserved": 0, "lon": -77.0251215, "fusion_lat": 0.0, "name": "fb2dd9a5e94d9036721dc8e0712c98ae"}, {"type": "electric_scooter", "fusion_lon": 0.0, "bike_id": "7b7f0e52e4252b665aa13bacf01a53a0", "is_disabled": 0, "lat": 38.905024, "rental_uris": {"ios": "https://dc.lft.to/lastmile_qr_scan", "android": "https://dc.lft.to/lastmile_qr_scan"}, "is_reserved": 0, "lon": -77.064688, "fusion_lat": 0.0, "name": "7b7f0e52e4252b665aa13bacf01a53a0"}, {"type": "electric_scooter", "fusion_lon": 0.0, "bike_id": "4a41fdc91e802125b81170cf00501d7e", "is_disabled": 0, "lat": 38.90153133333333, "rental_uris": {"ios": "https://dc.lft.to/lastmile_qr_scan", "android": "https://dc.lft.to/lastmile_qr_scan"}, "is_reserved": 0, "lon": -77.04076483333333, "fusion_lat": 0.0, "name": "4a41fdc91e802125b81170cf00501d7e"}, {"type": "electric_scooter", "fusion_lon": 0.0, "bike_id": "c596ed3eca6985c23fca58363cd3ad85", "is_disabled": 0, "lat": 38.90565083333333, "rental_uris": {"ios": "https://dc.lft.to/lastmile_qr_scan", "android": "https://dc.lft.to/lastmile_qr_scan"}, "is_reserved": 0, "lon": -77.04456916666666, "fusion_lat": 0.0, "name": "c596ed3eca6985c23fca58363cd3ad85"}, {"type": "electric_scooter", "fusion_lon": 0.0, "bike_id": "842ed7b4cb111405c21f02c025232c15", "is_disabled": 0, "lat": 38.923471666666664, "rental_uris": {"ios": "https://dc.lft.to/lastmile_qr_scan", "android": "https://dc.lft.to/lastmile_qr_scan"}, "is_reserved": 0, "lon": -77.03640433333334, "fusion_lat": 0.0, "name": "842ed7b4cb111405c21f02c025232c15"}, {"type": "electric_scooter", "fusion_lon": 0.0, "bike_id": "27983b4d1778366281ca8729436bfebc", "is_disabled": 0, "lat": 38.91403, "rental_uris": {"ios": "https://dc.lft.to/lastmile_qr_scan", "android": "https://dc.lft.to/lastmile_qr_scan"}, "is_reserved": 0, "lon": -77.06418266666667, "fusion_lat": 0.0, "name": "27983b4d1778366281ca8729436bfebc"}, {"type": "electric_scooter", "fusion_lon": 0.0, "bike_id": "25d24f3e3e45b08893ec9a98f09b6545", "is_disabled": 0, "lat": 38.916619833333336, "rental_uris": {"ios": "https://dc.lft.to/lastmile_qr_scan", "android": "https://dc.lft.to/lastmile_qr_scan"}, "is_reserved": 0, "lon": -77.04389466666667, "fusion_lat": 0.0, "name": "25d24f3e3e45b08893ec9a98f09b6545"}, {"type": "electric_scooter", "fusion_lon": 0.0, "bike_id": "064c5773b4225cad4fe7d766e44b166f", "is_disabled": 0, "lat": 38.922630166666664, "rental_uris": {"ios": "https://dc.lft.to/lastmile_qr_scan", "android": "https://dc.lft.to/lastmile_qr_scan"}, "is_reserved": 0, "lon": -77.02963733333333, "fusion_lat": 0.0, "name": "064c5773b4225cad4fe7d766e44b166f"}, {"type": "electric_scooter", "fusion_lon": 0.0, "bike_id": "edc07db6eed484126bca43744f8583ec", "is_disabled": 0, "lat": 38.94831083333333, "rental_uris": {"ios": "https://dc.lft.to/lastmile_qr_scan", "android": "https://dc.lft.to/lastmile_qr_scan"}, "is_reserved": 0, "lon": -77.02464616666667, "fusion_lat": 0.0, "name": "edc07db6eed484126bca43744f8583ec"}, {"type": "electric_scooter", "fusion_lon": 0.0, "bike_id": "48dd1fcf3dfe81f9ea2e14deccdb9a9d", "is_disabled": 0, "lat": 38.916497, "rental_uris": {"ios": "https://dc.lft.to/lastmile_qr_scan", "android": "https://dc.lft.to/lastmile_qr_scan"}, "is_reserved": 0, "lon": -77.02180933333334, "fusion_lat": 0.0, "name": "48dd1fcf3dfe81f9ea2e14deccdb9a9d"}, {"type": "electric_scooter", "fusion_lon": 0.0, "bike_id": "a0a9ce0f23b6687c7179eb0206085bd6", "is_disabled": 0, "lat": 38.91531283333333, "rental_uris": {"ios": "https://dc.lft.to/lastmile_qr_scan", "android": "https://dc.lft.to/lastmile_qr_scan"}, "is_reserved": 0, "lon": -77.044443, "fusion_lat": 0.0, "name": "a0a9ce0f23b6687c7179eb0206085bd6"}, {"type": "electric_scooter", "fusion_lon": 0.0, "bike_id": "0dd073af66998f87a75de14a04167913", "is_disabled": 0, "lat": 38.91529933333333, "rental_uris": {"ios": "https://dc.lft.to/lastmile_qr_scan", "android": "https://dc.lft.to/lastmile_qr_scan"}, "is_reserved": 0, "lon": -77.04440916666667, "fusion_lat": 0.0, "name": "0dd073af66998f87a75de14a04167913"}, {"type": "electric_scooter", "fusion_lon": 0.0, "bike_id": "fb8856c7034dd1b59f273a2c1af4cc15", "is_disabled": 0, "lat": 38.966092833333335, "rental_uris": {"ios": "https://dc.lft.to/lastmile_qr_scan", "android": "https://dc.lft.to/lastmile_qr_scan"}, "is_reserved": 0, "lon": -77.0275115, "fusion_lat": 0.0, "name": "fb8856c7034dd1b59f273a2c1af4cc15"}, {"type": "electric_scooter", "fusion_lon": 0.0, "bike_id": "f85f0043239a499868597e48266563ba", "is_disabled": 0, "lat": 38.938491166666665, "rental_uris": {"ios": "https://dc.lft.to/lastmile_qr_scan", "android": "https://dc.lft.to/lastmile_qr_scan"}, "is_reserved": 0, "lon": -77.07233183333334, "fusion_lat": 0.0, "name": "f85f0043239a499868597e48266563ba"}, {"type": "electric_scooter", "fusion_lon": 0.0, "bike_id": "cc7e1f7f43429da2ef59a2a68d44d5bf", "is_disabled": 0, "lat": 38.923238166666664, "rental_uris": {"ios": "https://dc.lft.to/lastmile_qr_scan", "android": "https://dc.lft.to/lastmile_qr_scan"}, "is_reserved": 0, "lon": -77.05676766666667, "fusion_lat": 0.0, "name": "cc7e1f7f43429da2ef59a2a68d44d5bf"}, {"type": "electric_scooter", "fusion_lon": 0.0, "bike_id": "b487bcc014be85af8cb06076bf91f739", "is_disabled": 0, "lat": 38.93633416666667, "rental_uris": {"ios": "https://dc.lft.to/lastmile_qr_scan", "android": "https://dc.lft.to/lastmile_qr_scan"}, "is_reserved": 0, "lon": -77.07261266666667, "fusion_lat": 0.0, "name": "b487bcc014be85af8cb06076bf91f739"}, {"type": "electric_scooter", "fusion_lon": 0.0, "bike_id": "65c862a9b12692e72af7090596a7a88a", "is_disabled": 0, "lat": 38.89629816666667, "rental_uris": {"ios": "https://dc.lft.to/lastmile_qr_scan", "android": "https://dc.lft.to/lastmile_qr_scan"}, "is_reserved": 0, "lon": -77.0502425, "fusion_lat": 0.0, "name": "65c862a9b12692e72af7090596a7a88a"}, {"type": "electric_scooter", "fusion_lon": 0.0, "bike_id": "d3e8c7b30daec1ed78a25a8707e53030", "is_disabled": 0, "lat": 38.8611835, "rental_uris": {"ios": "https://dc.lft.to/lastmile_qr_scan", "android": "https://dc.lft.to/lastmile_qr_scan"}, "is_reserved": 0, "lon": -76.988991, "fusion_lat": 0.0, "name": "d3e8c7b30daec1ed78a25a8707e53030"}, {"type": "electric_bike", "fusion_lon": 0.0, "bike_id": "8aea7a5e1ad930177a31fd0ddc407dce", "is_disabled": 0, "lat": 38.908622333333334, "rental_uris": {"ios": "https://dc.lft.to/lastmile_qr_scan", "android": "https://dc.lft.to/lastmile_qr_scan"}, "is_reserved": 0, "lon": -77.08070983333333, "fusion_lat": 0.0, "name": "8aea7a5e1ad930177a31fd0ddc407dce"}, {"type": "electric_bike", "fusion_lon": 0.0, "bike_id": "928d7124ca14da123689c4696fb40261", "is_disabled": 0, "lat": 39.00031116666667, "rental_uris": {"ios": "https://dc.lft.to/lastmile_qr_scan", "android": "https://dc.lft.to/lastmile_qr_scan"}, "is_reserved": 0, "lon": -77.04744483333333, "fusion_lat": 0.0, "name": "928d7124ca14da123689c4696fb40261"}, {"type": "electric_scooter", "fusion_lon": 0.0, "bike_id": "82d93173939039177b1e0cf056165e88", "is_disabled": 0, "lat": 38.887701, "rental_uris": {"ios": "https://dc.lft.to/lastmile_qr_scan", "android": "https://dc.lft.to/lastmile_qr_scan"}, "is_reserved": 0, "lon": -77.0332315, "fusion_lat": 0.0, "name": "82d93173939039177b1e0cf056165e88"}, {"type": "electric_scooter", "fusion_lon": 0.0, "bike_id": "5798ef6f0d98e6e45c158c2d23332b4c", "is_disabled": 0, "lat": 38.837891666666664, "rental_uris": {"ios": "https://dc.lft.to/lastmile_qr_scan", "android": "https://dc.lft.to/lastmile_qr_scan"}, "is_reserved": 0, "lon": -77.00449883333333, "fusion_lat": 0.0, "name": "5798ef6f0d98e6e45c158c2d23332b4c"}, {"type": "electric_scooter", "fusion_lon": 0.0, "bike_id": "1e4e6aa1bc24dd4c7b35e608641d9aca", "is_disabled": 0, "lat": 38.93892, "rental_uris": {"ios": "https://dc.lft.to/lastmile_qr_scan", "android": "https://dc.lft.to/lastmile_qr_scan"}, "is_reserved": 0, "lon": -77.02484516666667, "fusion_lat": 0.0, "name": "1e4e6aa1bc24dd4c7b35e608641d9aca"}, {"type": "electric_bike", "fusion_lon": 0.0, "bike_id": "1b5ea6eaa7362956b9264ced73e61204", "is_disabled": 0, "lat": 38.90602716666667, "rental_uris": {"ios": "https://dc.lft.to/lastmile_qr_scan", "android": "https://dc.lft.to/lastmile_qr_scan"}, "is_reserved": 0, "lon": -77.07065783333333, "fusion_lat": 0.0, "name": "1b5ea6eaa7362956b9264ced73e61204"}, {"type": "electric_scooter", "fusion_lon": 0.0, "bike_id": "fa799a4707fc771dabbbb714cd0f1b6a", "is_disabled": 0, "lat": 38.892224, "rental_uris": {"ios": "https://dc.lft.to/lastmile_qr_scan", "android": "https://dc.lft.to/lastmile_qr_scan"}, "is_reserved": 0, "lon": -77.04333066666666, "fusion_lat": 0.0, "name": "fa799a4707fc771dabbbb714cd0f1b6a"}, {"type": "electric_scooter", "fusion_lon": 0.0, "bike_id": "8c19974bd99876d1ca5f71a9e0bbb25d", "is_disabled": 0, "lat": 38.923459333333334, "rental_uris": {"ios": "https://dc.lft.to/lastmile_qr_scan", "android": "https://dc.lft.to/lastmile_qr_scan"}, "is_reserved": 0, "lon": -77.03644016666667, "fusion_lat": 0.0, "name": "8c19974bd99876d1ca5f71a9e0bbb25d"}, {"type": "electric_scooter", "fusion_lon": 0.0, "bike_id": "e459c0610202e75a140541fcd9adbb04", "is_disabled": 0, "lat": 38.92147583333333, "rental_uris": {"ios": "https://dc.lft.to/lastmile_qr_scan", "android": "https://dc.lft.to/lastmile_qr_scan"}, "is_reserved": 0, "lon": -77.03513166666667, "fusion_lat": 0.0, "name": "e459c0610202e75a140541fcd9adbb04"}, {"type": "electric_scooter", "fusion_lon": 0.0, "bike_id": "326c208a24045a7d141ee2e0627039de", "is_disabled": 0, "lat": 38.879182666666665, "rental_uris": {"ios": "https://dc.lft.to/lastmile_qr_scan", "android": "https://dc.lft.to/lastmile_qr_scan"}, "is_reserved": 0, "lon": -77.0087875, "fusion_lat": 0.0, "name": "326c208a24045a7d141ee2e0627039de"}, {"type": "electric_scooter", "fusion_lon": 0.0, "bike_id": "1445cac767d75aa2f6e8fcfc37cbbd13", "is_disabled": 0, "lat": 38.89771266666666, "rental_uris": {"ios": "https://dc.lft.to/lastmile_qr_scan", "android": "https://dc.lft.to/lastmile_qr_scan"}, "is_reserved": 0, "lon": -77.027308, "fusion_lat": 0.0, "name": "1445cac767d75aa2f6e8fcfc37cbbd13"}, {"type": "electric_bike", "fusion_lon": 0.0, "bike_id": "9d221f8b04265cce4c4542663ed95e0d", "is_disabled": 0, "lat": 38.89618516666667, "rental_uris": {"ios": "https://dc.lft.to/lastmile_qr_scan", "android": "https://dc.lft.to/lastmile_qr_scan"}, "is_reserved": 0, "lon": -76.907394, "fusion_lat": 0.0, "name": "9d221f8b04265cce4c4542663ed95e0d"}, {"type": "electric_scooter", "fusion_lon": 0.0, "bike_id": "d563fcb27d91a655e54f7d7969918db2", "is_disabled": 0, "lat": 38.96078383333333, "rental_uris": {"ios": "https://dc.lft.to/lastmile_qr_scan", "android": "https://dc.lft.to/lastmile_qr_scan"}, "is_reserved": 0, "lon": -77.028733, "fusion_lat": 0.0, "name": "d563fcb27d91a655e54f7d7969918db2"}, {"type": "electric_scooter", "fusion_lon": 0.0, "bike_id": "ef1f7607e5f79aec0d3ccc9c60d663bd", "is_disabled": 0, "lat": 38.92066716666667, "rental_uris": {"ios": "https://dc.lft.to/lastmile_qr_scan", "android": "https://dc.lft.to/lastmile_qr_scan"}, "is_reserved": 0, "lon": -77.03269066666667, "fusion_lat": 0.0, "name": "ef1f7607e5f79aec0d3ccc9c60d663bd"}, {"type": "electric_scooter", "fusion_lon": 0.0, "bike_id": "bb7e280da48ed537d634c45c7d021220", "is_disabled": 0, "lat": 38.924566, "rental_uris": {"ios": "https://dc.lft.to/lastmile_qr_scan", "android": "https://dc.lft.to/lastmile_qr_scan"}, "is_reserved": 0, "lon": -77.057522, "fusion_lat": 0.0, "name": "bb7e280da48ed537d634c45c7d021220"}, {"type": "electric_scooter", "fusion_lon": 0.0, "bike_id": "174d9eb96342f2351fe2fb9bd06f63b3", "is_disabled": 0, "lat": 38.859888833333336, "rental_uris": {"ios": "https://dc.lft.to/lastmile_qr_scan", "android": "https://dc.lft.to/lastmile_qr_scan"}, "is_reserved": 0, "lon": -76.99650083333333, "fusion_lat": 0.0, "name": "174d9eb96342f2351fe2fb9bd06f63b3"}, {"type": "electric_scooter", "fusion_lon": 0.0, "bike_id": "6aa11fd6485af2fd3dea63abc4789b02", "is_disabled": 0, "lat": 38.920653333333334, "rental_uris": {"ios": "https://dc.lft.to/lastmile_qr_scan", "android": "https://dc.lft.to/lastmile_qr_scan"}, "is_reserved": 0, "lon": -77.02491733333333, "fusion_lat": 0.0, "name": "6aa11fd6485af2fd3dea63abc4789b02"}, {"type": "electric_bike", "fusion_lon": 0.0, "bike_id": "73d5f6268a32b4ac1e347d6ba8f107b7", "is_disabled": 0, "lat": 38.845087166666666, "rental_uris": {"ios": "https://dc.lft.to/lastmile_qr_scan", "android": "https://dc.lft.to/lastmile_qr_scan"}, "is_reserved": 0, "lon": -76.98809016666667, "fusion_lat": 0.0, "name": "73d5f6268a32b4ac1e347d6ba8f107b7"}, {"type": "electric_scooter", "fusion_lon": 0.0, "bike_id": "1d4c4441d4cefa935a50af48a2dba11e", "is_disabled": 0, "lat": 38.923708, "rental_uris": {"ios": "https://dc.lft.to/lastmile_qr_scan", "android": "https://dc.lft.to/lastmile_qr_scan"}, "is_reserved": 0, "lon": -77.01982133333334, "fusion_lat": 0.0, "name": "1d4c4441d4cefa935a50af48a2dba11e"}, {"type": "electric_scooter", "fusion_lon": 0.0, "bike_id": "51d8a1ed5316a254765f9b95d117476b", "is_disabled": 0, "lat": 38.90788083333333, "rental_uris": {"ios": "https://dc.lft.to/lastmile_qr_scan", "android": "https://dc.lft.to/lastmile_qr_scan"}, "is_reserved": 0, "lon": -77.0641715, "fusion_lat": 0.0, "name": "51d8a1ed5316a254765f9b95d117476b"}, {"type": "electric_scooter", "fusion_lon": 0.0, "bike_id": "c9703d8760733b4c16f57a5db66a31ec", "is_disabled": 0, "lat": 38.9224185, "rental_uris": {"ios": "https://dc.lft.to/lastmile_qr_scan", "android": "https://dc.lft.to/lastmile_qr_scan"}, "is_reserved": 0, "lon": -77.04266466666667, "fusion_lat": 0.0, "name": "c9703d8760733b4c16f57a5db66a31ec"}, {"type": "electric_scooter", "fusion_lon": 0.0, "bike_id": "a157cb785ba32fa743fbc8a2c2666971", "is_disabled": 0, "lat": 38.924839666666664, "rental_uris": {"ios": "https://dc.lft.to/lastmile_qr_scan", "android": "https://dc.lft.to/lastmile_qr_scan"}, "is_reserved": 0, "lon": -77.0255215, "fusion_lat": 0.0, "name": "a157cb785ba32fa743fbc8a2c2666971"}, {"type": "electric_scooter", "fusion_lon": 0.0, "bike_id": "9466176d53d4e64ba45f81ffa6ac2429", "is_disabled": 0, "lat": 38.92605833333333, "rental_uris": {"ios": "https://dc.lft.to/lastmile_qr_scan", "android": "https://dc.lft.to/lastmile_qr_scan"}, "is_reserved": 0, "lon": -77.03213, "fusion_lat": 0.0, "name": "9466176d53d4e64ba45f81ffa6ac2429"}, {"type": "electric_scooter", "fusion_lon": 0.0, "bike_id": "601a0fe0fee5de56d274938c3cd48f29", "is_disabled": 0, "lat": 38.905159833333336, "rental_uris": {"ios": "https://dc.lft.to/lastmile_qr_scan", "android": "https://dc.lft.to/lastmile_qr_scan"}, "is_reserved": 0, "lon": -77.00207183333333, "fusion_lat": 0.0, "name": "601a0fe0fee5de56d274938c3cd48f29"}, {"type": "electric_scooter", "fusion_lon": 0.0, "bike_id": "94b323a46f86f5db3fc35a654bd4a0f2", "is_disabled": 0, "lat": 38.916198333333334, "rental_uris": {"ios": "https://dc.lft.to/lastmile_qr_scan", "android": "https://dc.lft.to/lastmile_qr_scan"}, "is_reserved": 0, "lon": -77.03180316666666, "fusion_lat": 0.0, "name": "94b323a46f86f5db3fc35a654bd4a0f2"}, {"type": "electric_scooter", "fusion_lon": 0.0, "bike_id": "65f9f78ca43929ebda569563a6afabc2", "is_disabled": 0, "lat": 38.91597266666667, "rental_uris": {"ios": "https://dc.lft.to/lastmile_qr_scan", "android": "https://dc.lft.to/lastmile_qr_scan"}, "is_reserved": 0, "lon": -77.03205033333333, "fusion_lat": 0.0, "name": "65f9f78ca43929ebda569563a6afabc2"}, {"type": "electric_scooter", "fusion_lon": 0.0, "bike_id": "4fa816747b624f32969f2685387153c3", "is_disabled": 0, "lat": 38.96136533333333, "rental_uris": {"ios": "https://dc.lft.to/lastmile_qr_scan", "android": "https://dc.lft.to/lastmile_qr_scan"}, "is_reserved": 0, "lon": -77.0280195, "fusion_lat": 0.0, "name": "4fa816747b624f32969f2685387153c3"}, {"type": "electric_scooter", "fusion_lon": 0.0, "bike_id": "6666f52e4dd560120ced2ba947a4978d", "is_disabled": 0, "lat": 38.91810666666667, "rental_uris": {"ios": "https://dc.lft.to/lastmile_qr_scan", "android": "https://dc.lft.to/lastmile_qr_scan"}, "is_reserved": 0, "lon": -77.04539033333333, "fusion_lat": 0.0, "name": "6666f52e4dd560120ced2ba947a4978d"}, {"type": "electric_scooter", "fusion_lon": 0.0, "bike_id": "b06918eb6e3dd7cab3dcfeff72405713", "is_disabled": 0, "lat": 38.920303833333335, "rental_uris": {"ios": "https://dc.lft.to/lastmile_qr_scan", "android": "https://dc.lft.to/lastmile_qr_scan"}, "is_reserved": 0, "lon": -77.0408155, "fusion_lat": 0.0, "name": "b06918eb6e3dd7cab3dcfeff72405713"}, {"type": "electric_scooter", "fusion_lon": 0.0, "bike_id": "0ee116f3315ad4731512c7d810ff2792", "is_disabled": 0, "lat": 38.92265166666667, "rental_uris": {"ios": "https://dc.lft.to/lastmile_qr_scan", "android": "https://dc.lft.to/lastmile_qr_scan"}, "is_reserved": 0, "lon": -77.02243516666667, "fusion_lat": 0.0, "name": "0ee116f3315ad4731512c7d810ff2792"}, {"type": "electric_scooter", "fusion_lon": 0.0, "bike_id": "14f8d12f7c35916c33eaaa330caefece", "is_disabled": 0, "lat": 38.94193466666667, "rental_uris": {"ios": "https://dc.lft.to/lastmile_qr_scan", "android": "https://dc.lft.to/lastmile_qr_scan"}, "is_reserved": 0, "lon": -77.0251965, "fusion_lat": 0.0, "name": "14f8d12f7c35916c33eaaa330caefece"}, {"type": "electric_scooter", "fusion_lon": 0.0, "bike_id": "70280e1e06b89b23797d8d62c9efea56", "is_disabled": 0, "lat": 38.90371316666667, "rental_uris": {"ios": "https://dc.lft.to/lastmile_qr_scan", "android": "https://dc.lft.to/lastmile_qr_scan"}, "is_reserved": 0, "lon": -77.0020585, "fusion_lat": 0.0, "name": "70280e1e06b89b23797d8d62c9efea56"}, {"type": "electric_scooter", "fusion_lon": 0.0, "bike_id": "f25b0611c016d5857fd6ca677e22cb3f", "is_disabled": 0, "lat": 38.9057405, "rental_uris": {"ios": "https://dc.lft.to/lastmile_qr_scan", "android": "https://dc.lft.to/lastmile_qr_scan"}, "is_reserved": 0, "lon": -77.0446035, "fusion_lat": 0.0, "name": "f25b0611c016d5857fd6ca677e22cb3f"}, {"type": "electric_scooter", "fusion_lon": 0.0, "bike_id": "78e4c2851f3d1898a92c30e049e9c3a4", "is_disabled": 0, "lat": 38.910434, "rental_uris": {"ios": "https://dc.lft.to/lastmile_qr_scan", "android": "https://dc.lft.to/lastmile_qr_scan"}, "is_reserved": 0, "lon": -77.07553516666667, "fusion_lat": 0.0, "name": "78e4c2851f3d1898a92c30e049e9c3a4"}, {"type": "electric_scooter", "fusion_lon": 0.0, "bike_id": "78ff07c3985a68efe0203c31cb27c312", "is_disabled": 0, "lat": 38.96396166666667, "rental_uris": {"ios": "https://dc.lft.to/lastmile_qr_scan", "android": "https://dc.lft.to/lastmile_qr_scan"}, "is_reserved": 0, "lon": -77.02595, "fusion_lat": 0.0, "name": "78ff07c3985a68efe0203c31cb27c312"}, {"type": "electric_scooter", "fusion_lon": 0.0, "bike_id": "8101512c20d54e6b0474bd32ac4898d7", "is_disabled": 0, "lat": 38.876383, "rental_uris": {"ios": "https://dc.lft.to/lastmile_qr_scan", "android": "https://dc.lft.to/lastmile_qr_scan"}, "is_reserved": 0, "lon": -76.997998, "fusion_lat": 0.0, "name": "8101512c20d54e6b0474bd32ac4898d7"}, {"type": "electric_bike", "fusion_lon": 0.0, "bike_id": "dcc17d44b1068e5d573d1b81848aea0d", "is_disabled": 0, "lat": 38.9804475, "rental_uris": {"ios": "https://dc.lft.to/lastmile_qr_scan", "android": "https://dc.lft.to/lastmile_qr_scan"}, "is_reserved": 0, "lon": -76.957925, "fusion_lat": 0.0, "name": "dcc17d44b1068e5d573d1b81848aea0d"}, {"type": "electric_scooter", "fusion_lon": 0.0, "bike_id": "58191f831f2cc05f6e5651d9c9cd7c42", "is_disabled": 0, "lat": 38.956300166666665, "rental_uris": {"ios": "https://dc.lft.to/lastmile_qr_scan", "android": "https://dc.lft.to/lastmile_qr_scan"}, "is_reserved": 0, "lon": -77.070159, "fusion_lat": 0.0, "name": "58191f831f2cc05f6e5651d9c9cd7c42"}, {"type": "electric_scooter", "fusion_lon": 0.0, "bike_id": "98860a7be62a09a0d073c59f798c8df9", "is_disabled": 0, "lat": 38.904822333333335, "rental_uris": {"ios": "https://dc.lft.to/lastmile_qr_scan", "android": "https://dc.lft.to/lastmile_qr_scan"}, "is_reserved": 0, "lon": -77.0345295, "fusion_lat": 0.0, "name": "98860a7be62a09a0d073c59f798c8df9"}, {"type": "electric_scooter", "fusion_lon": 0.0, "bike_id": "dca75184ac762fdb8b6689b08de525a9", "is_disabled": 0, "lat": 38.915068833333336, "rental_uris": {"ios": "https://dc.lft.to/lastmile_qr_scan", "android": "https://dc.lft.to/lastmile_qr_scan"}, "is_reserved": 0, "lon": -77.02179983333333, "fusion_lat": 0.0, "name": "dca75184ac762fdb8b6689b08de525a9"}, {"type": "electric_scooter", "fusion_lon": 0.0, "bike_id": "d9d72cc1055796ddf16819aaab6a45dc", "is_disabled": 0, "lat": 38.8920665, "rental_uris": {"ios": "https://dc.lft.to/lastmile_qr_scan", "android": "https://dc.lft.to/lastmile_qr_scan"}, "is_reserved": 0, "lon": -76.92920966666667, "fusion_lat": 0.0, "name": "d9d72cc1055796ddf16819aaab6a45dc"}, {"type": "electric_scooter", "fusion_lon": 0.0, "bike_id": "d5f1265b1750d0793798a25ee1d38ec9", "is_disabled": 0, "lat": 38.91103916666667, "rental_uris": {"ios": "https://dc.lft.to/lastmile_qr_scan", "android": "https://dc.lft.to/lastmile_qr_scan"}, "is_reserved": 0, "lon": -77.04544966666667, "fusion_lat": 0.0, "name": "d5f1265b1750d0793798a25ee1d38ec9"}, {"type": "electric_scooter", "fusion_lon": 0.0, "bike_id": "49c35ab45d27b54fa6fc78f37611acef", "is_disabled": 0, "lat": 38.928149, "rental_uris": {"ios": "https://dc.lft.to/lastmile_qr_scan", "android": "https://dc.lft.to/lastmile_qr_scan"}, "is_reserved": 0, "lon": -77.043409, "fusion_lat": 0.0, "name": "49c35ab45d27b54fa6fc78f37611acef"}, {"type": "electric_scooter", "fusion_lon": 0.0, "bike_id": "b4b1bcb715a08a8a58d21c26a75b1a5f", "is_disabled": 0, "lat": 38.898425, "rental_uris": {"ios": "https://dc.lft.to/lastmile_qr_scan", "android": "https://dc.lft.to/lastmile_qr_scan"}, "is_reserved": 0, "lon": -76.94254083333334, "fusion_lat": 0.0, "name": "b4b1bcb715a08a8a58d21c26a75b1a5f"}, {"type": "electric_scooter", "fusion_lon": 0.0, "bike_id": "c5a9377716bb07f37a9206ab700508f7", "is_disabled": 0, "lat": 38.921567333333336, "rental_uris": {"ios": "https://dc.lft.to/lastmile_qr_scan", "android": "https://dc.lft.to/lastmile_qr_scan"}, "is_reserved": 0, "lon": -77.03293333333333, "fusion_lat": 0.0, "name": "c5a9377716bb07f37a9206ab700508f7"}, {"type": "electric_scooter", "fusion_lon": 0.0, "bike_id": "7aa71871d00e9441229774203633a4ff", "is_disabled": 0, "lat": 38.87534866666667, "rental_uris": {"ios": "https://dc.lft.to/lastmile_qr_scan", "android": "https://dc.lft.to/lastmile_qr_scan"}, "is_reserved": 0, "lon": -77.005084, "fusion_lat": 0.0, "name": "7aa71871d00e9441229774203633a4ff"}, {"type": "electric_scooter", "fusion_lon": 0.0, "bike_id": "ec1b93320a719bfc3051fbd69afe162d", "is_disabled": 0, "lat": 38.88183766666667, "rental_uris": {"ios": "https://dc.lft.to/lastmile_qr_scan", "android": "https://dc.lft.to/lastmile_qr_scan"}, "is_reserved": 0, "lon": -76.992636, "fusion_lat": 0.0, "name": "ec1b93320a719bfc3051fbd69afe162d"}, {"type": "electric_scooter", "fusion_lon": 0.0, "bike_id": "67dc9bfeb805760f08e4e31d609cd82c", "is_disabled": 0, "lat": 38.932662, "rental_uris": {"ios": "https://dc.lft.to/lastmile_qr_scan", "android": "https://dc.lft.to/lastmile_qr_scan"}, "is_reserved": 0, "lon": -76.97947316666666, "fusion_lat": 0.0, "name": "67dc9bfeb805760f08e4e31d609cd82c"}, {"type": "electric_scooter", "fusion_lon": 0.0, "bike_id": "63b47f158c6e6b07cae006ba66cc5c90", "is_disabled": 0, "lat": 38.92478416666667, "rental_uris": {"ios": "https://dc.lft.to/lastmile_qr_scan", "android": "https://dc.lft.to/lastmile_qr_scan"}, "is_reserved": 0, "lon": -77.02219166666667, "fusion_lat": 0.0, "name": "63b47f158c6e6b07cae006ba66cc5c90"}, {"type": "electric_scooter", "fusion_lon": 0.0, "bike_id": "308d2c9c95742639cb7e5ea552a2b62a", "is_disabled": 0, "lat": 38.91562616666667, "rental_uris": {"ios": "https://dc.lft.to/lastmile_qr_scan", "android": "https://dc.lft.to/lastmile_qr_scan"}, "is_reserved": 0, "lon": -77.03224433333334, "fusion_lat": 0.0, "name": "308d2c9c95742639cb7e5ea552a2b62a"}, {"type": "electric_scooter", "fusion_lon": 0.0, "bike_id": "b79b99c20a4ad3a37f9f327d6d0c2ea5", "is_disabled": 0, "lat": 38.917445, "rental_uris": {"ios": "https://dc.lft.to/lastmile_qr_scan", "android": "https://dc.lft.to/lastmile_qr_scan"}, "is_reserved": 0, "lon": -77.0228125, "fusion_lat": 0.0, "name": "b79b99c20a4ad3a37f9f327d6d0c2ea5"}, {"type": "electric_scooter", "fusion_lon": 0.0, "bike_id": "2483d2b7341f93144034c8a5ecf2b59b", "is_disabled": 0, "lat": 38.916247, "rental_uris": {"ios": "https://dc.lft.to/lastmile_qr_scan", "android": "https://dc.lft.to/lastmile_qr_scan"}, "is_reserved": 0, "lon": -77.03855416666667, "fusion_lat": 0.0, "name": "2483d2b7341f93144034c8a5ecf2b59b"}, {"type": "electric_scooter", "fusion_lon": 0.0, "bike_id": "e7db7ea3af905f6d373dff048e02c224", "is_disabled": 0, "lat": 38.894906, "rental_uris": {"ios": "https://dc.lft.to/lastmile_qr_scan", "android": "https://dc.lft.to/lastmile_qr_scan"}, "is_reserved": 0, "lon": -77.00290933333333, "fusion_lat": 0.0, "name": "e7db7ea3af905f6d373dff048e02c224"}, {"type": "electric_scooter", "fusion_lon": 0.0, "bike_id": "6887b9ae8dd30a6b6384f41c18b57266", "is_disabled": 0, "lat": 38.91833316666666, "rental_uris": {"ios": "https://dc.lft.to/lastmile_qr_scan", "android": "https://dc.lft.to/lastmile_qr_scan"}, "is_reserved": 0, "lon": -77.04164483333334, "fusion_lat": 0.0, "name": "6887b9ae8dd30a6b6384f41c18b57266"}, {"type": "electric_scooter", "fusion_lon": 0.0, "bike_id": "484bf4c41417eef9c85119076f488f63", "is_disabled": 0, "lat": 38.89223583333333, "rental_uris": {"ios": "https://dc.lft.to/lastmile_qr_scan", "android": "https://dc.lft.to/lastmile_qr_scan"}, "is_reserved": 0, "lon": -77.0419835, "fusion_lat": 0.0, "name": "484bf4c41417eef9c85119076f488f63"}, {"type": "electric_scooter", "fusion_lon": 0.0, "bike_id": "7032e4efdb6cd930e4f5e54233ee278d", "is_disabled": 0, "lat": 38.912253, "rental_uris": {"ios": "https://dc.lft.to/lastmile_qr_scan", "android": "https://dc.lft.to/lastmile_qr_scan"}, "is_reserved": 0, "lon": -77.006558, "fusion_lat": 0.0, "name": "7032e4efdb6cd930e4f5e54233ee278d"}, {"type": "electric_bike", "fusion_lon": 0.0, "bike_id": "683b6a88f529c6747b1885644d74b066", "is_disabled": 0, "lat": 38.858754166666664, "rental_uris": {"ios": "https://dc.lft.to/lastmile_qr_scan", "android": "https://dc.lft.to/lastmile_qr_scan"}, "is_reserved": 0, "lon": -77.09560283333333, "fusion_lat": 0.0, "name": "683b6a88f529c6747b1885644d74b066"}, {"type": "electric_scooter", "fusion_lon": 0.0, "bike_id": "608aba48504cff954fb0ea927cb9b573", "is_disabled": 0, "lat": 38.904372, "rental_uris": {"ios": "https://dc.lft.to/lastmile_qr_scan", "android": "https://dc.lft.to/lastmile_qr_scan"}, "is_reserved": 0, "lon": -77.05790833333333, "fusion_lat": 0.0, "name": "608aba48504cff954fb0ea927cb9b573"}, {"type": "electric_scooter", "fusion_lon": 0.0, "bike_id": "a723df6e3ae6a3532c9bae78d455f131", "is_disabled": 0, "lat": 38.8766485, "rental_uris": {"ios": "https://dc.lft.to/lastmile_qr_scan", "android": "https://dc.lft.to/lastmile_qr_scan"}, "is_reserved": 0, "lon": -76.99626166666667, "fusion_lat": 0.0, "name": "a723df6e3ae6a3532c9bae78d455f131"}, {"type": "electric_scooter", "fusion_lon": 0.0, "bike_id": "fadf6670b9ce94ba22525bba41cc1f56", "is_disabled": 0, "lat": 38.919648333333335, "rental_uris": {"ios": "https://dc.lft.to/lastmile_qr_scan", "android": "https://dc.lft.to/lastmile_qr_scan"}, "is_reserved": 0, "lon": -77.05947433333333, "fusion_lat": 0.0, "name": "fadf6670b9ce94ba22525bba41cc1f56"}, {"type": "electric_scooter", "fusion_lon": 0.0, "bike_id": "7206888915198b143a7679120deb986a", "is_disabled": 0, "lat": 38.899894333333336, "rental_uris": {"ios": "https://dc.lft.to/lastmile_qr_scan", "android": "https://dc.lft.to/lastmile_qr_scan"},