{"data": {"bikes": [{"is_disabled": 0, "rental_uris": {"android": "https://dc.lft.to/lastmile_qr_scan", "ios": "https://dc.lft.to/lastmile_qr_scan"}, "is_reserved": 0, "name": "81ac991f40bc3f40302fc7ab84ad9fab", "lon": -77.00589583333333, "type": "electric_scooter", "bike_id": "81ac991f40bc3f40302fc7ab84ad9fab", "fusion_lon": 0.0, "lat": 38.9058545, "fusion_lat": 0.0}, {"is_disabled": 0, "rental_uris": {"android": "https://dc.lft.to/lastmile_qr_scan", "ios": "https://dc.lft.to/lastmile_qr_scan"}, "is_reserved": 0, "name": "9fa9aec5e39ef9d378cbc2ffbb15d70c", "lon": -77.06105966666667, "type": "electric_scooter", "bike_id": "9fa9aec5e39ef9d378cbc2ffbb15d70c", "fusion_lon": 0.0, "lat": 38.943705333333334, "fusion_lat": 0.0}, {"is_disabled": 0, "rental_uris": {"android": "https://dc.lft.to/lastmile_qr_scan", "ios": "https://dc.lft.to/lastmile_qr_scan"}, "is_reserved": 0, "name": "7afacfc7d00ccb24f76a80224fe7b141", "lon": -77.03360316666667, "type": "electric_scooter", "bike_id": "7afacfc7d00ccb24f76a80224fe7b141", "fusion_lon": 0.0, "lat": 38.937970166666666, "fusion_lat": 0.0}, {"is_disabled": 0, "rental_uris": {"android": "https://dc.lft.to/lastmile_qr_scan", "ios": "https://dc.lft.to/lastmile_qr_scan"}, "is_reserved": 0, "name": "1589475b16fb8dd94786daf9ceda2d78", "lon": -77.035572, "type": "electric_scooter", "bike_id": "1589475b16fb8dd94786daf9ceda2d78", "fusion_lon": 0.0, "lat": 38.92750933333333, "fusion_lat": 0.0}, {"is_disabled": 0, "rental_uris": {"android": "https://dc.lft.to/lastmile_qr_scan", "ios": "https://dc.lft.to/lastmile_qr_scan"}, "is_reserved": 0, "name": "ddb01ee78cf6e276787e4652896ff342", "lon": -77.03437283333334, "type": "electric_scooter", "bike_id": "ddb01ee78cf6e276787e4652896ff342", "fusion_lon": 0.0, "lat": 38.93441983333334, "fusion_lat": 0.0}, {"is_disabled": 0, "rental_uris": {"android": "https://dc.lft.to/lastmile_qr_scan", "ios": "https://dc.lft.to/lastmile_qr_scan"}, "is_reserved": 0, "name": "0a7a22469462b71736723b046341c334", "lon": -77.03458066666667, "type": "electric_scooter", "bike_id": "0a7a22469462b71736723b046341c334", "fusion_lon": 0.0, "lat": 38.9074085, "fusion_lat": 0.0}, {"is_disabled": 0, "rental_uris": {"android": "https://dc.lft.to/lastmile_qr_scan", "ios": "https://dc.lft.to/lastmile_qr_scan"}, "is_reserved": 0, "name": "2d8e3804b0b01296e9b32a3492192a33", "lon": -77.02102416666666, "type": "electric_scooter", "bike_id": "2d8e3804b0b01296e9b32a3492192a33", "fusion_lon": 0.0, "lat": 38.901975, "fusion_lat": 0.0}, {"is_disabled": 0, "rental_uris": {"android": "https://dc.lft.to/lastmile_qr_scan", "ios": "https://dc.lft.to/lastmile_qr_scan"}, "is_reserved": 0, "name": "3ad0f16d21082f9bb559e5d16c263581", "lon": -77.03499283333333, "type": "electric_scooter", "bike_id": "3ad0f16d21082f9bb559e5d16c263581", "fusion_lon": 0.0, "lat": 38.9215635, "fusion_lat": 0.0}, {"is_disabled": 0, "rental_uris": {"android": "https://dc.lft.to/lastmile_qr_scan", "ios": "https://dc.lft.to/lastmile_qr_scan"}, "is_reserved": 0, "name": "113c5e26b9093717247b70de5087f718", "lon": -77.0296385, "type": "electric_scooter", "bike_id": "113c5e26b9093717247b70de5087f718", "fusion_lon": 0.0, "lat": 38.897568166666666, "fusion_lat": 0.0}, {"is_disabled": 0, "rental_uris": {"android": "https://dc.lft.to/lastmile_qr_scan", "ios": "https://dc.lft.to/lastmile_qr_scan"}, "is_reserved": 0, "name": "249e1d2be60072a5058238d20fd7fdd6", "lon": -77.04670416666667, "type": "electric_scooter", "bike_id": "249e1d2be60072a5058238d20fd7fdd6", "fusion_lon": 0.0, "lat": 38.90736533333333, "fusion_lat": 0.0}, {"is_disabled": 0, "rental_uris": {"android": "https://dc.lft.to/lastmile_qr_scan", "ios": "https://dc.lft.to/lastmile_qr_scan"}, "is_reserved": 0, "name": "cb27579b8b0afb425ad88248f692b07d", "lon": -77.00357666666666, "type": "electric_scooter", "bike_id": "cb27579b8b0afb425ad88248f692b07d", "fusion_lon": 0.0, "lat": 38.895, "fusion_lat": 0.0}, {"is_disabled": 0, "rental_uris": {"android": "https://dc.lft.to/lastmile_qr_scan", "ios": "https://dc.lft.to/lastmile_qr_scan"}, "is_reserved": 0, "name": "4d53e11fc6346e2462565e039833048d", "lon": -77.04699, "type": "electric_scooter", "bike_id": "4d53e11fc6346e2462565e039833048d", "fusion_lon": 0.0, "lat": 38.915619666666665, "fusion_lat": 0.0}, {"is_disabled": 0, "rental_uris": {"android": "https://dc.lft.to/lastmile_qr_scan", "ios": "https://dc.lft.to/lastmile_qr_scan"}, "is_reserved": 0, "name": "a132b2825e75e2385e99452d4d7b84ce", "lon": -76.889065, "type": "electric_bike", "bike_id": "a132b2825e75e2385e99452d4d7b84ce", "fusion_lon": 0.0, "lat": 38.92592, "fusion_lat": 0.0}, {"is_disabled": 0, "rental_uris": {"android": "https://dc.lft.to/lastmile_qr_scan", "ios": "https://dc.lft.to/lastmile_qr_scan"}, "is_reserved": 0, "name": "e75d2188615ff29f86441873cac7a5e5", "lon": -77.00828916666667, "type": "electric_scooter", "bike_id": "e75d2188615ff29f86441873cac7a5e5", "fusion_lon": 0.0, "lat": 38.91259016666667, "fusion_lat": 0.0}, {"is_disabled": 0, "rental_uris": {"android": "https://dc.lft.to/lastmile_qr_scan", "ios": "https://dc.lft.to/lastmile_qr_scan"}, "is_reserved": 0, "name": "cb642e186ce4e278a27d957b49c7830b", "lon": -77.03828816666666, "type": "electric_scooter", "bike_id": "cb642e186ce4e278a27d957b49c7830b", "fusion_lon": 0.0, "lat": 38.9032355, "fusion_lat": 0.0}, {"is_disabled": 0, "rental_uris": {"android": "https://dc.lft.to/lastmile_qr_scan", "ios": "https://dc.lft.to/lastmile_qr_scan"}, "is_reserved": 0, "name": "5a1201a1a3a8ec2be0eae2c868032035", "lon": -77.05417333333334, "type": "electric_scooter", "bike_id": "5a1201a1a3a8ec2be0eae2c868032035", "fusion_lon": 0.0, "lat": 38.899173166666664, "fusion_lat": 0.0}, {"is_disabled": 0, "rental_uris": {"android": "https://dc.lft.to/lastmile_qr_scan", "ios": "https://dc.lft.to/lastmile_qr_scan"}, "is_reserved": 0, "name": "9474293b11161ce07b69455cdbf02697", "lon": -76.95224183333333, "type": "electric_bike", "bike_id": "9474293b11161ce07b69455cdbf02697", "fusion_lon": 0.0, "lat": 38.892377333333336, "fusion_lat": 0.0}, {"is_disabled": 0, "rental_uris": {"android": "https://dc.lft.to/lastmile_qr_scan", "ios": "https://dc.lft.to/lastmile_qr_scan"}, "is_reserved": 0, "name": "ac2694e79c123241f7ad25b29b8c16df", "lon": -77.020859, "type": "electric_scooter", "bike_id": "ac2694e79c123241f7ad25b29b8c16df", "fusion_lon": 0.0, "lat": 38.93007766666667, "fusion_lat": 0.0}, {"is_disabled": 0, "rental_uris": {"android": "https://dc.lft.to/lastmile_qr_scan", "ios": "https://dc.lft.to/lastmile_qr_scan"}, "is_reserved": 0, "name": "08f947e7d2838d63e6716f5e0803cf70", "lon": -77.0517355, "type": "electric_scooter", "bike_id": "08f947e7d2838d63e6716f5e0803cf70", "fusion_lon": 0.0, "lat": 38.905808, "fusion_lat": 0.0}, {"is_disabled": 0, "rental_uris": {"android": "https://dc.lft.to/lastmile_qr_scan", "ios": "https://dc.lft.to/lastmile_qr_scan"}, "is_reserved": 0, "name": "910536435b8397b6cf59385ba820d5a9", "lon": -77.014076, "type": "electric_scooter", "bike_id": "910536435b8397b6cf59385ba820d5a9", "fusion_lon": 0.0, "lat": 38.9283215, "fusion_lat": 0.0}, {"is_disabled": 0, "rental_uris": {"android": "https://dc.lft.to/lastmile_qr_scan", "ios": "https://dc.lft.to/lastmile_qr_scan"}, "is_reserved": 0, "name": "c523cc2869f375b3c2e43ed860bacdde", "lon": -77.003303, "type": "electric_scooter", "bike_id": "c523cc2869f375b3c2e43ed860bacdde", "fusion_lon": 0.0, "lat": 38.89362216666667, "fusion_lat": 0.0}, {"is_disabled": 0, "rental_uris": {"android": "https://dc.lft.to/lastmile_qr_scan", "ios": "https://dc.lft.to/lastmile_qr_scan"}, "is_reserved": 0, "name": "0b1708609f3859544b6eb94ed6d516e6", "lon": -77.005626, "type": "electric_scooter", "bike_id": "0b1708609f3859544b6eb94ed6d516e6", "fusion_lon": 0.0, "lat": 38.905500833333335, "fusion_lat": 0.0}, {"is_disabled": 0, "rental_uris": {"android": "https://dc.lft.to/lastmile_qr_scan", "ios": "https://dc.lft.to/lastmile_qr_scan"}, "is_reserved": 0, "name": "965fb15fcc208973a8b46a8abf9cac19", "lon": -77.04491816666666, "type": "electric_scooter", "bike_id": "965fb15fcc208973a8b46a8abf9cac19", "fusion_lon": 0.0, "lat": 38.906655, "fusion_lat": 0.0}, {"is_disabled": 0, "rental_uris": {"android": "https://dc.lft.to/lastmile_qr_scan", "ios": "https://dc.lft.to/lastmile_qr_scan"}, "is_reserved": 0, "name": "75d5284388f22156408442721d5706a5", "lon": -77.353095, "type": "electric_bike", "bike_id": "75d5284388f22156408442721d5706a5", "fusion_lon": 0.0, "lat": 38.95000483333333, "fusion_lat": 0.0}, {"is_disabled": 0, "rental_uris": {"android": "https://dc.lft.to/lastmile_qr_scan", "ios": "https://dc.lft.to/lastmile_qr_scan"}, "is_reserved": 0, "name": "dbd9b00dd3955c213c126b491b21759c", "lon": -77.04329633333333, "type": "electric_scooter", "bike_id": "dbd9b00dd3955c213c126b491b21759c", "fusion_lon": 0.0, "lat": 38.911132333333335, "fusion_lat": 0.0}, {"is_disabled": 0, "rental_uris": {"android": "https://dc.lft.to/lastmile_qr_scan", "ios": "https://dc.lft.to/lastmile_qr_scan"}, "is_reserved": 0, "name": "f2781d28d213675bd7cf07316497c513", "lon": -77.02665466666667, "type": "electric_bike", "bike_id": "f2781d28d213675bd7cf07316497c513", "fusion_lon": 0.0, "lat": 38.954913833333336, "fusion_lat": 0.0}, {"is_disabled": 0, "rental_uris": {"android": "https://dc.lft.to/lastmile_qr_scan", "ios": "https://dc.lft.to/lastmile_qr_scan"}, "is_reserved": 0, "name": "64ced9b0afa5a50faae6a9887a16f98c", "lon": -77.02981083333333, "type": "electric_scooter", "bike_id": "64ced9b0afa5a50faae6a9887a16f98c", "fusion_lon": 0.0, "lat": 38.8978615, "fusion_lat": 0.0}, {"is_disabled": 0, "rental_uris": {"android": "https://dc.lft.to/lastmile_qr_scan", "ios": "https://dc.lft.to/lastmile_qr_scan"}, "is_reserved": 0, "name": "167d499042fbc405a2d36d346570d225", "lon": -77.01626116666667, "type": "electric_scooter", "bike_id": "167d499042fbc405a2d36d346570d225", "fusion_lon": 0.0, "lat": 38.8986855, "fusion_lat": 0.0}, {"is_disabled": 0, "rental_uris": {"android": "https://dc.lft.to/lastmile_qr_scan", "ios": "https://dc.lft.to/lastmile_qr_scan"}, "is_reserved": 0, "name": "069dfb97f55e2acecb40149bcd834deb", "lon": -77.02466633333333, "type": "electric_scooter", "bike_id": "069dfb97f55e2acecb40149bcd834deb", "fusion_lon": 0.0, "lat": 38.939163666666666, "fusion_lat": 0.0}, {"is_disabled": 0, "rental_uris": {"android": "https://dc.lft.to/lastmile_qr_scan", "ios": "https://dc.lft.to/lastmile_qr_scan"}, "is_reserved": 0, "name": "7068fd47c24d4573bbfe6a170f3b2f86", "lon": -76.9375435, "type": "electric_scooter", "bike_id": "7068fd47c24d4573bbfe6a170f3b2f86", "fusion_lon": 0.0, "lat": 38.89036133333333, "fusion_lat": 0.0}, {"is_disabled": 0, "rental_uris": {"android": "https://dc.lft.to/lastmile_qr_scan", "ios": "https://dc.lft.to/lastmile_qr_scan"}, "is_reserved": 0, "name": "eca18cb7da1da92e9880e08874c78eca", "lon": -76.999568, "type": "electric_scooter", "bike_id": "eca18cb7da1da92e9880e08874c78eca", "fusion_lon": 0.0, "lat": 38.842896, "fusion_lat": 0.0}, {"is_disabled": 0, "rental_uris": {"android": "https://dc.lft.to/lastmile_qr_scan", "ios": "https://dc.lft.to/lastmile_qr_scan"}, "is_reserved": 0, "name": "62e2a6eed62d35eee588894c1f5be67a", "lon": -76.94782183333334, "type": "electric_scooter", "bike_id": "62e2a6eed62d35eee588894c1f5be67a", "fusion_lon": 0.0, "lat": 38.88462333333333, "fusion_lat": 0.0}, {"is_disabled": 0, "rental_uris": {"android": "https://dc.lft.to/lastmile_qr_scan", "ios": "https://dc.lft.to/lastmile_qr_scan"}, "is_reserved": 0, "name": "58254f50bec45f98a1518b39667ce652", "lon": -77.05936866666667, "type": "electric_scooter", "bike_id": "58254f50bec45f98a1518b39667ce652", "fusion_lon": 0.0, "lat": 38.93680583333333, "fusion_lat": 0.0}, {"is_disabled": 0, "rental_uris": {"android": "https://dc.lft.to/lastmile_qr_scan", "ios": "https://dc.lft.to/lastmile_qr_scan"}, "is_reserved": 0, "name": "520643f1f0cee9a9f8d018bf7aa3fcf8", "lon": -77.00699166666666, "type": "electric_scooter", "bike_id": "520643f1f0cee9a9f8d018bf7aa3fcf8", "fusion_lon": 0.0, "lat": 38.900175833333336, "fusion_lat": 0.0}, {"is_disabled": 0, "rental_uris": {"android": "https://dc.lft.to/lastmile_qr_scan", "ios": "https://dc.lft.to/lastmile_qr_scan"}, "is_reserved": 0, "name": "a9cc6084bebfba4c8d013f3b76f80223", "lon": -77.03265516666667, "type": "electric_scooter", "bike_id": "a9cc6084bebfba4c8d013f3b76f80223", "fusion_lon": 0.0, "lat": 38.90023683333333, "fusion_lat": 0.0}, {"is_disabled": 0, "rental_uris": {"android": "https://dc.lft.to/lastmile_qr_scan", "ios": "https://dc.lft.to/lastmile_qr_scan"}, "is_reserved": 0, "name": "316493e4f5f2640d979e9811f35390b7", "lon": -76.948962, "type": "electric_scooter", "bike_id": "316493e4f5f2640d979e9811f35390b7", "fusion_lon": 0.0, "lat": 38.89525166666667, "fusion_lat": 0.0}, {"is_disabled": 0, "rental_uris": {"android": "https://dc.lft.to/lastmile_qr_scan", "ios": "https://dc.lft.to/lastmile_qr_scan"}, "is_reserved": 0, "name": "23af085c8093f625a382efb682ca72f9", "lon": -77.0216685, "type": "electric_scooter", "bike_id": "23af085c8093f625a382efb682ca72f9", "fusion_lon": 0.0, "lat": 38.9261085, "fusion_lat": 0.0}, {"is_disabled": 0, "rental_uris": {"android": "https://dc.lft.to/lastmile_qr_scan", "ios": "https://dc.lft.to/lastmile_qr_scan"}, "is_reserved": 0, "name": "2b1a85a45ee6e78b384187833c2218cb", "lon": -77.043845, "type": "electric_scooter", "bike_id": "2b1a85a45ee6e78b384187833c2218cb", "fusion_lon": 0.0, "lat": 38.9057575, "fusion_lat": 0.0}, {"is_disabled": 0, "rental_uris": {"android": "https://dc.lft.to/lastmile_qr_scan", "ios": "https://dc.lft.to/lastmile_qr_scan"}, "is_reserved": 0, "name": "17bd127ebd79a5978be655d917bacad1", "lon": -77.04666616666667, "type": "electric_scooter", "bike_id": "17bd127ebd79a5978be655d917bacad1", "fusion_lon": 0.0, "lat": 38.89818366666667, "fusion_lat": 0.0}, {"is_disabled": 0, "rental_uris": {"android": "https://dc.lft.to/lastmile_qr_scan", "ios": "https://dc.lft.to/lastmile_qr_scan"}, "is_reserved": 0, "name": "47167aedc80b50cbadcc1eb71cb36240", "lon": -76.9738225, "type": "electric_scooter", "bike_id": "47167aedc80b50cbadcc1eb71cb36240", "fusion_lon": 0.0, "lat": 38.88370366666667, "fusion_lat": 0.0}, {"is_disabled": 0, "rental_uris": {"android": "https://dc.lft.to/lastmile_qr_scan", "ios": "https://dc.lft.to/lastmile_qr_scan"}, "is_reserved": 0, "name": "dc768d8c9344b18d6f089e0161821329", "lon": -77.04164533333334, "type": "electric_scooter", "bike_id": "dc768d8c9344b18d6f089e0161821329", "fusion_lon": 0.0, "lat": 38.91314766666667, "fusion_lat": 0.0}, {"is_disabled": 0, "rental_uris": {"android": "https://dc.lft.to/lastmile_qr_scan", "ios": "https://dc.lft.to/lastmile_qr_scan"}, "is_reserved": 0, "name": "ca62edfc515230d9ff24c059999d00db", "lon": -77.05444816666666, "type": "electric_scooter", "bike_id": "ca62edfc515230d9ff24c059999d00db", "fusion_lon": 0.0, "lat": 38.935461, "fusion_lat": 0.0}, {"is_disabled": 0, "rental_uris": {"android": "https://dc.lft.to/lastmile_qr_scan", "ios": "https://dc.lft.to/lastmile_qr_scan"}, "is_reserved": 0, "name": "d3e168529cb527a9ce1df45d8e663513", "lon": -76.97219466666667, "type": "electric_bike", "bike_id": "d3e168529cb527a9ce1df45d8e663513", "fusion_lon": 0.0, "lat": 38.844838833333334, "fusion_lat": 0.0}, {"is_disabled": 0, "rental_uris": {"android": "https://dc.lft.to/lastmile_qr_scan", "ios": "https://dc.lft.to/lastmile_qr_scan"}, "is_reserved": 0, "name": "8c352b8188060bb32fe913ee65cc7531", "lon": -77.02690416666667, "type": "electric_scooter", "bike_id": "8c352b8188060bb32fe913ee65cc7531", "fusion_lon": 0.0, "lat": 38.90873916666666, "fusion_lat": 0.0}, {"is_disabled": 0, "rental_uris": {"android": "https://dc.lft.to/lastmile_qr_scan", "ios": "https://dc.lft.to/lastmile_qr_scan"}, "is_reserved": 0, "name": "376cf8b2242a7debd6350a383606c2a1", "lon": -77.06759166666667, "type": "electric_scooter", "bike_id": "376cf8b2242a7debd6350a383606c2a1", "fusion_lon": 0.0, "lat": 38.94980566666667, "fusion_lat": 0.0}, {"is_disabled": 0, "rental_uris": {"android": "https://dc.lft.to/lastmile_qr_scan", "ios": "https://dc.lft.to/lastmile_qr_scan"}, "is_reserved": 0, "name": "e4a5e81d4102cd2c5625881fc10c8ba1", "lon": -77.04728583333333, "type": "electric_scooter", "bike_id": "e4a5e81d4102cd2c5625881fc10c8ba1", "fusion_lon": 0.0, "lat": 38.898406, "fusion_lat": 0.0}, {"is_disabled": 0, "rental_uris": {"android": "https://dc.lft.to/lastmile_qr_scan", "ios": "https://dc.lft.to/lastmile_qr_scan"}, "is_reserved": 0, "name": "5681f366e865e5be6affd3384e87b346", "lon": -77.0402085, "type": "electric_bike", "bike_id": "5681f366e865e5be6affd3384e87b346", "fusion_lon": 0.0, "lat": 38.90173716666666, "fusion_lat": 0.0}, {"is_disabled": 0, "rental_uris": {"android": "https://dc.lft.to/lastmile_qr_scan", "ios": "https://dc.lft.to/lastmile_qr_scan"}, "is_reserved": 0, "name": "c1a024533c4776450b07fec14534ef4a", "lon": -77.02219083333334, "type": "electric_scooter", "bike_id": "c1a024533c4776450b07fec14534ef4a", "fusion_lon": 0.0, "lat": 38.915637833333335, "fusion_lat": 0.0}, {"is_disabled": 0, "rental_uris": {"android": "https://dc.lft.to/lastmile_qr_scan", "ios": "https://dc.lft.to/lastmile_qr_scan"}, "is_reserved": 0, "name": "dfea40c8fca25f9b90a7fa13f225d00a", "lon": -77.02880283333333, "type": "electric_bike", "bike_id": "dfea40c8fca25f9b90a7fa13f225d00a", "fusion_lon": 0.0, "lat": 38.99844683333333, "fusion_lat": 0.0}, {"is_disabled": 0, "rental_uris": {"android": "https://dc.lft.to/lastmile_qr_scan", "ios": "https://dc.lft.to/lastmile_qr_scan"}, "is_reserved": 0, "name": "94da4deb5663b05e7d981b1e6dea81de", "lon": -77.021523, "type": "electric_scooter", "bike_id": "94da4deb5663b05e7d981b1e6dea81de", "fusion_lon": 0.0, "lat": 38.92602216666667, "fusion_lat": 0.0}, {"is_disabled": 0, "rental_uris": {"android": "https://dc.lft.to/lastmile_qr_scan", "ios": "https://dc.lft.to/lastmile_qr_scan"}, "is_reserved": 0, "name": "f691e7573442c2b2a360517783f5c032", "lon": -76.97340416666667, "type": "electric_scooter", "bike_id": "f691e7573442c2b2a360517783f5c032", "fusion_lon": 0.0, "lat": 38.865102666666665, "fusion_lat": 0.0}, {"is_disabled": 0, "rental_uris": {"android": "https://dc.lft.to/lastmile_qr_scan", "ios": "https://dc.lft.to/lastmile_qr_scan"}, "is_reserved": 0, "name": "ea9caaf6120f2e7707430f87fd1c3186", "lon": -77.0427975, "type": "electric_scooter", "bike_id": "ea9caaf6120f2e7707430f87fd1c3186", "fusion_lon": 0.0, "lat": 38.91115216666667, "fusion_lat": 0.0}, {"is_disabled": 0, "rental_uris": {"android": "https://dc.lft.to/lastmile_qr_scan", "ios": "https://dc.lft.to/lastmile_qr_scan"}, "is_reserved": 0, "name": "b3ca25c7171def59c7a038d05b374b9d", "lon": -76.985164, "type": "electric_scooter", "bike_id": "b3ca25c7171def59c7a038d05b374b9d", "fusion_lon": 0.0, "lat": 38.860046833333335, "fusion_lat": 0.0}, {"is_disabled": 0, "rental_uris": {"android": "https://dc.lft.to/lastmile_qr_scan", "ios": "https://dc.lft.to/lastmile_qr_scan"}, "is_reserved": 0, "name": "269038701dfa85d7027f34a40b7a50af", "lon": -77.05930916666667, "type": "electric_scooter", "bike_id": "269038701dfa85d7027f34a40b7a50af", "fusion_lon": 0.0, "lat": 38.93670383333333, "fusion_lat": 0.0}, {"is_disabled": 0, "rental_uris": {"android": "https://dc.lft.to/lastmile_qr_scan", "ios": "https://dc.lft.to/lastmile_qr_scan"}, "is_reserved": 0, "name": "d2cd3228258da8631943faa261e16f7a", "lon": -77.028355, "type": "electric_scooter", "bike_id": "d2cd3228258da8631943faa261e16f7a", "fusion_lon": 0.0, "lat": 38.895267833333335, "fusion_lat": 0.0}, {"is_disabled": 0, "rental_uris": {"android": "https://dc.lft.to/lastmile_qr_scan", "ios": "https://dc.lft.to/lastmile_qr_scan"}, "is_reserved": 0, "name": "597e335b6298ab4c1d758f3daf7e252f", "lon": -76.93109266666667, "type": "electric_scooter", "bike_id": "597e335b6298ab4c1d758f3daf7e252f", "fusion_lon": 0.0, "lat": 38.88014416666667, "fusion_lat": 0.0}, {"is_disabled": 0, "rental_uris": {"android": "https://dc.lft.to/lastmile_qr_scan", "ios": "https://dc.lft.to/lastmile_qr_scan"}, "is_reserved": 0, "name": "c9ec629a78286c21f3154b57deae3527", "lon": -76.980886, "type": "electric_scooter", "bike_id": "c9ec629a78286c21f3154b57deae3527", "fusion_lon": 0.0, "lat": 38.85725033333333, "fusion_lat": 0.0}, {"is_disabled": 0, "rental_uris": {"android": "https://dc.lft.to/lastmile_qr_scan", "ios": "https://dc.lft.to/lastmile_qr_scan"}, "is_reserved": 0, "name": "866acf209075a402b0e094035f99e2d0", "lon": -77.030561, "type": "electric_scooter", "bike_id": "866acf209075a402b0e094035f99e2d0", "fusion_lon": 0.0, "lat": 38.90974633333333, "fusion_lat": 0.0}, {"is_disabled": 0, "rental_uris": {"android": "https://dc.lft.to/lastmile_qr_scan", "ios": "https://dc.lft.to/lastmile_qr_scan"}, "is_reserved": 0, "name": "bb000f670459507c94a7d14568b52951", "lon": -77.05097183333334, "type": "electric_scooter", "bike_id": "bb000f670459507c94a7d14568b52951", "fusion_lon": 0.0, "lat": 38.923446, "fusion_lat": 0.0}, {"is_disabled": 0, "rental_uris": {"android": "https://dc.lft.to/lastmile_qr_scan", "ios": "https://dc.lft.to/lastmile_qr_scan"}, "is_reserved": 0, "name": "92ffe84b0229aae036303852eaa40a03", "lon": -77.04543566666666, "type": "electric_scooter", "bike_id": "92ffe84b0229aae036303852eaa40a03", "fusion_lon": 0.0, "lat": 38.90143366666667, "fusion_lat": 0.0}, {"is_disabled": 0, "rental_uris": {"android": "https://dc.lft.to/lastmile_qr_scan", "ios": "https://dc.lft.to/lastmile_qr_scan"}, "is_reserved": 0, "name": "6e2fca5abc7ece8b1c70dc41e2da4e5a", "lon": -76.96915133333333, "type": "electric_scooter", "bike_id": "6e2fca5abc7ece8b1c70dc41e2da4e5a", "fusion_lon": 0.0, "lat": 38.855304333333336, "fusion_lat": 0.0}, {"is_disabled": 0, "rental_uris": {"android": "https://dc.lft.to/lastmile_qr_scan", "ios": "https://dc.lft.to/lastmile_qr_scan"}, "is_reserved": 0, "name": "196344ef59644f4bd1bb36b4658e851e", "lon": -77.18293933333334, "type": "electric_bike", "bike_id": "196344ef59644f4bd1bb36b4658e851e", "fusion_lon": 0.0, "lat": 38.883433833333335, "fusion_lat": 0.0}, {"is_disabled": 0, "rental_uris": {"android": "https://dc.lft.to/lastmile_qr_scan", "ios": "https://dc.lft.to/lastmile_qr_scan"}, "is_reserved": 0, "name": "bcb0547e03b0a7e7301a156ab497dd42", "lon": -77.02467133333333, "type": "electric_scooter", "bike_id": "bcb0547e03b0a7e7301a156ab497dd42", "fusion_lon": 0.0, "lat": 38.939157, "fusion_lat": 0.0}, {"is_disabled": 0, "rental_uris": {"android": "https://dc.lft.to/lastmile_qr_scan", "ios": "https://dc.lft.to/lastmile_qr_scan"}, "is_reserved": 0, "name": "b2d2eaffa5be2fac730f7b28a569b59c", "lon": -77.01582483333334, "type": "electric_bike", "bike_id": "b2d2eaffa5be2fac730f7b28a569b59c", "fusion_lon": 0.0, "lat": 39.04637783333333, "fusion_lat": 0.0}, {"is_disabled": 0, "rental_uris": {"android": "https://dc.lft.to/lastmile_qr_scan", "ios": "https://dc.lft.to/lastmile_qr_scan"}, "is_reserved": 0, "name": "2cfa50ce313706fbb3c0b856d6baf88f", "lon": -77.03279133333334, "type": "electric_scooter", "bike_id": "2cfa50ce313706fbb3c0b856d6baf88f", "fusion_lon": 0.0, "lat": 38.9287915, "fusion_lat": 0.0}, {"is_disabled": 0, "rental_uris": {"android": "https://dc.lft.to/lastmile_qr_scan", "ios": "https://dc.lft.to/lastmile_qr_scan"}, "is_reserved": 0, "name": "6a805862d1ce18908dd6ba7e79038529", "lon": -77.04169883333333, "type": "electric_scooter", "bike_id": "6a805862d1ce18908dd6ba7e79038529", "fusion_lon": 0.0, "lat": 38.901646, "fusion_lat": 0.0}, {"is_disabled": 0, "rental_uris": {"android": "https://dc.lft.to/lastmile_qr_scan", "ios": "https://dc.lft.to/lastmile_qr_scan"}, "is_reserved": 0, "name": "ea3e6bbe8658d74ce9cc14b728d13044", "lon": -77.03329783333334, "type": "electric_scooter", "bike_id": "ea3e6bbe8658d74ce9cc14b728d13044", "fusion_lon": 0.0, "lat": 38.901465, "fusion_lat": 0.0}, {"is_disabled": 0, "rental_uris": {"android": "https://dc.lft.to/lastmile_qr_scan", "ios": "https://dc.lft.to/lastmile_qr_scan"}, "is_reserved": 0, "name": "28d46c26a099b0b1551ce9e51d3fc443", "lon": -77.03293083333334, "type": "electric_scooter", "bike_id": "28d46c26a099b0b1551ce9e51d3fc443", "fusion_lon": 0.0, "lat": 38.92045533333334, "fusion_lat": 0.0}, {"is_disabled": 0, "rental_uris": {"android": "https://dc.lft.to/lastmile_qr_scan", "ios": "https://dc.lft.to/lastmile_qr_scan"}, "is_reserved": 0, "name": "b1635c06c69d05065e5a54a51b808939", "lon": -77.05007816666667, "type": "electric_scooter", "bike_id": "b1635c06c69d05065e5a54a51b808939", "fusion_lon": 0.0, "lat": 38.89783033333333, "fusion_lat": 0.0}, {"is_disabled": 0, "rental_uris": {"android": "https://dc.lft.to/lastmile_qr_scan", "ios": "https://dc.lft.to/lastmile_qr_scan"}, "is_reserved": 0, "name": "0555fd00ee5a8be04645f8f0a7a91d54", "lon": -76.99525216666666, "type": "electric_scooter", "bike_id": "0555fd00ee5a8be04645f8f0a7a91d54", "fusion_lon": 0.0, "lat": 38.88386366666667, "fusion_lat": 0.0}, {"is_disabled": 0, "rental_uris": {"android": "https://dc.lft.to/lastmile_qr_scan", "ios": "https://dc.lft.to/lastmile_qr_scan"}, "is_reserved": 0, "name": "0af7874899f0c7b5827d439ef975a716", "lon": -77.035798, "type": "electric_scooter", "bike_id": "0af7874899f0c7b5827d439ef975a716", "fusion_lon": 0.0, "lat": 38.907592666666666, "fusion_lat": 0.0}, {"is_disabled": 0, "rental_uris": {"android": "https://dc.lft.to/lastmile_qr_scan", "ios": "https://dc.lft.to/lastmile_qr_scan"}, "is_reserved": 0, "name": "11ec09ec68c725b185de9a0c68002c13", "lon": -76.99606466666667, "type": "electric_scooter", "bike_id": "11ec09ec68c725b185de9a0c68002c13", "fusion_lon": 0.0, "lat": 38.9003645, "fusion_lat": 0.0}, {"is_disabled": 0, "rental_uris": {"android": "https://dc.lft.to/lastmile_qr_scan", "ios": "https://dc.lft.to/lastmile_qr_scan"}, "is_reserved": 0, "name": "3b102ff0c5b54e67d3bdc3ee44a5ed3b", "lon": -76.99007533333334, "type": "electric_scooter", "bike_id": "3b102ff0c5b54e67d3bdc3ee44a5ed3b", "fusion_lon": 0.0, "lat": 38.865073333333335, "fusion_lat": 0.0}, {"is_disabled": 0, "rental_uris": {"android": "https://dc.lft.to/lastmile_qr_scan", "ios": "https://dc.lft.to/lastmile_qr_scan"}, "is_reserved": 0, "name": "47155b75bdaf0533bdd05c70e841eecb", "lon": -76.98881833333333, "type": "electric_scooter", "bike_id": "47155b75bdaf0533bdd05c70e841eecb", "fusion_lon": 0.0, "lat": 38.866739333333335, "fusion_lat": 0.0}, {"is_disabled": 0, "rental_uris": {"android": "https://dc.lft.to/lastmile_qr_scan", "ios": "https://dc.lft.to/lastmile_qr_scan"}, "is_reserved": 0, "name": "c1938ccb70691f66660f69a77c846706", "lon": -77.17799916666667, "type": "electric_bike", "bike_id": "c1938ccb70691f66660f69a77c846706", "fusion_lon": 0.0, "lat": 39.088453333333334, "fusion_lat": 0.0}, {"is_disabled": 0, "rental_uris": {"android": "https://dc.lft.to/lastmile_qr_scan", "ios": "https://dc.lft.to/lastmile_qr_scan"}, "is_reserved": 0, "name": "2e7e49f078457e3e240b378d94db0c2d", "lon": -77.05562066666667, "type": "electric_scooter", "bike_id": "2e7e49f078457e3e240b378d94db0c2d", "fusion_lon": 0.0, "lat": 38.90043983333333, "fusion_lat": 0.0}, {"is_disabled": 0, "rental_uris": {"android": "https://dc.lft.to/lastmile_qr_scan", "ios": "https://dc.lft.to/lastmile_qr_scan"}, "is_reserved": 0, "name": "c85fcf98e7a6cff65431d6dfdbf39a55", "lon": -77.0325265, "type": "electric_scooter", "bike_id": "c85fcf98e7a6cff65431d6dfdbf39a55", "fusion_lon": 0.0, "lat": 38.913425833333335, "fusion_lat": 0.0}, {"is_disabled": 0, "rental_uris": {"android": "https://dc.lft.to/lastmile_qr_scan", "ios": "https://dc.lft.to/lastmile_qr_scan"}, "is_reserved": 0, "name": "9164ed06e13251a2fafe3d296a292e64", "lon": -77.0461985, "type": "electric_scooter", "bike_id": "9164ed06e13251a2fafe3d296a292e64", "fusion_lon": 0.0, "lat": 38.915567, "fusion_lat": 0.0}, {"is_disabled": 0, "rental_uris": {"android": "https://dc.lft.to/lastmile_qr_scan", "ios": "https://dc.lft.to/lastmile_qr_scan"}, "is_reserved": 0, "name": "c0ca68f2a306b9fdcfe84ebcb6c6d39b", "lon": -77.03141033333333, "type": "electric_scooter", "bike_id": "c0ca68f2a306b9fdcfe84ebcb6c6d39b", "fusion_lon": 0.0, "lat": 38.903711, "fusion_lat": 0.0}, {"is_disabled": 0, "rental_uris": {"android": "https://dc.lft.to/lastmile_qr_scan", "ios": "https://dc.lft.to/lastmile_qr_scan"}, "is_reserved": 0, "name": "25594864086b1669850d0af94db5f158", "lon": -77.0578655, "type": "electric_scooter", "bike_id": "25594864086b1669850d0af94db5f158", "fusion_lon": 0.0, "lat": 38.90513583333333, "fusion_lat": 0.0}, {"is_disabled": 0, "rental_uris": {"android": "https://dc.lft.to/lastmile_qr_scan", "ios": "https://dc.lft.to/lastmile_qr_scan"}, "is_reserved": 0, "name": "f6e874f048fd767df0e0898aca7d5d9b", "lon": -77.022788, "type": "electric_scooter", "bike_id": "f6e874f048fd767df0e0898aca7d5d9b", "fusion_lon": 0.0, "lat": 38.918358166666664, "fusion_lat": 0.0}, {"is_disabled": 0, "rental_uris": {"android": "https://dc.lft.to/lastmile_qr_scan", "ios": "https://dc.lft.to/lastmile_qr_scan"}, "is_reserved": 0, "name": "1909049850a635f3b6965dd807cab6c3", "lon": -77.0403915, "type": "electric_scooter", "bike_id": "1909049850a635f3b6965dd807cab6c3", "fusion_lon": 0.0, "lat": 38.905588333333334, "fusion_lat": 0.0}, {"is_disabled": 0, "rental_uris": {"android": "https://dc.lft.to/lastmile_qr_scan", "ios": "https://dc.lft.to/lastmile_qr_scan"}, "is_reserved": 0, "name": "75f228ef65e781ff8ca77afee1bd15c3", "lon": -77.04294433333334, "type": "electric_scooter", "bike_id": "75f228ef65e781ff8ca77afee1bd15c3", "fusion_lon": 0.0, "lat": 38.9133965, "fusion_lat": 0.0}, {"is_disabled": 0, "rental_uris": {"android": "https://dc.lft.to/lastmile_qr_scan", "ios": "https://dc.lft.to/lastmile_qr_scan"}, "is_reserved": 0, "name": "b743c5ef257b5d7ad915c0077ce94200", "lon": -77.0145055, "type": "electric_scooter", "bike_id": "b743c5ef257b5d7ad915c0077ce94200", "fusion_lon": 0.0, "lat": 38.879835, "fusion_lat": 0.0}, {"is_disabled": 0, "rental_uris": {"android": "https://dc.lft.to/lastmile_qr_scan", "ios": "https://dc.lft.to/lastmile_qr_scan"}, "is_reserved": 0, "name": "3f067cafc272e4ae0f2db7ead8e9685d", "lon": -77.042403, "type": "electric_scooter", "bike_id": "3f067cafc272e4ae0f2db7ead8e9685d", "fusion_lon": 0.0, "lat": 38.919189833333334, "fusion_lat": 0.0}, {"is_disabled": 0, "rental_uris": {"android": "https://dc.lft.to/lastmile_qr_scan", "ios": "https://dc.lft.to/lastmile_qr_scan"}, "is_reserved": 0, "name": "34f144f9c143e8b0c20ee905eaa74e33", "lon": -77.08570616666667, "type": "electric_scooter", "bike_id": "34f144f9c143e8b0c20ee905eaa74e33", "fusion_lon": 0.0, "lat": 38.93355533333333, "fusion_lat": 0.0}, {"is_disabled": 0, "rental_uris": {"android": "https://dc.lft.to/lastmile_qr_scan", "ios": "https://dc.lft.to/lastmile_qr_scan"}, "is_reserved": 0, "name": "e0ff21704512af9793aa195cce5ad64c", "lon": -77.00795766666667, "type": "electric_scooter", "bike_id": "e0ff21704512af9793aa195cce5ad64c", "fusion_lon": 0.0, "lat": 38.897148, "fusion_lat": 0.0}, {"is_disabled": 0, "rental_uris": {"android": "https://dc.lft.to/lastmile_qr_scan", "ios": "https://dc.lft.to/lastmile_qr_scan"}, "is_reserved": 0, "name": "54e818d5170fc1ed4950b7036932b01b", "lon": -77.03405216666667, "type": "electric_scooter", "bike_id": "54e818d5170fc1ed4950b7036932b01b", "fusion_lon": 0.0, "lat": 38.907523166666664, "fusion_lat": 0.0}, {"is_disabled": 0, "rental_uris": {"android": "https://dc.lft.to/lastmile_qr_scan", "ios": "https://dc.lft.to/lastmile_qr_scan"}, "is_reserved": 0, "name": "9671c6e1cc4555434d7b11e8d6483716", "lon": -77.03270016666667, "type": "electric_scooter", "bike_id": "9671c6e1cc4555434d7b11e8d6483716", "fusion_lon": 0.0, "lat": 38.90465833333333, "fusion_lat": 0.0}, {"is_disabled": 0, "rental_uris": {"android": "https://dc.lft.to/lastmile_qr_scan", "ios": "https://dc.lft.to/lastmile_qr_scan"}, "is_reserved": 0, "name": "494066f5f71576c18f7a142f611483bc", "lon": -77.01740766666667, "type": "electric_scooter", "bike_id": "494066f5f71576c18f7a142f611483bc", "fusion_lon": 0.0, "lat": 38.9144545, "fusion_lat": 0.0}, {"is_disabled": 0, "rental_uris": {"android": "https://dc.lft.to/lastmile_qr_scan", "ios": "https://dc.lft.to/lastmile_qr_scan"}, "is_reserved": 0, "name": "af288e7e529f46470d6c364c4b2fe457", "lon": -77.0007445, "type": "electric_scooter", "bike_id": "af288e7e529f46470d6c364c4b2fe457", "fusion_lon": 0.0, "lat": 38.8766, "fusion_lat": 0.0}, {"is_disabled": 0, "rental_uris": {"android": "https://dc.lft.to/lastmile_qr_scan", "ios": "https://dc.lft.to/lastmile_qr_scan"}, "is_reserved": 0, "name": "fd33608d8e74b2daf53e6d537d38214b", "lon": -76.99071566666667, "type": "electric_scooter", "bike_id": "fd33608d8e74b2daf53e6d537d38214b", "fusion_lon": 0.0, "lat": 38.863642666666664, "fusion_lat": 0.0}, {"is_disabled": 0, "rental_uris": {"android": "https://dc.lft.to/lastmile_qr_scan", "ios": "https://dc.lft.to/lastmile_qr_scan"}, "is_reserved": 0, "name": "736f0dce92c4e31bd95c0ecd1c24373f", "lon": -76.9453225, "type": "electric_bike", "bike_id": "736f0dce92c4e31bd95c0ecd1c24373f", "fusion_lon": 0.0, "lat": 38.867560166666664, "fusion_lat": 0.0}, {"is_disabled": 0, "rental_uris": {"android": "https://dc.lft.to/lastmile_qr_scan", "ios": "https://dc.lft.to/lastmile_qr_scan"}, "is_reserved": 0, "name": "8912229deb76dc120d4adc1f1b67762d", "lon": -76.98073783333334, "type": "electric_scooter", "bike_id": "8912229deb76dc120d4adc1f1b67762d", "fusion_lon": 0.0, "lat": 38.936535666666664, "fusion_lat": 0.0}, {"is_disabled": 0, "rental_uris": {"android": "https://dc.lft.to/lastmile_qr_scan", "ios": "https://dc.lft.to/lastmile_qr_scan"}, "is_reserved": 0, "name": "c0b14b67cb491350bb1bd149c7c2867d", "lon": -77.02013766666667, "type": "electric_scooter", "bike_id": "c0b14b67cb491350bb1bd149c7c2867d", "fusion_lon": 0.0, "lat": 38.898680666666664, "fusion_lat": 0.0}, {"is_disabled": 0, "rental_uris": {"android": "https://dc.lft.to/lastmile_qr_scan", "ios": "https://dc.lft.to/lastmile_qr_scan"}, "is_reserved": 0, "name": "ba76ee1fdea895088ed6b6776377a9ef", "lon": -77.03435916666666, "type": "electric_scooter", "bike_id": "ba76ee1fdea895088ed6b6776377a9ef", "fusion_lon": 0.0, "lat": 38.910168, "fusion_lat": 0.0}, {"is_disabled": 0, "rental_uris": {"android": "https://dc.lft.to/lastmile_qr_scan", "ios": "https://dc.lft.to/lastmile_qr_scan"}, "is_reserved": 0, "name": "c7471185395c2cb78ba3c7d86773ba2c", "lon": -77.0366325, "type": "electric_scooter", "bike_id": "c7471185395c2cb78ba3c7d86773ba2c", "fusion_lon": 0.0, "lat": 38.91586783333333, "fusion_lat": 0.0}, {"is_disabled": 0, "rental_uris": {"android": "https://dc.lft.to/lastmile_qr_scan", "ios": "https://dc.lft.to/lastmile_qr_scan"}, "is_reserved": 0, "name": "e1549a022780a91f2e839ac150e3399f", "lon": -76.99608933333333, "type": "electric_scooter", "bike_id": "e1549a022780a91f2e839ac150e3399f", "fusion_lon": 0.0, "lat": 38.926136666666665, "fusion_lat": 0.0}, {"is_disabled": 0, "rental_uris": {"android": "https://dc.lft.to/lastmile_qr_scan", "ios": "https://dc.lft.to/lastmile_qr_scan"}, "is_reserved": 0, "name": "ed7b61c6525ae9bcf9f267e9f7a37ba9", "lon": -77.01451583333333, "type": "electric_scooter", "bike_id": "ed7b61c6525ae9bcf9f267e9f7a37ba9", "fusion_lon": 0.0, "lat": 38.92989983333333, "fusion_lat": 0.0}, {"is_disabled": 0, "rental_uris": {"android": "https://dc.lft.to/lastmile_qr_scan", "ios": "https://dc.lft.to/lastmile_qr_scan"}, "is_reserved": 0, "name": "fa60abac112c5a00c674550e6de6e89c", "lon": -77.00893216666667, "type": "electric_scooter", "bike_id": "fa60abac112c5a00c674550e6de6e89c", "fusion_lon": 0.0, "lat": 38.885046, "fusion_lat": 0.0}, {"is_disabled": 0, "rental_uris": {"android": "https://dc.lft.to/lastmile_qr_scan", "ios": "https://dc.lft.to/lastmile_qr_scan"}, "is_reserved": 0, "name": "b6782be6e1a65914dbcd4b7db951fa1d", "lon": -77.07298033333333, "type": "electric_scooter", "bike_id": "b6782be6e1a65914dbcd4b7db951fa1d", "fusion_lon": 0.0, "lat": 38.92283283333333, "fusion_lat": 0.0}, {"is_disabled": 0, "rental_uris": {"android": "https://dc.lft.to/lastmile_qr_scan", "ios": "https://dc.lft.to/lastmile_qr_scan"}, "is_reserved": 0, "name": "640c59c0b13b219ebec752242210592d", "lon": -77.030502, "type": "electric_bike", "bike_id": "640c59c0b13b219ebec752242210592d", "fusion_lon": 0.0, "lat": 38.994099166666665, "fusion_lat": 0.0}, {"is_disabled": 0, "rental_uris": {"android": "https://dc.lft.to/lastmile_qr_scan", "ios": "https://dc.lft.to/lastmile_qr_scan"}, "is_reserved": 0, "name": "da0d91d6dc5c7648c5235abdd5632f3b", "lon": -77.04521483333333, "type": "electric_scooter", "bike_id": "da0d91d6dc5c7648c5235abdd5632f3b", "fusion_lon": 0.0, "lat": 38.903707, "fusion_lat": 0.0}, {"is_disabled": 0, "rental_uris": {"android": "https://dc.lft.to/lastmile_qr_scan", "ios": "https://dc.lft.to/lastmile_qr_scan"}, "is_reserved": 0, "name": "c8d545a63fd498b0893eadf017bf1e2a", "lon": -77.03484583333334, "type": "electric_scooter", "bike_id": "c8d545a63fd498b0893eadf017bf1e2a", "fusion_lon": 0.0, "lat": 38.924889666666665, "fusion_lat": 0.0}, {"is_disabled": 0, "rental_uris": {"android": "https://dc.lft.to/lastmile_qr_scan", "ios": "https://dc.lft.to/lastmile_qr_scan"}, "is_reserved": 0, "name": "a98036a264e1e78427e63060e193f5f4", "lon": -77.03211233333333, "type": "electric_scooter", "bike_id": "a98036a264e1e78427e63060e193f5f4", "fusion_lon": 0.0, "lat": 38.917489833333335, "fusion_lat": 0.0}, {"is_disabled": 0, "rental_uris": {"android": "https://dc.lft.to/lastmile_qr_scan", "ios": "https://dc.lft.to/lastmile_qr_scan"}, "is_reserved": 0, "name": "7431559005cb83094bf7e936269eed16", "lon": -77.026811, "type": "electric_scooter", "bike_id": "7431559005cb83094bf7e936269eed16", "fusion_lon": 0.0, "lat": 38.896549666666665, "fusion_lat": 0.0}, {"is_disabled": 0, "rental_uris": {"android": "https://dc.lft.to/lastmile_qr_scan", "ios": "https://dc.lft.to/lastmile_qr_scan"}, "is_reserved": 0, "name": "20bb5cb14477ef55782e9ee402396b11", "lon": -77.02067633333333, "type": "electric_scooter", "bike_id": "20bb5cb14477ef55782e9ee402396b11", "fusion_lon": 0.0, "lat": 38.881192166666665, "fusion_lat": 0.0}, {"is_disabled": 0, "rental_uris": {"android": "https://dc.lft.to/lastmile_qr_scan", "ios": "https://dc.lft.to/lastmile_qr_scan"}, "is_reserved": 0, "name": "ff28b3112ab247cb45d5a1a348f7d8a4", "lon": -76.98884666666666, "type": "electric_scooter", "bike_id": "ff28b3112ab247cb45d5a1a348f7d8a4", "fusion_lon": 0.0, "lat": 38.866599, "fusion_lat": 0.0}, {"is_disabled": 0, "rental_uris": {"android": "https://dc.lft.to/lastmile_qr_scan", "ios": "https://dc.lft.to/lastmile_qr_scan"}, "is_reserved": 0, "name": "caa3f51599c2bd4627ee72380401a026", "lon": -76.97793083333333, "type": "electric_bike", "bike_id": "caa3f51599c2bd4627ee72380401a026", "fusion_lon": 0.0, "lat": 38.896085166666666, "fusion_lat": 0.0}, {"is_disabled": 0, "rental_uris": {"android": "https://dc.lft.to/lastmile_qr_scan", "ios": "https://dc.lft.to/lastmile_qr_scan"}, "is_reserved": 0, "name": "473d6cfa6b34ec06d6f9fc471842bb59", "lon": -77.03205566666666, "type": "electric_scooter", "bike_id": "473d6cfa6b34ec06d6f9fc471842bb59", "fusion_lon": 0.0, "lat": 38.901394333333336, "fusion_lat": 0.0}, {"is_disabled": 0, "rental_uris": {"android": "https://dc.lft.to/lastmile_qr_scan", "ios": "https://dc.lft.to/lastmile_qr_scan"}, "is_reserved": 0, "name": "f47d15f0c6de3fcc407c9f415571ac72", "lon": -77.02589333333333, "type": "electric_scooter", "bike_id": "f47d15f0c6de3fcc407c9f415571ac72", "fusion_lon": 0.0, "lat": 38.90500483333334, "fusion_lat": 0.0}, {"is_disabled": 0, "rental_uris": {"android": "https://dc.lft.to/lastmile_qr_scan", "ios": "https://dc.lft.to/lastmile_qr_scan"}, "is_reserved": 0, "name": "bb5e81856d426d71c75a1b0159952c16", "lon": -77.048793, "type": "electric_scooter", "bike_id": "bb5e81856d426d71c75a1b0159952c16", "fusion_lon": 0.0, "lat": 38.90748716666667, "fusion_lat": 0.0}, {"is_disabled": 0, "rental_uris": {"android": "https://dc.lft.to/lastmile_qr_scan", "ios": "https://dc.lft.to/lastmile_qr_scan"}, "is_reserved": 0, "name": "ec52ff432421047784af9fc07b2b6363", "lon": -77.02379083333334, "type": "electric_bike", "bike_id": "ec52ff432421047784af9fc07b2b6363", "fusion_lon": 0.0, "lat": 38.9907355, "fusion_lat": 0.0}, {"is_disabled": 0, "rental_uris": {"android": "https://dc.lft.to/lastmile_qr_scan", "ios": "https://dc.lft.to/lastmile_qr_scan"}, "is_reserved": 0, "name": "8464e7944f177b0fadaf7565afda68bb", "lon": -77.043979, "type": "electric_scooter", "bike_id": "8464e7944f177b0fadaf7565afda68bb", "fusion_lon": 0.0, "lat": 38.89400766666667, "fusion_lat": 0.0}, {"is_disabled": 0, "rental_uris": {"android": "https://dc.lft.to/lastmile_qr_scan", "ios": "https://dc.lft.to/lastmile_qr_scan"}, "is_reserved": 0, "name": "0c1d2be3d7a26963dce5c33185875c39", "lon": -77.0427195, "type": "electric_scooter", "bike_id": "0c1d2be3d7a26963dce5c33185875c39", "fusion_lon": 0.0, "lat": 38.93416583333333, "fusion_lat": 0.0}, {"is_disabled": 0, "rental_uris": {"android": "https://dc.lft.to/lastmile_qr_scan", "ios": "https://dc.lft.to/lastmile_qr_scan"}, "is_reserved": 0, "name": "87d5859f343b8041c493c7e8474044b2", "lon": -77.00561733333333, "type": "electric_scooter", "bike_id": "87d5859f343b8041c493c7e8474044b2", "fusion_lon": 0.0, "lat": 38.88505983333334, "fusion_lat": 0.0}, {"is_disabled": 0, "rental_uris": {"android": "https://dc.lft.to/lastmile_qr_scan", "ios": "https://dc.lft.to/lastmile_qr_scan"}, "is_reserved": 0, "name": "bde90d4546f2a9bb45854d5c52065f80", "lon": -77.06138116666666, "type": "electric_scooter", "bike_id": "bde90d4546f2a9bb45854d5c52065f80", "fusion_lon": 0.0, "lat": 38.90532733333333, "fusion_lat": 0.0}, {"is_disabled": 0, "rental_uris": {"android": "https://dc.lft.to/lastmile_qr_scan", "ios": "https://dc.lft.to/lastmile_qr_scan"}, "is_reserved": 0, "name": "4b4951639a5af60ec4115b17eb705254", "lon": -77.0434745, "type": "electric_scooter", "bike_id": "4b4951639a5af60ec4115b17eb705254", "fusion_lon": 0.0, "lat": 38.913599166666664, "fusion_lat": 0.0}, {"is_disabled": 0, "rental_uris": {"android": "https://dc.lft.to/lastmile_qr_scan", "ios": "https://dc.lft.to/lastmile_qr_scan"}, "is_reserved": 0, "name": "b478ce0676ed1cb884cf34c9461f5107", "lon": -77.03980983333334, "type": "electric_scooter", "bike_id": "b478ce0676ed1cb884cf34c9461f5107", "fusion_lon": 0.0, "lat": 38.91815483333333, "fusion_lat": 0.0}, {"is_disabled": 0, "rental_uris": {"android": "https://dc.lft.to/lastmile_qr_scan", "ios": "https://dc.lft.to/lastmile_qr_scan"}, "is_reserved": 0, "name": "5239053d5d53b380b5a51492142df619", "lon": -77.012272, "type": "electric_scooter", "bike_id": "5239053d5d53b380b5a51492142df619", "fusion_lon": 0.0, "lat": 38.88582866666667, "fusion_lat": 0.0}, {"is_disabled": 0, "rental_uris": {"android": "https://dc.lft.to/lastmile_qr_scan", "ios": "https://dc.lft.to/lastmile_qr_scan"}, "is_reserved": 0, "name": "19d0beb2182c55dd25aa44937ef053e3", "lon": -77.04860433333333, "type": "electric_scooter", "bike_id": "19d0beb2182c55dd25aa44937ef053e3", "fusion_lon": 0.0, "lat": 38.909581, "fusion_lat": 0.0}, {"is_disabled": 0, "rental_uris": {"android": "https://dc.lft.to/lastmile_qr_scan", "ios": "https://dc.lft.to/lastmile_qr_scan"}, "is_reserved": 0, "name": "945748cf9b0824da2680cb43c2541111", "lon": -76.92164433333333, "type": "electric_bike", "bike_id": "945748cf9b0824da2680cb43c2541111", "fusion_lon": 0.0, "lat": 39.010392333333336, "fusion_lat": 0.0}, {"is_disabled": 0, "rental_uris": {"android": "https://dc.lft.to/lastmile_qr_scan", "ios": "https://dc.lft.to/lastmile_qr_scan"}, "is_reserved": 0, "name": "b8fb9cc10cd1c5961260e891d9410885", "lon": -77.02263766666667, "type": "electric_scooter", "bike_id": "b8fb9cc10cd1c5961260e891d9410885", "fusion_lon": 0.0, "lat": 38.92471883333333, "fusion_lat": 0.0}, {"is_disabled": 0, "rental_uris": {"android": "https://dc.lft.to/lastmile_qr_scan", "ios": "https://dc.lft.to/lastmile_qr_scan"}, "is_reserved": 0, "name": "c2b0b9fa4b08d4909c171124089c0c58", "lon": -77.00590416666667, "type": "electric_scooter", "bike_id": "c2b0b9fa4b08d4909c171124089c0c58", "fusion_lon": 0.0, "lat": 38.875547833333336, "fusion_lat": 0.0}, {"is_disabled": 0, "rental_uris": {"android": "https://dc.lft.to/lastmile_qr_scan", "ios": "https://dc.lft.to/lastmile_qr_scan"}, "is_reserved": 0, "name": "0cdc59bb6631bf815c65276506fed712", "lon": -76.95748033333334, "type": "electric_scooter", "bike_id": "0cdc59bb6631bf815c65276506fed712", "fusion_lon": 0.0, "lat": 38.884322166666664, "fusion_lat": 0.0}, {"is_disabled": 0, "rental_uris": {"android": "https://dc.lft.to/lastmile_qr_scan", "ios": "https://dc.lft.to/lastmile_qr_scan"}, "is_reserved": 0, "name": "94d860a2934cf994846210345e206a27", "lon": -77.02944783333334, "type": "electric_scooter", "bike_id": "94d860a2934cf994846210345e206a27", "fusion_lon": 0.0, "lat": 38.90495966666667, "fusion_lat": 0.0}, {"is_disabled": 0, "rental_uris": {"android": "https://dc.lft.to/lastmile_qr_scan", "ios": "https://dc.lft.to/lastmile_qr_scan"}, "is_reserved": 0, "name": "70832c4e846eef7962e70fd42602ee1b", "lon": -77.02347016666667, "type": "electric_scooter", "bike_id": "70832c4e846eef7962e70fd42602ee1b", "fusion_lon": 0.0, "lat": 38.92267483333333, "fusion_lat": 0.0}, {"is_disabled": 0, "rental_uris": {"android": "https://dc.lft.to/lastmile_qr_scan", "ios": "https://dc.lft.to/lastmile_qr_scan"}, "is_reserved": 0, "name": "50ebc887ee9afa375bf93ffd5ed4577f", "lon": -76.95209266666667, "type": "electric_bike", "bike_id": "50ebc887ee9afa375bf93ffd5ed4577f", "fusion_lon": 0.0, "lat": 38.93670566666667, "fusion_lat": 0.0}, {"is_disabled": 0, "rental_uris": {"android": "https://dc.lft.to/lastmile_qr_scan", "ios": "https://dc.lft.to/lastmile_qr_scan"}, "is_reserved": 0, "name": "f94ef1d3544e882ab673e92766831c75", "lon": -77.04335533333334, "type": "electric_scooter", "bike_id": "f94ef1d3544e882ab673e92766831c75", "fusion_lon": 0.0, "lat": 38.8980395, "fusion_lat": 0.0}, {"is_disabled": 0, "rental_uris": {"android": "https://dc.lft.to/lastmile_qr_scan", "ios": "https://dc.lft.to/lastmile_qr_scan"}, "is_reserved": 0, "name": "b9fc02deccd1a59e97758ed34c6f9dbd", "lon": -77.00332366666666, "type": "electric_scooter", "bike_id": "b9fc02deccd1a59e97758ed34c6f9dbd", "fusion_lon": 0.0, "lat": 38.8935475, "fusion_lat": 0.0}, {"is_disabled": 0, "rental_uris": {"android": "https://dc.lft.to/lastmile_qr_scan", "ios": "https://dc.lft.to/lastmile_qr_scan"}, "is_reserved": 0, "name": "590dbfc61f64863c7b23c21e56f15e39", "lon": -77.04751033333334, "type": "electric_scooter", "bike_id": "590dbfc61f64863c7b23c21e56f15e39", "fusion_lon": 0.0, "lat": 38.907144333333335, "fusion_lat": 0.0}, {"is_disabled": 0, "rental_uris": {"android": "https://dc.lft.to/lastmile_qr_scan", "ios": "https://dc.lft.to/lastmile_qr_scan"}, "is_reserved": 0, "name": "d454cbefcf2e507264a0b16654ce6ad8", "lon": -77.01159516666667, "type": "electric_scooter", "bike_id": "d454cbefcf2e507264a0b16654ce6ad8", "fusion_lon": 0.0, "lat": 38.897428166666664, "fusion_lat": 0.0}, {"is_disabled": 0, "rental_uris": {"android": "https://dc.lft.to/lastmile_qr_scan", "ios": "https://dc.lft.to/lastmile_qr_scan"}, "is_reserved": 0, "name": "1f8270c3ef17ef03ff391db38b80d09e", "lon": -77.03474233333333, "type": "electric_scooter", "bike_id": "1f8270c3ef17ef03ff391db38b80d09e", "fusion_lon": 0.0, "lat": 38.902688, "fusion_lat": 0.0}, {"is_disabled": 0, "rental_uris": {"android": "https://dc.lft.to/lastmile_qr_scan", "ios": "https://dc.lft.to/lastmile_qr_scan"}, "is_reserved": 0, "name": "5e0319a9f53d3706458a175840a55ba3", "lon": -76.98725066666667, "type": "electric_scooter", "bike_id": "5e0319a9f53d3706458a175840a55ba3", "fusion_lon": 0.0, "lat": 38.86713183333333, "fusion_lat": 0.0}, {"is_disabled": 0, "rental_uris": {"android": "https://dc.lft.to/lastmile_qr_scan", "ios": "https://dc.lft.to/lastmile_qr_scan"}, "is_reserved": 0, "name": "0f89b72da9f5b106ec1ff32545e5d9ca", "lon": -77.01980533333334, "type": "electric_scooter", "bike_id": "0f89b72da9f5b106ec1ff32545e5d9ca", "fusion_lon": 0.0, "lat": 38.877723333333336, "fusion_lat": 0.0}, {"is_disabled": 0, "rental_uris": {"android": "https://dc.lft.to/lastmile_qr_scan", "ios": "https://dc.lft.to/lastmile_qr_scan"}, "is_reserved": 0, "name": "72a146465d9555f3970f3655d524d032", "lon": -77.0318405, "type": "electric_scooter", "bike_id": "72a146465d9555f3970f3655d524d032", "fusion_lon": 0.0, "lat": 38.90750516666667, "fusion_lat": 0.0}, {"is_disabled": 0, "rental_uris": {"android": "https://dc.lft.to/lastmile_qr_scan", "ios": "https://dc.lft.to/lastmile_qr_scan"}, "is_reserved": 0, "name": "b00fcf3acc66225bd8a276ce2997f760", "lon": -77.03847083333334, "type": "electric_scooter", "bike_id": "b00fcf3acc66225bd8a276ce2997f760", "fusion_lon": 0.0, "lat": 38.92651433333333, "fusion_lat": 0.0}, {"is_disabled": 0, "rental_uris": {"android": "https://dc.lft.to/lastmile_qr_scan", "ios": "https://dc.lft.to/lastmile_qr_scan"}, "is_reserved": 0, "name": "de827ebdb52e554880b4dbc893ff9340", "lon": -77.032362, "type": "electric_scooter", "bike_id": "de827ebdb52e554880b4dbc893ff9340", "fusion_lon": 0.0, "lat": 38.92892416666667, "fusion_lat": 0.0}, {"is_disabled": 0, "rental_uris": {"android": "https://dc.lft.to/lastmile_qr_scan", "ios": "https://dc.lft.to/lastmile_qr_scan"}, "is_reserved": 0, "name": "47b889951636399be78992da478268f6", "lon": -77.010209, "type": "electric_scooter", "bike_id": "47b889951636399be78992da478268f6", "fusion_lon": 0.0, "lat": 38.90628266666667, "fusion_lat": 0.0}, {"is_disabled": 0, "rental_uris": {"android": "https://dc.lft.to/lastmile_qr_scan", "ios": "https://dc.lft.to/lastmile_qr_scan"}, "is_reserved": 0, "name": "669d40557663dbf2b67eea0124547c23", "lon": -77.02366033333334, "type": "electric_scooter", "bike_id": "669d40557663dbf2b67eea0124547c23", "fusion_lon": 0.0, "lat": 38.9252035, "fusion_lat": 0.0}, {"is_disabled": 0, "rental_uris": {"android": "https://dc.lft.to/lastmile_qr_scan", "ios": "https://dc.lft.to/lastmile_qr_scan"}, "is_reserved": 0, "name": "feefb0eb821d2023cf69f54279fbe5d3", "lon": -77.03601166666667, "type": "electric_scooter", "bike_id": "feefb0eb821d2023cf69f54279fbe5d3", "fusion_lon": 0.0, "lat": 38.93484983333333, "fusion_lat": 0.0}, {"is_disabled": 0, "rental_uris": {"android": "https://dc.lft.to/lastmile_qr_scan", "ios": "https://dc.lft.to/lastmile_qr_scan"}, "is_reserved": 0, "name": "1b942604c8d2bf66923d69b84e9bbb87", "lon": -77.02901916666667, "type": "electric_bike", "bike_id": "1b942604c8d2bf66923d69b84e9bbb87", "fusion_lon": 0.0, "lat": 38.89537683333333, "fusion_lat": 0.0}, {"is_disabled": 0, "rental_uris": {"android": "https://dc.lft.to/lastmile_qr_scan", "ios": "https://dc.lft.to/lastmile_qr_scan"}, "is_reserved": 0, "name": "58a920379e021796a60a163447f615ce", "lon": -77.03668516666667, "type": "electric_scooter", "bike_id": "58a920379e021796a60a163447f615ce", "fusion_lon": 0.0, "lat": 38.923299666666665, "fusion_lat": 0.0}, {"is_disabled": 0, "rental_uris": {"android": "https://dc.lft.to/lastmile_qr_scan", "ios": "https://dc.lft.to/lastmile_qr_scan"}, "is_reserved": 0, "name": "4295eb0b51d1f49a9df2d4f464b3ab85", "lon": -77.00562516666666, "type": "electric_scooter", "bike_id": "4295eb0b51d1f49a9df2d4f464b3ab85", "fusion_lon": 0.0, "lat": 38.88506116666667, "fusion_lat": 0.0}, {"is_disabled": 0, "rental_uris": {"android": "https://dc.lft.to/lastmile_qr_scan", "ios": "https://dc.lft.to/lastmile_qr_scan"}, "is_reserved": 0, "name": "e50ca09a6a28216e306471a94a3af2af", "lon": -76.93182566666667, "type": "electric_scooter", "bike_id": "e50ca09a6a28216e306471a94a3af2af", "fusion_lon": 0.0, "lat": 38.898781166666666, "fusion_lat": 0.0}, {"is_disabled": 0, "rental_uris": {"android": "https://dc.lft.to/lastmile_qr_scan", "ios": "https://dc.lft.to/lastmile_qr_scan"}, "is_reserved": 0, "name": "9896cfa6699862de16c5d910a8ace3bf", "lon": -77.03947833333334, "type": "electric_scooter", "bike_id": "9896cfa6699862de16c5d910a8ace3bf", "fusion_lon": 0.0, "lat": 38.913994333333335, "fusion_lat": 0.0}, {"is_disabled": 0, "rental_uris": {"android": "https://dc.lft.to/lastmile_qr_scan", "ios": "https://dc.lft.to/lastmile_qr_scan"}, "is_reserved": 0, "name": "9630535eb1b43dd0d6de725fe6b80ad9", "lon": -77.02894816666667, "type": "electric_bike", "bike_id": "9630535eb1b43dd0d6de725fe6b80ad9", "fusion_lon": 0.0, "lat": 38.99840583333334, "fusion_lat": 0.0}, {"is_disabled": 0, "rental_uris": {"android": "https://dc.lft.to/lastmile_qr_scan", "ios": "https://dc.lft.to/lastmile_qr_scan"}, "is_reserved": 0, "name": "efefe324d1620a9834169258e9d0bc6e", "lon": -77.022274, "type": "electric_scooter", "bike_id": "efefe324d1620a9834169258e9d0bc6e", "fusion_lon": 0.0, "lat": 38.89218733333333, "fusion_lat": 0.0}, {"is_disabled": 0, "rental_uris": {"android": "https://dc.lft.to/lastmile_qr_scan", "ios": "https://dc.lft.to/lastmile_qr_scan"}, "is_reserved": 0, "name": "1cfe0eb146a89c96c77b7a39fc49b586", "lon": -77.12263283333333, "type": "electric_bike", "bike_id": "1cfe0eb146a89c96c77b7a39fc49b586", "fusion_lon": 0.0, "lat": 38.897318166666665, "fusion_lat": 0.0}, {"is_disabled": 0, "rental_uris": {"android": "https://dc.lft.to/lastmile_qr_scan", "ios": "https://dc.lft.to/lastmile_qr_scan"}, "is_reserved": 0, "name": "deb2e6f97c43afe3331a5c22dc319abc", "lon": -77.22940933333334, "type": "electric_bike", "bike_id": "deb2e6f97c43afe3331a5c22dc319abc", "fusion_lon": 0.0, "lat": 38.931927333333334, "fusion_lat": 0.0}, {"is_disabled": 0, "rental_uris": {"android": "https://dc.lft.to/lastmile_qr_scan", "ios": "https://dc.lft.to/lastmile_qr_scan"}, "is_reserved": 0, "name": "4089a31184725170ed1275959ee76c2f", "lon": -77.00674616666667, "type": "electric_scooter", "bike_id": "4089a31184725170ed1275959ee76c2f", "fusion_lon": 0.0, "lat": 38.89995433333333, "fusion_lat": 0.0}, {"is_disabled": 0, "rental_uris": {"android": "https://dc.lft.to/lastmile_qr_scan", "ios": "https://dc.lft.to/lastmile_qr_scan"}, "is_reserved": 0, "name": "5c2a904219e75dcd54415a5d3e04a184", "lon": -76.9165785, "type": "electric_bike", "bike_id": "5c2a904219e75dcd54415a5d3e04a184", "fusion_lon": 0.0, "lat": 38.86858516666667, "fusion_lat": 0.0}, {"is_disabled": 0, "rental_uris": {"android": "https://dc.lft.to/lastmile_qr_scan", "ios": "https://dc.lft.to/lastmile_qr_scan"}, "is_reserved": 0, "name": "da7e152d5e944d56dbbb9f4098df49b3", "lon": -77.04301, "type": "electric_scooter", "bike_id": "da7e152d5e944d56dbbb9f4098df49b3", "fusion_lon": 0.0, "lat": 38.903968666666664, "fusion_lat": 0.0}, {"is_disabled": 0, "rental_uris": {"android": "https://dc.lft.to/lastmile_qr_scan", "ios": "https://dc.lft.to/lastmile_qr_scan"}, "is_reserved": 0, "name": "9032d7b5877b6b125589808d71ae5c77", "lon": -77.02110966666666, "type": "electric_scooter", "bike_id": "9032d7b5877b6b125589808d71ae5c77", "fusion_lon": 0.0, "lat": 38.9409825, "fusion_lat": 0.0}, {"is_disabled": 0, "rental_uris": {"android": "https://dc.lft.to/lastmile_qr_scan", "ios": "https://dc.lft.to/lastmile_qr_scan"}, "is_reserved": 0, "name": "d2e0cf20e9abc0b7bd5c5e0471f0d44a", "lon": -77.02488283333334, "type": "electric_scooter", "bike_id": "d2e0cf20e9abc0b7bd5c5e0471f0d44a", "fusion_lon": 0.0, "lat": 38.93751366666667, "fusion_lat": 0.0}, {"is_disabled": 0, "rental_uris": {"android": "https://dc.lft.to/lastmile_qr_scan", "ios": "https://dc.lft.to/lastmile_qr_scan"}, "is_reserved": 0, "name": "63252fd98ac4824153672cb90b68352e", "lon": -77.03109433333333, "type": "electric_scooter", "bike_id": "63252fd98ac4824153672cb90b68352e", "fusion_lon": 0.0, "lat": 38.936751666666666, "fusion_lat": 0.0}, {"is_disabled": 0, "rental_uris": {"android": "https://dc.lft.to/lastmile_qr_scan", "ios": "https://dc.lft.to/lastmile_qr_scan"}, "is_reserved": 0, "name": "9d3eff580b8a244d333fa651aaf7d079", "lon": -77.0124635, "type": "electric_scooter", "bike_id": "9d3eff580b8a244d333fa651aaf7d079", "fusion_lon": 0.0, "lat": 38.9310975, "fusion_lat": 0.0}, {"is_disabled": 0, "rental_uris": {"android": "https://dc.lft.to/lastmile_qr_scan", "ios": "https://dc.lft.to/lastmile_qr_scan"}, "is_reserved": 0, "name": "61e9950351fc4ba67459a15b54a1ab8c", "lon": -77.0412685, "type": "electric_scooter", "bike_id": "61e9950351fc4ba67459a15b54a1ab8c", "fusion_lon": 0.0, "lat": 38.9214325, "fusion_lat": 0.0}, {"is_disabled": 0, "rental_uris": {"android": "https://dc.lft.to/lastmile_qr_scan", "ios": "https://dc.lft.to/lastmile_qr_scan"}, "is_reserved": 0, "name": "123193556b70a5cc4972747faa6ff998", "lon": -77.10652383333333, "type": "electric_bike", "bike_id": "123193556b70a5cc4972747faa6ff998", "fusion_lon": 0.0, "lat": 39.03003283333334, "fusion_lat": 0.0}, {"is_disabled": 0, "rental_uris": {"android": "https://dc.lft.to/lastmile_qr_scan", "ios": "https://dc.lft.to/lastmile_qr_scan"}, "is_reserved": 0, "name": "91d3e472dd4127d1d078a922fc2ab696", "lon": -77.007398, "type": "electric_scooter", "bike_id": "91d3e472dd4127d1d078a922fc2ab696", "fusion_lon": 0.0, "lat": 38.907401166666666, "fusion_lat": 0.0}, {"is_disabled": 0, "rental_uris": {"android": "https://dc.lft.to/lastmile_qr_scan", "ios": "https://dc.lft.to/lastmile_qr_scan"}, "is_reserved": 0, "name": "77f6810165f848b78407c77b90788e74", "lon": -77.04403633333334, "type": "electric_scooter", "bike_id": "77f6810165f848b78407c77b90788e74", "fusion_lon": 0.0, "lat": 38.929536, "fusion_lat": 0.0}, {"is_disabled": 0, "rental_uris": {"android": "https://dc.lft.to/lastmile_qr_scan", "ios": "https://dc.lft.to/lastmile_qr_scan"}, "is_reserved": 0, "name": "993f6a7b685e8ed50274059c00eb4752", "lon": -76.99060266666666, "type": "electric_scooter", "bike_id": "993f6a7b685e8ed50274059c00eb4752", "fusion_lon": 0.0, "lat": 38.863633166666666, "fusion_lat": 0.0}, {"is_disabled": 0, "rental_uris": {"android": "https://dc.lft.to/lastmile_qr_scan", "ios": "https://dc.lft.to/lastmile_qr_scan"}, "is_reserved": 0, "name": "8afc5deb494b57e06446db904ad30725", "lon": -77.05013433333333, "type": "electric_bike", "bike_id": "8afc5deb494b57e06446db904ad30725", "fusion_lon": 0.0, "lat": 38.90071533333333, "fusion_lat": 0.0}, {"is_disabled": 0, "rental_uris": {"android": "https://dc.lft.to/lastmile_qr_scan", "ios": "https://dc.lft.to/lastmile_qr_scan"}, "is_reserved": 0, "name": "3fe940ab11eaac5c36ba34427f94a400", "lon": -77.02048633333334, "type": "electric_scooter", "bike_id": "3fe940ab11eaac5c36ba34427f94a400", "fusion_lon": 0.0, "lat": 38.95871066666667, "fusion_lat": 0.0}, {"is_disabled": 0, "rental_uris": {"android": "https://dc.lft.to/lastmile_qr_scan", "ios": "https://dc.lft.to/lastmile_qr_scan"}, "is_reserved": 0, "name": "a5087f6a78bd53bf0bbfcdbe55a4a077", "lon": -77.03850633333333, "type": "electric_scooter", "bike_id": "a5087f6a78bd53bf0bbfcdbe55a4a077", "fusion_lon": 0.0, "lat": 38.916187666666666, "fusion_lat": 0.0}, {"is_disabled": 0, "rental_uris": {"android": "https://dc.lft.to/lastmile_qr_scan", "ios": "https://dc.lft.to/lastmile_qr_scan"}, "is_reserved": 0, "name": "da39c9a889057016af0ee47f3ad3a7c2", "lon": -77.02882866666667, "type": "electric_scooter", "bike_id": "da39c9a889057016af0ee47f3ad3a7c2", "fusion_lon": 0.0, "lat": 38.92243416666667, "fusion_lat": 0.0}, {"is_disabled": 0, "rental_uris": {"android": "https://dc.lft.to/lastmile_qr_scan", "ios": "https://dc.lft.to/lastmile_qr_scan"}, "is_reserved": 0, "name": "c8d298aca1bcecd017375062f57f539c", "lon": -76.990899, "type": "electric_scooter", "bike_id": "c8d298aca1bcecd017375062f57f539c", "fusion_lon": 0.0, "lat": 38.86241966666667, "fusion_lat": 0.0}, {"is_disabled": 0, "rental_uris": {"android": "https://dc.lft.to/lastmile_qr_scan", "ios": "https://dc.lft.to/lastmile_qr_scan"}, "is_reserved": 0, "name": "b2010cd4a448f3a2bdc4c4c0d5cbcd28", "lon": -77.0405545, "type": "electric_scooter", "bike_id": "b2010cd4a448f3a2bdc4c4c0d5cbcd28", "fusion_lon": 0.0, "lat": 38.92545533333333, "fusion_lat": 0.0}, {"is_disabled": 0, "rental_uris": {"android": "https://dc.lft.to/lastmile_qr_scan", "ios": "https://dc.lft.to/lastmile_qr_scan"}, "is_reserved": 0, "name": "dc483feaa41fc238451843548cc17223", "lon": -76.93150066666666, "type": "electric_scooter", "bike_id": "dc483feaa41fc238451843548cc17223", "fusion_lon": 0.0, "lat": 38.898459833333334, "fusion_lat": 0.0}, {"is_disabled": 0, "rental_uris": {"android": "https://dc.lft.to/lastmile_qr_scan", "ios": "https://dc.lft.to/lastmile_qr_scan"}, "is_reserved": 0, "name": "8986f390025843aff3d3f964c6dbdf69", "lon": -77.02939916666666, "type": "electric_scooter", "bike_id": "8986f390025843aff3d3f964c6dbdf69", "fusion_lon": 0.0, "lat": 38.898453, "fusion_lat": 0.0}, {"is_disabled": 0, "rental_uris": {"android": "https://dc.lft.to/lastmile_qr_scan", "ios": "https://dc.lft.to/lastmile_qr_scan"}, "is_reserved": 0, "name": "5b4c993c6d31b5e1e48df145590178f0", "lon": -77.05024283333333, "type": "electric_scooter", "bike_id": "5b4c993c6d31b5e1e48df145590178f0", "fusion_lon": 0.0, "lat": 38.90613, "fusion_lat": 0.0}, {"is_disabled": 0, "rental_uris": {"android": "https://dc.lft.to/lastmile_qr_scan", "ios": "https://dc.lft.to/lastmile_qr_scan"}, "is_reserved": 0, "name": "e4c7c1687ab88139222d57d93e04ec01", "lon": -76.98080516666667, "type": "electric_scooter", "bike_id": "e4c7c1687ab88139222d57d93e04ec01", "fusion_lon": 0.0, "lat": 38.870107, "fusion_lat": 0.0}, {"is_disabled": 0, "rental_uris": {"android": "https://dc.lft.to/lastmile_qr_scan", "ios": "https://dc.lft.to/lastmile_qr_scan"}, "is_reserved": 0, "name": "b975fb4d05bf5e16ce6edfc2547cfa8c", "lon": -77.02209766666667, "type": "electric_scooter", "bike_id": "b975fb4d05bf5e16ce6edfc2547cfa8c", "fusion_lon": 0.0, "lat": 38.88739833333333, "fusion_lat": 0.0}, {"is_disabled": 0, "rental_uris": {"android": "https://dc.lft.to/lastmile_qr_scan", "ios": "https://dc.lft.to/lastmile_qr_scan"}, "is_reserved": 0, "name": "6da306ea68d521b2e11a160e4e2f6cef", "lon": -76.98726866666667, "type": "electric_scooter", "bike_id": "6da306ea68d521b2e11a160e4e2f6cef", "fusion_lon": 0.0, "lat": 38.86703633333333, "fusion_lat": 0.0}, {"is_disabled": 0, "rental_uris": {"android": "https://dc.lft.to/lastmile_qr_scan", "ios": "https://dc.lft.to/lastmile_qr_scan"}, "is_reserved": 0, "name": "06b6ed281a1079a6b8179d9f265a34de", "lon": -77.03649466666667, "type": "electric_scooter", "bike_id": "06b6ed281a1079a6b8179d9f265a34de", "fusion_lon": 0.0, "lat": 38.91863516666667, "fusion_lat": 0.0}, {"is_disabled": 0, "rental_uris": {"android": "https://dc.lft.to/lastmile_qr_scan", "ios": "https://dc.lft.to/lastmile_qr_scan"}, "is_reserved": 0, "name": "a918c9b2a3edd881614445a48c347a91", "lon": -77.0665725, "type": "electric_scooter", "bike_id": "a918c9b2a3edd881614445a48c347a91", "fusion_lon": 0.0, "lat": 38.94970816666667, "fusion_lat": 0.0}, {"is_disabled": 0, "rental_uris": {"android": "https://dc.lft.to/lastmile_qr_scan", "ios": "https://dc.lft.to/lastmile_qr_scan"}, "is_reserved": 0, "name": "d1c8d16b87a3e079b461cb3b9576ce53", "lon": -77.04450733333333, "type": "electric_scooter", "bike_id": "d1c8d16b87a3e079b461cb3b9576ce53", "fusion_lon": 0.0, "lat": 38.9027585, "fusion_lat": 0.0}, {"is_disabled": 0, "rental_uris": {"android": "https://dc.lft.to/lastmile_qr_scan", "ios": "https://dc.lft.to/lastmile_qr_scan"}, "is_reserved": 0, "name": "8a0074b31b5fb2e740dbe48b02c3c39c", "lon": -77.02505216666667, "type": "electric_scooter", "bike_id": "8a0074b31b5fb2e740dbe48b02c3c39c", "fusion_lon": 0.0, "lat": 38.93883, "fusion_lat": 0.0}, {"is_disabled": 0, "rental_uris": {"android": "https://dc.lft.to/lastmile_qr_scan", "ios": "https://dc.lft.to/lastmile_qr_scan"}, "is_reserved": 0, "name": "04bc7be208722aa4c64074d437410b05", "lon": -77.03461983333334, "type": "electric_scooter", "bike_id": "04bc7be208722aa4c64074d437410b05", "fusion_lon": 0.0, "lat": 38.903258666666666, "fusion_lat": 0.0}, {"is_disabled": 0, "rental_uris": {"android": "https://dc.lft.to/lastmile_qr_scan", "ios": "https://dc.lft.to/lastmile_qr_scan"}, "is_reserved": 0, "name": "ee0341731c06a75fd9fd256e2e6a4c4a", "lon": -77.04210383333333, "type": "electric_scooter", "bike_id": "ee0341731c06a75fd9fd256e2e6a4c4a", "fusion_lon": 0.0, "lat": 38.923143, "fusion_lat": 0.0}, {"is_disabled": 0, "rental_uris": {"android": "https://dc.lft.to/lastmile_qr_scan", "ios": "https://dc.lft.to/lastmile_qr_scan"}, "is_reserved": 0, "name": "10dcf7f93309b813ef4c28b7d00b2df4", "lon": -77.02491183333333, "type": "electric_scooter", "bike_id": "10dcf7f93309b813ef4c28b7d00b2df4", "fusion_lon": 0.0, "lat": 38.91957583333333, "fusion_lat": 0.0}, {"is_disabled": 0, "rental_uris": {"android": "https://dc.lft.to/lastmile_qr_scan", "ios": "https://dc.lft.to/lastmile_qr_scan"}, "is_reserved": 0, "name": "7aa8ac94e12119241c8df33f83cb5ecd", "lon": -77.0459435, "type": "electric_scooter", "bike_id": "7aa8ac94e12119241c8df33f83cb5ecd", "fusion_lon": 0.0, "lat": 38.90269716666667, "fusion_lat": 0.0}, {"is_disabled": 0, "rental_uris": {"android": "https://dc.lft.to/lastmile_qr_scan", "ios": "https://dc.lft.to/lastmile_qr_scan"}, "is_reserved": 0, "name": "da0e4ab3daa386abcc05e242b5f09dc1", "lon": -77.05057066666667, "type": "electric_scooter", "bike_id": "da0e4ab3daa386abcc05e242b5f09dc1", "fusion_lon": 0.0, "lat": 38.916395333333334, "fusion_lat": 0.0}, {"is_disabled": 0, "rental_uris": {"android": "https://dc.lft.to/lastmile_qr_scan", "ios": "https://dc.lft.to/lastmile_qr_scan"}, "is_reserved": 0, "name": "85fbdcee29a590201056ede79f676711", "lon": -77.03854783333334, "type": "electric_scooter", "bike_id": "85fbdcee29a590201056ede79f676711", "fusion_lon": 0.0, "lat": 38.9183635, "fusion_lat": 0.0}, {"is_disabled": 0, "rental_uris": {"android": "https://dc.lft.to/lastmile_qr_scan", "ios": "https://dc.lft.to/lastmile_qr_scan"}, "is_reserved": 0, "name": "9dc93d401ce4cdc28bef86db2982ae2e", "lon": -77.03444583333334, "type": "electric_scooter", "bike_id": "9dc93d401ce4cdc28bef86db2982ae2e", "fusion_lon": 0.0, "lat": 38.90437583333333, "fusion_lat": 0.0}, {"is_disabled": 0, "rental_uris": {"android": "https://dc.lft.to/lastmile_qr_scan", "ios": "https://dc.lft.to/lastmile_qr_scan"}, "is_reserved": 0, "name": "db702c629fb437a98b8959622239cf32", "lon": -76.9487975, "type": "electric_scooter", "bike_id": "db702c629fb437a98b8959622239cf32", "fusion_lon": 0.0, "lat": 38.89582433333333, "fusion_lat": 0.0}, {"is_disabled": 0, "rental_uris": {"android": "https://dc.lft.to/lastmile_qr_scan", "ios": "https://dc.lft.to/lastmile_qr_scan"}, "is_reserved": 0, "name": "a701f73dd8503923f2ed1bf5dd2f9907", "lon": -77.03497533333334, "type": "electric_scooter", "bike_id": "a701f73dd8503923f2ed1bf5dd2f9907", "fusion_lon": 0.0, "lat": 38.9233165, "fusion_lat": 0.0}, {"is_disabled": 0, "rental_uris": {"android": "https://dc.lft.to/lastmile_qr_scan", "ios": "https://dc.lft.to/lastmile_qr_scan"}, "is_reserved": 0, "name": "193ae070e891117fab2baf1b39eb69dc", "lon": -76.99518083333334, "type": "electric_scooter", "bike_id": "193ae070e891117fab2baf1b39eb69dc", "fusion_lon": 0.0, "lat": 38.89487316666667, "fusion_lat": 0.0}, {"is_disabled": 0, "rental_uris": {"android": "https://dc.lft.to/lastmile_qr_scan", "ios": "https://dc.lft.to/lastmile_qr_scan"}, "is_reserved": 0, "name": "c91205e042828f4f7496039d8015ef8d", "lon": -77.00047833333333, "type": "electric_scooter", "bike_id": "c91205e042828f4f7496039d8015ef8d", "fusion_lon": 0.0, "lat": 38.919007, "fusion_lat": 0.0}, {"is_disabled": 0, "rental_uris": {"android": "https://dc.lft.to/lastmile_qr_scan", "ios": "https://dc.lft.to/lastmile_qr_scan"}, "is_reserved": 0, "name": "cffd78af3193cef1af491ecdb6fef369", "lon": -77.04393583333334, "type": "electric_scooter", "bike_id": "cffd78af3193cef1af491ecdb6fef369", "fusion_lon": 0.0, "lat": 38.92274316666666, "fusion_lat": 0.0}, {"is_disabled": 0, "rental_uris": {"android": "https://dc.lft.to/lastmile_qr_scan", "ios": "https://dc.lft.to/lastmile_qr_scan"}, "is_reserved": 0, "name": "cfac0291de8c449218b62a95a60cdd1c", "lon": -76.98711083333333, "type": "electric_scooter", "bike_id": "cfac0291de8c449218b62a95a60cdd1c", "fusion_lon": 0.0, "lat": 38.867021666666666, "fusion_lat": 0.0}, {"is_disabled": 0, "rental_uris": {"android": "https://dc.lft.to/lastmile_qr_scan", "ios": "https://dc.lft.to/lastmile_qr_scan"}, "is_reserved": 0, "name": "f66d3d76a82da996eab4165871845a95", "lon": -77.06177, "type": "electric_scooter", "bike_id": "f66d3d76a82da996eab4165871845a95", "fusion_lon": 0.0, "lat": 38.906873166666664, "fusion_lat": 0.0}, {"is_disabled": 0, "rental_uris": {"android": "https://dc.lft.to/lastmile_qr_scan", "ios": "https://dc.lft.to/lastmile_qr_scan"}, "is_reserved": 0, "name": "fffdaf7fcda05044c3da61d5c0491114", "lon": -77.00336983333334, "type": "electric_scooter", "bike_id": "fffdaf7fcda05044c3da61d5c0491114", "fusion_lon": 0.0, "lat": 38.89365316666667, "fusion_lat": 0.0}, {"is_disabled": 0, "rental_uris": {"android": "https://dc.lft.to/lastmile_qr_scan", "ios": "https://dc.lft.to/lastmile_qr_scan"}, "is_reserved": 0, "name": "802c3446a472a2f50bbdd9c889a9531e", "lon": -77.0646835, "type": "electric_scooter", "bike_id": "802c3446a472a2f50bbdd9c889a9531e", "fusion_lon": 0.0, "lat": 38.90505983333333, "fusion_lat": 0.0}, {"is_disabled": 0, "rental_uris": {"android": "https://dc.lft.to/lastmile_qr_scan", "ios": "https://dc.lft.to/lastmile_qr_scan"}, "is_reserved": 0, "name": "8e1a84e4d4b5fce25dc7a1962a2006a9", "lon": -77.02262916666666, "type": "electric_scooter", "bike_id": "8e1a84e4d4b5fce25dc7a1962a2006a9", "fusion_lon": 0.0, "lat": 38.92737066666667, "fusion_lat": 0.0}, {"is_disabled": 0, "rental_uris": {"android": "https://dc.lft.to/lastmile_qr_scan", "ios": "https://dc.lft.to/lastmile_qr_scan"}, "is_reserved": 0, "name": "05de4cae0158029ee9acb70b0142fe32", "lon": -77.04892416666667, "type": "electric_scooter", "bike_id": "05de4cae0158029ee9acb70b0142fe32", "fusion_lon": 0.0, "lat": 38.892537, "fusion_lat": 0.0}, {"is_disabled": 0, "rental_uris": {"android": "https://dc.lft.to/lastmile_qr_scan", "ios": "https://dc.lft.to/lastmile_qr_scan"}, "is_reserved": 0, "name": "6e973f1d5f87dc34de5cf4a16e4d93e0", "lon": -77.00223633333333, "type": "electric_bike", "bike_id": "6e973f1d5f87dc34de5cf4a16e4d93e0", "fusion_lon": 0.0, "lat": 38.95751116666667, "fusion_lat": 0.0}, {"is_disabled": 0, "rental_uris": {"android": "https://dc.lft.to/lastmile_qr_scan", "ios": "https://dc.lft.to/lastmile_qr_scan"}, "is_reserved": 0, "name": "23eb344b7fda13d36e11628a2a4f93d7", "lon": -77.04174, "type": "electric_scooter", "bike_id": "23eb344b7fda13d36e11628a2a4f93d7", "fusion_lon": 0.0, "lat": 38.910324333333335, "fusion_lat": 0.0}, {"is_disabled": 0, "rental_uris": {"android": "https://dc.lft.to/lastmile_qr_scan", "ios": "https://dc.lft.to/lastmile_qr_scan"}, "is_reserved": 0, "name": "eda2949d8d916dfcd00549a5c3df9e30", "lon": -76.98418866666667, "type": "electric_bike", "bike_id": "eda2949d8d916dfcd00549a5c3df9e30", "fusion_lon": 0.0, "lat": 38.85508216666667, "fusion_lat": 0.0}, {"is_disabled": 0, "rental_uris": {"android": "https://dc.lft.to/lastmile_qr_scan", "ios": "https://dc.lft.to/lastmile_qr_scan"}, "is_reserved": 0, "name": "5159b981d778bcb4869a484070fd57d7", "lon": -77.0202125, "type": "electric_scooter", "bike_id": "5159b981d778bcb4869a484070fd57d7", "fusion_lon": 0.0, "lat": 38.88335333333333, "fusion_lat": 0.0}, {"is_disabled": 0, "rental_uris": {"android": "https://dc.lft.to/lastmile_qr_scan", "ios": "https://dc.lft.to/lastmile_qr_scan"}, "is_reserved": 0, "name": "3776babd6c26ce4a46f93b39197fca12", "lon": -76.96707983333333, "type": "electric_scooter", "bike_id": "3776babd6c26ce4a46f93b39197fca12", "fusion_lon": 0.0, "lat": 38.847987333333336, "fusion_lat": 0.0}, {"is_disabled": 0, "rental_uris": {"android": "https://dc.lft.to/lastmile_qr_scan", "ios": "https://dc.lft.to/lastmile_qr_scan"}, "is_reserved": 0, "name": "c6652141c529e6db0439834897e2ed6b", "lon": -76.9800465, "type": "electric_scooter", "bike_id": "c6652141c529e6db0439834897e2ed6b", "fusion_lon": 0.0, "lat": 38.90686316666667, "fusion_lat": 0.0}, {"is_disabled": 0, "rental_uris": {"android": "https://dc.lft.to/lastmile_qr_scan", "ios": "https://dc.lft.to/lastmile_qr_scan"}, "is_reserved": 0, "name": "468dfa3acb5bbd5194f5d9c2caa1ab9a", "lon": -77.02999583333333, "type": "electric_scooter", "bike_id": "468dfa3acb5bbd5194f5d9c2caa1ab9a", "fusion_lon": 0.0, "lat": 38.89634983333333, "fusion_lat": 0.0}, {"is_disabled": 0, "rental_uris": {"android": "https://dc.lft.to/lastmile_qr_scan", "ios": "https://dc.lft.to/lastmile_qr_scan"}, "is_reserved": 0, "name": "16c6329f229f30e04fdfd7aa8e39dac2", "lon": -76.97799883333333, "type": "electric_scooter", "bike_id": "16c6329f229f30e04fdfd7aa8e39dac2", "fusion_lon": 0.0, "lat": 38.92064216666667, "fusion_lat": 0.0}, {"is_disabled": 0, "rental_uris": {"android": "https://dc.lft.to/lastmile_qr_scan", "ios": "https://dc.lft.to/lastmile_qr_scan"}, "is_reserved": 0, "name": "e84ef119ad0a00e37feb6ff9d70898d6", "lon": -77.002236, "type": "electric_scooter", "bike_id": "e84ef119ad0a00e37feb6ff9d70898d6", "fusion_lon": 0.0, "lat": 38.911753833333336, "fusion_lat": 0.0}, {"is_disabled": 0, "rental_uris": {"android": "https://dc.lft.to/lastmile_qr_scan", "ios": "https://dc.lft.to/lastmile_qr_scan"}, "is_reserved": 0, "name": "4b3bb3c4f1f88d6d6166bfe32692c7cc", "lon": -76.99902233333333, "type": "electric_scooter", "bike_id": "4b3bb3c4f1f88d6d6166bfe32692c7cc", "fusion_lon": 0.0, "lat": 38.89210516666667, "fusion_lat": 0.0}, {"is_disabled": 0, "rental_uris": {"android": "https://dc.lft.to/lastmile_qr_scan", "ios": "https://dc.lft.to/lastmile_qr_scan"}, "is_reserved": 0, "name": "bdc5b6e1e16595ec4c042ab31a58af88", "lon": -77.04156483333334, "type": "electric_scooter", "bike_id": "bdc5b6e1e16595ec4c042ab31a58af88", "fusion_lon": 0.0, "lat": 38.90523566666667, "fusion_lat": 0.0}, {"is_disabled": 0, "rental_uris": {"android": "https://dc.lft.to/lastmile_qr_scan", "ios": "https://dc.lft.to/lastmile_qr_scan"}, "is_reserved": 0, "name": "b7a8e9c9de38541c4982813e65098eec", "lon": -77.03487866666667, "type": "electric_scooter", "bike_id": "b7a8e9c9de38541c4982813e65098eec", "fusion_lon": 0.0, "lat": 38.92147583333333, "fusion_lat": 0.0}, {"is_disabled": 0, "rental_uris": {"android": "https://dc.lft.to/lastmile_qr_scan", "ios": "https://dc.lft.to/lastmile_qr_scan"}, "is_reserved": 0, "name": "e61136a469a7494f34adc82fffadb309", "lon": -76.998617, "type": "electric_scooter", "bike_id": "e61136a469a7494f34adc82fffadb309", "fusion_lon": 0.0, "lat": 38.900307833333336, "fusion_lat": 0.0}, {"is_disabled": 0, "rental_uris": {"android": "https://dc.lft.to/lastmile_qr_scan", "ios": "https://dc.lft.to/lastmile_qr_scan"}, "is_reserved": 0, "name": "308d5f729ef3aa195be186bcd8c8d1d1", "lon": -77.05025283333333, "type": "electric_scooter", "bike_id": "308d5f729ef3aa195be186bcd8c8d1d1", "fusion_lon": 0.0, "lat": 38.89695283333333, "fusion_lat": 0.0}, {"is_disabled": 0, "rental_uris": {"android": "https://dc.lft.to/lastmile_qr_scan", "ios": "https://dc.lft.to/lastmile_qr_scan"}, "is_reserved": 0, "name": "84387f403a92ef39ef91dbdbf4bac840", "lon": -77.03202066666667, "type": "electric_scooter", "bike_id": "84387f403a92ef39ef91dbdbf4bac840", "fusion_lon": 0.0, "lat": 38.913444166666665, "fusion_lat": 0.0}, {"is_disabled": 0, "rental_uris": {"android": "https://dc.lft.to/lastmile_qr_scan", "ios": "https://dc.lft.to/lastmile_qr_scan"}, "is_reserved": 0, "name": "27e6cd645d8adb1f1c44ff9e922b634f", "lon": -77.03049266666666, "type": "electric_bike", "bike_id": "27e6cd645d8adb1f1c44ff9e922b634f", "fusion_lon": 0.0, "lat": 38.884105, "fusion_lat": 0.0}, {"is_disabled": 0, "rental_uris": {"android": "https://dc.lft.to/lastmile_qr_scan", "ios": "https://dc.lft.to/lastmile_qr_scan"}, "is_reserved": 0, "name": "2fdac6dd47765c23929400d51c6106ff", "lon": -77.03413683333333, "type": "electric_scooter", "bike_id": "2fdac6dd47765c23929400d51c6106ff", "fusion_lon": 0.0, "lat": 38.919295, "fusion_lat": 0.0}, {"is_disabled": 0, "rental_uris": {"android": "https://dc.lft.to/lastmile_qr_scan", "ios": "https://dc.lft.to/lastmile_qr_scan"}, "is_reserved": 0, "name": "0a3fd73d555f0e2d4dce7839a1ca5cd3", "lon": -77.04634966666667, "type": "electric_scooter", "bike_id": "0a3fd73d555f0e2d4dce7839a1ca5cd3", "fusion_lon": 0.0, "lat": 38.90463, "fusion_lat": 0.0}, {"is_disabled": 0, "rental_uris": {"android": "https://dc.lft.to/lastmile_qr_scan", "ios": "https://dc.lft.to/lastmile_qr_scan"}, "is_reserved": 0, "name": "f7731b1fc58214e83a1128339ae9686d", "lon": -77.02958816666667, "type": "electric_scooter", "bike_id": "f7731b1fc58214e83a1128339ae9686d", "fusion_lon": 0.0, "lat": 38.921442666666664, "fusion_lat": 0.0}, {"is_disabled": 0, "rental_uris": {"android": "https://dc.lft.to/lastmile_qr_scan", "ios": "https://dc.lft.to/lastmile_qr_scan"}, "is_reserved": 0, "name": "4dc866094fbaa7b5926a485f36b19889", "lon": -76.97315466666667, "type": "electric_scooter", "bike_id": "4dc866094fbaa7b5926a485f36b19889", "fusion_lon": 0.0, "lat": 38.91986266666667, "fusion_lat": 0.0}, {"is_disabled": 0, "rental_uris": {"android": "https://dc.lft.to/lastmile_qr_scan", "ios": "https://dc.lft.to/lastmile_qr_scan"}, "is_reserved": 0, "name": "d48f457fbf200b776235bfbf814fc2e7", "lon": -77.04157716666667, "type": "electric_scooter", "bike_id": "d48f457fbf200b776235bfbf814fc2e7", "fusion_lon": 0.0, "lat": 38.916182, "fusion_lat": 0.0}, {"is_disabled": 0, "rental_uris": {"android": "https://dc.lft.to/lastmile_qr_scan", "ios": "https://dc.lft.to/lastmile_qr_scan"}, "is_reserved": 0, "name": "0abda95b2f0098af90d1d74746a6b040", "lon": -77.07286383333333, "type": "electric_scooter", "bike_id": "0abda95b2f0098af90d1d74746a6b040", "fusion_lon": 0.0, "lat": 38.9318765, "fusion_lat": 0.0}, {"is_disabled": 0, "rental_uris": {"android": "https://dc.lft.to/lastmile_qr_scan", "ios": "https://dc.lft.to/lastmile_qr_scan"}, "is_reserved": 0, "name": "e80c2dbcc3357a4886988e902ebe8afd", "lon": -77.024089, "type": "electric_scooter", "bike_id": "e80c2dbcc3357a4886988e902ebe8afd", "fusion_lon": 0.0, "lat": 38.915734666666665, "fusion_lat": 0.0}, {"is_disabled": 0, "rental_uris": {"android": "https://dc.lft.to/lastmile_qr_scan", "ios": "https://dc.lft.to/lastmile_qr_scan"}, "is_reserved": 0, "name": "1fc90f418e1275969d204ca6cf61982d", "lon": -77.02992833333333, "type": "electric_scooter", "bike_id": "1fc90f418e1275969d204ca6cf61982d", "fusion_lon": 0.0, "lat": 38.92473316666667, "fusion_lat": 0.0}, {"is_disabled": 0, "rental_uris": {"android": "https://dc.lft.to/lastmile_qr_scan", "ios": "https://dc.lft.to/lastmile_qr_scan"}, "is_reserved": 0, "name": "de039c1ddd2fd88203605dbaf26369c9", "lon": -77.05104116666666, "type": "electric_scooter", "bike_id": "de039c1ddd2fd88203605dbaf26369c9", "fusion_lon": 0.0, "lat": 38.923644, "fusion_lat": 0.0}, {"is_disabled": 0, "rental_uris": {"android": "https://dc.lft.to/lastmile_qr_scan", "ios": "https://dc.lft.to/lastmile_qr_scan"}, "is_reserved": 0, "name": "0e99376177ddcf8c559b51ef9421b052", "lon": -76.99694916666667, "type": "electric_scooter", "bike_id": "0e99376177ddcf8c559b51ef9421b052", "fusion_lon": 0.0, "lat": 38.90051833333333, "fusion_lat": 0.0}, {"is_disabled": 0, "rental_uris": {"android": "https://dc.lft.to/lastmile_qr_scan", "ios": "https://dc.lft.to/lastmile_qr_scan"}, "is_reserved": 0, "name": "ecd5a33f7458ec555a1cace7305742b0", "lon": -77.028156, "type": "electric_scooter", "bike_id": "ecd5a33f7458ec555a1cace7305742b0", "fusion_lon": 0.0, "lat": 38.896303, "fusion_lat": 0.0}, {"is_disabled": 0, "rental_uris": {"android": "https://dc.lft.to/lastmile_qr_scan", "ios": "https://dc.lft.to/lastmile_qr_scan"}, "is_reserved": 0, "name": "45fa68e7b40f8f66c06d97bce9038f92", "lon": -77.05849416666666, "type": "electric_scooter", "bike_id": "45fa68e7b40f8f66c06d97bce9038f92", "fusion_lon": 0.0, "lat": 38.93697233333333, "fusion_lat": 0.0}, {"is_disabled": 0, "rental_uris": {"android": "https://dc.lft.to/lastmile_qr_scan", "ios": "https://dc.lft.to/lastmile_qr_scan"}, "is_reserved": 0, "name": "1652dc80d0666a5e5367ffcc90d00472", "lon": -77.0298345, "type": "electric_scooter", "bike_id": "1652dc80d0666a5e5367ffcc90d00472", "fusion_lon": 0.0, "lat": 38.9247225, "fusion_lat": 0.0}, {"is_disabled": 0, "rental_uris": {"android": "https://dc.lft.to/lastmile_qr_scan", "ios": "https://dc.lft.to/lastmile_qr_scan"}, "is_reserved": 0, "name": "55c336829a8e83460cb193d765eae119", "lon": -77.02224033333333, "type": "electric_scooter", "bike_id": "55c336829a8e83460cb193d765eae119", "fusion_lon": 0.0, "lat": 38.91684433333333, "fusion_lat": 0.0}, {"is_disabled": 0, "rental_uris": {"android": "https://dc.lft.to/lastmile_qr_scan", "ios": "https://dc.lft.to/lastmile_qr_scan"}, "is_reserved": 0, "name": "5cb91c858b9a59244e8e7e7f534ed724", "lon": -76.99593033333333, "type": "electric_scooter", "bike_id": "5cb91c858b9a59244e8e7e7f534ed724", "fusion_lon": 0.0, "lat": 38.88736083333333, "fusion_lat": 0.0}, {"is_disabled": 0, "rental_uris": {"android": "https://dc.lft.to/lastmile_qr_scan", "ios": "https://dc.lft.to/lastmile_qr_scan"}, "is_reserved": 0, "name": "7ba87a430b49eaecd3a0d9b101aeea66", "lon": -77.04854983333334, "type": "electric_scooter", "bike_id": "7ba87a430b49eaecd3a0d9b101aeea66", "fusion_lon": 0.0, "lat": 38.90441366666667, "fusion_lat": 0.0}, {"is_disabled": 0, "rental_uris": {"android": "https://dc.lft.to/lastmile_qr_scan", "ios": "https://dc.lft.to/lastmile_qr_scan"}, "is_reserved": 0, "name": "10a81f38972b8d9398a47b9e4a591895", "lon": -77.0448655, "type": "electric_scooter", "bike_id": "10a81f38972b8d9398a47b9e4a591895", "fusion_lon": 0.0, "lat": 38.89747, "fusion_lat": 0.0}, {"is_disabled": 0, "rental_uris": {"android": "https://dc.lft.to/lastmile_qr_scan", "ios": "https://dc.lft.to/lastmile_qr_scan"}, "is_reserved": 0, "name": "bf1814390ba90343f0c9016a288eb570", "lon": -77.07797433333333, "type": "electric_bike", "bike_id": "bf1814390ba90343f0c9016a288eb570", "fusion_lon": 0.0, "lat": 38.84515016666667, "fusion_lat": 0.0}, {"is_disabled": 0, "rental_uris": {"android": "https://dc.lft.to/lastmile_qr_scan", "ios": "https://dc.lft.to/lastmile_qr_scan"}, "is_reserved": 0, "name": "3aa28a2d647edc86406aae79f7d39080", "lon": -77.02493666666666, "type": "electric_scooter", "bike_id": "3aa28a2d647edc86406aae79f7d39080", "fusion_lon": 0.0, "lat": 38.941861, "fusion_lat": 0.0}, {"is_disabled": 0, "rental_uris": {"android": "https://dc.lft.to/lastmile_qr_scan", "ios": "https://dc.lft.to/lastmile_qr_scan"}, "is_reserved": 0, "name": "a3dff0130ac6a675aaae959d4f72eb6c", "lon": -77.00737866666667, "type": "electric_scooter", "bike_id": "a3dff0130ac6a675aaae959d4f72eb6c", "fusion_lon": 0.0, "lat": 38.878329, "fusion_lat": 0.0}, {"is_disabled": 0, "rental_uris": {"android": "https://dc.lft.to/lastmile_qr_scan", "ios": "https://dc.lft.to/lastmile_qr_scan"}, "is_reserved": 0, "name": "ef24ba357811bcaccbe117be59341013", "lon": -77.01536283333333, "type": "electric_scooter", "bike_id": "ef24ba357811bcaccbe117be59341013", "fusion_lon": 0.0, "lat": 38.88624166666666, "fusion_lat": 0.0}, {"is_disabled": 0, "rental_uris": {"android": "https://dc.lft.to/lastmile_qr_scan", "ios": "https://dc.lft.to/lastmile_qr_scan"}, "is_reserved": 0, "name": "3079f36abb332f180a573cde6fd1187a", "lon": -77.02804383333333, "type": "electric_scooter", "bike_id": "3079f36abb332f180a573cde6fd1187a", "fusion_lon": 0.0, "lat": 38.90728766666667, "fusion_lat": 0.0}, {"is_disabled": 0, "rental_uris": {"android": "https://dc.lft.to/lastmile_qr_scan", "ios": "https://dc.lft.to/lastmile_qr_scan"}, "is_reserved": 0, "name": "f1f144cfc735eda2004e43737c01817a", "lon": -77.003631, "type": "electric_scooter", "bike_id": "f1f144cfc735eda2004e43737c01817a", "fusion_lon": 0.0, "lat": 38.87758433333333, "fusion_lat": 0.0}, {"is_disabled": 0, "rental_uris": {"android": "https://dc.lft.to/lastmile_qr_scan", "ios": "https://dc.lft.to/lastmile_qr_scan"}, "is_reserved": 0, "name": "da1a93b83e6c5e3a4922a7c8a445a5b6", "lon": -76.99619266666667, "type": "electric_scooter", "bike_id": "da1a93b83e6c5e3a4922a7c8a445a5b6", "fusion_lon": 0.0, "lat": 38.900355, "fusion_lat": 0.0}, {"is_disabled": 0, "rental_uris": {"android": "https://dc.lft.to/lastmile_qr_scan", "ios": "https://dc.lft.to/lastmile_qr_scan"}, "is_reserved": 0, "name": "16029d408db23f3887dc90ce463a6c98", "lon": -76.98795083333333, "type": "electric_bike", "bike_id": "16029d408db23f3887dc90ce463a6c98", "fusion_lon": 0.0, "lat": 38.9220705, "fusion_lat": 0.0}, {"is_disabled": 0, "rental_uris": {"android": "https://dc.lft.to/lastmile_qr_scan", "ios": "https://dc.lft.to/lastmile_qr_scan"}, "is_reserved": 0, "name": "2b3ab22a19cc27082b4e843b230dfcb3", "lon": -77.13232766666667, "type": "electric_bike", "bike_id": "2b3ab22a19cc27082b4e843b230dfcb3", "fusion_lon": 0.0, "lat": 38.86974383333333, "fusion_lat": 0.0}, {"is_disabled": 0, "rental_uris": {"android": "https://dc.lft.to/lastmile_qr_scan", "ios": "https://dc.lft.to/lastmile_qr_scan"}, "is_reserved": 0, "name": "db962ca3c10a322eb6da786f96b45e28", "lon": -77.05118633333333, "type": "electric_scooter", "bike_id": "db962ca3c10a322eb6da786f96b45e28", "fusion_lon": 0.0, "lat": 38.92346933333334, "fusion_lat": 0.0}, {"is_disabled": 0, "rental_uris": {"android": "https://dc.lft.to/lastmile_qr_scan", "ios": "https://dc.lft.to/lastmile_qr_scan"}, "is_reserved": 0, "name": "88fd776640c8dca441c8c2b3f59cb591", "lon": -77.02163733333333, "type": "electric_scooter", "bike_id": "88fd776640c8dca441c8c2b3f59cb591", "fusion_lon": 0.0, "lat": 38.94295616666667, "fusion_lat": 0.0}, {"is_disabled": 0, "rental_uris": {"android": "https://dc.lft.to/lastmile_qr_scan", "ios": "https://dc.lft.to/lastmile_qr_scan"}, "is_reserved": 0, "name": "cb30b36d7c2a9abe40f75750e87fb0d2", "lon": -76.99871949999999, "type": "electric_scooter", "bike_id": "cb30b36d7c2a9abe40f75750e87fb0d2", "fusion_lon": 0.0, "lat": 38.9001935, "fusion_lat": 0.0}, {"is_disabled": 0, "rental_uris": {"android": "https://dc.lft.to/lastmile_qr_scan", "ios": "https://dc.lft.to/lastmile_qr_scan"}, "is_reserved": 0, "name": "08c2f28755801b5389b5aebd2aed28b2", "lon": -77.0331085, "type": "electric_scooter", "bike_id": "08c2f28755801b5389b5aebd2aed28b2", "fusion_lon": 0.0, "lat": 38.91632833333333, "fusion_lat": 0.0}, {"is_disabled": 0, "rental_uris": {"android": "https://dc.lft.to/lastmile_qr_scan", "ios": "https://dc.lft.to/lastmile_qr_scan"}, "is_reserved": 0, "name": "463925325a1a86905c76779a14924270", "lon": -77.06603266666667, "type": "electric_scooter", "bike_id": "463925325a1a86905c76779a14924270", "fusion_lon": 0.0, "lat": 38.90744133333333, "fusion_lat": 0.0}, {"is_disabled": 0, "rental_uris": {"android": "https://dc.lft.to/lastmile_qr_scan", "ios": "https://dc.lft.to/lastmile_qr_scan"}, "is_reserved": 0, "name": "37e591313c9833e24ef9c35170ed42c3", "lon": -77.02278216666667, "type": "electric_scooter", "bike_id": "37e591313c9833e24ef9c35170ed42c3", "fusion_lon": 0.0, "lat": 38.91783933333333, "fusion_lat": 0.0}, {"is_disabled": 0, "rental_uris": {"android": "https://dc.lft.to/lastmile_qr_scan", "ios": "https://dc.lft.to/lastmile_qr_scan"}, "is_reserved": 0, "name": "b6df24c1713963cb0972ee8435482ad8", "lon": -77.0405545, "type": "electric_scooter", "bike_id": "b6df24c1713963cb0972ee8435482ad8", "fusion_lon": 0.0, "lat": 38.90146216666667, "fusion_lat": 0.0}, {"is_disabled": 0, "rental_uris": {"android": "https://dc.lft.to/lastmile_qr_scan", "ios": "https://dc.lft.to/lastmile_qr_scan"}, "is_reserved": 0, "name": "33dbbc01b7a15dd23c6888f59e4dd218", "lon": -77.03946833333333, "type": "electric_scooter", "bike_id": "33dbbc01b7a15dd23c6888f59e4dd218", "fusion_lon": 0.0, "lat": 38.908154, "fusion_lat": 0.0}, {"is_disabled": 0, "rental_uris": {"android": "https://dc.lft.to/lastmile_qr_scan", "ios": "https://dc.lft.to/lastmile_qr_scan"}, "is_reserved": 0, "name": "924d7bfcdbbb428406174e572a577ede", "lon": -77.03198816666666, "type": "electric_scooter", "bike_id": "924d7bfcdbbb428406174e572a577ede", "fusion_lon": 0.0, "lat": 38.9185, "fusion_lat": 0.0}, {"is_disabled": 0, "rental_uris": {"android": "https://dc.lft.to/lastmile_qr_scan", "ios": "https://dc.lft.to/lastmile_qr_scan"}, "is_reserved": 0, "name": "9ea147fdd393d405b15d762109533286", "lon": -76.918783, "type": "electric_scooter", "bike_id": "9ea147fdd393d405b15d762109533286", "fusion_lon": 0.0, "lat": 38.890872333333334, "fusion_lat": 0.0}, {"is_disabled": 0, "rental_uris": {"android": "https://dc.lft.to/lastmile_qr_scan", "ios": "https://dc.lft.to/lastmile_qr_scan"}, "is_reserved": 0, "name": "7f4759b1cbf785751904c057ae9e027e", "lon": -77.0216415, "type": "electric_scooter", "bike_id": "7f4759b1cbf785751904c057ae9e027e", "fusion_lon": 0.0, "lat": 38.8863345, "fusion_lat": 0.0}, {"is_disabled": 0, "rental_uris": {"android": "https://dc.lft.to/lastmile_qr_scan", "ios": "https://dc.lft.to/lastmile_qr_scan"}, "is_reserved": 0, "name": "77da74bb2ed1a8bbb267fd38f2c94e94", "lon": -76.99961583333334, "type": "electric_scooter", "bike_id": "77da74bb2ed1a8bbb267fd38f2c94e94", "fusion_lon": 0.0, "lat": 38.90111533333334, "fusion_lat": 0.0}, {"is_disabled": 0, "rental_uris": {"android": "https://dc.lft.to/lastmile_qr_scan", "ios": "https://dc.lft.to/lastmile_qr_scan"}, "is_reserved": 0, "name": "e6e58997e9a8b9427745e50d26a37aaa", "lon": -77.07277766666667, "type": "electric_scooter", "bike_id": "e6e58997e9a8b9427745e50d26a37aaa", "fusion_lon": 0.0, "lat": 38.93477083333333, "fusion_lat": 0.0}, {"is_disabled": 0, "rental_uris": {"android": "https://dc.lft.to/lastmile_qr_scan", "ios": "https://dc.lft.to/lastmile_qr_scan"}, "is_reserved": 0, "name": "56108f0aba1f158afd5d24ccab40293b", "lon": -77.04883083333333, "type": "electric_scooter", "bike_id": "56108f0aba1f158afd5d24ccab40293b", "fusion_lon": 0.0, "lat": 38.898084, "fusion_lat": 0.0}, {"is_disabled": 0, "rental_uris": {"android": "https://dc.lft.to/lastmile_qr_scan", "ios": "https://dc.lft.to/lastmile_qr_scan"}, "is_reserved": 0, "name": "16d947b058d2e76062241f7797faef12", "lon": -77.0056765, "type": "electric_scooter", "bike_id": "16d947b058d2e76062241f7797faef12", "fusion_lon": 0.0, "lat": 38.90532483333333, "fusion_lat": 0.0}, {"is_disabled": 0, "rental_uris": {"android": "https://dc.lft.to/lastmile_qr_scan", "ios": "https://dc.lft.to/lastmile_qr_scan"}, "is_reserved": 0, "name": "e9a630d3225233ed59be5c7781348e90", "lon": -77.04802333333333, "type": "electric_scooter", "bike_id": "e9a630d3225233ed59be5c7781348e90", "fusion_lon": 0.0, "lat": 38.892239333333336, "fusion_lat": 0.0}, {"is_disabled": 0, "rental_uris": {"android": "https://dc.lft.to/lastmile_qr_scan", "ios": "https://dc.lft.to/lastmile_qr_scan"}, "is_reserved": 0, "name": "ccc8ec73345c01a1554814f1bc3c6046", "lon": -77.04880283333334, "type": "electric_scooter", "bike_id": "ccc8ec73345c01a1554814f1bc3c6046", "fusion_lon": 0.0, "lat": 38.908363, "fusion_lat": 0.0}, {"is_disabled": 0, "rental_uris": {"android": "https://dc.lft.to/lastmile_qr_scan", "ios": "https://dc.lft.to/lastmile_qr_scan"}, "is_reserved": 0, "name": "5f6c2bf9ece370037641a985fcbb75dc", "lon": -76.99386716666666, "type": "electric_scooter", "bike_id": "5f6c2bf9ece370037641a985fcbb75dc", "fusion_lon": 0.0, "lat": 38.910112166666664, "fusion_lat": 0.0}, {"is_disabled": 0, "rental_uris": {"android": "https://dc.lft.to/lastmile_qr_scan", "ios": "https://dc.lft.to/lastmile_qr_scan"}, "is_reserved": 0, "name": "be85037a97e316eb6866008c45e55c98", "lon": -77.00498866666666, "type": "electric_scooter", "bike_id": "be85037a97e316eb6866008c45e55c98", "fusion_lon": 0.0, "lat": 38.896845666666664, "fusion_lat": 0.0}, {"is_disabled": 0, "rental_uris": {"android": "https://dc.lft.to/lastmile_qr_scan", "ios": "https://dc.lft.to/lastmile_qr_scan"}, "is_reserved": 0, "name": "5f112de86b7f5a8a015451622b2f60d8", "lon": -77.0121815, "type": "electric_scooter", "bike_id": "5f112de86b7f5a8a015451622b2f60d8", "fusion_lon": 0.0, "lat": 38.90034133333333, "fusion_lat": 0.0}, {"is_disabled": 0, "rental_uris": {"android": "https://dc.lft.to/lastmile_qr_scan", "ios": "https://dc.lft.to/lastmile_qr_scan"}, "is_reserved": 0, "name": "dfaea2a1e00e6a0a17f0f119c6dc0035", "lon": -77.03255466666667, "type": "electric_scooter", "bike_id": "dfaea2a1e00e6a0a17f0f119c6dc0035", "fusion_lon": 0.0, "lat": 38.9097455, "fusion_lat": 0.0}, {"is_disabled": 0, "rental_uris": {"android": "https://dc.lft.to/lastmile_qr_scan", "ios": "https://dc.lft.to/lastmile_qr_scan"}, "is_reserved": 0, "name": "605f584e863f864676282c94c60b8efa", "lon": -77.05420766666667, "type": "electric_scooter", "bike_id": "605f584e863f864676282c94c60b8efa", "fusion_lon": 0.0, "lat": 38.931922666666665, "fusion_lat": 0.0}, {"is_disabled": 0, "rental_uris": {"android": "https://dc.lft.to/lastmile_qr_scan", "ios": "https://dc.lft.to/lastmile_qr_scan"}, "is_reserved": 0, "name": "44ed21a6cdee923c25d868942493e8ad", "lon": -77.05991, "type": "electric_scooter", "bike_id": "44ed21a6cdee923c25d868942493e8ad", "fusion_lon": 0.0, "lat": 38.91186733333333, "fusion_lat": 0.0}, {"is_disabled": 0, "rental_uris": {"android": "https://dc.lft.to/lastmile_qr_scan", "ios": "https://dc.lft.to/lastmile_qr_scan"}, "is_reserved": 0, "name": "2b1f111032d1cb88343fbb9f0246bc5d", "lon": -76.99868533333333, "type": "electric_scooter", "bike_id": "2b1f111032d1cb88343fbb9f0246bc5d", "fusion_lon": 0.0, "lat": 38.90020033333333, "fusion_lat": 0.0}, {"is_disabled": 0, "rental_uris": {"android": "https://dc.lft.to/lastmile_qr_scan", "ios": "https://dc.lft.to/lastmile_qr_scan"}, "is_reserved": 0, "name": "183e9dd0bd15d744c6f59c0e1c464738", "lon": -77.0340885, "type": "electric_scooter", "bike_id": "183e9dd0bd15d744c6f59c0e1c464738", "fusion_lon": 0.0, "lat": 38.921612333333336, "fusion_lat": 0.0}, {"is_disabled": 0, "rental_uris": {"android": "https://dc.lft.to/lastmile_qr_scan", "ios": "https://dc.lft.to/lastmile_qr_scan"}, "is_reserved": 0, "name": "60e47c6f7a2e444559f6f74101a25ab2", "lon": -77.003098, "type": "electric_scooter", "bike_id": "60e47c6f7a2e444559f6f74101a25ab2", "fusion_lon": 0.0, "lat": 38.892277666666665, "fusion_lat": 0.0}, {"is_disabled": 0, "rental_uris": {"android": "https://dc.lft.to/lastmile_qr_scan", "ios": "https://dc.lft.to/lastmile_qr_scan"}, "is_reserved": 0, "name": "c8406170da96d088a6fd4082332fc089", "lon": -77.025866, "type": "electric_scooter", "bike_id": "c8406170da96d088a6fd4082332fc089", "fusion_lon": 0.0, "lat": 38.920384166666665, "fusion_lat": 0.0}, {"is_disabled": 0, "rental_uris": {"android": "https://dc.lft.to/lastmile_qr_scan", "ios": "https://dc.lft.to/lastmile_qr_scan"}, "is_reserved": 0, "name": "06d4e2175ce5702a6395b9497117116f", "lon": -76.93019666666666, "type": "electric_bike", "bike_id": "06d4e2175ce5702a6395b9497117116f", "fusion_lon": 0.0, "lat": 38.96650916666667, "fusion_lat": 0.0}, {"is_disabled": 0, "rental_uris": {"android": "https://dc.lft.to/lastmile_qr_scan", "ios": "https://dc.lft.to/lastmile_qr_scan"}, "is_reserved": 0, "name": "2307f8ce95d88cbb5658d27d6a271d14", "lon": -77.025459, "type": "electric_scooter", "bike_id": "2307f8ce95d88cbb5658d27d6a271d14", "fusion_lon": 0.0, "lat": 38.948353166666664, "fusion_lat": 0.0}, {"is_disabled": 0, "rental_uris": {"android": "https://dc.lft.to/lastmile_qr_scan", "ios": "https://dc.lft.to/lastmile_qr_scan"}, "is_reserved": 0, "name": "a012677d83147ecd177c47095b275f70", "lon": -76.914219, "type": "electric_bike", "bike_id": "a012677d83147ecd177c47095b275f70", "fusion_lon": 0.0, "lat": 38.898318333333336, "fusion_lat": 0.0}, {"is_disabled": 0, "rental_uris": {"android": "https://dc.lft.to/lastmile_qr_scan", "ios": "https://dc.lft.to/lastmile_qr_scan"}, "is_reserved": 0, "name": "abfadfac743ca2ff65f23136b838e09c", "lon": -77.02929883333333, "type": "electric_scooter", "bike_id": "abfadfac743ca2ff65f23136b838e09c", "fusion_lon": 0.0, "lat": 38.882186833333336, "fusion_lat": 0.0}, {"is_disabled": 0, "rental_uris": {"android": "https://dc.lft.to/lastmile_qr_scan", "ios": "https://dc.lft.to/lastmile_qr_scan"}, "is_reserved": 0, "name": "e9f82ace8a1f26c986f740c4a64df70d", "lon": -77.03993783333334, "type": "electric_scooter", "bike_id": "e9f82ace8a1f26c986f740c4a64df70d", "fusion_lon": 0.0, "lat": 38.91812766666666, "fusion_lat": 0.0}, {"is_disabled": 0, "rental_uris": {"android": "https://dc.lft.to/lastmile_qr_scan", "ios": "https://dc.lft.to/lastmile_qr_scan"}, "is_reserved": 0, "name": "5171557dfafee2d92fb86381cdc7e0a9", "lon": -77.04174383333333, "type": "electric_scooter", "bike_id": "5171557dfafee2d92fb86381cdc7e0a9", "fusion_lon": 0.0, "lat": 38.901651333333334, "fusion_lat": 0.0}, {"is_disabled": 0, "rental_uris": {"android": "https://dc.lft.to/lastmile_qr_scan", "ios": "https://dc.lft.to/lastmile_qr_scan"}, "is_reserved": 0, "name": "d2bc21b8a09f5f08ae27b6967db55ffc", "lon": -77.03198233333333, "type": "electric_scooter", "bike_id": "d2bc21b8a09f5f08ae27b6967db55ffc", "fusion_lon": 0.0, "lat": 38.90520733333334, "fusion_lat": 0.0}, {"is_disabled": 0, "rental_uris": {"android": "https://dc.lft.to/lastmile_qr_scan", "ios": "https://dc.lft.to/lastmile_qr_scan"}, "is_reserved": 0, "name": "61fbc9ce33967195b5b78f5d216a04da", "lon": -77.04316966666667, "type": "electric_bike", "bike_id": "61fbc9ce33967195b5b78f5d216a04da", "fusion_lon": 0.0, "lat": 38.831259833333334, "fusion_lat": 0.0}, {"is_disabled": 0, "rental_uris": {"android": "https://dc.lft.to/lastmile_qr_scan", "ios": "https://dc.lft.to/lastmile_qr_scan"}, "is_reserved": 0, "name": "813f1b856dec56162c734d96975fadb3", "lon": -77.03813116666667, "type": "electric_scooter", "bike_id": "813f1b856dec56162c734d96975fadb3", "fusion_lon": 0.0, "lat": 38.909822166666665, "fusion_lat": 0.0}, {"is_disabled": 0, "rental_uris": {"android": "https://dc.lft.to/lastmile_qr_scan", "ios": "https://dc.lft.to/lastmile_qr_scan"}, "is_reserved": 0, "name": "8903764c5cc8c4b084fb75a6cfc2a88a", "lon": -77.00747266666667, "type": "electric_scooter", "bike_id": "8903764c5cc8c4b084fb75a6cfc2a88a", "fusion_lon": 0.0, "lat": 38.91193233333333, "fusion_lat": 0.0}, {"is_disabled": 0, "rental_uris": {"android": "https://dc.lft.to/lastmile_qr_scan", "ios": "https://dc.lft.to/lastmile_qr_scan"}, "is_reserved": 0, "name": "8d8dab6d4aa939f9f3c511466f521ee0", "lon": -77.05329516666667, "type": "electric_scooter", "bike_id": "8d8dab6d4aa939f9f3c511466f521ee0", "fusion_lon": 0.0, "lat": 38.923162166666664, "fusion_lat": 0.0}, {"is_disabled": 0, "rental_uris": {"android": "https://dc.lft.to/lastmile_qr_scan", "ios": "https://dc.lft.to/lastmile_qr_scan"}, "is_reserved": 0, "name": "f09d33eb9d0ad94164c60bffc9e7219e", "lon": -77.02556333333334, "type": "electric_scooter", "bike_id": "f09d33eb9d0ad94164c60bffc9e7219e", "fusion_lon": 0.0, "lat": 38.884972166666664, "fusion_lat": 0.0}, {"is_disabled": 0, "rental_uris": {"android": "https://dc.lft.to/lastmile_qr_scan", "ios": "https://dc.lft.to/lastmile_qr_scan"}, "is_reserved": 0, "name": "e982d1b73871d8ea25f68cfc77117007", "lon": -77.04185816666667, "type": "electric_scooter", "bike_id": "e982d1b73871d8ea25f68cfc77117007", "fusion_lon": 0.0, "lat": 38.89868766666667, "fusion_lat": 0.0}, {"is_disabled": 0, "rental_uris": {"android": "https://dc.lft.to/lastmile_qr_scan", "ios": "https://dc.lft.to/lastmile_qr_scan"}, "is_reserved": 0, "name": "cb08b3bb9449015abd91e514367cad75", "lon": -76.99391283333334, "type": "electric_scooter", "bike_id": "cb08b3bb9449015abd91e514367cad75", "fusion_lon": 0.0, "lat": 38.921622666666664, "fusion_lat": 0.0}, {"is_disabled": 0, "rental_uris": {"android": "https://dc.lft.to/lastmile_qr_scan", "ios": "https://dc.lft.to/lastmile_qr_scan"}, "is_reserved": 0, "name": "5cac8dd532ff3180f5966381916a44be", "lon": -77.0271835, "type": "electric_scooter", "bike_id": "5cac8dd532ff3180f5966381916a44be", "fusion_lon": 0.0, "lat": 38.919192333333335, "fusion_lat": 0.0}, {"is_disabled": 0, "rental_uris": {"android": "https://dc.lft.to/lastmile_qr_scan", "ios": "https://dc.lft.to/lastmile_qr_scan"}, "is_reserved": 0, "name": "dcc4f6fb954b473766c159f2f16fe27e", "lon": -77.00863283333334, "type": "electric_bike", "bike_id": "dcc4f6fb954b473766c159f2f16fe27e", "fusion_lon": 0.0, "lat": 38.8273305, "fusion_lat": 0.0}, {"is_disabled": 0, "rental_uris": {"android": "https://dc.lft.to/lastmile_qr_scan", "ios": "https://dc.lft.to/lastmile_qr_scan"},