{"data": {"bikes": [{"lon": -77.04153266666667, "rental_uris": {"android": "https://dc.lft.to/lastmile_qr_scan", "ios": "https://dc.lft.to/lastmile_qr_scan"}, "fusion_lon": 0.0, "is_reserved": 0, "is_disabled": 0, "fusion_lat": 0.0, "type": "electric_scooter", "name": "3591a02a4b40bfd7697c62398fbec9ce", "lat": 38.9071585, "bike_id": "3591a02a4b40bfd7697c62398fbec9ce"}, {"lon": -77.03192833333334, "rental_uris": {"android": "https://dc.lft.to/lastmile_qr_scan", "ios": "https://dc.lft.to/lastmile_qr_scan"}, "fusion_lon": 0.0, "is_reserved": 0, "is_disabled": 0, "fusion_lat": 0.0, "type": "electric_scooter", "name": "dd625c0a213687924bf5d176c99deaa4", "lat": 38.93059983333333, "bike_id": "dd625c0a213687924bf5d176c99deaa4"}, {"lon": -77.03741366666667, "rental_uris": {"android": "https://dc.lft.to/lastmile_qr_scan", "ios": "https://dc.lft.to/lastmile_qr_scan"}, "fusion_lon": 0.0, "is_reserved": 0, "is_disabled": 0, "fusion_lat": 0.0, "type": "electric_scooter", "name": "828732ba0788293b6407455e2667dd11", "lat": 38.907636, "bike_id": "828732ba0788293b6407455e2667dd11"}, {"lon": -77.1298265, "rental_uris": {"android": "https://dc.lft.to/lastmile_qr_scan", "ios": "https://dc.lft.to/lastmile_qr_scan"}, "fusion_lon": 0.0, "is_reserved": 0, "is_disabled": 0, "fusion_lat": 0.0, "type": "electric_bike", "name": "384c63e5d6a6280185e490079032678e", "lat": 38.799821333333334, "bike_id": "384c63e5d6a6280185e490079032678e"}, {"lon": -77.0419545, "rental_uris": {"android": "https://dc.lft.to/lastmile_qr_scan", "ios": "https://dc.lft.to/lastmile_qr_scan"}, "fusion_lon": 0.0, "is_reserved": 0, "is_disabled": 0, "fusion_lat": 0.0, "type": "electric_scooter", "name": "d97c56b7a7fab48ed6a151211536a52d", "lat": 38.926172666666666, "bike_id": "d97c56b7a7fab48ed6a151211536a52d"}, {"lon": -77.00761966666667, "rental_uris": {"android": "https://dc.lft.to/lastmile_qr_scan", "ios": "https://dc.lft.to/lastmile_qr_scan"}, "fusion_lon": 0.0, "is_reserved": 0, "is_disabled": 0, "fusion_lat": 0.0, "type": "electric_scooter", "name": "ed7d4e0a17acfb7d0308caaf42f54987", "lat": 38.8711055, "bike_id": "ed7d4e0a17acfb7d0308caaf42f54987"}, {"lon": -77.11777466666666, "rental_uris": {"android": "https://dc.lft.to/lastmile_qr_scan", "ios": "https://dc.lft.to/lastmile_qr_scan"}, "fusion_lon": 0.0, "is_reserved": 0, "is_disabled": 0, "fusion_lat": 0.0, "type": "electric_bike", "name": "7c2d00bfb7671e8abd5cf14bf91a872d", "lat": 38.812523, "bike_id": "7c2d00bfb7671e8abd5cf14bf91a872d"}, {"lon": -77.03463483333333, "rental_uris": {"android": "https://dc.lft.to/lastmile_qr_scan", "ios": "https://dc.lft.to/lastmile_qr_scan"}, "fusion_lon": 0.0, "is_reserved": 0, "is_disabled": 0, "fusion_lat": 0.0, "type": "electric_scooter", "name": "0ae6a0dd72f5ad047de2e8a86124ea92", "lat": 38.90227466666666, "bike_id": "0ae6a0dd72f5ad047de2e8a86124ea92"}, {"lon": -77.04244016666667, "rental_uris": {"android": "https://dc.lft.to/lastmile_qr_scan", "ios": "https://dc.lft.to/lastmile_qr_scan"}, "fusion_lon": 0.0, "is_reserved": 0, "is_disabled": 0, "fusion_lat": 0.0, "type": "electric_scooter", "name": "fab5bf2ed50eba7533e85dbf500212bf", "lat": 38.9242645, "bike_id": "fab5bf2ed50eba7533e85dbf500212bf"}, {"lon": -76.97318133333333, "rental_uris": {"android": "https://dc.lft.to/lastmile_qr_scan", "ios": "https://dc.lft.to/lastmile_qr_scan"}, "fusion_lon": 0.0, "is_reserved": 0, "is_disabled": 0, "fusion_lat": 0.0, "type": "electric_bike", "name": "2364a9dd53d352ca05122206171f5ebb", "lat": 38.85557983333333, "bike_id": "2364a9dd53d352ca05122206171f5ebb"}, {"lon": -77.02833383333333, "rental_uris": {"android": "https://dc.lft.to/lastmile_qr_scan", "ios": "https://dc.lft.to/lastmile_qr_scan"}, "fusion_lon": 0.0, "is_reserved": 0, "is_disabled": 0, "fusion_lat": 0.0, "type": "electric_scooter", "name": "a30881abe6bbbeba4199f86f06d95106", "lat": 38.88767, "bike_id": "a30881abe6bbbeba4199f86f06d95106"}, {"lon": -77.07521716666666, "rental_uris": {"android": "https://dc.lft.to/lastmile_qr_scan", "ios": "https://dc.lft.to/lastmile_qr_scan"}, "fusion_lon": 0.0, "is_reserved": 0, "is_disabled": 0, "fusion_lat": 0.0, "type": "electric_bike", "name": "8bb12f9dcaa0413224e2ade28af02288", "lat": 38.84281033333333, "bike_id": "8bb12f9dcaa0413224e2ade28af02288"}, {"lon": -77.00380316666667, "rental_uris": {"android": "https://dc.lft.to/lastmile_qr_scan", "ios": "https://dc.lft.to/lastmile_qr_scan"}, "fusion_lon": 0.0, "is_reserved": 0, "is_disabled": 0, "fusion_lat": 0.0, "type": "electric_scooter", "name": "8cc48d5341a08cbb9da713fafe59609f", "lat": 38.907006833333334, "bike_id": "8cc48d5341a08cbb9da713fafe59609f"}, {"lon": -77.02965383333333, "rental_uris": {"android": "https://dc.lft.to/lastmile_qr_scan", "ios": "https://dc.lft.to/lastmile_qr_scan"}, "fusion_lon": 0.0, "is_reserved": 0, "is_disabled": 0, "fusion_lat": 0.0, "type": "electric_scooter", "name": "8076bbf1aa4239e1759d148cb42d2655", "lat": 38.91296633333333, "bike_id": "8076bbf1aa4239e1759d148cb42d2655"}, {"lon": -77.0351435, "rental_uris": {"android": "https://dc.lft.to/lastmile_qr_scan", "ios": "https://dc.lft.to/lastmile_qr_scan"}, "fusion_lon": 0.0, "is_reserved": 0, "is_disabled": 0, "fusion_lat": 0.0, "type": "electric_scooter", "name": "764dfca2da8928e8450c838ffe273202", "lat": 38.92345183333333, "bike_id": "764dfca2da8928e8450c838ffe273202"}, {"lon": -77.0435745, "rental_uris": {"android": "https://dc.lft.to/lastmile_qr_scan", "ios": "https://dc.lft.to/lastmile_qr_scan"}, "fusion_lon": 0.0, "is_reserved": 0, "is_disabled": 0, "fusion_lat": 0.0, "type": "electric_scooter", "name": "0642ef2176cdf733e08e7e47d5968c02", "lat": 38.8973815, "bike_id": "0642ef2176cdf733e08e7e47d5968c02"}, {"lon": -77.02169483333333, "rental_uris": {"android": "https://dc.lft.to/lastmile_qr_scan", "ios": "https://dc.lft.to/lastmile_qr_scan"}, "fusion_lon": 0.0, "is_reserved": 0, "is_disabled": 0, "fusion_lat": 0.0, "type": "electric_scooter", "name": "b52f27e1245b8ed9b35b2f43e84de25c", "lat": 38.92627683333333, "bike_id": "b52f27e1245b8ed9b35b2f43e84de25c"}, {"lon": -77.02814516666666, "rental_uris": {"android": "https://dc.lft.to/lastmile_qr_scan", "ios": "https://dc.lft.to/lastmile_qr_scan"}, "fusion_lon": 0.0, "is_reserved": 0, "is_disabled": 0, "fusion_lat": 0.0, "type": "electric_scooter", "name": "36a3e856f6f2ad93a21b520aab4b3dee", "lat": 38.88653716666666, "bike_id": "36a3e856f6f2ad93a21b520aab4b3dee"}, {"lon": -77.031696, "rental_uris": {"android": "https://dc.lft.to/lastmile_qr_scan", "ios": "https://dc.lft.to/lastmile_qr_scan"}, "fusion_lon": 0.0, "is_reserved": 0, "is_disabled": 0, "fusion_lat": 0.0, "type": "electric_scooter", "name": "b3c9662b91b34d7a16dade4279ad8912", "lat": 38.88729933333333, "bike_id": "b3c9662b91b34d7a16dade4279ad8912"}, {"lon": -77.04467466666667, "rental_uris": {"android": "https://dc.lft.to/lastmile_qr_scan", "ios": "https://dc.lft.to/lastmile_qr_scan"}, "fusion_lon": 0.0, "is_reserved": 0, "is_disabled": 0, "fusion_lat": 0.0, "type": "electric_scooter", "name": "f7458fdbbf68e66d8964bfc6c9940592", "lat": 38.89222983333333, "bike_id": "f7458fdbbf68e66d8964bfc6c9940592"}, {"lon": -76.98292533333333, "rental_uris": {"android": "https://dc.lft.to/lastmile_qr_scan", "ios": "https://dc.lft.to/lastmile_qr_scan"}, "fusion_lon": 0.0, "is_reserved": 0, "is_disabled": 0, "fusion_lat": 0.0, "type": "electric_scooter", "name": "971d096b4d01e19b7b1d32b3b11603a9", "lat": 38.887669, "bike_id": "971d096b4d01e19b7b1d32b3b11603a9"}, {"lon": -77.04174583333334, "rental_uris": {"android": "https://dc.lft.to/lastmile_qr_scan", "ios": "https://dc.lft.to/lastmile_qr_scan"}, "fusion_lon": 0.0, "is_reserved": 0, "is_disabled": 0, "fusion_lat": 0.0, "type": "electric_scooter", "name": "549fef063b9be7a18290ecf0b38a8283", "lat": 38.8979635, "bike_id": "549fef063b9be7a18290ecf0b38a8283"}, {"lon": -77.02476666666666, "rental_uris": {"android": "https://dc.lft.to/lastmile_qr_scan", "ios": "https://dc.lft.to/lastmile_qr_scan"}, "fusion_lon": 0.0, "is_reserved": 0, "is_disabled": 0, "fusion_lat": 0.0, "type": "electric_scooter", "name": "6addd762cef30225234e91298313c5ce", "lat": 38.918138666666664, "bike_id": "6addd762cef30225234e91298313c5ce"}, {"lon": -77.03255916666667, "rental_uris": {"android": "https://dc.lft.to/lastmile_qr_scan", "ios": "https://dc.lft.to/lastmile_qr_scan"}, "fusion_lon": 0.0, "is_reserved": 0, "is_disabled": 0, "fusion_lat": 0.0, "type": "electric_scooter", "name": "8d04689d3e4aab82a1b53a98cc313a36", "lat": 38.92976316666667, "bike_id": "8d04689d3e4aab82a1b53a98cc313a36"}, {"lon": -77.03466916666666, "rental_uris": {"android": "https://dc.lft.to/lastmile_qr_scan", "ios": "https://dc.lft.to/lastmile_qr_scan"}, "fusion_lon": 0.0, "is_reserved": 0, "is_disabled": 0, "fusion_lat": 0.0, "type": "electric_scooter", "name": "3edce3b1a13e0f25fafe870ee1604f97", "lat": 38.926406666666665, "bike_id": "3edce3b1a13e0f25fafe870ee1604f97"}, {"lon": -77.0357045, "rental_uris": {"android": "https://dc.lft.to/lastmile_qr_scan", "ios": "https://dc.lft.to/lastmile_qr_scan"}, "fusion_lon": 0.0, "is_reserved": 0, "is_disabled": 0, "fusion_lat": 0.0, "type": "electric_scooter", "name": "0cf13092c51a6776b232eafd804b63ab", "lat": 38.907332833333335, "bike_id": "0cf13092c51a6776b232eafd804b63ab"}, {"lon": -77.0439125, "rental_uris": {"android": "https://dc.lft.to/lastmile_qr_scan", "ios": "https://dc.lft.to/lastmile_qr_scan"}, "fusion_lon": 0.0, "is_reserved": 0, "is_disabled": 0, "fusion_lat": 0.0, "type": "electric_scooter", "name": "a8e6146575c1beb8b6fcf0284be79b55", "lat": 38.901384666666665, "bike_id": "a8e6146575c1beb8b6fcf0284be79b55"}, {"lon": -77.03250583333333, "rental_uris": {"android": "https://dc.lft.to/lastmile_qr_scan", "ios": "https://dc.lft.to/lastmile_qr_scan"}, "fusion_lon": 0.0, "is_reserved": 0, "is_disabled": 0, "fusion_lat": 0.0, "type": "electric_scooter", "name": "59401827086fe7aadeffb90ab449eeb1", "lat": 38.9297345, "bike_id": "59401827086fe7aadeffb90ab449eeb1"}, {"lon": -77.01479916666666, "rental_uris": {"android": "https://dc.lft.to/lastmile_qr_scan", "ios": "https://dc.lft.to/lastmile_qr_scan"}, "fusion_lon": 0.0, "is_reserved": 0, "is_disabled": 0, "fusion_lat": 0.0, "type": "electric_scooter", "name": "4d1229cdcb5e0c5cc88010bbec4ee055", "lat": 38.9159235, "bike_id": "4d1229cdcb5e0c5cc88010bbec4ee055"}, {"lon": -77.03373516666667, "rental_uris": {"android": "https://dc.lft.to/lastmile_qr_scan", "ios": "https://dc.lft.to/lastmile_qr_scan"}, "fusion_lon": 0.0, "is_reserved": 0, "is_disabled": 0, "fusion_lat": 0.0, "type": "electric_scooter", "name": "5dfb351889faaf1418254741b3feb344", "lat": 38.89799583333333, "bike_id": "5dfb351889faaf1418254741b3feb344"}, {"lon": -77.00162283333333, "rental_uris": {"android": "https://dc.lft.to/lastmile_qr_scan", "ios": "https://dc.lft.to/lastmile_qr_scan"}, "fusion_lon": 0.0, "is_reserved": 0, "is_disabled": 0, "fusion_lat": 0.0, "type": "electric_scooter", "name": "f605ed6766a856e1b3a9f720ff1f80a0", "lat": 38.95830933333333, "bike_id": "f605ed6766a856e1b3a9f720ff1f80a0"}, {"lon": -77.03944183333333, "rental_uris": {"android": "https://dc.lft.to/lastmile_qr_scan", "ios": "https://dc.lft.to/lastmile_qr_scan"}, "fusion_lon": 0.0, "is_reserved": 0, "is_disabled": 0, "fusion_lat": 0.0, "type": "electric_scooter", "name": "9223b3457927488cd0cd8dcdb3027a99", "lat": 38.901472, "bike_id": "9223b3457927488cd0cd8dcdb3027a99"}, {"lon": -76.996495, "rental_uris": {"android": "https://dc.lft.to/lastmile_qr_scan", "ios": "https://dc.lft.to/lastmile_qr_scan"}, "fusion_lon": 0.0, "is_reserved": 0, "is_disabled": 0, "fusion_lat": 0.0, "type": "electric_scooter", "name": "826a376f969dc0b6b687c126857ad63f", "lat": 38.859814166666666, "bike_id": "826a376f969dc0b6b687c126857ad63f"}, {"lon": -77.04270016666666, "rental_uris": {"android": "https://dc.lft.to/lastmile_qr_scan", "ios": "https://dc.lft.to/lastmile_qr_scan"}, "fusion_lon": 0.0, "is_reserved": 0, "is_disabled": 0, "fusion_lat": 0.0, "type": "electric_scooter", "name": "b79429238d81d50ace1356dc226dca98", "lat": 38.9223805, "bike_id": "b79429238d81d50ace1356dc226dca98"}, {"lon": -77.00326466666667, "rental_uris": {"android": "https://dc.lft.to/lastmile_qr_scan", "ios": "https://dc.lft.to/lastmile_qr_scan"}, "fusion_lon": 0.0, "is_reserved": 0, "is_disabled": 0, "fusion_lat": 0.0, "type": "electric_scooter", "name": "d1480caa36a51456166c754680a66fa5", "lat": 38.8764715, "bike_id": "d1480caa36a51456166c754680a66fa5"}, {"lon": -77.04601033333333, "rental_uris": {"android": "https://dc.lft.to/lastmile_qr_scan", "ios": "https://dc.lft.to/lastmile_qr_scan"}, "fusion_lon": 0.0, "is_reserved": 0, "is_disabled": 0, "fusion_lat": 0.0, "type": "electric_scooter", "name": "543fae9847c7ab9d215d631930c61fda", "lat": 38.896163333333334, "bike_id": "543fae9847c7ab9d215d631930c61fda"}, {"lon": -77.03231333333333, "rental_uris": {"android": "https://dc.lft.to/lastmile_qr_scan", "ios": "https://dc.lft.to/lastmile_qr_scan"}, "fusion_lon": 0.0, "is_reserved": 0, "is_disabled": 0, "fusion_lat": 0.0, "type": "electric_scooter", "name": "f32d00313b0ff8effb6c297cb3533c36", "lat": 38.917095333333336, "bike_id": "f32d00313b0ff8effb6c297cb3533c36"}, {"lon": -77.0240885, "rental_uris": {"android": "https://dc.lft.to/lastmile_qr_scan", "ios": "https://dc.lft.to/lastmile_qr_scan"}, "fusion_lon": 0.0, "is_reserved": 0, "is_disabled": 0, "fusion_lat": 0.0, "type": "electric_scooter", "name": "785f2f019e6b01945721b206b89aa196", "lat": 38.90191183333334, "bike_id": "785f2f019e6b01945721b206b89aa196"}, {"lon": -77.03804233333334, "rental_uris": {"android": "https://dc.lft.to/lastmile_qr_scan", "ios": "https://dc.lft.to/lastmile_qr_scan"}, "fusion_lon": 0.0, "is_reserved": 0, "is_disabled": 0, "fusion_lat": 0.0, "type": "electric_scooter", "name": "a17c95e62af0e34f9ce5e625647ecff0", "lat": 38.923157833333335, "bike_id": "a17c95e62af0e34f9ce5e625647ecff0"}, {"lon": -77.03011716666667, "rental_uris": {"android": "https://dc.lft.to/lastmile_qr_scan", "ios": "https://dc.lft.to/lastmile_qr_scan"}, "fusion_lon": 0.0, "is_reserved": 0, "is_disabled": 0, "fusion_lat": 0.0, "type": "electric_scooter", "name": "dc10f816eb2840dad52e7a70451cbaff", "lat": 38.916522, "bike_id": "dc10f816eb2840dad52e7a70451cbaff"}, {"lon": -77.05756083333333, "rental_uris": {"android": "https://dc.lft.to/lastmile_qr_scan", "ios": "https://dc.lft.to/lastmile_qr_scan"}, "fusion_lon": 0.0, "is_reserved": 0, "is_disabled": 0, "fusion_lat": 0.0, "type": "electric_scooter", "name": "35eec59d2cd6143bd41ef4d5338efc9a", "lat": 38.93372766666667, "bike_id": "35eec59d2cd6143bd41ef4d5338efc9a"}, {"lon": -77.0434115, "rental_uris": {"android": "https://dc.lft.to/lastmile_qr_scan", "ios": "https://dc.lft.to/lastmile_qr_scan"}, "fusion_lon": 0.0, "is_reserved": 0, "is_disabled": 0, "fusion_lat": 0.0, "type": "electric_scooter", "name": "08de5c10758abcc67ccdd105fb9911a0", "lat": 38.901207, "bike_id": "08de5c10758abcc67ccdd105fb9911a0"}, {"lon": -77.019499, "rental_uris": {"android": "https://dc.lft.to/lastmile_qr_scan", "ios": "https://dc.lft.to/lastmile_qr_scan"}, "fusion_lon": 0.0, "is_reserved": 0, "is_disabled": 0, "fusion_lat": 0.0, "type": "electric_scooter", "name": "351bbbd62926697792dd724cfd9745bc", "lat": 38.922467166666664, "bike_id": "351bbbd62926697792dd724cfd9745bc"}, {"lon": -77.03237, "rental_uris": {"android": "https://dc.lft.to/lastmile_qr_scan", "ios": "https://dc.lft.to/lastmile_qr_scan"}, "fusion_lon": 0.0, "is_reserved": 0, "is_disabled": 0, "fusion_lat": 0.0, "type": "electric_scooter", "name": "0273b63e0ff1ca0b86a4e7c2acaf663b", "lat": 38.928608833333335, "bike_id": "0273b63e0ff1ca0b86a4e7c2acaf663b"}, {"lon": -77.0122055, "rental_uris": {"android": "https://dc.lft.to/lastmile_qr_scan", "ios": "https://dc.lft.to/lastmile_qr_scan"}, "fusion_lon": 0.0, "is_reserved": 0, "is_disabled": 0, "fusion_lat": 0.0, "type": "electric_scooter", "name": "5bcd8c54dce76e3756c4f6131e75b8cc", "lat": 38.89341483333333, "bike_id": "5bcd8c54dce76e3756c4f6131e75b8cc"}, {"lon": -77.06813183333334, "rental_uris": {"android": "https://dc.lft.to/lastmile_qr_scan", "ios": "https://dc.lft.to/lastmile_qr_scan"}, "fusion_lon": 0.0, "is_reserved": 0, "is_disabled": 0, "fusion_lat": 0.0, "type": "electric_scooter", "name": "5618dc533c1e779487ebac87c329bdb1", "lat": 38.917370166666664, "bike_id": "5618dc533c1e779487ebac87c329bdb1"}, {"lon": -77.05806783333334, "rental_uris": {"android": "https://dc.lft.to/lastmile_qr_scan", "ios": "https://dc.lft.to/lastmile_qr_scan"}, "fusion_lon": 0.0, "is_reserved": 0, "is_disabled": 0, "fusion_lat": 0.0, "type": "electric_scooter", "name": "66886faf6072935e027a0d3bdf9d37b1", "lat": 38.92896733333333, "bike_id": "66886faf6072935e027a0d3bdf9d37b1"}, {"lon": -77.04489316666667, "rental_uris": {"android": "https://dc.lft.to/lastmile_qr_scan", "ios": "https://dc.lft.to/lastmile_qr_scan"}, "fusion_lon": 0.0, "is_reserved": 0, "is_disabled": 0, "fusion_lat": 0.0, "type": "electric_scooter", "name": "5b9426c0196b7d96b4568a49b2ee5382", "lat": 38.90378883333333, "bike_id": "5b9426c0196b7d96b4568a49b2ee5382"}, {"lon": -77.00607916666667, "rental_uris": {"android": "https://dc.lft.to/lastmile_qr_scan", "ios": "https://dc.lft.to/lastmile_qr_scan"}, "fusion_lon": 0.0, "is_reserved": 0, "is_disabled": 0, "fusion_lat": 0.0, "type": "electric_bike", "name": "7b3899c9c94ce372e41e0b37f34f8292", "lat": 38.8981395, "bike_id": "7b3899c9c94ce372e41e0b37f34f8292"}, {"lon": -77.0355495, "rental_uris": {"android": "https://dc.lft.to/lastmile_qr_scan", "ios": "https://dc.lft.to/lastmile_qr_scan"}, "fusion_lon": 0.0, "is_reserved": 0, "is_disabled": 0, "fusion_lat": 0.0, "type": "electric_bike", "name": "1ec4a60e48f13c2216b39068ce5a524c", "lat": 38.931799, "bike_id": "1ec4a60e48f13c2216b39068ce5a524c"}, {"lon": -77.00532216666667, "rental_uris": {"android": "https://dc.lft.to/lastmile_qr_scan", "ios": "https://dc.lft.to/lastmile_qr_scan"}, "fusion_lon": 0.0, "is_reserved": 0, "is_disabled": 0, "fusion_lat": 0.0, "type": "electric_scooter", "name": "5d83b5d4fc39d6173a1bf9eca0b0a9ff", "lat": 38.875443, "bike_id": "5d83b5d4fc39d6173a1bf9eca0b0a9ff"}, {"lon": -77.11280366666666, "rental_uris": {"android": "https://dc.lft.to/lastmile_qr_scan", "ios": "https://dc.lft.to/lastmile_qr_scan"}, "fusion_lon": 0.0, "is_reserved": 0, "is_disabled": 0, "fusion_lat": 0.0, "type": "electric_bike", "name": "57b6a341e8666125470f14aa8ea3948d", "lat": 38.831048333333335, "bike_id": "57b6a341e8666125470f14aa8ea3948d"}, {"lon": -77.0294835, "rental_uris": {"android": "https://dc.lft.to/lastmile_qr_scan", "ios": "https://dc.lft.to/lastmile_qr_scan"}, "fusion_lon": 0.0, "is_reserved": 0, "is_disabled": 0, "fusion_lat": 0.0, "type": "electric_scooter", "name": "276651344b694d3b37f2ec4643bf12a3", "lat": 38.913478166666664, "bike_id": "276651344b694d3b37f2ec4643bf12a3"}, {"lon": -77.05144016666667, "rental_uris": {"android": "https://dc.lft.to/lastmile_qr_scan", "ios": "https://dc.lft.to/lastmile_qr_scan"}, "fusion_lon": 0.0, "is_reserved": 0, "is_disabled": 0, "fusion_lat": 0.0, "type": "electric_scooter", "name": "e383265ea3ccf6961fe8a712ad21aa8c", "lat": 38.903118, "bike_id": "e383265ea3ccf6961fe8a712ad21aa8c"}, {"lon": -77.0210075, "rental_uris": {"android": "https://dc.lft.to/lastmile_qr_scan", "ios": "https://dc.lft.to/lastmile_qr_scan"}, "fusion_lon": 0.0, "is_reserved": 0, "is_disabled": 0, "fusion_lat": 0.0, "type": "electric_scooter", "name": "603aaf848308795ecca32206885d734f", "lat": 38.90081983333334, "bike_id": "603aaf848308795ecca32206885d734f"}, {"lon": -77.04986633333333, "rental_uris": {"android": "https://dc.lft.to/lastmile_qr_scan", "ios": "https://dc.lft.to/lastmile_qr_scan"}, "fusion_lon": 0.0, "is_reserved": 0, "is_disabled": 0, "fusion_lat": 0.0, "type": "electric_scooter", "name": "baec3114fc7cd2743a6754005169ed2f", "lat": 38.90108516666667, "bike_id": "baec3114fc7cd2743a6754005169ed2f"}, {"lon": -77.04684833333333, "rental_uris": {"android": "https://dc.lft.to/lastmile_qr_scan", "ios": "https://dc.lft.to/lastmile_qr_scan"}, "fusion_lon": 0.0, "is_reserved": 0, "is_disabled": 0, "fusion_lat": 0.0, "type": "electric_scooter", "name": "d438e30332390825ba418afeafd38273", "lat": 38.90250416666667, "bike_id": "d438e30332390825ba418afeafd38273"}, {"lon": -77.0179525, "rental_uris": {"android": "https://dc.lft.to/lastmile_qr_scan", "ios": "https://dc.lft.to/lastmile_qr_scan"}, "fusion_lon": 0.0, "is_reserved": 0, "is_disabled": 0, "fusion_lat": 0.0, "type": "electric_scooter", "name": "63e169dcf903fd7c60d0421af55907fa", "lat": 38.90122233333334, "bike_id": "63e169dcf903fd7c60d0421af55907fa"}, {"lon": -77.017724, "rental_uris": {"android": "https://dc.lft.to/lastmile_qr_scan", "ios": "https://dc.lft.to/lastmile_qr_scan"}, "fusion_lon": 0.0, "is_reserved": 0, "is_disabled": 0, "fusion_lat": 0.0, "type": "electric_scooter", "name": "7512b244dd74232b9ab13f0831185215", "lat": 38.90092933333333, "bike_id": "7512b244dd74232b9ab13f0831185215"}, {"lon": -77.0433705, "rental_uris": {"android": "https://dc.lft.to/lastmile_qr_scan", "ios": "https://dc.lft.to/lastmile_qr_scan"}, "fusion_lon": 0.0, "is_reserved": 0, "is_disabled": 0, "fusion_lat": 0.0, "type": "electric_scooter", "name": "60654e39a744e0d958421064c86261ac", "lat": 38.9280615, "bike_id": "60654e39a744e0d958421064c86261ac"}, {"lon": -77.01517883333334, "rental_uris": {"android": "https://dc.lft.to/lastmile_qr_scan", "ios": "https://dc.lft.to/lastmile_qr_scan"}, "fusion_lon": 0.0, "is_reserved": 0, "is_disabled": 0, "fusion_lat": 0.0, "type": "electric_scooter", "name": "9c0df27f33c7866cb72dec83a074f636", "lat": 38.9266925, "bike_id": "9c0df27f33c7866cb72dec83a074f636"}, {"lon": -77.02201083333334, "rental_uris": {"android": "https://dc.lft.to/lastmile_qr_scan", "ios": "https://dc.lft.to/lastmile_qr_scan"}, "fusion_lon": 0.0, "is_reserved": 0, "is_disabled": 0, "fusion_lat": 0.0, "type": "electric_scooter", "name": "dd04ab32515a64464fc92546ef97cd40", "lat": 38.887196333333335, "bike_id": "dd04ab32515a64464fc92546ef97cd40"}, {"lon": -77.009337, "rental_uris": {"android": "https://dc.lft.to/lastmile_qr_scan", "ios": "https://dc.lft.to/lastmile_qr_scan"}, "fusion_lon": 0.0, "is_reserved": 0, "is_disabled": 0, "fusion_lat": 0.0, "type": "electric_scooter", "name": "d6ea01ef408e56f40b65bcc9d2a8ec02", "lat": 38.922359, "bike_id": "d6ea01ef408e56f40b65bcc9d2a8ec02"}, {"lon": -76.939641, "rental_uris": {"android": "https://dc.lft.to/lastmile_qr_scan", "ios": "https://dc.lft.to/lastmile_qr_scan"}, "fusion_lon": 0.0, "is_reserved": 0, "is_disabled": 0, "fusion_lat": 0.0, "type": "electric_bike", "name": "feaa8358958728f563f976d2855a6097", "lat": 38.9880785, "bike_id": "feaa8358958728f563f976d2855a6097"}, {"lon": -77.03949033333333, "rental_uris": {"android": "https://dc.lft.to/lastmile_qr_scan", "ios": "https://dc.lft.to/lastmile_qr_scan"}, "fusion_lon": 0.0, "is_reserved": 0, "is_disabled": 0, "fusion_lat": 0.0, "type": "electric_scooter", "name": "002cc82f7814a457b2ec1ba2610b55aa", "lat": 38.90828966666667, "bike_id": "002cc82f7814a457b2ec1ba2610b55aa"}, {"lon": -77.04509883333333, "rental_uris": {"android": "https://dc.lft.to/lastmile_qr_scan", "ios": "https://dc.lft.to/lastmile_qr_scan"}, "fusion_lon": 0.0, "is_reserved": 0, "is_disabled": 0, "fusion_lat": 0.0, "type": "electric_scooter", "name": "47e71e292b5770d48738d373f7834a0d", "lat": 38.90550116666667, "bike_id": "47e71e292b5770d48738d373f7834a0d"}, {"lon": -77.0358495, "rental_uris": {"android": "https://dc.lft.to/lastmile_qr_scan", "ios": "https://dc.lft.to/lastmile_qr_scan"}, "fusion_lon": 0.0, "is_reserved": 0, "is_disabled": 0, "fusion_lat": 0.0, "type": "electric_bike", "name": "61ad0935799123856f4462734d894986", "lat": 38.992246, "bike_id": "61ad0935799123856f4462734d894986"}, {"lon": -76.95239633333334, "rental_uris": {"android": "https://dc.lft.to/lastmile_qr_scan", "ios": "https://dc.lft.to/lastmile_qr_scan"}, "fusion_lon": 0.0, "is_reserved": 0, "is_disabled": 0, "fusion_lat": 0.0, "type": "electric_bike", "name": "2c91c20c18ea651fa09f22aaf4e56153", "lat": 38.88461083333333, "bike_id": "2c91c20c18ea651fa09f22aaf4e56153"}, {"lon": -77.02964166666666, "rental_uris": {"android": "https://dc.lft.to/lastmile_qr_scan", "ios": "https://dc.lft.to/lastmile_qr_scan"}, "fusion_lon": 0.0, "is_reserved": 0, "is_disabled": 0, "fusion_lat": 0.0, "type": "electric_scooter", "name": "3401835803fb5d866efdeb860b19ac3f", "lat": 38.91889616666667, "bike_id": "3401835803fb5d866efdeb860b19ac3f"}, {"lon": -76.949714, "rental_uris": {"android": "https://dc.lft.to/lastmile_qr_scan", "ios": "https://dc.lft.to/lastmile_qr_scan"}, "fusion_lon": 0.0, "is_reserved": 0, "is_disabled": 0, "fusion_lat": 0.0, "type": "electric_scooter", "name": "b30ba343b1681415b03e0474f75b3598", "lat": 38.90423783333333, "bike_id": "b30ba343b1681415b03e0474f75b3598"}, {"lon": -77.02756616666667, "rental_uris": {"android": "https://dc.lft.to/lastmile_qr_scan", "ios": "https://dc.lft.to/lastmile_qr_scan"}, "fusion_lon": 0.0, "is_reserved": 0, "is_disabled": 0, "fusion_lat": 0.0, "type": "electric_scooter", "name": "01c626c7b3a736aea1d95ed385b0cec4", "lat": 38.956170166666666, "bike_id": "01c626c7b3a736aea1d95ed385b0cec4"}, {"lon": -77.03259416666667, "rental_uris": {"android": "https://dc.lft.to/lastmile_qr_scan", "ios": "https://dc.lft.to/lastmile_qr_scan"}, "fusion_lon": 0.0, "is_reserved": 0, "is_disabled": 0, "fusion_lat": 0.0, "type": "electric_scooter", "name": "7c24afaa3a1988f4369bcfee4ad6b6fb", "lat": 38.929192666666665, "bike_id": "7c24afaa3a1988f4369bcfee4ad6b6fb"}, {"lon": -77.04480216666667, "rental_uris": {"android": "https://dc.lft.to/lastmile_qr_scan", "ios": "https://dc.lft.to/lastmile_qr_scan"}, "fusion_lon": 0.0, "is_reserved": 0, "is_disabled": 0, "fusion_lat": 0.0, "type": "electric_scooter", "name": "449deb9df9f16393d01815ebb64f5726", "lat": 38.905680833333335, "bike_id": "449deb9df9f16393d01815ebb64f5726"}, {"lon": -77.04077483333333, "rental_uris": {"android": "https://dc.lft.to/lastmile_qr_scan", "ios": "https://dc.lft.to/lastmile_qr_scan"}, "fusion_lon": 0.0, "is_reserved": 0, "is_disabled": 0, "fusion_lat": 0.0, "type": "electric_scooter", "name": "b531852ca81a0bc3d4276f5fff385f42", "lat": 38.903855166666666, "bike_id": "b531852ca81a0bc3d4276f5fff385f42"}, {"lon": -77.04871816666666, "rental_uris": {"android": "https://dc.lft.to/lastmile_qr_scan", "ios": "https://dc.lft.to/lastmile_qr_scan"}, "fusion_lon": 0.0, "is_reserved": 0, "is_disabled": 0, "fusion_lat": 0.0, "type": "electric_scooter", "name": "6a4d5056dc5b6a37555aabcdbf55b35e", "lat": 38.89838983333333, "bike_id": "6a4d5056dc5b6a37555aabcdbf55b35e"}, {"lon": -77.07406016666667, "rental_uris": {"android": "https://dc.lft.to/lastmile_qr_scan", "ios": "https://dc.lft.to/lastmile_qr_scan"}, "fusion_lon": 0.0, "is_reserved": 0, "is_disabled": 0, "fusion_lat": 0.0, "type": "electric_scooter", "name": "0a184b714f9fa8bb88f52df33637c2cb", "lat": 38.91025616666667, "bike_id": "0a184b714f9fa8bb88f52df33637c2cb"}, {"lon": -77.0467065, "rental_uris": {"android": "https://dc.lft.to/lastmile_qr_scan", "ios": "https://dc.lft.to/lastmile_qr_scan"}, "fusion_lon": 0.0, "is_reserved": 0, "is_disabled": 0, "fusion_lat": 0.0, "type": "electric_scooter", "name": "1992dea97b68c75c2a02bbd90eb532aa", "lat": 38.897363666666664, "bike_id": "1992dea97b68c75c2a02bbd90eb532aa"}, {"lon": -76.98579383333333, "rental_uris": {"android": "https://dc.lft.to/lastmile_qr_scan", "ios": "https://dc.lft.to/lastmile_qr_scan"}, "fusion_lon": 0.0, "is_reserved": 0, "is_disabled": 0, "fusion_lat": 0.0, "type": "electric_bike", "name": "6b1a7edc70cdbe900901567e711c5498", "lat": 38.91483783333334, "bike_id": "6b1a7edc70cdbe900901567e711c5498"}, {"lon": -77.030486, "rental_uris": {"android": "https://dc.lft.to/lastmile_qr_scan", "ios": "https://dc.lft.to/lastmile_qr_scan"}, "fusion_lon": 0.0, "is_reserved": 0, "is_disabled": 0, "fusion_lat": 0.0, "type": "electric_scooter", "name": "439b21e1b7f6e3b3a83e35e215466818", "lat": 38.913325666666665, "bike_id": "439b21e1b7f6e3b3a83e35e215466818"}, {"lon": -77.02821366666667, "rental_uris": {"android": "https://dc.lft.to/lastmile_qr_scan", "ios": "https://dc.lft.to/lastmile_qr_scan"}, "fusion_lon": 0.0, "is_reserved": 0, "is_disabled": 0, "fusion_lat": 0.0, "type": "electric_scooter", "name": "d3ac67d9d8a0459d74fa62e1576b3694", "lat": 38.8873125, "bike_id": "d3ac67d9d8a0459d74fa62e1576b3694"}, {"lon": -77.02117633333333, "rental_uris": {"android": "https://dc.lft.to/lastmile_qr_scan", "ios": "https://dc.lft.to/lastmile_qr_scan"}, "fusion_lon": 0.0, "is_reserved": 0, "is_disabled": 0, "fusion_lat": 0.0, "type": "electric_scooter", "name": "62c55e5b72d3cb9066183603f37c75a9", "lat": 38.922377833333336, "bike_id": "62c55e5b72d3cb9066183603f37c75a9"}, {"lon": -77.02793433333333, "rental_uris": {"android": "https://dc.lft.to/lastmile_qr_scan", "ios": "https://dc.lft.to/lastmile_qr_scan"}, "fusion_lon": 0.0, "is_reserved": 0, "is_disabled": 0, "fusion_lat": 0.0, "type": "electric_scooter", "name": "5757b7cee31b9cc6158ec19a23382c9f", "lat": 38.9417685, "bike_id": "5757b7cee31b9cc6158ec19a23382c9f"}, {"lon": -77.06524666666667, "rental_uris": {"android": "https://dc.lft.to/lastmile_qr_scan", "ios": "https://dc.lft.to/lastmile_qr_scan"}, "fusion_lon": 0.0, "is_reserved": 0, "is_disabled": 0, "fusion_lat": 0.0, "type": "electric_scooter", "name": "8a1ca527c9c9489c798af1ae16826faa", "lat": 38.924172166666665, "bike_id": "8a1ca527c9c9489c798af1ae16826faa"}, {"lon": -77.0398835, "rental_uris": {"android": "https://dc.lft.to/lastmile_qr_scan", "ios": "https://dc.lft.to/lastmile_qr_scan"}, "fusion_lon": 0.0, "is_reserved": 0, "is_disabled": 0, "fusion_lat": 0.0, "type": "electric_scooter", "name": "23228d5e1076a0d14e14cf8bf6f76523", "lat": 38.934333, "bike_id": "23228d5e1076a0d14e14cf8bf6f76523"}, {"lon": -77.01944133333333, "rental_uris": {"android": "https://dc.lft.to/lastmile_qr_scan", "ios": "https://dc.lft.to/lastmile_qr_scan"}, "fusion_lon": 0.0, "is_reserved": 0, "is_disabled": 0, "fusion_lat": 0.0, "type": "electric_scooter", "name": "3959d94b608b1e1c2dc1288f5a02b48a", "lat": 38.92418383333333, "bike_id": "3959d94b608b1e1c2dc1288f5a02b48a"}, {"lon": -76.989535, "rental_uris": {"android": "https://dc.lft.to/lastmile_qr_scan", "ios": "https://dc.lft.to/lastmile_qr_scan"}, "fusion_lon": 0.0, "is_reserved": 0, "is_disabled": 0, "fusion_lat": 0.0, "type": "electric_bike", "name": "6c8330d5d20fda2c61a1cff51d81eb6f", "lat": 38.867337, "bike_id": "6c8330d5d20fda2c61a1cff51d81eb6f"}, {"lon": -77.03163316666667, "rental_uris": {"android": "https://dc.lft.to/lastmile_qr_scan", "ios": "https://dc.lft.to/lastmile_qr_scan"}, "fusion_lon": 0.0, "is_reserved": 0, "is_disabled": 0, "fusion_lat": 0.0, "type": "electric_scooter", "name": "c80350bbef025535cd960819f2f98cf4", "lat": 38.914094666666664, "bike_id": "c80350bbef025535cd960819f2f98cf4"}, {"lon": -77.02242766666667, "rental_uris": {"android": "https://dc.lft.to/lastmile_qr_scan", "ios": "https://dc.lft.to/lastmile_qr_scan"}, "fusion_lon": 0.0, "is_reserved": 0, "is_disabled": 0, "fusion_lat": 0.0, "type": "electric_bike", "name": "1afa7c8633fd017d3c3598c94993f3d7", "lat": 38.96446183333333, "bike_id": "1afa7c8633fd017d3c3598c94993f3d7"}, {"lon": -77.04484016666666, "rental_uris": {"android": "https://dc.lft.to/lastmile_qr_scan", "ios": "https://dc.lft.to/lastmile_qr_scan"}, "fusion_lon": 0.0, "is_reserved": 0, "is_disabled": 0, "fusion_lat": 0.0, "type": "electric_scooter", "name": "f698f99cde22ac5362ade5e04bdacb9c", "lat": 38.91921883333333, "bike_id": "f698f99cde22ac5362ade5e04bdacb9c"}, {"lon": -77.00732816666667, "rental_uris": {"android": "https://dc.lft.to/lastmile_qr_scan", "ios": "https://dc.lft.to/lastmile_qr_scan"}, "fusion_lon": 0.0, "is_reserved": 0, "is_disabled": 0, "fusion_lat": 0.0, "type": "electric_scooter", "name": "88468f8ed20411f7b72de7c6553bea42", "lat": 38.87843733333333, "bike_id": "88468f8ed20411f7b72de7c6553bea42"}, {"lon": -77.0006215, "rental_uris": {"android": "https://dc.lft.to/lastmile_qr_scan", "ios": "https://dc.lft.to/lastmile_qr_scan"}, "fusion_lon": 0.0, "is_reserved": 0, "is_disabled": 0, "fusion_lat": 0.0, "type": "electric_scooter", "name": "ec4519655629b960900f376fb80110be", "lat": 38.8768825, "bike_id": "ec4519655629b960900f376fb80110be"}, {"lon": -77.03768516666666, "rental_uris": {"android": "https://dc.lft.to/lastmile_qr_scan", "ios": "https://dc.lft.to/lastmile_qr_scan"}, "fusion_lon": 0.0, "is_reserved": 0, "is_disabled": 0, "fusion_lat": 0.0, "type": "electric_scooter", "name": "4f80339215b0a903551d1441338cfa94", "lat": 38.91684933333333, "bike_id": "4f80339215b0a903551d1441338cfa94"}, {"lon": -77.03190516666666, "rental_uris": {"android": "https://dc.lft.to/lastmile_qr_scan", "ios": "https://dc.lft.to/lastmile_qr_scan"}, "fusion_lon": 0.0, "is_reserved": 0, "is_disabled": 0, "fusion_lat": 0.0, "type": "electric_scooter", "name": "3cf1cd117413305661e4a094ab099a59", "lat": 38.908348333333336, "bike_id": "3cf1cd117413305661e4a094ab099a59"}, {"lon": -77.03172966666666, "rental_uris": {"android": "https://dc.lft.to/lastmile_qr_scan", "ios": "https://dc.lft.to/lastmile_qr_scan"}, "fusion_lon": 0.0, "is_reserved": 0, "is_disabled": 0, "fusion_lat": 0.0, "type": "electric_scooter", "name": "1fb975d8e717cbb0c942f205dc418d02", "lat": 38.9011735, "bike_id": "1fb975d8e717cbb0c942f205dc418d02"}, {"lon": -77.02412983333333, "rental_uris": {"android": "https://dc.lft.to/lastmile_qr_scan", "ios": "https://dc.lft.to/lastmile_qr_scan"}, "fusion_lon": 0.0, "is_reserved": 0, "is_disabled": 0, "fusion_lat": 0.0, "type": "electric_scooter", "name": "889c75d58c1b5dfdefcfb29d080437f1", "lat": 38.89743033333333, "bike_id": "889c75d58c1b5dfdefcfb29d080437f1"}, {"lon": -77.04606433333333, "rental_uris": {"android": "https://dc.lft.to/lastmile_qr_scan", "ios": "https://dc.lft.to/lastmile_qr_scan"}, "fusion_lon": 0.0, "is_reserved": 0, "is_disabled": 0, "fusion_lat": 0.0, "type": "electric_scooter", "name": "9b35fa6687fb9ae082024d506c4c8ed4", "lat": 38.902637166666665, "bike_id": "9b35fa6687fb9ae082024d506c4c8ed4"}, {"lon": -77.04940483333333, "rental_uris": {"android": "https://dc.lft.to/lastmile_qr_scan", "ios": "https://dc.lft.to/lastmile_qr_scan"}, "fusion_lon": 0.0, "is_reserved": 0, "is_disabled": 0, "fusion_lat": 0.0, "type": "electric_scooter", "name": "7e7c77b2be272752676ca87a00cd16e1", "lat": 38.9007985, "bike_id": "7e7c77b2be272752676ca87a00cd16e1"}, {"lon": -77.01212733333334, "rental_uris": {"android": "https://dc.lft.to/lastmile_qr_scan", "ios": "https://dc.lft.to/lastmile_qr_scan"}, "fusion_lon": 0.0, "is_reserved": 0, "is_disabled": 0, "fusion_lat": 0.0, "type": "electric_scooter", "name": "ee2f687213a45b6a0395f6e639b6c5c9", "lat": 38.91677833333333, "bike_id": "ee2f687213a45b6a0395f6e639b6c5c9"}, {"lon": -77.0703825, "rental_uris": {"android": "https://dc.lft.to/lastmile_qr_scan", "ios": "https://dc.lft.to/lastmile_qr_scan"}, "fusion_lon": 0.0, "is_reserved": 0, "is_disabled": 0, "fusion_lat": 0.0, "type": "electric_scooter", "name": "cfb67921c5e0822c8df3997551fd1192", "lat": 38.90767183333333, "bike_id": "cfb67921c5e0822c8df3997551fd1192"}, {"lon": -77.03280833333334, "rental_uris": {"android": "https://dc.lft.to/lastmile_qr_scan", "ios": "https://dc.lft.to/lastmile_qr_scan"}, "fusion_lon": 0.0, "is_reserved": 0, "is_disabled": 0, "fusion_lat": 0.0, "type": "electric_scooter", "name": "663a3de4ba5fdc2597ca3be858e81eb1", "lat": 38.937607, "bike_id": "663a3de4ba5fdc2597ca3be858e81eb1"}, {"lon": -77.04366966666667, "rental_uris": {"android": "https://dc.lft.to/lastmile_qr_scan", "ios": "https://dc.lft.to/lastmile_qr_scan"}, "fusion_lon": 0.0, "is_reserved": 0, "is_disabled": 0, "fusion_lat": 0.0, "type": "electric_scooter", "name": "9388fcfeefa051c29df1bda6ca00e075", "lat": 38.902362833333335, "bike_id": "9388fcfeefa051c29df1bda6ca00e075"}, {"lon": -77.04863166666667, "rental_uris": {"android": "https://dc.lft.to/lastmile_qr_scan", "ios": "https://dc.lft.to/lastmile_qr_scan"}, "fusion_lon": 0.0, "is_reserved": 0, "is_disabled": 0, "fusion_lat": 0.0, "type": "electric_scooter", "name": "db458437a348c548a1d1a858250133f5", "lat": 38.892190166666666, "bike_id": "db458437a348c548a1d1a858250133f5"}, {"lon": -76.9670765, "rental_uris": {"android": "https://dc.lft.to/lastmile_qr_scan", "ios": "https://dc.lft.to/lastmile_qr_scan"}, "fusion_lon": 0.0, "is_reserved": 0, "is_disabled": 0, "fusion_lat": 0.0, "type": "electric_scooter", "name": "ded91c57ab6e8b8de923ff204d92a4e5", "lat": 38.86014633333333, "bike_id": "ded91c57ab6e8b8de923ff204d92a4e5"}, {"lon": -77.02710516666667, "rental_uris": {"android": "https://dc.lft.to/lastmile_qr_scan", "ios": "https://dc.lft.to/lastmile_qr_scan"}, "fusion_lon": 0.0, "is_reserved": 0, "is_disabled": 0, "fusion_lat": 0.0, "type": "electric_scooter", "name": "ecc2464c3bfe84739d31441032d4b99f", "lat": 38.8976265, "bike_id": "ecc2464c3bfe84739d31441032d4b99f"}, {"lon": -77.04537183333333, "rental_uris": {"android": "https://dc.lft.to/lastmile_qr_scan", "ios": "https://dc.lft.to/lastmile_qr_scan"}, "fusion_lon": 0.0, "is_reserved": 0, "is_disabled": 0, "fusion_lat": 0.0, "type": "electric_scooter", "name": "6f92693468f9c309eb1094255b3acce6", "lat": 38.9110745, "bike_id": "6f92693468f9c309eb1094255b3acce6"}, {"lon": -77.03407133333333, "rental_uris": {"android": "https://dc.lft.to/lastmile_qr_scan", "ios": "https://dc.lft.to/lastmile_qr_scan"}, "fusion_lon": 0.0, "is_reserved": 0, "is_disabled": 0, "fusion_lat": 0.0, "type": "electric_scooter", "name": "3e70e06af992f47df4e0a766bd4b1613", "lat": 38.902607, "bike_id": "3e70e06af992f47df4e0a766bd4b1613"}, {"lon": -77.01948983333334, "rental_uris": {"android": "https://dc.lft.to/lastmile_qr_scan", "ios": "https://dc.lft.to/lastmile_qr_scan"}, "fusion_lon": 0.0, "is_reserved": 0, "is_disabled": 0, "fusion_lat": 0.0, "type": "electric_scooter", "name": "87036e8b9e81dc6826ed6cbf24759d16", "lat": 38.92421383333333, "bike_id": "87036e8b9e81dc6826ed6cbf24759d16"}, {"lon": -77.0380835, "rental_uris": {"android": "https://dc.lft.to/lastmile_qr_scan", "ios": "https://dc.lft.to/lastmile_qr_scan"}, "fusion_lon": 0.0, "is_reserved": 0, "is_disabled": 0, "fusion_lat": 0.0, "type": "electric_scooter", "name": "5f6f34f403e09b82888b12c1d2aa6c0e", "lat": 38.9067105, "bike_id": "5f6f34f403e09b82888b12c1d2aa6c0e"}, {"lon": -77.00537633333333, "rental_uris": {"android": "https://dc.lft.to/lastmile_qr_scan", "ios": "https://dc.lft.to/lastmile_qr_scan"}, "fusion_lon": 0.0, "is_reserved": 0, "is_disabled": 0, "fusion_lat": 0.0, "type": "electric_scooter", "name": "a1e7d25a3818be0342f49304cc03411b", "lat": 38.8849965, "bike_id": "a1e7d25a3818be0342f49304cc03411b"}, {"lon": -76.9732775, "rental_uris": {"android": "https://dc.lft.to/lastmile_qr_scan", "ios": "https://dc.lft.to/lastmile_qr_scan"}, "fusion_lon": 0.0, "is_reserved": 0, "is_disabled": 0, "fusion_lat": 0.0, "type": "electric_scooter", "name": "f3183895e6b96d9a870994c369a70151", "lat": 38.90409483333333, "bike_id": "f3183895e6b96d9a870994c369a70151"}, {"lon": -76.93499283333334, "rental_uris": {"android": "https://dc.lft.to/lastmile_qr_scan", "ios": "https://dc.lft.to/lastmile_qr_scan"}, "fusion_lon": 0.0, "is_reserved": 0, "is_disabled": 0, "fusion_lat": 0.0, "type": "electric_scooter", "name": "eeb8dcaf70d4761c9f91d5bca327ae4d", "lat": 38.88342166666666, "bike_id": "eeb8dcaf70d4761c9f91d5bca327ae4d"}, {"lon": -77.03502633333333, "rental_uris": {"android": "https://dc.lft.to/lastmile_qr_scan", "ios": "https://dc.lft.to/lastmile_qr_scan"}, "fusion_lon": 0.0, "is_reserved": 0, "is_disabled": 0, "fusion_lat": 0.0, "type": "electric_scooter", "name": "1cf65fb9d65b206ebded2516943ea873", "lat": 38.92335333333333, "bike_id": "1cf65fb9d65b206ebded2516943ea873"}, {"lon": -77.031497, "rental_uris": {"android": "https://dc.lft.to/lastmile_qr_scan", "ios": "https://dc.lft.to/lastmile_qr_scan"}, "fusion_lon": 0.0, "is_reserved": 0, "is_disabled": 0, "fusion_lat": 0.0, "type": "electric_scooter", "name": "de5bfd8d56e631d869bd275a645c7752", "lat": 38.916963, "bike_id": "de5bfd8d56e631d869bd275a645c7752"}, {"lon": -76.99910383333334, "rental_uris": {"android": "https://dc.lft.to/lastmile_qr_scan", "ios": "https://dc.lft.to/lastmile_qr_scan"}, "fusion_lon": 0.0, "is_reserved": 0, "is_disabled": 0, "fusion_lat": 0.0, "type": "electric_scooter", "name": "d10a875e954d618baf5a566da3a11e44", "lat": 38.84341533333333, "bike_id": "d10a875e954d618baf5a566da3a11e44"}, {"lon": -77.02412283333334, "rental_uris": {"android": "https://dc.lft.to/lastmile_qr_scan", "ios": "https://dc.lft.to/lastmile_qr_scan"}, "fusion_lon": 0.0, "is_reserved": 0, "is_disabled": 0, "fusion_lat": 0.0, "type": "electric_scooter", "name": "3acfca0ae636f96d4719b138f50fbdba", "lat": 38.895152333333336, "bike_id": "3acfca0ae636f96d4719b138f50fbdba"}, {"lon": -77.0258615, "rental_uris": {"android": "https://dc.lft.to/lastmile_qr_scan", "ios": "https://dc.lft.to/lastmile_qr_scan"}, "fusion_lon": 0.0, "is_reserved": 0, "is_disabled": 0, "fusion_lat": 0.0, "type": "electric_scooter", "name": "6187ebfa5b5ecb9ce6f8fcd60cbfd0a3", "lat": 38.91814566666667, "bike_id": "6187ebfa5b5ecb9ce6f8fcd60cbfd0a3"}, {"lon": -77.0569515, "rental_uris": {"android": "https://dc.lft.to/lastmile_qr_scan", "ios": "https://dc.lft.to/lastmile_qr_scan"}, "fusion_lon": 0.0, "is_reserved": 0, "is_disabled": 0, "fusion_lat": 0.0, "type": "electric_scooter", "name": "8573a05830eebfa8d13fe503e6714def", "lat": 38.923295333333336, "bike_id": "8573a05830eebfa8d13fe503e6714def"}, {"lon": -77.0215865, "rental_uris": {"android": "https://dc.lft.to/lastmile_qr_scan", "ios": "https://dc.lft.to/lastmile_qr_scan"}, "fusion_lon": 0.0, "is_reserved": 0, "is_disabled": 0, "fusion_lat": 0.0, "type": "electric_scooter", "name": "532196129652b199c194908a3e31fce6", "lat": 38.90249516666667, "bike_id": "532196129652b199c194908a3e31fce6"}, {"lon": -77.03276883333334, "rental_uris": {"android": "https://dc.lft.to/lastmile_qr_scan", "ios": "https://dc.lft.to/lastmile_qr_scan"}, "fusion_lon": 0.0, "is_reserved": 0, "is_disabled": 0, "fusion_lat": 0.0, "type": "electric_scooter", "name": "22e7daf8acedcd8ee55b0b6c923e9c0a", "lat": 38.92931866666667, "bike_id": "22e7daf8acedcd8ee55b0b6c923e9c0a"}, {"lon": -77.0482865, "rental_uris": {"android": "https://dc.lft.to/lastmile_qr_scan", "ios": "https://dc.lft.to/lastmile_qr_scan"}, "fusion_lon": 0.0, "is_reserved": 0, "is_disabled": 0, "fusion_lat": 0.0, "type": "electric_scooter", "name": "257c6219b3257c2cb360063fa0292684", "lat": 38.921068166666664, "bike_id": "257c6219b3257c2cb360063fa0292684"}, {"lon": -77.0410635, "rental_uris": {"android": "https://dc.lft.to/lastmile_qr_scan", "ios": "https://dc.lft.to/lastmile_qr_scan"}, "fusion_lon": 0.0, "is_reserved": 0, "is_disabled": 0, "fusion_lat": 0.0, "type": "electric_scooter", "name": "b4b7fbb03a4fee9f62fa45ab5900e0ce", "lat": 38.92358633333333, "bike_id": "b4b7fbb03a4fee9f62fa45ab5900e0ce"}, {"lon": -77.015566, "rental_uris": {"android": "https://dc.lft.to/lastmile_qr_scan", "ios": "https://dc.lft.to/lastmile_qr_scan"}, "fusion_lon": 0.0, "is_reserved": 0, "is_disabled": 0, "fusion_lat": 0.0, "type": "electric_scooter", "name": "880a4cfff2aa8cdf544c96341fe3fc90", "lat": 38.91465433333333, "bike_id": "880a4cfff2aa8cdf544c96341fe3fc90"}, {"lon": -76.98565433333333, "rental_uris": {"android": "https://dc.lft.to/lastmile_qr_scan", "ios": "https://dc.lft.to/lastmile_qr_scan"}, "fusion_lon": 0.0, "is_reserved": 0, "is_disabled": 0, "fusion_lat": 0.0, "type": "electric_scooter", "name": "ea7a8e49433634bbf7386090e51f9a06", "lat": 38.896131833333335, "bike_id": "ea7a8e49433634bbf7386090e51f9a06"}, {"lon": -77.0281215, "rental_uris": {"android": "https://dc.lft.to/lastmile_qr_scan", "ios": "https://dc.lft.to/lastmile_qr_scan"}, "fusion_lon": 0.0, "is_reserved": 0, "is_disabled": 0, "fusion_lat": 0.0, "type": "electric_scooter", "name": "fcef6fbeb135b0e6ca81845b9780160f", "lat": 38.895090333333336, "bike_id": "fcef6fbeb135b0e6ca81845b9780160f"}, {"lon": -77.03806183333333, "rental_uris": {"android": "https://dc.lft.to/lastmile_qr_scan", "ios": "https://dc.lft.to/lastmile_qr_scan"}, "fusion_lon": 0.0, "is_reserved": 0, "is_disabled": 0, "fusion_lat": 0.0, "type": "electric_scooter", "name": "27fb245296257045c73ad0531b6a6fee", "lat": 38.90676766666667, "bike_id": "27fb245296257045c73ad0531b6a6fee"}, {"lon": -77.0259295, "rental_uris": {"android": "https://dc.lft.to/lastmile_qr_scan", "ios": "https://dc.lft.to/lastmile_qr_scan"}, "fusion_lon": 0.0, "is_reserved": 0, "is_disabled": 0, "fusion_lat": 0.0, "type": "electric_scooter", "name": "777535d762db361e7ed93539a54a7f96", "lat": 38.898567, "bike_id": "777535d762db361e7ed93539a54a7f96"}, {"lon": -77.03164816666667, "rental_uris": {"android": "https://dc.lft.to/lastmile_qr_scan", "ios": "https://dc.lft.to/lastmile_qr_scan"}, "fusion_lon": 0.0, "is_reserved": 0, "is_disabled": 0, "fusion_lat": 0.0, "type": "electric_scooter", "name": "a3679ec00a84de3469c9414f69540593", "lat": 38.912681, "bike_id": "a3679ec00a84de3469c9414f69540593"}, {"lon": -77.04606016666666, "rental_uris": {"android": "https://dc.lft.to/lastmile_qr_scan", "ios": "https://dc.lft.to/lastmile_qr_scan"}, "fusion_lon": 0.0, "is_reserved": 0, "is_disabled": 0, "fusion_lat": 0.0, "type": "electric_scooter", "name": "4800ee9e1d94ae0fc0b3c5f0941912ab", "lat": 38.902325, "bike_id": "4800ee9e1d94ae0fc0b3c5f0941912ab"}, {"lon": -77.045766, "rental_uris": {"android": "https://dc.lft.to/lastmile_qr_scan", "ios": "https://dc.lft.to/lastmile_qr_scan"}, "fusion_lon": 0.0, "is_reserved": 0, "is_disabled": 0, "fusion_lat": 0.0, "type": "electric_bike", "name": "ba7eb0d0706727d695d2249cfe668351", "lat": 38.9146705, "bike_id": "ba7eb0d0706727d695d2249cfe668351"}, {"lon": -77.027003, "rental_uris": {"android": "https://dc.lft.to/lastmile_qr_scan", "ios": "https://dc.lft.to/lastmile_qr_scan"}, "fusion_lon": 0.0, "is_reserved": 0, "is_disabled": 0, "fusion_lat": 0.0, "type": "electric_scooter", "name": "8fa10a62f1c0464aa2ecf056728ad1b6", "lat": 38.91683416666667, "bike_id": "8fa10a62f1c0464aa2ecf056728ad1b6"}, {"lon": -77.03646, "rental_uris": {"android": "https://dc.lft.to/lastmile_qr_scan", "ios": "https://dc.lft.to/lastmile_qr_scan"}, "fusion_lon": 0.0, "is_reserved": 0, "is_disabled": 0, "fusion_lat": 0.0, "type": "electric_scooter", "name": "a2195b5e4d76b1aabf65bba8b693bfe7", "lat": 38.9037255, "bike_id": "a2195b5e4d76b1aabf65bba8b693bfe7"}, {"lon": -77.04581633333333, "rental_uris": {"android": "https://dc.lft.to/lastmile_qr_scan", "ios": "https://dc.lft.to/lastmile_qr_scan"}, "fusion_lon": 0.0, "is_reserved": 0, "is_disabled": 0, "fusion_lat": 0.0, "type": "electric_scooter", "name": "b5c6db913ed10f74ac700a522918ee5f", "lat": 38.913847833333335, "bike_id": "b5c6db913ed10f74ac700a522918ee5f"}, {"lon": -77.03659716666667, "rental_uris": {"android": "https://dc.lft.to/lastmile_qr_scan", "ios": "https://dc.lft.to/lastmile_qr_scan"}, "fusion_lon": 0.0, "is_reserved": 0, "is_disabled": 0, "fusion_lat": 0.0, "type": "electric_scooter", "name": "5ea593aaaa9d236794eb4549aa8b9116", "lat": 38.9091335, "bike_id": "5ea593aaaa9d236794eb4549aa8b9116"}, {"lon": -77.04323016666666, "rental_uris": {"android": "https://dc.lft.to/lastmile_qr_scan", "ios": "https://dc.lft.to/lastmile_qr_scan"}, "fusion_lon": 0.0, "is_reserved": 0, "is_disabled": 0, "fusion_lat": 0.0, "type": "electric_scooter", "name": "759c7c67863cc5b71415518cc067affd", "lat": 38.906300333333334, "bike_id": "759c7c67863cc5b71415518cc067affd"}, {"lon": -76.937513, "rental_uris": {"android": "https://dc.lft.to/lastmile_qr_scan", "ios": "https://dc.lft.to/lastmile_qr_scan"}, "fusion_lon": 0.0, "is_reserved": 0, "is_disabled": 0, "fusion_lat": 0.0, "type": "electric_scooter", "name": "36c00f2ffcb4229343d266e5d7a2f4af", "lat": 38.89045433333333, "bike_id": "36c00f2ffcb4229343d266e5d7a2f4af"}, {"lon": -77.04258533333334, "rental_uris": {"android": "https://dc.lft.to/lastmile_qr_scan", "ios": "https://dc.lft.to/lastmile_qr_scan"}, "fusion_lon": 0.0, "is_reserved": 0, "is_disabled": 0, "fusion_lat": 0.0, "type": "electric_scooter", "name": "6b03e8738976daea3697545be31cca20", "lat": 38.899481, "bike_id": "6b03e8738976daea3697545be31cca20"}, {"lon": -76.96259733333333, "rental_uris": {"android": "https://dc.lft.to/lastmile_qr_scan", "ios": "https://dc.lft.to/lastmile_qr_scan"}, "fusion_lon": 0.0, "is_reserved": 0, "is_disabled": 0, "fusion_lat": 0.0, "type": "electric_scooter", "name": "ae7b61053802dc17ee7dc039f8744124", "lat": 38.87868316666667, "bike_id": "ae7b61053802dc17ee7dc039f8744124"}, {"lon": -77.05002016666667, "rental_uris": {"android": "https://dc.lft.to/lastmile_qr_scan", "ios": "https://dc.lft.to/lastmile_qr_scan"}, "fusion_lon": 0.0, "is_reserved": 0, "is_disabled": 0, "fusion_lat": 0.0, "type": "electric_scooter", "name": "b034397b5e7e809546c10a29cd92c4a4", "lat": 38.89927866666667, "bike_id": "b034397b5e7e809546c10a29cd92c4a4"}, {"lon": -77.03874283333333, "rental_uris": {"android": "https://dc.lft.to/lastmile_qr_scan", "ios": "https://dc.lft.to/lastmile_qr_scan"}, "fusion_lon": 0.0, "is_reserved": 0, "is_disabled": 0, "fusion_lat": 0.0, "type": "electric_scooter", "name": "4378291f45b749ebe7df2d113235b70a", "lat": 38.906172166666664, "bike_id": "4378291f45b749ebe7df2d113235b70a"}, {"lon": -77.00676383333334, "rental_uris": {"android": "https://dc.lft.to/lastmile_qr_scan", "ios": "https://dc.lft.to/lastmile_qr_scan"}, "fusion_lon": 0.0, "is_reserved": 0, "is_disabled": 0, "fusion_lat": 0.0, "type": "electric_scooter", "name": "68c7c33a57258bc469dc49420a106af1", "lat": 38.877259333333335, "bike_id": "68c7c33a57258bc469dc49420a106af1"}, {"lon": -77.04890733333333, "rental_uris": {"android": "https://dc.lft.to/lastmile_qr_scan", "ios": "https://dc.lft.to/lastmile_qr_scan"}, "fusion_lon": 0.0, "is_reserved": 0, "is_disabled": 0, "fusion_lat": 0.0, "type": "electric_scooter", "name": "45901fede2354fc3916e6772458a1399", "lat": 38.90011483333333, "bike_id": "45901fede2354fc3916e6772458a1399"}, {"lon": -77.02237016666666, "rental_uris": {"android": "https://dc.lft.to/lastmile_qr_scan", "ios": "https://dc.lft.to/lastmile_qr_scan"}, "fusion_lon": 0.0, "is_reserved": 0, "is_disabled": 0, "fusion_lat": 0.0, "type": "electric_scooter", "name": "1414317a7a8853b6cdeba1bcf7182c73", "lat": 38.887667, "bike_id": "1414317a7a8853b6cdeba1bcf7182c73"}, {"lon": -77.0453415, "rental_uris": {"android": "https://dc.lft.to/lastmile_qr_scan", "ios": "https://dc.lft.to/lastmile_qr_scan"}, "fusion_lon": 0.0, "is_reserved": 0, "is_disabled": 0, "fusion_lat": 0.0, "type": "electric_scooter", "name": "44ec44f3c417ac48b053b403eb5ce327", "lat": 38.89957183333333, "bike_id": "44ec44f3c417ac48b053b403eb5ce327"}, {"lon": -77.01669383333333, "rental_uris": {"android": "https://dc.lft.to/lastmile_qr_scan", "ios": "https://dc.lft.to/lastmile_qr_scan"}, "fusion_lon": 0.0, "is_reserved": 0, "is_disabled": 0, "fusion_lat": 0.0, "type": "electric_scooter", "name": "c199b71f9ceb28d7f3270c66fa5303ec", "lat": 38.92045683333333, "bike_id": "c199b71f9ceb28d7f3270c66fa5303ec"}, {"lon": -77.00319933333333, "rental_uris": {"android": "https://dc.lft.to/lastmile_qr_scan", "ios": "https://dc.lft.to/lastmile_qr_scan"}, "fusion_lon": 0.0, "is_reserved": 0, "is_disabled": 0, "fusion_lat": 0.0, "type": "electric_scooter", "name": "90182db70aea0f0c16386178157a218f", "lat": 38.9124925, "bike_id": "90182db70aea0f0c16386178157a218f"}, {"lon": -77.03192633333333, "rental_uris": {"android": "https://dc.lft.to/lastmile_qr_scan", "ios": "https://dc.lft.to/lastmile_qr_scan"}, "fusion_lon": 0.0, "is_reserved": 0, "is_disabled": 0, "fusion_lat": 0.0, "type": "electric_scooter", "name": "35ebdad41f0ec1c777ae73302c322f87", "lat": 38.91679283333333, "bike_id": "35ebdad41f0ec1c777ae73302c322f87"}, {"lon": -76.99379316666666, "rental_uris": {"android": "https://dc.lft.to/lastmile_qr_scan", "ios": "https://dc.lft.to/lastmile_qr_scan"}, "fusion_lon": 0.0, "is_reserved": 0, "is_disabled": 0, "fusion_lat": 0.0, "type": "electric_scooter", "name": "5d46391c22c02fa3487be157559e878d", "lat": 38.893348, "bike_id": "5d46391c22c02fa3487be157559e878d"}, {"lon": -77.03832216666666, "rental_uris": {"android": "https://dc.lft.to/lastmile_qr_scan", "ios": "https://dc.lft.to/lastmile_qr_scan"}, "fusion_lon": 0.0, "is_reserved": 0, "is_disabled": 0, "fusion_lat": 0.0, "type": "electric_scooter", "name": "d33c0a3db4c85f4b9d1f645eee96a56f", "lat": 38.90770833333333, "bike_id": "d33c0a3db4c85f4b9d1f645eee96a56f"}, {"lon": -77.0286095, "rental_uris": {"android": "https://dc.lft.to/lastmile_qr_scan", "ios": "https://dc.lft.to/lastmile_qr_scan"}, "fusion_lon": 0.0, "is_reserved": 0, "is_disabled": 0, "fusion_lat": 0.0, "type": "electric_scooter", "name": "330d58fbd4bd5a983316cd7ff36ccf10", "lat": 38.887440166666664, "bike_id": "330d58fbd4bd5a983316cd7ff36ccf10"}, {"lon": -77.045322, "rental_uris": {"android": "https://dc.lft.to/lastmile_qr_scan", "ios": "https://dc.lft.to/lastmile_qr_scan"}, "fusion_lon": 0.0, "is_reserved": 0, "is_disabled": 0, "fusion_lat": 0.0, "type": "electric_scooter", "name": "341625412e0ae2f5cf49dc5539f91eba", "lat": 38.91416783333333, "bike_id": "341625412e0ae2f5cf49dc5539f91eba"}, {"lon": -76.99556966666667, "rental_uris": {"android": "https://dc.lft.to/lastmile_qr_scan", "ios": "https://dc.lft.to/lastmile_qr_scan"}, "fusion_lon": 0.0, "is_reserved": 0, "is_disabled": 0, "fusion_lat": 0.0, "type": "electric_scooter", "name": "74b350bea28939b1835270cf3e133d0f", "lat": 38.920494166666664, "bike_id": "74b350bea28939b1835270cf3e133d0f"}, {"lon": -77.055649, "rental_uris": {"android": "https://dc.lft.to/lastmile_qr_scan", "ios": "https://dc.lft.to/lastmile_qr_scan"}, "fusion_lon": 0.0, "is_reserved": 0, "is_disabled": 0, "fusion_lat": 0.0, "type": "electric_scooter", "name": "f6db4519e5269a773331b41b17c9f951", "lat": 38.9303095, "bike_id": "f6db4519e5269a773331b41b17c9f951"}, {"lon": -77.00266283333333, "rental_uris": {"android": "https://dc.lft.to/lastmile_qr_scan", "ios": "https://dc.lft.to/lastmile_qr_scan"}, "fusion_lon": 0.0, "is_reserved": 0, "is_disabled": 0, "fusion_lat": 0.0, "type": "electric_scooter", "name": "711f52f5c05982283f9a2e4ab109b8ef", "lat": 38.9523585, "bike_id": "711f52f5c05982283f9a2e4ab109b8ef"}, {"lon": -77.03841, "rental_uris": {"android": "https://dc.lft.to/lastmile_qr_scan", "ios": "https://dc.lft.to/lastmile_qr_scan"}, "fusion_lon": 0.0, "is_reserved": 0, "is_disabled": 0, "fusion_lat": 0.0, "type": "electric_scooter", "name": "f992c3f79effa397ecc501592c549445", "lat": 38.903204, "bike_id": "f992c3f79effa397ecc501592c549445"}, {"lon": -77.0434695, "rental_uris": {"android": "https://dc.lft.to/lastmile_qr_scan", "ios": "https://dc.lft.to/lastmile_qr_scan"}, "fusion_lon": 0.0, "is_reserved": 0, "is_disabled": 0, "fusion_lat": 0.0, "type": "electric_scooter", "name": "c5e930bd91de9de0bed094361c556c3e", "lat": 38.9023015, "bike_id": "c5e930bd91de9de0bed094361c556c3e"}, {"lon": -77.03507366666666, "rental_uris": {"android": "https://dc.lft.to/lastmile_qr_scan", "ios": "https://dc.lft.to/lastmile_qr_scan"}, "fusion_lon": 0.0, "is_reserved": 0, "is_disabled": 0, "fusion_lat": 0.0, "type": "electric_scooter", "name": "3c362b41e3f12c5a7681f4952faa014e", "lat": 38.9262645, "bike_id": "3c362b41e3f12c5a7681f4952faa014e"}, {"lon": -77.0365845, "rental_uris": {"android": "https://dc.lft.to/lastmile_qr_scan", "ios": "https://dc.lft.to/lastmile_qr_scan"}, "fusion_lon": 0.0, "is_reserved": 0, "is_disabled": 0, "fusion_lat": 0.0, "type": "electric_scooter", "name": "9f16b2c9dd751c81c1abedc9a568ae02", "lat": 38.90917366666667, "bike_id": "9f16b2c9dd751c81c1abedc9a568ae02"}, {"lon": -77.0356335, "rental_uris": {"android": "https://dc.lft.to/lastmile_qr_scan", "ios": "https://dc.lft.to/lastmile_qr_scan"}, "fusion_lon": 0.0, "is_reserved": 0, "is_disabled": 0, "fusion_lat": 0.0, "type": "electric_bike", "name": "815b44a14da96f740b633dc10b19bc07", "lat": 38.9646585, "bike_id": "815b44a14da96f740b633dc10b19bc07"}, {"lon": -77.022122, "rental_uris": {"android": "https://dc.lft.to/lastmile_qr_scan", "ios": "https://dc.lft.to/lastmile_qr_scan"}, "fusion_lon": 0.0, "is_reserved": 0, "is_disabled": 0, "fusion_lat": 0.0, "type": "electric_scooter", "name": "c57274140a591bd2eae55ccd82fcfd22", "lat": 38.920707, "bike_id": "c57274140a591bd2eae55ccd82fcfd22"}, {"lon": -77.043531, "rental_uris": {"android": "https://dc.lft.to/lastmile_qr_scan", "ios": "https://dc.lft.to/lastmile_qr_scan"}, "fusion_lon": 0.0, "is_reserved": 0, "is_disabled": 0, "fusion_lat": 0.0, "type": "electric_scooter", "name": "15755fe80714ed958eb85c9dfe32bd91", "lat": 38.9218175, "bike_id": "15755fe80714ed958eb85c9dfe32bd91"}, {"lon": -77.00605566666667, "rental_uris": {"android": "https://dc.lft.to/lastmile_qr_scan", "ios": "https://dc.lft.to/lastmile_qr_scan"}, "fusion_lon": 0.0, "is_reserved": 0, "is_disabled": 0, "fusion_lat": 0.0, "type": "electric_scooter", "name": "26637ae612042c43582d658ed44aa57c", "lat": 38.91112066666667, "bike_id": "26637ae612042c43582d658ed44aa57c"}, {"lon": -77.0319645, "rental_uris": {"android": "https://dc.lft.to/lastmile_qr_scan", "ios": "https://dc.lft.to/lastmile_qr_scan"}, "fusion_lon": 0.0, "is_reserved": 0, "is_disabled": 0, "fusion_lat": 0.0, "type": "electric_scooter", "name": "8f715ccad9fb9ac344a5d291f590e108", "lat": 38.9163625, "bike_id": "8f715ccad9fb9ac344a5d291f590e108"}, {"lon": -77.0194825, "rental_uris": {"android": "https://dc.lft.to/lastmile_qr_scan", "ios": "https://dc.lft.to/lastmile_qr_scan"}, "fusion_lon": 0.0, "is_reserved": 0, "is_disabled": 0, "fusion_lat": 0.0, "type": "electric_scooter", "name": "107f237558b32a3e520d520231f0d626", "lat": 38.92244216666667, "bike_id": "107f237558b32a3e520d520231f0d626"}, {"lon": -77.03650283333333, "rental_uris": {"android": "https://dc.lft.to/lastmile_qr_scan", "ios": "https://dc.lft.to/lastmile_qr_scan"}, "fusion_lon": 0.0, "is_reserved": 0, "is_disabled": 0, "fusion_lat": 0.0, "type": "electric_scooter", "name": "9295e57f80dc0b29deec4bba37ca5ad8", "lat": 38.921256666666665, "bike_id": "9295e57f80dc0b29deec4bba37ca5ad8"}, {"lon": -76.99071233333333, "rental_uris": {"android": "https://dc.lft.to/lastmile_qr_scan", "ios": "https://dc.lft.to/lastmile_qr_scan"}, "fusion_lon": 0.0, "is_reserved": 0, "is_disabled": 0, "fusion_lat": 0.0, "type": "electric_bike", "name": "683a9bcd63c7e3a2617b74f71805b2c2", "lat": 38.8980625, "bike_id": "683a9bcd63c7e3a2617b74f71805b2c2"}, {"lon": -77.04109866666667, "rental_uris": {"android": "https://dc.lft.to/lastmile_qr_scan", "ios": "https://dc.lft.to/lastmile_qr_scan"}, "fusion_lon": 0.0, "is_reserved": 0, "is_disabled": 0, "fusion_lat": 0.0, "type": "electric_scooter", "name": "28cb9c9b4772ab195c68f185b50ad067", "lat": 38.898270333333336, "bike_id": "28cb9c9b4772ab195c68f185b50ad067"}, {"lon": -77.021512, "rental_uris": {"android": "https://dc.lft.to/lastmile_qr_scan", "ios": "https://dc.lft.to/lastmile_qr_scan"}, "fusion_lon": 0.0, "is_reserved": 0, "is_disabled": 0, "fusion_lat": 0.0, "type": "electric_scooter", "name": "c9da8232a098fa492c29e82eaf0c7dc5", "lat": 38.879115666666664, "bike_id": "c9da8232a098fa492c29e82eaf0c7dc5"}, {"lon": -77.02572016666667, "rental_uris": {"android": "https://dc.lft.to/lastmile_qr_scan", "ios": "https://dc.lft.to/lastmile_qr_scan"}, "fusion_lon": 0.0, "is_reserved": 0, "is_disabled": 0, "fusion_lat": 0.0, "type": "electric_scooter", "name": "0598b4a877760d74010be93802bb88e0", "lat": 38.88742166666667, "bike_id": "0598b4a877760d74010be93802bb88e0"}, {"lon": -77.03850866666667, "rental_uris": {"android": "https://dc.lft.to/lastmile_qr_scan", "ios": "https://dc.lft.to/lastmile_qr_scan"}, "fusion_lon": 0.0, "is_reserved": 0, "is_disabled": 0, "fusion_lat": 0.0, "type": "electric_scooter", "name": "597e7ed555a1d2cd25cc708af2572f9d", "lat": 38.90780216666667, "bike_id": "597e7ed555a1d2cd25cc708af2572f9d"}, {"lon": -77.02334483333334, "rental_uris": {"android": "https://dc.lft.to/lastmile_qr_scan", "ios": "https://dc.lft.to/lastmile_qr_scan"}, "fusion_lon": 0.0, "is_reserved": 0, "is_disabled": 0, "fusion_lat": 0.0, "type": "electric_scooter", "name": "aefefb1367d9239739a9075e49b87cc6", "lat": 38.94504216666667, "bike_id": "aefefb1367d9239739a9075e49b87cc6"}, {"lon": -77.04698333333333, "rental_uris": {"android": "https://dc.lft.to/lastmile_qr_scan", "ios": "https://dc.lft.to/lastmile_qr_scan"}, "fusion_lon": 0.0, "is_reserved": 0, "is_disabled": 0, "fusion_lat": 0.0, "type": "electric_scooter", "name": "d176fe8da31a94fdd78c5e59a54ee6c8", "lat": 38.9096235, "bike_id": "d176fe8da31a94fdd78c5e59a54ee6c8"}, {"lon": -77.0174075, "rental_uris": {"android": "https://dc.lft.to/lastmile_qr_scan", "ios": "https://dc.lft.to/lastmile_qr_scan"}, "fusion_lon": 0.0, "is_reserved": 0, "is_disabled": 0, "fusion_lat": 0.0, "type": "electric_scooter", "name": "39fbb2888c63c9441ee2ee75536b27f2", "lat": 38.9751935, "bike_id": "39fbb2888c63c9441ee2ee75536b27f2"}, {"lon": -77.051195, "rental_uris": {"android": "https://dc.lft.to/lastmile_qr_scan", "ios": "https://dc.lft.to/lastmile_qr_scan"}, "fusion_lon": 0.0, "is_reserved": 0, "is_disabled": 0, "fusion_lat": 0.0, "type": "electric_bike", "name": "f2e9522e1f896a0768ee2b6c2e556661", "lat": 38.81331683333333, "bike_id": "f2e9522e1f896a0768ee2b6c2e556661"}, {"lon": -76.97442416666667, "rental_uris": {"android": "https://dc.lft.to/lastmile_qr_scan", "ios": "https://dc.lft.to/lastmile_qr_scan"}, "fusion_lon": 0.0, "is_reserved": 0, "is_disabled": 0, "fusion_lat": 0.0, "type": "electric_scooter", "name": "724b504d7ca2e88ae2b292f6796e039a", "lat": 38.902608, "bike_id": "724b504d7ca2e88ae2b292f6796e039a"}, {"lon": -77.03345316666666, "rental_uris": {"android": "https://dc.lft.to/lastmile_qr_scan", "ios": "https://dc.lft.to/lastmile_qr_scan"}, "fusion_lon": 0.0, "is_reserved": 0, "is_disabled": 0, "fusion_lat": 0.0, "type": "electric_scooter", "name": "766b8ca3ac947834798c3091ee0894d5", "lat": 38.8921835, "bike_id": "766b8ca3ac947834798c3091ee0894d5"}, {"lon": -77.0346345, "rental_uris": {"android": "https://dc.lft.to/lastmile_qr_scan", "ios": "https://dc.lft.to/lastmile_qr_scan"}, "fusion_lon": 0.0, "is_reserved": 0, "is_disabled": 0, "fusion_lat": 0.0, "type": "electric_scooter", "name": "b62e1daf57ea42851644a817801d5c63", "lat": 38.9082195, "bike_id": "b62e1daf57ea42851644a817801d5c63"}, {"lon": -77.04677433333333, "rental_uris": {"android": "https://dc.lft.to/lastmile_qr_scan", "ios": "https://dc.lft.to/lastmile_qr_scan"}, "fusion_lon": 0.0, "is_reserved": 0, "is_disabled": 0, "fusion_lat": 0.0, "type": "electric_scooter", "name": "3285c9cc7ec5bce6108b3e10ed09950c", "lat": 38.89504933333333, "bike_id": "3285c9cc7ec5bce6108b3e10ed09950c"}, {"lon": -76.99449216666666, "rental_uris": {"android": "https://dc.lft.to/lastmile_qr_scan", "ios": "https://dc.lft.to/lastmile_qr_scan"}, "fusion_lon": 0.0, "is_reserved": 0, "is_disabled": 0, "fusion_lat": 0.0, "type": "electric_scooter", "name": "a4c516700e394dba9bdbad4ace1d92e7", "lat": 38.909925333333334, "bike_id": "a4c516700e394dba9bdbad4ace1d92e7"}, {"lon": -77.069424, "rental_uris": {"android": "https://dc.lft.to/lastmile_qr_scan", "ios": "https://dc.lft.to/lastmile_qr_scan"}, "fusion_lon": 0.0, "is_reserved": 0, "is_disabled": 0, "fusion_lat": 0.0, "type": "electric_bike", "name": "ac3446bb39a071c4399d0ba39805bcb3", "lat": 38.83624233333333, "bike_id": "ac3446bb39a071c4399d0ba39805bcb3"}, {"lon": -77.003436, "rental_uris": {"android": "https://dc.lft.to/lastmile_qr_scan", "ios": "https://dc.lft.to/lastmile_qr_scan"}, "fusion_lon": 0.0, "is_reserved": 0, "is_disabled": 0, "fusion_lat": 0.0, "type": "electric_scooter", "name": "734ada2fbcbb2bc7977968c622710913", "lat": 38.896089833333335, "bike_id": "734ada2fbcbb2bc7977968c622710913"}, {"lon": -77.04352633333333, "rental_uris": {"android": "https://dc.lft.to/lastmile_qr_scan", "ios": "https://dc.lft.to/lastmile_qr_scan"}, "fusion_lon": 0.0, "is_reserved": 0, "is_disabled": 0, "fusion_lat": 0.0, "type": "electric_scooter", "name": "22bbf02a916d44754a11c54febdd8497", "lat": 38.9013035, "bike_id": "22bbf02a916d44754a11c54febdd8497"}, {"lon": -77.03058066666667, "rental_uris": {"android": "https://dc.lft.to/lastmile_qr_scan", "ios": "https://dc.lft.to/lastmile_qr_scan"}, "fusion_lon": 0.0, "is_reserved": 0, "is_disabled": 0, "fusion_lat": 0.0, "type": "electric_bike", "name": "a836131c8340dddd53fa67b07f85c8a1", "lat": 38.95960916666667, "bike_id": "a836131c8340dddd53fa67b07f85c8a1"}, {"lon": -76.98339516666667, "rental_uris": {"android": "https://dc.lft.to/lastmile_qr_scan", "ios": "https://dc.lft.to/lastmile_qr_scan"}, "fusion_lon": 0.0, "is_reserved": 0, "is_disabled": 0, "fusion_lat": 0.0, "type": "electric_scooter", "name": "78964547f94c25b3e8f6337e32087e2b", "lat": 38.8954685, "bike_id": "78964547f94c25b3e8f6337e32087e2b"}, {"lon": -76.95755283333334, "rental_uris": {"android": "https://dc.lft.to/lastmile_qr_scan", "ios": "https://dc.lft.to/lastmile_qr_scan"}, "fusion_lon": 0.0, "is_reserved": 0, "is_disabled": 0, "fusion_lat": 0.0, "type": "electric_scooter", "name": "c489206a14efd557c8086ca6e299a1e5", "lat": 38.88425733333333, "bike_id": "c489206a14efd557c8086ca6e299a1e5"}, {"lon": -77.02425433333333, "rental_uris": {"android": "https://dc.lft.to/lastmile_qr_scan", "ios": "https://dc.lft.to/lastmile_qr_scan"}, "fusion_lon": 0.0, "is_reserved": 0, "is_disabled": 0, "fusion_lat": 0.0, "type": "electric_scooter", "name": "87460b509f4a1f3684e7328adc869638", "lat": 38.967932, "bike_id": "87460b509f4a1f3684e7328adc869638"}, {"lon": -76.99653233333333, "rental_uris": {"android": "https://dc.lft.to/lastmile_qr_scan", "ios": "https://dc.lft.to/lastmile_qr_scan"}, "fusion_lon": 0.0, "is_reserved": 0, "is_disabled": 0, "fusion_lat": 0.0, "type": "electric_bike", "name": "d20dfc3d8aacbeacb2d873c187b7d650", "lat": 38.838356, "bike_id": "d20dfc3d8aacbeacb2d873c187b7d650"}, {"lon": -77.03343733333334, "rental_uris": {"android": "https://dc.lft.to/lastmile_qr_scan", "ios": "https://dc.lft.to/lastmile_qr_scan"}, "fusion_lon": 0.0, "is_reserved": 0, "is_disabled": 0, "fusion_lat": 0.0, "type": "electric_scooter", "name": "0ee8005fdfb24a9a1b4392bc2e432c0e", "lat": 38.89218416666667, "bike_id": "0ee8005fdfb24a9a1b4392bc2e432c0e"}, {"lon": -76.98244316666667, "rental_uris": {"android": "https://dc.lft.to/lastmile_qr_scan", "ios": "https://dc.lft.to/lastmile_qr_scan"}, "fusion_lon": 0.0, "is_reserved": 0, "is_disabled": 0, "fusion_lat": 0.0, "type": "electric_bike", "name": "6fac11846a53393f76a54520e2e6deb6", "lat": 38.95324383333333, "bike_id": "6fac11846a53393f76a54520e2e6deb6"}, {"lon": -76.93428533333334, "rental_uris": {"android": "https://dc.lft.to/lastmile_qr_scan", "ios": "https://dc.lft.to/lastmile_qr_scan"}, "fusion_lon": 0.0, "is_reserved": 0, "is_disabled": 0, "fusion_lat": 0.0, "type": "electric_scooter", "name": "328714cff6b03ff28e85fc4c4e5c3d67", "lat": 38.893481, "bike_id": "328714cff6b03ff28e85fc4c4e5c3d67"}, {"lon": -77.04815583333334, "rental_uris": {"android": "https://dc.lft.to/lastmile_qr_scan", "ios": "https://dc.lft.to/lastmile_qr_scan"}, "fusion_lon": 0.0, "is_reserved": 0, "is_disabled": 0, "fusion_lat": 0.0, "type": "electric_scooter", "name": "50996150dd91bae4ed05fb39cc8958ba", "lat": 38.9050585, "bike_id": "50996150dd91bae4ed05fb39cc8958ba"}, {"lon": -77.02499066666667, "rental_uris": {"android": "https://dc.lft.to/lastmile_qr_scan", "ios": "https://dc.lft.to/lastmile_qr_scan"}, "fusion_lon": 0.0, "is_reserved": 0, "is_disabled": 0, "fusion_lat": 0.0, "type": "electric_scooter", "name": "b0c1a446504c6edd758fdff909410ad1", "lat": 38.93041816666667, "bike_id": "b0c1a446504c6edd758fdff909410ad1"}, {"lon": -77.0375865, "rental_uris": {"android": "https://dc.lft.to/lastmile_qr_scan", "ios": "https://dc.lft.to/lastmile_qr_scan"}, "fusion_lon": 0.0, "is_reserved": 0, "is_disabled": 0, "fusion_lat": 0.0, "type": "electric_scooter", "name": "2513b79c89863bf616c016248462d26d", "lat": 38.9358725, "bike_id": "2513b79c89863bf616c016248462d26d"}, {"lon": -77.03195866666667, "rental_uris": {"android": "https://dc.lft.to/lastmile_qr_scan", "ios": "https://dc.lft.to/lastmile_qr_scan"}, "fusion_lon": 0.0, "is_reserved": 0, "is_disabled": 0, "fusion_lat": 0.0, "type": "electric_scooter", "name": "6e1da64a2f1f35ab14631e52f0707543", "lat": 38.88400583333333, "bike_id": "6e1da64a2f1f35ab14631e52f0707543"}, {"lon": -77.04390383333333, "rental_uris": {"android": "https://dc.lft.to/lastmile_qr_scan", "ios": "https://dc.lft.to/lastmile_qr_scan"}, "fusion_lon": 0.0, "is_reserved": 0, "is_disabled": 0, "fusion_lat": 0.0, "type": "electric_scooter", "name": "8a8b8dd4a41b3222b6e3a5d0945331a4", "lat": 38.897342333333334, "bike_id": "8a8b8dd4a41b3222b6e3a5d0945331a4"}, {"lon": -77.04672483333333, "rental_uris": {"android": "https://dc.lft.to/lastmile_qr_scan", "ios": "https://dc.lft.to/lastmile_qr_scan"}, "fusion_lon": 0.0, "is_reserved": 0, "is_disabled": 0, "fusion_lat": 0.0, "type": "electric_scooter", "name": "35afe08eacf81a4941d110582c295b6b", "lat": 38.895607, "bike_id": "35afe08eacf81a4941d110582c295b6b"}, {"lon": -77.0440155, "rental_uris": {"android": "https://dc.lft.to/lastmile_qr_scan", "ios": "https://dc.lft.to/lastmile_qr_scan"}, "fusion_lon": 0.0, "is_reserved": 0, "is_disabled": 0, "fusion_lat": 0.0, "type": "electric_scooter", "name": "0060474b81f33e1b78460e964426d216", "lat": 38.92224383333333, "bike_id": "0060474b81f33e1b78460e964426d216"}, {"lon": -77.07245216666666, "rental_uris": {"android": "https://dc.lft.to/lastmile_qr_scan", "ios": "https://dc.lft.to/lastmile_qr_scan"}, "fusion_lon": 0.0, "is_reserved": 0, "is_disabled": 0, "fusion_lat": 0.0, "type": "electric_scooter", "name": "6df7191ee2e9d7151849a336ca29d7bb", "lat": 38.90777283333333, "bike_id": "6df7191ee2e9d7151849a336ca29d7bb"}, {"lon": -77.0769795, "rental_uris": {"android": "https://dc.lft.to/lastmile_qr_scan", "ios": "https://dc.lft.to/lastmile_qr_scan"}, "fusion_lon": 0.0, "is_reserved": 0, "is_disabled": 0, "fusion_lat": 0.0, "type": "electric_scooter", "name": "adebb1c215bccd7fbdc2155a7c49230e", "lat": 38.93152533333333, "bike_id": "adebb1c215bccd7fbdc2155a7c49230e"}, {"lon": -77.01265433333333, "rental_uris": {"android": "https://dc.lft.to/lastmile_qr_scan", "ios": "https://dc.lft.to/lastmile_qr_scan"}, "fusion_lon": 0.0, "is_reserved": 0, "is_disabled": 0, "fusion_lat": 0.0, "type": "electric_scooter", "name": "ff8dd4089a8ca541cffedb9e4a03c351", "lat": 38.90008266666667, "bike_id": "ff8dd4089a8ca541cffedb9e4a03c351"}, {"lon": -76.9964315, "rental_uris": {"android": "https://dc.lft.to/lastmile_qr_scan", "ios": "https://dc.lft.to/lastmile_qr_scan"}, "fusion_lon": 0.0, "is_reserved": 0, "is_disabled": 0, "fusion_lat": 0.0, "type": "electric_scooter", "name": "0c589caa7c40cfb7738326cefc0382ef", "lat": 38.898851, "bike_id": "0c589caa7c40cfb7738326cefc0382ef"}, {"lon": -77.05169816666667, "rental_uris": {"android": "https://dc.lft.to/lastmile_qr_scan", "ios": "https://dc.lft.to/lastmile_qr_scan"}, "fusion_lon": 0.0, "is_reserved": 0, "is_disabled": 0, "fusion_lat": 0.0, "type": "electric_scooter", "name": "6eed6fea6a2731832177af923efd431a", "lat": 38.92343666666667, "bike_id": "6eed6fea6a2731832177af923efd431a"}, {"lon": -77.026052, "rental_uris": {"android": "https://dc.lft.to/lastmile_qr_scan", "ios": "https://dc.lft.to/lastmile_qr_scan"}, "fusion_lon": 0.0, "is_reserved": 0, "is_disabled": 0, "fusion_lat": 0.0, "type": "electric_scooter", "name": "c3394d65a8f209e447e5a2b2d2bcb11c", "lat": 38.908877, "bike_id": "c3394d65a8f209e447e5a2b2d2bcb11c"}, {"lon": -77.0183985, "rental_uris": {"android": "https://dc.lft.to/lastmile_qr_scan", "ios": "https://dc.lft.to/lastmile_qr_scan"}, "fusion_lon": 0.0, "is_reserved": 0, "is_disabled": 0, "fusion_lat": 0.0, "type": "electric_scooter", "name": "a0339fa9644df541db4482c1c7475549", "lat": 38.90063933333333, "bike_id": "a0339fa9644df541db4482c1c7475549"}, {"lon": -77.03867116666666, "rental_uris": {"android": "https://dc.lft.to/lastmile_qr_scan", "ios": "https://dc.lft.to/lastmile_qr_scan"}, "fusion_lon": 0.0, "is_reserved": 0, "is_disabled": 0, "fusion_lat": 0.0, "type": "electric_scooter", "name": "164ce1a73ab9be798b9f916be8c73bef", "lat": 38.91709916666667, "bike_id": "164ce1a73ab9be798b9f916be8c73bef"}, {"lon": -77.00196083333333, "rental_uris": {"android": "https://dc.lft.to/lastmile_qr_scan", "ios": "https://dc.lft.to/lastmile_qr_scan"}, "fusion_lon": 0.0, "is_reserved": 0, "is_disabled": 0, "fusion_lat": 0.0, "type": "electric_scooter", "name": "4588ff981925d58110d500b65477fbdf", "lat": 38.87402733333333, "bike_id": "4588ff981925d58110d500b65477fbdf"}, {"lon": -77.04162833333334, "rental_uris": {"android": "https://dc.lft.to/lastmile_qr_scan", "ios": "https://dc.lft.to/lastmile_qr_scan"}, "fusion_lon": 0.0, "is_reserved": 0, "is_disabled": 0, "fusion_lat": 0.0, "type": "electric_scooter", "name": "3761299bb35ccdb02263e7bbf5ab3387", "lat": 38.89233933333333, "bike_id": "3761299bb35ccdb02263e7bbf5ab3387"}, {"lon": -77.02716383333333, "rental_uris": {"android": "https://dc.lft.to/lastmile_qr_scan", "ios": "https://dc.lft.to/lastmile_qr_scan"}, "fusion_lon": 0.0, "is_reserved": 0, "is_disabled": 0, "fusion_lat": 0.0, "type": "electric_scooter", "name": "660371c76ac48406ae852f1c390ed7ef", "lat": 38.89661066666667, "bike_id": "660371c76ac48406ae852f1c390ed7ef"}, {"lon": -77.01965183333333, "rental_uris": {"android": "https://dc.lft.to/lastmile_qr_scan", "ios": "https://dc.lft.to/lastmile_qr_scan"}, "fusion_lon": 0.0, "is_reserved": 0, "is_disabled": 0, "fusion_lat": 0.0, "type": "electric_scooter", "name": "4448c0af1dce17a672d5c4772b207a63", "lat": 38.921911333333334, "bike_id": "4448c0af1dce17a672d5c4772b207a63"}, {"lon": -77.02958233333334, "rental_uris": {"android": "https://dc.lft.to/lastmile_qr_scan", "ios": "https://dc.lft.to/lastmile_qr_scan"}, "fusion_lon": 0.0, "is_reserved": 0, "is_disabled": 0, "fusion_lat": 0.0, "type": "electric_scooter", "name": "5cc062d6695e5482da4587e97481cc66", "lat": 38.902598, "bike_id": "5cc062d6695e5482da4587e97481cc66"}, {"lon": -77.01950166666667, "rental_uris": {"android": "https://dc.lft.to/lastmile_qr_scan", "ios": "https://dc.lft.to/lastmile_qr_scan"}, "fusion_lon": 0.0, "is_reserved": 0, "is_disabled": 0, "fusion_lat": 0.0, "type": "electric_scooter", "name": "ff298febe499e7f5b04baf3abf52f24f", "lat": 38.922479333333335, "bike_id": "ff298febe499e7f5b04baf3abf52f24f"}, {"lon": -77.06668133333334, "rental_uris": {"android": "https://dc.lft.to/lastmile_qr_scan", "ios": "https://dc.lft.to/lastmile_qr_scan"}, "fusion_lon": 0.0, "is_reserved": 0, "is_disabled": 0, "fusion_lat": 0.0, "type": "electric_scooter", "name": "91c45c876b123d4ef06369f7dbc214cb", "lat": 38.903813, "bike_id": "91c45c876b123d4ef06369f7dbc214cb"}, {"lon": -76.99796233333333, "rental_uris": {"android": "https://dc.lft.to/lastmile_qr_scan", "ios": "https://dc.lft.to/lastmile_qr_scan"}, "fusion_lon": 0.0, "is_reserved": 0, "is_disabled": 0, "fusion_lat": 0.0, "type": "electric_scooter", "name": "1092936acfbb205ba990c5e4dc3a1088", "lat": 38.88560183333333, "bike_id": "1092936acfbb205ba990c5e4dc3a1088"}, {"lon": -77.05079516666666, "rental_uris": {"android": "https://dc.lft.to/lastmile_qr_scan", "ios": "https://dc.lft.to/lastmile_qr_scan"}, "fusion_lon": 0.0, "is_reserved": 0, "is_disabled": 0, "fusion_lat": 0.0, "type": "electric_scooter", "name": "037ac612c05151ea4a1f5515da52d653", "lat": 38.90519066666667, "bike_id": "037ac612c05151ea4a1f5515da52d653"}, {"lon": -77.0257095, "rental_uris": {"android": "https://dc.lft.to/lastmile_qr_scan", "ios": "https://dc.lft.to/lastmile_qr_scan"}, "fusion_lon": 0.0, "is_reserved": 0, "is_disabled": 0, "fusion_lat": 0.0, "type": "electric_scooter", "name": "7eae1341da398f002cc67c763e15e14d", "lat": 38.920395, "bike_id": "7eae1341da398f002cc67c763e15e14d"}, {"lon": -77.05838266666666, "rental_uris": {"android": "https://dc.lft.to/lastmile_qr_scan", "ios": "https://dc.lft.to/lastmile_qr_scan"}, "fusion_lon": 0.0, "is_reserved": 0, "is_disabled": 0, "fusion_lat": 0.0, "type": "electric_scooter", "name": "8ea6ed45109505c037afcbb18eba403a", "lat": 38.93052183333333, "bike_id": "8ea6ed45109505c037afcbb18eba403a"}, {"lon": -77.00464016666666, "rental_uris": {"android": "https://dc.lft.to/lastmile_qr_scan", "ios": "https://dc.lft.to/lastmile_qr_scan"}, "fusion_lon": 0.0, "is_reserved": 0, "is_disabled": 0, "fusion_lat": 0.0, "type": "electric_scooter", "name": "af7c54b1228b4d299601544bd38fc62d", "lat": 38.91139066666667, "bike_id": "af7c54b1228b4d299601544bd38fc62d"}, {"lon": -77.01004616666667, "rental_uris": {"android": "https://dc.lft.to/lastmile_qr_scan", "ios": "https://dc.lft.to/lastmile_qr_scan"}, "fusion_lon": 0.0, "is_reserved": 0, "is_disabled": 0, "fusion_lat": 0.0, "type": "electric_bike", "name": "f8b7a0db588383085ae678154066665d", "lat": 38.95589416666667, "bike_id": "f8b7a0db588383085ae678154066665d"}, {"lon": -77.0430205, "rental_uris": {"android": "https://dc.lft.to/lastmile_qr_scan", "ios": "https://dc.lft.to/lastmile_qr_scan"}, "fusion_lon": 0.0, "is_reserved": 0, "is_disabled": 0, "fusion_lat": 0.0, "type": "electric_scooter", "name": "e47206d40dae258bdf233b28e96ace92", "lat": 38.9124905, "bike_id": "e47206d40dae258bdf233b28e96ace92"}, {"lon": -77.03241983333334, "rental_uris": {"android": "https://dc.lft.to/lastmile_qr_scan", "ios": "https://dc.lft.to/lastmile_qr_scan"}, "fusion_lon": 0.0, "is_reserved": 0, "is_disabled": 0, "fusion_lat": 0.0, "type": "electric_scooter", "name": "b43e6e0c5873081d67f5a92f96ef0725", "lat": 38.91985783333333, "bike_id": "b43e6e0c5873081d67f5a92f96ef0725"}, {"lon": -76.96304316666667, "rental_uris": {"android": "https://dc.lft.to/lastmile_qr_scan", "ios": "https://dc.lft.to/lastmile_qr_scan"}, "fusion_lon": 0.0, "is_reserved": 0, "is_disabled": 0, "fusion_lat": 0.0, "type": "electric_bike", "name": "e49b3dc558ac39587cc85d2183c78649", "lat": 38.935045833333334, "bike_id": "e49b3dc558ac39587cc85d2183c78649"}, {"lon": -77.02234433333334, "rental_uris": {"android": "https://dc.lft.to/lastmile_qr_scan", "ios": "https://dc.lft.to/lastmile_qr_scan"}, "fusion_lon": 0.0, "is_reserved": 0, "is_disabled": 0, "fusion_lat": 0.0, "type": "electric_scooter", "name": "d673591a95f69fef34f449fb63652324", "lat": 38.92477816666667, "bike_id": "d673591a95f69fef34f449fb63652324"}, {"lon": -77.03630066666666, "rental_uris": {"android": "https://dc.lft.to/lastmile_qr_scan", "ios": "https://dc.lft.to/lastmile_qr_scan"}, "fusion_lon": 0.0, "is_reserved": 0, "is_disabled": 0, "fusion_lat": 0.0, "type": "electric_scooter", "name": "a81a631522badd22f4c3bec4249e2e6f", "lat": 38.93930666666667, "bike_id": "a81a631522badd22f4c3bec4249e2e6f"}, {"lon": -77.04161683333334, "rental_uris": {"android": "https://dc.lft.to/lastmile_qr_scan", "ios": "https://dc.lft.to/lastmile_qr_scan"}, "fusion_lon": 0.0, "is_reserved": 0, "is_disabled": 0, "fusion_lat": 0.0, "type": "electric_scooter", "name": "59605c1036d4505141f457a24b3994ae", "lat": 38.89237, "bike_id": "59605c1036d4505141f457a24b3994ae"}, {"lon": -77.0237775, "rental_uris": {"android": "https://dc.lft.to/lastmile_qr_scan", "ios": "https://dc.lft.to/lastmile_qr_scan"}, "fusion_lon": 0.0, "is_reserved": 0, "is_disabled": 0, "fusion_lat": 0.0, "type": "electric_scooter", "name": "a12bc4541bafaf6f3e858765404cfac4", "lat": 38.8919395, "bike_id": "a12bc4541bafaf6f3e858765404cfac4"}, {"lon": -76.94874333333334, "rental_uris": {"android": "https://dc.lft.to/lastmile_qr_scan", "ios": "https://dc.lft.to/lastmile_qr_scan"}, "fusion_lon": 0.0, "is_reserved": 0, "is_disabled": 0, "fusion_lat": 0.0, "type": "electric_scooter", "name": "5ba64f5cb06ab13c6d22ea67eb7a5954", "lat": 38.89555516666667, "bike_id": "5ba64f5cb06ab13c6d22ea67eb7a5954"}, {"lon": -77.05368833333333, "rental_uris": {"android": "https://dc.lft.to/lastmile_qr_scan", "ios": "https://dc.lft.to/lastmile_qr_scan"}, "fusion_lon": 0.0, "is_reserved": 0, "is_disabled": 0, "fusion_lat": 0.0, "type": "electric_scooter", "name": "5e4148aa39b90c901e4d7c374057583e", "lat": 38.92707433333333, "bike_id": "5e4148aa39b90c901e4d7c374057583e"}, {"lon": -76.93186183333333, "rental_uris": {"android": "https://dc.lft.to/lastmile_qr_scan", "ios": "https://dc.lft.to/lastmile_qr_scan"}, "fusion_lon": 0.0, "is_reserved": 0, "is_disabled": 0, "fusion_lat": 0.0, "type": "electric_scooter", "name": "7afd363090af1231f7c60fccfaa47aa3", "lat": 38.898773166666665, "bike_id": "7afd363090af1231f7c60fccfaa47aa3"}, {"lon": -77.04680083333334, "rental_uris": {"android": "https://dc.lft.to/lastmile_qr_scan", "ios": "https://dc.lft.to/lastmile_qr_scan"}, "fusion_lon": 0.0, "is_reserved": 0, "is_disabled": 0, "fusion_lat": 0.0, "type": "electric_scooter", "name": "a7468722935c9e0c8c5d60694eabdde9", "lat": 38.89269383333333, "bike_id": "a7468722935c9e0c8c5d60694eabdde9"}, {"lon": -76.97319683333333, "rental_uris": {"android": "https://dc.lft.to/lastmile_qr_scan", "ios": "https://dc.lft.to/lastmile_qr_scan"}, "fusion_lon": 0.0, "is_reserved": 0, "is_disabled": 0, "fusion_lat": 0.0, "type": "electric_scooter", "name": "dcfb70a67dd1040c540e7c0df1108a64", "lat": 38.9047795, "bike_id": "dcfb70a67dd1040c540e7c0df1108a64"}, {"lon": -77.043604, "rental_uris": {"android": "https://dc.lft.to/lastmile_qr_scan", "ios": "https://dc.lft.to/lastmile_qr_scan"}, "fusion_lon": 0.0, "is_reserved": 0, "is_disabled": 0, "fusion_lat": 0.0, "type": "electric_scooter", "name": "0b123efeebcc788d5edf39a3574572c2", "lat": 38.89742366666667, "bike_id": "0b123efeebcc788d5edf39a3574572c2"}, {"lon": -77.010134, "rental_uris": {"android": "https://dc.lft.to/lastmile_qr_scan", "ios": "https://dc.lft.to/lastmile_qr_scan"}, "fusion_lon": 0.0, "is_reserved": 0, "is_disabled": 0, "fusion_lat": 0.0, "type": "electric_scooter", "name": "915e1cb4153d64ab062086643428b3b4", "lat": 38.894657, "bike_id": "915e1cb4153d64ab062086643428b3b4"}, {"lon": -77.02695833333334, "rental_uris": {"android": "https://dc.lft.to/lastmile_qr_scan", "ios": "https://dc.lft.to/lastmile_qr_scan"}, "fusion_lon": 0.0, "is_reserved": 0, "is_disabled": 0, "fusion_lat": 0.0, "type": "electric_scooter", "name": "b79a00c2aafeb756e1b3f1db1a84df2b", "lat": 38.896168833333334, "bike_id": "b79a00c2aafeb756e1b3f1db1a84df2b"}, {"lon": -77.12649266666666, "rental_uris": {"android": "https://dc.lft.to/lastmile_qr_scan", "ios": "https://dc.lft.to/lastmile_qr_scan"}, "fusion_lon": 0.0, "is_reserved": 0, "is_disabled": 0, "fusion_lat": 0.0, "type": "electric_bike", "name": "4d4e69ea3c14ea169b570475bf1bede1", "lat": 38.8190885, "bike_id": "4d4e69ea3c14ea169b570475bf1bede1"}, {"lon": -77.07303816666666, "rental_uris": {"android": "https://dc.lft.to/lastmile_qr_scan", "ios": "https://dc.lft.to/lastmile_qr_scan"}, "fusion_lon": 0.0, "is_reserved": 0, "is_disabled": 0, "fusion_lat": 0.0, "type": "electric_scooter", "name": "0cd88c0f12880aea536f356948233d13", "lat": 38.936127666666664, "bike_id": "0cd88c0f12880aea536f356948233d13"}, {"lon": -77.01368583333333, "rental_uris": {"android": "https://dc.lft.to/lastmile_qr_scan", "ios": "https://dc.lft.to/lastmile_qr_scan"}, "fusion_lon": 0.0, "is_reserved": 0, "is_disabled": 0, "fusion_lat": 0.0, "type": "electric_scooter", "name": "beb04c28c386ba77379cdbbb217530d4", "lat": 38.928786, "bike_id": "beb04c28c386ba77379cdbbb217530d4"}, {"lon": -77.10725233333334, "rental_uris": {"android": "https://dc.lft.to/lastmile_qr_scan", "ios": "https://dc.lft.to/lastmile_qr_scan"}, "fusion_lon": 0.0, "is_reserved": 0, "is_disabled": 0, "fusion_lat": 0.0, "type": "electric_bike", "name": "1f702afd39a0b71443f68486fb056f70", "lat": 38.85553733333333, "bike_id": "1f702afd39a0b71443f68486fb056f70"}, {"lon": -76.99968483333333, "rental_uris": {"android": "https://dc.lft.to/lastmile_qr_scan", "ios": "https://dc.lft.to/lastmile_qr_scan"}, "fusion_lon": 0.0, "is_reserved": 0, "is_disabled": 0, "fusion_lat": 0.0, "type": "electric_scooter", "name": "bff79386d6cd25cf961fc92983a4d04e", "lat": 38.90849216666667, "bike_id": "bff79386d6cd25cf961fc92983a4d04e"}, {"lon": -77.043559, "rental_uris": {"android": "https://dc.lft.to/lastmile_qr_scan", "ios": "https://dc.lft.to/lastmile_qr_scan"}, "fusion_lon": 0.0, "is_reserved": 0, "is_disabled": 0, "fusion_lat": 0.0, "type": "electric_scooter", "name": "9b5f5c716804bed1798f9d78af0e8e1b", "lat": 38.90418433333333, "bike_id": "9b5f5c716804bed1798f9d78af0e8e1b"}, {"lon": -76.95198483333333, "rental_uris": {"android": "https://dc.lft.to/lastmile_qr_scan", "ios": "https://dc.lft.to/lastmile_qr_scan"}, "fusion_lon": 0.0, "is_reserved": 0, "is_disabled": 0, "fusion_lat": 0.0, "type": "electric_scooter", "name": "55e2576ae04c0305bcf553c7b763fb05", "lat": 38.90505433333333, "bike_id": "55e2576ae04c0305bcf553c7b763fb05"}, {"lon": -77.0211885, "rental_uris": {"android": "https://dc.lft.to/lastmile_qr_scan", "ios": "https://dc.lft.to/lastmile_qr_scan"}, "fusion_lon": 0.0, "is_reserved": 0, "is_disabled": 0, "fusion_lat": 0.0, "type": "electric_scooter", "name": "817a7b20812aa5a4190e269da9d9cb84", "lat": 38.91735233333333, "bike_id": "817a7b20812aa5a4190e269da9d9cb84"}, {"lon": -77.03169116666666, "rental_uris": {"android": "https://dc.lft.to/lastmile_qr_scan", "ios": "https://dc.lft.to/lastmile_qr_scan"}, "fusion_lon": 0.0, "is_reserved": 0, "is_disabled": 0, "fusion_lat": 0.0, "type": "electric_scooter", "name": "a4fe9e84bbf89ad7137122c1ae82539b", "lat": 38.892169, "bike_id": "a4fe9e84bbf89ad7137122c1ae82539b"}, {"lon": -77.04329166666666, "rental_uris": {"android": "https://dc.lft.to/lastmile_qr_scan", "ios": "https://dc.lft.to/lastmile_qr_scan"}, "fusion_lon": 0.0, "is_reserved": 0, "is_disabled": 0, "fusion_lat": 0.0, "type": "electric_scooter", "name": "19327badd4a8a8d6a90f3df181e31eed", "lat": 38.9058755, "bike_id": "19327badd4a8a8d6a90f3df181e31eed"}, {"lon": -77.0028885, "rental_uris": {"android": "https://dc.lft.to/lastmile_qr_scan", "ios": "https://dc.lft.to/lastmile_qr_scan"}, "fusion_lon": 0.0, "is_reserved": 0, "is_disabled": 0, "fusion_lat": 0.0, "type": "electric_scooter", "name": "b416fe324af2c91251d30536e3fcbd68", "lat": 38.891968166666665, "bike_id": "b416fe324af2c91251d30536e3fcbd68"}, {"lon": -77.038244, "rental_uris": {"android": "https://dc.lft.to/lastmile_qr_scan", "ios": "https://dc.lft.to/lastmile_qr_scan"}, "fusion_lon": 0.0, "is_reserved": 0, "is_disabled": 0, "fusion_lat": 0.0, "type": "electric_scooter", "name": "f72c892a0d2154017fe4cee71f3c7d19", "lat": 38.91887533333333, "bike_id": "f72c892a0d2154017fe4cee71f3c7d19"}, {"lon": -77.006679, "rental_uris": {"android": "https://dc.lft.to/lastmile_qr_scan", "ios": "https://dc.lft.to/lastmile_qr_scan"}, "fusion_lon": 0.0, "is_reserved": 0, "is_disabled": 0, "fusion_lat": 0.0, "type": "electric_scooter", "name": "c0e622a88bb8b4be6d003eafdd900460", "lat": 38.9000785, "bike_id": "c0e622a88bb8b4be6d003eafdd900460"}, {"lon": -77.033301, "rental_uris": {"android": "https://dc.lft.to/lastmile_qr_scan", "ios": "https://dc.lft.to/lastmile_qr_scan"}, "fusion_lon": 0.0, "is_reserved": 0, "is_disabled": 0, "fusion_lat": 0.0, "type": "electric_scooter", "name": "5a2207641d167a1a61e0619a8f17d983", "lat": 38.972109, "bike_id": "5a2207641d167a1a61e0619a8f17d983"}, {"lon": -77.0417265, "rental_uris": {"android": "https://dc.lft.to/lastmile_qr_scan", "ios": "https://dc.lft.to/lastmile_qr_scan"}, "fusion_lon": 0.0, "is_reserved": 0, "is_disabled": 0, "fusion_lat": 0.0, "type": "electric_scooter", "name": "7a8166e8aa3a475885c4aea97d67a286", "lat": 38.9036055, "bike_id": "7a8166e8aa3a475885c4aea97d67a286"}, {"lon": -77.0675495, "rental_uris": {"android": "https://dc.lft.to/lastmile_qr_scan", "ios": "https://dc.lft.to/lastmile_qr_scan"}, "fusion_lon": 0.0, "is_reserved": 0, "is_disabled": 0, "fusion_lat": 0.0, "type": "electric_bike", "name": "ed78b3186c009d274175faac7e8f8c0c", "lat": 38.841966, "bike_id": "ed78b3186c009d274175faac7e8f8c0c"}, {"lon": -77.0038535, "rental_uris": {"android": "https://dc.lft.to/lastmile_qr_scan", "ios": "https://dc.lft.to/lastmile_qr_scan"}, "fusion_lon": 0.0, "is_reserved": 0, "is_disabled": 0, "fusion_lat": 0.0, "type": "electric_scooter", "name": "b25fff0cee343246e378f5f2fb2840ce", "lat": 38.87642966666667, "bike_id": "b25fff0cee343246e378f5f2fb2840ce"}, {"lon": -77.201063, "rental_uris": {"android": "https://dc.lft.to/lastmile_qr_scan", "ios": "https://dc.lft.to/lastmile_qr_scan"}, "fusion_lon": 0.0, "is_reserved": 0, "is_disabled": 0, "fusion_lat": 0.0, "type": "electric_bike", "name": "75abce2f6b81ff3e64e77ead3fba07e0", "lat": 38.86392216666667, "bike_id": "75abce2f6b81ff3e64e77ead3fba07e0"}, {"lon": -77.02963116666666, "rental_uris": {"android": "https://dc.lft.to/lastmile_qr_scan", "ios": "https://dc.lft.to/lastmile_qr_scan"}, "fusion_lon": 0.0, "is_reserved": 0, "is_disabled": 0, "fusion_lat": 0.0, "type": "electric_scooter", "name": "7416c4905103e3305e07cecf2e123b01", "lat": 38.91169433333334, "bike_id": "7416c4905103e3305e07cecf2e123b01"}, {"lon": -77.02591016666666, "rental_uris": {"android": "https://dc.lft.to/lastmile_qr_scan", "ios": "https://dc.lft.to/lastmile_qr_scan"}, "fusion_lon": 0.0, "is_reserved": 0, "is_disabled": 0, "fusion_lat": 0.0, "type": "electric_scooter", "name": "ce88d1d3dc71e7ffc4e1ff3f3d28ae9c", "lat": 38.898544, "bike_id": "ce88d1d3dc71e7ffc4e1ff3f3d28ae9c"}, {"lon": -77.061033, "rental_uris": {"android": "https://dc.lft.to/lastmile_qr_scan", "ios": "https://dc.lft.to/lastmile_qr_scan"}, "fusion_lon": 0.0, "is_reserved": 0, "is_disabled": 0, "fusion_lat": 0.0, "type": "electric_scooter", "name": "85f56516a8f472b82fccd086c3056ffc", "lat": 38.90244, "bike_id": "85f56516a8f472b82fccd086c3056ffc"}, {"lon": -76.95819066666667, "rental_uris": {"android": "https://dc.lft.to/lastmile_qr_scan", "ios": "https://dc.lft.to/lastmile_qr_scan"}, "fusion_lon": 0.0, "is_reserved": 0, "is_disabled": 0, "fusion_lat": 0.0, "type": "electric_bike", "name": "6d2d178131095616af16a24e010d97c7", "lat": 38.91994716666667, "bike_id": "6d2d178131095616af16a24e010d97c7"}, {"lon": -77.03148166666666, "rental_uris": {"android": "https://dc.lft.to/lastmile_qr_scan", "ios": "https://dc.lft.to/lastmile_qr_scan"}, "fusion_lon": 0.0, "is_reserved": 0, "is_disabled": 0, "fusion_lat": 0.0, "type": "electric_scooter", "name": "f8b75f1e4549373ee5f1bcb571056c7e", "lat": 38.90470666666667, "bike_id": "f8b75f1e4549373ee5f1bcb571056c7e"}, {"lon": -76.99310866666667, "rental_uris": {"android": "https://dc.lft.to/lastmile_qr_scan", "ios": "https://dc.lft.to/lastmile_qr_scan"}, "fusion_lon": 0.0, "is_reserved": 0, "is_disabled": 0, "fusion_lat": 0.0, "type": "electric_bike", "name": "c46cbe091cf98c761ae202f375173018", "lat": 38.9463045, "bike_id": "c46cbe091cf98c761ae202f375173018"}, {"lon": -77.02293566666667, "rental_uris": {"android": "https://dc.lft.to/lastmile_qr_scan", "ios": "https://dc.lft.to/lastmile_qr_scan"}, "fusion_lon": 0.0, "is_reserved": 0, "is_disabled": 0, "fusion_lat": 0.0, "type": "electric_scooter", "name": "7dc308e6fbbed11b28d695078e6fb9f3", "lat": 38.918371666666665, "bike_id": "7dc308e6fbbed11b28d695078e6fb9f3"}, {"lon": -77.003367, "rental_uris": {"android": "https://dc.lft.to/lastmile_qr_scan", "ios": "https://dc.lft.to/lastmile_qr_scan"}, "fusion_lon": 0.0, "is_reserved": 0, "is_disabled": 0, "fusion_lat": 0.0, "type": "electric_scooter", "name": "1ffde9a36b90c80a31c59b6a59b12ad0", "lat": 38.87654716666667, "bike_id": "1ffde9a36b90c80a31c59b6a59b12ad0"}, {"lon": -76.97982916666666, "rental_uris": {"android": "https://dc.lft.to/lastmile_qr_scan", "ios": "https://dc.lft.to/lastmile_qr_scan"}, "fusion_lon": 0.0, "is_reserved": 0, "is_disabled": 0, "fusion_lat": 0.0, "type": "electric_scooter", "name": "7a67a7482b70999debd1c41af7696497", "lat": 38.90731433333333, "bike_id": "7a67a7482b70999debd1c41af7696497"}, {"lon": -77.03239866666667, "rental_uris": {"android": "https://dc.lft.to/lastmile_qr_scan", "ios": "https://dc.lft.to/lastmile_qr_scan"}, "fusion_lon": 0.0, "is_reserved": 0, "is_disabled": 0, "fusion_lat": 0.0, "type": "electric_scooter", "name": "dc0f29de306344b6891b07afa52afa44", "lat": 38.92869666666667, "bike_id": "dc0f29de306344b6891b07afa52afa44"}, {"lon": -77.027156, "rental_uris": {"android": "https://dc.lft.to/lastmile_qr_scan", "ios": "https://dc.lft.to/lastmile_qr_scan"}, "fusion_lon": 0.0, "is_reserved": 0, "is_disabled": 0, "fusion_lat": 0.0, "type": "electric_scooter", "name": "3e6e19191f75e5d9840dd1f2a9c52936", "lat": 38.89831783333333, "bike_id": "3e6e19191f75e5d9840dd1f2a9c52936"}, {"lon": -77.02302633333333, "rental_uris": {"android": "https://dc.lft.to/lastmile_qr_scan", "ios": "https://dc.lft.to/lastmile_qr_scan"}, "fusion_lon": 0.0, "is_reserved": 0, "is_disabled": 0, "fusion_lat": 0.0, "type": "electric_scooter", "name": "ecf02bb75e83df2cb4d7efa3a26635fe", "lat": 38.917716, "bike_id": "ecf02bb75e83df2cb4d7efa3a26635fe"}, {"lon": -77.02459716666667, "rental_uris": {"android": "https://dc.lft.to/lastmile_qr_scan", "ios": "https://dc.lft.to/lastmile_qr_scan"}, "fusion_lon": 0.0, "is_reserved": 0, "is_disabled": 0, "fusion_lat": 0.0, "type": "electric_bike", "name": "d91abff6386c6cafdd7296fde59e064e", "lat": 38.89844866666667, "bike_id": "d91abff6386c6cafdd7296fde59e064e"}, {"lon": -77.03146816666667, "rental_uris": {"android": "https://dc.lft.to/lastmile_qr_scan", "ios": "https://dc.lft.to/lastmile_qr_scan"}, "fusion_lon": 0.0, "is_reserved": 0, "is_disabled": 0, "fusion_lat": 0.0, "type": "electric_scooter", "name": "b57bbfe2fc220005fe315f9d3f2d99c6", "lat": 38.899572166666665, "bike_id": "b57bbfe2fc220005fe315f9d3f2d99c6"}, {"lon": -77.02190133333333, "rental_uris": {"android": "https://dc.lft.to/lastmile_qr_scan", "ios": "https://dc.lft.to/lastmile_qr_scan"}, "fusion_lon": 0.0, "is_reserved": 0, "is_disabled": 0, "fusion_lat": 0.0, "type": "electric_scooter", "name": "426d203776f69e7a009a7390e8be25a5", "lat": 38.919576666666664, "bike_id": "426d203776f69e7a009a7390e8be25a5"}, {"lon": -77.0279825, "rental_uris": {"android": "https://dc.lft.to/lastmile_qr_scan", "ios": "https://dc.lft.to/lastmile_qr_scan"}, "fusion_lon": 0.0, "is_reserved": 0, "is_disabled": 0, "fusion_lat": 0.0, "type": "electric_scooter", "name": "156dfdfe5cc4a08cf7ea41f5b7671e79", "lat": 38.944477666666664, "bike_id": "156dfdfe5cc4a08cf7ea41f5b7671e79"}, {"lon": -77.0424725, "rental_uris": {"android": "https://dc.lft.to/lastmile_qr_scan", "ios": "https://dc.lft.to/lastmile_qr_scan"}, "fusion_lon": 0.0, "is_reserved": 0, "is_disabled": 0, "fusion_lat": 0.0, "type": "electric_scooter", "name": "ea7842a91de5a894a5a0f46abc0c6f2b", "lat": 38.921895666666664, "bike_id": "ea7842a91de5a894a5a0f46abc0c6f2b"}, {"lon": -77.02376233333334, "rental_uris": {"android": "https://dc.lft.to/lastmile_qr_scan", "ios": "https://dc.lft.to/lastmile_qr_scan"}, "fusion_lon": 0.0, "is_reserved": 0, "is_disabled": 0, "fusion_lat": 0.0, "type": "electric_scooter", "name": "0a769e97a6efa941b22835d5b0bedca5", "lat": 38.89194, "bike_id": "0a769e97a6efa941b22835d5b0bedca5"}, {"lon": -76.98434033333334, "rental_uris": {"android": "https://dc.lft.to/lastmile_qr_scan", "ios": "https://dc.lft.to/lastmile_qr_scan"}, "fusion_lon": 0.0, "is_reserved": 0, "is_disabled": 0, "fusion_lat": 0.0, "type": "electric_scooter", "name": "3cac12f124e0fef5096db6569f078ae4", "lat": 38.932774, "bike_id": "3cac12f124e0fef5096db6569f078ae4"}, {"lon": -77.05273116666666, "rental_uris": {"android": "https://dc.lft.to/lastmile_qr_scan", "ios": "https://dc.lft.to/lastmile_qr_scan"}, "fusion_lon": 0.0, "is_reserved": 0, "is_disabled": 0, "fusion_lat": 0.0, "type": "electric_scooter", "name": "f2ec46e1f6402939816f49cb41c8b2c2", "lat": 38.92759916666667, "bike_id": "f2ec46e1f6402939816f49cb41c8b2c2"}, {"lon": -77.0199215, "rental_uris": {"android": "https://dc.lft.to/lastmile_qr_scan", "ios": "https://dc.lft.to/lastmile_qr_scan"}, "fusion_lon": 0.0, "is_reserved": 0, "is_disabled": 0, "fusion_lat": 0.0, "type": "electric_scooter", "name": "069fa069cfd7c602d3b5e1f39053a793", "lat": 38.9148685, "bike_id": "069fa069cfd7c602d3b5e1f39053a793"}, {"lon": -77.01016216666666, "rental_uris": {"android": "https://dc.lft.to/lastmile_qr_scan", "ios": "https://dc.lft.to/lastmile_qr_scan"}, "fusion_lon": 0.0, "is_reserved": 0, "is_disabled": 0, "fusion_lat": 0.0, "type": "electric_scooter", "name": "b4ba8f20459fcb0087435d55e0f4f52f", "lat": 38.914020666666666, "bike_id": "b4ba8f20459fcb0087435d55e0f4f52f"}, {"lon": -76.93175166666667, "rental_uris": {"android": "https://dc.lft.to/lastmile_qr_scan", "ios": "https://dc.lft.to/lastmile_qr_scan"}, "fusion_lon": 0.0, "is_reserved": 0, "is_disabled": 0, "fusion_lat": 0.0, "type": "electric_scooter", "name": "58e13f5f114a93e09787b0d25d7bbb41", "lat": 38.89886216666667, "bike_id": "58e13f5f114a93e09787b0d25d7bbb41"}, {"lon": -77.02154433333334, "rental_uris": {"android": "https://dc.lft.to/lastmile_qr_scan", "ios": "https://dc.lft.to/lastmile_qr_scan"}, "fusion_lon": 0.0, "is_reserved": 0, "is_disabled": 0, "fusion_lat": 0.0, "type": "electric_scooter", "name": "f35278e857a793e099fa9ee54a53ccea", "lat": 38.92602183333333, "bike_id": "f35278e857a793e099fa9ee54a53ccea"}, {"lon": -77.03199216666667, "rental_uris": {"android": "https://dc.lft.to/lastmile_qr_scan", "ios": "https://dc.lft.to/lastmile_qr_scan"}, "fusion_lon": 0.0, "is_reserved": 0, "is_disabled": 0, "fusion_lat": 0.0, "type": "electric_scooter", "name": "b2173ae8128bc77c85085afbc19423fe", "lat": 38.91639, "bike_id": "b2173ae8128bc77c85085afbc19423fe"}, {"lon": -77.043522, "rental_uris": {"android": "https://dc.lft.to/lastmile_qr_scan", "ios": "https://dc.lft.to/lastmile_qr_scan"}, "fusion_lon": 0.0, "is_reserved": 0, "is_disabled": 0, "fusion_lat": 0.0, "type": "electric_scooter", "name": "c583620d20c37ca6fe664873032b2dcc", "lat": 38.9037145, "bike_id": "c583620d20c37ca6fe664873032b2dcc"}, {"lon": -77.018908, "rental_uris": {"android": "https://dc.lft.to/lastmile_qr_scan", "ios": "https://dc.lft.to/lastmile_qr_scan"}, "fusion_lon": 0.0, "is_reserved": 0, "is_disabled": 0, "fusion_lat": 0.0, "type": "electric_scooter", "name": "593b6cd75b30c3afa169852043fdb9cc", "lat": 38.922738333333335, "bike_id": "593b6cd75b30c3afa169852043fdb9cc"}, {"lon": -77.089686, "rental_uris": {"android": "https://dc.lft.to/lastmile_qr_scan", "ios": "https://dc.lft.to/lastmile_qr_scan"}, "fusion_lon": 0.0, "is_reserved": 0, "is_disabled": 0, "fusion_lat": 0.0, "type": "electric_scooter", "name": "1171d0de7867fb09fa52bee5a7215689", "lat": 38.937008, "bike_id": "1171d0de7867fb09fa52bee5a7215689"}, {"lon": -77.07670983333334, "rental_uris": {"android": "https://dc.lft.to/lastmile_qr_scan", "ios": "https://dc.lft.to/lastmile_qr_scan"}, "fusion_lon": 0.0, "is_reserved": 0, "is_disabled": 0, "fusion_lat": 0.0, "type": "electric_bike", "name": "74a6958bba5eb00e9f94ede17fde73f7", "lat": 38.8649555, "bike_id": "74a6958bba5eb00e9f94ede17fde73f7"}, {"lon": -77.0189185, "rental_uris": {"android": "https://dc.lft.to/lastmile_qr_scan", "ios": "https://dc.lft.to/lastmile_qr_scan"}, "fusion_lon": 0.0, "is_reserved": 0, "is_disabled": 0, "fusion_lat": 0.0, "type": "electric_scooter", "name": "24c5e07590b386ce96980c7f332d0e23", "lat": 38.923344, "bike_id": "24c5e07590b386ce96980c7f332d0e23"}, {"lon": -77.02028533333333, "rental_uris": {"android": "https://dc.lft.to/lastmile_qr_scan", "ios": "https://dc.lft.to/lastmile_qr_scan"}, "fusion_lon": 0.0, "is_reserved": 0, "is_disabled": 0, "fusion_lat": 0.0, "type": "electric_scooter", "name": "0462562f5c173384954a180d091608c6", "lat": 38.92245966666667, "bike_id": "0462562f5c173384954a180d091608c6"}, {"lon": -76.995979, "rental_uris": {"android": "https://dc.lft.to/lastmile_qr_scan", "ios": "https://dc.lft.to/lastmile_qr_scan"}, "fusion_lon": 0.0, "is_reserved": 0, "is_disabled": 0, "fusion_lat": 0.0, "type": "electric_scooter", "name": "cb6bb6dcbb771861f4e1e6a17543c3b6", "lat": 38.885105, "bike_id": "cb6bb6dcbb771861f4e1e6a17543c3b6"}, {"lon": -77.1264955, "rental_uris": {"android": "https://dc.lft.to/lastmile_qr_scan", "ios": "https://dc.lft.to/lastmile_qr_scan"},