{"data": {"bikes": [{"fusion_lat": 0.0, "name": "9f6ed4d06265ccceb0c736e77dc8ffae", "is_disabled": 0, "rental_uris": {"android": "https://dc.lft.to/lastmile_qr_scan", "ios": "https://dc.lft.to/lastmile_qr_scan"}, "fusion_lon": 0.0, "lat": 38.916340166666664, "bike_id": "9f6ed4d06265ccceb0c736e77dc8ffae", "type": "electric_scooter", "is_reserved": 0, "lon": -77.04522233333333}, {"fusion_lat": 0.0, "name": "2b0e58a092f8f7fcdccf16d73443acd6", "is_disabled": 0, "rental_uris": {"android": "https://dc.lft.to/lastmile_qr_scan", "ios": "https://dc.lft.to/lastmile_qr_scan"}, "fusion_lon": 0.0, "lat": 38.90567133333333, "bike_id": "2b0e58a092f8f7fcdccf16d73443acd6", "type": "electric_scooter", "is_reserved": 0, "lon": -77.03461066666667}, {"fusion_lat": 0.0, "name": "c94ced5ff11d7a36ed0f3e35d5938076", "is_disabled": 0, "rental_uris": {"android": "https://dc.lft.to/lastmile_qr_scan", "ios": "https://dc.lft.to/lastmile_qr_scan"}, "fusion_lon": 0.0, "lat": 38.867604, "bike_id": "c94ced5ff11d7a36ed0f3e35d5938076", "type": "electric_scooter", "is_reserved": 0, "lon": -76.98273233333333}, {"fusion_lat": 0.0, "name": "393fa046b3e54975374e24ea17e13bc0", "is_disabled": 0, "rental_uris": {"android": "https://dc.lft.to/lastmile_qr_scan", "ios": "https://dc.lft.to/lastmile_qr_scan"}, "fusion_lon": 0.0, "lat": 38.90517033333333, "bike_id": "393fa046b3e54975374e24ea17e13bc0", "type": "electric_scooter", "is_reserved": 0, "lon": -77.02969966666667}, {"fusion_lat": 0.0, "name": "ec9710c1731258fca1a672a8582aeb5a", "is_disabled": 0, "rental_uris": {"android": "https://dc.lft.to/lastmile_qr_scan", "ios": "https://dc.lft.to/lastmile_qr_scan"}, "fusion_lon": 0.0, "lat": 38.8890795, "bike_id": "ec9710c1731258fca1a672a8582aeb5a", "type": "electric_scooter", "is_reserved": 0, "lon": -76.97738533333333}, {"fusion_lat": 0.0, "name": "fb4ab4606dd9e6755dbfb11d3b4eccc4", "is_disabled": 0, "rental_uris": {"android": "https://dc.lft.to/lastmile_qr_scan", "ios": "https://dc.lft.to/lastmile_qr_scan"}, "fusion_lon": 0.0, "lat": 38.9126695, "bike_id": "fb4ab4606dd9e6755dbfb11d3b4eccc4", "type": "electric_scooter", "is_reserved": 0, "lon": -77.03868533333333}, {"fusion_lat": 0.0, "name": "89a1ffb78d2bbff50568acba578e7f1b", "is_disabled": 0, "rental_uris": {"android": "https://dc.lft.to/lastmile_qr_scan", "ios": "https://dc.lft.to/lastmile_qr_scan"}, "fusion_lon": 0.0, "lat": 38.92804816666667, "bike_id": "89a1ffb78d2bbff50568acba578e7f1b", "type": "electric_scooter", "is_reserved": 0, "lon": -77.0239415}, {"fusion_lat": 0.0, "name": "e64797b971094a79b5ea8ddf7749cfed", "is_disabled": 0, "rental_uris": {"android": "https://dc.lft.to/lastmile_qr_scan", "ios": "https://dc.lft.to/lastmile_qr_scan"}, "fusion_lon": 0.0, "lat": 38.9026615, "bike_id": "e64797b971094a79b5ea8ddf7749cfed", "type": "electric_scooter", "is_reserved": 0, "lon": -77.039722}, {"fusion_lat": 0.0, "name": "a28ff360b39b429f2f75c045d79b4857", "is_disabled": 0, "rental_uris": {"android": "https://dc.lft.to/lastmile_qr_scan", "ios": "https://dc.lft.to/lastmile_qr_scan"}, "fusion_lon": 0.0, "lat": 38.87375016666667, "bike_id": "a28ff360b39b429f2f75c045d79b4857", "type": "electric_scooter", "is_reserved": 0, "lon": -77.00050333333333}, {"fusion_lat": 0.0, "name": "4dbd933757dc2d09445308940cf1821d", "is_disabled": 0, "rental_uris": {"android": "https://dc.lft.to/lastmile_qr_scan", "ios": "https://dc.lft.to/lastmile_qr_scan"}, "fusion_lon": 0.0, "lat": 38.9023965, "bike_id": "4dbd933757dc2d09445308940cf1821d", "type": "electric_scooter", "is_reserved": 0, "lon": -77.01775416666666}, {"fusion_lat": 0.0, "name": "69ff0f8c15d59455503b693db2402fad", "is_disabled": 0, "rental_uris": {"android": "https://dc.lft.to/lastmile_qr_scan", "ios": "https://dc.lft.to/lastmile_qr_scan"}, "fusion_lon": 0.0, "lat": 38.90410033333333, "bike_id": "69ff0f8c15d59455503b693db2402fad", "type": "electric_scooter", "is_reserved": 0, "lon": -77.06769916666667}, {"fusion_lat": 0.0, "name": "1c0031cbe3d7df7fff8b749bb6ee6a10", "is_disabled": 0, "rental_uris": {"android": "https://dc.lft.to/lastmile_qr_scan", "ios": "https://dc.lft.to/lastmile_qr_scan"}, "fusion_lon": 0.0, "lat": 38.909263333333335, "bike_id": "1c0031cbe3d7df7fff8b749bb6ee6a10", "type": "electric_scooter", "is_reserved": 0, "lon": -77.04573116666667}, {"fusion_lat": 0.0, "name": "48349309abd7ec30275082a74174a9b1", "is_disabled": 0, "rental_uris": {"android": "https://dc.lft.to/lastmile_qr_scan", "ios": "https://dc.lft.to/lastmile_qr_scan"}, "fusion_lon": 0.0, "lat": 38.90840033333333, "bike_id": "48349309abd7ec30275082a74174a9b1", "type": "electric_scooter", "is_reserved": 0, "lon": -77.0269695}, {"fusion_lat": 0.0, "name": "8a7cf0cefee4d2effdd4986ab8e7ad48", "is_disabled": 0, "rental_uris": {"android": "https://dc.lft.to/lastmile_qr_scan", "ios": "https://dc.lft.to/lastmile_qr_scan"}, "fusion_lon": 0.0, "lat": 38.90493133333333, "bike_id": "8a7cf0cefee4d2effdd4986ab8e7ad48", "type": "electric_scooter", "is_reserved": 0, "lon": -77.02692966666666}, {"fusion_lat": 0.0, "name": "dfe18eaf644bfc07ba9fc2e7f87077c0", "is_disabled": 0, "rental_uris": {"android": "https://dc.lft.to/lastmile_qr_scan", "ios": "https://dc.lft.to/lastmile_qr_scan"}, "fusion_lon": 0.0, "lat": 38.81599766666667, "bike_id": "dfe18eaf644bfc07ba9fc2e7f87077c0", "type": "electric_bike", "is_reserved": 0, "lon": -77.05052466666666}, {"fusion_lat": 0.0, "name": "98e1d734584c7807d456fa7933713b3c", "is_disabled": 0, "rental_uris": {"android": "https://dc.lft.to/lastmile_qr_scan", "ios": "https://dc.lft.to/lastmile_qr_scan"}, "fusion_lon": 0.0, "lat": 38.90509183333333, "bike_id": "98e1d734584c7807d456fa7933713b3c", "type": "electric_scooter", "is_reserved": 0, "lon": -77.02974383333333}, {"fusion_lat": 0.0, "name": "f7c665ce6dfe8839dfa038b2731f2437", "is_disabled": 0, "rental_uris": {"android": "https://dc.lft.to/lastmile_qr_scan", "ios": "https://dc.lft.to/lastmile_qr_scan"}, "fusion_lon": 0.0, "lat": 38.916103166666666, "bike_id": "f7c665ce6dfe8839dfa038b2731f2437", "type": "electric_scooter", "is_reserved": 0, "lon": -77.01123983333333}, {"fusion_lat": 0.0, "name": "3643c7fcfd97a2c154c6abb90343b96a", "is_disabled": 0, "rental_uris": {"android": "https://dc.lft.to/lastmile_qr_scan", "ios": "https://dc.lft.to/lastmile_qr_scan"}, "fusion_lon": 0.0, "lat": 38.897317666666666, "bike_id": "3643c7fcfd97a2c154c6abb90343b96a", "type": "electric_scooter", "is_reserved": 0, "lon": -77.046317}, {"fusion_lat": 0.0, "name": "7dea0223bf04cc07725b5e153412e05f", "is_disabled": 0, "rental_uris": {"android": "https://dc.lft.to/lastmile_qr_scan", "ios": "https://dc.lft.to/lastmile_qr_scan"}, "fusion_lon": 0.0, "lat": 38.9086505, "bike_id": "7dea0223bf04cc07725b5e153412e05f", "type": "electric_scooter", "is_reserved": 0, "lon": -77.044781}, {"fusion_lat": 0.0, "name": "c247ab457edc6e066bfff1eafc0ef058", "is_disabled": 0, "rental_uris": {"android": "https://dc.lft.to/lastmile_qr_scan", "ios": "https://dc.lft.to/lastmile_qr_scan"}, "fusion_lon": 0.0, "lat": 38.91999033333333, "bike_id": "c247ab457edc6e066bfff1eafc0ef058", "type": "electric_scooter", "is_reserved": 0, "lon": -77.071886}, {"fusion_lat": 0.0, "name": "a9dd698844b960a2959894e8be5e0e9b", "is_disabled": 0, "rental_uris": {"android": "https://dc.lft.to/lastmile_qr_scan", "ios": "https://dc.lft.to/lastmile_qr_scan"}, "fusion_lon": 0.0, "lat": 38.878483, "bike_id": "a9dd698844b960a2959894e8be5e0e9b", "type": "electric_bike", "is_reserved": 0, "lon": -77.03027983333334}, {"fusion_lat": 0.0, "name": "423f0d996e17083c66c79fe6e8bec8fb", "is_disabled": 0, "rental_uris": {"android": "https://dc.lft.to/lastmile_qr_scan", "ios": "https://dc.lft.to/lastmile_qr_scan"}, "fusion_lon": 0.0, "lat": 38.854221333333335, "bike_id": "423f0d996e17083c66c79fe6e8bec8fb", "type": "electric_bike", "is_reserved": 0, "lon": -77.12078933333333}, {"fusion_lat": 0.0, "name": "b0f94b9ec21f76131e2d53de98f918af", "is_disabled": 0, "rental_uris": {"android": "https://dc.lft.to/lastmile_qr_scan", "ios": "https://dc.lft.to/lastmile_qr_scan"}, "fusion_lon": 0.0, "lat": 38.916178333333335, "bike_id": "b0f94b9ec21f76131e2d53de98f918af", "type": "electric_scooter", "is_reserved": 0, "lon": -77.02308683333334}, {"fusion_lat": 0.0, "name": "4c7e22b59d2b3f5fc9bedc305400f3f8", "is_disabled": 0, "rental_uris": {"android": "https://dc.lft.to/lastmile_qr_scan", "ios": "https://dc.lft.to/lastmile_qr_scan"}, "fusion_lon": 0.0, "lat": 38.92097416666667, "bike_id": "4c7e22b59d2b3f5fc9bedc305400f3f8", "type": "electric_scooter", "is_reserved": 0, "lon": -76.99461}, {"fusion_lat": 0.0, "name": "77582f3f1399839811f308182625d19c", "is_disabled": 0, "rental_uris": {"android": "https://dc.lft.to/lastmile_qr_scan", "ios": "https://dc.lft.to/lastmile_qr_scan"}, "fusion_lon": 0.0, "lat": 38.9429935, "bike_id": "77582f3f1399839811f308182625d19c", "type": "electric_scooter", "is_reserved": 0, "lon": -77.02175683333333}, {"fusion_lat": 0.0, "name": "2a921b532e5c6633c3757046c0298191", "is_disabled": 0, "rental_uris": {"android": "https://dc.lft.to/lastmile_qr_scan", "ios": "https://dc.lft.to/lastmile_qr_scan"}, "fusion_lon": 0.0, "lat": 38.900353, "bike_id": "2a921b532e5c6633c3757046c0298191", "type": "electric_scooter", "is_reserved": 0, "lon": -77.0352695}, {"fusion_lat": 0.0, "name": "2d97bcdc09ee42d411586a41027a01eb", "is_disabled": 0, "rental_uris": {"android": "https://dc.lft.to/lastmile_qr_scan", "ios": "https://dc.lft.to/lastmile_qr_scan"}, "fusion_lon": 0.0, "lat": 38.8829825, "bike_id": "2d97bcdc09ee42d411586a41027a01eb", "type": "electric_scooter", "is_reserved": 0, "lon": -76.94858383333333}, {"fusion_lat": 0.0, "name": "fe9262b44fca79db47482e470d0560ad", "is_disabled": 0, "rental_uris": {"android": "https://dc.lft.to/lastmile_qr_scan", "ios": "https://dc.lft.to/lastmile_qr_scan"}, "fusion_lon": 0.0, "lat": 38.985466333333335, "bike_id": "fe9262b44fca79db47482e470d0560ad", "type": "electric_bike", "is_reserved": 0, "lon": -77.00403633333333}, {"fusion_lat": 0.0, "name": "af0949b70140c7f1cc9bf8f43f83df26", "is_disabled": 0, "rental_uris": {"android": "https://dc.lft.to/lastmile_qr_scan", "ios": "https://dc.lft.to/lastmile_qr_scan"}, "fusion_lon": 0.0, "lat": 38.89840516666667, "bike_id": "af0949b70140c7f1cc9bf8f43f83df26", "type": "electric_scooter", "is_reserved": 0, "lon": -77.01340366666666}, {"fusion_lat": 0.0, "name": "2e24c156b2eca946314c81096abcd556", "is_disabled": 0, "rental_uris": {"android": "https://dc.lft.to/lastmile_qr_scan", "ios": "https://dc.lft.to/lastmile_qr_scan"}, "fusion_lon": 0.0, "lat": 38.884276, "bike_id": "2e24c156b2eca946314c81096abcd556", "type": "electric_scooter", "is_reserved": 0, "lon": -76.957573}, {"fusion_lat": 0.0, "name": "6bb744bf204cb45d965a7b3067a5abe2", "is_disabled": 0, "rental_uris": {"android": "https://dc.lft.to/lastmile_qr_scan", "ios": "https://dc.lft.to/lastmile_qr_scan"}, "fusion_lon": 0.0, "lat": 38.9241715, "bike_id": "6bb744bf204cb45d965a7b3067a5abe2", "type": "electric_scooter", "is_reserved": 0, "lon": -76.996249}, {"fusion_lat": 0.0, "name": "cffe9bc87500dc511429f9f45a559dbf", "is_disabled": 0, "rental_uris": {"android": "https://dc.lft.to/lastmile_qr_scan", "ios": "https://dc.lft.to/lastmile_qr_scan"}, "fusion_lon": 0.0, "lat": 38.935807, "bike_id": "cffe9bc87500dc511429f9f45a559dbf", "type": "electric_scooter", "is_reserved": 0, "lon": -77.028469}, {"fusion_lat": 0.0, "name": "c797611140c7819924cb56f18277d747", "is_disabled": 0, "rental_uris": {"android": "https://dc.lft.to/lastmile_qr_scan", "ios": "https://dc.lft.to/lastmile_qr_scan"}, "fusion_lon": 0.0, "lat": 38.88767883333333, "bike_id": "c797611140c7819924cb56f18277d747", "type": "electric_scooter", "is_reserved": 0, "lon": -77.03305916666666}, {"fusion_lat": 0.0, "name": "59432ebf7fe5bf8e3ee8e8f2b1327bd3", "is_disabled": 0, "rental_uris": {"android": "https://dc.lft.to/lastmile_qr_scan", "ios": "https://dc.lft.to/lastmile_qr_scan"}, "fusion_lon": 0.0, "lat": 38.92516333333333, "bike_id": "59432ebf7fe5bf8e3ee8e8f2b1327bd3", "type": "electric_scooter", "is_reserved": 0, "lon": -77.02286716666667}, {"fusion_lat": 0.0, "name": "0a94ddf211fa57771afcd24bcf8aae84", "is_disabled": 0, "rental_uris": {"android": "https://dc.lft.to/lastmile_qr_scan", "ios": "https://dc.lft.to/lastmile_qr_scan"}, "fusion_lon": 0.0, "lat": 38.90771816666667, "bike_id": "0a94ddf211fa57771afcd24bcf8aae84", "type": "electric_scooter", "is_reserved": 0, "lon": -77.055992}, {"fusion_lat": 0.0, "name": "6a60cfb980ebe62d223a2ab21da7a627", "is_disabled": 0, "rental_uris": {"android": "https://dc.lft.to/lastmile_qr_scan", "ios": "https://dc.lft.to/lastmile_qr_scan"}, "fusion_lon": 0.0, "lat": 38.952219666666664, "bike_id": "6a60cfb980ebe62d223a2ab21da7a627", "type": "electric_scooter", "is_reserved": 0, "lon": -77.08218583333333}, {"fusion_lat": 0.0, "name": "23ee7c061ca8e77b0a7bdc0a8b93dd83", "is_disabled": 0, "rental_uris": {"android": "https://dc.lft.to/lastmile_qr_scan", "ios": "https://dc.lft.to/lastmile_qr_scan"}, "fusion_lon": 0.0, "lat": 38.9224665, "bike_id": "23ee7c061ca8e77b0a7bdc0a8b93dd83", "type": "electric_scooter", "is_reserved": 0, "lon": -77.07477833333333}, {"fusion_lat": 0.0, "name": "ae580b2fc31225c24033428e8010bc8f", "is_disabled": 0, "rental_uris": {"android": "https://dc.lft.to/lastmile_qr_scan", "ios": "https://dc.lft.to/lastmile_qr_scan"}, "fusion_lon": 0.0, "lat": 38.935163, "bike_id": "ae580b2fc31225c24033428e8010bc8f", "type": "electric_scooter", "is_reserved": 0, "lon": -77.0326655}, {"fusion_lat": 0.0, "name": "1fc2defe61399b62d13c92caad6941c2", "is_disabled": 0, "rental_uris": {"android": "https://dc.lft.to/lastmile_qr_scan", "ios": "https://dc.lft.to/lastmile_qr_scan"}, "fusion_lon": 0.0, "lat": 38.900408166666665, "bike_id": "1fc2defe61399b62d13c92caad6941c2", "type": "electric_scooter", "is_reserved": 0, "lon": -77.002256}, {"fusion_lat": 0.0, "name": "b8336388b5269db4e4a3e52ac21538a4", "is_disabled": 0, "rental_uris": {"android": "https://dc.lft.to/lastmile_qr_scan", "ios": "https://dc.lft.to/lastmile_qr_scan"}, "fusion_lon": 0.0, "lat": 38.92052366666667, "bike_id": "b8336388b5269db4e4a3e52ac21538a4", "type": "electric_scooter", "is_reserved": 0, "lon": -77.04261733333334}, {"fusion_lat": 0.0, "name": "17f28abbc129efdd111211452ee38d44", "is_disabled": 0, "rental_uris": {"android": "https://dc.lft.to/lastmile_qr_scan", "ios": "https://dc.lft.to/lastmile_qr_scan"}, "fusion_lon": 0.0, "lat": 38.88325316666667, "bike_id": "17f28abbc129efdd111211452ee38d44", "type": "electric_scooter", "is_reserved": 0, "lon": -77.01764033333333}, {"fusion_lat": 0.0, "name": "c7e0daebed1feef995b60d3831b6dd6b", "is_disabled": 0, "rental_uris": {"android": "https://dc.lft.to/lastmile_qr_scan", "ios": "https://dc.lft.to/lastmile_qr_scan"}, "fusion_lon": 0.0, "lat": 38.93194366666667, "bike_id": "c7e0daebed1feef995b60d3831b6dd6b", "type": "electric_bike", "is_reserved": 0, "lon": -77.22930416666667}, {"fusion_lat": 0.0, "name": "d6cbfd08ef9bb2b59a307fa9ca4e053b", "is_disabled": 0, "rental_uris": {"android": "https://dc.lft.to/lastmile_qr_scan", "ios": "https://dc.lft.to/lastmile_qr_scan"}, "fusion_lon": 0.0, "lat": 38.81333466666667, "bike_id": "d6cbfd08ef9bb2b59a307fa9ca4e053b", "type": "electric_bike", "is_reserved": 0, "lon": -77.05091483333334}, {"fusion_lat": 0.0, "name": "7911595f16bb92f90fe2c1da0b94c0cd", "is_disabled": 0, "rental_uris": {"android": "https://dc.lft.to/lastmile_qr_scan", "ios": "https://dc.lft.to/lastmile_qr_scan"}, "fusion_lon": 0.0, "lat": 38.9142625, "bike_id": "7911595f16bb92f90fe2c1da0b94c0cd", "type": "electric_scooter", "is_reserved": 0, "lon": -77.03469283333334}, {"fusion_lat": 0.0, "name": "60ede9fa8a2c176d32b06452090b15e1", "is_disabled": 0, "rental_uris": {"android": "https://dc.lft.to/lastmile_qr_scan", "ios": "https://dc.lft.to/lastmile_qr_scan"}, "fusion_lon": 0.0, "lat": 38.92484066666667, "bike_id": "60ede9fa8a2c176d32b06452090b15e1", "type": "electric_scooter", "is_reserved": 0, "lon": -77.026314}, {"fusion_lat": 0.0, "name": "b50456635b3cf961041e96e2c3f13c14", "is_disabled": 0, "rental_uris": {"android": "https://dc.lft.to/lastmile_qr_scan", "ios": "https://dc.lft.to/lastmile_qr_scan"}, "fusion_lon": 0.0, "lat": 38.93002833333333, "bike_id": "b50456635b3cf961041e96e2c3f13c14", "type": "electric_scooter", "is_reserved": 0, "lon": -77.03785283333333}, {"fusion_lat": 0.0, "name": "b5a5c1684bc0a042d95b1b1384427835", "is_disabled": 0, "rental_uris": {"android": "https://dc.lft.to/lastmile_qr_scan", "ios": "https://dc.lft.to/lastmile_qr_scan"}, "fusion_lon": 0.0, "lat": 38.927465, "bike_id": "b5a5c1684bc0a042d95b1b1384427835", "type": "electric_scooter", "is_reserved": 0, "lon": -77.0253575}, {"fusion_lat": 0.0, "name": "93a821d1c74a2cae23d185dbb7e49f67", "is_disabled": 0, "rental_uris": {"android": "https://dc.lft.to/lastmile_qr_scan", "ios": "https://dc.lft.to/lastmile_qr_scan"}, "fusion_lon": 0.0, "lat": 38.898627166666664, "bike_id": "93a821d1c74a2cae23d185dbb7e49f67", "type": "electric_scooter", "is_reserved": 0, "lon": -77.04170916666666}, {"fusion_lat": 0.0, "name": "a144eeec52f793cfd58d5878d3ef140d", "is_disabled": 0, "rental_uris": {"android": "https://dc.lft.to/lastmile_qr_scan", "ios": "https://dc.lft.to/lastmile_qr_scan"}, "fusion_lon": 0.0, "lat": 38.931098166666665, "bike_id": "a144eeec52f793cfd58d5878d3ef140d", "type": "electric_scooter", "is_reserved": 0, "lon": -77.03023633333333}, {"fusion_lat": 0.0, "name": "9ebd8355a5d4757706df344abc9fa827", "is_disabled": 0, "rental_uris": {"android": "https://dc.lft.to/lastmile_qr_scan", "ios": "https://dc.lft.to/lastmile_qr_scan"}, "fusion_lon": 0.0, "lat": 38.916586, "bike_id": "9ebd8355a5d4757706df344abc9fa827", "type": "electric_scooter", "is_reserved": 0, "lon": -77.02822866666666}, {"fusion_lat": 0.0, "name": "5d091423e0d2deb2b03304fa3b964a1d", "is_disabled": 0, "rental_uris": {"android": "https://dc.lft.to/lastmile_qr_scan", "ios": "https://dc.lft.to/lastmile_qr_scan"}, "fusion_lon": 0.0, "lat": 38.90175116666666, "bike_id": "5d091423e0d2deb2b03304fa3b964a1d", "type": "electric_scooter", "is_reserved": 0, "lon": -77.01611083333333}, {"fusion_lat": 0.0, "name": "308513ca469aa2330c285dc15f0fefc1", "is_disabled": 0, "rental_uris": {"android": "https://dc.lft.to/lastmile_qr_scan", "ios": "https://dc.lft.to/lastmile_qr_scan"}, "fusion_lon": 0.0, "lat": 38.878660333333336, "bike_id": "308513ca469aa2330c285dc15f0fefc1", "type": "electric_scooter", "is_reserved": 0, "lon": -77.02219716666667}, {"fusion_lat": 0.0, "name": "a2afb16c2ce4c7d282cadc8f49e59747", "is_disabled": 0, "rental_uris": {"android": "https://dc.lft.to/lastmile_qr_scan", "ios": "https://dc.lft.to/lastmile_qr_scan"}, "fusion_lon": 0.0, "lat": 38.941174, "bike_id": "a2afb16c2ce4c7d282cadc8f49e59747", "type": "electric_scooter", "is_reserved": 0, "lon": -77.02536233333333}, {"fusion_lat": 0.0, "name": "4110b91173c1a3915d4e1053d547523c", "is_disabled": 0, "rental_uris": {"android": "https://dc.lft.to/lastmile_qr_scan", "ios": "https://dc.lft.to/lastmile_qr_scan"}, "fusion_lon": 0.0, "lat": 38.92672483333333, "bike_id": "4110b91173c1a3915d4e1053d547523c", "type": "electric_scooter", "is_reserved": 0, "lon": -77.01484}, {"fusion_lat": 0.0, "name": "0a7d0a4f00dc427f5482cbbd76a30dce", "is_disabled": 0, "rental_uris": {"android": "https://dc.lft.to/lastmile_qr_scan", "ios": "https://dc.lft.to/lastmile_qr_scan"}, "fusion_lon": 0.0, "lat": 38.923396, "bike_id": "0a7d0a4f00dc427f5482cbbd76a30dce", "type": "electric_scooter", "is_reserved": 0, "lon": -77.05300466666667}, {"fusion_lat": 0.0, "name": "a739e6671f15e08ee3c99210e5aadbc1", "is_disabled": 0, "rental_uris": {"android": "https://dc.lft.to/lastmile_qr_scan", "ios": "https://dc.lft.to/lastmile_qr_scan"}, "fusion_lon": 0.0, "lat": 38.896151, "bike_id": "a739e6671f15e08ee3c99210e5aadbc1", "type": "electric_bike", "is_reserved": 0, "lon": -76.90740966666667}, {"fusion_lat": 0.0, "name": "9c9ca431b938552d9470e1b5834e3386", "is_disabled": 0, "rental_uris": {"android": "https://dc.lft.to/lastmile_qr_scan", "ios": "https://dc.lft.to/lastmile_qr_scan"}, "fusion_lon": 0.0, "lat": 38.93141283333333, "bike_id": "9c9ca431b938552d9470e1b5834e3386", "type": "electric_scooter", "is_reserved": 0, "lon": -77.029873}, {"fusion_lat": 0.0, "name": "9086eaa5543a16ddcc4677475ca4c1e3", "is_disabled": 0, "rental_uris": {"android": "https://dc.lft.to/lastmile_qr_scan", "ios": "https://dc.lft.to/lastmile_qr_scan"}, "fusion_lon": 0.0, "lat": 38.88296166666667, "bike_id": "9086eaa5543a16ddcc4677475ca4c1e3", "type": "electric_bike", "is_reserved": 0, "lon": -77.03024916666666}, {"fusion_lat": 0.0, "name": "63a983c270474e7305f2ff21185dd77b", "is_disabled": 0, "rental_uris": {"android": "https://dc.lft.to/lastmile_qr_scan", "ios": "https://dc.lft.to/lastmile_qr_scan"}, "fusion_lon": 0.0, "lat": 38.93076966666667, "bike_id": "63a983c270474e7305f2ff21185dd77b", "type": "electric_scooter", "is_reserved": 0, "lon": -77.03162616666667}, {"fusion_lat": 0.0, "name": "bced6adf832a34d2d6191820ea9df404", "is_disabled": 0, "rental_uris": {"android": "https://dc.lft.to/lastmile_qr_scan", "ios": "https://dc.lft.to/lastmile_qr_scan"}, "fusion_lon": 0.0, "lat": 38.927046, "bike_id": "bced6adf832a34d2d6191820ea9df404", "type": "electric_scooter", "is_reserved": 0, "lon": -77.02325283333333}, {"fusion_lat": 0.0, "name": "3caa3e2037a363b0c38e55856b50d4c0", "is_disabled": 0, "rental_uris": {"android": "https://dc.lft.to/lastmile_qr_scan", "ios": "https://dc.lft.to/lastmile_qr_scan"}, "fusion_lon": 0.0, "lat": 38.9249525, "bike_id": "3caa3e2037a363b0c38e55856b50d4c0", "type": "electric_scooter", "is_reserved": 0, "lon": -77.02173433333333}, {"fusion_lat": 0.0, "name": "6ae42bc65ffadc733e1612e161b2c31c", "is_disabled": 0, "rental_uris": {"android": "https://dc.lft.to/lastmile_qr_scan", "ios": "https://dc.lft.to/lastmile_qr_scan"}, "fusion_lon": 0.0, "lat": 38.9563395, "bike_id": "6ae42bc65ffadc733e1612e161b2c31c", "type": "electric_scooter", "is_reserved": 0, "lon": -77.03307666666667}, {"fusion_lat": 0.0, "name": "b0f18bf2d6bb1a96bd326ef1f212e5e7", "is_disabled": 0, "rental_uris": {"android": "https://dc.lft.to/lastmile_qr_scan", "ios": "https://dc.lft.to/lastmile_qr_scan"}, "fusion_lon": 0.0, "lat": 38.901006833333334, "bike_id": "b0f18bf2d6bb1a96bd326ef1f212e5e7", "type": "electric_scooter", "is_reserved": 0, "lon": -77.0581375}, {"fusion_lat": 0.0, "name": "974cdf88dbca217840fb4b211dc2bf48", "is_disabled": 0, "rental_uris": {"android": "https://dc.lft.to/lastmile_qr_scan", "ios": "https://dc.lft.to/lastmile_qr_scan"}, "fusion_lon": 0.0, "lat": 38.941360333333336, "bike_id": "974cdf88dbca217840fb4b211dc2bf48", "type": "electric_scooter", "is_reserved": 0, "lon": -77.0154925}, {"fusion_lat": 0.0, "name": "68ac5ee07d24a7400a5945f38b8aaa9e", "is_disabled": 0, "rental_uris": {"android": "https://dc.lft.to/lastmile_qr_scan", "ios": "https://dc.lft.to/lastmile_qr_scan"}, "fusion_lon": 0.0, "lat": 38.910158, "bike_id": "68ac5ee07d24a7400a5945f38b8aaa9e", "type": "electric_scooter", "is_reserved": 0, "lon": -77.03857333333333}, {"fusion_lat": 0.0, "name": "f463bd1eb401dee46909434f7a960042", "is_disabled": 0, "rental_uris": {"android": "https://dc.lft.to/lastmile_qr_scan", "ios": "https://dc.lft.to/lastmile_qr_scan"}, "fusion_lon": 0.0, "lat": 38.95022783333334, "bike_id": "f463bd1eb401dee46909434f7a960042", "type": "electric_scooter", "is_reserved": 0, "lon": -77.03353183333333}, {"fusion_lat": 0.0, "name": "c9873f963366ea46802f573c35dd8757", "is_disabled": 0, "rental_uris": {"android": "https://dc.lft.to/lastmile_qr_scan", "ios": "https://dc.lft.to/lastmile_qr_scan"}, "fusion_lon": 0.0, "lat": 38.938987833333336, "bike_id": "c9873f963366ea46802f573c35dd8757", "type": "electric_scooter", "is_reserved": 0, "lon": -77.03335316666667}, {"fusion_lat": 0.0, "name": "ff1b3584a9579fe9eb208ee3ca0d2f87", "is_disabled": 0, "rental_uris": {"android": "https://dc.lft.to/lastmile_qr_scan", "ios": "https://dc.lft.to/lastmile_qr_scan"}, "fusion_lon": 0.0, "lat": 38.94089916666667, "bike_id": "ff1b3584a9579fe9eb208ee3ca0d2f87", "type": "electric_scooter", "is_reserved": 0, "lon": -77.02323233333334}, {"fusion_lat": 0.0, "name": "f2fffe4e412628c7f51e24afe1eec79d", "is_disabled": 0, "rental_uris": {"android": "https://dc.lft.to/lastmile_qr_scan", "ios": "https://dc.lft.to/lastmile_qr_scan"}, "fusion_lon": 0.0, "lat": 38.92056483333333, "bike_id": "f2fffe4e412628c7f51e24afe1eec79d", "type": "electric_scooter", "is_reserved": 0, "lon": -76.99885016666667}, {"fusion_lat": 0.0, "name": "72b2c51ec744e4433bad4cae04d1dace", "is_disabled": 0, "rental_uris": {"android": "https://dc.lft.to/lastmile_qr_scan", "ios": "https://dc.lft.to/lastmile_qr_scan"}, "fusion_lon": 0.0, "lat": 38.80671483333333, "bike_id": "72b2c51ec744e4433bad4cae04d1dace", "type": "electric_bike", "is_reserved": 0, "lon": -77.06921183333333}, {"fusion_lat": 0.0, "name": "4fe25a08ed4f582c796139fea226810e", "is_disabled": 0, "rental_uris": {"android": "https://dc.lft.to/lastmile_qr_scan", "ios": "https://dc.lft.to/lastmile_qr_scan"}, "fusion_lon": 0.0, "lat": 38.884519, "bike_id": "4fe25a08ed4f582c796139fea226810e", "type": "electric_scooter", "is_reserved": 0, "lon": -76.99390933333333}, {"fusion_lat": 0.0, "name": "929e4a96fadfb597632a8dbb2a659644", "is_disabled": 0, "rental_uris": {"android": "https://dc.lft.to/lastmile_qr_scan", "ios": "https://dc.lft.to/lastmile_qr_scan"}, "fusion_lon": 0.0, "lat": 38.917148166666664, "bike_id": "929e4a96fadfb597632a8dbb2a659644", "type": "electric_scooter", "is_reserved": 0, "lon": -77.03858283333334}, {"fusion_lat": 0.0, "name": "b071cdb3f23b47826ce97001e872da51", "is_disabled": 0, "rental_uris": {"android": "https://dc.lft.to/lastmile_qr_scan", "ios": "https://dc.lft.to/lastmile_qr_scan"}, "fusion_lon": 0.0, "lat": 38.905676, "bike_id": "b071cdb3f23b47826ce97001e872da51", "type": "electric_scooter", "is_reserved": 0, "lon": -77.02417433333333}, {"fusion_lat": 0.0, "name": "9eb4befbe6e13303274055c5fc51bb48", "is_disabled": 0, "rental_uris": {"android": "https://dc.lft.to/lastmile_qr_scan", "ios": "https://dc.lft.to/lastmile_qr_scan"}, "fusion_lon": 0.0, "lat": 38.887509, "bike_id": "9eb4befbe6e13303274055c5fc51bb48", "type": "electric_scooter", "is_reserved": 0, "lon": -76.99837033333333}, {"fusion_lat": 0.0, "name": "443a7c2c3c51b5fba675118407c8e5d6", "is_disabled": 0, "rental_uris": {"android": "https://dc.lft.to/lastmile_qr_scan", "ios": "https://dc.lft.to/lastmile_qr_scan"}, "fusion_lon": 0.0, "lat": 38.918459166666665, "bike_id": "443a7c2c3c51b5fba675118407c8e5d6", "type": "electric_scooter", "is_reserved": 0, "lon": -77.04491233333333}, {"fusion_lat": 0.0, "name": "436b8fb7288d7cf752c7aa9343d4fa32", "is_disabled": 0, "rental_uris": {"android": "https://dc.lft.to/lastmile_qr_scan", "ios": "https://dc.lft.to/lastmile_qr_scan"}, "fusion_lon": 0.0, "lat": 38.905644833333334, "bike_id": "436b8fb7288d7cf752c7aa9343d4fa32", "type": "electric_scooter", "is_reserved": 0, "lon": -77.04650283333334}, {"fusion_lat": 0.0, "name": "44595e2bfa986fcc92c9fc8fd4d0a32d", "is_disabled": 0, "rental_uris": {"android": "https://dc.lft.to/lastmile_qr_scan", "ios": "https://dc.lft.to/lastmile_qr_scan"}, "fusion_lon": 0.0, "lat": 38.92498533333333, "bike_id": "44595e2bfa986fcc92c9fc8fd4d0a32d", "type": "electric_bike", "is_reserved": 0, "lon": -77.05766883333334}, {"fusion_lat": 0.0, "name": "fe02056a36b532221ba89444450b4782", "is_disabled": 0, "rental_uris": {"android": "https://dc.lft.to/lastmile_qr_scan", "ios": "https://dc.lft.to/lastmile_qr_scan"}, "fusion_lon": 0.0, "lat": 38.97055183333333, "bike_id": "fe02056a36b532221ba89444450b4782", "type": "electric_bike", "is_reserved": 0, "lon": -76.936173}, {"fusion_lat": 0.0, "name": "3f758c1549057bd1a4e5805cadc8dc51", "is_disabled": 0, "rental_uris": {"android": "https://dc.lft.to/lastmile_qr_scan", "ios": "https://dc.lft.to/lastmile_qr_scan"}, "fusion_lon": 0.0, "lat": 38.90038333333333, "bike_id": "3f758c1549057bd1a4e5805cadc8dc51", "type": "electric_scooter", "is_reserved": 0, "lon": -77.00210216666666}, {"fusion_lat": 0.0, "name": "4b9dc53fc45525974ef9a28f9ce6ecaa", "is_disabled": 0, "rental_uris": {"android": "https://dc.lft.to/lastmile_qr_scan", "ios": "https://dc.lft.to/lastmile_qr_scan"}, "fusion_lon": 0.0, "lat": 38.90782983333333, "bike_id": "4b9dc53fc45525974ef9a28f9ce6ecaa", "type": "electric_scooter", "is_reserved": 0, "lon": -77.009731}, {"fusion_lat": 0.0, "name": "6a7101908139b79515e9e38f13f4901a", "is_disabled": 0, "rental_uris": {"android": "https://dc.lft.to/lastmile_qr_scan", "ios": "https://dc.lft.to/lastmile_qr_scan"}, "fusion_lon": 0.0, "lat": 38.8809815, "bike_id": "6a7101908139b79515e9e38f13f4901a", "type": "electric_scooter", "is_reserved": 0, "lon": -76.98668}, {"fusion_lat": 0.0, "name": "22c2be5cf1ca8edb757074f259c77cbe", "is_disabled": 0, "rental_uris": {"android": "https://dc.lft.to/lastmile_qr_scan", "ios": "https://dc.lft.to/lastmile_qr_scan"}, "fusion_lon": 0.0, "lat": 38.88610583333333, "bike_id": "22c2be5cf1ca8edb757074f259c77cbe", "type": "electric_scooter", "is_reserved": 0, "lon": -77.015564}, {"fusion_lat": 0.0, "name": "6f8b129f153dc792533b0e40ea6b60ac", "is_disabled": 0, "rental_uris": {"android": "https://dc.lft.to/lastmile_qr_scan", "ios": "https://dc.lft.to/lastmile_qr_scan"}, "fusion_lon": 0.0, "lat": 38.835424, "bike_id": "6f8b129f153dc792533b0e40ea6b60ac", "type": "electric_bike", "is_reserved": 0, "lon": -76.98733916666667}, {"fusion_lat": 0.0, "name": "17ecf3c0cc8936457a8c5de2ce76ceb7", "is_disabled": 0, "rental_uris": {"android": "https://dc.lft.to/lastmile_qr_scan", "ios": "https://dc.lft.to/lastmile_qr_scan"}, "fusion_lon": 0.0, "lat": 38.932578166666666, "bike_id": "17ecf3c0cc8936457a8c5de2ce76ceb7", "type": "electric_scooter", "is_reserved": 0, "lon": -77.034559}, {"fusion_lat": 0.0, "name": "5e079858d69c6660b32741f86f51a928", "is_disabled": 0, "rental_uris": {"android": "https://dc.lft.to/lastmile_qr_scan", "ios": "https://dc.lft.to/lastmile_qr_scan"}, "fusion_lon": 0.0, "lat": 38.934311, "bike_id": "5e079858d69c6660b32741f86f51a928", "type": "electric_scooter", "is_reserved": 0, "lon": -77.03993983333334}, {"fusion_lat": 0.0, "name": "0b4dacc39fa9feb828ebb2f665286bee", "is_disabled": 0, "rental_uris": {"android": "https://dc.lft.to/lastmile_qr_scan", "ios": "https://dc.lft.to/lastmile_qr_scan"}, "fusion_lon": 0.0, "lat": 38.92392666666667, "bike_id": "0b4dacc39fa9feb828ebb2f665286bee", "type": "electric_scooter", "is_reserved": 0, "lon": -77.03661516666666}, {"fusion_lat": 0.0, "name": "f6af2d4f58416ee6b59715d2b103bd88", "is_disabled": 0, "rental_uris": {"android": "https://dc.lft.to/lastmile_qr_scan", "ios": "https://dc.lft.to/lastmile_qr_scan"}, "fusion_lon": 0.0, "lat": 38.892397333333335, "bike_id": "f6af2d4f58416ee6b59715d2b103bd88", "type": "electric_scooter", "is_reserved": 0, "lon": -77.033492}, {"fusion_lat": 0.0, "name": "4277f1a23dc8ef90325a5b4f9774b55e", "is_disabled": 0, "rental_uris": {"android": "https://dc.lft.to/lastmile_qr_scan", "ios": "https://dc.lft.to/lastmile_qr_scan"}, "fusion_lon": 0.0, "lat": 38.9006505, "bike_id": "4277f1a23dc8ef90325a5b4f9774b55e", "type": "electric_scooter", "is_reserved": 0, "lon": -76.933885}, {"fusion_lat": 0.0, "name": "5705e0980e82d8828f3c787e8e40950b", "is_disabled": 0, "rental_uris": {"android": "https://dc.lft.to/lastmile_qr_scan", "ios": "https://dc.lft.to/lastmile_qr_scan"}, "fusion_lon": 0.0, "lat": 38.9223505, "bike_id": "5705e0980e82d8828f3c787e8e40950b", "type": "electric_scooter", "is_reserved": 0, "lon": -77.042514}, {"fusion_lat": 0.0, "name": "4e3dabd39110cb6fb193f794d6c721aa", "is_disabled": 0, "rental_uris": {"android": "https://dc.lft.to/lastmile_qr_scan", "ios": "https://dc.lft.to/lastmile_qr_scan"}, "fusion_lon": 0.0, "lat": 38.948221333333336, "bike_id": "4e3dabd39110cb6fb193f794d6c721aa", "type": "electric_scooter", "is_reserved": 0, "lon": -77.02615983333334}, {"fusion_lat": 0.0, "name": "cc2d5b2bc308423b55449a99dc1d5879", "is_disabled": 0, "rental_uris": {"android": "https://dc.lft.to/lastmile_qr_scan", "ios": "https://dc.lft.to/lastmile_qr_scan"}, "fusion_lon": 0.0, "lat": 38.905689, "bike_id": "cc2d5b2bc308423b55449a99dc1d5879", "type": "electric_scooter", "is_reserved": 0, "lon": -77.00610616666667}, {"fusion_lat": 0.0, "name": "791db928022c17af7404f7c3d2380e99", "is_disabled": 0, "rental_uris": {"android": "https://dc.lft.to/lastmile_qr_scan", "ios": "https://dc.lft.to/lastmile_qr_scan"}, "fusion_lon": 0.0, "lat": 38.915517333333334, "bike_id": "791db928022c17af7404f7c3d2380e99", "type": "electric_scooter", "is_reserved": 0, "lon": -77.04151433333334}, {"fusion_lat": 0.0, "name": "b7951e1ccae1fdf8f234aa543a64f237", "is_disabled": 0, "rental_uris": {"android": "https://dc.lft.to/lastmile_qr_scan", "ios": "https://dc.lft.to/lastmile_qr_scan"}, "fusion_lon": 0.0, "lat": 38.8981925, "bike_id": "b7951e1ccae1fdf8f234aa543a64f237", "type": "electric_scooter", "is_reserved": 0, "lon": -77.0074395}, {"fusion_lat": 0.0, "name": "e0185dec8bd6362dcd756869ea2dbd20", "is_disabled": 0, "rental_uris": {"android": "https://dc.lft.to/lastmile_qr_scan", "ios": "https://dc.lft.to/lastmile_qr_scan"}, "fusion_lon": 0.0, "lat": 38.927776, "bike_id": "e0185dec8bd6362dcd756869ea2dbd20", "type": "electric_scooter", "is_reserved": 0, "lon": -77.02706483333333}, {"fusion_lat": 0.0, "name": "73a136e6ed2ade6c4a38adde057aa975", "is_disabled": 0, "rental_uris": {"android": "https://dc.lft.to/lastmile_qr_scan", "ios": "https://dc.lft.to/lastmile_qr_scan"}, "fusion_lon": 0.0, "lat": 38.901540833333335, "bike_id": "73a136e6ed2ade6c4a38adde057aa975", "type": "electric_scooter", "is_reserved": 0, "lon": -76.93066183333333}, {"fusion_lat": 0.0, "name": "15df1f8284ef96681b8e2ac8e693205d", "is_disabled": 0, "rental_uris": {"android": "https://dc.lft.to/lastmile_qr_scan", "ios": "https://dc.lft.to/lastmile_qr_scan"}, "fusion_lon": 0.0, "lat": 38.905854833333336, "bike_id": "15df1f8284ef96681b8e2ac8e693205d", "type": "electric_scooter", "is_reserved": 0, "lon": -77.0443025}, {"fusion_lat": 0.0, "name": "dce53ae00caf76f670e5742a30a9b3db", "is_disabled": 0, "rental_uris": {"android": "https://dc.lft.to/lastmile_qr_scan", "ios": "https://dc.lft.to/lastmile_qr_scan"}, "fusion_lon": 0.0, "lat": 38.9846585, "bike_id": "dce53ae00caf76f670e5742a30a9b3db", "type": "electric_bike", "is_reserved": 0, "lon": -76.9705055}, {"fusion_lat": 0.0, "name": "4224bcf65947fb0023e852cb4618499a", "is_disabled": 0, "rental_uris": {"android": "https://dc.lft.to/lastmile_qr_scan", "ios": "https://dc.lft.to/lastmile_qr_scan"}, "fusion_lon": 0.0, "lat": 38.887402, "bike_id": "4224bcf65947fb0023e852cb4618499a", "type": "electric_scooter", "is_reserved": 0, "lon": -77.032178}, {"fusion_lat": 0.0, "name": "cb5ffbe9abb0a2e40eb89ee93c5de111", "is_disabled": 0, "rental_uris": {"android": "https://dc.lft.to/lastmile_qr_scan", "ios": "https://dc.lft.to/lastmile_qr_scan"}, "fusion_lon": 0.0, "lat": 38.87848533333333, "bike_id": "cb5ffbe9abb0a2e40eb89ee93c5de111", "type": "electric_bike", "is_reserved": 0, "lon": -77.030218}, {"fusion_lat": 0.0, "name": "28869afc5f817bff0ae81cbad9ba8b2d", "is_disabled": 0, "rental_uris": {"android": "https://dc.lft.to/lastmile_qr_scan", "ios": "https://dc.lft.to/lastmile_qr_scan"}, "fusion_lon": 0.0, "lat": 38.906848833333335, "bike_id": "28869afc5f817bff0ae81cbad9ba8b2d", "type": "electric_bike", "is_reserved": 0, "lon": -76.94495833333333}, {"fusion_lat": 0.0, "name": "10e203e42358e35fdcf3a4720f6048d9", "is_disabled": 0, "rental_uris": {"android": "https://dc.lft.to/lastmile_qr_scan", "ios": "https://dc.lft.to/lastmile_qr_scan"}, "fusion_lon": 0.0, "lat": 38.907313, "bike_id": "10e203e42358e35fdcf3a4720f6048d9", "type": "electric_scooter", "is_reserved": 0, "lon": -77.01117066666667}, {"fusion_lat": 0.0, "name": "22e9b81bc4641acd852267b3e9284ba0", "is_disabled": 0, "rental_uris": {"android": "https://dc.lft.to/lastmile_qr_scan", "ios": "https://dc.lft.to/lastmile_qr_scan"}, "fusion_lon": 0.0, "lat": 38.9225765, "bike_id": "22e9b81bc4641acd852267b3e9284ba0", "type": "electric_bike", "is_reserved": 0, "lon": -77.02224183333334}, {"fusion_lat": 0.0, "name": "42bed4f70dac431217b1e6ac98a97cbc", "is_disabled": 0, "rental_uris": {"android": "https://dc.lft.to/lastmile_qr_scan", "ios": "https://dc.lft.to/lastmile_qr_scan"}, "fusion_lon": 0.0, "lat": 38.900159333333335, "bike_id": "42bed4f70dac431217b1e6ac98a97cbc", "type": "electric_scooter", "is_reserved": 0, "lon": -76.99850766666667}, {"fusion_lat": 0.0, "name": "3214e427344878258fed20a4f10d16f7", "is_disabled": 0, "rental_uris": {"android": "https://dc.lft.to/lastmile_qr_scan", "ios": "https://dc.lft.to/lastmile_qr_scan"}, "fusion_lon": 0.0, "lat": 38.988271166666664, "bike_id": "3214e427344878258fed20a4f10d16f7", "type": "electric_bike", "is_reserved": 0, "lon": -76.9965}, {"fusion_lat": 0.0, "name": "83af9a22d998584afaab7b49ca675be7", "is_disabled": 0, "rental_uris": {"android": "https://dc.lft.to/lastmile_qr_scan", "ios": "https://dc.lft.to/lastmile_qr_scan"}, "fusion_lon": 0.0, "lat": 38.88768133333333, "bike_id": "83af9a22d998584afaab7b49ca675be7", "type": "electric_scooter", "is_reserved": 0, "lon": -76.97747383333333}, {"fusion_lat": 0.0, "name": "a4fe9428fd0700be7272e737a13e9e0f", "is_disabled": 0, "rental_uris": {"android": "https://dc.lft.to/lastmile_qr_scan", "ios": "https://dc.lft.to/lastmile_qr_scan"}, "fusion_lon": 0.0, "lat": 38.917791, "bike_id": "a4fe9428fd0700be7272e737a13e9e0f", "type": "electric_scooter", "is_reserved": 0, "lon": -77.02311633333333}, {"fusion_lat": 0.0, "name": "8e76357e76b3abbb179ea0899a5b2d36", "is_disabled": 0, "rental_uris": {"android": "https://dc.lft.to/lastmile_qr_scan", "ios": "https://dc.lft.to/lastmile_qr_scan"}, "fusion_lon": 0.0, "lat": 38.95797066666667, "bike_id": "8e76357e76b3abbb179ea0899a5b2d36", "type": "electric_bike", "is_reserved": 0, "lon": -76.99966066666667}, {"fusion_lat": 0.0, "name": "d85818d90ab388b7a65d0ba2db3e78db", "is_disabled": 0, "rental_uris": {"android": "https://dc.lft.to/lastmile_qr_scan", "ios": "https://dc.lft.to/lastmile_qr_scan"}, "fusion_lon": 0.0, "lat": 38.920552666666666, "bike_id": "d85818d90ab388b7a65d0ba2db3e78db", "type": "electric_scooter", "is_reserved": 0, "lon": -77.02538916666667}, {"fusion_lat": 0.0, "name": "d9d5327eeae66f55044840cd167e63ee", "is_disabled": 0, "rental_uris": {"android": "https://dc.lft.to/lastmile_qr_scan", "ios": "https://dc.lft.to/lastmile_qr_scan"}, "fusion_lon": 0.0, "lat": 38.92975966666667, "bike_id": "d9d5327eeae66f55044840cd167e63ee", "type": "electric_scooter", "is_reserved": 0, "lon": -77.0282035}, {"fusion_lat": 0.0, "name": "9ddc432f7a3c88f4b994746aeccb7ba7", "is_disabled": 0, "rental_uris": {"android": "https://dc.lft.to/lastmile_qr_scan", "ios": "https://dc.lft.to/lastmile_qr_scan"}, "fusion_lon": 0.0, "lat": 38.90061816666667, "bike_id": "9ddc432f7a3c88f4b994746aeccb7ba7", "type": "electric_scooter", "is_reserved": 0, "lon": -76.9338755}, {"fusion_lat": 0.0, "name": "c9fd096e61a6241b3ab43e5015843e27", "is_disabled": 0, "rental_uris": {"android": "https://dc.lft.to/lastmile_qr_scan", "ios": "https://dc.lft.to/lastmile_qr_scan"}, "fusion_lon": 0.0, "lat": 38.925301166666664, "bike_id": "c9fd096e61a6241b3ab43e5015843e27", "type": "electric_scooter", "is_reserved": 0, "lon": -77.05587333333334}, {"fusion_lat": 0.0, "name": "fd071ab93c996e43ce9ea5ae1d1071a3", "is_disabled": 0, "rental_uris": {"android": "https://dc.lft.to/lastmile_qr_scan", "ios": "https://dc.lft.to/lastmile_qr_scan"}, "fusion_lon": 0.0, "lat": 38.93545666666667, "bike_id": "fd071ab93c996e43ce9ea5ae1d1071a3", "type": "electric_scooter", "is_reserved": 0, "lon": -77.03269066666667}, {"fusion_lat": 0.0, "name": "b3d47f8255ba85eefa56d290137cf0c5", "is_disabled": 0, "rental_uris": {"android": "https://dc.lft.to/lastmile_qr_scan", "ios": "https://dc.lft.to/lastmile_qr_scan"}, "fusion_lon": 0.0, "lat": 38.93895933333334, "bike_id": "b3d47f8255ba85eefa56d290137cf0c5", "type": "electric_scooter", "is_reserved": 0, "lon": -77.0248555}, {"fusion_lat": 0.0, "name": "febf9fc549310703fcafff8e8d6374c6", "is_disabled": 0, "rental_uris": {"android": "https://dc.lft.to/lastmile_qr_scan", "ios": "https://dc.lft.to/lastmile_qr_scan"}, "fusion_lon": 0.0, "lat": 38.919149166666664, "bike_id": "febf9fc549310703fcafff8e8d6374c6", "type": "electric_scooter", "is_reserved": 0, "lon": -77.03583183333333}, {"fusion_lat": 0.0, "name": "1a31dd07d4c657309be8953b23c7d447", "is_disabled": 0, "rental_uris": {"android": "https://dc.lft.to/lastmile_qr_scan", "ios": "https://dc.lft.to/lastmile_qr_scan"}, "fusion_lon": 0.0, "lat": 38.90003383333333, "bike_id": "1a31dd07d4c657309be8953b23c7d447", "type": "electric_scooter", "is_reserved": 0, "lon": -77.03946433333333}, {"fusion_lat": 0.0, "name": "7315b7524f46b4cde36d86db616cc1f8", "is_disabled": 0, "rental_uris": {"android": "https://dc.lft.to/lastmile_qr_scan", "ios": "https://dc.lft.to/lastmile_qr_scan"}, "fusion_lon": 0.0, "lat": 38.845082166666664, "bike_id": "7315b7524f46b4cde36d86db616cc1f8", "type": "electric_bike", "is_reserved": 0, "lon": -76.99354266666667}, {"fusion_lat": 0.0, "name": "0193892a5b3ec467ae2c1374fa63d4b2", "is_disabled": 0, "rental_uris": {"android": "https://dc.lft.to/lastmile_qr_scan", "ios": "https://dc.lft.to/lastmile_qr_scan"}, "fusion_lon": 0.0, "lat": 38.8961045, "bike_id": "0193892a5b3ec467ae2c1374fa63d4b2", "type": "electric_scooter", "is_reserved": 0, "lon": -77.044838}, {"fusion_lat": 0.0, "name": "99fcf0064de05dab4bdac033cfcf2258", "is_disabled": 0, "rental_uris": {"android": "https://dc.lft.to/lastmile_qr_scan", "ios": "https://dc.lft.to/lastmile_qr_scan"}, "fusion_lon": 0.0, "lat": 38.912864, "bike_id": "99fcf0064de05dab4bdac033cfcf2258", "type": "electric_scooter", "is_reserved": 0, "lon": -77.04749983333333}, {"fusion_lat": 0.0, "name": "faa1d347fe03c7001a725cb22a540b84", "is_disabled": 0, "rental_uris": {"android": "https://dc.lft.to/lastmile_qr_scan", "ios": "https://dc.lft.to/lastmile_qr_scan"}, "fusion_lon": 0.0, "lat": 38.903729166666665, "bike_id": "faa1d347fe03c7001a725cb22a540b84", "type": "electric_scooter", "is_reserved": 0, "lon": -77.0321655}, {"fusion_lat": 0.0, "name": "3b2d3690bfcb89d8f8d22d21ae6339c9", "is_disabled": 0, "rental_uris": {"android": "https://dc.lft.to/lastmile_qr_scan", "ios": "https://dc.lft.to/lastmile_qr_scan"}, "fusion_lon": 0.0, "lat": 38.85775433333333, "bike_id": "3b2d3690bfcb89d8f8d22d21ae6339c9", "type": "electric_scooter", "is_reserved": 0, "lon": -76.97299083333333}, {"fusion_lat": 0.0, "name": "57701c566c88d49c7f110cd0177814af", "is_disabled": 0, "rental_uris": {"android": "https://dc.lft.to/lastmile_qr_scan", "ios": "https://dc.lft.to/lastmile_qr_scan"}, "fusion_lon": 0.0, "lat": 38.903897, "bike_id": "57701c566c88d49c7f110cd0177814af", "type": "electric_scooter", "is_reserved": 0, "lon": -77.06142333333334}, {"fusion_lat": 0.0, "name": "4de12c00b04bbd1cc0fb52822f46317c", "is_disabled": 0, "rental_uris": {"android": "https://dc.lft.to/lastmile_qr_scan", "ios": "https://dc.lft.to/lastmile_qr_scan"}, "fusion_lon": 0.0, "lat": 38.91764766666667, "bike_id": "4de12c00b04bbd1cc0fb52822f46317c", "type": "electric_scooter", "is_reserved": 0, "lon": -77.023116}, {"fusion_lat": 0.0, "name": "3758837226ea981d1b155f131918bbb0", "is_disabled": 0, "rental_uris": {"android": "https://dc.lft.to/lastmile_qr_scan", "ios": "https://dc.lft.to/lastmile_qr_scan"}, "fusion_lon": 0.0, "lat": 38.9250215, "bike_id": "3758837226ea981d1b155f131918bbb0", "type": "electric_scooter", "is_reserved": 0, "lon": -77.0381175}, {"fusion_lat": 0.0, "name": "9765106bd443c67ac462d6d6a7b1357d", "is_disabled": 0, "rental_uris": {"android": "https://dc.lft.to/lastmile_qr_scan", "ios": "https://dc.lft.to/lastmile_qr_scan"}, "fusion_lon": 0.0, "lat": 38.93485833333333, "bike_id": "9765106bd443c67ac462d6d6a7b1357d", "type": "electric_scooter", "is_reserved": 0, "lon": -77.03079983333333}, {"fusion_lat": 0.0, "name": "5c985c4caa5210c8f967fd8c4cb719b1", "is_disabled": 0, "rental_uris": {"android": "https://dc.lft.to/lastmile_qr_scan", "ios": "https://dc.lft.to/lastmile_qr_scan"}, "fusion_lon": 0.0, "lat": 38.904621666666664, "bike_id": "5c985c4caa5210c8f967fd8c4cb719b1", "type": "electric_scooter", "is_reserved": 0, "lon": -76.98531883333334}, {"fusion_lat": 0.0, "name": "46ca217e6c629a854a4df5baf93fe3a3", "is_disabled": 0, "rental_uris": {"android": "https://dc.lft.to/lastmile_qr_scan", "ios": "https://dc.lft.to/lastmile_qr_scan"}, "fusion_lon": 0.0, "lat": 38.88480333333333, "bike_id": "46ca217e6c629a854a4df5baf93fe3a3", "type": "electric_scooter", "is_reserved": 0, "lon": -77.00601566666667}, {"fusion_lat": 0.0, "name": "0df79fd5a5998dcfeeb815eb5115bf4b", "is_disabled": 0, "rental_uris": {"android": "https://dc.lft.to/lastmile_qr_scan", "ios": "https://dc.lft.to/lastmile_qr_scan"}, "fusion_lon": 0.0, "lat": 38.88895633333333, "bike_id": "0df79fd5a5998dcfeeb815eb5115bf4b", "type": "electric_bike", "is_reserved": 0, "lon": -77.1152965}, {"fusion_lat": 0.0, "name": "c674968ca0aca29422487de69b05bfde", "is_disabled": 0, "rental_uris": {"android": "https://dc.lft.to/lastmile_qr_scan", "ios": "https://dc.lft.to/lastmile_qr_scan"}, "fusion_lon": 0.0, "lat": 38.8876665, "bike_id": "c674968ca0aca29422487de69b05bfde", "type": "electric_scooter", "is_reserved": 0, "lon": -76.98351033333333}, {"fusion_lat": 0.0, "name": "22c91b1821ac055856d3991eafe6c6b0", "is_disabled": 0, "rental_uris": {"android": "https://dc.lft.to/lastmile_qr_scan", "ios": "https://dc.lft.to/lastmile_qr_scan"}, "fusion_lon": 0.0, "lat": 38.8806545, "bike_id": "22c91b1821ac055856d3991eafe6c6b0", "type": "electric_scooter", "is_reserved": 0, "lon": -76.93220266666667}, {"fusion_lat": 0.0, "name": "7c97db59567f0142208c927468c23d67", "is_disabled": 0, "rental_uris": {"android": "https://dc.lft.to/lastmile_qr_scan", "ios": "https://dc.lft.to/lastmile_qr_scan"}, "fusion_lon": 0.0, "lat": 38.90880466666667, "bike_id": "7c97db59567f0142208c927468c23d67", "type": "electric_scooter", "is_reserved": 0, "lon": -77.03470933333334}, {"fusion_lat": 0.0, "name": "cacb76ef2a37a8a4b62410e80d343286", "is_disabled": 0, "rental_uris": {"android": "https://dc.lft.to/lastmile_qr_scan", "ios": "https://dc.lft.to/lastmile_qr_scan"}, "fusion_lon": 0.0, "lat": 38.89837433333334, "bike_id": "cacb76ef2a37a8a4b62410e80d343286", "type": "electric_scooter", "is_reserved": 0, "lon": -77.03324683333334}, {"fusion_lat": 0.0, "name": "d77ae72ba7ba478d0e1f2e504ca7b5ba", "is_disabled": 0, "rental_uris": {"android": "https://dc.lft.to/lastmile_qr_scan", "ios": "https://dc.lft.to/lastmile_qr_scan"}, "fusion_lon": 0.0, "lat": 38.9095645, "bike_id": "d77ae72ba7ba478d0e1f2e504ca7b5ba", "type": "electric_bike", "is_reserved": 0, "lon": -77.22890233333334}, {"fusion_lat": 0.0, "name": "1b60a9d17ba6138d29e3e2c5e97f2d0a", "is_disabled": 0, "rental_uris": {"android": "https://dc.lft.to/lastmile_qr_scan", "ios": "https://dc.lft.to/lastmile_qr_scan"}, "fusion_lon": 0.0, "lat": 38.9171305, "bike_id": "1b60a9d17ba6138d29e3e2c5e97f2d0a", "type": "electric_scooter", "is_reserved": 0, "lon": -77.03662716666666}, {"fusion_lat": 0.0, "name": "ec7808b75832c50129df39f8a4688485", "is_disabled": 0, "rental_uris": {"android": "https://dc.lft.to/lastmile_qr_scan", "ios": "https://dc.lft.to/lastmile_qr_scan"}, "fusion_lon": 0.0, "lat": 38.92558566666666, "bike_id": "ec7808b75832c50129df39f8a4688485", "type": "electric_scooter", "is_reserved": 0, "lon": -77.02289016666667}, {"fusion_lat": 0.0, "name": "63fd6d70efc7f0a301125b3e49cd2a5d", "is_disabled": 0, "rental_uris": {"android": "https://dc.lft.to/lastmile_qr_scan", "ios": "https://dc.lft.to/lastmile_qr_scan"}, "fusion_lon": 0.0, "lat": 38.91732283333333, "bike_id": "63fd6d70efc7f0a301125b3e49cd2a5d", "type": "electric_scooter", "is_reserved": 0, "lon": -77.029624}, {"fusion_lat": 0.0, "name": "374978476c998a8a12f49cff219e5898", "is_disabled": 0, "rental_uris": {"android": "https://dc.lft.to/lastmile_qr_scan", "ios": "https://dc.lft.to/lastmile_qr_scan"}, "fusion_lon": 0.0, "lat": 38.879615666666666, "bike_id": "374978476c998a8a12f49cff219e5898", "type": "electric_scooter", "is_reserved": 0, "lon": -77.00598266666667}, {"fusion_lat": 0.0, "name": "0b1287106b2b83263487c7aa390bb039", "is_disabled": 0, "rental_uris": {"android": "https://dc.lft.to/lastmile_qr_scan", "ios": "https://dc.lft.to/lastmile_qr_scan"}, "fusion_lon": 0.0, "lat": 38.9324885, "bike_id": "0b1287106b2b83263487c7aa390bb039", "type": "electric_scooter", "is_reserved": 0, "lon": -77.03279333333333}, {"fusion_lat": 0.0, "name": "2aad69c0073a5d86a47be375769a3377", "is_disabled": 0, "rental_uris": {"android": "https://dc.lft.to/lastmile_qr_scan", "ios": "https://dc.lft.to/lastmile_qr_scan"}, "fusion_lon": 0.0, "lat": 38.92555933333333, "bike_id": "2aad69c0073a5d86a47be375769a3377", "type": "electric_scooter", "is_reserved": 0, "lon": -76.98303516666667}, {"fusion_lat": 0.0, "name": "f75e8acc8078f6774fc6c1a00035b780", "is_disabled": 0, "rental_uris": {"android": "https://dc.lft.to/lastmile_qr_scan", "ios": "https://dc.lft.to/lastmile_qr_scan"}, "fusion_lon": 0.0, "lat": 38.90194316666667, "bike_id": "f75e8acc8078f6774fc6c1a00035b780", "type": "electric_scooter", "is_reserved": 0, "lon": -77.01602933333334}, {"fusion_lat": 0.0, "name": "b42a1a4b54d27989c7234161a81aa79f", "is_disabled": 0, "rental_uris": {"android": "https://dc.lft.to/lastmile_qr_scan", "ios": "https://dc.lft.to/lastmile_qr_scan"}, "fusion_lon": 0.0, "lat": 38.92672966666667, "bike_id": "b42a1a4b54d27989c7234161a81aa79f", "type": "electric_scooter", "is_reserved": 0, "lon": -77.03144816666666}, {"fusion_lat": 0.0, "name": "acf4b573145d2f0669f746ecf76d9238", "is_disabled": 0, "rental_uris": {"android": "https://dc.lft.to/lastmile_qr_scan", "ios": "https://dc.lft.to/lastmile_qr_scan"}, "fusion_lon": 0.0, "lat": 38.9167115, "bike_id": "acf4b573145d2f0669f746ecf76d9238", "type": "electric_scooter", "is_reserved": 0, "lon": -77.03861483333333}, {"fusion_lat": 0.0, "name": "e1ac98d2fae95197220303a1452bed87", "is_disabled": 0, "rental_uris": {"android": "https://dc.lft.to/lastmile_qr_scan", "ios": "https://dc.lft.to/lastmile_qr_scan"}, "fusion_lon": 0.0, "lat": 38.90685116666667, "bike_id": "e1ac98d2fae95197220303a1452bed87", "type": "electric_scooter", "is_reserved": 0, "lon": -77.07479366666666}, {"fusion_lat": 0.0, "name": "7ec638ef273de2ce8194cb4d91fe1e69", "is_disabled": 0, "rental_uris": {"android": "https://dc.lft.to/lastmile_qr_scan", "ios": "https://dc.lft.to/lastmile_qr_scan"}, "fusion_lon": 0.0, "lat": 38.941673333333334, "bike_id": "7ec638ef273de2ce8194cb4d91fe1e69", "type": "electric_scooter", "is_reserved": 0, "lon": -77.025192}, {"fusion_lat": 0.0, "name": "40cefa3d9b13b7ce9fd6409576eee4d2", "is_disabled": 0, "rental_uris": {"android": "https://dc.lft.to/lastmile_qr_scan", "ios": "https://dc.lft.to/lastmile_qr_scan"}, "fusion_lon": 0.0, "lat": 38.8935395, "bike_id": "40cefa3d9b13b7ce9fd6409576eee4d2", "type": "electric_scooter", "is_reserved": 0, "lon": -77.0281235}, {"fusion_lat": 0.0, "name": "797e97c808e6bd6e36ecfa7c5a5433a5", "is_disabled": 0, "rental_uris": {"android": "https://dc.lft.to/lastmile_qr_scan", "ios": "https://dc.lft.to/lastmile_qr_scan"}, "fusion_lon": 0.0, "lat": 38.907307333333335, "bike_id": "797e97c808e6bd6e36ecfa7c5a5433a5", "type": "electric_scooter", "is_reserved": 0, "lon": -77.0296985}, {"fusion_lat": 0.0, "name": "2fcd91dd4a5d59a824ad7749e9c24182", "is_disabled": 0, "rental_uris": {"android": "https://dc.lft.to/lastmile_qr_scan", "ios": "https://dc.lft.to/lastmile_qr_scan"}, "fusion_lon": 0.0, "lat": 38.930874333333335, "bike_id": "2fcd91dd4a5d59a824ad7749e9c24182", "type": "electric_scooter", "is_reserved": 0, "lon": -77.02397583333334}, {"fusion_lat": 0.0, "name": "19bb9d7656d2ea1d79c410317b7122d6", "is_disabled": 0, "rental_uris": {"android": "https://dc.lft.to/lastmile_qr_scan", "ios": "https://dc.lft.to/lastmile_qr_scan"}, "fusion_lon": 0.0, "lat": 38.86628983333333, "bike_id": "19bb9d7656d2ea1d79c410317b7122d6", "type": "electric_scooter", "is_reserved": 0, "lon": -76.9830355}, {"fusion_lat": 0.0, "name": "98c78bf33526c1276392d10d9cc5c6ea", "is_disabled": 0, "rental_uris": {"android": "https://dc.lft.to/lastmile_qr_scan", "ios": "https://dc.lft.to/lastmile_qr_scan"}, "fusion_lon": 0.0, "lat": 38.888034833333336, "bike_id": "98c78bf33526c1276392d10d9cc5c6ea", "type": "electric_scooter", "is_reserved": 0, "lon": -76.9835715}, {"fusion_lat": 0.0, "name": "e7cba09389cec6936f2fc7d91561fac4", "is_disabled": 0, "rental_uris": {"android": "https://dc.lft.to/lastmile_qr_scan", "ios": "https://dc.lft.to/lastmile_qr_scan"}, "fusion_lon": 0.0, "lat": 38.93129733333333, "bike_id": "e7cba09389cec6936f2fc7d91561fac4", "type": "electric_scooter", "is_reserved": 0, "lon": -77.02199933333333}, {"fusion_lat": 0.0, "name": "790031254e3bea59d0cd28c8553f7940", "is_disabled": 0, "rental_uris": {"android": "https://dc.lft.to/lastmile_qr_scan", "ios": "https://dc.lft.to/lastmile_qr_scan"}, "fusion_lon": 0.0, "lat": 38.919752, "bike_id": "790031254e3bea59d0cd28c8553f7940", "type": "electric_scooter", "is_reserved": 0, "lon": -77.02389166666667}, {"fusion_lat": 0.0, "name": "e84e76591112091ab6f19461c9499c0a", "is_disabled": 0, "rental_uris": {"android": "https://dc.lft.to/lastmile_qr_scan", "ios": "https://dc.lft.to/lastmile_qr_scan"}, "fusion_lon": 0.0, "lat": 38.905647333333334, "bike_id": "e84e76591112091ab6f19461c9499c0a", "type": "electric_scooter", "is_reserved": 0, "lon": -77.0057365}, {"fusion_lat": 0.0, "name": "942b164ba65843088852f571c9fb4e8b", "is_disabled": 0, "rental_uris": {"android": "https://dc.lft.to/lastmile_qr_scan", "ios": "https://dc.lft.to/lastmile_qr_scan"}, "fusion_lon": 0.0, "lat": 38.913373166666666, "bike_id": "942b164ba65843088852f571c9fb4e8b", "type": "electric_scooter", "is_reserved": 0, "lon": -77.04347133333333}, {"fusion_lat": 0.0, "name": "acebf57a3f96c719c71b894e5cd81788", "is_disabled": 0, "rental_uris": {"android": "https://dc.lft.to/lastmile_qr_scan", "ios": "https://dc.lft.to/lastmile_qr_scan"}, "fusion_lon": 0.0, "lat": 38.899443833333336, "bike_id": "acebf57a3f96c719c71b894e5cd81788", "type": "electric_scooter", "is_reserved": 0, "lon": -77.04052933333334}, {"fusion_lat": 0.0, "name": "c75cb1d07ddd73ca9b39623a86accd27", "is_disabled": 0, "rental_uris": {"android": "https://dc.lft.to/lastmile_qr_scan", "ios": "https://dc.lft.to/lastmile_qr_scan"}, "fusion_lon": 0.0, "lat": 38.892257666666666, "bike_id": "c75cb1d07ddd73ca9b39623a86accd27", "type": "electric_scooter", "is_reserved": 0, "lon": -77.0321925}, {"fusion_lat": 0.0, "name": "fa805847a0fd1b4c02ea07e52e812528", "is_disabled": 0, "rental_uris": {"android": "https://dc.lft.to/lastmile_qr_scan", "ios": "https://dc.lft.to/lastmile_qr_scan"}, "fusion_lon": 0.0, "lat": 38.87637083333333, "bike_id": "fa805847a0fd1b4c02ea07e52e812528", "type": "electric_scooter", "is_reserved": 0, "lon": -77.00952466666666}, {"fusion_lat": 0.0, "name": "132caa5f7b81ed3d3e3baa7c089b3fb0", "is_disabled": 0, "rental_uris": {"android": "https://dc.lft.to/lastmile_qr_scan", "ios": "https://dc.lft.to/lastmile_qr_scan"}, "fusion_lon": 0.0, "lat": 38.915564333333336, "bike_id": "132caa5f7b81ed3d3e3baa7c089b3fb0", "type": "electric_scooter", "is_reserved": 0, "lon": -77.032238}, {"fusion_lat": 0.0, "name": "4b77a2fb0e617811264a293783d0c934", "is_disabled": 0, "rental_uris": {"android": "https://dc.lft.to/lastmile_qr_scan", "ios": "https://dc.lft.to/lastmile_qr_scan"}, "fusion_lon": 0.0, "lat": 38.89741516666667, "bike_id": "4b77a2fb0e617811264a293783d0c934", "type": "electric_scooter", "is_reserved": 0, "lon": -77.031846}, {"fusion_lat": 0.0, "name": "71c6e1e11fcd865bbd324aef26d289e4", "is_disabled": 0, "rental_uris": {"android": "https://dc.lft.to/lastmile_qr_scan", "ios": "https://dc.lft.to/lastmile_qr_scan"}, "fusion_lon": 0.0, "lat": 38.918065666666664, "bike_id": "71c6e1e11fcd865bbd324aef26d289e4", "type": "electric_scooter", "is_reserved": 0, "lon": -77.03340783333333}, {"fusion_lat": 0.0, "name": "afb2df13890a4d045ba785ecfc7c92df", "is_disabled": 0, "rental_uris": {"android": "https://dc.lft.to/lastmile_qr_scan", "ios": "https://dc.lft.to/lastmile_qr_scan"}, "fusion_lon": 0.0, "lat": 38.926081, "bike_id": "afb2df13890a4d045ba785ecfc7c92df", "type": "electric_scooter", "is_reserved": 0, "lon": -77.022187}, {"fusion_lat": 0.0, "name": "fccc1c91e7e66b726536937adb864184", "is_disabled": 0, "rental_uris": {"android": "https://dc.lft.to/lastmile_qr_scan", "ios": "https://dc.lft.to/lastmile_qr_scan"}, "fusion_lon": 0.0, "lat": 38.91146366666667, "bike_id": "fccc1c91e7e66b726536937adb864184", "type": "electric_scooter", "is_reserved": 0, "lon": -77.01072616666667}, {"fusion_lat": 0.0, "name": "a3369cdfd4578bab9f9cfa93760c03db", "is_disabled": 0, "rental_uris": {"android": "https://dc.lft.to/lastmile_qr_scan", "ios": "https://dc.lft.to/lastmile_qr_scan"}, "fusion_lon": 0.0, "lat": 38.91927883333334, "bike_id": "a3369cdfd4578bab9f9cfa93760c03db", "type": "electric_scooter", "is_reserved": 0, "lon": -77.02506916666667}, {"fusion_lat": 0.0, "name": "e97a0b297ba48999acece494c05dde55", "is_disabled": 0, "rental_uris": {"android": "https://dc.lft.to/lastmile_qr_scan", "ios": "https://dc.lft.to/lastmile_qr_scan"}, "fusion_lon": 0.0, "lat": 38.940175833333335, "bike_id": "e97a0b297ba48999acece494c05dde55", "type": "electric_scooter", "is_reserved": 0, "lon": -77.02770083333333}, {"fusion_lat": 0.0, "name": "366a06af96119852f8cadcbb9e840933", "is_disabled": 0, "rental_uris": {"android": "https://dc.lft.to/lastmile_qr_scan", "ios": "https://dc.lft.to/lastmile_qr_scan"}, "fusion_lon": 0.0, "lat": 38.90431066666667, "bike_id": "366a06af96119852f8cadcbb9e840933", "type": "electric_scooter", "is_reserved": 0, "lon": -76.98182483333333}, {"fusion_lat": 0.0, "name": "b3f86c493aa98b618a9be3f6a0fc513f", "is_disabled": 0, "rental_uris": {"android": "https://dc.lft.to/lastmile_qr_scan", "ios": "https://dc.lft.to/lastmile_qr_scan"}, "fusion_lon": 0.0, "lat": 38.904117666666664, "bike_id": "b3f86c493aa98b618a9be3f6a0fc513f", "type": "electric_scooter", "is_reserved": 0, "lon": -76.97332633333333}, {"fusion_lat": 0.0, "name": "c782aa75e1e40210cb836a8484099bd2", "is_disabled": 0, "rental_uris": {"android": "https://dc.lft.to/lastmile_qr_scan", "ios": "https://dc.lft.to/lastmile_qr_scan"}, "fusion_lon": 0.0, "lat": 38.866837333333336, "bike_id": "c782aa75e1e40210cb836a8484099bd2", "type": "electric_scooter", "is_reserved": 0, "lon": -76.98572466666667}, {"fusion_lat": 0.0, "name": "116a1b54f37e5febe428884cb5ce5355", "is_disabled": 0, "rental_uris": {"android": "https://dc.lft.to/lastmile_qr_scan", "ios": "https://dc.lft.to/lastmile_qr_scan"}, "fusion_lon": 0.0, "lat": 38.91992833333333, "bike_id": "116a1b54f37e5febe428884cb5ce5355", "type": "electric_scooter", "is_reserved": 0, "lon": -77.02399416666667}, {"fusion_lat": 0.0, "name": "9fd255df93062c541dc2864cc873868d", "is_disabled": 0, "rental_uris": {"android": "https://dc.lft.to/lastmile_qr_scan", "ios": "https://dc.lft.to/lastmile_qr_scan"}, "fusion_lon": 0.0, "lat": 38.88551566666667, "bike_id": "9fd255df93062c541dc2864cc873868d", "type": "electric_scooter", "is_reserved": 0, "lon": -76.9978235}, {"fusion_lat": 0.0, "name": "7f93da9e875a9a65f3f91a95233e4ab2", "is_disabled": 0, "rental_uris": {"android": "https://dc.lft.to/lastmile_qr_scan", "ios": "https://dc.lft.to/lastmile_qr_scan"}, "fusion_lon": 0.0, "lat": 38.92435233333333, "bike_id": "7f93da9e875a9a65f3f91a95233e4ab2", "type": "electric_scooter", "is_reserved": 0, "lon": -77.00074183333334}, {"fusion_lat": 0.0, "name": "fb6a76c773fc670a89d4f3283aef3856", "is_disabled": 0, "rental_uris": {"android": "https://dc.lft.to/lastmile_qr_scan", "ios": "https://dc.lft.to/lastmile_qr_scan"}, "fusion_lon": 0.0, "lat": 38.91768066666667, "bike_id": "fb6a76c773fc670a89d4f3283aef3856", "type": "electric_scooter", "is_reserved": 0, "lon": -77.02284366666666}, {"fusion_lat": 0.0, "name": "fa6ab0595c134b9b6643519e288d291b", "is_disabled": 0, "rental_uris": {"android": "https://dc.lft.to/lastmile_qr_scan", "ios": "https://dc.lft.to/lastmile_qr_scan"}, "fusion_lon": 0.0, "lat": 38.897191666666664, "bike_id": "fa6ab0595c134b9b6643519e288d291b", "type": "electric_scooter", "is_reserved": 0, "lon": -77.007987}, {"fusion_lat": 0.0, "name": "2334bcf069ac1f4516169754de177e95", "is_disabled": 0, "rental_uris": {"android": "https://dc.lft.to/lastmile_qr_scan", "ios": "https://dc.lft.to/lastmile_qr_scan"}, "fusion_lon": 0.0, "lat": 38.8772085, "bike_id": "2334bcf069ac1f4516169754de177e95", "type": "electric_scooter", "is_reserved": 0, "lon": -77.01763433333333}, {"fusion_lat": 0.0, "name": "968dcc0d5051d583789bbe934a025312", "is_disabled": 0, "rental_uris": {"android": "https://dc.lft.to/lastmile_qr_scan", "ios": "https://dc.lft.to/lastmile_qr_scan"}, "fusion_lon": 0.0, "lat": 38.91810733333333, "bike_id": "968dcc0d5051d583789bbe934a025312", "type": "electric_scooter", "is_reserved": 0, "lon": -77.04596533333333}, {"fusion_lat": 0.0, "name": "62e134b8f76a2e1afef3cffde5550664", "is_disabled": 0, "rental_uris": {"android": "https://dc.lft.to/lastmile_qr_scan", "ios": "https://dc.lft.to/lastmile_qr_scan"}, "fusion_lon": 0.0, "lat": 38.92340466666667, "bike_id": "62e134b8f76a2e1afef3cffde5550664", "type": "electric_scooter", "is_reserved": 0, "lon": -77.0513395}, {"fusion_lat": 0.0, "name": "0d1918895a7306c3dbe3557471017eb4", "is_disabled": 0, "rental_uris": {"android": "https://dc.lft.to/lastmile_qr_scan", "ios": "https://dc.lft.to/lastmile_qr_scan"}, "fusion_lon": 0.0, "lat": 38.90794916666667, "bike_id": "0d1918895a7306c3dbe3557471017eb4", "type": "electric_scooter", "is_reserved": 0, "lon": -77.03855933333334}, {"fusion_lat": 0.0, "name": "f66449d4569bfd655c3bcec7148a0a73", "is_disabled": 0, "rental_uris": {"android": "https://dc.lft.to/lastmile_qr_scan", "ios": "https://dc.lft.to/lastmile_qr_scan"}, "fusion_lon": 0.0, "lat": 38.90108983333333, "bike_id": "f66449d4569bfd655c3bcec7148a0a73", "type": "electric_scooter", "is_reserved": 0, "lon": -77.0499245}, {"fusion_lat": 0.0, "name": "8d831beda5b233589bdee9bcf1a54442", "is_disabled": 0, "rental_uris": {"android": "https://dc.lft.to/lastmile_qr_scan", "ios": "https://dc.lft.to/lastmile_qr_scan"}, "fusion_lon": 0.0, "lat": 38.93190933333333, "bike_id": "8d831beda5b233589bdee9bcf1a54442", "type": "electric_scooter", "is_reserved": 0, "lon": -77.04298533333333}, {"fusion_lat": 0.0, "name": "9d52763ba7df3f9604b0545dfcabcadd", "is_disabled": 0, "rental_uris": {"android": "https://dc.lft.to/lastmile_qr_scan", "ios": "https://dc.lft.to/lastmile_qr_scan"}, "fusion_lon": 0.0, "lat": 38.938602333333336, "bike_id": "9d52763ba7df3f9604b0545dfcabcadd", "type": "electric_scooter", "is_reserved": 0, "lon": -77.0232675}, {"fusion_lat": 0.0, "name": "98bde7817edc28e9295e5c5fc83c5c34", "is_disabled": 0, "rental_uris": {"android": "https://dc.lft.to/lastmile_qr_scan", "ios": "https://dc.lft.to/lastmile_qr_scan"}, "fusion_lon": 0.0, "lat": 38.902931833333334, "bike_id": "98bde7817edc28e9295e5c5fc83c5c34", "type": "electric_scooter", "is_reserved": 0, "lon": -76.97636766666666}, {"fusion_lat": 0.0, "name": "3c0732c5a6c4302e322f9726a1ea63c5", "is_disabled": 0, "rental_uris": {"android": "https://dc.lft.to/lastmile_qr_scan", "ios": "https://dc.lft.to/lastmile_qr_scan"}, "fusion_lon": 0.0, "lat": 38.896186166666666, "bike_id": "3c0732c5a6c4302e322f9726a1ea63c5", "type": "electric_scooter", "is_reserved": 0, "lon": -77.03166633333333}, {"fusion_lat": 0.0, "name": "79cb489be7cd52eb06fb76f25c7b4c7a", "is_disabled": 0, "rental_uris": {"android": "https://dc.lft.to/lastmile_qr_scan", "ios": "https://dc.lft.to/lastmile_qr_scan"}, "fusion_lon": 0.0, "lat": 38.922856333333335, "bike_id": "79cb489be7cd52eb06fb76f25c7b4c7a", "type": "electric_scooter", "is_reserved": 0, "lon": -77.019935}, {"fusion_lat": 0.0, "name": "05f0364e84c3fe7b4b35ccaec3ccbbed", "is_disabled": 0, "rental_uris": {"android": "https://dc.lft.to/lastmile_qr_scan", "ios": "https://dc.lft.to/lastmile_qr_scan"}, "fusion_lon": 0.0, "lat": 38.9415985, "bike_id": "05f0364e84c3fe7b4b35ccaec3ccbbed", "type": "electric_scooter", "is_reserved": 0, "lon": -77.02626283333333}, {"fusion_lat": 0.0, "name": "29edf9fa8b4019981102fc869610432f", "is_disabled": 0, "rental_uris": {"android": "https://dc.lft.to/lastmile_qr_scan", "ios": "https://dc.lft.to/lastmile_qr_scan"}, "fusion_lon": 0.0, "lat": 38.918280333333335, "bike_id": "29edf9fa8b4019981102fc869610432f", "type": "electric_scooter", "is_reserved": 0, "lon": -77.036423}, {"fusion_lat": 0.0, "name": "439afbaf998233064c0800db05edcbc8", "is_disabled": 0, "rental_uris": {"android": "https://dc.lft.to/lastmile_qr_scan", "ios": "https://dc.lft.to/lastmile_qr_scan"}, "fusion_lon": 0.0, "lat": 38.9260125, "bike_id": "439afbaf998233064c0800db05edcbc8", "type": "electric_scooter", "is_reserved": 0, "lon": -77.02159016666667}, {"fusion_lat": 0.0, "name": "b3889e9feb391a4c0def82cde44b351a", "is_disabled": 0, "rental_uris": {"android": "https://dc.lft.to/lastmile_qr_scan", "ios": "https://dc.lft.to/lastmile_qr_scan"}, "fusion_lon": 0.0, "lat": 38.997775833333336, "bike_id": "b3889e9feb391a4c0def82cde44b351a", "type": "electric_bike", "is_reserved": 0, "lon": -77.04716883333333}, {"fusion_lat": 0.0, "name": "0d5ab2f7aba20570589268849647c0e1", "is_disabled": 0, "rental_uris": {"android": "https://dc.lft.to/lastmile_qr_scan", "ios": "https://dc.lft.to/lastmile_qr_scan"}, "fusion_lon": 0.0, "lat": 38.9620385, "bike_id": "0d5ab2f7aba20570589268849647c0e1", "type": "electric_scooter", "is_reserved": 0, "lon": -77.02236516666666}, {"fusion_lat": 0.0, "name": "8b31c948e9e7efc418274973e48349ea", "is_disabled": 0, "rental_uris": {"android": "https://dc.lft.to/lastmile_qr_scan", "ios": "https://dc.lft.to/lastmile_qr_scan"}, "fusion_lon": 0.0, "lat": 38.8841285, "bike_id": "8b31c948e9e7efc418274973e48349ea", "type": "electric_scooter", "is_reserved": 0, "lon": -77.02195983333333}, {"fusion_lat": 0.0, "name": "549e9dbe19dd7fc28920dad306962fe9", "is_disabled": 0, "rental_uris": {"android": "https://dc.lft.to/lastmile_qr_scan", "ios": "https://dc.lft.to/lastmile_qr_scan"}, "fusion_lon": 0.0, "lat": 38.88718216666667, "bike_id": "549e9dbe19dd7fc28920dad306962fe9", "type": "electric_scooter", "is_reserved": 0, "lon": -77.01329316666667}, {"fusion_lat": 0.0, "name": "83215d3c9945d66a639a57b7227281d2", "is_disabled": 0, "rental_uris": {"android": "https://dc.lft.to/lastmile_qr_scan", "ios": "https://dc.lft.to/lastmile_qr_scan"}, "fusion_lon": 0.0, "lat": 38.9338785, "bike_id": "83215d3c9945d66a639a57b7227281d2", "type": "electric_scooter", "is_reserved": 0, "lon": -77.0574175}, {"fusion_lat": 0.0, "name": "4e32ca794b5b74b4506c283112f7833c", "is_disabled": 0, "rental_uris": {"android": "https://dc.lft.to/lastmile_qr_scan", "ios": "https://dc.lft.to/lastmile_qr_scan"}, "fusion_lon": 0.0, "lat": 38.903054166666664, "bike_id": "4e32ca794b5b74b4506c283112f7833c", "type": "electric_bike", "is_reserved": 0, "lon": -76.97653733333334}, {"fusion_lat": 0.0, "name": "776a9ff6350bf8bbb09c8526543e3fad", "is_disabled": 0, "rental_uris": {"android": "https://dc.lft.to/lastmile_qr_scan", "ios": "https://dc.lft.to/lastmile_qr_scan"}, "fusion_lon": 0.0, "lat": 38.86018333333333, "bike_id": "776a9ff6350bf8bbb09c8526543e3fad", "type": "electric_bike", "is_reserved": 0, "lon": -77.12810066666667}, {"fusion_lat": 0.0, "name": "72f63c0dff66a7c4899c1de3ee1ba242", "is_disabled": 0, "rental_uris": {"android": "https://dc.lft.to/lastmile_qr_scan", "ios": "https://dc.lft.to/lastmile_qr_scan"}, "fusion_lon": 0.0, "lat": 38.95630116666667, "bike_id": "72f63c0dff66a7c4899c1de3ee1ba242", "type": "electric_scooter", "is_reserved": 0, "lon": -77.02316966666666}, {"fusion_lat": 0.0, "name": "4097479f24c0ce5ff5060936ab7b5cfc", "is_disabled": 0, "rental_uris": {"android": "https://dc.lft.to/lastmile_qr_scan", "ios": "https://dc.lft.to/lastmile_qr_scan"}, "fusion_lon": 0.0, "lat": 38.89237416666667, "bike_id": "4097479f24c0ce5ff5060936ab7b5cfc", "type": "electric_scooter", "is_reserved": 0, "lon": -77.03176066666667}, {"fusion_lat": 0.0, "name": "5b5d231388500e64c05076b1e3fb4541", "is_disabled": 0, "rental_uris": {"android": "https://dc.lft.to/lastmile_qr_scan", "ios": "https://dc.lft.to/lastmile_qr_scan"}, "fusion_lon": 0.0, "lat": 38.90975233333333, "bike_id": "5b5d231388500e64c05076b1e3fb4541", "type": "electric_scooter", "is_reserved": 0, "lon": -77.021868}, {"fusion_lat": 0.0, "name": "085c5f72fc51533ceed334b28e051601", "is_disabled": 0, "rental_uris": {"android": "https://dc.lft.to/lastmile_qr_scan", "ios": "https://dc.lft.to/lastmile_qr_scan"}, "fusion_lon": 0.0, "lat": 38.880734, "bike_id": "085c5f72fc51533ceed334b28e051601", "type": "electric_scooter", "is_reserved": 0, "lon": -77.02555933333333}, {"fusion_lat": 0.0, "name": "5d94fd33b1e8de6f7516f8ba27eb8f1f", "is_disabled": 0, "rental_uris": {"android": "https://dc.lft.to/lastmile_qr_scan", "ios": "https://dc.lft.to/lastmile_qr_scan"}, "fusion_lon": 0.0, "lat": 38.887697, "bike_id": "5d94fd33b1e8de6f7516f8ba27eb8f1f", "type": "electric_scooter", "is_reserved": 0, "lon": -77.00261266666666}, {"fusion_lat": 0.0, "name": "730516e51bd47f787a0d45ee9be276c2", "is_disabled": 0, "rental_uris": {"android": "https://dc.lft.to/lastmile_qr_scan", "ios": "https://dc.lft.to/lastmile_qr_scan"}, "fusion_lon": 0.0, "lat": 38.9067685, "bike_id": "730516e51bd47f787a0d45ee9be276c2", "type": "electric_scooter", "is_reserved": 0, "lon": -77.0269005}, {"fusion_lat": 0.0, "name": "cb1cc0464eff813ced0421e6b4159e89", "is_disabled": 0, "rental_uris": {"android": "https://dc.lft.to/lastmile_qr_scan", "ios": "https://dc.lft.to/lastmile_qr_scan"}, "fusion_lon": 0.0, "lat": 38.930819166666666, "bike_id": "cb1cc0464eff813ced0421e6b4159e89", "type": "electric_scooter", "is_reserved": 0, "lon": -77.07765716666667}, {"fusion_lat": 0.0, "name": "b2a5b49691da15ec1ca636a7345eb2a5", "is_disabled": 0, "rental_uris": {"android": "https://dc.lft.to/lastmile_qr_scan", "ios": "https://dc.lft.to/lastmile_qr_scan"}, "fusion_lon": 0.0, "lat": 38.90409266666666, "bike_id": "b2a5b49691da15ec1ca636a7345eb2a5", "type": "electric_scooter", "is_reserved": 0, "lon": -76.97333066666667}, {"fusion_lat": 0.0, "name": "98c53721e6a6dbfee32e181f2cb2e99d", "is_disabled": 0, "rental_uris": {"android": "https://dc.lft.to/lastmile_qr_scan", "ios": "https://dc.lft.to/lastmile_qr_scan"}, "fusion_lon": 0.0, "lat": 38.9014435, "bike_id": "98c53721e6a6dbfee32e181f2cb2e99d", "type": "electric_scooter", "is_reserved": 0, "lon": -77.0333295}, {"fusion_lat": 0.0, "name": "b6166bc5fc5df2e665d5786e9c20e834", "is_disabled": 0, "rental_uris": {"android": "https://dc.lft.to/lastmile_qr_scan", "ios": "https://dc.lft.to/lastmile_qr_scan"}, "fusion_lon": 0.0, "lat": 38.90253366666666, "bike_id": "b6166bc5fc5df2e665d5786e9c20e834", "type": "electric_scooter", "is_reserved": 0, "lon": -76.974534}, {"fusion_lat": 0.0, "name": "a44b7c8f7387d8f4a13464b6f737e1dd", "is_disabled": 0, "rental_uris": {"android": "https://dc.lft.to/lastmile_qr_scan", "ios": "https://dc.lft.to/lastmile_qr_scan"}, "fusion_lon": 0.0, "lat": 38.90381266666667, "bike_id": "a44b7c8f7387d8f4a13464b6f737e1dd", "type": "electric_scooter", "is_reserved": 0, "lon": -77.0320885}, {"fusion_lat": 0.0, "name": "11820283e881f8836412fa5bf19762b4", "is_disabled": 0, "rental_uris": {"android": "https://dc.lft.to/lastmile_qr_scan", "ios": "https://dc.lft.to/lastmile_qr_scan"}, "fusion_lon": 0.0, "lat": 38.952347333333336, "bike_id": "11820283e881f8836412fa5bf19762b4", "type": "electric_scooter", "is_reserved": 0, "lon": -76.990047}, {"fusion_lat": 0.0, "name": "593b66b3e3711890bd914fa68163071b", "is_disabled": 0, "rental_uris": {"android": "https://dc.lft.to/lastmile_qr_scan", "ios": "https://dc.lft.to/lastmile_qr_scan"}, "fusion_lon": 0.0, "lat": 38.905122666666664, "bike_id": "593b66b3e3711890bd914fa68163071b", "type": "electric_scooter", "is_reserved": 0, "lon": -77.06875433333333}, {"fusion_lat": 0.0, "name": "28becc6db5c3ccc989bbbf2f67908ff1", "is_disabled": 0, "rental_uris": {"android": "https://dc.lft.to/lastmile_qr_scan", "ios": "https://dc.lft.to/lastmile_qr_scan"}, "fusion_lon": 0.0, "lat": 38.927377, "bike_id": "28becc6db5c3ccc989bbbf2f67908ff1", "type": "electric_scooter", "is_reserved": 0, "lon": -77.03453083333333}, {"fusion_lat": 0.0, "name": "79a52461e622d6fba44bb60d72cfbe6f", "is_disabled": 0, "rental_uris": {"android": "https://dc.lft.to/lastmile_qr_scan", "ios": "https://dc.lft.to/lastmile_qr_scan"}, "fusion_lon": 0.0, "lat": 38.92502966666667, "bike_id": "79a52461e622d6fba44bb60d72cfbe6f", "type": "electric_scooter", "is_reserved": 0, "lon": -77.0214675}, {"fusion_lat": 0.0, "name": "58047042f639605e880aae02f9039e22", "is_disabled": 0, "rental_uris": {"android": "https://dc.lft.to/lastmile_qr_scan", "ios": "https://dc.lft.to/lastmile_qr_scan"}, "fusion_lon": 0.0, "lat": 38.913546333333336, "bike_id": "58047042f639605e880aae02f9039e22", "type": "electric_scooter", "is_reserved": 0, "lon": -77.04875033333333}, {"fusion_lat": 0.0, "name": "927393f9b26b37b39491331bc624b0db", "is_disabled": 0, "rental_uris": {"android": "https://dc.lft.to/lastmile_qr_scan", "ios": "https://dc.lft.to/lastmile_qr_scan"}, "fusion_lon": 0.0, "lat": 38.93389366666667, "bike_id": "927393f9b26b37b39491331bc624b0db", "type": "electric_scooter", "is_reserved": 0, "lon": -77.02672816666667}, {"fusion_lat": 0.0, "name": "00b2bd722fe85c7e4ec98990d8abd740", "is_disabled": 0, "rental_uris": {"android": "https://dc.lft.to/lastmile_qr_scan", "ios": "https://dc.lft.to/lastmile_qr_scan"}, "fusion_lon": 0.0, "lat": 38.89005066666667, "bike_id": "00b2bd722fe85c7e4ec98990d8abd740", "type": "electric_scooter", "is_reserved": 0, "lon": -76.9374435}, {"fusion_lat": 0.0, "name": "de0f93e81b0f0efc7339c6ee8dd0e23f", "is_disabled": 0, "rental_uris": {"android": "https://dc.lft.to/lastmile_qr_scan", "ios": "https://dc.lft.to/lastmile_qr_scan"}, "fusion_lon": 0.0, "lat": 38.912682333333336, "bike_id": "de0f93e81b0f0efc7339c6ee8dd0e23f", "type": "electric_scooter", "is_reserved": 0, "lon": -77.04925466666667}, {"fusion_lat": 0.0, "name": "4d32f6d79e870f8f3f3167261cc3f082", "is_disabled": 0, "rental_uris": {"android": "https://dc.lft.to/lastmile_qr_scan", "ios": "https://dc.lft.to/lastmile_qr_scan"}, "fusion_lon": 0.0, "lat": 38.89860733333333, "bike_id": "4d32f6d79e870f8f3f3167261cc3f082", "type": "electric_scooter", "is_reserved": 0, "lon": -76.946382}, {"fusion_lat": 0.0, "name": "4086a62d671cd80b26cb01c5e731e38d", "is_disabled": 0, "rental_uris": {"android": "https://dc.lft.to/lastmile_qr_scan", "ios": "https://dc.lft.to/lastmile_qr_scan"}, "fusion_lon": 0.0, "lat": 38.928739666666665, "bike_id": "4086a62d671cd80b26cb01c5e731e38d", "type": "electric_scooter", "is_reserved": 0, "lon": -77.019302}, {"fusion_lat": 0.0, "name": "5e747df0e03e90ce059a6d60191f1c71", "is_disabled": 0, "rental_uris": {"android": "https://dc.lft.to/lastmile_qr_scan", "ios": "https://dc.lft.to/lastmile_qr_scan"}, "fusion_lon": 0.0, "lat": 39.05634166666667, "bike_id": "5e747df0e03e90ce059a6d60191f1c71", "type": "electric_bike", "is_reserved": 0, "lon": -77.12529566666667}, {"fusion_lat": 0.0, "name": "22878f8bbcbed4e3f4a8ae3bf7f698af", "is_disabled": 0, "rental_uris": {"android": "https://dc.lft.to/lastmile_qr_scan", "ios": "https://dc.lft.to/lastmile_qr_scan"}, "fusion_lon": 0.0, "lat": 38.9102905, "bike_id": "22878f8bbcbed4e3f4a8ae3bf7f698af", "type": "electric_scooter", "is_reserved": 0, "lon": -77.01514083333333}, {"fusion_lat": 0.0, "name": "abd86921bf733e430cfbfa45128fb22e", "is_disabled": 0, "rental_uris": {"android": "https://dc.lft.to/lastmile_qr_scan", "ios": "https://dc.lft.to/lastmile_qr_scan"}, "fusion_lon": 0.0, "lat": 38.860596, "bike_id": "abd86921bf733e430cfbfa45128fb22e", "type": "electric_scooter", "is_reserved": 0, "lon": -76.98515}, {"fusion_lat": 0.0, "name": "61216c72daa6671229096b1cb097137d", "is_disabled": 0, "rental_uris": {"android": "https://dc.lft.to/lastmile_qr_scan", "ios": "https://dc.lft.to/lastmile_qr_scan"}, "fusion_lon": 0.0, "lat": 38.898648333333334, "bike_id": "61216c72daa6671229096b1cb097137d", "type": "electric_scooter", "is_reserved": 0, "lon": -77.02783866666667}, {"fusion_lat": 0.0, "name": "6daeaca28baa04d6ac7d5fc291a180dc", "is_disabled": 0, "rental_uris": {"android": "https://dc.lft.to/lastmile_qr_scan", "ios": "https://dc.lft.to/lastmile_qr_scan"}, "fusion_lon": 0.0, "lat": 38.904442, "bike_id": "6daeaca28baa04d6ac7d5fc291a180dc", "type": "electric_scooter", "is_reserved": 0, "lon": -77.03359716666667}, {"fusion_lat": 0.0, "name": "3baccb9cc3f4196c1135048ad6294c7e", "is_disabled": 0, "rental_uris": {"android": "https://dc.lft.to/lastmile_qr_scan", "ios": "https://dc.lft.to/lastmile_qr_scan"}, "fusion_lon": 0.0, "lat": 38.93265916666667, "bike_id": "3baccb9cc3f4196c1135048ad6294c7e", "type": "electric_scooter", "is_reserved": 0, "lon": -77.020986}, {"fusion_lat": 0.0, "name": "d341defe707f30ebffa5e12d137433e3", "is_disabled": 0, "rental_uris": {"android": "https://dc.lft.to/lastmile_qr_scan", "ios": "https://dc.lft.to/lastmile_qr_scan"}, "fusion_lon": 0.0, "lat": 38.917121, "bike_id": "d341defe707f30ebffa5e12d137433e3", "type": "electric_scooter", "is_reserved": 0, "lon": -77.03663716666667}, {"fusion_lat": 0.0, "name": "461f2b6f71fbe697502ebe1c34f1f8c3", "is_disabled": 0, "rental_uris": {"android": "https://dc.lft.to/lastmile_qr_scan", "ios": "https://dc.lft.to/lastmile_qr_scan"}, "fusion_lon": 0.0, "lat": 38.884242666666665, "bike_id": "461f2b6f71fbe697502ebe1c34f1f8c3", "type": "electric_scooter", "is_reserved": 0, "lon": -77.02563583333334}, {"fusion_lat": 0.0, "name": "82df3a2f685246d2082fbd6ae7b533fc", "is_disabled": 0, "rental_uris": {"android": "https://dc.lft.to/lastmile_qr_scan", "ios": "https://dc.lft.to/lastmile_qr_scan"}, "fusion_lon": 0.0, "lat": 38.9079555, "bike_id": "82df3a2f685246d2082fbd6ae7b533fc", "type": "electric_scooter", "is_reserved": 0, "lon": -77.038258}, {"fusion_lat": 0.0, "name": "20f3dc17565de2d328eec0b5523c73a7", "is_disabled": 0, "rental_uris": {"android": "https://dc.lft.to/lastmile_qr_scan", "ios": "https://dc.lft.to/lastmile_qr_scan"}, "fusion_lon": 0.0, "lat": 38.860610666666666, "bike_id": "20f3dc17565de2d328eec0b5523c73a7", "type": "electric_scooter", "is_reserved": 0, "lon": -76.98500816666666}, {"fusion_lat": 0.0, "name": "8210dd73f7c7a35184303df7d1b0a598", "is_disabled": 0, "rental_uris": {"android": "https://dc.lft.to/lastmile_qr_scan", "ios": "https://dc.lft.to/lastmile_qr_scan"}, "fusion_lon": 0.0, "lat": 38.914303333333336, "bike_id": "8210dd73f7c7a35184303df7d1b0a598", "type": "electric_scooter", "is_reserved": 0, "lon": -77.0642775}, {"fusion_lat": 0.0, "name": "7821188eab96b2753fa93f07d242697c", "is_disabled": 0, "rental_uris": {"android": "https://dc.lft.to/lastmile_qr_scan", "ios": "https://dc.lft.to/lastmile_qr_scan"}, "fusion_lon": 0.0, "lat": 38.903818333333334, "bike_id": "7821188eab96b2753fa93f07d242697c", "type": "electric_scooter", "is_reserved": 0, "lon": -77.0018935}, {"fusion_lat": 0.0, "name": "725270e46457aab28888b3eb3c94584b", "is_disabled": 0, "rental_uris": {"android": "https://dc.lft.to/lastmile_qr_scan", "ios": "https://dc.lft.to/lastmile_qr_scan"}, "fusion_lon": 0.0, "lat": 38.913224666666665, "bike_id": "725270e46457aab28888b3eb3c94584b", "type": "electric_scooter", "is_reserved": 0, "lon": -77.03185516666667}, {"fusion_lat": 0.0, "name": "eeefb9ae9c1670b3ed2ff6024be5d36b", "is_disabled": 0, "rental_uris": {"android": "https://dc.lft.to/lastmile_qr_scan", "ios": "https://dc.lft.to/lastmile_qr_scan"}, "fusion_lon": 0.0, "lat": 38.883972666666665, "bike_id": "eeefb9ae9c1670b3ed2ff6024be5d36b", "type": "electric_scooter", "is_reserved": 0, "lon": -76.98593016666666}, {"fusion_lat": 0.0, "name": "159e049b061d9b95c6f850abb8916924", "is_disabled": 0, "rental_uris": {"android": "https://dc.lft.to/lastmile_qr_scan", "ios": "https://dc.lft.to/lastmile_qr_scan"}, "fusion_lon": 0.0, "lat": 38.89641616666667, "bike_id": "159e049b061d9b95c6f850abb8916924", "type": "electric_scooter", "is_reserved": 0, "lon": -76.9995885}, {"fusion_lat": 0.0, "name": "490c1eaaddf30216ee3f618f93b283bd", "is_disabled": 0, "rental_uris": {"android": "https://dc.lft.to/lastmile_qr_scan", "ios": "https://dc.lft.to/lastmile_qr_scan"}, "fusion_lon": 0.0, "lat": 38.87458216666667, "bike_id": "490c1eaaddf30216ee3f618f93b283bd", "type": "electric_scooter", "is_reserved": 0, "lon": -77.00970683333334}, {"fusion_lat": 0.0, "name": "0013dd4bd3ac0b473f369763ce9b82ee", "is_disabled": 0, "rental_uris": {"android": "https://dc.lft.to/lastmile_qr_scan", "ios": "https://dc.lft.to/lastmile_qr_scan"}, "fusion_lon": 0.0, "lat": 38.878545833333334, "bike_id": "0013dd4bd3ac0b473f369763ce9b82ee", "type": "electric_scooter", "is_reserved": 0, "lon": -77.01308383333334}, {"fusion_lat": 0.0, "name": "5db5aca1fccf988ec78de9085053f1e3", "is_disabled": 0, "rental_uris": {"android": "https://dc.lft.to/lastmile_qr_scan", "ios": "https://dc.lft.to/lastmile_qr_scan"}, "fusion_lon": 0.0, "lat": 38.98506783333333, "bike_id": "5db5aca1fccf988ec78de9085053f1e3", "type": "electric_bike", "is_reserved": 0, "lon": -76.982058}, {"fusion_lat": 0.0, "name": "d179eb68b075c7b13a657ac54d8def0c", "is_disabled": 0, "rental_uris": {"android": "https://dc.lft.to/lastmile_qr_scan", "ios": "https://dc.lft.to/lastmile_qr_scan"}, "fusion_lon": 0.0, "lat": 38.885088833333334, "bike_id": "d179eb68b075c7b13a657ac54d8def0c", "type": "electric_scooter", "is_reserved": 0, "lon": -77.0151525}, {"fusion_lat": 0.0, "name": "a1e1ce071e633c57668f77dff6aea91d", "is_disabled": 0, "rental_uris": {"android": "https://dc.lft.to/lastmile_qr_scan", "ios": "https://dc.lft.to/lastmile_qr_scan"}, "fusion_lon": 0.0, "lat": 38.89745516666667, "bike_id": "a1e1ce071e633c57668f77dff6aea91d", "type": "electric_scooter", "is_reserved": 0, "lon": -77.03218283333334}, {"fusion_lat": 0.0, "name": "c90a16f64c305a996fa9b7c4f0d5ea9b", "is_disabled": 0, "rental_uris": {"android": "https://dc.lft.to/lastmile_qr_scan", "ios": "https://dc.lft.to/lastmile_qr_scan"}, "fusion_lon": 0.0, "lat": 38.92655033333333, "bike_id": "c90a16f64c305a996fa9b7c4f0d5ea9b", "type": "electric_scooter", "is_reserved": 0, "lon": -77.03730633333333}, {"fusion_lat": 0.0, "name": "b17f1ad7e57288a821fd5403139b25a4", "is_disabled": 0, "rental_uris": {"android": "https://dc.lft.to/lastmile_qr_scan", "ios": "https://dc.lft.to/lastmile_qr_scan"}, "fusion_lon": 0.0, "lat": 38.920777, "bike_id": "b17f1ad7e57288a821fd5403139b25a4", "type": "electric_bike", "is_reserved": 0, "lon": -76.98946133333334}, {"fusion_lat": 0.0, "name": "ec7d2215fbc17188159ce10f0017561f", "is_disabled": 0, "rental_uris": {"android": "https://dc.lft.to/lastmile_qr_scan", "ios": "https://dc.lft.to/lastmile_qr_scan"}, "fusion_lon": 0.0, "lat": 38.8987765, "bike_id": "ec7d2215fbc17188159ce10f0017561f", "type": "electric_scooter", "is_reserved": 0, "lon": -76.93187866666666}, {"fusion_lat": 0.0, "name": "f35ef7285764f1e2ae7ff6395469f89b", "is_disabled": 0, "rental_uris": {"android": "https://dc.lft.to/lastmile_qr_scan", "ios": "https://dc.lft.to/lastmile_qr_scan"}, "fusion_lon": 0.0, "lat": 38.880819, "bike_id": "f35ef7285764f1e2ae7ff6395469f89b", "type": "electric_scooter", "is_reserved": 0, "lon": -76.98536083333333}, {"fusion_lat": 0.0, "name": "3ccc4685e62e29af9174f749029d1545", "is_disabled": 0, "rental_uris": {"android": "https://dc.lft.to/lastmile_qr_scan", "ios": "https://dc.lft.to/lastmile_qr_scan"}, "fusion_lon": 0.0, "lat": 38.88232433333334, "bike_id": "3ccc4685e62e29af9174f749029d1545", "type": "electric_scooter", "is_reserved": 0, "lon": -77.02615533333334}, {"fusion_lat": 0.0, "name": "6fa18dfc429cf283114639c0d5128ebb", "is_disabled": 0, "rental_uris": {"android": "https://dc.lft.to/lastmile_qr_scan", "ios": "https://dc.lft.to/lastmile_qr_scan"}, "fusion_lon": 0.0, "lat": 38.924489333333334, "bike_id": "6fa18dfc429cf283114639c0d5128ebb", "type": "electric_scooter", "is_reserved": 0, "lon": -77.04023616666667}, {"fusion_lat": 0.0, "name": "6b8e5d22c69fd840893cfccaa69eee92", "is_disabled": 0, "rental_uris": {"android": "https://dc.lft.to/lastmile_qr_scan", "ios": "https://dc.lft.to/lastmile_qr_scan"}, "fusion_lon": 0.0, "lat": 38.87180033333333, "bike_id": "6b8e5d22c69fd840893cfccaa69eee92", "type": "electric_scooter", "is_reserved": 0, "lon": -77.00616683333334}, {"fusion_lat": 0.0, "name": "9c51b9c6c95ccd66e24bf141718aa332", "is_disabled": 0, "rental_uris": {"android": "https://dc.lft.to/lastmile_qr_scan", "ios": "https://dc.lft.to/lastmile_qr_scan"}, "fusion_lon": 0.0, "lat": 38.930654, "bike_id": "9c51b9c6c95ccd66e24bf141718aa332", "type": "electric_scooter", "is_reserved": 0, "lon": -77.029802}, {"fusion_lat": 0.0, "name": "b0f170439ca32312bad2ef9b99efab50", "is_disabled": 0, "rental_uris": {"android": "https://dc.lft.to/lastmile_qr_scan", "ios": "https://dc.lft.to/lastmile_qr_scan"}, "fusion_lon": 0.0, "lat": 38.917999333333334, "bike_id": "b0f170439ca32312bad2ef9b99efab50", "type": "electric_scooter", "is_reserved": 0, "lon": -77.03455283333334}, {"fusion_lat": 0.0, "name": "8fde2d0e1286c909d4ba869fa3406520", "is_disabled": 0, "rental_uris": {"android": "https://dc.lft.to/lastmile_qr_scan", "ios": "https://dc.lft.to/lastmile_qr_scan"}, "fusion_lon": 0.0, "lat": 38.93179116666667, "bike_id": "8fde2d0e1286c909d4ba869fa3406520", "type": "electric_scooter", "is_reserved": 0, "lon": -77.04292083333333}, {"fusion_lat": 0.0, "name": "70ebea106cc67a0e4292f068f87dca0c", "is_disabled": 0, "rental_uris": {"android": "https://dc.lft.to/lastmile_qr_scan", "ios": "https://dc.lft.to/lastmile_qr_scan"}, "fusion_lon": 0.0, "lat": 38.9171135, "bike_id": "70ebea106cc67a0e4292f068f87dca0c", "type": "electric_scooter", "is_reserved": 0, "lon": -77.04124333333333}, {"fusion_lat": 0.0, "name": "a891a746c9d544b5f5da66f9cda78870", "is_disabled": 0, "rental_uris": {"android": "https://dc.lft.to/lastmile_qr_scan", "ios": "https://dc.lft.to/lastmile_qr_scan"}, "fusion_lon": 0.0, "lat": 38.903151666666666, "bike_id": "a891a746c9d544b5f5da66f9cda78870", "type": "electric_scooter", "is_reserved": 0, "lon": -77.06503316666667}, {"fusion_lat": 0.0, "name": "ed9d9fe4bb74fe50a6c66b6b681e6fe8", "is_disabled": 0, "rental_uris": {"android": "https://dc.lft.to/lastmile_qr_scan", "ios": "https://dc.lft.to/lastmile_qr_scan"}, "fusion_lon": 0.0, "lat": 38.8579695, "bike_id": "ed9d9fe4bb74fe50a6c66b6b681e6fe8", "type": "electric_bike", "is_reserved": 0, "lon": -77.12015666666667}, {"fusion_lat": 0.0, "name": "d1aac5a9be334c025f164998c27b0b62", "is_disabled": 0, "rental_uris": {"android": "https://dc.lft.to/lastmile_qr_scan", "ios": "https://dc.lft.to/lastmile_qr_scan"}, "fusion_lon": 0.0, "lat": 38.91113816666667, "bike_id": "d1aac5a9be334c025f164998c27b0b62", "type": "electric_scooter", "is_reserved": 0, "lon": -77.0217085}, {"fusion_lat": 0.0, "name": "fdf7252aa8e879efd8a4e9bd7a7a72f2", "is_disabled": 0, "rental_uris": {"android": "https://dc.lft.to/lastmile_qr_scan", "ios": "https://dc.lft.to/lastmile_qr_scan"}, "fusion_lon": 0.0, "lat": 38.91664816666667, "bike_id": "fdf7252aa8e879efd8a4e9bd7a7a72f2", "type": "electric_scooter", "is_reserved": 0, "lon": -77.02975316666667}, {"fusion_lat": 0.0, "name": "4b0b518a1ff4115fb4ab96c65a0988aa", "is_disabled": 0, "rental_uris": {"android": "https://dc.lft.to/lastmile_qr_scan", "ios": "https://dc.lft.to/lastmile_qr_scan"}, "fusion_lon": 0.0, "lat": 38.931414833333335, "bike_id": "4b0b518a1ff4115fb4ab96c65a0988aa", "type": "electric_scooter", "is_reserved": 0, "lon": -77.0383435}, {"fusion_lat": 0.0, "name": "711cff5a7fd0c0edf9638b626d9d93b8", "is_disabled": 0, "rental_uris": {"android": "https://dc.lft.to/lastmile_qr_scan", "ios": "https://dc.lft.to/lastmile_qr_scan"}, "fusion_lon": 0.0, "lat": 38.90560833333333, "bike_id": "711cff5a7fd0c0edf9638b626d9d93b8", "type": "electric_scooter", "is_reserved": 0, "lon": -77.01312166666666}, {"fusion_lat": 0.0, "name": "2e0269bd7bab953636d76da0b36a313e", "is_disabled": 0, "rental_uris": {"android": "https://dc.lft.to/lastmile_qr_scan", "ios": "https://dc.lft.to/lastmile_qr_scan"}, "fusion_lon": 0.0, "lat": 38.84283033333333, "bike_id": "2e0269bd7bab953636d76da0b36a313e", "type": "electric_bike", "is_reserved": 0, "lon": -77.04503033333333}, {"fusion_lat": 0.0, "name": "59c5ea351f44a015f2d4652a1d923573", "is_disabled": 0, "rental_uris": {"android": "https://dc.lft.to/lastmile_qr_scan", "ios": "https://dc.lft.to/lastmile_qr_scan"}, "fusion_lon": 0.0, "lat": 38.904084166666664, "bike_id": "59c5ea351f44a015f2d4652a1d923573", "type": "electric_scooter", "is_reserved": 0, "lon": -77.03847716666667}, {"fusion_lat": 0.0, "name": "8746417ff0f0bb87920794f7623d2621", "is_disabled": 0, "rental_uris": {"android": "https://dc.lft.to/lastmile_qr_scan", "ios": "https://dc.lft.to/lastmile_qr_scan"}, "fusion_lon": 0.0, "lat": 38.932587166666664, "bike_id": "8746417ff0f0bb87920794f7623d2621", "type": "electric_bike", "is_reserved": 0, "lon": -77.03266133333334}, {"fusion_lat": 0.0, "name": "67e8d8ad1a48f0ef1f168b8b48a2f35d", "is_disabled": 0, "rental_uris": {"android": "https://dc.lft.to/lastmile_qr_scan", "ios": "https://dc.lft.to/lastmile_qr_scan"}, "fusion_lon": 0.0, "lat": 38.92244866666667, "bike_id": "67e8d8ad1a48f0ef1f168b8b48a2f35d", "type": "electric_scooter", "is_reserved": 0, "lon": -77.04217066666666}, {"fusion_lat": 0.0, "name": "99e849b75004255867803f2b81d6fd4b", "is_disabled": 0, "rental_uris": {"android": "https://dc.lft.to/lastmile_qr_scan", "ios": "https://dc.lft.to/lastmile_qr_scan"}, "fusion_lon": 0.0, "lat": 38.90050933333333, "bike_id": "99e849b75004255867803f2b81d6fd4b", "type": "electric_scooter", "is_reserved": 0, "lon": -77.00743466666667}, {"fusion_lat": 0.0, "name": "fbdb2c8040a24a557e6d25429f564b33", "is_disabled": 0, "rental_uris": {"android": "https://dc.lft.to/lastmile_qr_scan", "ios": "https://dc.lft.to/lastmile_qr_scan"}, "fusion_lon": 0.0, "lat": 38.89740716666667, "bike_id": "fbdb2c8040a24a557e6d25429f564b33", "type": "electric_scooter", "is_reserved": 0, "lon": -77.04357966666667}, {"fusion_lat": 0.0, "name": "a3cf70d63176c9cbce0d53153c668960", "is_disabled": 0, "rental_uris": {"android": "https://dc.lft.to/lastmile_qr_scan", "ios": "https://dc.lft.to/lastmile_qr_scan"}, "fusion_lon": 0.0, "lat": 38.931318, "bike_id": "a3cf70d63176c9cbce0d53153c668960", "type": "electric_scooter", "is_reserved": 0, "lon": -77.03849716666667}, {"fusion_lat": 0.0, "name": "e977f9a0769ac0c813904f403eafa108", "is_disabled": 0, "rental_uris": {"android": "https://dc.lft.to/lastmile_qr_scan", "ios": "https://dc.lft.to/lastmile_qr_scan"}, "fusion_lon": 0.0, "lat": 38.92834883333333, "bike_id": "e977f9a0769ac0c813904f403eafa108", "type": "electric_scooter", "is_reserved": 0, "lon": -77.03270433333333}, {"fusion_lat": 0.0, "name": "c46ce8bb056a6861b23a46831239215c", "is_disabled": 0, "rental_uris": {"android": "https://dc.lft.to/lastmile_qr_scan", "ios": "https://dc.lft.to/lastmile_qr_scan"}, "fusion_lon": 0.0, "lat": 38.9346095, "bike_id": "c46ce8bb056a6861b23a46831239215c", "type": "electric_scooter", "is_reserved": 0, "lon": -77.04129316666666}, {"fusion_lat": 0.0, "name": "86bd7987c7da361c7118d6f802ab2051", "is_disabled": 0, "rental_uris": {"android": "https://dc.lft.to/lastmile_qr_scan", "ios": "https://dc.lft.to/lastmile_qr_scan"}, "fusion_lon": 0.0, "lat": 38.935285666666665, "bike_id": "86bd7987c7da361c7118d6f802ab2051", "type": "electric_scooter", "is_reserved": 0, "lon": -77.03659516666667}, {"fusion_lat": 0.0, "name": "a373982352f5a0362ace3ac9d0956ea1", "is_disabled": 0, "rental_uris": {"android": "https://dc.lft.to/lastmile_qr_scan", "ios": "https://dc.lft.to/lastmile_qr_scan"}, "fusion_lon": 0.0, "lat": 38.9000325, "bike_id": "a373982352f5a0362ace3ac9d0956ea1", "type": "electric_scooter", "is_reserved": 0, "lon": -76.93163316666667}, {"fusion_lat": 0.0, "name": "70a72b44449027da4bae70077db43118", "is_disabled": 0, "rental_uris": {"android": "https://dc.lft.to/lastmile_qr_scan", "ios": "https://dc.lft.to/lastmile_qr_scan"}, "fusion_lon": 0.0, "lat": 38.85311933333333, "bike_id": "70a72b44449027da4bae70077db43118", "type": "electric_bike", "is_reserved": 0, "lon": -77.04606483333333}, {"fusion_lat": 0.0, "name": "ba5d76c1d3fd42e8ef344a3dde3b5803", "is_disabled": 0, "rental_uris": {"android": "https://dc.lft.to/lastmile_qr_scan", "ios": "https://dc.lft.to/lastmile_qr_scan"}, "fusion_lon": 0.0, "lat": 38.86682533333333, "bike_id": "ba5d76c1d3fd42e8ef344a3dde3b5803", "type": "electric_scooter", "is_reserved": 0, "lon": -76.98564066666667}, {"fusion_lat": 0.0, "name": "acaf4d1569091df2997d25ee930a6fc1", "is_disabled": 0, "rental_uris": {"android": "https://dc.lft.to/lastmile_qr_scan", "ios": "https://dc.lft.to/lastmile_qr_scan"}, "fusion_lon": 0.0, "lat": 38.900276833333336, "bike_id": "acaf4d1569091df2997d25ee930a6fc1", "type": "electric_scooter", "is_reserved": 0, "lon": -77.01183816666666}, {"fusion_lat": 0.0, "name": "dacbf3f146d6fcd1d312a9784e98780c", "is_disabled": 0, "rental_uris": {"android": "https://dc.lft.to/lastmile_qr_scan", "ios": "https://dc.lft.to/lastmile_qr_scan"}, "fusion_lon": 0.0, "lat": 38.924369166666665, "bike_id": "dacbf3f146d6fcd1d312a9784e98780c", "type": "electric_scooter", "is_reserved": 0, "lon": -77.034083}, {"fusion_lat": 0.0, "name": "bd23bb577b8a203d2163ea5171353403", "is_disabled": 0, "rental_uris": {"android": "https://dc.lft.to/lastmile_qr_scan", "ios": "https://dc.lft.to/lastmile_qr_scan"}, "fusion_lon": 0.0, "lat": 38.9206365, "bike_id": "bd23bb577b8a203d2163ea5171353403", "type": "electric_scooter", "is_reserved": 0, "lon": -77.02384116666667}, {"fusion_lat": 0.0, "name": "6b89b57f74a6158a22f00a6d8f59c10f", "is_disabled": 0, "rental_uris": {"android": "https://dc.lft.to/lastmile_qr_scan", "ios": "https://dc.lft.to/lastmile_qr_scan"}, "fusion_lon": 0.0, "lat": 38.892217, "bike_id": "6b89b57f74a6158a22f00a6d8f59c10f", "type": "electric_scooter", "is_reserved": 0, "lon": -77.03179016666667}, {"fusion_lat": 0.0, "name": "c3f4d465e5d4725830ad2623c9e83795", "is_disabled": 0, "rental_uris": {"android": "https://dc.lft.to/lastmile_qr_scan", "ios": "https://dc.lft.to/lastmile_qr_scan"}, "fusion_lon": 0.0, "lat": 38.90567733333334, "bike_id": "c3f4d465e5d4725830ad2623c9e83795", "type": "electric_scooter", "is_reserved": 0, "lon": -77.02205583333334}, {"fusion_lat": 0.0, "name": "2a19df986eb8036cd575a054bbe7f659", "is_disabled": 0, "rental_uris": {"android": "https://dc.lft.to/lastmile_qr_scan", "ios": "https://dc.lft.to/lastmile_qr_scan"}, "fusion_lon": 0.0, "lat": 38.93260733333334, "bike_id": "2a19df986eb8036cd575a054bbe7f659", "type": "electric_scooter", "is_reserved": 0, "lon": -77.06621}, {"fusion_lat": 0.0, "name": "ca8419069edef8cbbd94ec5810978b68", "is_disabled": 0, "rental_uris": {"android": "https://dc.lft.to/lastmile_qr_scan", "ios": "https://dc.lft.to/lastmile_qr_scan"}, "fusion_lon": 0.0, "lat": 38.89242133333333, "bike_id": "ca8419069edef8cbbd94ec5810978b68", "type": "electric_scooter", "is_reserved": 0, "lon": -77.03350733333333}, {"fusion_lat": 0.0, "name": "6adee14821bfa68cab15c745ba9d2da1", "is_disabled": 0, "rental_uris": {"android": "https://dc.lft.to/lastmile_qr_scan", "ios": "https://dc.lft.to/lastmile_qr_scan"}, "fusion_lon": 0.0, "lat": 38.92285066666667, "bike_id": "6adee14821bfa68cab15c745ba9d2da1", "type": "electric_scooter", "is_reserved": 0, "lon": -77.03665266666667}, {"fusion_lat": 0.0, "name": "212822cf025b0b1382a59745ad20e76f", "is_disabled": 0, "rental_uris": {"android": "https://dc.lft.to/lastmile_qr_scan", "ios": "https://dc.lft.to/lastmile_qr_scan"}, "fusion_lon": 0.0, "lat": 38.9370945, "bike_id": "212822cf025b0b1382a59745ad20e76f", "type": "electric_scooter", "is_reserved": 0, "lon": -77.0610755}, {"fusion_lat": 0.0, "name": "2f3c98652f55603fc82d73b181bce8af", "is_disabled": 0, "rental_uris": {"android": "https://dc.lft.to/lastmile_qr_scan", "ios": "https://dc.lft.to/lastmile_qr_scan"}, "fusion_lon": 0.0, "lat": 38.932604833333336, "bike_id": "2f3c98652f55603fc82d73b181bce8af", "type": "electric_scooter", "is_reserved": 0, "lon": -77.03276466666667}, {"fusion_lat": 0.0, "name": "8a04e651f7e1cc6f34ad5a368dcd3ccb", "is_disabled": 0, "rental_uris": {"android": "https://dc.lft.to/lastmile_qr_scan", "ios": "https://dc.lft.to/lastmile_qr_scan"}, "fusion_lon": 0.0, "lat": 38.93969216666667, "bike_id": "8a04e651f7e1cc6f34ad5a368dcd3ccb", "type": "electric_scooter", "is_reserved": 0, "lon": -77.03255233333333}, {"fusion_lat": 0.0, "name": "c987b6e0650c36c69611ea956706e4bc", "is_disabled": 0, "rental_uris": {"android": "https://dc.lft.to/lastmile_qr_scan", "ios": "https://dc.lft.to/lastmile_qr_scan"}, "fusion_lon": 0.0, "lat": 38.8872015, "bike_id": "c987b6e0650c36c69611ea956706e4bc", "type": "electric_scooter", "is_reserved": 0, "lon": -76.99690316666667}, {"fusion_lat": 0.0, "name": "cad1031964ceff276fc569506472b65f", "is_disabled": 0, "rental_uris": {"android": "https://dc.lft.to/lastmile_qr_scan", "ios": "https://dc.lft.to/lastmile_qr_scan"}, "fusion_lon": 0.0, "lat": 38.89005433333333, "bike_id": "cad1031964ceff276fc569506472b65f", "type": "electric_scooter", "is_reserved": 0, "lon": -76.9374635}, {"fusion_lat": 0.0, "name": "c8e3e1a73726002f5582fdb5d585b928", "is_disabled": 0, "rental_uris": {"android": "https://dc.lft.to/lastmile_qr_scan", "ios": "https://dc.lft.to/lastmile_qr_scan"}, "fusion_lon": 0.0, "lat": 38.89942966666667, "bike_id": "c8e3e1a73726002f5582fdb5d585b928", "type": "electric_scooter", "is_reserved": 0, "lon": -76.98155916666667}, {"fusion_lat": 0.0, "name": "754ffea1de3e7d8404dd75b08a405716", "is_disabled": 0, "rental_uris": {"android": "https://dc.lft.to/lastmile_qr_scan", "ios": "https://dc.lft.to/lastmile_qr_scan"}, "fusion_lon": 0.0, "lat": 38.924359833333334, "bike_id": "754ffea1de3e7d8404dd75b08a405716", "type": "electric_scooter", "is_reserved": 0, "lon": -77.05176083333333}, {"fusion_lat": 0.0, "name": "a06f53ff6bf02aa474491f19500e04f4", "is_disabled": 0, "rental_uris": {"android": "https://dc.lft.to/lastmile_qr_scan", "ios": "https://dc.lft.to/lastmile_qr_scan"}, "fusion_lon": 0.0, "lat": 38.884068166666665, "bike_id": "a06f53ff6bf02aa474491f19500e04f4", "type": "electric_scooter", "is_reserved": 0, "lon": -76.98619783333334}, {"fusion_lat": 0.0, "name": "b2cf72954215ccdc0c07b6f13129d881", "is_disabled": 0, "rental_uris": {"android": "https://dc.lft.to/lastmile_qr_scan", "ios": "https://dc.lft.to/lastmile_qr_scan"}, "fusion_lon": 0.0, "lat": 38.86253766666667, "bike_id": "b2cf72954215ccdc0c07b6f13129d881", "type": "electric_scooter", "is_reserved": 0, "lon": -76.99511866666667}, {"fusion_lat": 0.0, "name": "8a63c673cb5325b337b70cc31775d657", "is_disabled": 0, "rental_uris": {"android": "https://dc.lft.to/lastmile_qr_scan", "ios": "https://dc.lft.to/lastmile_qr_scan"}, "fusion_lon": 0.0, "lat": 38.91771883333333, "bike_id": "8a63c673cb5325b337b70cc31775d657", "type": "electric_scooter", "is_reserved": 0, "lon": -77.01507016666666}, {"fusion_lat": 0.0, "name": "0e1cf029e54fafd193347c309b7e6bb3", "is_disabled": 0, "rental_uris": {"android": "https://dc.lft.to/lastmile_qr_scan", "ios": "https://dc.lft.to/lastmile_qr_scan"}, "fusion_lon": 0.0, "lat": 38.90265733333333, "bike_id": "0e1cf029e54fafd193347c309b7e6bb3", "type": "electric_scooter", "is_reserved": 0, "lon": -77.01775666666667}, {"fusion_lat": 0.0, "name": "13c8dacc30e4a38439c855b684ed4480", "is_disabled": 0, "rental_uris": {"android": "https://dc.lft.to/lastmile_qr_scan", "ios": "https://dc.lft.to/lastmile_qr_scan"}, "fusion_lon": 0.0, "lat": 38.944109166666664, "bike_id": "13c8dacc30e4a38439c855b684ed4480", "type": "electric_scooter", "is_reserved": 0, "lon": -77.03210066666666}, {"fusion_lat": 0.0, "name": "ef1cbc508f95119ef895c9832236604a", "is_disabled": 0, "rental_uris": {"android": "https://dc.lft.to/lastmile_qr_scan", "ios": "https://dc.lft.to/lastmile_qr_scan"}, "fusion_lon": 0.0, "lat": 38.92765766666667, "bike_id": "ef1cbc508f95119ef895c9832236604a", "type": "electric_scooter", "is_reserved": 0, "lon": -77.01620366666667},