{"data": {"bikes": [{"rental_uris": {"ios": "https://dc.lft.to/lastmile_qr_scan", "android": "https://dc.lft.to/lastmile_qr_scan"}, "lon": -77.03936866666666, "type": "electric_scooter", "fusion_lat": 0.0, "lat": 38.898874166666666, "name": "84f64bdc95d90f7353ccd1f075031668", "fusion_lon": 0.0, "bike_id": "84f64bdc95d90f7353ccd1f075031668", "is_disabled": 0, "is_reserved": 0}, {"rental_uris": {"ios": "https://dc.lft.to/lastmile_qr_scan", "android": "https://dc.lft.to/lastmile_qr_scan"}, "lon": -77.06579083333334, "type": "electric_bike", "fusion_lat": 0.0, "lat": 38.91123533333333, "name": "16b756c9f05856c5f23ee1af19b67551", "fusion_lon": 0.0, "bike_id": "16b756c9f05856c5f23ee1af19b67551", "is_disabled": 0, "is_reserved": 0}, {"rental_uris": {"ios": "https://dc.lft.to/lastmile_qr_scan", "android": "https://dc.lft.to/lastmile_qr_scan"}, "lon": -77.0325725, "type": "electric_bike", "fusion_lat": 0.0, "lat": 38.962681333333336, "name": "7a39f5a323dadc98718704161eea974c", "fusion_lon": 0.0, "bike_id": "7a39f5a323dadc98718704161eea974c", "is_disabled": 0, "is_reserved": 0}, {"rental_uris": {"ios": "https://dc.lft.to/lastmile_qr_scan", "android": "https://dc.lft.to/lastmile_qr_scan"}, "lon": -76.95752683333333, "type": "electric_scooter", "fusion_lat": 0.0, "lat": 38.88423983333333, "name": "2cb5bf088dad198ec68f80cb1c74a5ab", "fusion_lon": 0.0, "bike_id": "2cb5bf088dad198ec68f80cb1c74a5ab", "is_disabled": 0, "is_reserved": 0}, {"rental_uris": {"ios": "https://dc.lft.to/lastmile_qr_scan", "android": "https://dc.lft.to/lastmile_qr_scan"}, "lon": -77.0625515, "type": "electric_scooter", "fusion_lat": 0.0, "lat": 38.90751983333333, "name": "e452e59a256c044fb9dc39cd8ce9fae4", "fusion_lon": 0.0, "bike_id": "e452e59a256c044fb9dc39cd8ce9fae4", "is_disabled": 0, "is_reserved": 0}, {"rental_uris": {"ios": "https://dc.lft.to/lastmile_qr_scan", "android": "https://dc.lft.to/lastmile_qr_scan"}, "lon": -77.014018, "type": "electric_scooter", "fusion_lat": 0.0, "lat": 38.89224766666667, "name": "f7cf8c6b369829c7583a8569d32fdca3", "fusion_lon": 0.0, "bike_id": "f7cf8c6b369829c7583a8569d32fdca3", "is_disabled": 0, "is_reserved": 0}, {"rental_uris": {"ios": "https://dc.lft.to/lastmile_qr_scan", "android": "https://dc.lft.to/lastmile_qr_scan"}, "lon": -77.02288966666667, "type": "electric_scooter", "fusion_lat": 0.0, "lat": 38.897071333333336, "name": "e533edf52301fa10ad99eac80eced692", "fusion_lon": 0.0, "bike_id": "e533edf52301fa10ad99eac80eced692", "is_disabled": 0, "is_reserved": 0}, {"rental_uris": {"ios": "https://dc.lft.to/lastmile_qr_scan", "android": "https://dc.lft.to/lastmile_qr_scan"}, "lon": -76.981343, "type": "electric_scooter", "fusion_lat": 0.0, "lat": 38.8571335, "name": "dbd8cdb3c22c0674a578a8dbd09e2ab9", "fusion_lon": 0.0, "bike_id": "dbd8cdb3c22c0674a578a8dbd09e2ab9", "is_disabled": 0, "is_reserved": 0}, {"rental_uris": {"ios": "https://dc.lft.to/lastmile_qr_scan", "android": "https://dc.lft.to/lastmile_qr_scan"}, "lon": -77.05472916666666, "type": "electric_scooter", "fusion_lat": 0.0, "lat": 38.91057833333333, "name": "fff4d2ab38d8a4e40de16ad63e1e5747", "fusion_lon": 0.0, "bike_id": "fff4d2ab38d8a4e40de16ad63e1e5747", "is_disabled": 0, "is_reserved": 0}, {"rental_uris": {"ios": "https://dc.lft.to/lastmile_qr_scan", "android": "https://dc.lft.to/lastmile_qr_scan"}, "lon": -77.05531833333333, "type": "electric_scooter", "fusion_lat": 0.0, "lat": 38.92519266666667, "name": "b71698034bb7d6da1139cf2389642ed4", "fusion_lon": 0.0, "bike_id": "b71698034bb7d6da1139cf2389642ed4", "is_disabled": 0, "is_reserved": 0}, {"rental_uris": {"ios": "https://dc.lft.to/lastmile_qr_scan", "android": "https://dc.lft.to/lastmile_qr_scan"}, "lon": -77.04718783333334, "type": "electric_scooter", "fusion_lat": 0.0, "lat": 38.89958433333334, "name": "f7c347131eb07e6df684bff0dc873cbb", "fusion_lon": 0.0, "bike_id": "f7c347131eb07e6df684bff0dc873cbb", "is_disabled": 0, "is_reserved": 0}, {"rental_uris": {"ios": "https://dc.lft.to/lastmile_qr_scan", "android": "https://dc.lft.to/lastmile_qr_scan"}, "lon": -77.04343116666666, "type": "electric_scooter", "fusion_lat": 0.0, "lat": 38.910462333333335, "name": "9ff510d6af713d2065eb0be4a554ab45", "fusion_lon": 0.0, "bike_id": "9ff510d6af713d2065eb0be4a554ab45", "is_disabled": 0, "is_reserved": 0}, {"rental_uris": {"ios": "https://dc.lft.to/lastmile_qr_scan", "android": "https://dc.lft.to/lastmile_qr_scan"}, "lon": -77.08048833333334, "type": "electric_bike", "fusion_lat": 0.0, "lat": 38.848388, "name": "23776b76fb66afdfe8aa3e67ce423ab5", "fusion_lon": 0.0, "bike_id": "23776b76fb66afdfe8aa3e67ce423ab5", "is_disabled": 0, "is_reserved": 0}, {"rental_uris": {"ios": "https://dc.lft.to/lastmile_qr_scan", "android": "https://dc.lft.to/lastmile_qr_scan"}, "lon": -76.939632, "type": "electric_scooter", "fusion_lat": 0.0, "lat": 38.89960416666667, "name": "69a1a21533fb3a91dff82bab3c18cbbd", "fusion_lon": 0.0, "bike_id": "69a1a21533fb3a91dff82bab3c18cbbd", "is_disabled": 0, "is_reserved": 0}, {"rental_uris": {"ios": "https://dc.lft.to/lastmile_qr_scan", "android": "https://dc.lft.to/lastmile_qr_scan"}, "lon": -77.03564066666667, "type": "electric_scooter", "fusion_lat": 0.0, "lat": 38.939763666666664, "name": "f8249f12a52a88a17539f50abf223e7a", "fusion_lon": 0.0, "bike_id": "f8249f12a52a88a17539f50abf223e7a", "is_disabled": 0, "is_reserved": 0}, {"rental_uris": {"ios": "https://dc.lft.to/lastmile_qr_scan", "android": "https://dc.lft.to/lastmile_qr_scan"}, "lon": -77.11431316666666, "type": "electric_bike", "fusion_lat": 0.0, "lat": 38.85241, "name": "4c8d686c91c35b388201c1335ed95a3d", "fusion_lon": 0.0, "bike_id": "4c8d686c91c35b388201c1335ed95a3d", "is_disabled": 0, "is_reserved": 0}, {"rental_uris": {"ios": "https://dc.lft.to/lastmile_qr_scan", "android": "https://dc.lft.to/lastmile_qr_scan"}, "lon": -76.98418016666666, "type": "electric_scooter", "fusion_lat": 0.0, "lat": 38.91383316666667, "name": "a144418ae64b8d3e798776990a368ed9", "fusion_lon": 0.0, "bike_id": "a144418ae64b8d3e798776990a368ed9", "is_disabled": 0, "is_reserved": 0}, {"rental_uris": {"ios": "https://dc.lft.to/lastmile_qr_scan", "android": "https://dc.lft.to/lastmile_qr_scan"}, "lon": -77.03221466666666, "type": "electric_scooter", "fusion_lat": 0.0, "lat": 38.91184033333333, "name": "3701e1f87606bcd95d04d71f40c387f3", "fusion_lon": 0.0, "bike_id": "3701e1f87606bcd95d04d71f40c387f3", "is_disabled": 0, "is_reserved": 0}, {"rental_uris": {"ios": "https://dc.lft.to/lastmile_qr_scan", "android": "https://dc.lft.to/lastmile_qr_scan"}, "lon": -76.96780183333334, "type": "electric_scooter", "fusion_lat": 0.0, "lat": 38.8614005, "name": "76d625dc6faba6e867e8b56ed83213de", "fusion_lon": 0.0, "bike_id": "76d625dc6faba6e867e8b56ed83213de", "is_disabled": 0, "is_reserved": 0}, {"rental_uris": {"ios": "https://dc.lft.to/lastmile_qr_scan", "android": "https://dc.lft.to/lastmile_qr_scan"}, "lon": -77.0029405, "type": "electric_scooter", "fusion_lat": 0.0, "lat": 38.90893233333333, "name": "fac604996c24cfda4c14e1084041a3dc", "fusion_lon": 0.0, "bike_id": "fac604996c24cfda4c14e1084041a3dc", "is_disabled": 0, "is_reserved": 0}, {"rental_uris": {"ios": "https://dc.lft.to/lastmile_qr_scan", "android": "https://dc.lft.to/lastmile_qr_scan"}, "lon": -77.02111233333333, "type": "electric_scooter", "fusion_lat": 0.0, "lat": 38.922193166666666, "name": "95954881db44f444fa76a059470c8bb3", "fusion_lon": 0.0, "bike_id": "95954881db44f444fa76a059470c8bb3", "is_disabled": 0, "is_reserved": 0}, {"rental_uris": {"ios": "https://dc.lft.to/lastmile_qr_scan", "android": "https://dc.lft.to/lastmile_qr_scan"}, "lon": -77.02832866666667, "type": "electric_scooter", "fusion_lat": 0.0, "lat": 38.9318305, "name": "8df1846068bf3014bbdb27685eb7c165", "fusion_lon": 0.0, "bike_id": "8df1846068bf3014bbdb27685eb7c165", "is_disabled": 0, "is_reserved": 0}, {"rental_uris": {"ios": "https://dc.lft.to/lastmile_qr_scan", "android": "https://dc.lft.to/lastmile_qr_scan"}, "lon": -77.045067, "type": "electric_scooter", "fusion_lat": 0.0, "lat": 38.921433666666665, "name": "fe4406b41812ba24afd3d0307b245735", "fusion_lon": 0.0, "bike_id": "fe4406b41812ba24afd3d0307b245735", "is_disabled": 0, "is_reserved": 0}, {"rental_uris": {"ios": "https://dc.lft.to/lastmile_qr_scan", "android": "https://dc.lft.to/lastmile_qr_scan"}, "lon": -77.03214883333334, "type": "electric_scooter", "fusion_lat": 0.0, "lat": 38.916965166666664, "name": "f3dcc6cefee0be857c4a73e24ca5f6c2", "fusion_lon": 0.0, "bike_id": "f3dcc6cefee0be857c4a73e24ca5f6c2", "is_disabled": 0, "is_reserved": 0}, {"rental_uris": {"ios": "https://dc.lft.to/lastmile_qr_scan", "android": "https://dc.lft.to/lastmile_qr_scan"}, "lon": -77.04452166666667, "type": "electric_scooter", "fusion_lat": 0.0, "lat": 38.91012, "name": "3cddaac730fb0e5fb21892dd3f6d89a6", "fusion_lon": 0.0, "bike_id": "3cddaac730fb0e5fb21892dd3f6d89a6", "is_disabled": 0, "is_reserved": 0}, {"rental_uris": {"ios": "https://dc.lft.to/lastmile_qr_scan", "android": "https://dc.lft.to/lastmile_qr_scan"}, "lon": -77.036801, "type": "electric_scooter", "fusion_lat": 0.0, "lat": 38.917996333333335, "name": "0f2281072d6968468a14b99e5bfa92c7", "fusion_lon": 0.0, "bike_id": "0f2281072d6968468a14b99e5bfa92c7", "is_disabled": 0, "is_reserved": 0}, {"rental_uris": {"ios": "https://dc.lft.to/lastmile_qr_scan", "android": "https://dc.lft.to/lastmile_qr_scan"}, "lon": -77.02486166666667, "type": "electric_scooter", "fusion_lat": 0.0, "lat": 38.938135, "name": "c2611c388b1ad1c4c3c6872feb6fabbb", "fusion_lon": 0.0, "bike_id": "c2611c388b1ad1c4c3c6872feb6fabbb", "is_disabled": 0, "is_reserved": 0}, {"rental_uris": {"ios": "https://dc.lft.to/lastmile_qr_scan", "android": "https://dc.lft.to/lastmile_qr_scan"}, "lon": -77.0433595, "type": "electric_scooter", "fusion_lat": 0.0, "lat": 38.8922665, "name": "6d8131948ea5cacebc297636a0fe5f1f", "fusion_lon": 0.0, "bike_id": "6d8131948ea5cacebc297636a0fe5f1f", "is_disabled": 0, "is_reserved": 0}, {"rental_uris": {"ios": "https://dc.lft.to/lastmile_qr_scan", "android": "https://dc.lft.to/lastmile_qr_scan"}, "lon": -77.03556216666667, "type": "electric_scooter", "fusion_lat": 0.0, "lat": 38.91705833333333, "name": "01ea71ebcdaff8dea9afd69be862d690", "fusion_lon": 0.0, "bike_id": "01ea71ebcdaff8dea9afd69be862d690", "is_disabled": 0, "is_reserved": 0}, {"rental_uris": {"ios": "https://dc.lft.to/lastmile_qr_scan", "android": "https://dc.lft.to/lastmile_qr_scan"}, "lon": -77.01081, "type": "electric_scooter", "fusion_lat": 0.0, "lat": 38.8939765, "name": "f0926784b9d273d43faac7cfd637affb", "fusion_lon": 0.0, "bike_id": "f0926784b9d273d43faac7cfd637affb", "is_disabled": 0, "is_reserved": 0}, {"rental_uris": {"ios": "https://dc.lft.to/lastmile_qr_scan", "android": "https://dc.lft.to/lastmile_qr_scan"}, "lon": -77.00187833333334, "type": "electric_scooter", "fusion_lat": 0.0, "lat": 38.87368166666667, "name": "2c59c97d41bcd0cb23de754d91c7b90c", "fusion_lon": 0.0, "bike_id": "2c59c97d41bcd0cb23de754d91c7b90c", "is_disabled": 0, "is_reserved": 0}, {"rental_uris": {"ios": "https://dc.lft.to/lastmile_qr_scan", "android": "https://dc.lft.to/lastmile_qr_scan"}, "lon": -77.09871733333334, "type": "electric_bike", "fusion_lat": 0.0, "lat": 38.8536775, "name": "55db4bcc495d7d18909c57d6b02fd46d", "fusion_lon": 0.0, "bike_id": "55db4bcc495d7d18909c57d6b02fd46d", "is_disabled": 0, "is_reserved": 0}, {"rental_uris": {"ios": "https://dc.lft.to/lastmile_qr_scan", "android": "https://dc.lft.to/lastmile_qr_scan"}, "lon": -77.04742566666667, "type": "electric_scooter", "fusion_lat": 0.0, "lat": 38.917663166666664, "name": "70848ebe4f85e607bbf618f84f5f2c2d", "fusion_lon": 0.0, "bike_id": "70848ebe4f85e607bbf618f84f5f2c2d", "is_disabled": 0, "is_reserved": 0}, {"rental_uris": {"ios": "https://dc.lft.to/lastmile_qr_scan", "android": "https://dc.lft.to/lastmile_qr_scan"}, "lon": -77.0059415, "type": "electric_scooter", "fusion_lat": 0.0, "lat": 38.9062455, "name": "d175373db67a14e4717a913d2006951a", "fusion_lon": 0.0, "bike_id": "d175373db67a14e4717a913d2006951a", "is_disabled": 0, "is_reserved": 0}, {"rental_uris": {"ios": "https://dc.lft.to/lastmile_qr_scan", "android": "https://dc.lft.to/lastmile_qr_scan"}, "lon": -77.02428283333333, "type": "electric_scooter", "fusion_lat": 0.0, "lat": 38.9055345, "name": "e2382713717a57a19a17f0e888b55d50", "fusion_lon": 0.0, "bike_id": "e2382713717a57a19a17f0e888b55d50", "is_disabled": 0, "is_reserved": 0}, {"rental_uris": {"ios": "https://dc.lft.to/lastmile_qr_scan", "android": "https://dc.lft.to/lastmile_qr_scan"}, "lon": -77.0060795, "type": "electric_scooter", "fusion_lat": 0.0, "lat": 38.9057105, "name": "6e91b03a14e3660385217c0b93b60d17", "fusion_lon": 0.0, "bike_id": "6e91b03a14e3660385217c0b93b60d17", "is_disabled": 0, "is_reserved": 0}, {"rental_uris": {"ios": "https://dc.lft.to/lastmile_qr_scan", "android": "https://dc.lft.to/lastmile_qr_scan"}, "lon": -77.03263516666667, "type": "electric_scooter", "fusion_lat": 0.0, "lat": 38.93656716666667, "name": "59e27ccb09f88aa098d1236ff9ac392d", "fusion_lon": 0.0, "bike_id": "59e27ccb09f88aa098d1236ff9ac392d", "is_disabled": 0, "is_reserved": 0}, {"rental_uris": {"ios": "https://dc.lft.to/lastmile_qr_scan", "android": "https://dc.lft.to/lastmile_qr_scan"}, "lon": -77.06939683333333, "type": "electric_scooter", "fusion_lat": 0.0, "lat": 38.9051365, "name": "25ecea68c326ee93d303604d712d28c4", "fusion_lon": 0.0, "bike_id": "25ecea68c326ee93d303604d712d28c4", "is_disabled": 0, "is_reserved": 0}, {"rental_uris": {"ios": "https://dc.lft.to/lastmile_qr_scan", "android": "https://dc.lft.to/lastmile_qr_scan"}, "lon": -77.0380665, "type": "electric_scooter", "fusion_lat": 0.0, "lat": 38.9126215, "name": "2d78e799b9ea91a6345755f28d90b9ac", "fusion_lon": 0.0, "bike_id": "2d78e799b9ea91a6345755f28d90b9ac", "is_disabled": 0, "is_reserved": 0}, {"rental_uris": {"ios": "https://dc.lft.to/lastmile_qr_scan", "android": "https://dc.lft.to/lastmile_qr_scan"}, "lon": -77.03719783333334, "type": "electric_scooter", "fusion_lat": 0.0, "lat": 38.9517815, "name": "a837fe63387609c42eff699e20b77ae7", "fusion_lon": 0.0, "bike_id": "a837fe63387609c42eff699e20b77ae7", "is_disabled": 0, "is_reserved": 0}, {"rental_uris": {"ios": "https://dc.lft.to/lastmile_qr_scan", "android": "https://dc.lft.to/lastmile_qr_scan"}, "lon": -77.03420416666667, "type": "electric_scooter", "fusion_lat": 0.0, "lat": 38.91908433333333, "name": "b3677dcd7f777fd18deface5c2aab1ab", "fusion_lon": 0.0, "bike_id": "b3677dcd7f777fd18deface5c2aab1ab", "is_disabled": 0, "is_reserved": 0}, {"rental_uris": {"ios": "https://dc.lft.to/lastmile_qr_scan", "android": "https://dc.lft.to/lastmile_qr_scan"}, "lon": -77.04502366666667, "type": "electric_scooter", "fusion_lat": 0.0, "lat": 38.912749833333336, "name": "79cc9c511a0ab17cab06f6a08da71a2a", "fusion_lon": 0.0, "bike_id": "79cc9c511a0ab17cab06f6a08da71a2a", "is_disabled": 0, "is_reserved": 0}, {"rental_uris": {"ios": "https://dc.lft.to/lastmile_qr_scan", "android": "https://dc.lft.to/lastmile_qr_scan"}, "lon": -77.04125783333333, "type": "electric_scooter", "fusion_lat": 0.0, "lat": 38.921532, "name": "e3639b301fef80e87c0961db2ef4bb2f", "fusion_lon": 0.0, "bike_id": "e3639b301fef80e87c0961db2ef4bb2f", "is_disabled": 0, "is_reserved": 0}, {"rental_uris": {"ios": "https://dc.lft.to/lastmile_qr_scan", "android": "https://dc.lft.to/lastmile_qr_scan"}, "lon": -77.03701383333333, "type": "electric_scooter", "fusion_lat": 0.0, "lat": 38.926389666666665, "name": "6b85fbe5675425ab0fd4393226fbe1fc", "fusion_lon": 0.0, "bike_id": "6b85fbe5675425ab0fd4393226fbe1fc", "is_disabled": 0, "is_reserved": 0}, {"rental_uris": {"ios": "https://dc.lft.to/lastmile_qr_scan", "android": "https://dc.lft.to/lastmile_qr_scan"}, "lon": -77.09519466666667, "type": "electric_bike", "fusion_lat": 0.0, "lat": 38.838078, "name": "5298cb8652b60435e450b68f382dcd5b", "fusion_lon": 0.0, "bike_id": "5298cb8652b60435e450b68f382dcd5b", "is_disabled": 0, "is_reserved": 0}, {"rental_uris": {"ios": "https://dc.lft.to/lastmile_qr_scan", "android": "https://dc.lft.to/lastmile_qr_scan"}, "lon": -77.02964666666666, "type": "electric_scooter", "fusion_lat": 0.0, "lat": 38.93027933333333, "name": "78b82a7d4ed372c65c609b50aac8b086", "fusion_lon": 0.0, "bike_id": "78b82a7d4ed372c65c609b50aac8b086", "is_disabled": 0, "is_reserved": 0}, {"rental_uris": {"ios": "https://dc.lft.to/lastmile_qr_scan", "android": "https://dc.lft.to/lastmile_qr_scan"}, "lon": -77.03145383333333, "type": "electric_scooter", "fusion_lat": 0.0, "lat": 38.914143833333334, "name": "e8525a78c760db93a21c97b2336d2631", "fusion_lon": 0.0, "bike_id": "e8525a78c760db93a21c97b2336d2631", "is_disabled": 0, "is_reserved": 0}, {"rental_uris": {"ios": "https://dc.lft.to/lastmile_qr_scan", "android": "https://dc.lft.to/lastmile_qr_scan"}, "lon": -76.9574045, "type": "electric_scooter", "fusion_lat": 0.0, "lat": 38.891787, "name": "dcfa70c967735a8a6d63fd2f339c05e6", "fusion_lon": 0.0, "bike_id": "dcfa70c967735a8a6d63fd2f339c05e6", "is_disabled": 0, "is_reserved": 0}, {"rental_uris": {"ios": "https://dc.lft.to/lastmile_qr_scan", "android": "https://dc.lft.to/lastmile_qr_scan"}, "lon": -77.030401, "type": "electric_scooter", "fusion_lat": 0.0, "lat": 38.897107166666665, "name": "9338758ea55f6969e947dcd0aacd2100", "fusion_lon": 0.0, "bike_id": "9338758ea55f6969e947dcd0aacd2100", "is_disabled": 0, "is_reserved": 0}, {"rental_uris": {"ios": "https://dc.lft.to/lastmile_qr_scan", "android": "https://dc.lft.to/lastmile_qr_scan"}, "lon": -77.035237, "type": "electric_bike", "fusion_lat": 0.0, "lat": 38.965337166666664, "name": "beaa8ee95b65482730fd23de72e89897", "fusion_lon": 0.0, "bike_id": "beaa8ee95b65482730fd23de72e89897", "is_disabled": 0, "is_reserved": 0}, {"rental_uris": {"ios": "https://dc.lft.to/lastmile_qr_scan", "android": "https://dc.lft.to/lastmile_qr_scan"}, "lon": -77.05326116666667, "type": "electric_scooter", "fusion_lat": 0.0, "lat": 38.90311233333333, "name": "47ec749ad97e73c312ce26065b441e39", "fusion_lon": 0.0, "bike_id": "47ec749ad97e73c312ce26065b441e39", "is_disabled": 0, "is_reserved": 0}, {"rental_uris": {"ios": "https://dc.lft.to/lastmile_qr_scan", "android": "https://dc.lft.to/lastmile_qr_scan"}, "lon": -77.0326485, "type": "electric_scooter", "fusion_lat": 0.0, "lat": 38.93899183333333, "name": "88f290bae399675a9ff3d81a550fbdda", "fusion_lon": 0.0, "bike_id": "88f290bae399675a9ff3d81a550fbdda", "is_disabled": 0, "is_reserved": 0}, {"rental_uris": {"ios": "https://dc.lft.to/lastmile_qr_scan", "android": "https://dc.lft.to/lastmile_qr_scan"}, "lon": -76.97882533333333, "type": "electric_scooter", "fusion_lat": 0.0, "lat": 38.884995833333335, "name": "d20fa50dbfed2892bfcbd3685e8fa2de", "fusion_lon": 0.0, "bike_id": "d20fa50dbfed2892bfcbd3685e8fa2de", "is_disabled": 0, "is_reserved": 0}, {"rental_uris": {"ios": "https://dc.lft.to/lastmile_qr_scan", "android": "https://dc.lft.to/lastmile_qr_scan"}, "lon": -77.06522933333333, "type": "electric_bike", "fusion_lat": 0.0, "lat": 38.90446133333333, "name": "1e80b4bb0cd78e8ad54a4dbfb4aeaffe", "fusion_lon": 0.0, "bike_id": "1e80b4bb0cd78e8ad54a4dbfb4aeaffe", "is_disabled": 0, "is_reserved": 0}, {"rental_uris": {"ios": "https://dc.lft.to/lastmile_qr_scan", "android": "https://dc.lft.to/lastmile_qr_scan"}, "lon": -76.986973, "type": "electric_scooter", "fusion_lat": 0.0, "lat": 38.90700566666667, "name": "066b2295a0b1c539eee4067010bf754b", "fusion_lon": 0.0, "bike_id": "066b2295a0b1c539eee4067010bf754b", "is_disabled": 0, "is_reserved": 0}, {"rental_uris": {"ios": "https://dc.lft.to/lastmile_qr_scan", "android": "https://dc.lft.to/lastmile_qr_scan"}, "lon": -77.00205866666667, "type": "electric_bike", "fusion_lat": 0.0, "lat": 38.81934233333333, "name": "3f55fe2d803148fcb3ffa976cc1444e8", "fusion_lon": 0.0, "bike_id": "3f55fe2d803148fcb3ffa976cc1444e8", "is_disabled": 0, "is_reserved": 0}, {"rental_uris": {"ios": "https://dc.lft.to/lastmile_qr_scan", "android": "https://dc.lft.to/lastmile_qr_scan"}, "lon": -77.05276583333334, "type": "electric_scooter", "fusion_lat": 0.0, "lat": 38.92537766666667, "name": "500f51a6f7d6f6f270c852e404e52a64", "fusion_lon": 0.0, "bike_id": "500f51a6f7d6f6f270c852e404e52a64", "is_disabled": 0, "is_reserved": 0}, {"rental_uris": {"ios": "https://dc.lft.to/lastmile_qr_scan", "android": "https://dc.lft.to/lastmile_qr_scan"}, "lon": -77.01093583333333, "type": "electric_scooter", "fusion_lat": 0.0, "lat": 38.89436333333333, "name": "3f0e9490125c62458516754590219fca", "fusion_lon": 0.0, "bike_id": "3f0e9490125c62458516754590219fca", "is_disabled": 0, "is_reserved": 0}, {"rental_uris": {"ios": "https://dc.lft.to/lastmile_qr_scan", "android": "https://dc.lft.to/lastmile_qr_scan"}, "lon": -77.02812133333333, "type": "electric_scooter", "fusion_lat": 0.0, "lat": 38.910374833333336, "name": "94f2a57d30698488f0b26da21f9a82a7", "fusion_lon": 0.0, "bike_id": "94f2a57d30698488f0b26da21f9a82a7", "is_disabled": 0, "is_reserved": 0}, {"rental_uris": {"ios": "https://dc.lft.to/lastmile_qr_scan", "android": "https://dc.lft.to/lastmile_qr_scan"}, "lon": -77.04348966666667, "type": "electric_scooter", "fusion_lat": 0.0, "lat": 38.91448366666667, "name": "73e58a4d23735fdda070d1f4a5f572ab", "fusion_lon": 0.0, "bike_id": "73e58a4d23735fdda070d1f4a5f572ab", "is_disabled": 0, "is_reserved": 0}, {"rental_uris": {"ios": "https://dc.lft.to/lastmile_qr_scan", "android": "https://dc.lft.to/lastmile_qr_scan"}, "lon": -77.01016433333334, "type": "electric_scooter", "fusion_lat": 0.0, "lat": 38.8947715, "name": "ccd4d0c92119d9aa828418681d3d1a68", "fusion_lon": 0.0, "bike_id": "ccd4d0c92119d9aa828418681d3d1a68", "is_disabled": 0, "is_reserved": 0}, {"rental_uris": {"ios": "https://dc.lft.to/lastmile_qr_scan", "android": "https://dc.lft.to/lastmile_qr_scan"}, "lon": -77.04058283333333, "type": "electric_scooter", "fusion_lat": 0.0, "lat": 38.902695666666666, "name": "a738ad112cbfca4d2af36e5fe337320b", "fusion_lon": 0.0, "bike_id": "a738ad112cbfca4d2af36e5fe337320b", "is_disabled": 0, "is_reserved": 0}, {"rental_uris": {"ios": "https://dc.lft.to/lastmile_qr_scan", "android": "https://dc.lft.to/lastmile_qr_scan"}, "lon": -77.0070105, "type": "electric_scooter", "fusion_lat": 0.0, "lat": 38.90025116666666, "name": "f3c0d8f03cccf3946ae0575a523918e3", "fusion_lon": 0.0, "bike_id": "f3c0d8f03cccf3946ae0575a523918e3", "is_disabled": 0, "is_reserved": 0}, {"rental_uris": {"ios": "https://dc.lft.to/lastmile_qr_scan", "android": "https://dc.lft.to/lastmile_qr_scan"}, "lon": -76.96084016666667, "type": "electric_scooter", "fusion_lat": 0.0, "lat": 38.8741405, "name": "cc18af87f0f7c3d67f3a6b11f95d7f14", "fusion_lon": 0.0, "bike_id": "cc18af87f0f7c3d67f3a6b11f95d7f14", "is_disabled": 0, "is_reserved": 0}, {"rental_uris": {"ios": "https://dc.lft.to/lastmile_qr_scan", "android": "https://dc.lft.to/lastmile_qr_scan"}, "lon": -77.02175683333333, "type": "electric_scooter", "fusion_lat": 0.0, "lat": 38.942837833333336, "name": "d457802933e70ea6a66782a07a168589", "fusion_lon": 0.0, "bike_id": "d457802933e70ea6a66782a07a168589", "is_disabled": 0, "is_reserved": 0}, {"rental_uris": {"ios": "https://dc.lft.to/lastmile_qr_scan", "android": "https://dc.lft.to/lastmile_qr_scan"}, "lon": -77.03328083333334, "type": "electric_scooter", "fusion_lat": 0.0, "lat": 38.89912833333333, "name": "a907395247167c738b972144a6d103fc", "fusion_lon": 0.0, "bike_id": "a907395247167c738b972144a6d103fc", "is_disabled": 0, "is_reserved": 0}, {"rental_uris": {"ios": "https://dc.lft.to/lastmile_qr_scan", "android": "https://dc.lft.to/lastmile_qr_scan"}, "lon": -77.03814, "type": "electric_scooter", "fusion_lat": 0.0, "lat": 38.933898166666665, "name": "c1778fac59a3433f3dab82b1bed910c6", "fusion_lon": 0.0, "bike_id": "c1778fac59a3433f3dab82b1bed910c6", "is_disabled": 0, "is_reserved": 0}, {"rental_uris": {"ios": "https://dc.lft.to/lastmile_qr_scan", "android": "https://dc.lft.to/lastmile_qr_scan"}, "lon": -77.067126, "type": "electric_scooter", "fusion_lat": 0.0, "lat": 38.909757166666665, "name": "bc7cfc62d027365bb60a5dbdf4d5816a", "fusion_lon": 0.0, "bike_id": "bc7cfc62d027365bb60a5dbdf4d5816a", "is_disabled": 0, "is_reserved": 0}, {"rental_uris": {"ios": "https://dc.lft.to/lastmile_qr_scan", "android": "https://dc.lft.to/lastmile_qr_scan"}, "lon": -76.9499695, "type": "electric_scooter", "fusion_lat": 0.0, "lat": 38.893675, "name": "78d17e7d502358c43e4189b7ead9d8a0", "fusion_lon": 0.0, "bike_id": "78d17e7d502358c43e4189b7ead9d8a0", "is_disabled": 0, "is_reserved": 0}, {"rental_uris": {"ios": "https://dc.lft.to/lastmile_qr_scan", "android": "https://dc.lft.to/lastmile_qr_scan"}, "lon": -77.03284383333333, "type": "electric_scooter", "fusion_lat": 0.0, "lat": 38.938280166666665, "name": "615c80403ad8fccb54cd1c3f769f6a99", "fusion_lon": 0.0, "bike_id": "615c80403ad8fccb54cd1c3f769f6a99", "is_disabled": 0, "is_reserved": 0}, {"rental_uris": {"ios": "https://dc.lft.to/lastmile_qr_scan", "android": "https://dc.lft.to/lastmile_qr_scan"}, "lon": -77.01986916666667, "type": "electric_scooter", "fusion_lat": 0.0, "lat": 38.90088316666667, "name": "eb12b9f1f93e174e4010a1f865593ba9", "fusion_lon": 0.0, "bike_id": "eb12b9f1f93e174e4010a1f865593ba9", "is_disabled": 0, "is_reserved": 0}, {"rental_uris": {"ios": "https://dc.lft.to/lastmile_qr_scan", "android": "https://dc.lft.to/lastmile_qr_scan"}, "lon": -77.046606, "type": "electric_scooter", "fusion_lat": 0.0, "lat": 38.8972745, "name": "22245e93e6afdc5643ad93ca073000de", "fusion_lon": 0.0, "bike_id": "22245e93e6afdc5643ad93ca073000de", "is_disabled": 0, "is_reserved": 0}, {"rental_uris": {"ios": "https://dc.lft.to/lastmile_qr_scan", "android": "https://dc.lft.to/lastmile_qr_scan"}, "lon": -76.9897605, "type": "electric_scooter", "fusion_lat": 0.0, "lat": 38.859136166666666, "name": "aa08f13d6d5b1d2d6f7dbf36bd4c5b91", "fusion_lon": 0.0, "bike_id": "aa08f13d6d5b1d2d6f7dbf36bd4c5b91", "is_disabled": 0, "is_reserved": 0}, {"rental_uris": {"ios": "https://dc.lft.to/lastmile_qr_scan", "android": "https://dc.lft.to/lastmile_qr_scan"}, "lon": -77.02459316666666, "type": "electric_scooter", "fusion_lat": 0.0, "lat": 38.9238705, "name": "a082e86d2b9ca902f3d6b747113092f0", "fusion_lon": 0.0, "bike_id": "a082e86d2b9ca902f3d6b747113092f0", "is_disabled": 0, "is_reserved": 0}, {"rental_uris": {"ios": "https://dc.lft.to/lastmile_qr_scan", "android": "https://dc.lft.to/lastmile_qr_scan"}, "lon": -77.025384, "type": "electric_scooter", "fusion_lat": 0.0, "lat": 38.886532333333335, "name": "557e61961031bec8de7744fc9f401b1e", "fusion_lon": 0.0, "bike_id": "557e61961031bec8de7744fc9f401b1e", "is_disabled": 0, "is_reserved": 0}, {"rental_uris": {"ios": "https://dc.lft.to/lastmile_qr_scan", "android": "https://dc.lft.to/lastmile_qr_scan"}, "lon": -77.05806933333334, "type": "electric_scooter", "fusion_lat": 0.0, "lat": 38.90291216666667, "name": "f238b68ce2dbdd892471988bf08e60dc", "fusion_lon": 0.0, "bike_id": "f238b68ce2dbdd892471988bf08e60dc", "is_disabled": 0, "is_reserved": 0}, {"rental_uris": {"ios": "https://dc.lft.to/lastmile_qr_scan", "android": "https://dc.lft.to/lastmile_qr_scan"}, "lon": -77.0481465, "type": "electric_scooter", "fusion_lat": 0.0, "lat": 38.8973475, "name": "2c5610b4e8ab6fcbe96adc2a9a335498", "fusion_lon": 0.0, "bike_id": "2c5610b4e8ab6fcbe96adc2a9a335498", "is_disabled": 0, "is_reserved": 0}, {"rental_uris": {"ios": "https://dc.lft.to/lastmile_qr_scan", "android": "https://dc.lft.to/lastmile_qr_scan"}, "lon": -77.00409316666666, "type": "electric_scooter", "fusion_lat": 0.0, "lat": 38.91755666666667, "name": "6eaa3966de0d796d3c2e719ad1c63e08", "fusion_lon": 0.0, "bike_id": "6eaa3966de0d796d3c2e719ad1c63e08", "is_disabled": 0, "is_reserved": 0}, {"rental_uris": {"ios": "https://dc.lft.to/lastmile_qr_scan", "android": "https://dc.lft.to/lastmile_qr_scan"}, "lon": -76.93545683333333, "type": "electric_bike", "fusion_lat": 0.0, "lat": 38.9518105, "name": "4e6674547c89b11bce842c368ffadfc8", "fusion_lon": 0.0, "bike_id": "4e6674547c89b11bce842c368ffadfc8", "is_disabled": 0, "is_reserved": 0}, {"rental_uris": {"ios": "https://dc.lft.to/lastmile_qr_scan", "android": "https://dc.lft.to/lastmile_qr_scan"}, "lon": -76.9733325, "type": "electric_scooter", "fusion_lat": 0.0, "lat": 38.9048025, "name": "cb9c281433ad6ea94efa81531e446863", "fusion_lon": 0.0, "bike_id": "cb9c281433ad6ea94efa81531e446863", "is_disabled": 0, "is_reserved": 0}, {"rental_uris": {"ios": "https://dc.lft.to/lastmile_qr_scan", "android": "https://dc.lft.to/lastmile_qr_scan"}, "lon": -77.03362316666667, "type": "electric_scooter", "fusion_lat": 0.0, "lat": 38.92871616666667, "name": "324e816443cc5a256b8c3281cc3a4125", "fusion_lon": 0.0, "bike_id": "324e816443cc5a256b8c3281cc3a4125", "is_disabled": 0, "is_reserved": 0}, {"rental_uris": {"ios": "https://dc.lft.to/lastmile_qr_scan", "android": "https://dc.lft.to/lastmile_qr_scan"}, "lon": -77.05684883333333, "type": "electric_scooter", "fusion_lat": 0.0, "lat": 38.9370045, "name": "ad59576398359d91e9aa21984c08fd32", "fusion_lon": 0.0, "bike_id": "ad59576398359d91e9aa21984c08fd32", "is_disabled": 0, "is_reserved": 0}, {"rental_uris": {"ios": "https://dc.lft.to/lastmile_qr_scan", "android": "https://dc.lft.to/lastmile_qr_scan"}, "lon": -77.00107966666667, "type": "electric_scooter", "fusion_lat": 0.0, "lat": 38.873172, "name": "06caf400b59b960b445174664d722e45", "fusion_lon": 0.0, "bike_id": "06caf400b59b960b445174664d722e45", "is_disabled": 0, "is_reserved": 0}, {"rental_uris": {"ios": "https://dc.lft.to/lastmile_qr_scan", "android": "https://dc.lft.to/lastmile_qr_scan"}, "lon": -77.0230675, "type": "electric_scooter", "fusion_lat": 0.0, "lat": 38.8955775, "name": "e355f79ba7d14cc762126a4f40b526bf", "fusion_lon": 0.0, "bike_id": "e355f79ba7d14cc762126a4f40b526bf", "is_disabled": 0, "is_reserved": 0}, {"rental_uris": {"ios": "https://dc.lft.to/lastmile_qr_scan", "android": "https://dc.lft.to/lastmile_qr_scan"}, "lon": -77.0955095, "type": "electric_scooter", "fusion_lat": 0.0, "lat": 38.91653433333333, "name": "ee920b9bb7b08db4b24426e286cca8fb", "fusion_lon": 0.0, "bike_id": "ee920b9bb7b08db4b24426e286cca8fb", "is_disabled": 0, "is_reserved": 0}, {"rental_uris": {"ios": "https://dc.lft.to/lastmile_qr_scan", "android": "https://dc.lft.to/lastmile_qr_scan"}, "lon": -76.98565583333334, "type": "electric_scooter", "fusion_lat": 0.0, "lat": 38.899535166666666, "name": "74666fae7955a5bc42c5bf0d0541a585", "fusion_lon": 0.0, "bike_id": "74666fae7955a5bc42c5bf0d0541a585", "is_disabled": 0, "is_reserved": 0}, {"rental_uris": {"ios": "https://dc.lft.to/lastmile_qr_scan", "android": "https://dc.lft.to/lastmile_qr_scan"}, "lon": -76.98589033333333, "type": "electric_scooter", "fusion_lat": 0.0, "lat": 38.906579666666666, "name": "23d55228ab25f5ba728a88bb37a8a8c5", "fusion_lon": 0.0, "bike_id": "23d55228ab25f5ba728a88bb37a8a8c5", "is_disabled": 0, "is_reserved": 0}, {"rental_uris": {"ios": "https://dc.lft.to/lastmile_qr_scan", "android": "https://dc.lft.to/lastmile_qr_scan"}, "lon": -77.0586425, "type": "electric_scooter", "fusion_lat": 0.0, "lat": 38.936058, "name": "73f64f0077bc11815149830be24fde2b", "fusion_lon": 0.0, "bike_id": "73f64f0077bc11815149830be24fde2b", "is_disabled": 0, "is_reserved": 0}, {"rental_uris": {"ios": "https://dc.lft.to/lastmile_qr_scan", "android": "https://dc.lft.to/lastmile_qr_scan"}, "lon": -77.03906733333334, "type": "electric_scooter", "fusion_lat": 0.0, "lat": 38.92466233333333, "name": "12bc8f581a7c6268b5489b1c5a6fd97b", "fusion_lon": 0.0, "bike_id": "12bc8f581a7c6268b5489b1c5a6fd97b", "is_disabled": 0, "is_reserved": 0}, {"rental_uris": {"ios": "https://dc.lft.to/lastmile_qr_scan", "android": "https://dc.lft.to/lastmile_qr_scan"}, "lon": -77.032497, "type": "electric_scooter", "fusion_lat": 0.0, "lat": 38.919938333333334, "name": "85e01c01cb94bd3f0faf2a2dffeca399", "fusion_lon": 0.0, "bike_id": "85e01c01cb94bd3f0faf2a2dffeca399", "is_disabled": 0, "is_reserved": 0}, {"rental_uris": {"ios": "https://dc.lft.to/lastmile_qr_scan", "android": "https://dc.lft.to/lastmile_qr_scan"}, "lon": -77.014215, "type": "electric_scooter", "fusion_lat": 0.0, "lat": 38.9152035, "name": "88e426f47b1ac60ca35622d32e55c686", "fusion_lon": 0.0, "bike_id": "88e426f47b1ac60ca35622d32e55c686", "is_disabled": 0, "is_reserved": 0}, {"rental_uris": {"ios": "https://dc.lft.to/lastmile_qr_scan", "android": "https://dc.lft.to/lastmile_qr_scan"}, "lon": -77.01226016666666, "type": "electric_scooter", "fusion_lat": 0.0, "lat": 38.90970883333333, "name": "583f36286a28ae38e16b95019fc9e682", "fusion_lon": 0.0, "bike_id": "583f36286a28ae38e16b95019fc9e682", "is_disabled": 0, "is_reserved": 0}, {"rental_uris": {"ios": "https://dc.lft.to/lastmile_qr_scan", "android": "https://dc.lft.to/lastmile_qr_scan"}, "lon": -77.0275165, "type": "electric_scooter", "fusion_lat": 0.0, "lat": 38.923787, "name": "73d3eac5e764d05c55ed68ad91cd182f", "fusion_lon": 0.0, "bike_id": "73d3eac5e764d05c55ed68ad91cd182f", "is_disabled": 0, "is_reserved": 0}, {"rental_uris": {"ios": "https://dc.lft.to/lastmile_qr_scan", "android": "https://dc.lft.to/lastmile_qr_scan"}, "lon": -76.98820433333333, "type": "electric_scooter", "fusion_lat": 0.0, "lat": 38.90335116666667, "name": "10a9adbddc74cddaaaa6b2fd1ee334b9", "fusion_lon": 0.0, "bike_id": "10a9adbddc74cddaaaa6b2fd1ee334b9", "is_disabled": 0, "is_reserved": 0}, {"rental_uris": {"ios": "https://dc.lft.to/lastmile_qr_scan", "android": "https://dc.lft.to/lastmile_qr_scan"}, "lon": -77.04190433333333, "type": "electric_scooter", "fusion_lat": 0.0, "lat": 38.91132316666667, "name": "8960fd54f5a928893596614e28317740", "fusion_lon": 0.0, "bike_id": "8960fd54f5a928893596614e28317740", "is_disabled": 0, "is_reserved": 0}, {"rental_uris": {"ios": "https://dc.lft.to/lastmile_qr_scan", "android": "https://dc.lft.to/lastmile_qr_scan"}, "lon": -76.93303166666666, "type": "electric_scooter", "fusion_lat": 0.0, "lat": 38.89894233333333, "name": "aaf91f7a4e4cadb1d84a4779ba8e51ad", "fusion_lon": 0.0, "bike_id": "aaf91f7a4e4cadb1d84a4779ba8e51ad", "is_disabled": 0, "is_reserved": 0}, {"rental_uris": {"ios": "https://dc.lft.to/lastmile_qr_scan", "android": "https://dc.lft.to/lastmile_qr_scan"}, "lon": -77.019944, "type": "electric_scooter", "fusion_lat": 0.0, "lat": 38.90062366666667, "name": "7a43ced32a43065f6f95cf99006e627d", "fusion_lon": 0.0, "bike_id": "7a43ced32a43065f6f95cf99006e627d", "is_disabled": 0, "is_reserved": 0}, {"rental_uris": {"ios": "https://dc.lft.to/lastmile_qr_scan", "android": "https://dc.lft.to/lastmile_qr_scan"}, "lon": -77.02533816666667, "type": "electric_scooter", "fusion_lat": 0.0, "lat": 38.901055666666664, "name": "9d866123ed1a51fb63cbe8976367974a", "fusion_lon": 0.0, "bike_id": "9d866123ed1a51fb63cbe8976367974a", "is_disabled": 0, "is_reserved": 0}, {"rental_uris": {"ios": "https://dc.lft.to/lastmile_qr_scan", "android": "https://dc.lft.to/lastmile_qr_scan"}, "lon": -76.946241, "type": "electric_bike", "fusion_lat": 0.0, "lat": 38.832345833333335, "name": "9dfea8f5c3e7a3beb5b58f0f660f571b", "fusion_lon": 0.0, "bike_id": "9dfea8f5c3e7a3beb5b58f0f660f571b", "is_disabled": 0, "is_reserved": 0}, {"rental_uris": {"ios": "https://dc.lft.to/lastmile_qr_scan", "android": "https://dc.lft.to/lastmile_qr_scan"}, "lon": -77.0382745, "type": "electric_scooter", "fusion_lat": 0.0, "lat": 38.909586833333336, "name": "7783444873d19961ac7cd16e61ea3797", "fusion_lon": 0.0, "bike_id": "7783444873d19961ac7cd16e61ea3797", "is_disabled": 0, "is_reserved": 0}, {"rental_uris": {"ios": "https://dc.lft.to/lastmile_qr_scan", "android": "https://dc.lft.to/lastmile_qr_scan"}, "lon": -77.0436685, "type": "electric_scooter", "fusion_lat": 0.0, "lat": 38.933386166666665, "name": "da2848770d4ac2dc3ed28ca55e0bbb50", "fusion_lon": 0.0, "bike_id": "da2848770d4ac2dc3ed28ca55e0bbb50", "is_disabled": 0, "is_reserved": 0}, {"rental_uris": {"ios": "https://dc.lft.to/lastmile_qr_scan", "android": "https://dc.lft.to/lastmile_qr_scan"}, "lon": -77.02993983333333, "type": "electric_scooter", "fusion_lat": 0.0, "lat": 38.90838566666667, "name": "e7f705f8041f61c164c77befc2a7a381", "fusion_lon": 0.0, "bike_id": "e7f705f8041f61c164c77befc2a7a381", "is_disabled": 0, "is_reserved": 0}, {"rental_uris": {"ios": "https://dc.lft.to/lastmile_qr_scan", "android": "https://dc.lft.to/lastmile_qr_scan"}, "lon": -77.02171383333334, "type": "electric_scooter", "fusion_lat": 0.0, "lat": 38.893948, "name": "aaff612410df69527cb0f2b01c199324", "fusion_lon": 0.0, "bike_id": "aaff612410df69527cb0f2b01c199324", "is_disabled": 0, "is_reserved": 0}, {"rental_uris": {"ios": "https://dc.lft.to/lastmile_qr_scan", "android": "https://dc.lft.to/lastmile_qr_scan"}, "lon": -76.93927383333333, "type": "electric_scooter", "fusion_lat": 0.0, "lat": 38.89292116666667, "name": "95e7d017003cd142bf4b9d2a4d266061", "fusion_lon": 0.0, "bike_id": "95e7d017003cd142bf4b9d2a4d266061", "is_disabled": 0, "is_reserved": 0}, {"rental_uris": {"ios": "https://dc.lft.to/lastmile_qr_scan", "android": "https://dc.lft.to/lastmile_qr_scan"}, "lon": -77.034351, "type": "electric_scooter", "fusion_lat": 0.0, "lat": 38.9180065, "name": "fbe8a203ea6599de0f037e8c84471c6d", "fusion_lon": 0.0, "bike_id": "fbe8a203ea6599de0f037e8c84471c6d", "is_disabled": 0, "is_reserved": 0}, {"rental_uris": {"ios": "https://dc.lft.to/lastmile_qr_scan", "android": "https://dc.lft.to/lastmile_qr_scan"}, "lon": -76.997765, "type": "electric_scooter", "fusion_lat": 0.0, "lat": 38.84421366666667, "name": "41e4875a8a1a365ef533fd16d85dfb77", "fusion_lon": 0.0, "bike_id": "41e4875a8a1a365ef533fd16d85dfb77", "is_disabled": 0, "is_reserved": 0}, {"rental_uris": {"ios": "https://dc.lft.to/lastmile_qr_scan", "android": "https://dc.lft.to/lastmile_qr_scan"}, "lon": -77.04316183333333, "type": "electric_scooter", "fusion_lat": 0.0, "lat": 38.922020333333336, "name": "ded7e131f42c8b65964f6aaf5aaa082e", "fusion_lon": 0.0, "bike_id": "ded7e131f42c8b65964f6aaf5aaa082e", "is_disabled": 0, "is_reserved": 0}, {"rental_uris": {"ios": "https://dc.lft.to/lastmile_qr_scan", "android": "https://dc.lft.to/lastmile_qr_scan"}, "lon": -77.05178033333334, "type": "electric_scooter", "fusion_lat": 0.0, "lat": 38.9242385, "name": "27a1121da95e7e22eac0a8d7c67a21ae", "fusion_lon": 0.0, "bike_id": "27a1121da95e7e22eac0a8d7c67a21ae", "is_disabled": 0, "is_reserved": 0}, {"rental_uris": {"ios": "https://dc.lft.to/lastmile_qr_scan", "android": "https://dc.lft.to/lastmile_qr_scan"}, "lon": -77.02025066666667, "type": "electric_scooter", "fusion_lat": 0.0, "lat": 38.93252366666667, "name": "c416bbbc314f77ae19dc4b7e2482eea8", "fusion_lon": 0.0, "bike_id": "c416bbbc314f77ae19dc4b7e2482eea8", "is_disabled": 0, "is_reserved": 0}, {"rental_uris": {"ios": "https://dc.lft.to/lastmile_qr_scan", "android": "https://dc.lft.to/lastmile_qr_scan"}, "lon": -77.0259175, "type": "electric_scooter", "fusion_lat": 0.0, "lat": 38.89622033333333, "name": "470781a5d4e17bac17719a94f00ab953", "fusion_lon": 0.0, "bike_id": "470781a5d4e17bac17719a94f00ab953", "is_disabled": 0, "is_reserved": 0}, {"rental_uris": {"ios": "https://dc.lft.to/lastmile_qr_scan", "android": "https://dc.lft.to/lastmile_qr_scan"}, "lon": -77.03767066666667, "type": "electric_scooter", "fusion_lat": 0.0, "lat": 38.92469116666667, "name": "fc00209f972d7006ee3597ddedf7a769", "fusion_lon": 0.0, "bike_id": "fc00209f972d7006ee3597ddedf7a769", "is_disabled": 0, "is_reserved": 0}, {"rental_uris": {"ios": "https://dc.lft.to/lastmile_qr_scan", "android": "https://dc.lft.to/lastmile_qr_scan"}, "lon": -77.02469833333333, "type": "electric_scooter", "fusion_lat": 0.0, "lat": 38.9339995, "name": "acf505b9068e782db89b8bbbded7dbf0", "fusion_lon": 0.0, "bike_id": "acf505b9068e782db89b8bbbded7dbf0", "is_disabled": 0, "is_reserved": 0}, {"rental_uris": {"ios": "https://dc.lft.to/lastmile_qr_scan", "android": "https://dc.lft.to/lastmile_qr_scan"}, "lon": -77.027136, "type": "electric_scooter", "fusion_lat": 0.0, "lat": 38.91800516666667, "name": "f3c4e658a150a3d0d9775310f00d3818", "fusion_lon": 0.0, "bike_id": "f3c4e658a150a3d0d9775310f00d3818", "is_disabled": 0, "is_reserved": 0}, {"rental_uris": {"ios": "https://dc.lft.to/lastmile_qr_scan", "android": "https://dc.lft.to/lastmile_qr_scan"}, "lon": -76.98500716666666, "type": "electric_scooter", "fusion_lat": 0.0, "lat": 38.86040666666667, "name": "a536efe344a81bfc208786023c81edff", "fusion_lon": 0.0, "bike_id": "a536efe344a81bfc208786023c81edff", "is_disabled": 0, "is_reserved": 0}, {"rental_uris": {"ios": "https://dc.lft.to/lastmile_qr_scan", "android": "https://dc.lft.to/lastmile_qr_scan"}, "lon": -77.00541766666667, "type": "electric_bike", "fusion_lat": 0.0, "lat": 38.88030883333333, "name": "ae81cbbe8cdc3510c32f50e9ec41b66c", "fusion_lon": 0.0, "bike_id": "ae81cbbe8cdc3510c32f50e9ec41b66c", "is_disabled": 0, "is_reserved": 0}, {"rental_uris": {"ios": "https://dc.lft.to/lastmile_qr_scan", "android": "https://dc.lft.to/lastmile_qr_scan"}, "lon": -76.97324016666667, "type": "electric_bike", "fusion_lat": 0.0, "lat": 38.90320833333333, "name": "bc5412f83ab4396a215b50e89c1eb1ff", "fusion_lon": 0.0, "bike_id": "bc5412f83ab4396a215b50e89c1eb1ff", "is_disabled": 0, "is_reserved": 0}, {"rental_uris": {"ios": "https://dc.lft.to/lastmile_qr_scan", "android": "https://dc.lft.to/lastmile_qr_scan"}, "lon": -77.02718483333334, "type": "electric_scooter", "fusion_lat": 0.0, "lat": 38.918131333333335, "name": "b99f3d39436f3a7db40d1c21bf9f15f0", "fusion_lon": 0.0, "bike_id": "b99f3d39436f3a7db40d1c21bf9f15f0", "is_disabled": 0, "is_reserved": 0}, {"rental_uris": {"ios": "https://dc.lft.to/lastmile_qr_scan", "android": "https://dc.lft.to/lastmile_qr_scan"}, "lon": -76.978853, "type": "electric_scooter", "fusion_lat": 0.0, "lat": 38.90417033333333, "name": "60f27fd75d73fd96f161944e8e607bb5", "fusion_lon": 0.0, "bike_id": "60f27fd75d73fd96f161944e8e607bb5", "is_disabled": 0, "is_reserved": 0}, {"rental_uris": {"ios": "https://dc.lft.to/lastmile_qr_scan", "android": "https://dc.lft.to/lastmile_qr_scan"}, "lon": -76.98742683333333, "type": "electric_bike", "fusion_lat": 0.0, "lat": 38.857881166666665, "name": "5ebe2cd65607cd108496550ed8021d5d", "fusion_lon": 0.0, "bike_id": "5ebe2cd65607cd108496550ed8021d5d", "is_disabled": 0, "is_reserved": 0}, {"rental_uris": {"ios": "https://dc.lft.to/lastmile_qr_scan", "android": "https://dc.lft.to/lastmile_qr_scan"}, "lon": -77.01134466666667, "type": "electric_scooter", "fusion_lat": 0.0, "lat": 38.906401, "name": "0500f2aa57c36bc61096fcf82af9ea9f", "fusion_lon": 0.0, "bike_id": "0500f2aa57c36bc61096fcf82af9ea9f", "is_disabled": 0, "is_reserved": 0}, {"rental_uris": {"ios": "https://dc.lft.to/lastmile_qr_scan", "android": "https://dc.lft.to/lastmile_qr_scan"}, "lon": -77.0370195, "type": "electric_scooter", "fusion_lat": 0.0, "lat": 38.928308, "name": "d9b2ea84fa70f2c6dcfd719cd4f58d6c", "fusion_lon": 0.0, "bike_id": "d9b2ea84fa70f2c6dcfd719cd4f58d6c", "is_disabled": 0, "is_reserved": 0}, {"rental_uris": {"ios": "https://dc.lft.to/lastmile_qr_scan", "android": "https://dc.lft.to/lastmile_qr_scan"}, "lon": -77.10087233333333, "type": "electric_bike", "fusion_lat": 0.0, "lat": 38.95953566666667, "name": "75b009a8c70638d4e66bdc57a2492505", "fusion_lon": 0.0, "bike_id": "75b009a8c70638d4e66bdc57a2492505", "is_disabled": 0, "is_reserved": 0}, {"rental_uris": {"ios": "https://dc.lft.to/lastmile_qr_scan", "android": "https://dc.lft.to/lastmile_qr_scan"}, "lon": -77.04533683333334, "type": "electric_scooter", "fusion_lat": 0.0, "lat": 38.91320066666667, "name": "a3690e837a6df77a964989ad32a3fcc5", "fusion_lon": 0.0, "bike_id": "a3690e837a6df77a964989ad32a3fcc5", "is_disabled": 0, "is_reserved": 0}, {"rental_uris": {"ios": "https://dc.lft.to/lastmile_qr_scan", "android": "https://dc.lft.to/lastmile_qr_scan"}, "lon": -76.99594416666666, "type": "electric_scooter", "fusion_lat": 0.0, "lat": 38.84537, "name": "61f895ee480207605577c8a4695210f6", "fusion_lon": 0.0, "bike_id": "61f895ee480207605577c8a4695210f6", "is_disabled": 0, "is_reserved": 0}, {"rental_uris": {"ios": "https://dc.lft.to/lastmile_qr_scan", "android": "https://dc.lft.to/lastmile_qr_scan"}, "lon": -77.0153235, "type": "electric_scooter", "fusion_lat": 0.0, "lat": 38.90190183333333, "name": "cc86c61181cb3d09099869769cf81d0f", "fusion_lon": 0.0, "bike_id": "cc86c61181cb3d09099869769cf81d0f", "is_disabled": 0, "is_reserved": 0}, {"rental_uris": {"ios": "https://dc.lft.to/lastmile_qr_scan", "android": "https://dc.lft.to/lastmile_qr_scan"}, "lon": -77.00388233333334, "type": "electric_scooter", "fusion_lat": 0.0, "lat": 38.908047333333336, "name": "73c21244fef2c59a4149365c9b5d72de", "fusion_lon": 0.0, "bike_id": "73c21244fef2c59a4149365c9b5d72de", "is_disabled": 0, "is_reserved": 0}, {"rental_uris": {"ios": "https://dc.lft.to/lastmile_qr_scan", "android": "https://dc.lft.to/lastmile_qr_scan"}, "lon": -77.0384385, "type": "electric_scooter", "fusion_lat": 0.0, "lat": 38.93105466666667, "name": "620d369d253e8a447507c67830badf33", "fusion_lon": 0.0, "bike_id": "620d369d253e8a447507c67830badf33", "is_disabled": 0, "is_reserved": 0}, {"rental_uris": {"ios": "https://dc.lft.to/lastmile_qr_scan", "android": "https://dc.lft.to/lastmile_qr_scan"}, "lon": -77.03853033333333, "type": "electric_scooter", "fusion_lat": 0.0, "lat": 38.905149333333334, "name": "0c3c1761396842108d6e3294605b8500", "fusion_lon": 0.0, "bike_id": "0c3c1761396842108d6e3294605b8500", "is_disabled": 0, "is_reserved": 0}, {"rental_uris": {"ios": "https://dc.lft.to/lastmile_qr_scan", "android": "https://dc.lft.to/lastmile_qr_scan"}, "lon": -77.0052745, "type": "electric_scooter", "fusion_lat": 0.0, "lat": 38.90558433333333, "name": "d6b06435d767a2f2563da7fa4e723a70", "fusion_lon": 0.0, "bike_id": "d6b06435d767a2f2563da7fa4e723a70", "is_disabled": 0, "is_reserved": 0}, {"rental_uris": {"ios": "https://dc.lft.to/lastmile_qr_scan", "android": "https://dc.lft.to/lastmile_qr_scan"}, "lon": -77.0390005, "type": "electric_scooter", "fusion_lat": 0.0, "lat": 38.93262033333333, "name": "829eabef56607af55d61edc31a44a2fb", "fusion_lon": 0.0, "bike_id": "829eabef56607af55d61edc31a44a2fb", "is_disabled": 0, "is_reserved": 0}, {"rental_uris": {"ios": "https://dc.lft.to/lastmile_qr_scan", "android": "https://dc.lft.to/lastmile_qr_scan"}, "lon": -77.05885916666666, "type": "electric_scooter", "fusion_lat": 0.0, "lat": 38.936310166666665, "name": "71e5ee1e888b42e525148366563521d9", "fusion_lon": 0.0, "bike_id": "71e5ee1e888b42e525148366563521d9", "is_disabled": 0, "is_reserved": 0}, {"rental_uris": {"ios": "https://dc.lft.to/lastmile_qr_scan", "android": "https://dc.lft.to/lastmile_qr_scan"}, "lon": -77.00576183333334, "type": "electric_scooter", "fusion_lat": 0.0, "lat": 38.87231883333333, "name": "fda66d2c648e478892122e095a8d12d1", "fusion_lon": 0.0, "bike_id": "fda66d2c648e478892122e095a8d12d1", "is_disabled": 0, "is_reserved": 0}, {"rental_uris": {"ios": "https://dc.lft.to/lastmile_qr_scan", "android": "https://dc.lft.to/lastmile_qr_scan"}, "lon": -77.02164283333333, "type": "electric_scooter", "fusion_lat": 0.0, "lat": 38.926054666666666, "name": "520e868870596a5e41e95f466c689fa0", "fusion_lon": 0.0, "bike_id": "520e868870596a5e41e95f466c689fa0", "is_disabled": 0, "is_reserved": 0}, {"rental_uris": {"ios": "https://dc.lft.to/lastmile_qr_scan", "android": "https://dc.lft.to/lastmile_qr_scan"}, "lon": -77.02224083333333, "type": "electric_scooter", "fusion_lat": 0.0, "lat": 38.93868633333334, "name": "81585d34ad3007125b619dc505e62b54", "fusion_lon": 0.0, "bike_id": "81585d34ad3007125b619dc505e62b54", "is_disabled": 0, "is_reserved": 0}, {"rental_uris": {"ios": "https://dc.lft.to/lastmile_qr_scan", "android": "https://dc.lft.to/lastmile_qr_scan"}, "lon": -76.9861495, "type": "electric_scooter", "fusion_lat": 0.0, "lat": 38.86822133333333, "name": "8e476543c8bc0198f622e8b1cd9103dd", "fusion_lon": 0.0, "bike_id": "8e476543c8bc0198f622e8b1cd9103dd", "is_disabled": 0, "is_reserved": 0}, {"rental_uris": {"ios": "https://dc.lft.to/lastmile_qr_scan", "android": "https://dc.lft.to/lastmile_qr_scan"}, "lon": -77.0348285, "type": "electric_scooter", "fusion_lat": 0.0, "lat": 38.920383666666666, "name": "8497b12b727649ac2da5bdb587a23803", "fusion_lon": 0.0, "bike_id": "8497b12b727649ac2da5bdb587a23803", "is_disabled": 0, "is_reserved": 0}, {"rental_uris": {"ios": "https://dc.lft.to/lastmile_qr_scan", "android": "https://dc.lft.to/lastmile_qr_scan"}, "lon": -77.04505266666666, "type": "electric_scooter", "fusion_lat": 0.0, "lat": 38.91184616666666, "name": "48b41770674903061d12ac03a8167e18", "fusion_lon": 0.0, "bike_id": "48b41770674903061d12ac03a8167e18", "is_disabled": 0, "is_reserved": 0}, {"rental_uris": {"ios": "https://dc.lft.to/lastmile_qr_scan", "android": "https://dc.lft.to/lastmile_qr_scan"}, "lon": -77.03101333333333, "type": "electric_scooter", "fusion_lat": 0.0, "lat": 38.91402433333333, "name": "d2f696c1736791ccd6ddbfb4967eee85", "fusion_lon": 0.0, "bike_id": "d2f696c1736791ccd6ddbfb4967eee85", "is_disabled": 0, "is_reserved": 0}, {"rental_uris": {"ios": "https://dc.lft.to/lastmile_qr_scan", "android": "https://dc.lft.to/lastmile_qr_scan"}, "lon": -77.04254816666666, "type": "electric_scooter", "fusion_lat": 0.0, "lat": 38.91588983333333, "name": "e90bb1f4522e3c4049e23f92f7ca19b2", "fusion_lon": 0.0, "bike_id": "e90bb1f4522e3c4049e23f92f7ca19b2", "is_disabled": 0, "is_reserved": 0}, {"rental_uris": {"ios": "https://dc.lft.to/lastmile_qr_scan", "android": "https://dc.lft.to/lastmile_qr_scan"}, "lon": -77.0371125, "type": "electric_scooter", "fusion_lat": 0.0, "lat": 38.905657, "name": "577ea5ac8452422dbf5f0e3c24703972", "fusion_lon": 0.0, "bike_id": "577ea5ac8452422dbf5f0e3c24703972", "is_disabled": 0, "is_reserved": 0}, {"rental_uris": {"ios": "https://dc.lft.to/lastmile_qr_scan", "android": "https://dc.lft.to/lastmile_qr_scan"}, "lon": -77.013095, "type": "electric_scooter", "fusion_lat": 0.0, "lat": 38.9018045, "name": "6d51ef50e10d866e82dab13c403dbb04", "fusion_lon": 0.0, "bike_id": "6d51ef50e10d866e82dab13c403dbb04", "is_disabled": 0, "is_reserved": 0}, {"rental_uris": {"ios": "https://dc.lft.to/lastmile_qr_scan", "android": "https://dc.lft.to/lastmile_qr_scan"}, "lon": -77.02173733333333, "type": "electric_scooter", "fusion_lat": 0.0, "lat": 38.89895816666667, "name": "ef6cc13e6836f2f3a091106bd68493fb", "fusion_lon": 0.0, "bike_id": "ef6cc13e6836f2f3a091106bd68493fb", "is_disabled": 0, "is_reserved": 0}, {"rental_uris": {"ios": "https://dc.lft.to/lastmile_qr_scan", "android": "https://dc.lft.to/lastmile_qr_scan"}, "lon": -77.03569816666666, "type": "electric_scooter", "fusion_lat": 0.0, "lat": 38.927400666666664, "name": "25e47b234f17e76b23baa30d2a93a7f8", "fusion_lon": 0.0, "bike_id": "25e47b234f17e76b23baa30d2a93a7f8", "is_disabled": 0, "is_reserved": 0}, {"rental_uris": {"ios": "https://dc.lft.to/lastmile_qr_scan", "android": "https://dc.lft.to/lastmile_qr_scan"}, "lon": -76.98004866666666, "type": "electric_bike", "fusion_lat": 0.0, "lat": 38.853133666666665, "name": "cf02760e490930ff024809c7afdc99d2", "fusion_lon": 0.0, "bike_id": "cf02760e490930ff024809c7afdc99d2", "is_disabled": 0, "is_reserved": 0}, {"rental_uris": {"ios": "https://dc.lft.to/lastmile_qr_scan", "android": "https://dc.lft.to/lastmile_qr_scan"}, "lon": -77.0685055, "type": "electric_scooter", "fusion_lat": 0.0, "lat": 38.91698016666667, "name": "72f824cee017c5598f6e4b54efda4447", "fusion_lon": 0.0, "bike_id": "72f824cee017c5598f6e4b54efda4447", "is_disabled": 0, "is_reserved": 0}, {"rental_uris": {"ios": "https://dc.lft.to/lastmile_qr_scan", "android": "https://dc.lft.to/lastmile_qr_scan"}, "lon": -76.98824583333334, "type": "electric_scooter", "fusion_lat": 0.0, "lat": 38.8802495, "name": "6559807606e86e030a98f221b33a82ef", "fusion_lon": 0.0, "bike_id": "6559807606e86e030a98f221b33a82ef", "is_disabled": 0, "is_reserved": 0}, {"rental_uris": {"ios": "https://dc.lft.to/lastmile_qr_scan", "android": "https://dc.lft.to/lastmile_qr_scan"}, "lon": -77.03512583333334, "type": "electric_scooter", "fusion_lat": 0.0, "lat": 38.931006, "name": "0c521f6a2a77a0c10fac87bcc18fa867", "fusion_lon": 0.0, "bike_id": "0c521f6a2a77a0c10fac87bcc18fa867", "is_disabled": 0, "is_reserved": 0}, {"rental_uris": {"ios": "https://dc.lft.to/lastmile_qr_scan", "android": "https://dc.lft.to/lastmile_qr_scan"}, "lon": -77.03581366666667, "type": "electric_scooter", "fusion_lat": 0.0, "lat": 38.942452333333335, "name": "ef7d33d9861f8b8e7cd95d1cf620225e", "fusion_lon": 0.0, "bike_id": "ef7d33d9861f8b8e7cd95d1cf620225e", "is_disabled": 0, "is_reserved": 0}, {"rental_uris": {"ios": "https://dc.lft.to/lastmile_qr_scan", "android": "https://dc.lft.to/lastmile_qr_scan"}, "lon": -77.0688095, "type": "electric_scooter", "fusion_lat": 0.0, "lat": 38.905147, "name": "c2edda7d8dd28a345804d6bf2e8f6e45", "fusion_lon": 0.0, "bike_id": "c2edda7d8dd28a345804d6bf2e8f6e45", "is_disabled": 0, "is_reserved": 0}, {"rental_uris": {"ios": "https://dc.lft.to/lastmile_qr_scan", "android": "https://dc.lft.to/lastmile_qr_scan"}, "lon": -77.04940116666667, "type": "electric_scooter", "fusion_lat": 0.0, "lat": 38.908890166666666, "name": "5acb62769b55cde358699434a1a69c46", "fusion_lon": 0.0, "bike_id": "5acb62769b55cde358699434a1a69c46", "is_disabled": 0, "is_reserved": 0}, {"rental_uris": {"ios": "https://dc.lft.to/lastmile_qr_scan", "android": "https://dc.lft.to/lastmile_qr_scan"}, "lon": -77.0415745, "type": "electric_scooter", "fusion_lat": 0.0, "lat": 38.91755066666666, "name": "533ba4a5e8bfd3b9aac1dbb764cbf71e", "fusion_lon": 0.0, "bike_id": "533ba4a5e8bfd3b9aac1dbb764cbf71e", "is_disabled": 0, "is_reserved": 0}, {"rental_uris": {"ios": "https://dc.lft.to/lastmile_qr_scan", "android": "https://dc.lft.to/lastmile_qr_scan"}, "lon": -76.98882333333333, "type": "electric_scooter", "fusion_lat": 0.0, "lat": 38.86650433333333, "name": "91d2062ab50cf56700eab57abed29e87", "fusion_lon": 0.0, "bike_id": "91d2062ab50cf56700eab57abed29e87", "is_disabled": 0, "is_reserved": 0}, {"rental_uris": {"ios": "https://dc.lft.to/lastmile_qr_scan", "android": "https://dc.lft.to/lastmile_qr_scan"}, "lon": -77.0369925, "type": "electric_scooter", "fusion_lat": 0.0, "lat": 38.9263855, "name": "b8eb229f11dddde6adacfeace33eb6e4", "fusion_lon": 0.0, "bike_id": "b8eb229f11dddde6adacfeace33eb6e4", "is_disabled": 0, "is_reserved": 0}, {"rental_uris": {"ios": "https://dc.lft.to/lastmile_qr_scan", "android": "https://dc.lft.to/lastmile_qr_scan"}, "lon": -77.01149483333333, "type": "electric_bike", "fusion_lat": 0.0, "lat": 38.91177366666667, "name": "11ea7bc4ac97cd68c622f3ae18061777", "fusion_lon": 0.0, "bike_id": "11ea7bc4ac97cd68c622f3ae18061777", "is_disabled": 0, "is_reserved": 0}, {"rental_uris": {"ios": "https://dc.lft.to/lastmile_qr_scan", "android": "https://dc.lft.to/lastmile_qr_scan"}, "lon": -77.040156, "type": "electric_scooter", "fusion_lat": 0.0, "lat": 38.917971333333334, "name": "b2b3e7a796dc6861c82d8c4370f11e3a", "fusion_lon": 0.0, "bike_id": "b2b3e7a796dc6861c82d8c4370f11e3a", "is_disabled": 0, "is_reserved": 0}, {"rental_uris": {"ios": "https://dc.lft.to/lastmile_qr_scan", "android": "https://dc.lft.to/lastmile_qr_scan"}, "lon": -77.00197366666667, "type": "electric_scooter", "fusion_lat": 0.0, "lat": 38.9003465, "name": "82c33a87db27180631568bceeb44f9d5", "fusion_lon": 0.0, "bike_id": "82c33a87db27180631568bceeb44f9d5", "is_disabled": 0, "is_reserved": 0}, {"rental_uris": {"ios": "https://dc.lft.to/lastmile_qr_scan", "android": "https://dc.lft.to/lastmile_qr_scan"}, "lon": -77.04121066666667, "type": "electric_scooter", "fusion_lat": 0.0, "lat": 38.917055, "name": "2aeb81841d6398d4037b2a7c4aea0239", "fusion_lon": 0.0, "bike_id": "2aeb81841d6398d4037b2a7c4aea0239", "is_disabled": 0, "is_reserved": 0}, {"rental_uris": {"ios": "https://dc.lft.to/lastmile_qr_scan", "android": "https://dc.lft.to/lastmile_qr_scan"}, "lon": -77.02568366666667, "type": "electric_scooter", "fusion_lat": 0.0, "lat": 38.91481683333333, "name": "447716aa0bc07331b74b65b27685dee2", "fusion_lon": 0.0, "bike_id": "447716aa0bc07331b74b65b27685dee2", "is_disabled": 0, "is_reserved": 0}, {"rental_uris": {"ios": "https://dc.lft.to/lastmile_qr_scan", "android": "https://dc.lft.to/lastmile_qr_scan"}, "lon": -76.95456716666666, "type": "electric_bike", "fusion_lat": 0.0, "lat": 38.940005, "name": "556e1c5da29f1072fb883be219ee78e4", "fusion_lon": 0.0, "bike_id": "556e1c5da29f1072fb883be219ee78e4", "is_disabled": 0, "is_reserved": 0}, {"rental_uris": {"ios": "https://dc.lft.to/lastmile_qr_scan", "android": "https://dc.lft.to/lastmile_qr_scan"}, "lon": -76.99060933333334, "type": "electric_scooter", "fusion_lat": 0.0, "lat": 38.86351233333333, "name": "8e2f4c0ce15fe32913a287267b904d94", "fusion_lon": 0.0, "bike_id": "8e2f4c0ce15fe32913a287267b904d94", "is_disabled": 0, "is_reserved": 0}, {"rental_uris": {"ios": "https://dc.lft.to/lastmile_qr_scan", "android": "https://dc.lft.to/lastmile_qr_scan"}, "lon": -77.02023666666666, "type": "electric_scooter", "fusion_lat": 0.0, "lat": 38.89905983333333, "name": "524a33448fe66012a0989236c2fe58fd", "fusion_lon": 0.0, "bike_id": "524a33448fe66012a0989236c2fe58fd", "is_disabled": 0, "is_reserved": 0}, {"rental_uris": {"ios": "https://dc.lft.to/lastmile_qr_scan", "android": "https://dc.lft.to/lastmile_qr_scan"}, "lon": -77.02280366666666, "type": "electric_scooter", "fusion_lat": 0.0, "lat": 38.917549, "name": "a5a5515c0248857e3b466357642c5b69", "fusion_lon": 0.0, "bike_id": "a5a5515c0248857e3b466357642c5b69", "is_disabled": 0, "is_reserved": 0}, {"rental_uris": {"ios": "https://dc.lft.to/lastmile_qr_scan", "android": "https://dc.lft.to/lastmile_qr_scan"}, "lon": -77.00378133333334, "type": "electric_bike", "fusion_lat": 0.0, "lat": 38.835986, "name": "beab5713cf80945b5cf098b43f80b2e6", "fusion_lon": 0.0, "bike_id": "beab5713cf80945b5cf098b43f80b2e6", "is_disabled": 0, "is_reserved": 0}, {"rental_uris": {"ios": "https://dc.lft.to/lastmile_qr_scan", "android": "https://dc.lft.to/lastmile_qr_scan"}, "lon": -77.040203, "type": "electric_scooter", "fusion_lat": 0.0, "lat": 38.921731333333334, "name": "6b1364503eee3f37bc54311cdb50cde0", "fusion_lon": 0.0, "bike_id": "6b1364503eee3f37bc54311cdb50cde0", "is_disabled": 0, "is_reserved": 0}, {"rental_uris": {"ios": "https://dc.lft.to/lastmile_qr_scan", "android": "https://dc.lft.to/lastmile_qr_scan"}, "lon": -77.00464916666667, "type": "electric_bike", "fusion_lat": 0.0, "lat": 38.876610166666666, "name": "a0fcc4f343536fa08f97f7dc199a02eb", "fusion_lon": 0.0, "bike_id": "a0fcc4f343536fa08f97f7dc199a02eb", "is_disabled": 0, "is_reserved": 0}, {"rental_uris": {"ios": "https://dc.lft.to/lastmile_qr_scan", "android": "https://dc.lft.to/lastmile_qr_scan"}, "lon": -77.0281705, "type": "electric_scooter", "fusion_lat": 0.0, "lat": 38.96133616666667, "name": "ce73fb4cc1ac2c41852808889948ae3a", "fusion_lon": 0.0, "bike_id": "ce73fb4cc1ac2c41852808889948ae3a", "is_disabled": 0, "is_reserved": 0}, {"rental_uris": {"ios": "https://dc.lft.to/lastmile_qr_scan", "android": "https://dc.lft.to/lastmile_qr_scan"}, "lon": -77.04420883333333, "type": "electric_scooter", "fusion_lat": 0.0, "lat": 38.911266499999996, "name": "1e158ec6105a23f5fa80549c040b2a7e", "fusion_lon": 0.0, "bike_id": "1e158ec6105a23f5fa80549c040b2a7e", "is_disabled": 0, "is_reserved": 0}, {"rental_uris": {"ios": "https://dc.lft.to/lastmile_qr_scan", "android": "https://dc.lft.to/lastmile_qr_scan"}, "lon": -77.04505383333333, "type": "electric_scooter", "fusion_lat": 0.0, "lat": 38.90851983333334, "name": "79332f071be74f72cf94f28dfd759c6b", "fusion_lon": 0.0, "bike_id": "79332f071be74f72cf94f28dfd759c6b", "is_disabled": 0, "is_reserved": 0}, {"rental_uris": {"ios": "https://dc.lft.to/lastmile_qr_scan", "android": "https://dc.lft.to/lastmile_qr_scan"}, "lon": -77.0240405, "type": "electric_scooter", "fusion_lat": 0.0, "lat": 38.936987333333335, "name": "f205d36baaca779c1f817118e7ac3c32", "fusion_lon": 0.0, "bike_id": "f205d36baaca779c1f817118e7ac3c32", "is_disabled": 0, "is_reserved": 0}, {"rental_uris": {"ios": "https://dc.lft.to/lastmile_qr_scan", "android": "https://dc.lft.to/lastmile_qr_scan"}, "lon": -77.02492433333333, "type": "electric_scooter", "fusion_lat": 0.0, "lat": 38.91800833333333, "name": "c61a9662acc5ceabe046a04115c43e9b", "fusion_lon": 0.0, "bike_id": "c61a9662acc5ceabe046a04115c43e9b", "is_disabled": 0, "is_reserved": 0}, {"rental_uris": {"ios": "https://dc.lft.to/lastmile_qr_scan", "android": "https://dc.lft.to/lastmile_qr_scan"}, "lon": -77.02630983333333, "type": "electric_scooter", "fusion_lat": 0.0, "lat": 38.915579666666666, "name": "1fc44b7161ad900e8e3dd7f6f23415d2", "fusion_lon": 0.0, "bike_id": "1fc44b7161ad900e8e3dd7f6f23415d2", "is_disabled": 0, "is_reserved": 0}, {"rental_uris": {"ios": "https://dc.lft.to/lastmile_qr_scan", "android": "https://dc.lft.to/lastmile_qr_scan"}, "lon": -77.02007533333334, "type": "electric_scooter", "fusion_lat": 0.0, "lat": 38.902612833333336, "name": "7ca0b23fdc35816a981d719e6671ecf2", "fusion_lon": 0.0, "bike_id": "7ca0b23fdc35816a981d719e6671ecf2", "is_disabled": 0, "is_reserved": 0}, {"rental_uris": {"ios": "https://dc.lft.to/lastmile_qr_scan", "android": "https://dc.lft.to/lastmile_qr_scan"}, "lon": -77.00585433333333, "type": "electric_scooter", "fusion_lat": 0.0, "lat": 38.9155845, "name": "f9748d32522c91ddebfa932a80e92147", "fusion_lon": 0.0, "bike_id": "f9748d32522c91ddebfa932a80e92147", "is_disabled": 0, "is_reserved": 0}, {"rental_uris": {"ios": "https://dc.lft.to/lastmile_qr_scan", "android": "https://dc.lft.to/lastmile_qr_scan"}, "lon": -77.04751266666666, "type": "electric_scooter", "fusion_lat": 0.0, "lat": 38.896516166666665, "name": "e87fd79da2c9b479d141a04024e55a6d", "fusion_lon": 0.0, "bike_id": "e87fd79da2c9b479d141a04024e55a6d", "is_disabled": 0, "is_reserved": 0}, {"rental_uris": {"ios": "https://dc.lft.to/lastmile_qr_scan", "android": "https://dc.lft.to/lastmile_qr_scan"}, "lon": -77.12501933333333, "type": "electric_bike", "fusion_lat": 0.0, "lat": 39.024187166666664, "name": "a2be411d4a868f5db8b0c04ca3693af1", "fusion_lon": 0.0, "bike_id": "a2be411d4a868f5db8b0c04ca3693af1", "is_disabled": 0, "is_reserved": 0}, {"rental_uris": {"ios": "https://dc.lft.to/lastmile_qr_scan", "android": "https://dc.lft.to/lastmile_qr_scan"}, "lon": -77.02965116666667, "type": "electric_scooter", "fusion_lat": 0.0, "lat": 38.94642183333333, "name": "188d4cfb7b463d3d5fce9a35a14b254a", "fusion_lon": 0.0, "bike_id": "188d4cfb7b463d3d5fce9a35a14b254a", "is_disabled": 0, "is_reserved": 0}, {"rental_uris": {"ios": "https://dc.lft.to/lastmile_qr_scan", "android": "https://dc.lft.to/lastmile_qr_scan"}, "lon": -77.03860983333334, "type": "electric_scooter", "fusion_lat": 0.0, "lat": 38.9025585, "name": "5280956bdb61acb9f9976b3663707174", "fusion_lon": 0.0, "bike_id": "5280956bdb61acb9f9976b3663707174", "is_disabled": 0, "is_reserved": 0}, {"rental_uris": {"ios": "https://dc.lft.to/lastmile_qr_scan", "android": "https://dc.lft.to/lastmile_qr_scan"}, "lon": -77.04142716666667, "type": "electric_scooter", "fusion_lat": 0.0, "lat": 38.908947, "name": "762f0a2b1b8ebb8119f138d2e285f358", "fusion_lon": 0.0, "bike_id": "762f0a2b1b8ebb8119f138d2e285f358", "is_disabled": 0, "is_reserved": 0}, {"rental_uris": {"ios": "https://dc.lft.to/lastmile_qr_scan", "android": "https://dc.lft.to/lastmile_qr_scan"}, "lon": -76.9979275, "type": "electric_scooter", "fusion_lat": 0.0, "lat": 38.92920816666667, "name": "a26a26fd619516380c6fb8f906138cc1", "fusion_lon": 0.0, "bike_id": "a26a26fd619516380c6fb8f906138cc1", "is_disabled": 0, "is_reserved": 0}, {"rental_uris": {"ios": "https://dc.lft.to/lastmile_qr_scan", "android": "https://dc.lft.to/lastmile_qr_scan"}, "lon": -77.01358216666667, "type": "electric_scooter", "fusion_lat": 0.0, "lat": 38.89566333333333, "name": "a4ed60b2f64a3d0263f5dfc3a4063cd5", "fusion_lon": 0.0, "bike_id": "a4ed60b2f64a3d0263f5dfc3a4063cd5", "is_disabled": 0, "is_reserved": 0}, {"rental_uris": {"ios": "https://dc.lft.to/lastmile_qr_scan", "android": "https://dc.lft.to/lastmile_qr_scan"}, "lon": -77.0272995, "type": "electric_scooter", "fusion_lat": 0.0, "lat": 38.896086, "name": "acdee3a501b7aa4d931ee46e6b89c3f7", "fusion_lon": 0.0, "bike_id": "acdee3a501b7aa4d931ee46e6b89c3f7", "is_disabled": 0, "is_reserved": 0}, {"rental_uris": {"ios": "https://dc.lft.to/lastmile_qr_scan", "android": "https://dc.lft.to/lastmile_qr_scan"}, "lon": -77.03812616666667, "type": "electric_scooter", "fusion_lat": 0.0, "lat": 38.931037, "name": "0cd0d36ee679f4b353dd42817a798321", "fusion_lon": 0.0, "bike_id": "0cd0d36ee679f4b353dd42817a798321", "is_disabled": 0, "is_reserved": 0}, {"rental_uris": {"ios": "https://dc.lft.to/lastmile_qr_scan", "android": "https://dc.lft.to/lastmile_qr_scan"}, "lon": -77.03582033333333, "type": "electric_scooter", "fusion_lat": 0.0, "lat": 38.93389066666667, "name": "771b36173641808168f7e063ce9bca7a", "fusion_lon": 0.0, "bike_id": "771b36173641808168f7e063ce9bca7a", "is_disabled": 0, "is_reserved": 0}, {"rental_uris": {"ios": "https://dc.lft.to/lastmile_qr_scan", "android": "https://dc.lft.to/lastmile_qr_scan"}, "lon": -77.04382833333334, "type": "electric_scooter", "fusion_lat": 0.0, "lat": 38.9235395, "name": "91985e5c41836629ed4ce0167d0bea7b", "fusion_lon": 0.0, "bike_id": "91985e5c41836629ed4ce0167d0bea7b", "is_disabled": 0, "is_reserved": 0}, {"rental_uris": {"ios": "https://dc.lft.to/lastmile_qr_scan", "android": "https://dc.lft.to/lastmile_qr_scan"}, "lon": -77.02207333333334, "type": "electric_scooter", "fusion_lat": 0.0, "lat": 38.909519833333334, "name": "4056311272cd6f5f3dd020ed3b93cb4a", "fusion_lon": 0.0, "bike_id": "4056311272cd6f5f3dd020ed3b93cb4a", "is_disabled": 0, "is_reserved": 0}, {"rental_uris": {"ios": "https://dc.lft.to/lastmile_qr_scan", "android": "https://dc.lft.to/lastmile_qr_scan"}, "lon": -77.046278, "type": "electric_bike", "fusion_lat": 0.0, "lat": 38.999091666666665, "name": "1f4f03ccce6670431949001d2990a72c", "fusion_lon": 0.0, "bike_id": "1f4f03ccce6670431949001d2990a72c", "is_disabled": 0, "is_reserved": 0}, {"rental_uris": {"ios": "https://dc.lft.to/lastmile_qr_scan", "android": "https://dc.lft.to/lastmile_qr_scan"}, "lon": -77.096251, "type": "electric_bike", "fusion_lat": 0.0, "lat": 38.84572216666667, "name": "0203a234894261b40e52fcdf019e1142", "fusion_lon": 0.0, "bike_id": "0203a234894261b40e52fcdf019e1142", "is_disabled": 0, "is_reserved": 0}, {"rental_uris": {"ios": "https://dc.lft.to/lastmile_qr_scan", "android": "https://dc.lft.to/lastmile_qr_scan"}, "lon": -77.04243933333333, "type": "electric_scooter", "fusion_lat": 0.0, "lat": 38.922134666666665, "name": "42f42785c4ef2861583bd84a3ebf785c", "fusion_lon": 0.0, "bike_id": "42f42785c4ef2861583bd84a3ebf785c", "is_disabled": 0, "is_reserved": 0}, {"rental_uris": {"ios": "https://dc.lft.to/lastmile_qr_scan", "android": "https://dc.lft.to/lastmile_qr_scan"}, "lon": -77.06475083333333, "type": "electric_bike", "fusion_lat": 0.0, "lat": 38.973807666666666, "name": "98ebcd6396b8fb1b3492fdb073c6425e", "fusion_lon": 0.0, "bike_id": "98ebcd6396b8fb1b3492fdb073c6425e", "is_disabled": 0, "is_reserved": 0}, {"rental_uris": {"ios": "https://dc.lft.to/lastmile_qr_scan", "android": "https://dc.lft.to/lastmile_qr_scan"}, "lon": -77.05922866666667, "type": "electric_scooter", "fusion_lat": 0.0, "lat": 38.90541483333333, "name": "d8601cb969fb5494c4930d185f20752f", "fusion_lon": 0.0, "bike_id": "d8601cb969fb5494c4930d185f20752f", "is_disabled": 0, "is_reserved": 0}, {"rental_uris": {"ios": "https://dc.lft.to/lastmile_qr_scan", "android": "https://dc.lft.to/lastmile_qr_scan"}, "lon": -76.94670316666667, "type": "electric_scooter", "fusion_lat": 0.0, "lat": 38.9033575, "name": "62b7171208cb6041c784a6a5edb6418a", "fusion_lon": 0.0, "bike_id": "62b7171208cb6041c784a6a5edb6418a", "is_disabled": 0, "is_reserved": 0}, {"rental_uris": {"ios": "https://dc.lft.to/lastmile_qr_scan", "android": "https://dc.lft.to/lastmile_qr_scan"}, "lon": -77.042874, "type": "electric_scooter", "fusion_lat": 0.0, "lat": 38.90796666666667, "name": "8f38ebd42d24659bb5573e48a9e01c02", "fusion_lon": 0.0, "bike_id": "8f38ebd42d24659bb5573e48a9e01c02", "is_disabled": 0, "is_reserved": 0}, {"rental_uris": {"ios": "https://dc.lft.to/lastmile_qr_scan", "android": "https://dc.lft.to/lastmile_qr_scan"}, "lon": -77.02390416666667, "type": "electric_scooter", "fusion_lat": 0.0, "lat": 38.898111666666665, "name": "deedf5f77d7a3b6024d9c97d4a4356d3", "fusion_lon": 0.0, "bike_id": "deedf5f77d7a3b6024d9c97d4a4356d3", "is_disabled": 0, "is_reserved": 0}, {"rental_uris": {"ios": "https://dc.lft.to/lastmile_qr_scan", "android": "https://dc.lft.to/lastmile_qr_scan"}, "lon": -76.95767183333334, "type": "electric_bike", "fusion_lat": 0.0, "lat": 38.8841805, "name": "05e191af58309e0a9406cb7823f685bf", "fusion_lon": 0.0, "bike_id": "05e191af58309e0a9406cb7823f685bf", "is_disabled": 0, "is_reserved": 0}, {"rental_uris": {"ios": "https://dc.lft.to/lastmile_qr_scan", "android": "https://dc.lft.to/lastmile_qr_scan"}, "lon": -76.99363533333333, "type": "electric_scooter", "fusion_lat": 0.0, "lat": 38.900352166666664, "name": "4801d213557f07be019637d0ec04063a", "fusion_lon": 0.0, "bike_id": "4801d213557f07be019637d0ec04063a", "is_disabled": 0, "is_reserved": 0}, {"rental_uris": {"ios": "https://dc.lft.to/lastmile_qr_scan", "android": "https://dc.lft.to/lastmile_qr_scan"}, "lon": -76.87821733333334, "type": "electric_bike", "fusion_lat": 0.0, "lat": 38.99227, "name": "cb513ed363416dcc3ccb230f44f9c22d", "fusion_lon": 0.0, "bike_id": "cb513ed363416dcc3ccb230f44f9c22d", "is_disabled": 0, "is_reserved": 0}, {"rental_uris": {"ios": "https://dc.lft.to/lastmile_qr_scan", "android": "https://dc.lft.to/lastmile_qr_scan"}, "lon": -77.050442, "type": "electric_scooter", "fusion_lat": 0.0, "lat": 38.923572666666665, "name": "4b40dde0311ee341761eaf85274145cd", "fusion_lon": 0.0, "bike_id": "4b40dde0311ee341761eaf85274145cd", "is_disabled": 0, "is_reserved": 0}, {"rental_uris": {"ios": "https://dc.lft.to/lastmile_qr_scan", "android": "https://dc.lft.to/lastmile_qr_scan"}, "lon": -77.07196416666666, "type": "electric_bike", "fusion_lat": 0.0, "lat": 38.905142166666664, "name": "71b3b0fde5926989ac2aecd852800037", "fusion_lon": 0.0, "bike_id": "71b3b0fde5926989ac2aecd852800037", "is_disabled": 0, "is_reserved": 0}, {"rental_uris": {"ios": "https://dc.lft.to/lastmile_qr_scan", "android": "https://dc.lft.to/lastmile_qr_scan"}, "lon": -76.99516916666667, "type": "electric_scooter", "fusion_lat": 0.0, "lat": 38.8948105, "name": "0f2dda327d3ca8f3be95e9c3fa98b518", "fusion_lon": 0.0, "bike_id": "0f2dda327d3ca8f3be95e9c3fa98b518", "is_disabled": 0, "is_reserved": 0}, {"rental_uris": {"ios": "https://dc.lft.to/lastmile_qr_scan", "android": "https://dc.lft.to/lastmile_qr_scan"}, "lon": -77.0296805, "type": "electric_scooter", "fusion_lat": 0.0, "lat": 38.916787166666666, "name": "5c2359920228ae1c52174935645dd1e1", "fusion_lon": 0.0, "bike_id": "5c2359920228ae1c52174935645dd1e1", "is_disabled": 0, "is_reserved": 0}, {"rental_uris": {"ios": "https://dc.lft.to/lastmile_qr_scan", "android": "https://dc.lft.to/lastmile_qr_scan"}, "lon": -77.02357366666666, "type": "electric_scooter", "fusion_lat": 0.0, "lat": 38.925005, "name": "02319a1b016bc86ea575c5a1293afba2", "fusion_lon": 0.0, "bike_id": "02319a1b016bc86ea575c5a1293afba2", "is_disabled": 0, "is_reserved": 0}, {"rental_uris": {"ios": "https://dc.lft.to/lastmile_qr_scan", "android": "https://dc.lft.to/lastmile_qr_scan"}, "lon": -77.00196616666666, "type": "electric_scooter", "fusion_lat": 0.0, "lat": 38.90036083333333, "name": "a64554083d91b9915f1c28134505e634", "fusion_lon": 0.0, "bike_id": "a64554083d91b9915f1c28134505e634", "is_disabled": 0, "is_reserved": 0}, {"rental_uris": {"ios": "https://dc.lft.to/lastmile_qr_scan", "android": "https://dc.lft.to/lastmile_qr_scan"}, "lon": -77.03416316666667, "type": "electric_scooter", "fusion_lat": 0.0, "lat": 38.935311666666664, "name": "5a986513b6db37e130fe26c4ea15a1a9", "fusion_lon": 0.0, "bike_id": "5a986513b6db37e130fe26c4ea15a1a9", "is_disabled": 0, "is_reserved": 0}, {"rental_uris": {"ios": "https://dc.lft.to/lastmile_qr_scan", "android": "https://dc.lft.to/lastmile_qr_scan"}, "lon": -77.01947783333334, "type": "electric_scooter", "fusion_lat": 0.0, "lat": 38.94997433333333, "name": "9c62acfd5e98ebf68787649bb1ad0839", "fusion_lon": 0.0, "bike_id": "9c62acfd5e98ebf68787649bb1ad0839", "is_disabled": 0, "is_reserved": 0}, {"rental_uris": {"ios": "https://dc.lft.to/lastmile_qr_scan", "android": "https://dc.lft.to/lastmile_qr_scan"}, "lon": -77.03382233333333, "type": "electric_scooter", "fusion_lat": 0.0, "lat": 38.92154416666666, "name": "6028f5e71c28c327bb05cf40e6f4d9fd", "fusion_lon": 0.0, "bike_id": "6028f5e71c28c327bb05cf40e6f4d9fd", "is_disabled": 0, "is_reserved": 0}, {"rental_uris": {"ios": "https://dc.lft.to/lastmile_qr_scan", "android": "https://dc.lft.to/lastmile_qr_scan"}, "lon": -77.01336666666667, "type": "electric_scooter", "fusion_lat": 0.0, "lat": 38.900538, "name": "7166405047313360dfc47c2945aeaa54", "fusion_lon": 0.0, "bike_id": "7166405047313360dfc47c2945aeaa54", "is_disabled": 0, "is_reserved": 0}, {"rental_uris": {"ios": "https://dc.lft.to/lastmile_qr_scan", "android": "https://dc.lft.to/lastmile_qr_scan"}, "lon": -77.04807216666667, "type": "electric_scooter", "fusion_lat": 0.0, "lat": 38.9202775, "name": "df21ebf51ce8ca727b29a2c349a6e53d", "fusion_lon": 0.0, "bike_id": "df21ebf51ce8ca727b29a2c349a6e53d", "is_disabled": 0, "is_reserved": 0}, {"rental_uris": {"ios": "https://dc.lft.to/lastmile_qr_scan", "android": "https://dc.lft.to/lastmile_qr_scan"}, "lon": -77.04010483333333, "type": "electric_scooter", "fusion_lat": 0.0, "lat": 38.921301166666666, "name": "4cd55dd1717fb9a41d89d77358f0bc28", "fusion_lon": 0.0, "bike_id": "4cd55dd1717fb9a41d89d77358f0bc28", "is_disabled": 0, "is_reserved": 0}, {"rental_uris": {"ios": "https://dc.lft.to/lastmile_qr_scan", "android": "https://dc.lft.to/lastmile_qr_scan"}, "lon": -77.02420883333333, "type": "electric_scooter", "fusion_lat": 0.0, "lat": 38.936095333333334, "name": "87e7aec804ff44e6950deab029aed2c2", "fusion_lon": 0.0, "bike_id": "87e7aec804ff44e6950deab029aed2c2", "is_disabled": 0, "is_reserved": 0}, {"rental_uris": {"ios": "https://dc.lft.to/lastmile_qr_scan", "android": "https://dc.lft.to/lastmile_qr_scan"}, "lon": -77.02072433333333, "type": "electric_scooter", "fusion_lat": 0.0, "lat": 38.89966783333333, "name": "073d44074cad7b1fc872c2096538eb08", "fusion_lon": 0.0, "bike_id": "073d44074cad7b1fc872c2096538eb08", "is_disabled": 0, "is_reserved": 0}, {"rental_uris": {"ios": "https://dc.lft.to/lastmile_qr_scan", "android": "https://dc.lft.to/lastmile_qr_scan"}, "lon": -77.033413, "type": "electric_scooter", "fusion_lat": 0.0, "lat": 38.8853185, "name": "0471c7428c2e5628194308c1a3508679", "fusion_lon": 0.0, "bike_id": "0471c7428c2e5628194308c1a3508679", "is_disabled": 0, "is_reserved": 0}, {"rental_uris": {"ios": "https://dc.lft.to/lastmile_qr_scan", "android": "https://dc.lft.to/lastmile_qr_scan"}, "lon": -77.02201366666667, "type": "electric_scooter", "fusion_lat": 0.0, "lat": 38.896175, "name": "b2d36937884325cf196a86067c5cf0df", "fusion_lon": 0.0, "bike_id": "b2d36937884325cf196a86067c5cf0df", "is_disabled": 0, "is_reserved": 0}, {"rental_uris": {"ios": "https://dc.lft.to/lastmile_qr_scan", "android": "https://dc.lft.to/lastmile_qr_scan"}, "lon": -77.01141233333334, "type": "electric_scooter", "fusion_lat": 0.0, "lat": 38.870798, "name": "edf4813ce261f68e3f943de6298a49d2", "fusion_lon": 0.0, "bike_id": "edf4813ce261f68e3f943de6298a49d2", "is_disabled": 0, "is_reserved": 0}, {"rental_uris": {"ios": "https://dc.lft.to/lastmile_qr_scan", "android": "https://dc.lft.to/lastmile_qr_scan"}, "lon": -77.0078365, "type": "electric_scooter", "fusion_lat": 0.0, "lat": 38.8790515, "name": "67318e6657b531adee347519cb413045", "fusion_lon": 0.0, "bike_id": "67318e6657b531adee347519cb413045", "is_disabled": 0, "is_reserved": 0}, {"rental_uris": {"ios": "https://dc.lft.to/lastmile_qr_scan", "android": "https://dc.lft.to/lastmile_qr_scan"}, "lon": -77.01757416666666, "type": "electric_scooter", "fusion_lat": 0.0, "lat": 38.876791833333336, "name": "f9708ddcaec8cd283f3cddaecd83bad5", "fusion_lon": 0.0, "bike_id": "f9708ddcaec8cd283f3cddaecd83bad5", "is_disabled": 0, "is_reserved": 0}, {"rental_uris": {"ios": "https://dc.lft.to/lastmile_qr_scan", "android": "https://dc.lft.to/lastmile_qr_scan"}, "lon": -76.9970155, "type": "electric_scooter", "fusion_lat": 0.0, "lat": 38.899990833333334, "name": "1bc7914e392ef147b2d9c2f0b908741f", "fusion_lon": 0.0, "bike_id": "1bc7914e392ef147b2d9c2f0b908741f", "is_disabled": 0, "is_reserved": 0}, {"rental_uris": {"ios": "https://dc.lft.to/lastmile_qr_scan", "android": "https://dc.lft.to/lastmile_qr_scan"}, "lon": -76.92891683333333, "type": "electric_scooter", "fusion_lat": 0.0, "lat": 38.893299166666665, "name": "af21f225ad9fe84e9e127498920faee3", "fusion_lon": 0.0, "bike_id": "af21f225ad9fe84e9e127498920faee3", "is_disabled": 0, "is_reserved": 0}, {"rental_uris": {"ios": "https://dc.lft.to/lastmile_qr_scan", "android": "https://dc.lft.to/lastmile_qr_scan"}, "lon": -77.04614183333334, "type": "electric_scooter", "fusion_lat": 0.0, "lat": 38.903798333333334, "name": "8f34d26134b8eace4c774ab72c36af66", "fusion_lon": 0.0, "bike_id": "8f34d26134b8eace4c774ab72c36af66", "is_disabled": 0, "is_reserved": 0}, {"rental_uris": {"ios": "https://dc.lft.to/lastmile_qr_scan", "android": "https://dc.lft.to/lastmile_qr_scan"}, "lon": -76.96632983333333, "type": "electric_bike", "fusion_lat": 0.0, "lat": 38.941875333333336, "name": "7a0911e8ec1a70caaa2b2ee0010b6145", "fusion_lon": 0.0, "bike_id": "7a0911e8ec1a70caaa2b2ee0010b6145", "is_disabled": 0, "is_reserved": 0}, {"rental_uris": {"ios": "https://dc.lft.to/lastmile_qr_scan", "android": "https://dc.lft.to/lastmile_qr_scan"}, "lon": -77.03652816666667, "type": "electric_scooter", "fusion_lat": 0.0, "lat": 38.921177, "name": "375b1c398165be5b6d93db4b907da9d8", "fusion_lon": 0.0, "bike_id": "375b1c398165be5b6d93db4b907da9d8", "is_disabled": 0, "is_reserved": 0}, {"rental_uris": {"ios": "https://dc.lft.to/lastmile_qr_scan", "android": "https://dc.lft.to/lastmile_qr_scan"}, "lon": -77.011265, "type": "electric_scooter", "fusion_lat": 0.0, "lat": 38.9156815, "name": "8db095b820e24344654444d5682142f1", "fusion_lon": 0.0, "bike_id": "8db095b820e24344654444d5682142f1", "is_disabled": 0, "is_reserved": 0}, {"rental_uris": {"ios": "https://dc.lft.to/lastmile_qr_scan", "android": "https://dc.lft.to/lastmile_qr_scan"}, "lon": -77.02698033333333, "type": "electric_scooter", "fusion_lat": 0.0, "lat": 38.949756, "name": "626572799bfae3bcab2d86162e5b3515", "fusion_lon": 0.0, "bike_id": "626572799bfae3bcab2d86162e5b3515", "is_disabled": 0, "is_reserved": 0}, {"rental_uris": {"ios": "https://dc.lft.to/lastmile_qr_scan", "android": "https://dc.lft.to/lastmile_qr_scan"}, "lon": -77.04448116666667, "type": "electric_scooter", "fusion_lat": 0.0, "lat": 38.910092666666664, "name": "8b34d33d7304f85bf904595976a44246", "fusion_lon": 0.0, "bike_id": "8b34d33d7304f85bf904595976a44246", "is_disabled": 0, "is_reserved": 0}, {"rental_uris": {"ios": "https://dc.lft.to/lastmile_qr_scan", "android": "https://dc.lft.to/lastmile_qr_scan"}, "lon": -77.04337483333333, "type": "electric_scooter", "fusion_lat": 0.0, "lat": 38.908085666666665, "name": "8244f8eb191eaf0731a1dba7c093604e", "fusion_lon": 0.0, "bike_id": "8244f8eb191eaf0731a1dba7c093604e", "is_disabled": 0, "is_reserved": 0}, {"rental_uris": {"ios": "https://dc.lft.to/lastmile_qr_scan", "android": "https://dc.lft.to/lastmile_qr_scan"}, "lon": -76.99882933333333, "type": "electric_scooter", "fusion_lat": 0.0, "lat": 38.907456833333335, "name": "86340af837655860ae83d7d7049854de", "fusion_lon": 0.0, "bike_id": "86340af837655860ae83d7d7049854de", "is_disabled": 0, "is_reserved": 0}, {"rental_uris": {"ios": "https://dc.lft.to/lastmile_qr_scan", "android": "https://dc.lft.to/lastmile_qr_scan"}, "lon": -77.04505783333333, "type": "electric_scooter", "fusion_lat": 0.0, "lat": 38.911815833333335, "name": "eacaca929d6c9b170848733879ab3d73", "fusion_lon": 0.0, "bike_id": "eacaca929d6c9b170848733879ab3d73", "is_disabled": 0, "is_reserved": 0}, {"rental_uris": {"ios": "https://dc.lft.to/lastmile_qr_scan", "android": "https://dc.lft.to/lastmile_qr_scan"}, "lon": -76.94629383333333, "type": "electric_bike", "fusion_lat": 0.0, "lat": 38.94623083333333, "name": "8f09caaa8fea846fe23048cd861dd896", "fusion_lon": 0.0, "bike_id": "8f09caaa8fea846fe23048cd861dd896", "is_disabled": 0, "is_reserved": 0}, {"rental_uris": {"ios": "https://dc.lft.to/lastmile_qr_scan", "android": "https://dc.lft.to/lastmile_qr_scan"}, "lon": -77.053326, "type": "electric_scooter", "fusion_lat": 0.0, "lat": 38.9065465, "name": "e2dc8f813e0bec010024910582f5846c", "fusion_lon": 0.0, "bike_id": "e2dc8f813e0bec010024910582f5846c", "is_disabled": 0, "is_reserved": 0}, {"rental_uris": {"ios": "https://dc.lft.to/lastmile_qr_scan", "android": "https://dc.lft.to/lastmile_qr_scan"}, "lon": -77.03663616666667, "type": "electric_scooter", "fusion_lat": 0.0, "lat": 38.911727, "name": "36fff389e30c578f9ce913339820c3f8", "fusion_lon": 0.0, "bike_id": "36fff389e30c578f9ce913339820c3f8", "is_disabled": 0, "is_reserved": 0}, {"rental_uris": {"ios": "https://dc.lft.to/lastmile_qr_scan", "android": "https://dc.lft.to/lastmile_qr_scan"}, "lon": -77.0398515, "type": "electric_scooter", "fusion_lat": 0.0, "lat": 38.90018116666667, "name": "330220c3a7b840519a79c8f011b927fc", "fusion_lon": 0.0, "bike_id": "330220c3a7b840519a79c8f011b927fc", "is_disabled": 0, "is_reserved": 0}, {"rental_uris": {"ios": "https://dc.lft.to/lastmile_qr_scan", "android": "https://dc.lft.to/lastmile_qr_scan"}, "lon": -77.0393695, "type": "electric_scooter", "fusion_lat": 0.0, "lat": 38.89900816666667, "name": "4559005c44447116b18c06d79853ba31", "fusion_lon": 0.0, "bike_id": "4559005c44447116b18c06d79853ba31", "is_disabled": 0, "is_reserved": 0}, {"rental_uris": {"ios": "https://dc.lft.to/lastmile_qr_scan", "android": "https://dc.lft.to/lastmile_qr_scan"}, "lon": -76.97225566666667, "type": "electric_scooter", "fusion_lat": 0.0, "lat": 38.854888833333334, "name": "c994320415299f4e014b5684b445ebb8", "fusion_lon": 0.0, "bike_id": "c994320415299f4e014b5684b445ebb8", "is_disabled": 0, "is_reserved": 0}, {"rental_uris": {"ios": "https://dc.lft.to/lastmile_qr_scan", "android": "https://dc.lft.to/lastmile_qr_scan"}, "lon": -77.02919783333333, "type": "electric_scooter", "fusion_lat": 0.0, "lat": 38.89547533333333, "name": "e3d849b8b15676d9296a06dc8a8e7a9f", "fusion_lon": 0.0, "bike_id": "e3d849b8b15676d9296a06dc8a8e7a9f", "is_disabled": 0, "is_reserved": 0}, {"rental_uris": {"ios": "https://dc.lft.to/lastmile_qr_scan", "android": "https://dc.lft.to/lastmile_qr_scan"}, "lon": -77.03200466666667, "type": "electric_scooter", "fusion_lat": 0.0, "lat": 38.9117305, "name": "1d4d9428b6b37ea2a7a7d8abbf70be7e", "fusion_lon": 0.0, "bike_id": "1d4d9428b6b37ea2a7a7d8abbf70be7e", "is_disabled": 0, "is_reserved": 0}, {"rental_uris": {"ios": "https://dc.lft.to/lastmile_qr_scan", "android": "https://dc.lft.to/lastmile_qr_scan"}, "lon": -77.0132955, "type": "electric_scooter", "fusion_lat": 0.0, "lat": 38.88043433333333, "name": "932d7ef17b7be84b4d1a5ef1da19d6e4", "fusion_lon": 0.0, "bike_id": "932d7ef17b7be84b4d1a5ef1da19d6e4", "is_disabled": 0, "is_reserved": 0}, {"rental_uris": {"ios": "https://dc.lft.to/lastmile_qr_scan", "android": "https://dc.lft.to/lastmile_qr_scan"}, "lon": -77.05806483333333, "type": "electric_scooter", "fusion_lat": 0.0, "lat": 38.9028815, "name": "869f7b67242657c7e8b6722bac3db3a7", "fusion_lon": 0.0, "bike_id": "869f7b67242657c7e8b6722bac3db3a7", "is_disabled": 0, "is_reserved": 0}, {"rental_uris": {"ios": "https://dc.lft.to/lastmile_qr_scan", "android": "https://dc.lft.to/lastmile_qr_scan"}, "lon": -77.08155716666667, "type": "electric_scooter", "fusion_lat": 0.0, "lat": 38.9470255, "name": "13dfeea5222478f7c9eed737f9d0274a", "fusion_lon": 0.0, "bike_id": "13dfeea5222478f7c9eed737f9d0274a", "is_disabled": 0, "is_reserved": 0}, {"rental_uris": {"ios": "https://dc.lft.to/lastmile_qr_scan", "android": "https://dc.lft.to/lastmile_qr_scan"}, "lon": -76.99947383333334, "type": "electric_scooter", "fusion_lat": 0.0, "lat": 38.84292633333333, "name": "eed562074385ff3a0a9f87a50797f34e", "fusion_lon": 0.0, "bike_id": "eed562074385ff3a0a9f87a50797f34e", "is_disabled": 0, "is_reserved": 0}, {"rental_uris": {"ios": "https://dc.lft.to/lastmile_qr_scan", "android": "https://dc.lft.to/lastmile_qr_scan"}, "lon": -77.03436716666667, "type": "electric_scooter", "fusion_lat": 0.0, "lat": 38.9180875, "name": "ff69995b567a57097ef549af2943a617", "fusion_lon": 0.0, "bike_id": "ff69995b567a57097ef549af2943a617", "is_disabled": 0, "is_reserved": 0}, {"rental_uris": {"ios": "https://dc.lft.to/lastmile_qr_scan", "android": "https://dc.lft.to/lastmile_qr_scan"}, "lon": -77.0704375, "type": "electric_bike", "fusion_lat": 0.0, "lat": 38.82444433333333, "name": "a219528de4e15dca87782f6e37d96b64", "fusion_lon": 0.0, "bike_id": "a219528de4e15dca87782f6e37d96b64", "is_disabled": 0, "is_reserved": 0}, {"rental_uris": {"ios": "https://dc.lft.to/lastmile_qr_scan", "android": "https://dc.lft.to/lastmile_qr_scan"}, "lon": -77.034743, "type": "electric_scooter", "fusion_lat": 0.0, "lat": 38.91706533333333, "name": "feddfaf798e036740b7646bf630224b2", "fusion_lon": 0.0, "bike_id": "feddfaf798e036740b7646bf630224b2", "is_disabled": 0, "is_reserved": 0}, {"rental_uris": {"ios": "https://dc.lft.to/lastmile_qr_scan", "android": "https://dc.lft.to/lastmile_qr_scan"}, "lon": -77.0304645, "type": "electric_scooter", "fusion_lat": 0.0, "lat": 38.8842775, "name": "bf49a2e6b65c0ce26e8d0e1dc9bfc34b", "fusion_lon": 0.0, "bike_id": "bf49a2e6b65c0ce26e8d0e1dc9bfc34b", "is_disabled": 0, "is_reserved": 0}, {"rental_uris": {"ios": "https://dc.lft.to/lastmile_qr_scan", "android": "https://dc.lft.to/lastmile_qr_scan"}, "lon": -77.04141933333334, "type": "electric_scooter", "fusion_lat": 0.0, "lat": 38.92198066666667, "name": "6098c6bcca8075d415add4ba2d449d31", "fusion_lon": 0.0, "bike_id": "6098c6bcca8075d415add4ba2d449d31", "is_disabled": 0, "is_reserved": 0}, {"rental_uris": {"ios": "https://dc.lft.to/lastmile_qr_scan", "android": "https://dc.lft.to/lastmile_qr_scan"}, "lon": -77.02721366666667, "type": "electric_scooter", "fusion_lat": 0.0, "lat": 38.9155305, "name": "d75785a2bf774763bdb295819c5aa9de", "fusion_lon": 0.0, "bike_id": "d75785a2bf774763bdb295819c5aa9de", "is_disabled": 0, "is_reserved": 0}, {"rental_uris": {"ios": "https://dc.lft.to/lastmile_qr_scan", "android": "https://dc.lft.to/lastmile_qr_scan"}, "lon": -76.97905083333333, "type": "electric_bike", "fusion_lat": 0.0, "lat": 38.888557166666665, "name": "1d7e63afd691fbba8cd9a025dc906d9c", "fusion_lon": 0.0, "bike_id": "1d7e63afd691fbba8cd9a025dc906d9c", "is_disabled": 0, "is_reserved": 0}, {"rental_uris": {"ios": "https://dc.lft.to/lastmile_qr_scan", "android": "https://dc.lft.to/lastmile_qr_scan"}, "lon": -77.02239883333333, "type": "electric_scooter", "fusion_lat": 0.0, "lat": 38.879145, "name": "5201007c2c7b2511fdd1ba551f207632", "fusion_lon": 0.0, "bike_id": "5201007c2c7b2511fdd1ba551f207632", "is_disabled": 0, "is_reserved": 0}, {"rental_uris": {"ios": "https://dc.lft.to/lastmile_qr_scan", "android": "https://dc.lft.to/lastmile_qr_scan"}, "lon": -77.04364233333334, "type": "electric_scooter", "fusion_lat": 0.0, "lat": 38.910316333333334, "name": "11eeb8b295b673482b72188d97296118", "fusion_lon": 0.0, "bike_id": "11eeb8b295b673482b72188d97296118", "is_disabled": 0, "is_reserved": 0}, {"rental_uris": {"ios": "https://dc.lft.to/lastmile_qr_scan", "android": "https://dc.lft.to/lastmile_qr_scan"}, "lon": -77.03892016666667, "type": "electric_scooter", "fusion_lat": 0.0, "lat": 38.92217183333333, "name": "0c02359f1ebbdd089042681b5072b412", "fusion_lon": 0.0, "bike_id": "0c02359f1ebbdd089042681b5072b412", "is_disabled": 0, "is_reserved": 0}, {"rental_uris": {"ios": "https://dc.lft.to/lastmile_qr_scan", "android": "https://dc.lft.to/lastmile_qr_scan"}, "lon": -77.02200633333334, "type": "electric_scooter", "fusion_lat": 0.0, "lat": 38.90707333333334, "name": "52e67be363ee0bb97a4793a101f10558", "fusion_lon": 0.0, "bike_id": "52e67be363ee0bb97a4793a101f10558", "is_disabled": 0, "is_reserved": 0}, {"rental_uris": {"ios": "https://dc.lft.to/lastmile_qr_scan", "android": "https://dc.lft.to/lastmile_qr_scan"}, "lon": -77.01432616666666, "type": "electric_scooter", "fusion_lat": 0.0, "lat": 38.9298315, "name": "c469456508fa5c6c8e4ca96774cff56d", "fusion_lon": 0.0, "bike_id": "c469456508fa5c6c8e4ca96774cff56d", "is_disabled": 0, "is_reserved": 0}, {"rental_uris": {"ios": "https://dc.lft.to/lastmile_qr_scan", "android": "https://dc.lft.to/lastmile_qr_scan"}, "lon": -77.03512716666667, "type": "electric_scooter", "fusion_lat": 0.0, "lat": 38.92138516666667, "name": "eb0c559dfa7288347131a7ae23f50f54", "fusion_lon": 0.0, "bike_id": "eb0c559dfa7288347131a7ae23f50f54", "is_disabled": 0, "is_reserved": 0}, {"rental_uris": {"ios": "https://dc.lft.to/lastmile_qr_scan", "android": "https://dc.lft.to/lastmile_qr_scan"}, "lon": -77.04631566666667, "type": "electric_scooter", "fusion_lat": 0.0, "lat": 38.901309499999996, "name": "2963ef3c2f3af00cd30c43da24948027", "fusion_lon": 0.0, "bike_id": "2963ef3c2f3af00cd30c43da24948027", "is_disabled": 0, "is_reserved": 0}, {"rental_uris": {"ios": "https://dc.lft.to/lastmile_qr_scan", "android": "https://dc.lft.to/lastmile_qr_scan"}, "lon": -77.05343666666667, "type": "electric_scooter", "fusion_lat": 0.0, "lat": 38.903476833333336, "name": "b4bd0ef80a24c9092986a4e44c874c16", "fusion_lon": 0.0, "bike_id": "b4bd0ef80a24c9092986a4e44c874c16", "is_disabled": 0, "is_reserved": 0}, {"rental_uris": {"ios": "https://dc.lft.to/lastmile_qr_scan", "android": "https://dc.lft.to/lastmile_qr_scan"}, "lon": -76.990307, "type": "electric_bike", "fusion_lat": 0.0, "lat": 39.0386335, "name": "b243804ee853bfce322015ba89c126fe", "fusion_lon": 0.0, "bike_id": "b243804ee853bfce322015ba89c126fe", "is_disabled": 0, "is_reserved": 0}, {"rental_uris": {"ios": "https://dc.lft.to/lastmile_qr_scan", "android": "https://dc.lft.to/lastmile_qr_scan"}, "lon": -76.98873233333333, "type": "electric_scooter", "fusion_lat": 0.0, "lat": 38.83207683333333, "name": "de884a4c19561bfddd025faa9c3f8604", "fusion_lon": 0.0, "bike_id": "de884a4c19561bfddd025faa9c3f8604", "is_disabled": 0, "is_reserved": 0}, {"rental_uris": {"ios": "https://dc.lft.to/lastmile_qr_scan", "android": "https://dc.lft.to/lastmile_qr_scan"}, "lon": -77.0318185, "type": "electric_scooter", "fusion_lat": 0.0, "lat": 38.899458, "name": "eaf092ddd5a9691c760a63cb7a9aa9ee", "fusion_lon": 0.0, "bike_id": "eaf092ddd5a9691c760a63cb7a9aa9ee", "is_disabled": 0, "is_reserved": 0}, {"rental_uris": {"ios": "https://dc.lft.to/lastmile_qr_scan", "android": "https://dc.lft.to/lastmile_qr_scan"}, "lon": -77.0168775, "type": "electric_bike", "fusion_lat": 0.0, "lat": 38.97511683333333, "name": "aa41d6b15daeb6850a1204de779ed973", "fusion_lon": 0.0, "bike_id": "aa41d6b15daeb6850a1204de779ed973", "is_disabled": 0, "is_reserved": 0}, {"rental_uris": {"ios": "https://dc.lft.to/lastmile_qr_scan", "android": "https://dc.lft.to/lastmile_qr_scan"}, "lon": -77.024191, "type": "electric_scooter", "fusion_lat": 0.0, "lat": 38.92650033333334, "name": "967c37b8c95ed519af823f6106bf7322", "fusion_lon": 0.0, "bike_id": "967c37b8c95ed519af823f6106bf7322", "is_disabled": 0, "is_reserved": 0}, {"rental_uris": {"ios": "https://dc.lft.to/lastmile_qr_scan", "android": "https://dc.lft.to/lastmile_qr_scan"}, "lon": -77.042661, "type": "electric_scooter", "fusion_lat": 0.0, "lat": 38.8958545, "name": "db4ad731935bb5e34f2bb8fefeeaf5f2", "fusion_lon": 0.0, "bike_id": "db4ad731935bb5e34f2bb8fefeeaf5f2", "is_disabled": 0, "is_reserved": 0}, {"rental_uris": {"ios": "https://dc.lft.to/lastmile_qr_scan", "android": "https://dc.lft.to/lastmile_qr_scan"}, "lon": -77.06403816666666, "type": "electric_bike", "fusion_lat": 0.0, "lat": 38.84341783333333, "name": "153719ff3d6089ea3b6fd92ba4860ee8", "fusion_lon": 0.0, "bike_id": "153719ff3d6089ea3b6fd92ba4860ee8", "is_disabled": 0, "is_reserved": 0}, {"rental_uris": {"ios": "https://dc.lft.to/lastmile_qr_scan", "android": "https://dc.lft.to/lastmile_qr_scan"}, "lon": -77.05392166666667, "type": "electric_scooter", "fusion_lat": 0.0, "lat": 38.9025145, "name": "ff25283b78d9204c45c4a3b5a0d1bb39", "fusion_lon": 0.0, "bike_id": "ff25283b78d9204c45c4a3b5a0d1bb39", "is_disabled": 0, "is_reserved": 0}, {"rental_uris": {"ios": "https://dc.lft.to/lastmile_qr_scan", "android": "https://dc.lft.to/lastmile_qr_scan"}, "lon": -77.03541, "type": "electric_scooter", "fusion_lat": 0.0, "lat": 38.926258, "name": "1dcc9b1814355c5d1baad8481af3de9a", "fusion_lon": 0.0, "bike_id": "1dcc9b1814355c5d1baad8481af3de9a", "is_disabled": 0, "is_reserved": 0}, {"rental_uris": {"ios": "https://dc.lft.to/lastmile_qr_scan", "android": "https://dc.lft.to/lastmile_qr_scan"}, "lon": -77.03335616666666, "type": "electric_scooter", "fusion_lat": 0.0, "lat": 38.900113833333336, "name": "cbc0f63c90e0a1eb437c1d652cecfa03", "fusion_lon": 0.0, "bike_id": "cbc0f63c90e0a1eb437c1d652cecfa03", "is_disabled": 0, "is_reserved": 0}, {"rental_uris": {"ios": "https://dc.lft.to/lastmile_qr_scan", "android": "https://dc.lft.to/lastmile_qr_scan"}, "lon": -77.03144083333333, "type": "electric_scooter", "fusion_lat": 0.0, "lat": 38.90631283333333, "name": "e03aa82cbf72c415ced00ca08e71041e", "fusion_lon": 0.0, "bike_id": "e03aa82cbf72c415ced00ca08e71041e", "is_disabled": 0, "is_reserved": 0}, {"rental_uris": {"ios": "https://dc.lft.to/lastmile_qr_scan", "android": "https://dc.lft.to/lastmile_qr_scan"}, "lon": -77.02385733333334, "type": "electric_scooter", "fusion_lat": 0.0, "lat": 38.9250605, "name": "aa2c629cfae11c112074ba29f3548fe2", "fusion_lon": 0.0, "bike_id": "aa2c629cfae11c112074ba29f3548fe2", "is_disabled": 0, "is_reserved": 0}, {"rental_uris": {"ios": "https://dc.lft.to/lastmile_qr_scan", "android": "https://dc.lft.to/lastmile_qr_scan"}, "lon": -76.97703616666666, "type": "electric_scooter", "fusion_lat": 0.0, "lat": 38.897065, "name": "40e4170dd809b671db00a5d1c0aa5dc1", "fusion_lon": 0.0, "bike_id": "40e4170dd809b671db00a5d1c0aa5dc1", "is_disabled": 0, "is_reserved": 0}, {"rental_uris": {"ios": "https://dc.lft.to/lastmile_qr_scan", "android": "https://dc.lft.to/lastmile_qr_scan"}, "lon": -77.023442, "type": "electric_scooter", "fusion_lat": 0.0, "lat": 38.929656333333334, "name": "0c56047ee5af4fb9799e6a6b1550c00f", "fusion_lon": 0.0, "bike_id": "0c56047ee5af4fb9799e6a6b1550c00f", "is_disabled": 0, "is_reserved": 0}, {"rental_uris": {"ios": "https://dc.lft.to/lastmile_qr_scan", "android": "https://dc.lft.to/lastmile_qr_scan"}, "lon": -77.04152283333333, "type": "electric_scooter", "fusion_lat": 0.0, "lat": 38.900041333333334, "name": "6a710c6ada20879c509ada05dacba9cf", "fusion_lon": 0.0, "bike_id": "6a710c6ada20879c509ada05dacba9cf", "is_disabled": 0, "is_reserved": 0}, {"rental_uris": {"ios": "https://dc.lft.to/lastmile_qr_scan", "android": "https://dc.lft.to/lastmile_qr_scan"}, "lon": -77.01924916666667, "type": "electric_scooter", "fusion_lat": 0.0, "lat": 38.902264833333334, "name": "d85cbac22648370082202fbb6a9e6b08", "fusion_lon": 0.0, "bike_id": "d85cbac22648370082202fbb6a9e6b08", "is_disabled": 0, "is_reserved": 0}, {"rental_uris": {"ios": "https://dc.lft.to/lastmile_qr_scan", "android": "https://dc.lft.to/lastmile_qr_scan"}, "lon": -77.0334935, "type": "electric_scooter", "fusion_lat": 0.0, "lat": 38.89801383333333, "name": "58db42cb42d4472812c687518a91e016", "fusion_lon": 0.0, "bike_id": "58db42cb42d4472812c687518a91e016", "is_disabled": 0, "is_reserved": 0}, {"rental_uris": {"ios": "https://dc.lft.to/lastmile_qr_scan", "android": "https://dc.lft.to/lastmile_qr_scan"}, "lon": -77.01672033333334, "type": "electric_scooter", "fusion_lat": 0.0, "lat": 38.900399166666666, "name": "cee83a7eee936b49530422a6247acc60", "fusion_lon": 0.0, "bike_id": "cee83a7eee936b49530422a6247acc60", "is_disabled": 0, "is_reserved": 0}, {"rental_uris": {"ios": "https://dc.lft.to/lastmile_qr_scan", "android": "https://dc.lft.to/lastmile_qr_scan"}, "lon": -77.05183766666667, "type": "electric_scooter", "fusion_lat": 0.0, "lat": 38.924242666666665, "name": "7ce514b277f8e26d15c86d66db059434", "fusion_lon": 0.0, "bike_id": "7ce514b277f8e26d15c86d66db059434", "is_disabled": 0, "is_reserved": 0}, {"rental_uris": {"ios": "https://dc.lft.to/lastmile_qr_scan", "android": "https://dc.lft.to/lastmile_qr_scan"}, "lon": -77.0465365, "type": "electric_scooter", "fusion_lat": 0.0, "lat": 38.8973115, "name": "fc73768494ed8ddb3c08937fa652da6d", "fusion_lon": 0.0, "bike_id": "fc73768494ed8ddb3c08937fa652da6d", "is_disabled": 0, "is_reserved": 0}, {"rental_uris": {"ios": "https://dc.lft.to/lastmile_qr_scan", "android": "https://dc.lft.to/lastmile_qr_scan"}, "lon": -77.04894683333333, "type": "electric_scooter", "fusion_lat": 0.0, "lat": 38.8964415, "name": "2f2e147ab695b90a4b1a7dc4e6ea9dbb", "fusion_lon": 0.0, "bike_id": "2f2e147ab695b90a4b1a7dc4e6ea9dbb", "is_disabled": 0, "is_reserved": 0}, {"rental_uris": {"ios": "https://dc.lft.to/lastmile_qr_scan", "android": "https://dc.lft.to/lastmile_qr_scan"}, "lon": -77.00574133333333, "type": "electric_scooter", "fusion_lat": 0.0, "lat": 38.872305833333336, "name": "533cccc7ba6d95175104071abeff1db1", "fusion_lon": 0.0, "bike_id": "533cccc7ba6d95175104071abeff1db1", "is_disabled": 0, "is_reserved": 0}, {"rental_uris": {"ios": "https://dc.lft.to/lastmile_qr_scan", "android": "https://dc.lft.to/lastmile_qr_scan"}, "lon": -77.09656166666667, "type": "electric_scooter", "fusion_lat": 0.0, "lat": 38.91618033333334, "name": "f3537f85e9a9566087426963ac0a398c", "fusion_lon": 0.0, "bike_id": "f3537f85e9a9566087426963ac0a398c", "is_disabled": 0, "is_reserved": 0}, {"rental_uris": {"ios": "https://dc.lft.to/lastmile_qr_scan", "android": "https://dc.lft.to/lastmile_qr_scan"}, "lon": -77.022444, "type": "electric_scooter", "fusion_lat": 0.0, "lat": 38.91044866666667, "name": "5add4477bfc340531e86d4f6d160340a", "fusion_lon": 0.0, "bike_id": "5add4477bfc340531e86d4f6d160340a", "is_disabled": 0, "is_reserved": 0}, {"rental_uris": {"ios": "https://dc.lft.to/lastmile_qr_scan", "android": "https://dc.lft.to/lastmile_qr_scan"}, "lon": -77.02716483333333, "type": "electric_scooter", "fusion_lat": 0.0, "lat": 38.92481016666667, "name": "91a5f3c6f8d919c923e0fa1e6deb9396", "fusion_lon": 0.0, "bike_id": "91a5f3c6f8d919c923e0fa1e6deb9396", "is_disabled": 0, "is_reserved": 0}, {"rental_uris": {"ios": "https://dc.lft.to/lastmile_qr_scan", "android": "https://dc.lft.to/lastmile_qr_scan"}, "lon": -77.02806883333334, "type": "electric_scooter", "fusion_lat": 0.0, "lat": 38.8964315, "name": "ff7bf28980b754e29a5f76f3db7d1366", "fusion_lon": 0.0, "bike_id": "ff7bf28980b754e29a5f76f3db7d1366", "is_disabled": 0, "is_reserved": 0}, {"rental_uris": {"ios": "https://dc.lft.to/lastmile_qr_scan", "android": "https://dc.lft.to/lastmile_qr_scan"}, "lon": -77.03210916666667, "type": "electric_scooter", "fusion_lat": 0.0, "lat": 38.911088166666666, "name": "5dc393da5fe8a788f3f0dd6ae103f4bb", "fusion_lon": 0.0, "bike_id": "5dc393da5fe8a788f3f0dd6ae103f4bb", "is_disabled": 0, "is_reserved": 0}, {"rental_uris": {"ios": "https://dc.lft.to/lastmile_qr_scan", "android": "https://dc.lft.to/lastmile_qr_scan"}, "lon": -77.03645866666666, "type": "electric_scooter", "fusion_lat": 0.0, "lat": 38.92922, "name": "f998c21efd65e24de0aee0c78083008a", "fusion_lon": 0.0, "bike_id": "f998c21efd65e24de0aee0c78083008a", "is_disabled": 0, "is_reserved": 0}, {"rental_uris": {"ios": "https://dc.lft.to/lastmile_qr_scan", "android": "https://dc.lft.to/lastmile_qr_scan"}, "lon": -77.07564283333333, "type": "electric_scooter", "fusion_lat": 0.0, "lat": 38.9208995, "name": "eddd31ee835d6ce5eb158879c898980e", "fusion_lon": 0.0, "bike_id": "eddd31ee835d6ce5eb158879c898980e", "is_disabled": 0, "is_reserved": 0},