{"data": {"bikes": [{"rental_uris": {"ios": "https://dc.lft.to/lastmile_qr_scan", "android": "https://dc.lft.to/lastmile_qr_scan"}, "fusion_lat": 0.0, "name": "7dcecb70570864363f8eff7afe62b002", "bike_id": "7dcecb70570864363f8eff7afe62b002", "is_disabled": 0, "type": "electric_scooter", "lat": 38.92329333333333, "lon": -77.0368305, "is_reserved": 0, "fusion_lon": 0.0}, {"rental_uris": {"ios": "https://dc.lft.to/lastmile_qr_scan", "android": "https://dc.lft.to/lastmile_qr_scan"}, "fusion_lat": 0.0, "name": "5301dcd92c38d1de49dbc373e2296da5", "bike_id": "5301dcd92c38d1de49dbc373e2296da5", "is_disabled": 0, "type": "electric_bike", "lat": 38.91584266666667, "lon": -76.97882416666667, "is_reserved": 0, "fusion_lon": 0.0}, {"rental_uris": {"ios": "https://dc.lft.to/lastmile_qr_scan", "android": "https://dc.lft.to/lastmile_qr_scan"}, "fusion_lat": 0.0, "name": "4d9d85378ad60f4a1c5f4501faa496be", "bike_id": "4d9d85378ad60f4a1c5f4501faa496be", "is_disabled": 0, "type": "electric_bike", "lat": 39.0886075, "lon": -77.17842383333333, "is_reserved": 0, "fusion_lon": 0.0}, {"rental_uris": {"ios": "https://dc.lft.to/lastmile_qr_scan", "android": "https://dc.lft.to/lastmile_qr_scan"}, "fusion_lat": 0.0, "name": "2f56fa4b7a0257d1a41ff579b4ba046f", "bike_id": "2f56fa4b7a0257d1a41ff579b4ba046f", "is_disabled": 0, "type": "electric_bike", "lat": 38.87478333333333, "lon": -76.96522866666666, "is_reserved": 0, "fusion_lon": 0.0}, {"rental_uris": {"ios": "https://dc.lft.to/lastmile_qr_scan", "android": "https://dc.lft.to/lastmile_qr_scan"}, "fusion_lat": 0.0, "name": "b442a0206f3292656bed1e7911a9fd1d", "bike_id": "b442a0206f3292656bed1e7911a9fd1d", "is_disabled": 0, "type": "electric_scooter", "lat": 38.906806333333336, "lon": -77.02693916666666, "is_reserved": 0, "fusion_lon": 0.0}, {"rental_uris": {"ios": "https://dc.lft.to/lastmile_qr_scan", "android": "https://dc.lft.to/lastmile_qr_scan"}, "fusion_lat": 0.0, "name": "d99b592a526dac66ed48c827d79e6942", "bike_id": "d99b592a526dac66ed48c827d79e6942", "is_disabled": 0, "type": "electric_scooter", "lat": 38.899803, "lon": -76.93989433333333, "is_reserved": 0, "fusion_lon": 0.0}, {"rental_uris": {"ios": "https://dc.lft.to/lastmile_qr_scan", "android": "https://dc.lft.to/lastmile_qr_scan"}, "fusion_lat": 0.0, "name": "0ebd6e0550fb133a67e338cf95bde429", "bike_id": "0ebd6e0550fb133a67e338cf95bde429", "is_disabled": 0, "type": "electric_scooter", "lat": 38.91814083333333, "lon": -77.03218216666667, "is_reserved": 0, "fusion_lon": 0.0}, {"rental_uris": {"ios": "https://dc.lft.to/lastmile_qr_scan", "android": "https://dc.lft.to/lastmile_qr_scan"}, "fusion_lat": 0.0, "name": "2ffd4611c4e703f496d14d29653ab378", "bike_id": "2ffd4611c4e703f496d14d29653ab378", "is_disabled": 0, "type": "electric_scooter", "lat": 38.92254283333333, "lon": -77.0193555, "is_reserved": 0, "fusion_lon": 0.0}, {"rental_uris": {"ios": "https://dc.lft.to/lastmile_qr_scan", "android": "https://dc.lft.to/lastmile_qr_scan"}, "fusion_lat": 0.0, "name": "5a6d5993b2c115adae9dcbc15525cc69", "bike_id": "5a6d5993b2c115adae9dcbc15525cc69", "is_disabled": 0, "type": "electric_scooter", "lat": 38.91405783333333, "lon": -77.02420083333334, "is_reserved": 0, "fusion_lon": 0.0}, {"rental_uris": {"ios": "https://dc.lft.to/lastmile_qr_scan", "android": "https://dc.lft.to/lastmile_qr_scan"}, "fusion_lat": 0.0, "name": "419d8d9af8331f7368721f5bedbd64f8", "bike_id": "419d8d9af8331f7368721f5bedbd64f8", "is_disabled": 0, "type": "electric_bike", "lat": 38.92853316666667, "lon": -77.22208383333333, "is_reserved": 0, "fusion_lon": 0.0}, {"rental_uris": {"ios": "https://dc.lft.to/lastmile_qr_scan", "android": "https://dc.lft.to/lastmile_qr_scan"}, "fusion_lat": 0.0, "name": "76dc08dd98d5764d61268c1e158a6114", "bike_id": "76dc08dd98d5764d61268c1e158a6114", "is_disabled": 0, "type": "electric_scooter", "lat": 38.919923833333335, "lon": -77.03293116666667, "is_reserved": 0, "fusion_lon": 0.0}, {"rental_uris": {"ios": "https://dc.lft.to/lastmile_qr_scan", "android": "https://dc.lft.to/lastmile_qr_scan"}, "fusion_lat": 0.0, "name": "eeedff2145412b33e325dca63cae4735", "bike_id": "eeedff2145412b33e325dca63cae4735", "is_disabled": 0, "type": "electric_scooter", "lat": 38.93420616666667, "lon": -77.04158716666667, "is_reserved": 0, "fusion_lon": 0.0}, {"rental_uris": {"ios": "https://dc.lft.to/lastmile_qr_scan", "android": "https://dc.lft.to/lastmile_qr_scan"}, "fusion_lat": 0.0, "name": "c07399861f7e86243cb47beed457e9be", "bike_id": "c07399861f7e86243cb47beed457e9be", "is_disabled": 0, "type": "electric_scooter", "lat": 38.9055795, "lon": -77.03456866666667, "is_reserved": 0, "fusion_lon": 0.0}, {"rental_uris": {"ios": "https://dc.lft.to/lastmile_qr_scan", "android": "https://dc.lft.to/lastmile_qr_scan"}, "fusion_lat": 0.0, "name": "9d50adc347fcee986e2f423bf1511106", "bike_id": "9d50adc347fcee986e2f423bf1511106", "is_disabled": 0, "type": "electric_bike", "lat": 38.854140666666666, "lon": -77.12068616666667, "is_reserved": 0, "fusion_lon": 0.0}, {"rental_uris": {"ios": "https://dc.lft.to/lastmile_qr_scan", "android": "https://dc.lft.to/lastmile_qr_scan"}, "fusion_lat": 0.0, "name": "fd0010864c368f05fb696481c4280dd2", "bike_id": "fd0010864c368f05fb696481c4280dd2", "is_disabled": 0, "type": "electric_scooter", "lat": 38.93883433333333, "lon": -77.02486083333334, "is_reserved": 0, "fusion_lon": 0.0}, {"rental_uris": {"ios": "https://dc.lft.to/lastmile_qr_scan", "android": "https://dc.lft.to/lastmile_qr_scan"}, "fusion_lat": 0.0, "name": "5a455000ceb56f5744ca24b232cca521", "bike_id": "5a455000ceb56f5744ca24b232cca521", "is_disabled": 0, "type": "electric_bike", "lat": 38.88989883333333, "lon": -76.95408166666667, "is_reserved": 0, "fusion_lon": 0.0}, {"rental_uris": {"ios": "https://dc.lft.to/lastmile_qr_scan", "android": "https://dc.lft.to/lastmile_qr_scan"}, "fusion_lat": 0.0, "name": "f16a06b079c5523cd810e34a770cdb4e", "bike_id": "f16a06b079c5523cd810e34a770cdb4e", "is_disabled": 0, "type": "electric_scooter", "lat": 38.916142666666666, "lon": -77.0364025, "is_reserved": 0, "fusion_lon": 0.0}, {"rental_uris": {"ios": "https://dc.lft.to/lastmile_qr_scan", "android": "https://dc.lft.to/lastmile_qr_scan"}, "fusion_lat": 0.0, "name": "3d5c68c86757f0636e33e677e2d82940", "bike_id": "3d5c68c86757f0636e33e677e2d82940", "is_disabled": 0, "type": "electric_scooter", "lat": 38.9190435, "lon": -77.02127783333333, "is_reserved": 0, "fusion_lon": 0.0}, {"rental_uris": {"ios": "https://dc.lft.to/lastmile_qr_scan", "android": "https://dc.lft.to/lastmile_qr_scan"}, "fusion_lat": 0.0, "name": "5158c0e6851841b57a56480cbaf120a8", "bike_id": "5158c0e6851841b57a56480cbaf120a8", "is_disabled": 0, "type": "electric_bike", "lat": 38.85604983333333, "lon": -77.11244433333333, "is_reserved": 0, "fusion_lon": 0.0}, {"rental_uris": {"ios": "https://dc.lft.to/lastmile_qr_scan", "android": "https://dc.lft.to/lastmile_qr_scan"}, "fusion_lat": 0.0, "name": "8b7358aa3c71a8da383af40b3844c6b8", "bike_id": "8b7358aa3c71a8da383af40b3844c6b8", "is_disabled": 0, "type": "electric_scooter", "lat": 38.92808516666667, "lon": -77.05396333333333, "is_reserved": 0, "fusion_lon": 0.0}, {"rental_uris": {"ios": "https://dc.lft.to/lastmile_qr_scan", "android": "https://dc.lft.to/lastmile_qr_scan"}, "fusion_lat": 0.0, "name": "ebff8647e2879716c4670e15c585c7a1", "bike_id": "ebff8647e2879716c4670e15c585c7a1", "is_disabled": 0, "type": "electric_scooter", "lat": 38.90576183333334, "lon": -77.04097083333333, "is_reserved": 0, "fusion_lon": 0.0}, {"rental_uris": {"ios": "https://dc.lft.to/lastmile_qr_scan", "android": "https://dc.lft.to/lastmile_qr_scan"}, "fusion_lat": 0.0, "name": "88c1e5711972eca7dd82ca7911b20af8", "bike_id": "88c1e5711972eca7dd82ca7911b20af8", "is_disabled": 0, "type": "electric_scooter", "lat": 38.901152833333335, "lon": -77.00351016666667, "is_reserved": 0, "fusion_lon": 0.0}, {"rental_uris": {"ios": "https://dc.lft.to/lastmile_qr_scan", "android": "https://dc.lft.to/lastmile_qr_scan"}, "fusion_lat": 0.0, "name": "85b0c298836f446c4632c7922b1b9ec8", "bike_id": "85b0c298836f446c4632c7922b1b9ec8", "is_disabled": 0, "type": "electric_scooter", "lat": 38.919616833333336, "lon": -77.02478883333333, "is_reserved": 0, "fusion_lon": 0.0}, {"rental_uris": {"ios": "https://dc.lft.to/lastmile_qr_scan", "android": "https://dc.lft.to/lastmile_qr_scan"}, "fusion_lat": 0.0, "name": "0cf6308d957b801c1e77897079ec43ad", "bike_id": "0cf6308d957b801c1e77897079ec43ad", "is_disabled": 0, "type": "electric_scooter", "lat": 38.9154875, "lon": -77.02213266666666, "is_reserved": 0, "fusion_lon": 0.0}, {"rental_uris": {"ios": "https://dc.lft.to/lastmile_qr_scan", "android": "https://dc.lft.to/lastmile_qr_scan"}, "fusion_lat": 0.0, "name": "c93f958b11a2512314424c0bf8d1d031", "bike_id": "c93f958b11a2512314424c0bf8d1d031", "is_disabled": 0, "type": "electric_bike", "lat": 38.900462166666664, "lon": -77.05077166666666, "is_reserved": 0, "fusion_lon": 0.0}, {"rental_uris": {"ios": "https://dc.lft.to/lastmile_qr_scan", "android": "https://dc.lft.to/lastmile_qr_scan"}, "fusion_lat": 0.0, "name": "4d4d64cca39cc3c8889a3dc093ec3317", "bike_id": "4d4d64cca39cc3c8889a3dc093ec3317", "is_disabled": 0, "type": "electric_scooter", "lat": 38.948136, "lon": -76.99900783333334, "is_reserved": 0, "fusion_lon": 0.0}, {"rental_uris": {"ios": "https://dc.lft.to/lastmile_qr_scan", "android": "https://dc.lft.to/lastmile_qr_scan"}, "fusion_lat": 0.0, "name": "75aab5ef66521cca4d32ea0bc806c9cc", "bike_id": "75aab5ef66521cca4d32ea0bc806c9cc", "is_disabled": 0, "type": "electric_scooter", "lat": 38.902511, "lon": -77.01754833333334, "is_reserved": 0, "fusion_lon": 0.0}, {"rental_uris": {"ios": "https://dc.lft.to/lastmile_qr_scan", "android": "https://dc.lft.to/lastmile_qr_scan"}, "fusion_lat": 0.0, "name": "a3b05a033794a6400614146df4a037d9", "bike_id": "a3b05a033794a6400614146df4a037d9", "is_disabled": 0, "type": "electric_scooter", "lat": 38.91478166666667, "lon": -77.02178766666667, "is_reserved": 0, "fusion_lon": 0.0}, {"rental_uris": {"ios": "https://dc.lft.to/lastmile_qr_scan", "android": "https://dc.lft.to/lastmile_qr_scan"}, "fusion_lat": 0.0, "name": "f84623c60d21f21bae9701d22ba5d78f", "bike_id": "f84623c60d21f21bae9701d22ba5d78f", "is_disabled": 0, "type": "electric_scooter", "lat": 38.91065716666667, "lon": -77.04479433333333, "is_reserved": 0, "fusion_lon": 0.0}, {"rental_uris": {"ios": "https://dc.lft.to/lastmile_qr_scan", "android": "https://dc.lft.to/lastmile_qr_scan"}, "fusion_lat": 0.0, "name": "694b7b0d2ec56d85f9e748e13b14fea2", "bike_id": "694b7b0d2ec56d85f9e748e13b14fea2", "is_disabled": 0, "type": "electric_scooter", "lat": 38.904186833333334, "lon": -77.05057533333333, "is_reserved": 0, "fusion_lon": 0.0}, {"rental_uris": {"ios": "https://dc.lft.to/lastmile_qr_scan", "android": "https://dc.lft.to/lastmile_qr_scan"}, "fusion_lat": 0.0, "name": "b049ef55ab1a03c260cb4803da5a214f", "bike_id": "b049ef55ab1a03c260cb4803da5a214f", "is_disabled": 0, "type": "electric_scooter", "lat": 38.8923025, "lon": -77.04999116666667, "is_reserved": 0, "fusion_lon": 0.0}, {"rental_uris": {"ios": "https://dc.lft.to/lastmile_qr_scan", "android": "https://dc.lft.to/lastmile_qr_scan"}, "fusion_lat": 0.0, "name": "29fe818ceadcd7dba855eba965c5ee2f", "bike_id": "29fe818ceadcd7dba855eba965c5ee2f", "is_disabled": 0, "type": "electric_scooter", "lat": 38.91850733333333, "lon": -77.03214183333333, "is_reserved": 0, "fusion_lon": 0.0}, {"rental_uris": {"ios": "https://dc.lft.to/lastmile_qr_scan", "android": "https://dc.lft.to/lastmile_qr_scan"}, "fusion_lat": 0.0, "name": "a147ab2aae1e606fca3929b959f5a403", "bike_id": "a147ab2aae1e606fca3929b959f5a403", "is_disabled": 0, "type": "electric_scooter", "lat": 38.8992945, "lon": -77.02800883333333, "is_reserved": 0, "fusion_lon": 0.0}, {"rental_uris": {"ios": "https://dc.lft.to/lastmile_qr_scan", "android": "https://dc.lft.to/lastmile_qr_scan"}, "fusion_lat": 0.0, "name": "e31c13cc720a01c85a4c15a6d80d00b6", "bike_id": "e31c13cc720a01c85a4c15a6d80d00b6", "is_disabled": 0, "type": "electric_scooter", "lat": 38.91690716666667, "lon": -76.9795, "is_reserved": 0, "fusion_lon": 0.0}, {"rental_uris": {"ios": "https://dc.lft.to/lastmile_qr_scan", "android": "https://dc.lft.to/lastmile_qr_scan"}, "fusion_lat": 0.0, "name": "425b009b67ecd5e863086e9e1a9b14d1", "bike_id": "425b009b67ecd5e863086e9e1a9b14d1", "is_disabled": 0, "type": "electric_bike", "lat": 38.870610166666665, "lon": -77.11058716666666, "is_reserved": 0, "fusion_lon": 0.0}, {"rental_uris": {"ios": "https://dc.lft.to/lastmile_qr_scan", "android": "https://dc.lft.to/lastmile_qr_scan"}, "fusion_lat": 0.0, "name": "533191c1e76b8f0ead691935e73c616a", "bike_id": "533191c1e76b8f0ead691935e73c616a", "is_disabled": 0, "type": "electric_scooter", "lat": 38.90279483333333, "lon": -77.04391416666667, "is_reserved": 0, "fusion_lon": 0.0}, {"rental_uris": {"ios": "https://dc.lft.to/lastmile_qr_scan", "android": "https://dc.lft.to/lastmile_qr_scan"}, "fusion_lat": 0.0, "name": "2f985bfc315ef77f09e70e6c0faf614c", "bike_id": "2f985bfc315ef77f09e70e6c0faf614c", "is_disabled": 0, "type": "electric_scooter", "lat": 38.89906033333333, "lon": -76.995062, "is_reserved": 0, "fusion_lon": 0.0}, {"rental_uris": {"ios": "https://dc.lft.to/lastmile_qr_scan", "android": "https://dc.lft.to/lastmile_qr_scan"}, "fusion_lat": 0.0, "name": "bf8ff4728c0116cdc2a3fd5384b48310", "bike_id": "bf8ff4728c0116cdc2a3fd5384b48310", "is_disabled": 0, "type": "electric_scooter", "lat": 38.91939466666667, "lon": -77.04559383333333, "is_reserved": 0, "fusion_lon": 0.0}, {"rental_uris": {"ios": "https://dc.lft.to/lastmile_qr_scan", "android": "https://dc.lft.to/lastmile_qr_scan"}, "fusion_lat": 0.0, "name": "dbc3c31bc9fb08c34120de502f89a3b9", "bike_id": "dbc3c31bc9fb08c34120de502f89a3b9", "is_disabled": 0, "type": "electric_scooter", "lat": 38.8667815, "lon": -76.98503583333333, "is_reserved": 0, "fusion_lon": 0.0}, {"rental_uris": {"ios": "https://dc.lft.to/lastmile_qr_scan", "android": "https://dc.lft.to/lastmile_qr_scan"}, "fusion_lat": 0.0, "name": "b73083708fa58fcf4718f9809611591e", "bike_id": "b73083708fa58fcf4718f9809611591e", "is_disabled": 0, "type": "electric_scooter", "lat": 38.9639875, "lon": -77.027663, "is_reserved": 0, "fusion_lon": 0.0}, {"rental_uris": {"ios": "https://dc.lft.to/lastmile_qr_scan", "android": "https://dc.lft.to/lastmile_qr_scan"}, "fusion_lat": 0.0, "name": "10712a187ccdafd575f9794be1902fb2", "bike_id": "10712a187ccdafd575f9794be1902fb2", "is_disabled": 0, "type": "electric_scooter", "lat": 38.901666166666665, "lon": -77.02631466666666, "is_reserved": 0, "fusion_lon": 0.0}, {"rental_uris": {"ios": "https://dc.lft.to/lastmile_qr_scan", "android": "https://dc.lft.to/lastmile_qr_scan"}, "fusion_lat": 0.0, "name": "f976fe54df7ac08732a35fdfcad1aa4e", "bike_id": "f976fe54df7ac08732a35fdfcad1aa4e", "is_disabled": 0, "type": "electric_scooter", "lat": 38.89607616666667, "lon": -77.02321033333334, "is_reserved": 0, "fusion_lon": 0.0}, {"rental_uris": {"ios": "https://dc.lft.to/lastmile_qr_scan", "android": "https://dc.lft.to/lastmile_qr_scan"}, "fusion_lat": 0.0, "name": "2c7412ddc6bf2baf601df9a43c66db65", "bike_id": "2c7412ddc6bf2baf601df9a43c66db65", "is_disabled": 0, "type": "electric_scooter", "lat": 38.898261833333336, "lon": -76.94651583333334, "is_reserved": 0, "fusion_lon": 0.0}, {"rental_uris": {"ios": "https://dc.lft.to/lastmile_qr_scan", "android": "https://dc.lft.to/lastmile_qr_scan"}, "fusion_lat": 0.0, "name": "ff96551f72632eb4f2d2f5b979173a66", "bike_id": "ff96551f72632eb4f2d2f5b979173a66", "is_disabled": 0, "type": "electric_scooter", "lat": 38.902525, "lon": -77.0260045, "is_reserved": 0, "fusion_lon": 0.0}, {"rental_uris": {"ios": "https://dc.lft.to/lastmile_qr_scan", "android": "https://dc.lft.to/lastmile_qr_scan"}, "fusion_lat": 0.0, "name": "9f28395152731051b55a9475a2e346e5", "bike_id": "9f28395152731051b55a9475a2e346e5", "is_disabled": 0, "type": "electric_scooter", "lat": 38.91760266666667, "lon": -77.0364715, "is_reserved": 0, "fusion_lon": 0.0}, {"rental_uris": {"ios": "https://dc.lft.to/lastmile_qr_scan", "android": "https://dc.lft.to/lastmile_qr_scan"}, "fusion_lat": 0.0, "name": "fa74a8e497b96fe29a806a12fbe6aafb", "bike_id": "fa74a8e497b96fe29a806a12fbe6aafb", "is_disabled": 0, "type": "electric_bike", "lat": 39.056319333333334, "lon": -77.125246, "is_reserved": 0, "fusion_lon": 0.0}, {"rental_uris": {"ios": "https://dc.lft.to/lastmile_qr_scan", "android": "https://dc.lft.to/lastmile_qr_scan"}, "fusion_lat": 0.0, "name": "a55526f06bede6896ccbaa0800e453a5", "bike_id": "a55526f06bede6896ccbaa0800e453a5", "is_disabled": 0, "type": "electric_scooter", "lat": 38.88737316666667, "lon": -77.0152855, "is_reserved": 0, "fusion_lon": 0.0}, {"rental_uris": {"ios": "https://dc.lft.to/lastmile_qr_scan", "android": "https://dc.lft.to/lastmile_qr_scan"}, "fusion_lat": 0.0, "name": "2a1723dc5a3068f41753bf962e778355", "bike_id": "2a1723dc5a3068f41753bf962e778355", "is_disabled": 0, "type": "electric_scooter", "lat": 38.91716733333333, "lon": -77.03183316666667, "is_reserved": 0, "fusion_lon": 0.0}, {"rental_uris": {"ios": "https://dc.lft.to/lastmile_qr_scan", "android": "https://dc.lft.to/lastmile_qr_scan"}, "fusion_lat": 0.0, "name": "a4791c7a34a6222e630362c063965c3e", "bike_id": "a4791c7a34a6222e630362c063965c3e", "is_disabled": 0, "type": "electric_scooter", "lat": 38.89842133333333, "lon": -76.94638316666666, "is_reserved": 0, "fusion_lon": 0.0}, {"rental_uris": {"ios": "https://dc.lft.to/lastmile_qr_scan", "android": "https://dc.lft.to/lastmile_qr_scan"}, "fusion_lat": 0.0, "name": "949fff16cf046b572edeb5308913dc13", "bike_id": "949fff16cf046b572edeb5308913dc13", "is_disabled": 0, "type": "electric_scooter", "lat": 38.91299583333333, "lon": -77.043519, "is_reserved": 0, "fusion_lon": 0.0}, {"rental_uris": {"ios": "https://dc.lft.to/lastmile_qr_scan", "android": "https://dc.lft.to/lastmile_qr_scan"}, "fusion_lat": 0.0, "name": "f879599e95127be64e4321a9962d66d4", "bike_id": "f879599e95127be64e4321a9962d66d4", "is_disabled": 0, "type": "electric_scooter", "lat": 38.9057315, "lon": -77.00599, "is_reserved": 0, "fusion_lon": 0.0}, {"rental_uris": {"ios": "https://dc.lft.to/lastmile_qr_scan", "android": "https://dc.lft.to/lastmile_qr_scan"}, "fusion_lat": 0.0, "name": "9aa0107d475cb751d64426e2461d5e0d", "bike_id": "9aa0107d475cb751d64426e2461d5e0d", "is_disabled": 0, "type": "electric_scooter", "lat": 38.89522733333333, "lon": -77.04336083333334, "is_reserved": 0, "fusion_lon": 0.0}, {"rental_uris": {"ios": "https://dc.lft.to/lastmile_qr_scan", "android": "https://dc.lft.to/lastmile_qr_scan"}, "fusion_lat": 0.0, "name": "c776bc6a3a24a0ca8cdef85c5c0adb7f", "bike_id": "c776bc6a3a24a0ca8cdef85c5c0adb7f", "is_disabled": 0, "type": "electric_scooter", "lat": 38.918005, "lon": -77.02279233333333, "is_reserved": 0, "fusion_lon": 0.0}, {"rental_uris": {"ios": "https://dc.lft.to/lastmile_qr_scan", "android": "https://dc.lft.to/lastmile_qr_scan"}, "fusion_lat": 0.0, "name": "cf8812abb85bc41d146a97d9ac6039c2", "bike_id": "cf8812abb85bc41d146a97d9ac6039c2", "is_disabled": 0, "type": "electric_scooter", "lat": 38.915617833333336, "lon": -77.022121, "is_reserved": 0, "fusion_lon": 0.0}, {"rental_uris": {"ios": "https://dc.lft.to/lastmile_qr_scan", "android": "https://dc.lft.to/lastmile_qr_scan"}, "fusion_lat": 0.0, "name": "1fd6bd90a7beb66253f371e0d69568fd", "bike_id": "1fd6bd90a7beb66253f371e0d69568fd", "is_disabled": 0, "type": "electric_scooter", "lat": 38.911809833333336, "lon": -77.04457633333334, "is_reserved": 0, "fusion_lon": 0.0}, {"rental_uris": {"ios": "https://dc.lft.to/lastmile_qr_scan", "android": "https://dc.lft.to/lastmile_qr_scan"}, "fusion_lat": 0.0, "name": "9ce1233e643c6e70e8d103820bcf597c", "bike_id": "9ce1233e643c6e70e8d103820bcf597c", "is_disabled": 0, "type": "electric_scooter", "lat": 38.90134916666667, "lon": -77.0182555, "is_reserved": 0, "fusion_lon": 0.0}, {"rental_uris": {"ios": "https://dc.lft.to/lastmile_qr_scan", "android": "https://dc.lft.to/lastmile_qr_scan"}, "fusion_lat": 0.0, "name": "e77e76949485cc85d3b8ec10b3460de9", "bike_id": "e77e76949485cc85d3b8ec10b3460de9", "is_disabled": 0, "type": "electric_scooter", "lat": 38.928806, "lon": -77.073024, "is_reserved": 0, "fusion_lon": 0.0}, {"rental_uris": {"ios": "https://dc.lft.to/lastmile_qr_scan", "android": "https://dc.lft.to/lastmile_qr_scan"}, "fusion_lat": 0.0, "name": "a33914e8924deef621265b6cbb0a3b58", "bike_id": "a33914e8924deef621265b6cbb0a3b58", "is_disabled": 0, "type": "electric_scooter", "lat": 38.89738916666667, "lon": -77.02164833333333, "is_reserved": 0, "fusion_lon": 0.0}, {"rental_uris": {"ios": "https://dc.lft.to/lastmile_qr_scan", "android": "https://dc.lft.to/lastmile_qr_scan"}, "fusion_lat": 0.0, "name": "ad1cfb99b542057ef06ac27c58854a31", "bike_id": "ad1cfb99b542057ef06ac27c58854a31", "is_disabled": 0, "type": "electric_scooter", "lat": 38.90385716666667, "lon": -77.033138, "is_reserved": 0, "fusion_lon": 0.0}, {"rental_uris": {"ios": "https://dc.lft.to/lastmile_qr_scan", "android": "https://dc.lft.to/lastmile_qr_scan"}, "fusion_lat": 0.0, "name": "12e84fe222ee12eed88221ed7b23a2b6", "bike_id": "12e84fe222ee12eed88221ed7b23a2b6", "is_disabled": 0, "type": "electric_scooter", "lat": 38.91738516666667, "lon": -77.0318585, "is_reserved": 0, "fusion_lon": 0.0}, {"rental_uris": {"ios": "https://dc.lft.to/lastmile_qr_scan", "android": "https://dc.lft.to/lastmile_qr_scan"}, "fusion_lat": 0.0, "name": "263315ea2af2f79d5ed0241769c25eeb", "bike_id": "263315ea2af2f79d5ed0241769c25eeb", "is_disabled": 0, "type": "electric_scooter", "lat": 38.84289866666667, "lon": -76.999484, "is_reserved": 0, "fusion_lon": 0.0}, {"rental_uris": {"ios": "https://dc.lft.to/lastmile_qr_scan", "android": "https://dc.lft.to/lastmile_qr_scan"}, "fusion_lat": 0.0, "name": "49c2d61d273c73f11cc0945692eabeda", "bike_id": "49c2d61d273c73f11cc0945692eabeda", "is_disabled": 0, "type": "electric_scooter", "lat": 38.89904116666666, "lon": -76.93353483333334, "is_reserved": 0, "fusion_lon": 0.0}, {"rental_uris": {"ios": "https://dc.lft.to/lastmile_qr_scan", "android": "https://dc.lft.to/lastmile_qr_scan"}, "fusion_lat": 0.0, "name": "534cdb84645bfd398997afa9530f10e6", "bike_id": "534cdb84645bfd398997afa9530f10e6", "is_disabled": 0, "type": "electric_scooter", "lat": 38.916813166666664, "lon": -77.02804083333334, "is_reserved": 0, "fusion_lon": 0.0}, {"rental_uris": {"ios": "https://dc.lft.to/lastmile_qr_scan", "android": "https://dc.lft.to/lastmile_qr_scan"}, "fusion_lat": 0.0, "name": "5da28bedb32d22fb3f43e4171353b91d", "bike_id": "5da28bedb32d22fb3f43e4171353b91d", "is_disabled": 0, "type": "electric_scooter", "lat": 38.938865, "lon": -77.024885, "is_reserved": 0, "fusion_lon": 0.0}, {"rental_uris": {"ios": "https://dc.lft.to/lastmile_qr_scan", "android": "https://dc.lft.to/lastmile_qr_scan"}, "fusion_lat": 0.0, "name": "9da054c6d9afb230f62852b2b7c4265c", "bike_id": "9da054c6d9afb230f62852b2b7c4265c", "is_disabled": 0, "type": "electric_scooter", "lat": 38.866514333333335, "lon": -76.98885516666667, "is_reserved": 0, "fusion_lon": 0.0}, {"rental_uris": {"ios": "https://dc.lft.to/lastmile_qr_scan", "android": "https://dc.lft.to/lastmile_qr_scan"}, "fusion_lat": 0.0, "name": "1699aed9c856107bf71402634bb0f09e", "bike_id": "1699aed9c856107bf71402634bb0f09e", "is_disabled": 0, "type": "electric_scooter", "lat": 38.919424, "lon": -77.0134775, "is_reserved": 0, "fusion_lon": 0.0}, {"rental_uris": {"ios": "https://dc.lft.to/lastmile_qr_scan", "android": "https://dc.lft.to/lastmile_qr_scan"}, "fusion_lat": 0.0, "name": "e9cd202016a53ea14b890fc4bf649157", "bike_id": "e9cd202016a53ea14b890fc4bf649157", "is_disabled": 0, "type": "electric_scooter", "lat": 38.89220483333333, "lon": -77.0222045, "is_reserved": 0, "fusion_lon": 0.0}, {"rental_uris": {"ios": "https://dc.lft.to/lastmile_qr_scan", "android": "https://dc.lft.to/lastmile_qr_scan"}, "fusion_lat": 0.0, "name": "61574fc6b59a37e89276a91ef163a5dc", "bike_id": "61574fc6b59a37e89276a91ef163a5dc", "is_disabled": 0, "type": "electric_scooter", "lat": 38.919761333333334, "lon": -76.97344683333333, "is_reserved": 0, "fusion_lon": 0.0}, {"rental_uris": {"ios": "https://dc.lft.to/lastmile_qr_scan", "android": "https://dc.lft.to/lastmile_qr_scan"}, "fusion_lat": 0.0, "name": "d476b8c840f8324c5f0fc7b60d34c562", "bike_id": "d476b8c840f8324c5f0fc7b60d34c562", "is_disabled": 0, "type": "electric_scooter", "lat": 38.898192, "lon": -77.043575, "is_reserved": 0, "fusion_lon": 0.0}, {"rental_uris": {"ios": "https://dc.lft.to/lastmile_qr_scan", "android": "https://dc.lft.to/lastmile_qr_scan"}, "fusion_lat": 0.0, "name": "e54c9827f95f5c8b7ac9cc9a8124f1aa", "bike_id": "e54c9827f95f5c8b7ac9cc9a8124f1aa", "is_disabled": 0, "type": "electric_scooter", "lat": 38.90130333333333, "lon": -77.03087266666667, "is_reserved": 0, "fusion_lon": 0.0}, {"rental_uris": {"ios": "https://dc.lft.to/lastmile_qr_scan", "android": "https://dc.lft.to/lastmile_qr_scan"}, "fusion_lat": 0.0, "name": "61a7eb533bd2b8cd51903dee16783d86", "bike_id": "61a7eb533bd2b8cd51903dee16783d86", "is_disabled": 0, "type": "electric_scooter", "lat": 38.905628, "lon": -77.03459233333334, "is_reserved": 0, "fusion_lon": 0.0}, {"rental_uris": {"ios": "https://dc.lft.to/lastmile_qr_scan", "android": "https://dc.lft.to/lastmile_qr_scan"}, "fusion_lat": 0.0, "name": "57274ea419b36188e6020a1d86d37d85", "bike_id": "57274ea419b36188e6020a1d86d37d85", "is_disabled": 0, "type": "electric_scooter", "lat": 38.9495735, "lon": -77.02719633333334, "is_reserved": 0, "fusion_lon": 0.0}, {"rental_uris": {"ios": "https://dc.lft.to/lastmile_qr_scan", "android": "https://dc.lft.to/lastmile_qr_scan"}, "fusion_lat": 0.0, "name": "de0d0da46e4e7eb5b521afef7df455cd", "bike_id": "de0d0da46e4e7eb5b521afef7df455cd", "is_disabled": 0, "type": "electric_scooter", "lat": 38.8950355, "lon": -77.01607233333333, "is_reserved": 0, "fusion_lon": 0.0}, {"rental_uris": {"ios": "https://dc.lft.to/lastmile_qr_scan", "android": "https://dc.lft.to/lastmile_qr_scan"}, "fusion_lat": 0.0, "name": "89f0255d0beaeea884af8f5a0a81cdb7", "bike_id": "89f0255d0beaeea884af8f5a0a81cdb7", "is_disabled": 0, "type": "electric_scooter", "lat": 38.9175785, "lon": -77.03071616666666, "is_reserved": 0, "fusion_lon": 0.0}, {"rental_uris": {"ios": "https://dc.lft.to/lastmile_qr_scan", "android": "https://dc.lft.to/lastmile_qr_scan"}, "fusion_lat": 0.0, "name": "19731a95b6c9e19309736dd6d162969e", "bike_id": "19731a95b6c9e19309736dd6d162969e", "is_disabled": 0, "type": "electric_scooter", "lat": 38.912478166666666, "lon": -77.03210416666667, "is_reserved": 0, "fusion_lon": 0.0}, {"rental_uris": {"ios": "https://dc.lft.to/lastmile_qr_scan", "android": "https://dc.lft.to/lastmile_qr_scan"}, "fusion_lat": 0.0, "name": "04e75b205b439bb20cac86580ce9e487", "bike_id": "04e75b205b439bb20cac86580ce9e487", "is_disabled": 0, "type": "electric_scooter", "lat": 38.9028375, "lon": -77.046075, "is_reserved": 0, "fusion_lon": 0.0}, {"rental_uris": {"ios": "https://dc.lft.to/lastmile_qr_scan", "android": "https://dc.lft.to/lastmile_qr_scan"}, "fusion_lat": 0.0, "name": "a952977c87540991e2a18ba31abdf8e1", "bike_id": "a952977c87540991e2a18ba31abdf8e1", "is_disabled": 0, "type": "electric_scooter", "lat": 38.842946, "lon": -76.99945633333333, "is_reserved": 0, "fusion_lon": 0.0}, {"rental_uris": {"ios": "https://dc.lft.to/lastmile_qr_scan", "android": "https://dc.lft.to/lastmile_qr_scan"}, "fusion_lat": 0.0, "name": "0c3008b1c522c2bcfe0ebc80738c3a6a", "bike_id": "0c3008b1c522c2bcfe0ebc80738c3a6a", "is_disabled": 0, "type": "electric_scooter", "lat": 38.931385, "lon": -77.0260395, "is_reserved": 0, "fusion_lon": 0.0}, {"rental_uris": {"ios": "https://dc.lft.to/lastmile_qr_scan", "android": "https://dc.lft.to/lastmile_qr_scan"}, "fusion_lat": 0.0, "name": "ca3b5a384e0fd04b5202c886b06794e7", "bike_id": "ca3b5a384e0fd04b5202c886b06794e7", "is_disabled": 0, "type": "electric_scooter", "lat": 38.892297166666665, "lon": -77.05000466666667, "is_reserved": 0, "fusion_lon": 0.0}, {"rental_uris": {"ios": "https://dc.lft.to/lastmile_qr_scan", "android": "https://dc.lft.to/lastmile_qr_scan"}, "fusion_lat": 0.0, "name": "24748aa1d4c4c3e47da037ecdaee0621", "bike_id": "24748aa1d4c4c3e47da037ecdaee0621", "is_disabled": 0, "type": "electric_scooter", "lat": 38.897353, "lon": -77.02798283333334, "is_reserved": 0, "fusion_lon": 0.0}, {"rental_uris": {"ios": "https://dc.lft.to/lastmile_qr_scan", "android": "https://dc.lft.to/lastmile_qr_scan"}, "fusion_lat": 0.0, "name": "8bdb3f17cc8845e722c8a4d559ad0343", "bike_id": "8bdb3f17cc8845e722c8a4d559ad0343", "is_disabled": 0, "type": "electric_scooter", "lat": 38.91707616666667, "lon": -77.02576966666666, "is_reserved": 0, "fusion_lon": 0.0}, {"rental_uris": {"ios": "https://dc.lft.to/lastmile_qr_scan", "android": "https://dc.lft.to/lastmile_qr_scan"}, "fusion_lat": 0.0, "name": "fe97d3eb960398bec9d926e137bc5c36", "bike_id": "fe97d3eb960398bec9d926e137bc5c36", "is_disabled": 0, "type": "electric_bike", "lat": 38.90543533333334, "lon": -77.043486, "is_reserved": 0, "fusion_lon": 0.0}, {"rental_uris": {"ios": "https://dc.lft.to/lastmile_qr_scan", "android": "https://dc.lft.to/lastmile_qr_scan"}, "fusion_lat": 0.0, "name": "0dfa5732115030fb627fa33881e4aa44", "bike_id": "0dfa5732115030fb627fa33881e4aa44", "is_disabled": 0, "type": "electric_scooter", "lat": 38.91301416666667, "lon": -77.03195316666667, "is_reserved": 0, "fusion_lon": 0.0}, {"rental_uris": {"ios": "https://dc.lft.to/lastmile_qr_scan", "android": "https://dc.lft.to/lastmile_qr_scan"}, "fusion_lat": 0.0, "name": "5abc43f78d02b726639e5a74de097959", "bike_id": "5abc43f78d02b726639e5a74de097959", "is_disabled": 0, "type": "electric_scooter", "lat": 38.95931566666667, "lon": -77.0312555, "is_reserved": 0, "fusion_lon": 0.0}, {"rental_uris": {"ios": "https://dc.lft.to/lastmile_qr_scan", "android": "https://dc.lft.to/lastmile_qr_scan"}, "fusion_lat": 0.0, "name": "08d4d5af67082b62c32780a69c82de15", "bike_id": "08d4d5af67082b62c32780a69c82de15", "is_disabled": 0, "type": "electric_bike", "lat": 38.985090166666666, "lon": -76.9820105, "is_reserved": 0, "fusion_lon": 0.0}, {"rental_uris": {"ios": "https://dc.lft.to/lastmile_qr_scan", "android": "https://dc.lft.to/lastmile_qr_scan"}, "fusion_lat": 0.0, "name": "0b3884c309dbf197e8c3c1785c5a0e79", "bike_id": "0b3884c309dbf197e8c3c1785c5a0e79", "is_disabled": 0, "type": "electric_scooter", "lat": 38.9469655, "lon": -77.021687, "is_reserved": 0, "fusion_lon": 0.0}, {"rental_uris": {"ios": "https://dc.lft.to/lastmile_qr_scan", "android": "https://dc.lft.to/lastmile_qr_scan"}, "fusion_lat": 0.0, "name": "bf5fcf08bcda0e085eb7323f5e8fe993", "bike_id": "bf5fcf08bcda0e085eb7323f5e8fe993", "is_disabled": 0, "type": "electric_scooter", "lat": 38.89724566666666, "lon": -77.02684583333334, "is_reserved": 0, "fusion_lon": 0.0}, {"rental_uris": {"ios": "https://dc.lft.to/lastmile_qr_scan", "android": "https://dc.lft.to/lastmile_qr_scan"}, "fusion_lat": 0.0, "name": "6b38b9dd646bdf7d713f86488be45978", "bike_id": "6b38b9dd646bdf7d713f86488be45978", "is_disabled": 0, "type": "electric_bike", "lat": 38.9056415, "lon": -76.99797533333333, "is_reserved": 0, "fusion_lon": 0.0}, {"rental_uris": {"ios": "https://dc.lft.to/lastmile_qr_scan", "android": "https://dc.lft.to/lastmile_qr_scan"}, "fusion_lat": 0.0, "name": "88f6529267bc81326bf5e8e1391e8e12", "bike_id": "88f6529267bc81326bf5e8e1391e8e12", "is_disabled": 0, "type": "electric_bike", "lat": 38.963135666666666, "lon": -77.03328783333333, "is_reserved": 0, "fusion_lon": 0.0}, {"rental_uris": {"ios": "https://dc.lft.to/lastmile_qr_scan", "android": "https://dc.lft.to/lastmile_qr_scan"}, "fusion_lat": 0.0, "name": "6f3eca4e00bbcf591e55517bd066c77d", "bike_id": "6f3eca4e00bbcf591e55517bd066c77d", "is_disabled": 0, "type": "electric_bike", "lat": 38.80574166666667, "lon": -77.06860133333333, "is_reserved": 0, "fusion_lon": 0.0}, {"rental_uris": {"ios": "https://dc.lft.to/lastmile_qr_scan", "android": "https://dc.lft.to/lastmile_qr_scan"}, "fusion_lat": 0.0, "name": "b4f21feac4aa1616e4b9ebad7c574c30", "bike_id": "b4f21feac4aa1616e4b9ebad7c574c30", "is_disabled": 0, "type": "electric_scooter", "lat": 38.89450933333333, "lon": -76.97806333333334, "is_reserved": 0, "fusion_lon": 0.0}, {"rental_uris": {"ios": "https://dc.lft.to/lastmile_qr_scan", "android": "https://dc.lft.to/lastmile_qr_scan"}, "fusion_lat": 0.0, "name": "5e532bb79260814c0c1d0007467d40b4", "bike_id": "5e532bb79260814c0c1d0007467d40b4", "is_disabled": 0, "type": "electric_scooter", "lat": 38.927490666666664, "lon": -77.02482166666667, "is_reserved": 0, "fusion_lon": 0.0}, {"rental_uris": {"ios": "https://dc.lft.to/lastmile_qr_scan", "android": "https://dc.lft.to/lastmile_qr_scan"}, "fusion_lat": 0.0, "name": "41435a6b9611c4a980b79719c74e1694", "bike_id": "41435a6b9611c4a980b79719c74e1694", "is_disabled": 0, "type": "electric_scooter", "lat": 38.892958, "lon": -77.02178316666667, "is_reserved": 0, "fusion_lon": 0.0}, {"rental_uris": {"ios": "https://dc.lft.to/lastmile_qr_scan", "android": "https://dc.lft.to/lastmile_qr_scan"}, "fusion_lat": 0.0, "name": "d9884c835a7ac724f6d9fe155bef47dd", "bike_id": "d9884c835a7ac724f6d9fe155bef47dd", "is_disabled": 0, "type": "electric_bike", "lat": 38.98272933333333, "lon": -77.017674, "is_reserved": 0, "fusion_lon": 0.0}, {"rental_uris": {"ios": "https://dc.lft.to/lastmile_qr_scan", "android": "https://dc.lft.to/lastmile_qr_scan"}, "fusion_lat": 0.0, "name": "48a1b935f1b23aea1370d31c72ef0b85", "bike_id": "48a1b935f1b23aea1370d31c72ef0b85", "is_disabled": 0, "type": "electric_bike", "lat": 38.958789333333335, "lon": -77.01034833333334, "is_reserved": 0, "fusion_lon": 0.0}, {"rental_uris": {"ios": "https://dc.lft.to/lastmile_qr_scan", "android": "https://dc.lft.to/lastmile_qr_scan"}, "fusion_lat": 0.0, "name": "c47b2fff86b0d7a87246b97a19b15a4a", "bike_id": "c47b2fff86b0d7a87246b97a19b15a4a", "is_disabled": 0, "type": "electric_bike", "lat": 38.89826383333333, "lon": -77.025127, "is_reserved": 0, "fusion_lon": 0.0}, {"rental_uris": {"ios": "https://dc.lft.to/lastmile_qr_scan", "android": "https://dc.lft.to/lastmile_qr_scan"}, "fusion_lat": 0.0, "name": "19af89b5009ee0118d6cdb02b16ba288", "bike_id": "19af89b5009ee0118d6cdb02b16ba288", "is_disabled": 0, "type": "electric_scooter", "lat": 38.8921755, "lon": -77.02654183333334, "is_reserved": 0, "fusion_lon": 0.0}, {"rental_uris": {"ios": "https://dc.lft.to/lastmile_qr_scan", "android": "https://dc.lft.to/lastmile_qr_scan"}, "fusion_lat": 0.0, "name": "62717b6085102e8d30de0b81bb6a40fb", "bike_id": "62717b6085102e8d30de0b81bb6a40fb", "is_disabled": 0, "type": "electric_scooter", "lat": 38.94959383333333, "lon": -77.02724066666667, "is_reserved": 0, "fusion_lon": 0.0}, {"rental_uris": {"ios": "https://dc.lft.to/lastmile_qr_scan", "android": "https://dc.lft.to/lastmile_qr_scan"}, "fusion_lat": 0.0, "name": "6f23b80c41affc3306ee17dc339285e4", "bike_id": "6f23b80c41affc3306ee17dc339285e4", "is_disabled": 0, "type": "electric_bike", "lat": 38.92062883333333, "lon": -76.99770266666667, "is_reserved": 0, "fusion_lon": 0.0}, {"rental_uris": {"ios": "https://dc.lft.to/lastmile_qr_scan", "android": "https://dc.lft.to/lastmile_qr_scan"}, "fusion_lat": 0.0, "name": "c0de40a43c3eb96e1faba8c9253cb968", "bike_id": "c0de40a43c3eb96e1faba8c9253cb968", "is_disabled": 0, "type": "electric_bike", "lat": 38.922343833333336, "lon": -77.04337783333334, "is_reserved": 0, "fusion_lon": 0.0}, {"rental_uris": {"ios": "https://dc.lft.to/lastmile_qr_scan", "android": "https://dc.lft.to/lastmile_qr_scan"}, "fusion_lat": 0.0, "name": "fc482540d0f07896a36eb748cdde8d3a", "bike_id": "fc482540d0f07896a36eb748cdde8d3a", "is_disabled": 0, "type": "electric_scooter", "lat": 38.90021933333333, "lon": -77.0116655, "is_reserved": 0, "fusion_lon": 0.0}, {"rental_uris": {"ios": "https://dc.lft.to/lastmile_qr_scan", "android": "https://dc.lft.to/lastmile_qr_scan"}, "fusion_lat": 0.0, "name": "d1973cdd6bd2632e3928aab9de5d1cd0", "bike_id": "d1973cdd6bd2632e3928aab9de5d1cd0", "is_disabled": 0, "type": "electric_scooter", "lat": 38.9174605, "lon": -77.02399783333334, "is_reserved": 0, "fusion_lon": 0.0}, {"rental_uris": {"ios": "https://dc.lft.to/lastmile_qr_scan", "android": "https://dc.lft.to/lastmile_qr_scan"}, "fusion_lat": 0.0, "name": "ddc9b4142a7f5a3b84bb5f602f253211", "bike_id": "ddc9b4142a7f5a3b84bb5f602f253211", "is_disabled": 0, "type": "electric_scooter", "lat": 38.906421, "lon": -77.00600266666666, "is_reserved": 0, "fusion_lon": 0.0}, {"rental_uris": {"ios": "https://dc.lft.to/lastmile_qr_scan", "android": "https://dc.lft.to/lastmile_qr_scan"}, "fusion_lat": 0.0, "name": "ee1e38f2c78492822f2fd5bbd2a2e47b", "bike_id": "ee1e38f2c78492822f2fd5bbd2a2e47b", "is_disabled": 0, "type": "electric_scooter", "lat": 38.918087666666665, "lon": -77.04170766666667, "is_reserved": 0, "fusion_lon": 0.0}, {"rental_uris": {"ios": "https://dc.lft.to/lastmile_qr_scan", "android": "https://dc.lft.to/lastmile_qr_scan"}, "fusion_lat": 0.0, "name": "715dae20258554c801aa793d04fe5501", "bike_id": "715dae20258554c801aa793d04fe5501", "is_disabled": 0, "type": "electric_scooter", "lat": 38.908549, "lon": -77.03293033333334, "is_reserved": 0, "fusion_lon": 0.0}, {"rental_uris": {"ios": "https://dc.lft.to/lastmile_qr_scan", "android": "https://dc.lft.to/lastmile_qr_scan"}, "fusion_lat": 0.0, "name": "f021427e02b40f0f1e51b387aa87b31e", "bike_id": "f021427e02b40f0f1e51b387aa87b31e", "is_disabled": 0, "type": "electric_scooter", "lat": 38.90572316666667, "lon": -77.00601583333334, "is_reserved": 0, "fusion_lon": 0.0}, {"rental_uris": {"ios": "https://dc.lft.to/lastmile_qr_scan", "android": "https://dc.lft.to/lastmile_qr_scan"}, "fusion_lat": 0.0, "name": "b447f8fed9a67c3916d06498256f9c98", "bike_id": "b447f8fed9a67c3916d06498256f9c98", "is_disabled": 0, "type": "electric_scooter", "lat": 38.91627233333333, "lon": -77.032765, "is_reserved": 0, "fusion_lon": 0.0}, {"rental_uris": {"ios": "https://dc.lft.to/lastmile_qr_scan", "android": "https://dc.lft.to/lastmile_qr_scan"}, "fusion_lat": 0.0, "name": "b316da6e9bf342d2887e168027e658f3", "bike_id": "b316da6e9bf342d2887e168027e658f3", "is_disabled": 0, "type": "electric_scooter", "lat": 38.88420683333333, "lon": -77.029719, "is_reserved": 0, "fusion_lon": 0.0}, {"rental_uris": {"ios": "https://dc.lft.to/lastmile_qr_scan", "android": "https://dc.lft.to/lastmile_qr_scan"}, "fusion_lat": 0.0, "name": "50b24537db24831be811eba7b4aa4496", "bike_id": "50b24537db24831be811eba7b4aa4496", "is_disabled": 0, "type": "electric_scooter", "lat": 38.90978616666666, "lon": -77.03444066666667, "is_reserved": 0, "fusion_lon": 0.0}, {"rental_uris": {"ios": "https://dc.lft.to/lastmile_qr_scan", "android": "https://dc.lft.to/lastmile_qr_scan"}, "fusion_lat": 0.0, "name": "a066ee905fe5b65c42946b99e7465b17", "bike_id": "a066ee905fe5b65c42946b99e7465b17", "is_disabled": 0, "type": "electric_scooter", "lat": 38.88111133333334, "lon": -77.0166285, "is_reserved": 0, "fusion_lon": 0.0}, {"rental_uris": {"ios": "https://dc.lft.to/lastmile_qr_scan", "android": "https://dc.lft.to/lastmile_qr_scan"}, "fusion_lat": 0.0, "name": "7d07cc7c059541db9592f944bfab27f0", "bike_id": "7d07cc7c059541db9592f944bfab27f0", "is_disabled": 0, "type": "electric_scooter", "lat": 38.9097135, "lon": -77.03373716666667, "is_reserved": 0, "fusion_lon": 0.0}, {"rental_uris": {"ios": "https://dc.lft.to/lastmile_qr_scan", "android": "https://dc.lft.to/lastmile_qr_scan"}, "fusion_lat": 0.0, "name": "40a798a19081ea220026e3a729821d91", "bike_id": "40a798a19081ea220026e3a729821d91", "is_disabled": 0, "type": "electric_scooter", "lat": 38.90711, "lon": -77.0238835, "is_reserved": 0, "fusion_lon": 0.0}, {"rental_uris": {"ios": "https://dc.lft.to/lastmile_qr_scan", "android": "https://dc.lft.to/lastmile_qr_scan"}, "fusion_lat": 0.0, "name": "0e0b9c33dcae7af4f9ad450f97e30c91", "bike_id": "0e0b9c33dcae7af4f9ad450f97e30c91", "is_disabled": 0, "type": "electric_scooter", "lat": 38.94084383333333, "lon": -77.02725266666667, "is_reserved": 0, "fusion_lon": 0.0}, {"rental_uris": {"ios": "https://dc.lft.to/lastmile_qr_scan", "android": "https://dc.lft.to/lastmile_qr_scan"}, "fusion_lat": 0.0, "name": "fb2b0185dc23ec679b7b6e9346329819", "bike_id": "fb2b0185dc23ec679b7b6e9346329819", "is_disabled": 0, "type": "electric_scooter", "lat": 38.90259566666667, "lon": -77.03233083333333, "is_reserved": 0, "fusion_lon": 0.0}, {"rental_uris": {"ios": "https://dc.lft.to/lastmile_qr_scan", "android": "https://dc.lft.to/lastmile_qr_scan"}, "fusion_lat": 0.0, "name": "05ea64b67c30880a0c9a0876dc0422ed", "bike_id": "05ea64b67c30880a0c9a0876dc0422ed", "is_disabled": 0, "type": "electric_bike", "lat": 38.933589833333336, "lon": -77.099601, "is_reserved": 0, "fusion_lon": 0.0}, {"rental_uris": {"ios": "https://dc.lft.to/lastmile_qr_scan", "android": "https://dc.lft.to/lastmile_qr_scan"}, "fusion_lat": 0.0, "name": "76cb443535bccb963538f28007cc9b74", "bike_id": "76cb443535bccb963538f28007cc9b74", "is_disabled": 0, "type": "electric_bike", "lat": 38.87108966666667, "lon": -76.92328866666666, "is_reserved": 0, "fusion_lon": 0.0}, {"rental_uris": {"ios": "https://dc.lft.to/lastmile_qr_scan", "android": "https://dc.lft.to/lastmile_qr_scan"}, "fusion_lat": 0.0, "name": "c72b6a370764988e6ab590b13aec9226", "bike_id": "c72b6a370764988e6ab590b13aec9226", "is_disabled": 0, "type": "electric_scooter", "lat": 38.891806333333335, "lon": -77.0158205, "is_reserved": 0, "fusion_lon": 0.0}, {"rental_uris": {"ios": "https://dc.lft.to/lastmile_qr_scan", "android": "https://dc.lft.to/lastmile_qr_scan"}, "fusion_lat": 0.0, "name": "9efc6a9dd0dabb26b47a29cb467a7636", "bike_id": "9efc6a9dd0dabb26b47a29cb467a7636", "is_disabled": 0, "type": "electric_scooter", "lat": 38.8922475, "lon": -77.00306183333333, "is_reserved": 0, "fusion_lon": 0.0}, {"rental_uris": {"ios": "https://dc.lft.to/lastmile_qr_scan", "android": "https://dc.lft.to/lastmile_qr_scan"}, "fusion_lat": 0.0, "name": "2065e32c65c7ce57798f4afd929d140c", "bike_id": "2065e32c65c7ce57798f4afd929d140c", "is_disabled": 0, "type": "electric_scooter", "lat": 38.89223633333334, "lon": -77.0321475, "is_reserved": 0, "fusion_lon": 0.0}, {"rental_uris": {"ios": "https://dc.lft.to/lastmile_qr_scan", "android": "https://dc.lft.to/lastmile_qr_scan"}, "fusion_lat": 0.0, "name": "80513b542c2ec5f18c74b10879c46af1", "bike_id": "80513b542c2ec5f18c74b10879c46af1", "is_disabled": 0, "type": "electric_scooter", "lat": 38.923632833333336, "lon": -77.05132916666666, "is_reserved": 0, "fusion_lon": 0.0}, {"rental_uris": {"ios": "https://dc.lft.to/lastmile_qr_scan", "android": "https://dc.lft.to/lastmile_qr_scan"}, "fusion_lat": 0.0, "name": "50a8b50203cc63188512e3dd447b4239", "bike_id": "50a8b50203cc63188512e3dd447b4239", "is_disabled": 0, "type": "electric_scooter", "lat": 38.92198466666667, "lon": -77.042559, "is_reserved": 0, "fusion_lon": 0.0}, {"rental_uris": {"ios": "https://dc.lft.to/lastmile_qr_scan", "android": "https://dc.lft.to/lastmile_qr_scan"}, "fusion_lat": 0.0, "name": "e076a8ea0b9c4bdde930f544bed9207b", "bike_id": "e076a8ea0b9c4bdde930f544bed9207b", "is_disabled": 0, "type": "electric_bike", "lat": 38.94551716666667, "lon": -77.027283, "is_reserved": 0, "fusion_lon": 0.0}, {"rental_uris": {"ios": "https://dc.lft.to/lastmile_qr_scan", "android": "https://dc.lft.to/lastmile_qr_scan"}, "fusion_lat": 0.0, "name": "a28d6bb037622a7724b0e8f333c83040", "bike_id": "a28d6bb037622a7724b0e8f333c83040", "is_disabled": 0, "type": "electric_scooter", "lat": 38.917463, "lon": -77.02397333333333, "is_reserved": 0, "fusion_lon": 0.0}, {"rental_uris": {"ios": "https://dc.lft.to/lastmile_qr_scan", "android": "https://dc.lft.to/lastmile_qr_scan"}, "fusion_lat": 0.0, "name": "521a7988f6ef4c3765bd13dd828dbea6", "bike_id": "521a7988f6ef4c3765bd13dd828dbea6", "is_disabled": 0, "type": "electric_scooter", "lat": 38.904346333333336, "lon": -77.02790816666666, "is_reserved": 0, "fusion_lon": 0.0}, {"rental_uris": {"ios": "https://dc.lft.to/lastmile_qr_scan", "android": "https://dc.lft.to/lastmile_qr_scan"}, "fusion_lat": 0.0, "name": "e359d4d72729deae9760e98f146506ff", "bike_id": "e359d4d72729deae9760e98f146506ff", "is_disabled": 0, "type": "electric_scooter", "lat": 38.926489333333336, "lon": -77.04134516666667, "is_reserved": 0, "fusion_lon": 0.0}, {"rental_uris": {"ios": "https://dc.lft.to/lastmile_qr_scan", "android": "https://dc.lft.to/lastmile_qr_scan"}, "fusion_lat": 0.0, "name": "59a3c85b089b1a91c766e222fc493ca7", "bike_id": "59a3c85b089b1a91c766e222fc493ca7", "is_disabled": 0, "type": "electric_scooter", "lat": 38.91938366666667, "lon": -77.0134615, "is_reserved": 0, "fusion_lon": 0.0}, {"rental_uris": {"ios": "https://dc.lft.to/lastmile_qr_scan", "android": "https://dc.lft.to/lastmile_qr_scan"}, "fusion_lat": 0.0, "name": "59a97fa78c50ae20db1798f63fd7948d", "bike_id": "59a97fa78c50ae20db1798f63fd7948d", "is_disabled": 0, "type": "electric_scooter", "lat": 38.900962, "lon": -77.05781533333334, "is_reserved": 0, "fusion_lon": 0.0}, {"rental_uris": {"ios": "https://dc.lft.to/lastmile_qr_scan", "android": "https://dc.lft.to/lastmile_qr_scan"}, "fusion_lat": 0.0, "name": "a4942c7e3457e571a162943cd8b097e5", "bike_id": "a4942c7e3457e571a162943cd8b097e5", "is_disabled": 0, "type": "electric_scooter", "lat": 38.89969583333333, "lon": -77.03165, "is_reserved": 0, "fusion_lon": 0.0}, {"rental_uris": {"ios": "https://dc.lft.to/lastmile_qr_scan", "android": "https://dc.lft.to/lastmile_qr_scan"}, "fusion_lat": 0.0, "name": "34ea9152d18328a441a385d99ad91888", "bike_id": "34ea9152d18328a441a385d99ad91888", "is_disabled": 0, "type": "electric_scooter", "lat": 38.94182933333333, "lon": -77.024917, "is_reserved": 0, "fusion_lon": 0.0}, {"rental_uris": {"ios": "https://dc.lft.to/lastmile_qr_scan", "android": "https://dc.lft.to/lastmile_qr_scan"}, "fusion_lat": 0.0, "name": "120262d69f827ae8eb267d2a8c6360fa", "bike_id": "120262d69f827ae8eb267d2a8c6360fa", "is_disabled": 0, "type": "electric_scooter", "lat": 38.9053045, "lon": -77.04170466666666, "is_reserved": 0, "fusion_lon": 0.0}, {"rental_uris": {"ios": "https://dc.lft.to/lastmile_qr_scan", "android": "https://dc.lft.to/lastmile_qr_scan"}, "fusion_lat": 0.0, "name": "fa910a785b3fe32787b4eb6c1426bea1", "bike_id": "fa910a785b3fe32787b4eb6c1426bea1", "is_disabled": 0, "type": "electric_scooter", "lat": 38.865396, "lon": -76.98704866666667, "is_reserved": 0, "fusion_lon": 0.0}, {"rental_uris": {"ios": "https://dc.lft.to/lastmile_qr_scan", "android": "https://dc.lft.to/lastmile_qr_scan"}, "fusion_lat": 0.0, "name": "4cd0cda9f40d03ca25d41221ec05313a", "bike_id": "4cd0cda9f40d03ca25d41221ec05313a", "is_disabled": 0, "type": "electric_scooter", "lat": 38.923774, "lon": -77.02677516666667, "is_reserved": 0, "fusion_lon": 0.0}, {"rental_uris": {"ios": "https://dc.lft.to/lastmile_qr_scan", "android": "https://dc.lft.to/lastmile_qr_scan"}, "fusion_lat": 0.0, "name": "df8931219cd60973365af5664dab7b94", "bike_id": "df8931219cd60973365af5664dab7b94", "is_disabled": 0, "type": "electric_bike", "lat": 38.917882666666664, "lon": -76.971793, "is_reserved": 0, "fusion_lon": 0.0}, {"rental_uris": {"ios": "https://dc.lft.to/lastmile_qr_scan", "android": "https://dc.lft.to/lastmile_qr_scan"}, "fusion_lat": 0.0, "name": "ae72e7b04aa83b10ec8f30b3306d2300", "bike_id": "ae72e7b04aa83b10ec8f30b3306d2300", "is_disabled": 0, "type": "electric_scooter", "lat": 38.917086833333336, "lon": -77.0347515, "is_reserved": 0, "fusion_lon": 0.0}, {"rental_uris": {"ios": "https://dc.lft.to/lastmile_qr_scan", "android": "https://dc.lft.to/lastmile_qr_scan"}, "fusion_lat": 0.0, "name": "258fab6679d2bfc1979bca52ee9fcd81", "bike_id": "258fab6679d2bfc1979bca52ee9fcd81", "is_disabled": 0, "type": "electric_scooter", "lat": 38.93659616666667, "lon": -77.05496966666666, "is_reserved": 0, "fusion_lon": 0.0}, {"rental_uris": {"ios": "https://dc.lft.to/lastmile_qr_scan", "android": "https://dc.lft.to/lastmile_qr_scan"}, "fusion_lat": 0.0, "name": "a141ebb8a0452689fed86bf8a7d9a21b", "bike_id": "a141ebb8a0452689fed86bf8a7d9a21b", "is_disabled": 0, "type": "electric_scooter", "lat": 38.88523816666667, "lon": -77.01133416666667, "is_reserved": 0, "fusion_lon": 0.0}, {"rental_uris": {"ios": "https://dc.lft.to/lastmile_qr_scan", "android": "https://dc.lft.to/lastmile_qr_scan"}, "fusion_lat": 0.0, "name": "ff00f1f36ee148412f56e8b9cbe3df96", "bike_id": "ff00f1f36ee148412f56e8b9cbe3df96", "is_disabled": 0, "type": "electric_bike", "lat": 38.861647166666664, "lon": -77.13144816666667, "is_reserved": 0, "fusion_lon": 0.0}, {"rental_uris": {"ios": "https://dc.lft.to/lastmile_qr_scan", "android": "https://dc.lft.to/lastmile_qr_scan"}, "fusion_lat": 0.0, "name": "6360cdfda4d1226353254f2bf41068f5", "bike_id": "6360cdfda4d1226353254f2bf41068f5", "is_disabled": 0, "type": "electric_scooter", "lat": 38.91614116666667, "lon": -77.04157216666667, "is_reserved": 0, "fusion_lon": 0.0}, {"rental_uris": {"ios": "https://dc.lft.to/lastmile_qr_scan", "android": "https://dc.lft.to/lastmile_qr_scan"}, "fusion_lat": 0.0, "name": "3312912efa648e2dcd7f2e2889081e47", "bike_id": "3312912efa648e2dcd7f2e2889081e47", "is_disabled": 0, "type": "electric_scooter", "lat": 38.942907166666664, "lon": -77.02173816666667, "is_reserved": 0, "fusion_lon": 0.0}, {"rental_uris": {"ios": "https://dc.lft.to/lastmile_qr_scan", "android": "https://dc.lft.to/lastmile_qr_scan"}, "fusion_lat": 0.0, "name": "8b1320d27384913f794cc28ba8d4aef3", "bike_id": "8b1320d27384913f794cc28ba8d4aef3", "is_disabled": 0, "type": "electric_scooter", "lat": 38.918715666666664, "lon": -77.04249983333334, "is_reserved": 0, "fusion_lon": 0.0}, {"rental_uris": {"ios": "https://dc.lft.to/lastmile_qr_scan", "android": "https://dc.lft.to/lastmile_qr_scan"}, "fusion_lat": 0.0, "name": "96871d85da7efcbf1c13e598efaf043a", "bike_id": "96871d85da7efcbf1c13e598efaf043a", "is_disabled": 0, "type": "electric_scooter", "lat": 38.91735633333333, "lon": -77.0211595, "is_reserved": 0, "fusion_lon": 0.0}, {"rental_uris": {"ios": "https://dc.lft.to/lastmile_qr_scan", "android": "https://dc.lft.to/lastmile_qr_scan"}, "fusion_lat": 0.0, "name": "2ea1789666fc7fdbefbcc6c59c571434", "bike_id": "2ea1789666fc7fdbefbcc6c59c571434", "is_disabled": 0, "type": "electric_scooter", "lat": 38.90124216666667, "lon": -77.04491516666667, "is_reserved": 0, "fusion_lon": 0.0}, {"rental_uris": {"ios": "https://dc.lft.to/lastmile_qr_scan", "android": "https://dc.lft.to/lastmile_qr_scan"}, "fusion_lat": 0.0, "name": "de37036127c67ec04458697706769647", "bike_id": "de37036127c67ec04458697706769647", "is_disabled": 0, "type": "electric_bike", "lat": 38.949587666666666, "lon": -77.06635066666666, "is_reserved": 0, "fusion_lon": 0.0}, {"rental_uris": {"ios": "https://dc.lft.to/lastmile_qr_scan", "android": "https://dc.lft.to/lastmile_qr_scan"}, "fusion_lat": 0.0, "name": "1f0d7e016640182787b341171dfc1e3e", "bike_id": "1f0d7e016640182787b341171dfc1e3e", "is_disabled": 0, "type": "electric_scooter", "lat": 38.894785, "lon": -77.03118283333333, "is_reserved": 0, "fusion_lon": 0.0}, {"rental_uris": {"ios": "https://dc.lft.to/lastmile_qr_scan", "android": "https://dc.lft.to/lastmile_qr_scan"}, "fusion_lat": 0.0, "name": "ca155e09c35fc83d5d7620229c73ec5e", "bike_id": "ca155e09c35fc83d5d7620229c73ec5e", "is_disabled": 0, "type": "electric_scooter", "lat": 38.921896833333335, "lon": -77.0380745, "is_reserved": 0, "fusion_lon": 0.0}, {"rental_uris": {"ios": "https://dc.lft.to/lastmile_qr_scan", "android": "https://dc.lft.to/lastmile_qr_scan"}, "fusion_lat": 0.0, "name": "860c1ed35117c2d6c4c853499706bdd3", "bike_id": "860c1ed35117c2d6c4c853499706bdd3", "is_disabled": 0, "type": "electric_scooter", "lat": 38.885834, "lon": -77.017348, "is_reserved": 0, "fusion_lon": 0.0}, {"rental_uris": {"ios": "https://dc.lft.to/lastmile_qr_scan", "android": "https://dc.lft.to/lastmile_qr_scan"}, "fusion_lat": 0.0, "name": "575ac020500ad2989351d5fb3c63a49b", "bike_id": "575ac020500ad2989351d5fb3c63a49b", "is_disabled": 0, "type": "electric_scooter", "lat": 38.895721333333334, "lon": -77.03209883333334, "is_reserved": 0, "fusion_lon": 0.0}, {"rental_uris": {"ios": "https://dc.lft.to/lastmile_qr_scan", "android": "https://dc.lft.to/lastmile_qr_scan"}, "fusion_lat": 0.0, "name": "cf0cf119998cafa85d32c6880587782d", "bike_id": "cf0cf119998cafa85d32c6880587782d", "is_disabled": 0, "type": "electric_scooter", "lat": 38.902847333333334, "lon": -77.03353316666667, "is_reserved": 0, "fusion_lon": 0.0}, {"rental_uris": {"ios": "https://dc.lft.to/lastmile_qr_scan", "android": "https://dc.lft.to/lastmile_qr_scan"}, "fusion_lat": 0.0, "name": "2619f9525486ea597d92de819ac76378", "bike_id": "2619f9525486ea597d92de819ac76378", "is_disabled": 0, "type": "electric_scooter", "lat": 38.932644333333336, "lon": -77.03494, "is_reserved": 0, "fusion_lon": 0.0}, {"rental_uris": {"ios": "https://dc.lft.to/lastmile_qr_scan", "android": "https://dc.lft.to/lastmile_qr_scan"}, "fusion_lat": 0.0, "name": "ba0971c9bfe142da96f23f3e223fe02b", "bike_id": "ba0971c9bfe142da96f23f3e223fe02b", "is_disabled": 0, "type": "electric_scooter", "lat": 38.89221283333333, "lon": -77.04197866666667, "is_reserved": 0, "fusion_lon": 0.0}, {"rental_uris": {"ios": "https://dc.lft.to/lastmile_qr_scan", "android": "https://dc.lft.to/lastmile_qr_scan"}, "fusion_lat": 0.0, "name": "ec8f1d0c8a2ce9bf086d541794b41adf", "bike_id": "ec8f1d0c8a2ce9bf086d541794b41adf", "is_disabled": 0, "type": "electric_scooter", "lat": 38.903746166666664, "lon": -77.04500466666667, "is_reserved": 0, "fusion_lon": 0.0}, {"rental_uris": {"ios": "https://dc.lft.to/lastmile_qr_scan", "android": "https://dc.lft.to/lastmile_qr_scan"}, "fusion_lat": 0.0, "name": "5027adfa31f012d7c8969f836b9a2432", "bike_id": "5027adfa31f012d7c8969f836b9a2432", "is_disabled": 0, "type": "electric_scooter", "lat": 38.873892, "lon": -77.00119133333334, "is_reserved": 0, "fusion_lon": 0.0}, {"rental_uris": {"ios": "https://dc.lft.to/lastmile_qr_scan", "android": "https://dc.lft.to/lastmile_qr_scan"}, "fusion_lat": 0.0, "name": "796fdeed656a68934a485571f57214e4", "bike_id": "796fdeed656a68934a485571f57214e4", "is_disabled": 0, "type": "electric_scooter", "lat": 38.90267383333333, "lon": -77.03436283333333, "is_reserved": 0, "fusion_lon": 0.0}, {"rental_uris": {"ios": "https://dc.lft.to/lastmile_qr_scan", "android": "https://dc.lft.to/lastmile_qr_scan"}, "fusion_lat": 0.0, "name": "7d8e313c47844a4bef915ed6890de0a0", "bike_id": "7d8e313c47844a4bef915ed6890de0a0", "is_disabled": 0, "type": "electric_scooter", "lat": 38.878970333333335, "lon": -76.9351985, "is_reserved": 0, "fusion_lon": 0.0}, {"rental_uris": {"ios": "https://dc.lft.to/lastmile_qr_scan", "android": "https://dc.lft.to/lastmile_qr_scan"}, "fusion_lat": 0.0, "name": "4a7a5deb1e94f127149dd8ca9fadefca", "bike_id": "4a7a5deb1e94f127149dd8ca9fadefca", "is_disabled": 0, "type": "electric_scooter", "lat": 38.89898, "lon": -77.03300233333333, "is_reserved": 0, "fusion_lon": 0.0}, {"rental_uris": {"ios": "https://dc.lft.to/lastmile_qr_scan", "android": "https://dc.lft.to/lastmile_qr_scan"}, "fusion_lat": 0.0, "name": "ff1ddf084b06b52aaddf048d0f593d18", "bike_id": "ff1ddf084b06b52aaddf048d0f593d18", "is_disabled": 0, "type": "electric_scooter", "lat": 38.9243835, "lon": -77.02147316666667, "is_reserved": 0, "fusion_lon": 0.0}, {"rental_uris": {"ios": "https://dc.lft.to/lastmile_qr_scan", "android": "https://dc.lft.to/lastmile_qr_scan"}, "fusion_lat": 0.0, "name": "4f91fd767fffd6f8312b27a841fdb481", "bike_id": "4f91fd767fffd6f8312b27a841fdb481", "is_disabled": 0, "type": "electric_scooter", "lat": 38.92333466666667, "lon": -77.05334583333334, "is_reserved": 0, "fusion_lon": 0.0}, {"rental_uris": {"ios": "https://dc.lft.to/lastmile_qr_scan", "android": "https://dc.lft.to/lastmile_qr_scan"}, "fusion_lat": 0.0, "name": "a9811942ac817cd7d48dcad17249a455", "bike_id": "a9811942ac817cd7d48dcad17249a455", "is_disabled": 0, "type": "electric_bike", "lat": 38.857691333333335, "lon": -76.98757133333334, "is_reserved": 0, "fusion_lon": 0.0}, {"rental_uris": {"ios": "https://dc.lft.to/lastmile_qr_scan", "android": "https://dc.lft.to/lastmile_qr_scan"}, "fusion_lat": 0.0, "name": "82bace4c8790cccd8fe4c58b801f623a", "bike_id": "82bace4c8790cccd8fe4c58b801f623a", "is_disabled": 0, "type": "electric_scooter", "lat": 38.915616666666665, "lon": -77.0315005, "is_reserved": 0, "fusion_lon": 0.0}, {"rental_uris": {"ios": "https://dc.lft.to/lastmile_qr_scan", "android": "https://dc.lft.to/lastmile_qr_scan"}, "fusion_lat": 0.0, "name": "e61f700276bb55b8c3e40a22b2060e7b", "bike_id": "e61f700276bb55b8c3e40a22b2060e7b", "is_disabled": 0, "type": "electric_scooter", "lat": 38.89227016666667, "lon": -77.013654, "is_reserved": 0, "fusion_lon": 0.0}, {"rental_uris": {"ios": "https://dc.lft.to/lastmile_qr_scan", "android": "https://dc.lft.to/lastmile_qr_scan"}, "fusion_lat": 0.0, "name": "af7dbeb274698feea0aa814b7aa5c543", "bike_id": "af7dbeb274698feea0aa814b7aa5c543", "is_disabled": 0, "type": "electric_bike", "lat": 39.0629265, "lon": -77.04977783333334, "is_reserved": 0, "fusion_lon": 0.0}, {"rental_uris": {"ios": "https://dc.lft.to/lastmile_qr_scan", "android": "https://dc.lft.to/lastmile_qr_scan"}, "fusion_lat": 0.0, "name": "88cd6c0b0186477f70c96dacff67c505", "bike_id": "88cd6c0b0186477f70c96dacff67c505", "is_disabled": 0, "type": "electric_scooter", "lat": 38.89615783333333, "lon": -77.0316645, "is_reserved": 0, "fusion_lon": 0.0}, {"rental_uris": {"ios": "https://dc.lft.to/lastmile_qr_scan", "android": "https://dc.lft.to/lastmile_qr_scan"}, "fusion_lat": 0.0, "name": "15efe9f05cff065cb47e594fb4ffb4fa", "bike_id": "15efe9f05cff065cb47e594fb4ffb4fa", "is_disabled": 0, "type": "electric_bike", "lat": 38.93255633333333, "lon": -77.02968366666667, "is_reserved": 0, "fusion_lon": 0.0}, {"rental_uris": {"ios": "https://dc.lft.to/lastmile_qr_scan", "android": "https://dc.lft.to/lastmile_qr_scan"}, "fusion_lat": 0.0, "name": "c161eb3bca60f89ceab4c692903c4551", "bike_id": "c161eb3bca60f89ceab4c692903c4551", "is_disabled": 0, "type": "electric_scooter", "lat": 38.9317345, "lon": -77.03642016666667, "is_reserved": 0, "fusion_lon": 0.0}, {"rental_uris": {"ios": "https://dc.lft.to/lastmile_qr_scan", "android": "https://dc.lft.to/lastmile_qr_scan"}, "fusion_lat": 0.0, "name": "a5a66ca8e0a49f9ae3e844f45d4123d4", "bike_id": "a5a66ca8e0a49f9ae3e844f45d4123d4", "is_disabled": 0, "type": "electric_scooter", "lat": 38.906424, "lon": -77.005964, "is_reserved": 0, "fusion_lon": 0.0}, {"rental_uris": {"ios": "https://dc.lft.to/lastmile_qr_scan", "android": "https://dc.lft.to/lastmile_qr_scan"}, "fusion_lat": 0.0, "name": "cdc94bccdc19504531e61aedb5bfc4d0", "bike_id": "cdc94bccdc19504531e61aedb5bfc4d0", "is_disabled": 0, "type": "electric_scooter", "lat": 38.88511166666667, "lon": -77.0024045, "is_reserved": 0, "fusion_lon": 0.0}, {"rental_uris": {"ios": "https://dc.lft.to/lastmile_qr_scan", "android": "https://dc.lft.to/lastmile_qr_scan"}, "fusion_lat": 0.0, "name": "c76e99bc57bc7c64278372ed83b133ee", "bike_id": "c76e99bc57bc7c64278372ed83b133ee", "is_disabled": 0, "type": "electric_scooter", "lat": 38.96161383333333, "lon": -77.02784116666666, "is_reserved": 0, "fusion_lon": 0.0}, {"rental_uris": {"ios": "https://dc.lft.to/lastmile_qr_scan", "android": "https://dc.lft.to/lastmile_qr_scan"}, "fusion_lat": 0.0, "name": "93deafce413427d468228a7a598b4dac", "bike_id": "93deafce413427d468228a7a598b4dac", "is_disabled": 0, "type": "electric_scooter", "lat": 38.923546333333334, "lon": -77.02054266666667, "is_reserved": 0, "fusion_lon": 0.0}, {"rental_uris": {"ios": "https://dc.lft.to/lastmile_qr_scan", "android": "https://dc.lft.to/lastmile_qr_scan"}, "fusion_lat": 0.0, "name": "27a4368ffde1ded6daa472c5b86aa0cf", "bike_id": "27a4368ffde1ded6daa472c5b86aa0cf", "is_disabled": 0, "type": "electric_scooter", "lat": 38.90315066666667, "lon": -77.0242925, "is_reserved": 0, "fusion_lon": 0.0}, {"rental_uris": {"ios": "https://dc.lft.to/lastmile_qr_scan", "android": "https://dc.lft.to/lastmile_qr_scan"}, "fusion_lat": 0.0, "name": "cd3bf8f2a3d62b8f9343e85ce5b6914a", "bike_id": "cd3bf8f2a3d62b8f9343e85ce5b6914a", "is_disabled": 0, "type": "electric_scooter", "lat": 38.9163425, "lon": -77.02552283333333, "is_reserved": 0, "fusion_lon": 0.0}, {"rental_uris": {"ios": "https://dc.lft.to/lastmile_qr_scan", "android": "https://dc.lft.to/lastmile_qr_scan"}, "fusion_lat": 0.0, "name": "3da505bcc608a623ed4c4cac90e18000", "bike_id": "3da505bcc608a623ed4c4cac90e18000", "is_disabled": 0, "type": "electric_scooter", "lat": 38.9347395, "lon": -77.07270016666666, "is_reserved": 0, "fusion_lon": 0.0}, {"rental_uris": {"ios": "https://dc.lft.to/lastmile_qr_scan", "android": "https://dc.lft.to/lastmile_qr_scan"}, "fusion_lat": 0.0, "name": "aa20b0d0202b693445368298bafe2288", "bike_id": "aa20b0d0202b693445368298bafe2288", "is_disabled": 0, "type": "electric_scooter", "lat": 38.894983, "lon": -76.94873016666666, "is_reserved": 0, "fusion_lon": 0.0}, {"rental_uris": {"ios": "https://dc.lft.to/lastmile_qr_scan", "android": "https://dc.lft.to/lastmile_qr_scan"}, "fusion_lat": 0.0, "name": "7b3d618187e972131c257b377a791ff7", "bike_id": "7b3d618187e972131c257b377a791ff7", "is_disabled": 0, "type": "electric_scooter", "lat": 38.9213785, "lon": -77.00844616666667, "is_reserved": 0, "fusion_lon": 0.0}, {"rental_uris": {"ios": "https://dc.lft.to/lastmile_qr_scan", "android": "https://dc.lft.to/lastmile_qr_scan"}, "fusion_lat": 0.0, "name": "ef24c4621192ec16974c0ae655980229", "bike_id": "ef24c4621192ec16974c0ae655980229", "is_disabled": 0, "type": "electric_bike", "lat": 38.83862516666667, "lon": -76.99697416666666, "is_reserved": 0, "fusion_lon": 0.0}, {"rental_uris": {"ios": "https://dc.lft.to/lastmile_qr_scan", "android": "https://dc.lft.to/lastmile_qr_scan"}, "fusion_lat": 0.0, "name": "1ea9079f330c73d1bd3df10eeb5b48a7", "bike_id": "1ea9079f330c73d1bd3df10eeb5b48a7", "is_disabled": 0, "type": "electric_scooter", "lat": 38.9213395, "lon": -77.01909133333334, "is_reserved": 0, "fusion_lon": 0.0}, {"rental_uris": {"ios": "https://dc.lft.to/lastmile_qr_scan", "android": "https://dc.lft.to/lastmile_qr_scan"}, "fusion_lat": 0.0, "name": "8a724ba5b9da01736c0e7723dc2eae8d", "bike_id": "8a724ba5b9da01736c0e7723dc2eae8d", "is_disabled": 0, "type": "electric_scooter", "lat": 38.929304333333334, "lon": -77.0374675, "is_reserved": 0, "fusion_lon": 0.0}, {"rental_uris": {"ios": "https://dc.lft.to/lastmile_qr_scan", "android": "https://dc.lft.to/lastmile_qr_scan"}, "fusion_lat": 0.0, "name": "ef052c2872e8f98bc04458d21668c615", "bike_id": "ef052c2872e8f98bc04458d21668c615", "is_disabled": 0, "type": "electric_scooter", "lat": 38.8567395, "lon": -76.98176316666667, "is_reserved": 0, "fusion_lon": 0.0}, {"rental_uris": {"ios": "https://dc.lft.to/lastmile_qr_scan", "android": "https://dc.lft.to/lastmile_qr_scan"}, "fusion_lat": 0.0, "name": "89caaacaaecd55219fb8c8fbdafc13c3", "bike_id": "89caaacaaecd55219fb8c8fbdafc13c3", "is_disabled": 0, "type": "electric_scooter", "lat": 38.920393833333335, "lon": -77.04187183333333, "is_reserved": 0, "fusion_lon": 0.0}, {"rental_uris": {"ios": "https://dc.lft.to/lastmile_qr_scan", "android": "https://dc.lft.to/lastmile_qr_scan"}, "fusion_lat": 0.0, "name": "6659a904c95d091a81978825d28a039b", "bike_id": "6659a904c95d091a81978825d28a039b", "is_disabled": 0, "type": "electric_scooter", "lat": 38.892215666666665, "lon": -77.022221, "is_reserved": 0, "fusion_lon": 0.0}, {"rental_uris": {"ios": "https://dc.lft.to/lastmile_qr_scan", "android": "https://dc.lft.to/lastmile_qr_scan"}, "fusion_lat": 0.0, "name": "b2bc9fdcd531ea2505aed9c3b9abd975", "bike_id": "b2bc9fdcd531ea2505aed9c3b9abd975", "is_disabled": 0, "type": "electric_scooter", "lat": 38.9271675, "lon": -77.03263216666667, "is_reserved": 0, "fusion_lon": 0.0}, {"rental_uris": {"ios": "https://dc.lft.to/lastmile_qr_scan", "android": "https://dc.lft.to/lastmile_qr_scan"}, "fusion_lat": 0.0, "name": "3756f3c91381b5574f6b2cf749f2b01f", "bike_id": "3756f3c91381b5574f6b2cf749f2b01f", "is_disabled": 0, "type": "electric_scooter", "lat": 38.928666666666665, "lon": -77.034559, "is_reserved": 0, "fusion_lon": 0.0}, {"rental_uris": {"ios": "https://dc.lft.to/lastmile_qr_scan", "android": "https://dc.lft.to/lastmile_qr_scan"}, "fusion_lat": 0.0, "name": "51c7481a41b7270280e30c0c9eeac006", "bike_id": "51c7481a41b7270280e30c0c9eeac006", "is_disabled": 0, "type": "electric_scooter", "lat": 38.906857333333335, "lon": -77.027131, "is_reserved": 0, "fusion_lon": 0.0}, {"rental_uris": {"ios": "https://dc.lft.to/lastmile_qr_scan", "android": "https://dc.lft.to/lastmile_qr_scan"}, "fusion_lat": 0.0, "name": "fd9467bb7557d945abd461858d3977ba", "bike_id": "fd9467bb7557d945abd461858d3977ba", "is_disabled": 0, "type": "electric_scooter", "lat": 38.91738516666667, "lon": -77.02378183333333, "is_reserved": 0, "fusion_lon": 0.0}, {"rental_uris": {"ios": "https://dc.lft.to/lastmile_qr_scan", "android": "https://dc.lft.to/lastmile_qr_scan"}, "fusion_lat": 0.0, "name": "bccea54ed8fc4d4dfe63efcda0f0fc96", "bike_id": "bccea54ed8fc4d4dfe63efcda0f0fc96", "is_disabled": 0, "type": "electric_scooter", "lat": 38.901210666666664, "lon": -77.04305366666667, "is_reserved": 0, "fusion_lon": 0.0}, {"rental_uris": {"ios": "https://dc.lft.to/lastmile_qr_scan", "android": "https://dc.lft.to/lastmile_qr_scan"}, "fusion_lat": 0.0, "name": "1e9852cdd137ed34a8ab2b6aacb4bd7f", "bike_id": "1e9852cdd137ed34a8ab2b6aacb4bd7f", "is_disabled": 0, "type": "electric_scooter", "lat": 38.91567783333333, "lon": -77.0119585, "is_reserved": 0, "fusion_lon": 0.0}, {"rental_uris": {"ios": "https://dc.lft.to/lastmile_qr_scan", "android": "https://dc.lft.to/lastmile_qr_scan"}, "fusion_lat": 0.0, "name": "94818dca1b48bba6fc98ef4460644264", "bike_id": "94818dca1b48bba6fc98ef4460644264", "is_disabled": 0, "type": "electric_scooter", "lat": 38.931647166666664, "lon": -77.0364655, "is_reserved": 0, "fusion_lon": 0.0}, {"rental_uris": {"ios": "https://dc.lft.to/lastmile_qr_scan", "android": "https://dc.lft.to/lastmile_qr_scan"}, "fusion_lat": 0.0, "name": "b95a1f96e140ccac1f88c03e0780a11b", "bike_id": "b95a1f96e140ccac1f88c03e0780a11b", "is_disabled": 0, "type": "electric_scooter", "lat": 38.91989866666667, "lon": -77.03295383333334, "is_reserved": 0, "fusion_lon": 0.0}, {"rental_uris": {"ios": "https://dc.lft.to/lastmile_qr_scan", "android": "https://dc.lft.to/lastmile_qr_scan"}, "fusion_lat": 0.0, "name": "d9cf459e7f892143b79534ce373f021f", "bike_id": "d9cf459e7f892143b79534ce373f021f", "is_disabled": 0, "type": "electric_scooter", "lat": 38.896242666666666, "lon": -77.05020866666666, "is_reserved": 0, "fusion_lon": 0.0}, {"rental_uris": {"ios": "https://dc.lft.to/lastmile_qr_scan", "android": "https://dc.lft.to/lastmile_qr_scan"}, "fusion_lat": 0.0, "name": "a4023452505f85a7903c8a50b50f2960", "bike_id": "a4023452505f85a7903c8a50b50f2960", "is_disabled": 0, "type": "electric_scooter", "lat": 38.9073585, "lon": -77.02712133333333, "is_reserved": 0, "fusion_lon": 0.0}, {"rental_uris": {"ios": "https://dc.lft.to/lastmile_qr_scan", "android": "https://dc.lft.to/lastmile_qr_scan"}, "fusion_lat": 0.0, "name": "bb7f1744cca9e18f21f2798b23c221ad", "bike_id": "bb7f1744cca9e18f21f2798b23c221ad", "is_disabled": 0, "type": "electric_scooter", "lat": 38.95165316666667, "lon": -77.02750466666667, "is_reserved": 0, "fusion_lon": 0.0}, {"rental_uris": {"ios": "https://dc.lft.to/lastmile_qr_scan", "android": "https://dc.lft.to/lastmile_qr_scan"}, "fusion_lat": 0.0, "name": "48b4a707b9fa3e89a108796278aac6e7", "bike_id": "48b4a707b9fa3e89a108796278aac6e7", "is_disabled": 0, "type": "electric_scooter", "lat": 38.89219083333333, "lon": -77.01370416666667, "is_reserved": 0, "fusion_lon": 0.0}, {"rental_uris": {"ios": "https://dc.lft.to/lastmile_qr_scan", "android": "https://dc.lft.to/lastmile_qr_scan"}, "fusion_lat": 0.0, "name": "86f7da2d48e30faf146f0b989c8210f2", "bike_id": "86f7da2d48e30faf146f0b989c8210f2", "is_disabled": 0, "type": "electric_scooter", "lat": 38.9190845, "lon": -77.024864, "is_reserved": 0, "fusion_lon": 0.0}, {"rental_uris": {"ios": "https://dc.lft.to/lastmile_qr_scan", "android": "https://dc.lft.to/lastmile_qr_scan"}, "fusion_lat": 0.0, "name": "349cb348f4956c8ac31e7e799564ab78", "bike_id": "349cb348f4956c8ac31e7e799564ab78", "is_disabled": 0, "type": "electric_scooter", "lat": 38.912699333333336, "lon": -77.02224283333334, "is_reserved": 0, "fusion_lon": 0.0}, {"rental_uris": {"ios": "https://dc.lft.to/lastmile_qr_scan", "android": "https://dc.lft.to/lastmile_qr_scan"}, "fusion_lat": 0.0, "name": "944d907dbc92974909513b67e1ec6df3", "bike_id": "944d907dbc92974909513b67e1ec6df3", "is_disabled": 0, "type": "electric_scooter", "lat": 38.9269635, "lon": -77.02584883333333, "is_reserved": 0, "fusion_lon": 0.0}, {"rental_uris": {"ios": "https://dc.lft.to/lastmile_qr_scan", "android": "https://dc.lft.to/lastmile_qr_scan"}, "fusion_lat": 0.0, "name": "15e8225537fbec118617f61370dc8ae0", "bike_id": "15e8225537fbec118617f61370dc8ae0", "is_disabled": 0, "type": "electric_scooter", "lat": 38.9156495, "lon": -77.02005266666667, "is_reserved": 0, "fusion_lon": 0.0}, {"rental_uris": {"ios": "https://dc.lft.to/lastmile_qr_scan", "android": "https://dc.lft.to/lastmile_qr_scan"}, "fusion_lat": 0.0, "name": "f093ac4d60a4acf0ebce44bf85c8d089", "bike_id": "f093ac4d60a4acf0ebce44bf85c8d089", "is_disabled": 0, "type": "electric_scooter", "lat": 38.89579916666667, "lon": -77.02965833333333, "is_reserved": 0, "fusion_lon": 0.0}, {"rental_uris": {"ios": "https://dc.lft.to/lastmile_qr_scan", "android": "https://dc.lft.to/lastmile_qr_scan"}, "fusion_lat": 0.0, "name": "ab95bdda1f1e852680c2b9f7f45189e3", "bike_id": "ab95bdda1f1e852680c2b9f7f45189e3", "is_disabled": 0, "type": "electric_scooter", "lat": 38.9122185, "lon": -77.04110683333333, "is_reserved": 0, "fusion_lon": 0.0}, {"rental_uris": {"ios": "https://dc.lft.to/lastmile_qr_scan", "android": "https://dc.lft.to/lastmile_qr_scan"}, "fusion_lat": 0.0, "name": "281d419f32510d0600c7afe2637acb87", "bike_id": "281d419f32510d0600c7afe2637acb87", "is_disabled": 0, "type": "electric_scooter", "lat": 38.90111916666667, "lon": -77.03365116666667, "is_reserved": 0, "fusion_lon": 0.0}, {"rental_uris": {"ios": "https://dc.lft.to/lastmile_qr_scan", "android": "https://dc.lft.to/lastmile_qr_scan"}, "fusion_lat": 0.0, "name": "d5e34258692adbb9d8913dc9d7d56a12", "bike_id": "d5e34258692adbb9d8913dc9d7d56a12", "is_disabled": 0, "type": "electric_scooter", "lat": 38.86688216666667, "lon": -76.98548616666666, "is_reserved": 0, "fusion_lon": 0.0}, {"rental_uris": {"ios": "https://dc.lft.to/lastmile_qr_scan", "android": "https://dc.lft.to/lastmile_qr_scan"}, "fusion_lat": 0.0, "name": "311d0f26f441d5bfc9a56e0115350c2c", "bike_id": "311d0f26f441d5bfc9a56e0115350c2c", "is_disabled": 0, "type": "electric_scooter", "lat": 38.8922265, "lon": -77.04328766666667, "is_reserved": 0, "fusion_lon": 0.0}, {"rental_uris": {"ios": "https://dc.lft.to/lastmile_qr_scan", "android": "https://dc.lft.to/lastmile_qr_scan"}, "fusion_lat": 0.0, "name": "92247e3b373bb0c1623006a074deaf88", "bike_id": "92247e3b373bb0c1623006a074deaf88", "is_disabled": 0, "type": "electric_scooter", "lat": 38.840755333333334, "lon": -76.98924983333333, "is_reserved": 0, "fusion_lon": 0.0}, {"rental_uris": {"ios": "https://dc.lft.to/lastmile_qr_scan", "android": "https://dc.lft.to/lastmile_qr_scan"}, "fusion_lat": 0.0, "name": "4a1bd2c34da535b1cadb0b3f62364764", "bike_id": "4a1bd2c34da535b1cadb0b3f62364764", "is_disabled": 0, "type": "electric_scooter", "lat": 38.892287, "lon": -77.02799833333333, "is_reserved": 0, "fusion_lon": 0.0}, {"rental_uris": {"ios": "https://dc.lft.to/lastmile_qr_scan", "android": "https://dc.lft.to/lastmile_qr_scan"}, "fusion_lat": 0.0, "name": "c552b6d19c8c6e85985ccf116c1b015f", "bike_id": "c552b6d19c8c6e85985ccf116c1b015f", "is_disabled": 0, "type": "electric_scooter", "lat": 38.915543, "lon": -77.03868916666667, "is_reserved": 0, "fusion_lon": 0.0}, {"rental_uris": {"ios": "https://dc.lft.to/lastmile_qr_scan", "android": "https://dc.lft.to/lastmile_qr_scan"}, "fusion_lat": 0.0, "name": "004ce6a6bf5cefe66b2b922557e82e64", "bike_id": "004ce6a6bf5cefe66b2b922557e82e64", "is_disabled": 0, "type": "electric_scooter", "lat": 38.9496195, "lon": -77.02722666666666, "is_reserved": 0, "fusion_lon": 0.0}, {"rental_uris": {"ios": "https://dc.lft.to/lastmile_qr_scan", "android": "https://dc.lft.to/lastmile_qr_scan"}, "fusion_lat": 0.0, "name": "a2d038d54343c6e69a00ad164c2fda19", "bike_id": "a2d038d54343c6e69a00ad164c2fda19", "is_disabled": 0, "type": "electric_scooter", "lat": 38.8903715, "lon": -76.93755333333333, "is_reserved": 0, "fusion_lon": 0.0}, {"rental_uris": {"ios": "https://dc.lft.to/lastmile_qr_scan", "android": "https://dc.lft.to/lastmile_qr_scan"}, "fusion_lat": 0.0, "name": "582447da62b6eab9c93ebab5b6bc015a", "bike_id": "582447da62b6eab9c93ebab5b6bc015a", "is_disabled": 0, "type": "electric_scooter", "lat": 38.9155955, "lon": -77.03863933333334, "is_reserved": 0, "fusion_lon": 0.0}, {"rental_uris": {"ios": "https://dc.lft.to/lastmile_qr_scan", "android": "https://dc.lft.to/lastmile_qr_scan"}, "fusion_lat": 0.0, "name": "49fecf0ec0086b11fe6052d1bcc0a955", "bike_id": "49fecf0ec0086b11fe6052d1bcc0a955", "is_disabled": 0, "type": "electric_scooter", "lat": 38.94406683333333, "lon": -77.026235, "is_reserved": 0, "fusion_lon": 0.0}, {"rental_uris": {"ios": "https://dc.lft.to/lastmile_qr_scan", "android": "https://dc.lft.to/lastmile_qr_scan"}, "fusion_lat": 0.0, "name": "fb889ffc3a9fc6edda16cb7cb43a47b2", "bike_id": "fb889ffc3a9fc6edda16cb7cb43a47b2", "is_disabled": 0, "type": "electric_scooter", "lat": 38.911907666666664, "lon": -77.03831983333333, "is_reserved": 0, "fusion_lon": 0.0}, {"rental_uris": {"ios": "https://dc.lft.to/lastmile_qr_scan", "android": "https://dc.lft.to/lastmile_qr_scan"}, "fusion_lat": 0.0, "name": "2bb1292194f202b4e850495889805ae4", "bike_id": "2bb1292194f202b4e850495889805ae4", "is_disabled": 0, "type": "electric_bike", "lat": 38.91801, "lon": -77.2234745, "is_reserved": 0, "fusion_lon": 0.0}, {"rental_uris": {"ios": "https://dc.lft.to/lastmile_qr_scan", "android": "https://dc.lft.to/lastmile_qr_scan"}, "fusion_lat": 0.0, "name": "0d5fe03fbad9a87a5654e85910293890", "bike_id": "0d5fe03fbad9a87a5654e85910293890", "is_disabled": 0, "type": "electric_scooter", "lat": 38.905598166666664, "lon": -77.04696483333333, "is_reserved": 0, "fusion_lon": 0.0}, {"rental_uris": {"ios": "https://dc.lft.to/lastmile_qr_scan", "android": "https://dc.lft.to/lastmile_qr_scan"}, "fusion_lat": 0.0, "name": "dc05cb7b3025580081212ab138d2eed8", "bike_id": "dc05cb7b3025580081212ab138d2eed8", "is_disabled": 0, "type": "electric_scooter", "lat": 38.9179495, "lon": -77.03659566666667, "is_reserved": 0, "fusion_lon": 0.0}, {"rental_uris": {"ios": "https://dc.lft.to/lastmile_qr_scan", "android": "https://dc.lft.to/lastmile_qr_scan"}, "fusion_lat": 0.0, "name": "12ed28e65201e4e5c869c92df3e6597c", "bike_id": "12ed28e65201e4e5c869c92df3e6597c", "is_disabled": 0, "type": "electric_scooter", "lat": 38.93244966666666, "lon": -77.031151, "is_reserved": 0, "fusion_lon": 0.0}, {"rental_uris": {"ios": "https://dc.lft.to/lastmile_qr_scan", "android": "https://dc.lft.to/lastmile_qr_scan"}, "fusion_lat": 0.0, "name": "22aab6c3e8dee3f10d004db15f1ab48e", "bike_id": "22aab6c3e8dee3f10d004db15f1ab48e", "is_disabled": 0, "type": "electric_scooter", "lat": 38.90465783333333, "lon": -77.048677, "is_reserved": 0, "fusion_lon": 0.0}, {"rental_uris": {"ios": "https://dc.lft.to/lastmile_qr_scan", "android": "https://dc.lft.to/lastmile_qr_scan"}, "fusion_lat": 0.0, "name": "a44070358b324dccf0e75913550a125c", "bike_id": "a44070358b324dccf0e75913550a125c", "is_disabled": 0, "type": "electric_scooter", "lat": 38.90265616666667, "lon": -77.03856566666667, "is_reserved": 0, "fusion_lon": 0.0}, {"rental_uris": {"ios": "https://dc.lft.to/lastmile_qr_scan", "android": "https://dc.lft.to/lastmile_qr_scan"}, "fusion_lat": 0.0, "name": "aac8cb193d33a9d09f0cba5f8f11458f", "bike_id": "aac8cb193d33a9d09f0cba5f8f11458f", "is_disabled": 0, "type": "electric_scooter", "lat": 38.879629666666666, "lon": -76.98744283333333, "is_reserved": 0, "fusion_lon": 0.0}, {"rental_uris": {"ios": "https://dc.lft.to/lastmile_qr_scan", "android": "https://dc.lft.to/lastmile_qr_scan"}, "fusion_lat": 0.0, "name": "40df3d5f8217556d2c5d175188129e93", "bike_id": "40df3d5f8217556d2c5d175188129e93", "is_disabled": 0, "type": "electric_scooter", "lat": 38.900562, "lon": -77.051435, "is_reserved": 0, "fusion_lon": 0.0}, {"rental_uris": {"ios": "https://dc.lft.to/lastmile_qr_scan", "android": "https://dc.lft.to/lastmile_qr_scan"}, "fusion_lat": 0.0, "name": "24399ce5538c2f787156aa96434da17a", "bike_id": "24399ce5538c2f787156aa96434da17a", "is_disabled": 0, "type": "electric_scooter", "lat": 38.9170285, "lon": -77.031452, "is_reserved": 0, "fusion_lon": 0.0}, {"rental_uris": {"ios": "https://dc.lft.to/lastmile_qr_scan", "android": "https://dc.lft.to/lastmile_qr_scan"}, "fusion_lat": 0.0, "name": "f4f91876908d9db5e44ce8128274f40d", "bike_id": "f4f91876908d9db5e44ce8128274f40d", "is_disabled": 0, "type": "electric_scooter", "lat": 38.9127, "lon": -77.0317525, "is_reserved": 0, "fusion_lon": 0.0}, {"rental_uris": {"ios": "https://dc.lft.to/lastmile_qr_scan", "android": "https://dc.lft.to/lastmile_qr_scan"}, "fusion_lat": 0.0, "name": "cbad356f152a46ea9c604508f0a75f99", "bike_id": "cbad356f152a46ea9c604508f0a75f99", "is_disabled": 0, "type": "electric_bike", "lat": 38.8773425, "lon": -76.99482333333333, "is_reserved": 0, "fusion_lon": 0.0}, {"rental_uris": {"ios": "https://dc.lft.to/lastmile_qr_scan", "android": "https://dc.lft.to/lastmile_qr_scan"}, "fusion_lat": 0.0, "name": "56f07cbe843a2d70f4b8b3ca16682039", "bike_id": "56f07cbe843a2d70f4b8b3ca16682039", "is_disabled": 0, "type": "electric_scooter", "lat": 38.89222516666667, "lon": -77.03218616666666, "is_reserved": 0, "fusion_lon": 0.0}, {"rental_uris": {"ios": "https://dc.lft.to/lastmile_qr_scan", "android": "https://dc.lft.to/lastmile_qr_scan"}, "fusion_lat": 0.0, "name": "396b32ffb64d579179f484047b01bd50", "bike_id": "396b32ffb64d579179f484047b01bd50", "is_disabled": 0, "type": "electric_scooter", "lat": 38.921295666666666, "lon": -77.01807083333334, "is_reserved": 0, "fusion_lon": 0.0}, {"rental_uris": {"ios": "https://dc.lft.to/lastmile_qr_scan", "android": "https://dc.lft.to/lastmile_qr_scan"}, "fusion_lat": 0.0, "name": "b926383e3185271db395e0ddfb58233d", "bike_id": "b926383e3185271db395e0ddfb58233d", "is_disabled": 0, "type": "electric_scooter", "lat": 38.91550216666667, "lon": -77.0220875, "is_reserved": 0, "fusion_lon": 0.0}, {"rental_uris": {"ios": "https://dc.lft.to/lastmile_qr_scan", "android": "https://dc.lft.to/lastmile_qr_scan"}, "fusion_lat": 0.0, "name": "45d5756362a3759cb1c9ee36a0f68df4", "bike_id": "45d5756362a3759cb1c9ee36a0f68df4", "is_disabled": 0, "type": "electric_bike", "lat": 38.838094, "lon": -77.0951925, "is_reserved": 0, "fusion_lon": 0.0}, {"rental_uris": {"ios": "https://dc.lft.to/lastmile_qr_scan", "android": "https://dc.lft.to/lastmile_qr_scan"}, "fusion_lat": 0.0, "name": "cead281805b2dcafe6ae6799e730a6a3", "bike_id": "cead281805b2dcafe6ae6799e730a6a3", "is_disabled": 0, "type": "electric_scooter", "lat": 38.9306445, "lon": -77.04023083333334, "is_reserved": 0, "fusion_lon": 0.0}, {"rental_uris": {"ios": "https://dc.lft.to/lastmile_qr_scan", "android": "https://dc.lft.to/lastmile_qr_scan"}, "fusion_lat": 0.0, "name": "ac08f5f2979e0092768a0fa8b13b6478", "bike_id": "ac08f5f2979e0092768a0fa8b13b6478", "is_disabled": 0, "type": "electric_scooter", "lat": 38.89530083333333, "lon": -77.0464025, "is_reserved": 0, "fusion_lon": 0.0}, {"rental_uris": {"ios": "https://dc.lft.to/lastmile_qr_scan", "android": "https://dc.lft.to/lastmile_qr_scan"}, "fusion_lat": 0.0, "name": "5f90af2998975c971a51fb7df24d89c6", "bike_id": "5f90af2998975c971a51fb7df24d89c6", "is_disabled": 0, "type": "electric_scooter", "lat": 38.905881, "lon": -77.00584616666667, "is_reserved": 0, "fusion_lon": 0.0}, {"rental_uris": {"ios": "https://dc.lft.to/lastmile_qr_scan", "android": "https://dc.lft.to/lastmile_qr_scan"}, "fusion_lat": 0.0, "name": "fd52efe8048f524a66866ae1feca1236", "bike_id": "fd52efe8048f524a66866ae1feca1236", "is_disabled": 0, "type": "electric_scooter", "lat": 38.916067, "lon": -77.02294683333334, "is_reserved": 0, "fusion_lon": 0.0}, {"rental_uris": {"ios": "https://dc.lft.to/lastmile_qr_scan", "android": "https://dc.lft.to/lastmile_qr_scan"}, "fusion_lat": 0.0, "name": "556d7368a06f2bad08a9b1e25bec8ab1", "bike_id": "556d7368a06f2bad08a9b1e25bec8ab1", "is_disabled": 0, "type": "electric_scooter", "lat": 38.8672125, "lon": -76.98691916666667, "is_reserved": 0, "fusion_lon": 0.0}, {"rental_uris": {"ios": "https://dc.lft.to/lastmile_qr_scan", "android": "https://dc.lft.to/lastmile_qr_scan"}, "fusion_lat": 0.0, "name": "ff3b7105202bec112ca3e95ce15c4b54", "bike_id": "ff3b7105202bec112ca3e95ce15c4b54", "is_disabled": 0, "type": "electric_scooter", "lat": 38.909753333333335, "lon": -77.03184766666666, "is_reserved": 0, "fusion_lon": 0.0}, {"rental_uris": {"ios": "https://dc.lft.to/lastmile_qr_scan", "android": "https://dc.lft.to/lastmile_qr_scan"}, "fusion_lat": 0.0, "name": "f7761bab7730c43e04971a4fbb1df5ce", "bike_id": "f7761bab7730c43e04971a4fbb1df5ce", "is_disabled": 0, "type": "electric_scooter", "lat": 38.91617333333333, "lon": -77.02299666666667, "is_reserved": 0, "fusion_lon": 0.0}, {"rental_uris": {"ios": "https://dc.lft.to/lastmile_qr_scan", "android": "https://dc.lft.to/lastmile_qr_scan"}, "fusion_lat": 0.0, "name": "8a2dbf73159ad257b9e616750fd7a3c1", "bike_id": "8a2dbf73159ad257b9e616750fd7a3c1", "is_disabled": 0, "type": "electric_scooter", "lat": 38.914097166666664, "lon": -77.04079266666666, "is_reserved": 0, "fusion_lon": 0.0}, {"rental_uris": {"ios": "https://dc.lft.to/lastmile_qr_scan", "android": "https://dc.lft.to/lastmile_qr_scan"}, "fusion_lat": 0.0, "name": "8070c6e9f352797879b0c0dde3947965", "bike_id": "8070c6e9f352797879b0c0dde3947965", "is_disabled": 0, "type": "electric_scooter", "lat": 38.918163666666665, "lon": -77.03913533333333, "is_reserved": 0, "fusion_lon": 0.0}, {"rental_uris": {"ios": "https://dc.lft.to/lastmile_qr_scan", "android": "https://dc.lft.to/lastmile_qr_scan"}, "fusion_lat": 0.0, "name": "2469a1170af16aef112d81a4025ea08d", "bike_id": "2469a1170af16aef112d81a4025ea08d", "is_disabled": 0, "type": "electric_scooter", "lat": 38.882288833333334, "lon": -76.99089283333333, "is_reserved": 0, "fusion_lon": 0.0}, {"rental_uris": {"ios": "https://dc.lft.to/lastmile_qr_scan", "android": "https://dc.lft.to/lastmile_qr_scan"}, "fusion_lat": 0.0, "name": "ce62a9ada4af9d04eb18d1df86b60391", "bike_id": "ce62a9ada4af9d04eb18d1df86b60391", "is_disabled": 0, "type": "electric_bike", "lat": 38.961321166666664, "lon": -77.00972233333333, "is_reserved": 0, "fusion_lon": 0.0}, {"rental_uris": {"ios": "https://dc.lft.to/lastmile_qr_scan", "android": "https://dc.lft.to/lastmile_qr_scan"}, "fusion_lat": 0.0, "name": "f0b922b57f93b585bd527694e46f83cc", "bike_id": "f0b922b57f93b585bd527694e46f83cc", "is_disabled": 0, "type": "electric_scooter", "lat": 38.905261, "lon": -77.059386, "is_reserved": 0, "fusion_lon": 0.0}, {"rental_uris": {"ios": "https://dc.lft.to/lastmile_qr_scan", "android": "https://dc.lft.to/lastmile_qr_scan"}, "fusion_lat": 0.0, "name": "a7ab427bc3428431e18edab9c4c860bd", "bike_id": "a7ab427bc3428431e18edab9c4c860bd", "is_disabled": 0, "type": "electric_scooter", "lat": 38.90983966666667, "lon": -77.031828, "is_reserved": 0, "fusion_lon": 0.0}, {"rental_uris": {"ios": "https://dc.lft.to/lastmile_qr_scan", "android": "https://dc.lft.to/lastmile_qr_scan"}, "fusion_lat": 0.0, "name": "6ac28b6a2ee5c84d35d2bd4d1a8955de", "bike_id": "6ac28b6a2ee5c84d35d2bd4d1a8955de", "is_disabled": 0, "type": "electric_scooter", "lat": 38.892214833333334, "lon": -77.02224033333333, "is_reserved": 0, "fusion_lon": 0.0}, {"rental_uris": {"ios": "https://dc.lft.to/lastmile_qr_scan", "android": "https://dc.lft.to/lastmile_qr_scan"}, "fusion_lat": 0.0, "name": "ae966a0d1df44db6e1aacec21d913e80", "bike_id": "ae966a0d1df44db6e1aacec21d913e80", "is_disabled": 0, "type": "electric_scooter", "lat": 38.892298, "lon": -77.0318345, "is_reserved": 0, "fusion_lon": 0.0}, {"rental_uris": {"ios": "https://dc.lft.to/lastmile_qr_scan", "android": "https://dc.lft.to/lastmile_qr_scan"}, "fusion_lat": 0.0, "name": "cc5e62542f855dcb52200808db5cb858", "bike_id": "cc5e62542f855dcb52200808db5cb858", "is_disabled": 0, "type": "electric_scooter", "lat": 38.91105366666667, "lon": -77.00154383333333, "is_reserved": 0, "fusion_lon": 0.0}, {"rental_uris": {"ios": "https://dc.lft.to/lastmile_qr_scan", "android": "https://dc.lft.to/lastmile_qr_scan"}, "fusion_lat": 0.0, "name": "53f32020ab9174418c2611761334e2c0", "bike_id": "53f32020ab9174418c2611761334e2c0", "is_disabled": 0, "type": "electric_scooter", "lat": 38.90646916666667, "lon": -77.0487065, "is_reserved": 0, "fusion_lon": 0.0}, {"rental_uris": {"ios": "https://dc.lft.to/lastmile_qr_scan", "android": "https://dc.lft.to/lastmile_qr_scan"}, "fusion_lat": 0.0, "name": "26258a01fc4756d4c673939e15aac15b", "bike_id": "26258a01fc4756d4c673939e15aac15b", "is_disabled": 0, "type": "electric_scooter", "lat": 38.892230166666664, "lon": -77.03223283333334, "is_reserved": 0, "fusion_lon": 0.0}, {"rental_uris": {"ios": "https://dc.lft.to/lastmile_qr_scan", "android": "https://dc.lft.to/lastmile_qr_scan"}, "fusion_lat": 0.0, "name": "e5c10b98832ffcc97ee22e854cbdda89", "bike_id": "e5c10b98832ffcc97ee22e854cbdda89", "is_disabled": 0, "type": "electric_scooter", "lat": 38.919624666666664, "lon": -77.017803, "is_reserved": 0, "fusion_lon": 0.0}, {"rental_uris": {"ios": "https://dc.lft.to/lastmile_qr_scan", "android": "https://dc.lft.to/lastmile_qr_scan"}, "fusion_lat": 0.0, "name": "7d5053c57fdd6fdd89a8ccaab3a2e53d", "bike_id": "7d5053c57fdd6fdd89a8ccaab3a2e53d", "is_disabled": 0, "type": "electric_scooter", "lat": 38.9064075, "lon": -77.04865116666667, "is_reserved": 0, "fusion_lon": 0.0}, {"rental_uris": {"ios": "https://dc.lft.to/lastmile_qr_scan", "android": "https://dc.lft.to/lastmile_qr_scan"}, "fusion_lat": 0.0, "name": "f240bd57750e65afec5da7e744bf35be", "bike_id": "f240bd57750e65afec5da7e744bf35be", "is_disabled": 0, "type": "electric_scooter", "lat": 38.91361766666667, "lon": -77.044866, "is_reserved": 0, "fusion_lon": 0.0}, {"rental_uris": {"ios": "https://dc.lft.to/lastmile_qr_scan", "android": "https://dc.lft.to/lastmile_qr_scan"}, "fusion_lat": 0.0, "name": "61a9c073f471544480acf8888fd02125", "bike_id": "61a9c073f471544480acf8888fd02125", "is_disabled": 0, "type": "electric_scooter", "lat": 38.9068085, "lon": -77.0271315, "is_reserved": 0, "fusion_lon": 0.0}, {"rental_uris": {"ios": "https://dc.lft.to/lastmile_qr_scan", "android": "https://dc.lft.to/lastmile_qr_scan"}, "fusion_lat": 0.0, "name": "e0ce70308b8f557d6379fae6432e3240", "bike_id": "e0ce70308b8f557d6379fae6432e3240", "is_disabled": 0, "type": "electric_bike", "lat": 38.956326833333335, "lon": -77.0365205, "is_reserved": 0, "fusion_lon": 0.0}, {"rental_uris": {"ios": "https://dc.lft.to/lastmile_qr_scan", "android": "https://dc.lft.to/lastmile_qr_scan"}, "fusion_lat": 0.0, "name": "2bc54633385caf344f6c4f441b5652c1", "bike_id": "2bc54633385caf344f6c4f441b5652c1", "is_disabled": 0, "type": "electric_scooter", "lat": 38.9066575, "lon": -77.02709816666666, "is_reserved": 0, "fusion_lon": 0.0}, {"rental_uris": {"ios": "https://dc.lft.to/lastmile_qr_scan", "android": "https://dc.lft.to/lastmile_qr_scan"}, "fusion_lat": 0.0, "name": "91a34d067d1c81a0824f1a5f103f7f61", "bike_id": "91a34d067d1c81a0824f1a5f103f7f61", "is_disabled": 0, "type": "electric_scooter", "lat": 38.90039183333333, "lon": -77.00197316666667, "is_reserved": 0, "fusion_lon": 0.0}, {"rental_uris": {"ios": "https://dc.lft.to/lastmile_qr_scan", "android": "https://dc.lft.to/lastmile_qr_scan"}, "fusion_lat": 0.0, "name": "b62c610b03d90374e6aec08d71ea16d4", "bike_id": "b62c610b03d90374e6aec08d71ea16d4", "is_disabled": 0, "type": "electric_scooter", "lat": 38.92545333333333, "lon": -77.05263633333334, "is_reserved": 0, "fusion_lon": 0.0}, {"rental_uris": {"ios": "https://dc.lft.to/lastmile_qr_scan", "android": "https://dc.lft.to/lastmile_qr_scan"}, "fusion_lat": 0.0, "name": "d5a10c2ae184155066a6b95245841887", "bike_id": "d5a10c2ae184155066a6b95245841887", "is_disabled": 0, "type": "electric_bike", "lat": 38.8450405, "lon": -76.99352266666666, "is_reserved": 0, "fusion_lon": 0.0}, {"rental_uris": {"ios": "https://dc.lft.to/lastmile_qr_scan", "android": "https://dc.lft.to/lastmile_qr_scan"}, "fusion_lat": 0.0, "name": "8aa78f56f86314cf8f47cdfe2e3c6b83", "bike_id": "8aa78f56f86314cf8f47cdfe2e3c6b83", "is_disabled": 0, "type": "electric_scooter", "lat": 38.96945516666667, "lon": -77.0274225, "is_reserved": 0, "fusion_lon": 0.0}, {"rental_uris": {"ios": "https://dc.lft.to/lastmile_qr_scan", "android": "https://dc.lft.to/lastmile_qr_scan"}, "fusion_lat": 0.0, "name": "5a12dcf44d7496975bb841de8ca2fb48", "bike_id": "5a12dcf44d7496975bb841de8ca2fb48", "is_disabled": 0, "type": "electric_scooter", "lat": 38.907306, "lon": -77.03447183333333, "is_reserved": 0, "fusion_lon": 0.0}, {"rental_uris": {"ios": "https://dc.lft.to/lastmile_qr_scan", "android": "https://dc.lft.to/lastmile_qr_scan"}, "fusion_lat": 0.0, "name": "74ee53cbe1ddc5ddb5a5ead746c22c5c", "bike_id": "74ee53cbe1ddc5ddb5a5ead746c22c5c", "is_disabled": 0, "type": "electric_scooter", "lat": 38.8951615, "lon": -76.930434, "is_reserved": 0, "fusion_lon": 0.0}, {"rental_uris": {"ios": "https://dc.lft.to/lastmile_qr_scan", "android": "https://dc.lft.to/lastmile_qr_scan"}, "fusion_lat": 0.0, "name": "d20969007b5c0d1a9f0585638a4c14bb", "bike_id": "d20969007b5c0d1a9f0585638a4c14bb", "is_disabled": 0, "type": "electric_scooter", "lat": 38.90348616666667, "lon": -77.0110135, "is_reserved": 0, "fusion_lon": 0.0}, {"rental_uris": {"ios": "https://dc.lft.to/lastmile_qr_scan", "android": "https://dc.lft.to/lastmile_qr_scan"}, "fusion_lat": 0.0, "name": "cc44dd5da5587c3b79352824b261d7d1", "bike_id": "cc44dd5da5587c3b79352824b261d7d1", "is_disabled": 0, "type": "electric_scooter", "lat": 38.902798833333335, "lon": -77.05807966666667, "is_reserved": 0, "fusion_lon": 0.0}, {"rental_uris": {"ios": "https://dc.lft.to/lastmile_qr_scan", "android": "https://dc.lft.to/lastmile_qr_scan"}, "fusion_lat": 0.0, "name": "fe0db0d98b6ef6a754ec9218bdafcde0", "bike_id": "fe0db0d98b6ef6a754ec9218bdafcde0", "is_disabled": 0, "type": "electric_scooter", "lat": 38.935266166666665, "lon": -77.07286783333333, "is_reserved": 0, "fusion_lon": 0.0}, {"rental_uris": {"ios": "https://dc.lft.to/lastmile_qr_scan", "android": "https://dc.lft.to/lastmile_qr_scan"}, "fusion_lat": 0.0, "name": "684a148301fa2187f20639dbc2bdcfd7", "bike_id": "684a148301fa2187f20639dbc2bdcfd7", "is_disabled": 0, "type": "electric_bike", "lat": 38.840277666666665, "lon": -76.97575783333333, "is_reserved": 0, "fusion_lon": 0.0}, {"rental_uris": {"ios": "https://dc.lft.to/lastmile_qr_scan", "android": "https://dc.lft.to/lastmile_qr_scan"}, "fusion_lat": 0.0, "name": "c68bcdc22f45c7cc72e307588875acfc", "bike_id": "c68bcdc22f45c7cc72e307588875acfc", "is_disabled": 0, "type": "electric_scooter", "lat": 38.90449916666667, "lon": -77.03242616666667, "is_reserved": 0, "fusion_lon": 0.0}, {"rental_uris": {"ios": "https://dc.lft.to/lastmile_qr_scan", "android": "https://dc.lft.to/lastmile_qr_scan"}, "fusion_lat": 0.0, "name": "401f2aac1175d0ec7d5c4555ec6a63dd", "bike_id": "401f2aac1175d0ec7d5c4555ec6a63dd", "is_disabled": 0, "type": "electric_scooter", "lat": 38.8919605, "lon": -77.00305983333334, "is_reserved": 0, "fusion_lon": 0.0}, {"rental_uris": {"ios": "https://dc.lft.to/lastmile_qr_scan", "android": "https://dc.lft.to/lastmile_qr_scan"}, "fusion_lat": 0.0, "name": "8d62124a6fed59b0e3ecfdf6441468d8", "bike_id": "8d62124a6fed59b0e3ecfdf6441468d8", "is_disabled": 0, "type": "electric_scooter", "lat": 38.924417166666665, "lon": -77.04026733333333, "is_reserved": 0, "fusion_lon": 0.0}, {"rental_uris": {"ios": "https://dc.lft.to/lastmile_qr_scan", "android": "https://dc.lft.to/lastmile_qr_scan"}, "fusion_lat": 0.0, "name": "ada31e61be632654f7efef5607c2ad66", "bike_id": "ada31e61be632654f7efef5607c2ad66", "is_disabled": 0, "type": "electric_scooter", "lat": 38.9206025, "lon": -77.04223283333333, "is_reserved": 0, "fusion_lon": 0.0}, {"rental_uris": {"ios": "https://dc.lft.to/lastmile_qr_scan", "android": "https://dc.lft.to/lastmile_qr_scan"}, "fusion_lat": 0.0, "name": "26231999a7b49c1ac559604131c6358c", "bike_id": "26231999a7b49c1ac559604131c6358c", "is_disabled": 0, "type": "electric_scooter", "lat": 38.923224, "lon": -77.02130466666667, "is_reserved": 0, "fusion_lon": 0.0}, {"rental_uris": {"ios": "https://dc.lft.to/lastmile_qr_scan", "android": "https://dc.lft.to/lastmile_qr_scan"}, "fusion_lat": 0.0, "name": "b1139552de149091d8bef0399ed73e22", "bike_id": "b1139552de149091d8bef0399ed73e22", "is_disabled": 0, "type": "electric_scooter", "lat": 38.92669766666667, "lon": -77.01471616666667, "is_reserved": 0, "fusion_lon": 0.0}, {"rental_uris": {"ios": "https://dc.lft.to/lastmile_qr_scan", "android": "https://dc.lft.to/lastmile_qr_scan"}, "fusion_lat": 0.0, "name": "d4ea2625242f830876c159401ba4ab18", "bike_id": "d4ea2625242f830876c159401ba4ab18", "is_disabled": 0, "type": "electric_scooter", "lat": 38.90785, "lon": -77.03180066666667, "is_reserved": 0, "fusion_lon": 0.0}, {"rental_uris": {"ios": "https://dc.lft.to/lastmile_qr_scan", "android": "https://dc.lft.to/lastmile_qr_scan"}, "fusion_lat": 0.0, "name": "1f16ba055674469dc899fa4de02c7b04", "bike_id": "1f16ba055674469dc899fa4de02c7b04", "is_disabled": 0, "type": "electric_bike", "lat": 38.85505716666667, "lon": -77.1201565, "is_reserved": 0, "fusion_lon": 0.0}, {"rental_uris": {"ios": "https://dc.lft.to/lastmile_qr_scan", "android": "https://dc.lft.to/lastmile_qr_scan"}, "fusion_lat": 0.0, "name": "552318d71d1a9e9cee259c0d79ada734", "bike_id": "552318d71d1a9e9cee259c0d79ada734", "is_disabled": 0, "type": "electric_scooter", "lat": 38.916893333333334, "lon": -77.02599983333333, "is_reserved": 0, "fusion_lon": 0.0}, {"rental_uris": {"ios": "https://dc.lft.to/lastmile_qr_scan", "android": "https://dc.lft.to/lastmile_qr_scan"}, "fusion_lat": 0.0, "name": "b93290aad34f21a991717595d76d09f3", "bike_id": "b93290aad34f21a991717595d76d09f3", "is_disabled": 0, "type": "electric_scooter", "lat": 38.92242783333333, "lon": -77.03414633333334, "is_reserved": 0, "fusion_lon": 0.0}, {"rental_uris": {"ios": "https://dc.lft.to/lastmile_qr_scan", "android": "https://dc.lft.to/lastmile_qr_scan"}, "fusion_lat": 0.0, "name": "7e32983a5fa7db999d15338c1fc975b4", "bike_id": "7e32983a5fa7db999d15338c1fc975b4", "is_disabled": 0, "type": "electric_scooter", "lat": 38.893565333333335, "lon": -77.041881, "is_reserved": 0, "fusion_lon": 0.0}, {"rental_uris": {"ios": "https://dc.lft.to/lastmile_qr_scan", "android": "https://dc.lft.to/lastmile_qr_scan"}, "fusion_lat": 0.0, "name": "2a8dc2ab92db31e6018a089e932a2e3b", "bike_id": "2a8dc2ab92db31e6018a089e932a2e3b", "is_disabled": 0, "type": "electric_bike", "lat": 38.931836, "lon": -77.02351816666666, "is_reserved": 0, "fusion_lon": 0.0}, {"rental_uris": {"ios": "https://dc.lft.to/lastmile_qr_scan", "android": "https://dc.lft.to/lastmile_qr_scan"}, "fusion_lat": 0.0, "name": "f5cd03cfb8eb2e07e79df71af92d40ad", "bike_id": "f5cd03cfb8eb2e07e79df71af92d40ad", "is_disabled": 0, "type": "electric_scooter", "lat": 38.90958333333333, "lon": -77.02578916666667, "is_reserved": 0, "fusion_lon": 0.0}, {"rental_uris": {"ios": "https://dc.lft.to/lastmile_qr_scan", "android": "https://dc.lft.to/lastmile_qr_scan"}, "fusion_lat": 0.0, "name": "b63333269cb7d1769d445d69e52bacbe", "bike_id": "b63333269cb7d1769d445d69e52bacbe", "is_disabled": 0, "type": "electric_scooter", "lat": 38.89750316666667, "lon": -76.941902, "is_reserved": 0, "fusion_lon": 0.0}, {"rental_uris": {"ios": "https://dc.lft.to/lastmile_qr_scan", "android": "https://dc.lft.to/lastmile_qr_scan"}, "fusion_lat": 0.0, "name": "275402ede2adf67bfde32d1807fc11a3", "bike_id": "275402ede2adf67bfde32d1807fc11a3", "is_disabled": 0, "type": "electric_scooter", "lat": 38.92370283333333, "lon": -77.019182, "is_reserved": 0, "fusion_lon": 0.0}, {"rental_uris": {"ios": "https://dc.lft.to/lastmile_qr_scan", "android": "https://dc.lft.to/lastmile_qr_scan"}, "fusion_lat": 0.0, "name": "93a255aa18def4d8ebae5ff6dc4b4037", "bike_id": "93a255aa18def4d8ebae5ff6dc4b4037", "is_disabled": 0, "type": "electric_scooter", "lat": 38.91804, "lon": -77.040285, "is_reserved": 0, "fusion_lon": 0.0}, {"rental_uris": {"ios": "https://dc.lft.to/lastmile_qr_scan", "android": "https://dc.lft.to/lastmile_qr_scan"}, "fusion_lat": 0.0, "name": "de91443781d22b3a8447da28fa2f5e31", "bike_id": "de91443781d22b3a8447da28fa2f5e31", "is_disabled": 0, "type": "electric_scooter", "lat": 38.91103666666667, "lon": -77.0021505, "is_reserved": 0, "fusion_lon": 0.0}, {"rental_uris": {"ios": "https://dc.lft.to/lastmile_qr_scan", "android": "https://dc.lft.to/lastmile_qr_scan"}, "fusion_lat": 0.0, "name": "46017f2213f299570a833168fdfdecb2", "bike_id": "46017f2213f299570a833168fdfdecb2", "is_disabled": 0, "type": "electric_scooter", "lat": 38.94927783333333, "lon": -77.019459, "is_reserved": 0, "fusion_lon": 0.0}, {"rental_uris": {"ios": "https://dc.lft.to/lastmile_qr_scan", "android": "https://dc.lft.to/lastmile_qr_scan"}, "fusion_lat": 0.0, "name": "ce2d647534b2422c034e3e4c3c1f72bd", "bike_id": "ce2d647534b2422c034e3e4c3c1f72bd", "is_disabled": 0, "type": "electric_scooter", "lat": 38.905227833333335, "lon": -77.06601883333333, "is_reserved": 0, "fusion_lon": 0.0}, {"rental_uris": {"ios": "https://dc.lft.to/lastmile_qr_scan", "android": "https://dc.lft.to/lastmile_qr_scan"}, "fusion_lat": 0.0, "name": "7630e802f037874edf9b052e40d65ea9", "bike_id": "7630e802f037874edf9b052e40d65ea9", "is_disabled": 0, "type": "electric_scooter", "lat": 38.9078405, "lon": -77.03857716666667, "is_reserved": 0, "fusion_lon": 0.0}, {"rental_uris": {"ios": "https://dc.lft.to/lastmile_qr_scan", "android": "https://dc.lft.to/lastmile_qr_scan"}, "fusion_lat": 0.0, "name": "cc5d26ce28bea52e9f1c701b11958127", "bike_id": "cc5d26ce28bea52e9f1c701b11958127", "is_disabled": 0, "type": "electric_scooter", "lat": 38.923603, "lon": -77.05129233333334, "is_reserved": 0, "fusion_lon": 0.0}, {"rental_uris": {"ios": "https://dc.lft.to/lastmile_qr_scan", "android": "https://dc.lft.to/lastmile_qr_scan"}, "fusion_lat": 0.0, "name": "a2befa0cb6789f9b6f1f38e35a1a2313", "bike_id": "a2befa0cb6789f9b6f1f38e35a1a2313", "is_disabled": 0, "type": "electric_scooter", "lat": 38.92054266666667, "lon": -77.04195566666667, "is_reserved": 0, "fusion_lon": 0.0}, {"rental_uris": {"ios": "https://dc.lft.to/lastmile_qr_scan", "android": "https://dc.lft.to/lastmile_qr_scan"}, "fusion_lat": 0.0, "name": "4c00be24ad2fdcabea00835fafdb1c77", "bike_id": "4c00be24ad2fdcabea00835fafdb1c77", "is_disabled": 0, "type": "electric_scooter", "lat": 38.87624516666666, "lon": -76.96518866666666, "is_reserved": 0, "fusion_lon": 0.0}, {"rental_uris": {"ios": "https://dc.lft.to/lastmile_qr_scan", "android": "https://dc.lft.to/lastmile_qr_scan"}, "fusion_lat": 0.0, "name": "612de1e5488f8c6abae959cc1a6ec58d", "bike_id": "612de1e5488f8c6abae959cc1a6ec58d", "is_disabled": 0, "type": "electric_scooter", "lat": 38.916839333333336, "lon": -77.02810483333333, "is_reserved": 0, "fusion_lon": 0.0}, {"rental_uris": {"ios": "https://dc.lft.to/lastmile_qr_scan", "android": "https://dc.lft.to/lastmile_qr_scan"}, "fusion_lat": 0.0, "name": "5b80e641d72ad78cfa54b331a725b7eb", "bike_id": "5b80e641d72ad78cfa54b331a725b7eb", "is_disabled": 0, "type": "electric_scooter", "lat": 38.9542095, "lon": -77.0275885, "is_reserved": 0, "fusion_lon": 0.0}, {"rental_uris": {"ios": "https://dc.lft.to/lastmile_qr_scan", "android": "https://dc.lft.to/lastmile_qr_scan"},