{"data": {"bikes": [{"lon": -77.02095716666666, "bike_id": "0fad2f11dd1d4cf5935f51f4b440e6cd", "lat": 38.9097655, "fusion_lon": 0.0, "fusion_lat": 0.0, "type": "electric_scooter", "name": "0fad2f11dd1d4cf5935f51f4b440e6cd", "is_disabled": 0, "rental_uris": {"ios": "https://dc.lft.to/lastmile_qr_scan", "android": "https://dc.lft.to/lastmile_qr_scan"}, "is_reserved": 0}, {"lon": -77.02190016666667, "bike_id": "13f1e0d6796086024f46e6b8c60895c4", "lat": 38.90422066666667, "fusion_lon": 0.0, "fusion_lat": 0.0, "type": "electric_scooter", "name": "13f1e0d6796086024f46e6b8c60895c4", "is_disabled": 0, "rental_uris": {"ios": "https://dc.lft.to/lastmile_qr_scan", "android": "https://dc.lft.to/lastmile_qr_scan"}, "is_reserved": 0}, {"lon": -77.03255716666666, "bike_id": "66c1d3ea6cb644527fb251e11ccaba02", "lat": 38.94271283333333, "fusion_lon": 0.0, "fusion_lat": 0.0, "type": "electric_scooter", "name": "66c1d3ea6cb644527fb251e11ccaba02", "is_disabled": 0, "rental_uris": {"ios": "https://dc.lft.to/lastmile_qr_scan", "android": "https://dc.lft.to/lastmile_qr_scan"}, "is_reserved": 0}, {"lon": -76.99541550000001, "bike_id": "5f127b827ebbce25b053ac1d8982b8d2", "lat": 38.862595666666664, "fusion_lon": 0.0, "fusion_lat": 0.0, "type": "electric_scooter", "name": "5f127b827ebbce25b053ac1d8982b8d2", "is_disabled": 0, "rental_uris": {"ios": "https://dc.lft.to/lastmile_qr_scan", "android": "https://dc.lft.to/lastmile_qr_scan"}, "is_reserved": 0}, {"lon": -77.01635666666667, "bike_id": "6f1821f2e331c138804612e4a09eab69", "lat": 38.900623833333334, "fusion_lon": 0.0, "fusion_lat": 0.0, "type": "electric_scooter", "name": "6f1821f2e331c138804612e4a09eab69", "is_disabled": 0, "rental_uris": {"ios": "https://dc.lft.to/lastmile_qr_scan", "android": "https://dc.lft.to/lastmile_qr_scan"}, "is_reserved": 0}, {"lon": -76.9638435, "bike_id": "790c789ef741a8d4dc7bf00c88dfeecb", "lat": 38.9517775, "fusion_lon": 0.0, "fusion_lat": 0.0, "type": "electric_bike", "name": "790c789ef741a8d4dc7bf00c88dfeecb", "is_disabled": 0, "rental_uris": {"ios": "https://dc.lft.to/lastmile_qr_scan", "android": "https://dc.lft.to/lastmile_qr_scan"}, "is_reserved": 0}, {"lon": -77.02813166666667, "bike_id": "c7afe23394eaf0d58467c54d8b5fc779", "lat": 38.881764833333335, "fusion_lon": 0.0, "fusion_lat": 0.0, "type": "electric_scooter", "name": "c7afe23394eaf0d58467c54d8b5fc779", "is_disabled": 0, "rental_uris": {"ios": "https://dc.lft.to/lastmile_qr_scan", "android": "https://dc.lft.to/lastmile_qr_scan"}, "is_reserved": 0}, {"lon": -77.0481805, "bike_id": "e70f5e440b93435b97cedda8312448e6", "lat": 38.9163805, "fusion_lon": 0.0, "fusion_lat": 0.0, "type": "electric_scooter", "name": "e70f5e440b93435b97cedda8312448e6", "is_disabled": 0, "rental_uris": {"ios": "https://dc.lft.to/lastmile_qr_scan", "android": "https://dc.lft.to/lastmile_qr_scan"}, "is_reserved": 0}, {"lon": -77.02790216666666, "bike_id": "d7a2b8487a77656ca2035bfb77ec76c9", "lat": 38.954140833333334, "fusion_lon": 0.0, "fusion_lat": 0.0, "type": "electric_scooter", "name": "d7a2b8487a77656ca2035bfb77ec76c9", "is_disabled": 0, "rental_uris": {"ios": "https://dc.lft.to/lastmile_qr_scan", "android": "https://dc.lft.to/lastmile_qr_scan"}, "is_reserved": 0}, {"lon": -77.0386755, "bike_id": "fa9bc7fd21949beb99c0152781f68970", "lat": 38.914136166666665, "fusion_lon": 0.0, "fusion_lat": 0.0, "type": "electric_scooter", "name": "fa9bc7fd21949beb99c0152781f68970", "is_disabled": 0, "rental_uris": {"ios": "https://dc.lft.to/lastmile_qr_scan", "android": "https://dc.lft.to/lastmile_qr_scan"}, "is_reserved": 0}, {"lon": -76.99123816666666, "bike_id": "40efc06bcbb33d88bd74e5b4fedcbcee", "lat": 38.922711166666666, "fusion_lon": 0.0, "fusion_lat": 0.0, "type": "electric_scooter", "name": "40efc06bcbb33d88bd74e5b4fedcbcee", "is_disabled": 0, "rental_uris": {"ios": "https://dc.lft.to/lastmile_qr_scan", "android": "https://dc.lft.to/lastmile_qr_scan"}, "is_reserved": 0}, {"lon": -77.02686966666667, "bike_id": "1a1622d10e82deb6d8ba52d506ff0743", "lat": 38.98452133333333, "fusion_lon": 0.0, "fusion_lat": 0.0, "type": "electric_scooter", "name": "1a1622d10e82deb6d8ba52d506ff0743", "is_disabled": 0, "rental_uris": {"ios": "https://dc.lft.to/lastmile_qr_scan", "android": "https://dc.lft.to/lastmile_qr_scan"}, "is_reserved": 0}, {"lon": -77.01999966666666, "bike_id": "42658afb5165009b17cd8538bdea4489", "lat": 38.90449816666667, "fusion_lon": 0.0, "fusion_lat": 0.0, "type": "electric_scooter", "name": "42658afb5165009b17cd8538bdea4489", "is_disabled": 0, "rental_uris": {"ios": "https://dc.lft.to/lastmile_qr_scan", "android": "https://dc.lft.to/lastmile_qr_scan"}, "is_reserved": 0}, {"lon": -77.03427016666667, "bike_id": "2c7502e058bda3093f003562b9c4f101", "lat": 38.90285566666667, "fusion_lon": 0.0, "fusion_lat": 0.0, "type": "electric_scooter", "name": "2c7502e058bda3093f003562b9c4f101", "is_disabled": 0, "rental_uris": {"ios": "https://dc.lft.to/lastmile_qr_scan", "android": "https://dc.lft.to/lastmile_qr_scan"}, "is_reserved": 0}, {"lon": -77.02979216666667, "bike_id": "0975161fb41d77b591c174aab3971eef", "lat": 38.921969833333335, "fusion_lon": 0.0, "fusion_lat": 0.0, "type": "electric_scooter", "name": "0975161fb41d77b591c174aab3971eef", "is_disabled": 0, "rental_uris": {"ios": "https://dc.lft.to/lastmile_qr_scan", "android": "https://dc.lft.to/lastmile_qr_scan"}, "is_reserved": 0}, {"lon": -77.024407, "bike_id": "3081d07fb1431f7af570b1a2e82bdb56", "lat": 38.92495066666667, "fusion_lon": 0.0, "fusion_lat": 0.0, "type": "electric_scooter", "name": "3081d07fb1431f7af570b1a2e82bdb56", "is_disabled": 0, "rental_uris": {"ios": "https://dc.lft.to/lastmile_qr_scan", "android": "https://dc.lft.to/lastmile_qr_scan"}, "is_reserved": 0}, {"lon": -77.05730233333334, "bike_id": "217d942737566e0c3e8175b0bc102bf9", "lat": 38.93355433333333, "fusion_lon": 0.0, "fusion_lat": 0.0, "type": "electric_scooter", "name": "217d942737566e0c3e8175b0bc102bf9", "is_disabled": 0, "rental_uris": {"ios": "https://dc.lft.to/lastmile_qr_scan", "android": "https://dc.lft.to/lastmile_qr_scan"}, "is_reserved": 0}, {"lon": -77.11151016666666, "bike_id": "e74a4131431a4185116a9f8154d32618", "lat": 38.85512, "fusion_lon": 0.0, "fusion_lat": 0.0, "type": "electric_bike", "name": "e74a4131431a4185116a9f8154d32618", "is_disabled": 0, "rental_uris": {"ios": "https://dc.lft.to/lastmile_qr_scan", "android": "https://dc.lft.to/lastmile_qr_scan"}, "is_reserved": 0}, {"lon": -76.9823795, "bike_id": "404a65a545c749ccc70e0020f1249554", "lat": 38.91684883333333, "fusion_lon": 0.0, "fusion_lat": 0.0, "type": "electric_scooter", "name": "404a65a545c749ccc70e0020f1249554", "is_disabled": 0, "rental_uris": {"ios": "https://dc.lft.to/lastmile_qr_scan", "android": "https://dc.lft.to/lastmile_qr_scan"}, "is_reserved": 0}, {"lon": -77.00507933333333, "bike_id": "a02696c77a50428453365e41281f4df3", "lat": 38.8793885, "fusion_lon": 0.0, "fusion_lat": 0.0, "type": "electric_scooter", "name": "a02696c77a50428453365e41281f4df3", "is_disabled": 0, "rental_uris": {"ios": "https://dc.lft.to/lastmile_qr_scan", "android": "https://dc.lft.to/lastmile_qr_scan"}, "is_reserved": 0}, {"lon": -77.10484533333333, "bike_id": "19addf75f209d7be2889fed933d7e9e0", "lat": 38.85604983333333, "fusion_lon": 0.0, "fusion_lat": 0.0, "type": "electric_bike", "name": "19addf75f209d7be2889fed933d7e9e0", "is_disabled": 0, "rental_uris": {"ios": "https://dc.lft.to/lastmile_qr_scan", "android": "https://dc.lft.to/lastmile_qr_scan"}, "is_reserved": 0}, {"lon": -77.0369945, "bike_id": "50281c4ce3a6ae2caffb5959b732039b", "lat": 38.93277533333333, "fusion_lon": 0.0, "fusion_lat": 0.0, "type": "electric_scooter", "name": "50281c4ce3a6ae2caffb5959b732039b", "is_disabled": 0, "rental_uris": {"ios": "https://dc.lft.to/lastmile_qr_scan", "android": "https://dc.lft.to/lastmile_qr_scan"}, "is_reserved": 0}, {"lon": -77.01922733333333, "bike_id": "47e5525d1ea07c409934ef67cbd869e4", "lat": 38.9346355, "fusion_lon": 0.0, "fusion_lat": 0.0, "type": "electric_scooter", "name": "47e5525d1ea07c409934ef67cbd869e4", "is_disabled": 0, "rental_uris": {"ios": "https://dc.lft.to/lastmile_qr_scan", "android": "https://dc.lft.to/lastmile_qr_scan"}, "is_reserved": 0}, {"lon": -77.072942, "bike_id": "fe93992abc50ba293ba1c2cd1cc4cdaf", "lat": 38.92467, "fusion_lon": 0.0, "fusion_lat": 0.0, "type": "electric_scooter", "name": "fe93992abc50ba293ba1c2cd1cc4cdaf", "is_disabled": 0, "rental_uris": {"ios": "https://dc.lft.to/lastmile_qr_scan", "android": "https://dc.lft.to/lastmile_qr_scan"}, "is_reserved": 0}, {"lon": -76.9737975, "bike_id": "61a82df38c72b414f8a771da26ea840e", "lat": 38.86544516666667, "fusion_lon": 0.0, "fusion_lat": 0.0, "type": "electric_scooter", "name": "61a82df38c72b414f8a771da26ea840e", "is_disabled": 0, "rental_uris": {"ios": "https://dc.lft.to/lastmile_qr_scan", "android": "https://dc.lft.to/lastmile_qr_scan"}, "is_reserved": 0}, {"lon": -77.03364283333333, "bike_id": "be9e7aef9c5e2809391bd19845e96855", "lat": 38.9028055, "fusion_lon": 0.0, "fusion_lat": 0.0, "type": "electric_scooter", "name": "be9e7aef9c5e2809391bd19845e96855", "is_disabled": 0, "rental_uris": {"ios": "https://dc.lft.to/lastmile_qr_scan", "android": "https://dc.lft.to/lastmile_qr_scan"}, "is_reserved": 0}, {"lon": -76.9823365, "bike_id": "d87a6ff09f34ec01d2e5a7d8500eaec1", "lat": 38.88646983333334, "fusion_lon": 0.0, "fusion_lat": 0.0, "type": "electric_scooter", "name": "d87a6ff09f34ec01d2e5a7d8500eaec1", "is_disabled": 0, "rental_uris": {"ios": "https://dc.lft.to/lastmile_qr_scan", "android": "https://dc.lft.to/lastmile_qr_scan"}, "is_reserved": 0}, {"lon": -77.03449966666666, "bike_id": "5230a2a3dc61cb177d8a411638f818a2", "lat": 38.908510166666666, "fusion_lon": 0.0, "fusion_lat": 0.0, "type": "electric_scooter", "name": "5230a2a3dc61cb177d8a411638f818a2", "is_disabled": 0, "rental_uris": {"ios": "https://dc.lft.to/lastmile_qr_scan", "android": "https://dc.lft.to/lastmile_qr_scan"}, "is_reserved": 0}, {"lon": -77.03431216666667, "bike_id": "0d4393f2d3c9ccd074713eae24c14625", "lat": 38.9055445, "fusion_lon": 0.0, "fusion_lat": 0.0, "type": "electric_scooter", "name": "0d4393f2d3c9ccd074713eae24c14625", "is_disabled": 0, "rental_uris": {"ios": "https://dc.lft.to/lastmile_qr_scan", "android": "https://dc.lft.to/lastmile_qr_scan"}, "is_reserved": 0}, {"lon": -76.99963583333333, "bike_id": "ab8976b6e2d85fd68a256171b379e7b1", "lat": 38.90850233333333, "fusion_lon": 0.0, "fusion_lat": 0.0, "type": "electric_scooter", "name": "ab8976b6e2d85fd68a256171b379e7b1", "is_disabled": 0, "rental_uris": {"ios": "https://dc.lft.to/lastmile_qr_scan", "android": "https://dc.lft.to/lastmile_qr_scan"}, "is_reserved": 0}, {"lon": -77.012181, "bike_id": "432a1ef52148c6fec63a3a792b50317e", "lat": 38.87182883333333, "fusion_lon": 0.0, "fusion_lat": 0.0, "type": "electric_scooter", "name": "432a1ef52148c6fec63a3a792b50317e", "is_disabled": 0, "rental_uris": {"ios": "https://dc.lft.to/lastmile_qr_scan", "android": "https://dc.lft.to/lastmile_qr_scan"}, "is_reserved": 0}, {"lon": -77.02372333333334, "bike_id": "67ab5cccda53a310c973833f66670eea", "lat": 38.901959166666664, "fusion_lon": 0.0, "fusion_lat": 0.0, "type": "electric_scooter", "name": "67ab5cccda53a310c973833f66670eea", "is_disabled": 0, "rental_uris": {"ios": "https://dc.lft.to/lastmile_qr_scan", "android": "https://dc.lft.to/lastmile_qr_scan"}, "is_reserved": 0}, {"lon": -77.03210966666667, "bike_id": "2fb4b8cc84e385c43773a473f7fc7325", "lat": 38.91676366666667, "fusion_lon": 0.0, "fusion_lat": 0.0, "type": "electric_scooter", "name": "2fb4b8cc84e385c43773a473f7fc7325", "is_disabled": 0, "rental_uris": {"ios": "https://dc.lft.to/lastmile_qr_scan", "android": "https://dc.lft.to/lastmile_qr_scan"}, "is_reserved": 0}, {"lon": -77.02951616666667, "bike_id": "48746eee1a1045a168ec0b7cb694e364", "lat": 38.9107225, "fusion_lon": 0.0, "fusion_lat": 0.0, "type": "electric_scooter", "name": "48746eee1a1045a168ec0b7cb694e364", "is_disabled": 0, "rental_uris": {"ios": "https://dc.lft.to/lastmile_qr_scan", "android": "https://dc.lft.to/lastmile_qr_scan"}, "is_reserved": 0}, {"lon": -77.043567, "bike_id": "37ff0bb5c048204709721088de1a0d7d", "lat": 38.90238433333333, "fusion_lon": 0.0, "fusion_lat": 0.0, "type": "electric_scooter", "name": "37ff0bb5c048204709721088de1a0d7d", "is_disabled": 0, "rental_uris": {"ios": "https://dc.lft.to/lastmile_qr_scan", "android": "https://dc.lft.to/lastmile_qr_scan"}, "is_reserved": 0}, {"lon": -77.02448383333333, "bike_id": "26a9ccfe53b6b01014af263f0547ed39", "lat": 38.938114666666664, "fusion_lon": 0.0, "fusion_lat": 0.0, "type": "electric_scooter", "name": "26a9ccfe53b6b01014af263f0547ed39", "is_disabled": 0, "rental_uris": {"ios": "https://dc.lft.to/lastmile_qr_scan", "android": "https://dc.lft.to/lastmile_qr_scan"}, "is_reserved": 0}, {"lon": -77.0330905, "bike_id": "64e0dd110a3715ed6c33b9e730f73e38", "lat": 38.928725666666665, "fusion_lon": 0.0, "fusion_lat": 0.0, "type": "electric_scooter", "name": "64e0dd110a3715ed6c33b9e730f73e38", "is_disabled": 0, "rental_uris": {"ios": "https://dc.lft.to/lastmile_qr_scan", "android": "https://dc.lft.to/lastmile_qr_scan"}, "is_reserved": 0}, {"lon": -77.022875, "bike_id": "33c43f386b902430393240345c296b10", "lat": 38.91654066666667, "fusion_lon": 0.0, "fusion_lat": 0.0, "type": "electric_scooter", "name": "33c43f386b902430393240345c296b10", "is_disabled": 0, "rental_uris": {"ios": "https://dc.lft.to/lastmile_qr_scan", "android": "https://dc.lft.to/lastmile_qr_scan"}, "is_reserved": 0}, {"lon": -77.02794666666667, "bike_id": "dd93f3748fc71b01b34cd1bb53afbd3a", "lat": 38.93427333333333, "fusion_lon": 0.0, "fusion_lat": 0.0, "type": "electric_scooter", "name": "dd93f3748fc71b01b34cd1bb53afbd3a", "is_disabled": 0, "rental_uris": {"ios": "https://dc.lft.to/lastmile_qr_scan", "android": "https://dc.lft.to/lastmile_qr_scan"}, "is_reserved": 0}, {"lon": -77.16623666666666, "bike_id": "5b01bd62196b0b9936c2f27aa28b38a0", "lat": 38.888318, "fusion_lon": 0.0, "fusion_lat": 0.0, "type": "electric_bike", "name": "5b01bd62196b0b9936c2f27aa28b38a0", "is_disabled": 0, "rental_uris": {"ios": "https://dc.lft.to/lastmile_qr_scan", "android": "https://dc.lft.to/lastmile_qr_scan"}, "is_reserved": 0}, {"lon": -77.04282483333333, "bike_id": "3f733687160e8fcdec34fab665179434", "lat": 38.90859416666667, "fusion_lon": 0.0, "fusion_lat": 0.0, "type": "electric_scooter", "name": "3f733687160e8fcdec34fab665179434", "is_disabled": 0, "rental_uris": {"ios": "https://dc.lft.to/lastmile_qr_scan", "android": "https://dc.lft.to/lastmile_qr_scan"}, "is_reserved": 0}, {"lon": -77.06328383333333, "bike_id": "97a53cf3dd664a00d9f9873be56a4b2b", "lat": 38.9052605, "fusion_lon": 0.0, "fusion_lat": 0.0, "type": "electric_scooter", "name": "97a53cf3dd664a00d9f9873be56a4b2b", "is_disabled": 0, "rental_uris": {"ios": "https://dc.lft.to/lastmile_qr_scan", "android": "https://dc.lft.to/lastmile_qr_scan"}, "is_reserved": 0}, {"lon": -77.05473333333333, "bike_id": "d67b0483c9c9cce75d2b3da32ab201a0", "lat": 38.897871, "fusion_lon": 0.0, "fusion_lat": 0.0, "type": "electric_scooter", "name": "d67b0483c9c9cce75d2b3da32ab201a0", "is_disabled": 0, "rental_uris": {"ios": "https://dc.lft.to/lastmile_qr_scan", "android": "https://dc.lft.to/lastmile_qr_scan"}, "is_reserved": 0}, {"lon": -77.0236775, "bike_id": "67b2389cc1c8fdf9ce1a2e8164d5a8e8", "lat": 38.90306866666667, "fusion_lon": 0.0, "fusion_lat": 0.0, "type": "electric_scooter", "name": "67b2389cc1c8fdf9ce1a2e8164d5a8e8", "is_disabled": 0, "rental_uris": {"ios": "https://dc.lft.to/lastmile_qr_scan", "android": "https://dc.lft.to/lastmile_qr_scan"}, "is_reserved": 0}, {"lon": -77.05111133333334, "bike_id": "883020106e60618de7bf342efae79d48", "lat": 38.9229915, "fusion_lon": 0.0, "fusion_lat": 0.0, "type": "electric_scooter", "name": "883020106e60618de7bf342efae79d48", "is_disabled": 0, "rental_uris": {"ios": "https://dc.lft.to/lastmile_qr_scan", "android": "https://dc.lft.to/lastmile_qr_scan"}, "is_reserved": 0}, {"lon": -77.01507783333334, "bike_id": "a6473d5e67ea574393f7c777ea70b5a4", "lat": 38.88862866666667, "fusion_lon": 0.0, "fusion_lat": 0.0, "type": "electric_scooter", "name": "a6473d5e67ea574393f7c777ea70b5a4", "is_disabled": 0, "rental_uris": {"ios": "https://dc.lft.to/lastmile_qr_scan", "android": "https://dc.lft.to/lastmile_qr_scan"}, "is_reserved": 0}, {"lon": -77.00657416666667, "bike_id": "d3deaad9f546ace117fe4809abd8b246", "lat": 38.8807755, "fusion_lon": 0.0, "fusion_lat": 0.0, "type": "electric_scooter", "name": "d3deaad9f546ace117fe4809abd8b246", "is_disabled": 0, "rental_uris": {"ios": "https://dc.lft.to/lastmile_qr_scan", "android": "https://dc.lft.to/lastmile_qr_scan"}, "is_reserved": 0}, {"lon": -77.045995, "bike_id": "f736dfd46247d4e18298b90d69081ed6", "lat": 38.921775833333335, "fusion_lon": 0.0, "fusion_lat": 0.0, "type": "electric_scooter", "name": "f736dfd46247d4e18298b90d69081ed6", "is_disabled": 0, "rental_uris": {"ios": "https://dc.lft.to/lastmile_qr_scan", "android": "https://dc.lft.to/lastmile_qr_scan"}, "is_reserved": 0}, {"lon": -77.02612416666666, "bike_id": "6fa14de72e12d82d43032967b03850cf", "lat": 38.929875333333335, "fusion_lon": 0.0, "fusion_lat": 0.0, "type": "electric_scooter", "name": "6fa14de72e12d82d43032967b03850cf", "is_disabled": 0, "rental_uris": {"ios": "https://dc.lft.to/lastmile_qr_scan", "android": "https://dc.lft.to/lastmile_qr_scan"}, "is_reserved": 0}, {"lon": -77.02781433333334, "bike_id": "b72ff6b2795e14a156c92492d3173b17", "lat": 38.962141833333334, "fusion_lon": 0.0, "fusion_lat": 0.0, "type": "electric_scooter", "name": "b72ff6b2795e14a156c92492d3173b17", "is_disabled": 0, "rental_uris": {"ios": "https://dc.lft.to/lastmile_qr_scan", "android": "https://dc.lft.to/lastmile_qr_scan"}, "is_reserved": 0}, {"lon": -77.021835, "bike_id": "e6c4f7746a17b068ea751e60f5f9617d", "lat": 38.911275333333336, "fusion_lon": 0.0, "fusion_lat": 0.0, "type": "electric_scooter", "name": "e6c4f7746a17b068ea751e60f5f9617d", "is_disabled": 0, "rental_uris": {"ios": "https://dc.lft.to/lastmile_qr_scan", "android": "https://dc.lft.to/lastmile_qr_scan"}, "is_reserved": 0}, {"lon": -76.998496, "bike_id": "f14ffba28a1e88d5a0af7a40cc8c7186", "lat": 38.902186, "fusion_lon": 0.0, "fusion_lat": 0.0, "type": "electric_scooter", "name": "f14ffba28a1e88d5a0af7a40cc8c7186", "is_disabled": 0, "rental_uris": {"ios": "https://dc.lft.to/lastmile_qr_scan", "android": "https://dc.lft.to/lastmile_qr_scan"}, "is_reserved": 0}, {"lon": -77.034789, "bike_id": "00ef73d9e118844a198678c94f1a652a", "lat": 38.92873316666667, "fusion_lon": 0.0, "fusion_lat": 0.0, "type": "electric_scooter", "name": "00ef73d9e118844a198678c94f1a652a", "is_disabled": 0, "rental_uris": {"ios": "https://dc.lft.to/lastmile_qr_scan", "android": "https://dc.lft.to/lastmile_qr_scan"}, "is_reserved": 0}, {"lon": -77.03886283333334, "bike_id": "6ecf6727315047264a0e2d410d9cdcc7", "lat": 38.91005216666667, "fusion_lon": 0.0, "fusion_lat": 0.0, "type": "electric_scooter", "name": "6ecf6727315047264a0e2d410d9cdcc7", "is_disabled": 0, "rental_uris": {"ios": "https://dc.lft.to/lastmile_qr_scan", "android": "https://dc.lft.to/lastmile_qr_scan"}, "is_reserved": 0}, {"lon": -76.998605, "bike_id": "01914737f55be9e443ed0c8f5fcc0889", "lat": 38.900284, "fusion_lon": 0.0, "fusion_lat": 0.0, "type": "electric_scooter", "name": "01914737f55be9e443ed0c8f5fcc0889", "is_disabled": 0, "rental_uris": {"ios": "https://dc.lft.to/lastmile_qr_scan", "android": "https://dc.lft.to/lastmile_qr_scan"}, "is_reserved": 0}, {"lon": -76.95369933333333, "bike_id": "a717f4d968e46cb668a8e0affc87be51", "lat": 38.8920495, "fusion_lon": 0.0, "fusion_lat": 0.0, "type": "electric_scooter", "name": "a717f4d968e46cb668a8e0affc87be51", "is_disabled": 0, "rental_uris": {"ios": "https://dc.lft.to/lastmile_qr_scan", "android": "https://dc.lft.to/lastmile_qr_scan"}, "is_reserved": 0}, {"lon": -77.03444116666667, "bike_id": "5077c27bfd4ffe0cb536ac576173cf49", "lat": 38.90978533333333, "fusion_lon": 0.0, "fusion_lat": 0.0, "type": "electric_scooter", "name": "5077c27bfd4ffe0cb536ac576173cf49", "is_disabled": 0, "rental_uris": {"ios": "https://dc.lft.to/lastmile_qr_scan", "android": "https://dc.lft.to/lastmile_qr_scan"}, "is_reserved": 0}, {"lon": -76.96153533333333, "bike_id": "8e431e49642d975555fd8984deb08ffb", "lat": 38.883571833333335, "fusion_lon": 0.0, "fusion_lat": 0.0, "type": "electric_scooter", "name": "8e431e49642d975555fd8984deb08ffb", "is_disabled": 0, "rental_uris": {"ios": "https://dc.lft.to/lastmile_qr_scan", "android": "https://dc.lft.to/lastmile_qr_scan"}, "is_reserved": 0}, {"lon": -77.04561916666667, "bike_id": "5b0dcb5d607fb9a4f8d9355c749c4e92", "lat": 38.90369316666666, "fusion_lon": 0.0, "fusion_lat": 0.0, "type": "electric_scooter", "name": "5b0dcb5d607fb9a4f8d9355c749c4e92", "is_disabled": 0, "rental_uris": {"ios": "https://dc.lft.to/lastmile_qr_scan", "android": "https://dc.lft.to/lastmile_qr_scan"}, "is_reserved": 0}, {"lon": -77.03863766666667, "bike_id": "0d6c7427c28e9892d54af4cf68d0b0a7", "lat": 38.945039333333334, "fusion_lon": 0.0, "fusion_lat": 0.0, "type": "electric_scooter", "name": "0d6c7427c28e9892d54af4cf68d0b0a7", "is_disabled": 0, "rental_uris": {"ios": "https://dc.lft.to/lastmile_qr_scan", "android": "https://dc.lft.to/lastmile_qr_scan"}, "is_reserved": 0}, {"lon": -77.005798, "bike_id": "c905824eb1f23b8d11b346ffa023c1c7", "lat": 38.884320833333334, "fusion_lon": 0.0, "fusion_lat": 0.0, "type": "electric_scooter", "name": "c905824eb1f23b8d11b346ffa023c1c7", "is_disabled": 0, "rental_uris": {"ios": "https://dc.lft.to/lastmile_qr_scan", "android": "https://dc.lft.to/lastmile_qr_scan"}, "is_reserved": 0}, {"lon": -76.98097883333334, "bike_id": "4d7a7194c13092eb37d357716bd52e25", "lat": 38.895532333333335, "fusion_lon": 0.0, "fusion_lat": 0.0, "type": "electric_scooter", "name": "4d7a7194c13092eb37d357716bd52e25", "is_disabled": 0, "rental_uris": {"ios": "https://dc.lft.to/lastmile_qr_scan", "android": "https://dc.lft.to/lastmile_qr_scan"}, "is_reserved": 0}, {"lon": -77.014322, "bike_id": "342338ee34629a703bfcabe4a12ab1f2", "lat": 38.87746666666666, "fusion_lon": 0.0, "fusion_lat": 0.0, "type": "electric_scooter", "name": "342338ee34629a703bfcabe4a12ab1f2", "is_disabled": 0, "rental_uris": {"ios": "https://dc.lft.to/lastmile_qr_scan", "android": "https://dc.lft.to/lastmile_qr_scan"}, "is_reserved": 0}, {"lon": -77.03352916666667, "bike_id": "845a1e9fa6d34ceda182bfb44460a7e1", "lat": 38.90724, "fusion_lon": 0.0, "fusion_lat": 0.0, "type": "electric_scooter", "name": "845a1e9fa6d34ceda182bfb44460a7e1", "is_disabled": 0, "rental_uris": {"ios": "https://dc.lft.to/lastmile_qr_scan", "android": "https://dc.lft.to/lastmile_qr_scan"}, "is_reserved": 0}, {"lon": -76.954071, "bike_id": "8145d79fbb16843f23b6417c6094076c", "lat": 38.884666333333335, "fusion_lon": 0.0, "fusion_lat": 0.0, "type": "electric_scooter", "name": "8145d79fbb16843f23b6417c6094076c", "is_disabled": 0, "rental_uris": {"ios": "https://dc.lft.to/lastmile_qr_scan", "android": "https://dc.lft.to/lastmile_qr_scan"}, "is_reserved": 0}, {"lon": -77.02264733333334, "bike_id": "0bf723985a91a3e2772379cf9d4a72f5", "lat": 38.893837166666664, "fusion_lon": 0.0, "fusion_lat": 0.0, "type": "electric_scooter", "name": "0bf723985a91a3e2772379cf9d4a72f5", "is_disabled": 0, "rental_uris": {"ios": "https://dc.lft.to/lastmile_qr_scan", "android": "https://dc.lft.to/lastmile_qr_scan"}, "is_reserved": 0}, {"lon": -77.0541555, "bike_id": "6d323b7468adbd72d2ebfe4d3a249607", "lat": 38.92834233333333, "fusion_lon": 0.0, "fusion_lat": 0.0, "type": "electric_scooter", "name": "6d323b7468adbd72d2ebfe4d3a249607", "is_disabled": 0, "rental_uris": {"ios": "https://dc.lft.to/lastmile_qr_scan", "android": "https://dc.lft.to/lastmile_qr_scan"}, "is_reserved": 0}, {"lon": -77.02203033333333, "bike_id": "8eee73ad53ba4d4f796ef1a54dc78bc7", "lat": 38.91468733333333, "fusion_lon": 0.0, "fusion_lat": 0.0, "type": "electric_scooter", "name": "8eee73ad53ba4d4f796ef1a54dc78bc7", "is_disabled": 0, "rental_uris": {"ios": "https://dc.lft.to/lastmile_qr_scan", "android": "https://dc.lft.to/lastmile_qr_scan"}, "is_reserved": 0}, {"lon": -76.98712333333333, "bike_id": "6f815748fe616ea19f4743fda9763960", "lat": 38.866236666666666, "fusion_lon": 0.0, "fusion_lat": 0.0, "type": "electric_scooter", "name": "6f815748fe616ea19f4743fda9763960", "is_disabled": 0, "rental_uris": {"ios": "https://dc.lft.to/lastmile_qr_scan", "android": "https://dc.lft.to/lastmile_qr_scan"}, "is_reserved": 0}, {"lon": -76.96058966666666, "bike_id": "a87869789ca8c228803ce6f724e6bd1a", "lat": 38.8840795, "fusion_lon": 0.0, "fusion_lat": 0.0, "type": "electric_bike", "name": "a87869789ca8c228803ce6f724e6bd1a", "is_disabled": 0, "rental_uris": {"ios": "https://dc.lft.to/lastmile_qr_scan", "android": "https://dc.lft.to/lastmile_qr_scan"}, "is_reserved": 0}, {"lon": -76.98230666666667, "bike_id": "7574b82db22329378a877ab8c005cebe", "lat": 38.91678683333333, "fusion_lon": 0.0, "fusion_lat": 0.0, "type": "electric_scooter", "name": "7574b82db22329378a877ab8c005cebe", "is_disabled": 0, "rental_uris": {"ios": "https://dc.lft.to/lastmile_qr_scan", "android": "https://dc.lft.to/lastmile_qr_scan"}, "is_reserved": 0}, {"lon": -77.03394333333334, "bike_id": "5d6dce0b66847a90384c58ca34f1400e", "lat": 38.96029883333333, "fusion_lon": 0.0, "fusion_lat": 0.0, "type": "electric_bike", "name": "5d6dce0b66847a90384c58ca34f1400e", "is_disabled": 0, "rental_uris": {"ios": "https://dc.lft.to/lastmile_qr_scan", "android": "https://dc.lft.to/lastmile_qr_scan"}, "is_reserved": 0}, {"lon": -76.99778883333333, "bike_id": "349d698e7a7c8a50824255afffca8ea7", "lat": 38.84430866666667, "fusion_lon": 0.0, "fusion_lat": 0.0, "type": "electric_scooter", "name": "349d698e7a7c8a50824255afffca8ea7", "is_disabled": 0, "rental_uris": {"ios": "https://dc.lft.to/lastmile_qr_scan", "android": "https://dc.lft.to/lastmile_qr_scan"}, "is_reserved": 0}, {"lon": -77.02430183333334, "bike_id": "ceeadd8a0c071b574baaee290002db79", "lat": 38.9275745, "fusion_lon": 0.0, "fusion_lat": 0.0, "type": "electric_scooter", "name": "ceeadd8a0c071b574baaee290002db79", "is_disabled": 0, "rental_uris": {"ios": "https://dc.lft.to/lastmile_qr_scan", "android": "https://dc.lft.to/lastmile_qr_scan"}, "is_reserved": 0}, {"lon": -77.0317095, "bike_id": "5dafb79d4d1de6ae1d197b2074b246cf", "lat": 38.91908866666667, "fusion_lon": 0.0, "fusion_lat": 0.0, "type": "electric_scooter", "name": "5dafb79d4d1de6ae1d197b2074b246cf", "is_disabled": 0, "rental_uris": {"ios": "https://dc.lft.to/lastmile_qr_scan", "android": "https://dc.lft.to/lastmile_qr_scan"}, "is_reserved": 0}, {"lon": -77.02091716666666, "bike_id": "4575f747d25fa8718b4c4a903c3bbbe5", "lat": 38.91582966666667, "fusion_lon": 0.0, "fusion_lat": 0.0, "type": "electric_scooter", "name": "4575f747d25fa8718b4c4a903c3bbbe5", "is_disabled": 0, "rental_uris": {"ios": "https://dc.lft.to/lastmile_qr_scan", "android": "https://dc.lft.to/lastmile_qr_scan"}, "is_reserved": 0}, {"lon": -77.0703505, "bike_id": "32d819ea79fc0bad6d62b1523feecdb5", "lat": 38.906234, "fusion_lon": 0.0, "fusion_lat": 0.0, "type": "electric_scooter", "name": "32d819ea79fc0bad6d62b1523feecdb5", "is_disabled": 0, "rental_uris": {"ios": "https://dc.lft.to/lastmile_qr_scan", "android": "https://dc.lft.to/lastmile_qr_scan"}, "is_reserved": 0}, {"lon": -77.124875, "bike_id": "fc6e099670da218c9366d81f3fe2e80d", "lat": 38.827877, "fusion_lon": 0.0, "fusion_lat": 0.0, "type": "electric_bike", "name": "fc6e099670da218c9366d81f3fe2e80d", "is_disabled": 0, "rental_uris": {"ios": "https://dc.lft.to/lastmile_qr_scan", "android": "https://dc.lft.to/lastmile_qr_scan"}, "is_reserved": 0}, {"lon": -77.002846, "bike_id": "0921f188a13f7e9e7944075be183e0fe", "lat": 38.9570705, "fusion_lon": 0.0, "fusion_lat": 0.0, "type": "electric_bike", "name": "0921f188a13f7e9e7944075be183e0fe", "is_disabled": 0, "rental_uris": {"ios": "https://dc.lft.to/lastmile_qr_scan", "android": "https://dc.lft.to/lastmile_qr_scan"}, "is_reserved": 0}, {"lon": -77.06534166666667, "bike_id": "94016bca6424f748a2ab41e129106238", "lat": 38.94734483333333, "fusion_lon": 0.0, "fusion_lat": 0.0, "type": "electric_scooter", "name": "94016bca6424f748a2ab41e129106238", "is_disabled": 0, "rental_uris": {"ios": "https://dc.lft.to/lastmile_qr_scan", "android": "https://dc.lft.to/lastmile_qr_scan"}, "is_reserved": 0}, {"lon": -76.9848885, "bike_id": "66d18e574094d1b34c6cf7dfdb58903b", "lat": 38.898958, "fusion_lon": 0.0, "fusion_lat": 0.0, "type": "electric_scooter", "name": "66d18e574094d1b34c6cf7dfdb58903b", "is_disabled": 0, "rental_uris": {"ios": "https://dc.lft.to/lastmile_qr_scan", "android": "https://dc.lft.to/lastmile_qr_scan"}, "is_reserved": 0}, {"lon": -77.00097833333334, "bike_id": "88f2f5a6d91a14b65bfffb1615cca5fa", "lat": 38.89487166666667, "fusion_lon": 0.0, "fusion_lat": 0.0, "type": "electric_scooter", "name": "88f2f5a6d91a14b65bfffb1615cca5fa", "is_disabled": 0, "rental_uris": {"ios": "https://dc.lft.to/lastmile_qr_scan", "android": "https://dc.lft.to/lastmile_qr_scan"}, "is_reserved": 0}, {"lon": -77.03184433333334, "bike_id": "1ff299a57744b8fa417df2695f8123d2", "lat": 38.908717333333335, "fusion_lon": 0.0, "fusion_lat": 0.0, "type": "electric_scooter", "name": "1ff299a57744b8fa417df2695f8123d2", "is_disabled": 0, "rental_uris": {"ios": "https://dc.lft.to/lastmile_qr_scan", "android": "https://dc.lft.to/lastmile_qr_scan"}, "is_reserved": 0}, {"lon": -76.9657715, "bike_id": "cb091dfab73917550abd0ea6e6e748b2", "lat": 38.87146533333333, "fusion_lon": 0.0, "fusion_lat": 0.0, "type": "electric_scooter", "name": "cb091dfab73917550abd0ea6e6e748b2", "is_disabled": 0, "rental_uris": {"ios": "https://dc.lft.to/lastmile_qr_scan", "android": "https://dc.lft.to/lastmile_qr_scan"}, "is_reserved": 0}, {"lon": -77.038437, "bike_id": "6748639c0d9d1e055599397988d20fdb", "lat": 38.908081, "fusion_lon": 0.0, "fusion_lat": 0.0, "type": "electric_scooter", "name": "6748639c0d9d1e055599397988d20fdb", "is_disabled": 0, "rental_uris": {"ios": "https://dc.lft.to/lastmile_qr_scan", "android": "https://dc.lft.to/lastmile_qr_scan"}, "is_reserved": 0}, {"lon": -77.0306535, "bike_id": "3511925ca9e09c256396f23bf4adf86e", "lat": 38.92482283333333, "fusion_lon": 0.0, "fusion_lat": 0.0, "type": "electric_scooter", "name": "3511925ca9e09c256396f23bf4adf86e", "is_disabled": 0, "rental_uris": {"ios": "https://dc.lft.to/lastmile_qr_scan", "android": "https://dc.lft.to/lastmile_qr_scan"}, "is_reserved": 0}, {"lon": -77.03352533333333, "bike_id": "dc67981e12e0debae24f4d3f6862c68a", "lat": 38.89242016666667, "fusion_lon": 0.0, "fusion_lat": 0.0, "type": "electric_scooter", "name": "dc67981e12e0debae24f4d3f6862c68a", "is_disabled": 0, "rental_uris": {"ios": "https://dc.lft.to/lastmile_qr_scan", "android": "https://dc.lft.to/lastmile_qr_scan"}, "is_reserved": 0}, {"lon": -76.99192016666667, "bike_id": "30756e6c24afd7058f5ce098a9aca568", "lat": 38.882686666666665, "fusion_lon": 0.0, "fusion_lat": 0.0, "type": "electric_scooter", "name": "30756e6c24afd7058f5ce098a9aca568", "is_disabled": 0, "rental_uris": {"ios": "https://dc.lft.to/lastmile_qr_scan", "android": "https://dc.lft.to/lastmile_qr_scan"}, "is_reserved": 0}, {"lon": -77.0445865, "bike_id": "97e8a8f4059d2d6e411c39a85ca56b36", "lat": 38.90834133333333, "fusion_lon": 0.0, "fusion_lat": 0.0, "type": "electric_scooter", "name": "97e8a8f4059d2d6e411c39a85ca56b36", "is_disabled": 0, "rental_uris": {"ios": "https://dc.lft.to/lastmile_qr_scan", "android": "https://dc.lft.to/lastmile_qr_scan"}, "is_reserved": 0}, {"lon": -77.05825916666667, "bike_id": "d06d750e591e17fdbb46519257a2ef4f", "lat": 38.93536266666667, "fusion_lon": 0.0, "fusion_lat": 0.0, "type": "electric_scooter", "name": "d06d750e591e17fdbb46519257a2ef4f", "is_disabled": 0, "rental_uris": {"ios": "https://dc.lft.to/lastmile_qr_scan", "android": "https://dc.lft.to/lastmile_qr_scan"}, "is_reserved": 0}, {"lon": -77.03298116666667, "bike_id": "283d76bdfa218837e9d867634ee1e283", "lat": 38.9111385, "fusion_lon": 0.0, "fusion_lat": 0.0, "type": "electric_scooter", "name": "283d76bdfa218837e9d867634ee1e283", "is_disabled": 0, "rental_uris": {"ios": "https://dc.lft.to/lastmile_qr_scan", "android": "https://dc.lft.to/lastmile_qr_scan"}, "is_reserved": 0}, {"lon": -77.00203866666666, "bike_id": "e63810b921e5363e2db8dfe8ad70206f", "lat": 38.90020166666667, "fusion_lon": 0.0, "fusion_lat": 0.0, "type": "electric_scooter", "name": "e63810b921e5363e2db8dfe8ad70206f", "is_disabled": 0, "rental_uris": {"ios": "https://dc.lft.to/lastmile_qr_scan", "android": "https://dc.lft.to/lastmile_qr_scan"}, "is_reserved": 0}, {"lon": -77.02545966666666, "bike_id": "5bb66b4461a17691a513708b79a4abb5", "lat": 38.914175, "fusion_lon": 0.0, "fusion_lat": 0.0, "type": "electric_scooter", "name": "5bb66b4461a17691a513708b79a4abb5", "is_disabled": 0, "rental_uris": {"ios": "https://dc.lft.to/lastmile_qr_scan", "android": "https://dc.lft.to/lastmile_qr_scan"}, "is_reserved": 0}, {"lon": -76.9827165, "bike_id": "bfeaa984480acbd244b0c43a2cebac4e", "lat": 38.885283333333334, "fusion_lon": 0.0, "fusion_lat": 0.0, "type": "electric_scooter", "name": "bfeaa984480acbd244b0c43a2cebac4e", "is_disabled": 0, "rental_uris": {"ios": "https://dc.lft.to/lastmile_qr_scan", "android": "https://dc.lft.to/lastmile_qr_scan"}, "is_reserved": 0}, {"lon": -77.01120483333334, "bike_id": "eeaeb0556d583910dad3ec61b2ad9772", "lat": 38.9077265, "fusion_lon": 0.0, "fusion_lat": 0.0, "type": "electric_scooter", "name": "eeaeb0556d583910dad3ec61b2ad9772", "is_disabled": 0, "rental_uris": {"ios": "https://dc.lft.to/lastmile_qr_scan", "android": "https://dc.lft.to/lastmile_qr_scan"}, "is_reserved": 0}, {"lon": -77.0231015, "bike_id": "493b2a572fb4ed1adddc3ea45a217469", "lat": 38.898684333333335, "fusion_lon": 0.0, "fusion_lat": 0.0, "type": "electric_scooter", "name": "493b2a572fb4ed1adddc3ea45a217469", "is_disabled": 0, "rental_uris": {"ios": "https://dc.lft.to/lastmile_qr_scan", "android": "https://dc.lft.to/lastmile_qr_scan"}, "is_reserved": 0}, {"lon": -77.02194166666666, "bike_id": "009d60c98780c923fce04207edf4ea62", "lat": 38.91975466666667, "fusion_lon": 0.0, "fusion_lat": 0.0, "type": "electric_scooter", "name": "009d60c98780c923fce04207edf4ea62", "is_disabled": 0, "rental_uris": {"ios": "https://dc.lft.to/lastmile_qr_scan", "android": "https://dc.lft.to/lastmile_qr_scan"}, "is_reserved": 0}, {"lon": -77.032174, "bike_id": "8433f9299ea1ba8222d8ada75c46c5d6", "lat": 38.914036333333335, "fusion_lon": 0.0, "fusion_lat": 0.0, "type": "electric_scooter", "name": "8433f9299ea1ba8222d8ada75c46c5d6", "is_disabled": 0, "rental_uris": {"ios": "https://dc.lft.to/lastmile_qr_scan", "android": "https://dc.lft.to/lastmile_qr_scan"}, "is_reserved": 0}, {"lon": -77.00361133333334, "bike_id": "15d43b7ef806e492b81ab8daf3890160", "lat": 38.899203166666666, "fusion_lon": 0.0, "fusion_lat": 0.0, "type": "electric_scooter", "name": "15d43b7ef806e492b81ab8daf3890160", "is_disabled": 0, "rental_uris": {"ios": "https://dc.lft.to/lastmile_qr_scan", "android": "https://dc.lft.to/lastmile_qr_scan"}, "is_reserved": 0}, {"lon": -77.07286666666667, "bike_id": "ccf1e38baafc7340845c2c15c219db36", "lat": 38.89595766666667, "fusion_lon": 0.0, "fusion_lat": 0.0, "type": "electric_bike", "name": "ccf1e38baafc7340845c2c15c219db36", "is_disabled": 0, "rental_uris": {"ios": "https://dc.lft.to/lastmile_qr_scan", "android": "https://dc.lft.to/lastmile_qr_scan"}, "is_reserved": 0}, {"lon": -77.0367505, "bike_id": "96245c9c815481f0d317338b3945278d", "lat": 38.93930983333333, "fusion_lon": 0.0, "fusion_lat": 0.0, "type": "electric_scooter", "name": "96245c9c815481f0d317338b3945278d", "is_disabled": 0, "rental_uris": {"ios": "https://dc.lft.to/lastmile_qr_scan", "android": "https://dc.lft.to/lastmile_qr_scan"}, "is_reserved": 0}, {"lon": -77.03250966666667, "bike_id": "e18cdfdd7e0839553a64035a05822b2c", "lat": 38.907400333333335, "fusion_lon": 0.0, "fusion_lat": 0.0, "type": "electric_scooter", "name": "e18cdfdd7e0839553a64035a05822b2c", "is_disabled": 0, "rental_uris": {"ios": "https://dc.lft.to/lastmile_qr_scan", "android": "https://dc.lft.to/lastmile_qr_scan"}, "is_reserved": 0}, {"lon": -76.98145083333333, "bike_id": "a617a7cddb24654b62b66337ad8d2c1c", "lat": 38.90565733333333, "fusion_lon": 0.0, "fusion_lat": 0.0, "type": "electric_scooter", "name": "a617a7cddb24654b62b66337ad8d2c1c", "is_disabled": 0, "rental_uris": {"ios": "https://dc.lft.to/lastmile_qr_scan", "android": "https://dc.lft.to/lastmile_qr_scan"}, "is_reserved": 0}, {"lon": -77.03392733333334, "bike_id": "5aff7eafa8e00615bd3e449ecd40d1fd", "lat": 38.909725, "fusion_lon": 0.0, "fusion_lat": 0.0, "type": "electric_scooter", "name": "5aff7eafa8e00615bd3e449ecd40d1fd", "is_disabled": 0, "rental_uris": {"ios": "https://dc.lft.to/lastmile_qr_scan", "android": "https://dc.lft.to/lastmile_qr_scan"}, "is_reserved": 0}, {"lon": -76.98512166666667, "bike_id": "3d1240fc5a9a961ac477952330e00f4f", "lat": 38.8794755, "fusion_lon": 0.0, "fusion_lat": 0.0, "type": "electric_bike", "name": "3d1240fc5a9a961ac477952330e00f4f", "is_disabled": 0, "rental_uris": {"ios": "https://dc.lft.to/lastmile_qr_scan", "android": "https://dc.lft.to/lastmile_qr_scan"}, "is_reserved": 0}, {"lon": -77.01280016666666, "bike_id": "eeb53392126bf8a4060782ad57d90c2f", "lat": 38.91566616666667, "fusion_lon": 0.0, "fusion_lat": 0.0, "type": "electric_scooter", "name": "eeb53392126bf8a4060782ad57d90c2f", "is_disabled": 0, "rental_uris": {"ios": "https://dc.lft.to/lastmile_qr_scan", "android": "https://dc.lft.to/lastmile_qr_scan"}, "is_reserved": 0}, {"lon": -76.99778883333333, "bike_id": "2121d6c678616b2ae252e809f94f51d4", "lat": 38.8443135, "fusion_lon": 0.0, "fusion_lat": 0.0, "type": "electric_scooter", "name": "2121d6c678616b2ae252e809f94f51d4", "is_disabled": 0, "rental_uris": {"ios": "https://dc.lft.to/lastmile_qr_scan", "android": "https://dc.lft.to/lastmile_qr_scan"}, "is_reserved": 0}, {"lon": -77.03876066666666, "bike_id": "0ff88fe7b93ac8bda0e6beadabd0615a", "lat": 38.93247066666667, "fusion_lon": 0.0, "fusion_lat": 0.0, "type": "electric_scooter", "name": "0ff88fe7b93ac8bda0e6beadabd0615a", "is_disabled": 0, "rental_uris": {"ios": "https://dc.lft.to/lastmile_qr_scan", "android": "https://dc.lft.to/lastmile_qr_scan"}, "is_reserved": 0}, {"lon": -77.029302, "bike_id": "138085f4e19c5e40008a918d521150e0", "lat": 38.934655, "fusion_lon": 0.0, "fusion_lat": 0.0, "type": "electric_scooter", "name": "138085f4e19c5e40008a918d521150e0", "is_disabled": 0, "rental_uris": {"ios": "https://dc.lft.to/lastmile_qr_scan", "android": "https://dc.lft.to/lastmile_qr_scan"}, "is_reserved": 0}, {"lon": -77.05463, "bike_id": "b0cc91aad9d68a817e0c96825494d18b", "lat": 38.8555005, "fusion_lon": 0.0, "fusion_lat": 0.0, "type": "electric_bike", "name": "b0cc91aad9d68a817e0c96825494d18b", "is_disabled": 0, "rental_uris": {"ios": "https://dc.lft.to/lastmile_qr_scan", "android": "https://dc.lft.to/lastmile_qr_scan"}, "is_reserved": 0}, {"lon": -77.12977816666667, "bike_id": "417ad5eec5f435b305bf41669af1b035", "lat": 38.7998375, "fusion_lon": 0.0, "fusion_lat": 0.0, "type": "electric_bike", "name": "417ad5eec5f435b305bf41669af1b035", "is_disabled": 0, "rental_uris": {"ios": "https://dc.lft.to/lastmile_qr_scan", "android": "https://dc.lft.to/lastmile_qr_scan"}, "is_reserved": 0}, {"lon": -77.00672766666666, "bike_id": "136424212631efe09cf1f51af0ebaa4a", "lat": 38.900068833333336, "fusion_lon": 0.0, "fusion_lat": 0.0, "type": "electric_scooter", "name": "136424212631efe09cf1f51af0ebaa4a", "is_disabled": 0, "rental_uris": {"ios": "https://dc.lft.to/lastmile_qr_scan", "android": "https://dc.lft.to/lastmile_qr_scan"}, "is_reserved": 0}, {"lon": -77.03866616666667, "bike_id": "58eac598539756b5de1733669aebbb26", "lat": 38.915517666666666, "fusion_lon": 0.0, "fusion_lat": 0.0, "type": "electric_scooter", "name": "58eac598539756b5de1733669aebbb26", "is_disabled": 0, "rental_uris": {"ios": "https://dc.lft.to/lastmile_qr_scan", "android": "https://dc.lft.to/lastmile_qr_scan"}, "is_reserved": 0}, {"lon": -77.028711, "bike_id": "3489cb1926d6fb3260cd36e15a6424d9", "lat": 38.884894, "fusion_lon": 0.0, "fusion_lat": 0.0, "type": "electric_scooter", "name": "3489cb1926d6fb3260cd36e15a6424d9", "is_disabled": 0, "rental_uris": {"ios": "https://dc.lft.to/lastmile_qr_scan", "android": "https://dc.lft.to/lastmile_qr_scan"}, "is_reserved": 0}, {"lon": -77.00658566666667, "bike_id": "df21a354249a48e371931771499b44db", "lat": 38.94461533333333, "fusion_lon": 0.0, "fusion_lat": 0.0, "type": "electric_scooter", "name": "df21a354249a48e371931771499b44db", "is_disabled": 0, "rental_uris": {"ios": "https://dc.lft.to/lastmile_qr_scan", "android": "https://dc.lft.to/lastmile_qr_scan"}, "is_reserved": 0}, {"lon": -77.04336933333333, "bike_id": "f5c89761f6b0ed402ebfc5f720c57e80", "lat": 38.913311, "fusion_lon": 0.0, "fusion_lat": 0.0, "type": "electric_scooter", "name": "f5c89761f6b0ed402ebfc5f720c57e80", "is_disabled": 0, "rental_uris": {"ios": "https://dc.lft.to/lastmile_qr_scan", "android": "https://dc.lft.to/lastmile_qr_scan"}, "is_reserved": 0}, {"lon": -77.125252, "bike_id": "44886a8ae69d535e1ccd8cd6a793577c", "lat": 39.05634666666667, "fusion_lon": 0.0, "fusion_lat": 0.0, "type": "electric_bike", "name": "44886a8ae69d535e1ccd8cd6a793577c", "is_disabled": 0, "rental_uris": {"ios": "https://dc.lft.to/lastmile_qr_scan", "android": "https://dc.lft.to/lastmile_qr_scan"}, "is_reserved": 0}, {"lon": -77.03358883333334, "bike_id": "8ea388319dae3a12f190e0a664343b32", "lat": 38.886956166666664, "fusion_lon": 0.0, "fusion_lat": 0.0, "type": "electric_scooter", "name": "8ea388319dae3a12f190e0a664343b32", "is_disabled": 0, "rental_uris": {"ios": "https://dc.lft.to/lastmile_qr_scan", "android": "https://dc.lft.to/lastmile_qr_scan"}, "is_reserved": 0}, {"lon": -77.05905016666667, "bike_id": "7f661e2af5402dffc2af91423a6fa20f", "lat": 38.9035905, "fusion_lon": 0.0, "fusion_lat": 0.0, "type": "electric_scooter", "name": "7f661e2af5402dffc2af91423a6fa20f", "is_disabled": 0, "rental_uris": {"ios": "https://dc.lft.to/lastmile_qr_scan", "android": "https://dc.lft.to/lastmile_qr_scan"}, "is_reserved": 0}, {"lon": -76.992302, "bike_id": "31ae5d45a0f524c5427f52c34dcac5e7", "lat": 38.90480516666667, "fusion_lon": 0.0, "fusion_lat": 0.0, "type": "electric_scooter", "name": "31ae5d45a0f524c5427f52c34dcac5e7", "is_disabled": 0, "rental_uris": {"ios": "https://dc.lft.to/lastmile_qr_scan", "android": "https://dc.lft.to/lastmile_qr_scan"}, "is_reserved": 0}, {"lon": -77.036249, "bike_id": "9396516662dcae1d3f3cdf8546b8c9ed", "lat": 38.931583, "fusion_lon": 0.0, "fusion_lat": 0.0, "type": "electric_scooter", "name": "9396516662dcae1d3f3cdf8546b8c9ed", "is_disabled": 0, "rental_uris": {"ios": "https://dc.lft.to/lastmile_qr_scan", "android": "https://dc.lft.to/lastmile_qr_scan"}, "is_reserved": 0}, {"lon": -77.02744516666667, "bike_id": "260cd47cbbfd1c583e1e2b389eaaabc1", "lat": 38.88151516666667, "fusion_lon": 0.0, "fusion_lat": 0.0, "type": "electric_scooter", "name": "260cd47cbbfd1c583e1e2b389eaaabc1", "is_disabled": 0, "rental_uris": {"ios": "https://dc.lft.to/lastmile_qr_scan", "android": "https://dc.lft.to/lastmile_qr_scan"}, "is_reserved": 0}, {"lon": -77.00151733333334, "bike_id": "01fa0107e6615d38b508a614f2d38c07", "lat": 38.87526416666667, "fusion_lon": 0.0, "fusion_lat": 0.0, "type": "electric_scooter", "name": "01fa0107e6615d38b508a614f2d38c07", "is_disabled": 0, "rental_uris": {"ios": "https://dc.lft.to/lastmile_qr_scan", "android": "https://dc.lft.to/lastmile_qr_scan"}, "is_reserved": 0}, {"lon": -77.00312833333334, "bike_id": "94ad4164ef277ef6de749081a6a46ad5", "lat": 38.91898483333333, "fusion_lon": 0.0, "fusion_lat": 0.0, "type": "electric_scooter", "name": "94ad4164ef277ef6de749081a6a46ad5", "is_disabled": 0, "rental_uris": {"ios": "https://dc.lft.to/lastmile_qr_scan", "android": "https://dc.lft.to/lastmile_qr_scan"}, "is_reserved": 0}, {"lon": -77.0239605, "bike_id": "b1e49824b2aa26facd9dfb3358eada97", "lat": 38.91524616666667, "fusion_lon": 0.0, "fusion_lat": 0.0, "type": "electric_scooter", "name": "b1e49824b2aa26facd9dfb3358eada97", "is_disabled": 0, "rental_uris": {"ios": "https://dc.lft.to/lastmile_qr_scan", "android": "https://dc.lft.to/lastmile_qr_scan"}, "is_reserved": 0}, {"lon": -76.976266, "bike_id": "a5a277ca081b74dd16cdc0196d5d012b", "lat": 38.905736, "fusion_lon": 0.0, "fusion_lat": 0.0, "type": "electric_scooter", "name": "a5a277ca081b74dd16cdc0196d5d012b", "is_disabled": 0, "rental_uris": {"ios": "https://dc.lft.to/lastmile_qr_scan", "android": "https://dc.lft.to/lastmile_qr_scan"}, "is_reserved": 0}, {"lon": -77.028296, "bike_id": "e7447e8c46dcde9a783404cc4b60671e", "lat": 38.932295833333335, "fusion_lon": 0.0, "fusion_lat": 0.0, "type": "electric_scooter", "name": "e7447e8c46dcde9a783404cc4b60671e", "is_disabled": 0, "rental_uris": {"ios": "https://dc.lft.to/lastmile_qr_scan", "android": "https://dc.lft.to/lastmile_qr_scan"}, "is_reserved": 0}, {"lon": -77.02282866666667, "bike_id": "8769cb2a375986af87309f952229d012", "lat": 38.91653566666667, "fusion_lon": 0.0, "fusion_lat": 0.0, "type": "electric_scooter", "name": "8769cb2a375986af87309f952229d012", "is_disabled": 0, "rental_uris": {"ios": "https://dc.lft.to/lastmile_qr_scan", "android": "https://dc.lft.to/lastmile_qr_scan"}, "is_reserved": 0}, {"lon": -77.01507933333333, "bike_id": "ae615b8d2a691c2fdbf7a78e0e5a382d", "lat": 38.890400166666666, "fusion_lon": 0.0, "fusion_lat": 0.0, "type": "electric_scooter", "name": "ae615b8d2a691c2fdbf7a78e0e5a382d", "is_disabled": 0, "rental_uris": {"ios": "https://dc.lft.to/lastmile_qr_scan", "android": "https://dc.lft.to/lastmile_qr_scan"}, "is_reserved": 0}, {"lon": -77.074517, "bike_id": "3d9bdc4c92b18511729096c7e61154a4", "lat": 38.9451045, "fusion_lon": 0.0, "fusion_lat": 0.0, "type": "electric_scooter", "name": "3d9bdc4c92b18511729096c7e61154a4", "is_disabled": 0, "rental_uris": {"ios": "https://dc.lft.to/lastmile_qr_scan", "android": "https://dc.lft.to/lastmile_qr_scan"}, "is_reserved": 0}, {"lon": -77.02899, "bike_id": "7bdf9407bfb4b544a16cc6247723b8c8", "lat": 38.90364533333333, "fusion_lon": 0.0, "fusion_lat": 0.0, "type": "electric_scooter", "name": "7bdf9407bfb4b544a16cc6247723b8c8", "is_disabled": 0, "rental_uris": {"ios": "https://dc.lft.to/lastmile_qr_scan", "android": "https://dc.lft.to/lastmile_qr_scan"}, "is_reserved": 0}, {"lon": -77.02806333333334, "bike_id": "e91bbd049b76813a240a452ce8c9ea35", "lat": 38.920084333333335, "fusion_lon": 0.0, "fusion_lat": 0.0, "type": "electric_scooter", "name": "e91bbd049b76813a240a452ce8c9ea35", "is_disabled": 0, "rental_uris": {"ios": "https://dc.lft.to/lastmile_qr_scan", "android": "https://dc.lft.to/lastmile_qr_scan"}, "is_reserved": 0}, {"lon": -76.97621766666667, "bike_id": "481c2b8dfa7d5498b9ca56c18933c151", "lat": 38.903806, "fusion_lon": 0.0, "fusion_lat": 0.0, "type": "electric_scooter", "name": "481c2b8dfa7d5498b9ca56c18933c151", "is_disabled": 0, "rental_uris": {"ios": "https://dc.lft.to/lastmile_qr_scan", "android": "https://dc.lft.to/lastmile_qr_scan"}, "is_reserved": 0}, {"lon": -77.052248, "bike_id": "1c9e264ad635d0738d25aada7cdcac6f", "lat": 38.90022366666667, "fusion_lon": 0.0, "fusion_lat": 0.0, "type": "electric_scooter", "name": "1c9e264ad635d0738d25aada7cdcac6f", "is_disabled": 0, "rental_uris": {"ios": "https://dc.lft.to/lastmile_qr_scan", "android": "https://dc.lft.to/lastmile_qr_scan"}, "is_reserved": 0}, {"lon": -76.9361075, "bike_id": "b155bae86909c9d13b0f63b02fc83230", "lat": 38.89683383333333, "fusion_lon": 0.0, "fusion_lat": 0.0, "type": "electric_scooter", "name": "b155bae86909c9d13b0f63b02fc83230", "is_disabled": 0, "rental_uris": {"ios": "https://dc.lft.to/lastmile_qr_scan", "android": "https://dc.lft.to/lastmile_qr_scan"}, "is_reserved": 0}, {"lon": -76.98244616666666, "bike_id": "0ef823bd870bb75d331d9e24f294c050", "lat": 38.91699933333334, "fusion_lon": 0.0, "fusion_lat": 0.0, "type": "electric_scooter", "name": "0ef823bd870bb75d331d9e24f294c050", "is_disabled": 0, "rental_uris": {"ios": "https://dc.lft.to/lastmile_qr_scan", "android": "https://dc.lft.to/lastmile_qr_scan"}, "is_reserved": 0}, {"lon": -77.0006, "bike_id": "293e0dc7eb254f46bd5c294418e26d78", "lat": 38.92434633333333, "fusion_lon": 0.0, "fusion_lat": 0.0, "type": "electric_scooter", "name": "293e0dc7eb254f46bd5c294418e26d78", "is_disabled": 0, "rental_uris": {"ios": "https://dc.lft.to/lastmile_qr_scan", "android": "https://dc.lft.to/lastmile_qr_scan"}, "is_reserved": 0}, {"lon": -77.04268066666667, "bike_id": "83b03e6c5ee87d69a57e673b66748aeb", "lat": 38.91782833333333, "fusion_lon": 0.0, "fusion_lat": 0.0, "type": "electric_scooter", "name": "83b03e6c5ee87d69a57e673b66748aeb", "is_disabled": 0, "rental_uris": {"ios": "https://dc.lft.to/lastmile_qr_scan", "android": "https://dc.lft.to/lastmile_qr_scan"}, "is_reserved": 0}, {"lon": -77.00918116666666, "bike_id": "a8350439bbf863d57b89cb42a4499c65", "lat": 38.827864, "fusion_lon": 0.0, "fusion_lat": 0.0, "type": "electric_bike", "name": "a8350439bbf863d57b89cb42a4499c65", "is_disabled": 0, "rental_uris": {"ios": "https://dc.lft.to/lastmile_qr_scan", "android": "https://dc.lft.to/lastmile_qr_scan"}, "is_reserved": 0}, {"lon": -77.02542933333334, "bike_id": "f6a7ce78beaa08cc393937ec56f7be09", "lat": 38.9199275, "fusion_lon": 0.0, "fusion_lat": 0.0, "type": "electric_scooter", "name": "f6a7ce78beaa08cc393937ec56f7be09", "is_disabled": 0, "rental_uris": {"ios": "https://dc.lft.to/lastmile_qr_scan", "android": "https://dc.lft.to/lastmile_qr_scan"}, "is_reserved": 0}, {"lon": -76.99962416666666, "bike_id": "1655542ec4d21ea12386a51229d07b80", "lat": 38.90866666666667, "fusion_lon": 0.0, "fusion_lat": 0.0, "type": "electric_scooter", "name": "1655542ec4d21ea12386a51229d07b80", "is_disabled": 0, "rental_uris": {"ios": "https://dc.lft.to/lastmile_qr_scan", "android": "https://dc.lft.to/lastmile_qr_scan"}, "is_reserved": 0}, {"lon": -76.98665283333334, "bike_id": "0315d23d6f7d6f08212632db7674c5eb", "lat": 38.902475333333335, "fusion_lon": 0.0, "fusion_lat": 0.0, "type": "electric_scooter", "name": "0315d23d6f7d6f08212632db7674c5eb", "is_disabled": 0, "rental_uris": {"ios": "https://dc.lft.to/lastmile_qr_scan", "android": "https://dc.lft.to/lastmile_qr_scan"}, "is_reserved": 0}, {"lon": -77.029751, "bike_id": "cf9f6f89ac5d189f32e31f23f05bad83", "lat": 38.92393116666667, "fusion_lon": 0.0, "fusion_lat": 0.0, "type": "electric_scooter", "name": "cf9f6f89ac5d189f32e31f23f05bad83", "is_disabled": 0, "rental_uris": {"ios": "https://dc.lft.to/lastmile_qr_scan", "android": "https://dc.lft.to/lastmile_qr_scan"}, "is_reserved": 0}, {"lon": -77.0386205, "bike_id": "3608e831e2e53b316df62af40a3bbce5", "lat": 38.906824666666665, "fusion_lon": 0.0, "fusion_lat": 0.0, "type": "electric_scooter", "name": "3608e831e2e53b316df62af40a3bbce5", "is_disabled": 0, "rental_uris": {"ios": "https://dc.lft.to/lastmile_qr_scan", "android": "https://dc.lft.to/lastmile_qr_scan"}, "is_reserved": 0}, {"lon": -77.047235, "bike_id": "cd2276ab5e5b19eff1193e3e9c549055", "lat": 38.9223765, "fusion_lon": 0.0, "fusion_lat": 0.0, "type": "electric_scooter", "name": "cd2276ab5e5b19eff1193e3e9c549055", "is_disabled": 0, "rental_uris": {"ios": "https://dc.lft.to/lastmile_qr_scan", "android": "https://dc.lft.to/lastmile_qr_scan"}, "is_reserved": 0}, {"lon": -77.032371, "bike_id": "b016dbcf2cd49176f66b5024ad60ee51", "lat": 38.897336, "fusion_lon": 0.0, "fusion_lat": 0.0, "type": "electric_bike", "name": "b016dbcf2cd49176f66b5024ad60ee51", "is_disabled": 0, "rental_uris": {"ios": "https://dc.lft.to/lastmile_qr_scan", "android": "https://dc.lft.to/lastmile_qr_scan"}, "is_reserved": 0}, {"lon": -77.04317533333334, "bike_id": "156de0c555828aa6710a502b036dba16", "lat": 38.908742, "fusion_lon": 0.0, "fusion_lat": 0.0, "type": "electric_scooter", "name": "156de0c555828aa6710a502b036dba16", "is_disabled": 0, "rental_uris": {"ios": "https://dc.lft.to/lastmile_qr_scan", "android": "https://dc.lft.to/lastmile_qr_scan"}, "is_reserved": 0}, {"lon": -77.0316035, "bike_id": "c1e16056f89f2f4e5d0b295f2df1b891", "lat": 38.884090666666665, "fusion_lon": 0.0, "fusion_lat": 0.0, "type": "electric_scooter", "name": "c1e16056f89f2f4e5d0b295f2df1b891", "is_disabled": 0, "rental_uris": {"ios": "https://dc.lft.to/lastmile_qr_scan", "android": "https://dc.lft.to/lastmile_qr_scan"}, "is_reserved": 0}, {"lon": -76.95013833333333, "bike_id": "206dff2ec53ef6535578d1cbc8a40b92", "lat": 38.89393866666666, "fusion_lon": 0.0, "fusion_lat": 0.0, "type": "electric_scooter", "name": "206dff2ec53ef6535578d1cbc8a40b92", "is_disabled": 0, "rental_uris": {"ios": "https://dc.lft.to/lastmile_qr_scan", "android": "https://dc.lft.to/lastmile_qr_scan"}, "is_reserved": 0}, {"lon": -77.0216975, "bike_id": "710705bef64e4b903ee7f0d68d953e3b", "lat": 38.94293666666667, "fusion_lon": 0.0, "fusion_lat": 0.0, "type": "electric_scooter", "name": "710705bef64e4b903ee7f0d68d953e3b", "is_disabled": 0, "rental_uris": {"ios": "https://dc.lft.to/lastmile_qr_scan", "android": "https://dc.lft.to/lastmile_qr_scan"}, "is_reserved": 0}, {"lon": -77.01424783333333, "bike_id": "1a3ab13dd45732ccaf50ad511b2e8b4b", "lat": 38.92865233333333, "fusion_lon": 0.0, "fusion_lat": 0.0, "type": "electric_scooter", "name": "1a3ab13dd45732ccaf50ad511b2e8b4b", "is_disabled": 0, "rental_uris": {"ios": "https://dc.lft.to/lastmile_qr_scan", "android": "https://dc.lft.to/lastmile_qr_scan"}, "is_reserved": 0}, {"lon": -77.02690183333333, "bike_id": "42911f75e8c087b520ee4360e2f18de5", "lat": 38.9488755, "fusion_lon": 0.0, "fusion_lat": 0.0, "type": "electric_scooter", "name": "42911f75e8c087b520ee4360e2f18de5", "is_disabled": 0, "rental_uris": {"ios": "https://dc.lft.to/lastmile_qr_scan", "android": "https://dc.lft.to/lastmile_qr_scan"}, "is_reserved": 0}, {"lon": -77.0153705, "bike_id": "4e02fe25e3d40e67fa83d180be4b6435", "lat": 38.883183, "fusion_lon": 0.0, "fusion_lat": 0.0, "type": "electric_scooter", "name": "4e02fe25e3d40e67fa83d180be4b6435", "is_disabled": 0, "rental_uris": {"ios": "https://dc.lft.to/lastmile_qr_scan", "android": "https://dc.lft.to/lastmile_qr_scan"}, "is_reserved": 0}, {"lon": -77.06873716666666, "bike_id": "b90d4e0a5519cf2fb1dc04339bf43a07", "lat": 38.95271266666666, "fusion_lon": 0.0, "fusion_lat": 0.0, "type": "electric_scooter", "name": "b90d4e0a5519cf2fb1dc04339bf43a07", "is_disabled": 0, "rental_uris": {"ios": "https://dc.lft.to/lastmile_qr_scan", "android": "https://dc.lft.to/lastmile_qr_scan"}, "is_reserved": 0}, {"lon": -76.98537283333333, "bike_id": "c7211a8498a540c2bada986e110a15fe", "lat": 38.91019283333333, "fusion_lon": 0.0, "fusion_lat": 0.0, "type": "electric_scooter", "name": "c7211a8498a540c2bada986e110a15fe", "is_disabled": 0, "rental_uris": {"ios": "https://dc.lft.to/lastmile_qr_scan", "android": "https://dc.lft.to/lastmile_qr_scan"}, "is_reserved": 0}, {"lon": -77.02682616666667, "bike_id": "f028bd34d0ad7f795be51eefefeb438e", "lat": 38.9848855, "fusion_lon": 0.0, "fusion_lat": 0.0, "type": "electric_scooter", "name": "f028bd34d0ad7f795be51eefefeb438e", "is_disabled": 0, "rental_uris": {"ios": "https://dc.lft.to/lastmile_qr_scan", "android": "https://dc.lft.to/lastmile_qr_scan"}, "is_reserved": 0}, {"lon": -77.01481466666667, "bike_id": "f56800e0778a03816e525bd9bd6d0f8b", "lat": 38.9268575, "fusion_lon": 0.0, "fusion_lat": 0.0, "type": "electric_scooter", "name": "f56800e0778a03816e525bd9bd6d0f8b", "is_disabled": 0, "rental_uris": {"ios": "https://dc.lft.to/lastmile_qr_scan", "android": "https://dc.lft.to/lastmile_qr_scan"}, "is_reserved": 0}, {"lon": -76.98756716666666, "bike_id": "be14d3120a048a6f3b86505e290a3c7d", "lat": 38.90380416666667, "fusion_lon": 0.0, "fusion_lat": 0.0, "type": "electric_scooter", "name": "be14d3120a048a6f3b86505e290a3c7d", "is_disabled": 0, "rental_uris": {"ios": "https://dc.lft.to/lastmile_qr_scan", "android": "https://dc.lft.to/lastmile_qr_scan"}, "is_reserved": 0}, {"lon": -77.04325116666666, "bike_id": "3f0d4397d786fab3315dc6a8111840b6", "lat": 38.91877066666667, "fusion_lon": 0.0, "fusion_lat": 0.0, "type": "electric_scooter", "name": "3f0d4397d786fab3315dc6a8111840b6", "is_disabled": 0, "rental_uris": {"ios": "https://dc.lft.to/lastmile_qr_scan", "android": "https://dc.lft.to/lastmile_qr_scan"}, "is_reserved": 0}, {"lon": -77.0215825, "bike_id": "e08abed998d2f8db19e6605ed151557e", "lat": 38.926029166666666, "fusion_lon": 0.0, "fusion_lat": 0.0, "type": "electric_scooter", "name": "e08abed998d2f8db19e6605ed151557e", "is_disabled": 0, "rental_uris": {"ios": "https://dc.lft.to/lastmile_qr_scan", "android": "https://dc.lft.to/lastmile_qr_scan"}, "is_reserved": 0}, {"lon": -77.00136616666667, "bike_id": "a12a29856256fa27f3ec43a0891f526a", "lat": 38.84279016666667, "fusion_lon": 0.0, "fusion_lat": 0.0, "type": "electric_scooter", "name": "a12a29856256fa27f3ec43a0891f526a", "is_disabled": 0, "rental_uris": {"ios": "https://dc.lft.to/lastmile_qr_scan", "android": "https://dc.lft.to/lastmile_qr_scan"}, "is_reserved": 0}, {"lon": -77.04495783333333, "bike_id": "773ecdb3b65a934fa836e1c853475e5e", "lat": 38.90725366666667, "fusion_lon": 0.0, "fusion_lat": 0.0, "type": "electric_scooter", "name": "773ecdb3b65a934fa836e1c853475e5e", "is_disabled": 0, "rental_uris": {"ios": "https://dc.lft.to/lastmile_qr_scan", "android": "https://dc.lft.to/lastmile_qr_scan"}, "is_reserved": 0}, {"lon": -77.03662466666667, "bike_id": "107a28f9deed48ad80a4ac79a59bc32c", "lat": 38.9210165, "fusion_lon": 0.0, "fusion_lat": 0.0, "type": "electric_scooter", "name": "107a28f9deed48ad80a4ac79a59bc32c", "is_disabled": 0, "rental_uris": {"ios": "https://dc.lft.to/lastmile_qr_scan", "android": "https://dc.lft.to/lastmile_qr_scan"}, "is_reserved": 0}, {"lon": -76.931779, "bike_id": "8131f0fbd333b19da802c431b7a2d8ae", "lat": 38.898812, "fusion_lon": 0.0, "fusion_lat": 0.0, "type": "electric_scooter", "name": "8131f0fbd333b19da802c431b7a2d8ae", "is_disabled": 0, "rental_uris": {"ios": "https://dc.lft.to/lastmile_qr_scan", "android": "https://dc.lft.to/lastmile_qr_scan"}, "is_reserved": 0}, {"lon": -77.03268216666666, "bike_id": "a9b9179993f21b681e41864cc89440c0", "lat": 38.93443416666667, "fusion_lon": 0.0, "fusion_lat": 0.0, "type": "electric_scooter", "name": "a9b9179993f21b681e41864cc89440c0", "is_disabled": 0, "rental_uris": {"ios": "https://dc.lft.to/lastmile_qr_scan", "android": "https://dc.lft.to/lastmile_qr_scan"}, "is_reserved": 0}, {"lon": -77.002667, "bike_id": "8a0a7ff54df676770d59ee26c4e8842e", "lat": 38.911611, "fusion_lon": 0.0, "fusion_lat": 0.0, "type": "electric_bike", "name": "8a0a7ff54df676770d59ee26c4e8842e", "is_disabled": 0, "rental_uris": {"ios": "https://dc.lft.to/lastmile_qr_scan", "android": "https://dc.lft.to/lastmile_qr_scan"}, "is_reserved": 0}, {"lon": -77.04463066666666, "bike_id": "63843c5d0a78e6ba5960d0c049393c43", "lat": 38.9006005, "fusion_lon": 0.0, "fusion_lat": 0.0, "type": "electric_scooter", "name": "63843c5d0a78e6ba5960d0c049393c43", "is_disabled": 0, "rental_uris": {"ios": "https://dc.lft.to/lastmile_qr_scan", "android": "https://dc.lft.to/lastmile_qr_scan"}, "is_reserved": 0}, {"lon": -76.97479683333333, "bike_id": "b46b20c8f84e67aee4ff5b77af7082f0", "lat": 38.903533, "fusion_lon": 0.0, "fusion_lat": 0.0, "type": "electric_scooter", "name": "b46b20c8f84e67aee4ff5b77af7082f0", "is_disabled": 0, "rental_uris": {"ios": "https://dc.lft.to/lastmile_qr_scan", "android": "https://dc.lft.to/lastmile_qr_scan"}, "is_reserved": 0}, {"lon": -77.029612, "bike_id": "1033d14ebd47223a8016b732694052d1", "lat": 38.91183083333333, "fusion_lon": 0.0, "fusion_lat": 0.0, "type": "electric_scooter", "name": "1033d14ebd47223a8016b732694052d1", "is_disabled": 0, "rental_uris": {"ios": "https://dc.lft.to/lastmile_qr_scan", "android": "https://dc.lft.to/lastmile_qr_scan"}, "is_reserved": 0}, {"lon": -77.02374616666667, "bike_id": "6bdacec2d0e8092f6e1ab72a43f7225f", "lat": 38.93375866666667, "fusion_lon": 0.0, "fusion_lat": 0.0, "type": "electric_scooter", "name": "6bdacec2d0e8092f6e1ab72a43f7225f", "is_disabled": 0, "rental_uris": {"ios": "https://dc.lft.to/lastmile_qr_scan", "android": "https://dc.lft.to/lastmile_qr_scan"}, "is_reserved": 0}, {"lon": -77.041794, "bike_id": "fbe38a0438b30f7404317b0fd718b41a", "lat": 38.906621666666666, "fusion_lon": 0.0, "fusion_lat": 0.0, "type": "electric_scooter", "name": "fbe38a0438b30f7404317b0fd718b41a", "is_disabled": 0, "rental_uris": {"ios": "https://dc.lft.to/lastmile_qr_scan", "android": "https://dc.lft.to/lastmile_qr_scan"}, "is_reserved": 0}, {"lon": -76.99017783333333, "bike_id": "1eecf1f154b44a7d658077b64ef25546", "lat": 38.866440833333336, "fusion_lon": 0.0, "fusion_lat": 0.0, "type": "electric_scooter", "name": "1eecf1f154b44a7d658077b64ef25546", "is_disabled": 0, "rental_uris": {"ios": "https://dc.lft.to/lastmile_qr_scan", "android": "https://dc.lft.to/lastmile_qr_scan"}, "is_reserved": 0}, {"lon": -77.00687566666667, "bike_id": "7ed118a850e5aa2a77db7926861fc060", "lat": 38.900108, "fusion_lon": 0.0, "fusion_lat": 0.0, "type": "electric_scooter", "name": "7ed118a850e5aa2a77db7926861fc060", "is_disabled": 0, "rental_uris": {"ios": "https://dc.lft.to/lastmile_qr_scan", "android": "https://dc.lft.to/lastmile_qr_scan"}, "is_reserved": 0}, {"lon": -77.02855666666666, "bike_id": "b0ee9d6738cff48e65d9cbb7228e7ecc", "lat": 38.9563335, "fusion_lon": 0.0, "fusion_lat": 0.0, "type": "electric_scooter", "name": "b0ee9d6738cff48e65d9cbb7228e7ecc", "is_disabled": 0, "rental_uris": {"ios": "https://dc.lft.to/lastmile_qr_scan", "android": "https://dc.lft.to/lastmile_qr_scan"}, "is_reserved": 0}, {"lon": -77.06387633333334, "bike_id": "4b01a1951a5720ff1bae668c7b8a5dfc", "lat": 38.902899, "fusion_lon": 0.0, "fusion_lat": 0.0, "type": "electric_scooter", "name": "4b01a1951a5720ff1bae668c7b8a5dfc", "is_disabled": 0, "rental_uris": {"ios": "https://dc.lft.to/lastmile_qr_scan", "android": "https://dc.lft.to/lastmile_qr_scan"}, "is_reserved": 0}, {"lon": -77.020929, "bike_id": "a3fbdac72af4c0c8765f5e7a7b18ca54", "lat": 38.927189, "fusion_lon": 0.0, "fusion_lat": 0.0, "type": "electric_scooter", "name": "a3fbdac72af4c0c8765f5e7a7b18ca54", "is_disabled": 0, "rental_uris": {"ios": "https://dc.lft.to/lastmile_qr_scan", "android": "https://dc.lft.to/lastmile_qr_scan"}, "is_reserved": 0}, {"lon": -77.0321115, "bike_id": "5c5a586c5844c3c97ea3415cb38bb2fb", "lat": 38.91248816666667, "fusion_lon": 0.0, "fusion_lat": 0.0, "type": "electric_scooter", "name": "5c5a586c5844c3c97ea3415cb38bb2fb", "is_disabled": 0, "rental_uris": {"ios": "https://dc.lft.to/lastmile_qr_scan", "android": "https://dc.lft.to/lastmile_qr_scan"}, "is_reserved": 0}, {"lon": -77.02458783333333, "bike_id": "8f314646dc711bff2d00e69bcd60ef19", "lat": 38.93875933333333, "fusion_lon": 0.0, "fusion_lat": 0.0, "type": "electric_scooter", "name": "8f314646dc711bff2d00e69bcd60ef19", "is_disabled": 0, "rental_uris": {"ios": "https://dc.lft.to/lastmile_qr_scan", "android": "https://dc.lft.to/lastmile_qr_scan"}, "is_reserved": 0}, {"lon": -77.08070316666667, "bike_id": "b382e63265e5994408d8e56e875ab7bb", "lat": 39.05281566666667, "fusion_lon": 0.0, "fusion_lat": 0.0, "type": "electric_bike", "name": "b382e63265e5994408d8e56e875ab7bb", "is_disabled": 0, "rental_uris": {"ios": "https://dc.lft.to/lastmile_qr_scan", "android": "https://dc.lft.to/lastmile_qr_scan"}, "is_reserved": 0}, {"lon": -77.0280235, "bike_id": "3d2134c1cb67d64d16bf0d09209a6522", "lat": 38.931411833333335, "fusion_lon": 0.0, "fusion_lat": 0.0, "type": "electric_scooter", "name": "3d2134c1cb67d64d16bf0d09209a6522", "is_disabled": 0, "rental_uris": {"ios": "https://dc.lft.to/lastmile_qr_scan", "android": "https://dc.lft.to/lastmile_qr_scan"}, "is_reserved": 0}, {"lon": -77.01195416666667, "bike_id": "94e503438d629b14dd896b2841bf6d90", "lat": 38.90867516666667, "fusion_lon": 0.0, "fusion_lat": 0.0, "type": "electric_scooter", "name": "94e503438d629b14dd896b2841bf6d90", "is_disabled": 0, "rental_uris": {"ios": "https://dc.lft.to/lastmile_qr_scan", "android": "https://dc.lft.to/lastmile_qr_scan"}, "is_reserved": 0}, {"lon": -76.9908235, "bike_id": "7c1a0c2be1ef318428f1f76096d1d19d", "lat": 38.862350666666664, "fusion_lon": 0.0, "fusion_lat": 0.0, "type": "electric_bike", "name": "7c1a0c2be1ef318428f1f76096d1d19d", "is_disabled": 0, "rental_uris": {"ios": "https://dc.lft.to/lastmile_qr_scan", "android": "https://dc.lft.to/lastmile_qr_scan"}, "is_reserved": 0}, {"lon": -77.0204355, "bike_id": "43cb93bc00d51983c7daa83218bcbab1", "lat": 38.897499, "fusion_lon": 0.0, "fusion_lat": 0.0, "type": "electric_scooter", "name": "43cb93bc00d51983c7daa83218bcbab1", "is_disabled": 0, "rental_uris": {"ios": "https://dc.lft.to/lastmile_qr_scan", "android": "https://dc.lft.to/lastmile_qr_scan"}, "is_reserved": 0}, {"lon": -77.0414255, "bike_id": "5cf60d4a2533eee288e1a82fe71ec161", "lat": 38.90627, "fusion_lon": 0.0, "fusion_lat": 0.0, "type": "electric_bike", "name": "5cf60d4a2533eee288e1a82fe71ec161", "is_disabled": 0, "rental_uris": {"ios": "https://dc.lft.to/lastmile_qr_scan", "android": "https://dc.lft.to/lastmile_qr_scan"}, "is_reserved": 0}, {"lon": -76.98831783333333, "bike_id": "3d86db28bc944e23a828182835977b37", "lat": 38.90043933333333, "fusion_lon": 0.0, "fusion_lat": 0.0, "type": "electric_scooter", "name": "3d86db28bc944e23a828182835977b37", "is_disabled": 0, "rental_uris": {"ios": "https://dc.lft.to/lastmile_qr_scan", "android": "https://dc.lft.to/lastmile_qr_scan"}, "is_reserved": 0}, {"lon": -77.04496516666667, "bike_id": "0a6478f7d979a339ab991873907db5e3", "lat": 38.900042666666664, "fusion_lon": 0.0, "fusion_lat": 0.0, "type": "electric_scooter", "name": "0a6478f7d979a339ab991873907db5e3", "is_disabled": 0, "rental_uris": {"ios": "https://dc.lft.to/lastmile_qr_scan", "android": "https://dc.lft.to/lastmile_qr_scan"}, "is_reserved": 0}, {"lon": -77.03466283333333, "bike_id": "29b6107d29c8f628e7b70f14ebd44d80", "lat": 38.907384666666665, "fusion_lon": 0.0, "fusion_lat": 0.0, "type": "electric_scooter", "name": "29b6107d29c8f628e7b70f14ebd44d80", "is_disabled": 0, "rental_uris": {"ios": "https://dc.lft.to/lastmile_qr_scan", "android": "https://dc.lft.to/lastmile_qr_scan"}, "is_reserved": 0}, {"lon": -77.13098883333333, "bike_id": "c7bf22727f2a7ae00f598b49c18217cc", "lat": 39.02438633333333, "fusion_lon": 0.0, "fusion_lat": 0.0, "type": "electric_bike", "name": "c7bf22727f2a7ae00f598b49c18217cc", "is_disabled": 0, "rental_uris": {"ios": "https://dc.lft.to/lastmile_qr_scan", "android": "https://dc.lft.to/lastmile_qr_scan"}, "is_reserved": 0}, {"lon": -77.0034785, "bike_id": "007d9e21bc60a123224a555e61d42536", "lat": 38.887169166666666, "fusion_lon": 0.0, "fusion_lat": 0.0, "type": "electric_scooter", "name": "007d9e21bc60a123224a555e61d42536", "is_disabled": 0, "rental_uris": {"ios": "https://dc.lft.to/lastmile_qr_scan", "android": "https://dc.lft.to/lastmile_qr_scan"}, "is_reserved": 0}, {"lon": -77.035391, "bike_id": "e421a9b5c93588207612292d1794aeeb", "lat": 38.924095, "fusion_lon": 0.0, "fusion_lat": 0.0, "type": "electric_scooter", "name": "e421a9b5c93588207612292d1794aeeb", "is_disabled": 0, "rental_uris": {"ios": "https://dc.lft.to/lastmile_qr_scan", "android": "https://dc.lft.to/lastmile_qr_scan"}, "is_reserved": 0}, {"lon": -77.02944716666667, "bike_id": "36a3e6dd92ad40766a244e3c6ae27385", "lat": 38.92059033333334, "fusion_lon": 0.0, "fusion_lat": 0.0, "type": "electric_scooter", "name": "36a3e6dd92ad40766a244e3c6ae27385", "is_disabled": 0, "rental_uris": {"ios": "https://dc.lft.to/lastmile_qr_scan", "android": "https://dc.lft.to/lastmile_qr_scan"}, "is_reserved": 0}, {"lon": -77.01116666666667, "bike_id": "a76ab43e6caa742919907b42a7ed62a1", "lat": 38.88549866666666, "fusion_lon": 0.0, "fusion_lat": 0.0, "type": "electric_scooter", "name": "a76ab43e6caa742919907b42a7ed62a1", "is_disabled": 0, "rental_uris": {"ios": "https://dc.lft.to/lastmile_qr_scan", "android": "https://dc.lft.to/lastmile_qr_scan"}, "is_reserved": 0}, {"lon": -77.036497, "bike_id": "34b0f10ab2d92cd34695558b888412a0", "lat": 38.90696116666667, "fusion_lon": 0.0, "fusion_lat": 0.0, "type": "electric_bike", "name": "34b0f10ab2d92cd34695558b888412a0", "is_disabled": 0, "rental_uris": {"ios": "https://dc.lft.to/lastmile_qr_scan", "android": "https://dc.lft.to/lastmile_qr_scan"}, "is_reserved": 0}, {"lon": -77.05625666666667, "bike_id": "91f6b9e4fcbd858c3f00198c4ca2dd93", "lat": 38.960758166666665, "fusion_lon": 0.0, "fusion_lat": 0.0, "type": "electric_scooter", "name": "91f6b9e4fcbd858c3f00198c4ca2dd93", "is_disabled": 0, "rental_uris": {"ios": "https://dc.lft.to/lastmile_qr_scan", "android": "https://dc.lft.to/lastmile_qr_scan"}, "is_reserved": 0}, {"lon": -76.98235066666666, "bike_id": "a0eae4ebfb33f88a33cd66bb10606561", "lat": 38.864742, "fusion_lon": 0.0, "fusion_lat": 0.0, "type": "electric_scooter", "name": "a0eae4ebfb33f88a33cd66bb10606561", "is_disabled": 0, "rental_uris": {"ios": "https://dc.lft.to/lastmile_qr_scan", "android": "https://dc.lft.to/lastmile_qr_scan"}, "is_reserved": 0}, {"lon": -76.9396555, "bike_id": "d6eefc856a46b7d2b175c4597f4cf224", "lat": 38.898359, "fusion_lon": 0.0, "fusion_lat": 0.0, "type": "electric_scooter", "name": "d6eefc856a46b7d2b175c4597f4cf224", "is_disabled": 0, "rental_uris": {"ios": "https://dc.lft.to/lastmile_qr_scan", "android": "https://dc.lft.to/lastmile_qr_scan"}, "is_reserved": 0}, {"lon": -77.04901083333333, "bike_id": "ac79d9f43029821a9b5b7464abf51b85", "lat": 38.91597866666667, "fusion_lon": 0.0, "fusion_lat": 0.0, "type": "electric_scooter", "name": "ac79d9f43029821a9b5b7464abf51b85", "is_disabled": 0, "rental_uris": {"ios": "https://dc.lft.to/lastmile_qr_scan", "android": "https://dc.lft.to/lastmile_qr_scan"}, "is_reserved": 0}, {"lon": -77.0258295, "bike_id": "893efed7fc1abac46b994de3f346d336", "lat": 38.914008, "fusion_lon": 0.0, "fusion_lat": 0.0, "type": "electric_scooter", "name": "893efed7fc1abac46b994de3f346d336", "is_disabled": 0, "rental_uris": {"ios": "https://dc.lft.to/lastmile_qr_scan", "android": "https://dc.lft.to/lastmile_qr_scan"}, "is_reserved": 0}, {"lon": -77.05306416666667, "bike_id": "39893f62b7387db44bfda2c55cd48534", "lat": 38.90077733333333, "fusion_lon": 0.0, "fusion_lat": 0.0, "type": "electric_scooter", "name": "39893f62b7387db44bfda2c55cd48534", "is_disabled": 0, "rental_uris": {"ios": "https://dc.lft.to/lastmile_qr_scan", "android": "https://dc.lft.to/lastmile_qr_scan"}, "is_reserved": 0}, {"lon": -77.0471635, "bike_id": "a5df7a9d7a1e6d87cdd0d2ad5ece2bac", "lat": 38.922275166666665, "fusion_lon": 0.0, "fusion_lat": 0.0, "type": "electric_scooter", "name": "a5df7a9d7a1e6d87cdd0d2ad5ece2bac", "is_disabled": 0, "rental_uris": {"ios": "https://dc.lft.to/lastmile_qr_scan", "android": "https://dc.lft.to/lastmile_qr_scan"}, "is_reserved": 0}, {"lon": -76.995392, "bike_id": "49ac0667b7c46dacda8136046f577510", "lat": 38.86202816666667, "fusion_lon": 0.0, "fusion_lat": 0.0, "type": "electric_scooter", "name": "49ac0667b7c46dacda8136046f577510", "is_disabled": 0, "rental_uris": {"ios": "https://dc.lft.to/lastmile_qr_scan", "android": "https://dc.lft.to/lastmile_qr_scan"}, "is_reserved": 0}, {"lon": -77.13937183333333, "bike_id": "3dad71b9bc5833f269a1701ca4606333", "lat": 38.872902833333335, "fusion_lon": 0.0, "fusion_lat": 0.0, "type": "electric_bike", "name": "3dad71b9bc5833f269a1701ca4606333", "is_disabled": 0, "rental_uris": {"ios": "https://dc.lft.to/lastmile_qr_scan", "android": "https://dc.lft.to/lastmile_qr_scan"}, "is_reserved": 0}, {"lon": -77.0343005, "bike_id": "a7a7d2b07ccf7d9dca1a00e56bd1403c", "lat": 38.96541333333333, "fusion_lon": 0.0, "fusion_lat": 0.0, "type": "electric_bike", "name": "a7a7d2b07ccf7d9dca1a00e56bd1403c", "is_disabled": 0, "rental_uris": {"ios": "https://dc.lft.to/lastmile_qr_scan", "android": "https://dc.lft.to/lastmile_qr_scan"}, "is_reserved": 0}, {"lon": -77.03049066666667, "bike_id": "4f95d1f5fe70d74230263a4d5e7628f0", "lat": 38.92670366666667, "fusion_lon": 0.0, "fusion_lat": 0.0, "type": "electric_scooter", "name": "4f95d1f5fe70d74230263a4d5e7628f0", "is_disabled": 0, "rental_uris": {"ios": "https://dc.lft.to/lastmile_qr_scan", "android": "https://dc.lft.to/lastmile_qr_scan"}, "is_reserved": 0}, {"lon": -77.05568483333333, "bike_id": "88f06504fd78714961c51e272329ceb1", "lat": 38.897297, "fusion_lon": 0.0, "fusion_lat": 0.0, "type": "electric_scooter", "name": "88f06504fd78714961c51e272329ceb1", "is_disabled": 0, "rental_uris": {"ios": "https://dc.lft.to/lastmile_qr_scan", "android": "https://dc.lft.to/lastmile_qr_scan"}, "is_reserved": 0}, {"lon": -76.99029483333334, "bike_id": "d96a1649a7b7f2ac318b001a337a2a44", "lat": 38.89602683333333, "fusion_lon": 0.0, "fusion_lat": 0.0, "type": "electric_scooter", "name": "d96a1649a7b7f2ac318b001a337a2a44", "is_disabled": 0, "rental_uris": {"ios": "https://dc.lft.to/lastmile_qr_scan", "android": "https://dc.lft.to/lastmile_qr_scan"}, "is_reserved": 0}, {"lon": -77.0177425, "bike_id": "2bd804762522547a47d3a64d26fbdd06", "lat": 38.9003625, "fusion_lon": 0.0, "fusion_lat": 0.0, "type": "electric_scooter", "name": "2bd804762522547a47d3a64d26fbdd06", "is_disabled": 0, "rental_uris": {"ios": "https://dc.lft.to/lastmile_qr_scan", "android": "https://dc.lft.to/lastmile_qr_scan"}, "is_reserved": 0}, {"lon": -76.98112516666667, "bike_id": "b11ee6b519ffee67f3514d6329d3cf92", "lat": 38.91582116666667, "fusion_lon": 0.0, "fusion_lat": 0.0, "type": "electric_scooter", "name": "b11ee6b519ffee67f3514d6329d3cf92", "is_disabled": 0, "rental_uris": {"ios": "https://dc.lft.to/lastmile_qr_scan", "android": "https://dc.lft.to/lastmile_qr_scan"}, "is_reserved": 0}, {"lon": -77.02373116666666, "bike_id": "dddcefd7a4570e1689ac948e0fe0e3ce", "lat": 38.8922335, "fusion_lon": 0.0, "fusion_lat": 0.0, "type": "electric_scooter", "name": "dddcefd7a4570e1689ac948e0fe0e3ce", "is_disabled": 0, "rental_uris": {"ios": "https://dc.lft.to/lastmile_qr_scan", "android": "https://dc.lft.to/lastmile_qr_scan"}, "is_reserved": 0}, {"lon": -77.016165, "bike_id": "cd49e5eace87247d1a64821fbea92409", "lat": 38.89947683333333, "fusion_lon": 0.0, "fusion_lat": 0.0, "type": "electric_scooter", "name": "cd49e5eace87247d1a64821fbea92409", "is_disabled": 0, "rental_uris": {"ios": "https://dc.lft.to/lastmile_qr_scan", "android": "https://dc.lft.to/lastmile_qr_scan"}, "is_reserved": 0}, {"lon": -77.02287333333334, "bike_id": "ec40d1ac72985ce5b40b72c7049fd446", "lat": 38.926810833333334, "fusion_lon": 0.0, "fusion_lat": 0.0, "type": "electric_scooter", "name": "ec40d1ac72985ce5b40b72c7049fd446", "is_disabled": 0, "rental_uris": {"ios": "https://dc.lft.to/lastmile_qr_scan", "android": "https://dc.lft.to/lastmile_qr_scan"}, "is_reserved": 0}, {"lon": -76.99172566666667, "bike_id": "04e6b83c4e106bd2489d501137528fcf", "lat": 38.889873, "fusion_lon": 0.0, "fusion_lat": 0.0, "type": "electric_scooter", "name": "04e6b83c4e106bd2489d501137528fcf", "is_disabled": 0, "rental_uris": {"ios": "https://dc.lft.to/lastmile_qr_scan", "android": "https://dc.lft.to/lastmile_qr_scan"}, "is_reserved": 0}, {"lon": -77.00971183333333, "bike_id": "9341d94fd3af26241eb016051c8b4dba", "lat": 38.911843, "fusion_lon": 0.0, "fusion_lat": 0.0, "type": "electric_scooter", "name": "9341d94fd3af26241eb016051c8b4dba", "is_disabled": 0, "rental_uris": {"ios": "https://dc.lft.to/lastmile_qr_scan", "android": "https://dc.lft.to/lastmile_qr_scan"}, "is_reserved": 0}, {"lon": -77.05056516666667, "bike_id": "710a2f2fb56cbfac095c91405cf1578b", "lat": 38.92389983333333, "fusion_lon": 0.0, "fusion_lat": 0.0, "type": "electric_scooter", "name": "710a2f2fb56cbfac095c91405cf1578b", "is_disabled": 0, "rental_uris": {"ios": "https://dc.lft.to/lastmile_qr_scan", "android": "https://dc.lft.to/lastmile_qr_scan"}, "is_reserved": 0}, {"lon": -77.02866066666667, "bike_id": "8e4195fea248622ab1ba2ba0979fd745", "lat": 38.88743616666667, "fusion_lon": 0.0, "fusion_lat": 0.0, "type": "electric_scooter", "name": "8e4195fea248622ab1ba2ba0979fd745", "is_disabled": 0, "rental_uris": {"ios": "https://dc.lft.to/lastmile_qr_scan", "android": "https://dc.lft.to/lastmile_qr_scan"}, "is_reserved": 0}, {"lon": -77.0398235, "bike_id": "860d53ade51c5e512f75134020e3b182", "lat": 38.9133585, "fusion_lon": 0.0, "fusion_lat": 0.0, "type": "electric_scooter", "name": "860d53ade51c5e512f75134020e3b182", "is_disabled": 0, "rental_uris": {"ios": "https://dc.lft.to/lastmile_qr_scan", "android": "https://dc.lft.to/lastmile_qr_scan"}, "is_reserved": 0}, {"lon": -77.0198615, "bike_id": "ab2abcb0edb82148846d5289fa9a50fb", "lat": 38.9151745, "fusion_lon": 0.0, "fusion_lat": 0.0, "type": "electric_scooter", "name": "ab2abcb0edb82148846d5289fa9a50fb", "is_disabled": 0, "rental_uris": {"ios": "https://dc.lft.to/lastmile_qr_scan", "android": "https://dc.lft.to/lastmile_qr_scan"}, "is_reserved": 0}, {"lon": -77.02696683333333, "bike_id": "a6cc65f99bd159fc9e68256b3b0e8e52", "lat": 38.9163945, "fusion_lon": 0.0, "fusion_lat": 0.0, "type": "electric_scooter", "name": "a6cc65f99bd159fc9e68256b3b0e8e52", "is_disabled": 0, "rental_uris": {"ios": "https://dc.lft.to/lastmile_qr_scan", "android": "https://dc.lft.to/lastmile_qr_scan"}, "is_reserved": 0}, {"lon": -77.360806, "bike_id": "8dbe485359e71acb9415d8bc00b0b5db", "lat": 38.93956216666667, "fusion_lon": 0.0, "fusion_lat": 0.0, "type": "electric_bike", "name": "8dbe485359e71acb9415d8bc00b0b5db", "is_disabled": 0, "rental_uris": {"ios": "https://dc.lft.to/lastmile_qr_scan", "android": "https://dc.lft.to/lastmile_qr_scan"}, "is_reserved": 0}, {"lon": -76.986199, "bike_id": "55daa5bbe50991e5b8d1fe159412a024", "lat": 38.9383275, "fusion_lon": 0.0, "fusion_lat": 0.0, "type": "electric_scooter", "name": "55daa5bbe50991e5b8d1fe159412a024", "is_disabled": 0, "rental_uris": {"ios": "https://dc.lft.to/lastmile_qr_scan", "android": "https://dc.lft.to/lastmile_qr_scan"}, "is_reserved": 0}, {"lon": -77.03300583333333, "bike_id": "145303d8e51e457f96b9e3077b5319b9", "lat": 38.92545416666667, "fusion_lon": 0.0, "fusion_lat": 0.0, "type": "electric_scooter", "name": "145303d8e51e457f96b9e3077b5319b9", "is_disabled": 0, "rental_uris": {"ios": "https://dc.lft.to/lastmile_qr_scan", "android": "https://dc.lft.to/lastmile_qr_scan"}, "is_reserved": 0}, {"lon": -77.03224733333333, "bike_id": "cc7bcc6a7910c805878871a6e9cf73e8", "lat": 38.927478, "fusion_lon": 0.0, "fusion_lat": 0.0, "type": "electric_scooter", "name": "cc7bcc6a7910c805878871a6e9cf73e8", "is_disabled": 0, "rental_uris": {"ios": "https://dc.lft.to/lastmile_qr_scan", "android": "https://dc.lft.to/lastmile_qr_scan"}, "is_reserved": 0}, {"lon": -77.05481266666666, "bike_id": "c1dfa75cad3f1afa326461ef5e72139c", "lat": 38.908642, "fusion_lon": 0.0, "fusion_lat": 0.0, "type": "electric_bike", "name": "c1dfa75cad3f1afa326461ef5e72139c", "is_disabled": 0, "rental_uris": {"ios": "https://dc.lft.to/lastmile_qr_scan", "android": "https://dc.lft.to/lastmile_qr_scan"}, "is_reserved": 0}, {"lon": -76.94632833333333, "bike_id": "215ba08398b688e2652ce8450fa3ca85", "lat": 38.898352333333335, "fusion_lon": 0.0, "fusion_lat": 0.0, "type": "electric_scooter", "name": "215ba08398b688e2652ce8450fa3ca85", "is_disabled": 0, "rental_uris": {"ios": "https://dc.lft.to/lastmile_qr_scan", "android": "https://dc.lft.to/lastmile_qr_scan"}, "is_reserved": 0}, {"lon": -77.0216235, "bike_id": "2d8bd083712996489857fb0bf8c29cc8", "lat": 38.92611816666667, "fusion_lon": 0.0, "fusion_lat": 0.0, "type": "electric_scooter", "name": "2d8bd083712996489857fb0bf8c29cc8", "is_disabled": 0, "rental_uris": {"ios": "https://dc.lft.to/lastmile_qr_scan", "android": "https://dc.lft.to/lastmile_qr_scan"}, "is_reserved": 0}, {"lon": -76.97700516666667, "bike_id": "a772c39f745b1623405590d32167321c", "lat": 38.9491375, "fusion_lon": 0.0, "fusion_lat": 0.0, "type": "electric_bike", "name": "a772c39f745b1623405590d32167321c", "is_disabled": 0, "rental_uris": {"ios": "https://dc.lft.to/lastmile_qr_scan", "android": "https://dc.lft.to/lastmile_qr_scan"}, "is_reserved": 0}, {"lon": -77.01659883333333, "bike_id": "e48f7cd7ed5e391a59a431bacf90457b", "lat": 38.887498666666666, "fusion_lon": 0.0, "fusion_lat": 0.0, "type": "electric_scooter", "name": "e48f7cd7ed5e391a59a431bacf90457b", "is_disabled": 0, "rental_uris": {"ios": "https://dc.lft.to/lastmile_qr_scan", "android": "https://dc.lft.to/lastmile_qr_scan"}, "is_reserved": 0}, {"lon": -77.01623883333333, "bike_id": "f7e5a3eeb818a7017e59843bb12754ec", "lat": 38.96572166666667, "fusion_lon": 0.0, "fusion_lat": 0.0, "type": "electric_scooter", "name": "f7e5a3eeb818a7017e59843bb12754ec", "is_disabled": 0, "rental_uris": {"ios": "https://dc.lft.to/lastmile_qr_scan", "android": "https://dc.lft.to/lastmile_qr_scan"}, "is_reserved": 0}, {"lon": -77.0267765, "bike_id": "ed7a660ea1486ae3d1187a77105200db", "lat": 38.91257566666667, "fusion_lon": 0.0, "fusion_lat": 0.0, "type": "electric_scooter", "name": "ed7a660ea1486ae3d1187a77105200db", "is_disabled": 0, "rental_uris": {"ios": "https://dc.lft.to/lastmile_qr_scan", "android": "https://dc.lft.to/lastmile_qr_scan"}, "is_reserved": 0}, {"lon": -77.04360916666667, "bike_id": "bbe50da58e2d4226b1ffe2f68f46a22a", "lat": 38.911188333333335, "fusion_lon": 0.0, "fusion_lat": 0.0, "type": "electric_scooter", "name": "bbe50da58e2d4226b1ffe2f68f46a22a", "is_disabled": 0, "rental_uris": {"ios": "https://dc.lft.to/lastmile_qr_scan", "android": "https://dc.lft.to/lastmile_qr_scan"}, "is_reserved": 0}, {"lon": -77.036616, "bike_id": "491c48384a39fe487b47ab367ca7effb", "lat": 38.917526, "fusion_lon": 0.0, "fusion_lat": 0.0, "type": "electric_scooter", "name": "491c48384a39fe487b47ab367ca7effb", "is_disabled": 0, "rental_uris": {"ios": "https://dc.lft.to/lastmile_qr_scan", "android": "https://dc.lft.to/lastmile_qr_scan"}, "is_reserved": 0}, {"lon": -77.00986583333334, "bike_id": "cb5aa076eeaf0095c096d99ad0150398", "lat": 38.8728965, "fusion_lon": 0.0, "fusion_lat": 0.0, "type": "electric_scooter", "name": "cb5aa076eeaf0095c096d99ad0150398", "is_disabled": 0, "rental_uris": {"ios": "https://dc.lft.to/lastmile_qr_scan", "android": "https://dc.lft.to/lastmile_qr_scan"}, "is_reserved": 0}, {"lon": -77.0038025, "bike_id": "3effd3d7f75499ab92bbfa24583469c9", "lat": 38.897476166666664, "fusion_lon": 0.0, "fusion_lat": 0.0, "type": "electric_scooter", "name": "3effd3d7f75499ab92bbfa24583469c9", "is_disabled": 0, "rental_uris": {"ios": "https://dc.lft.to/lastmile_qr_scan", "android": "https://dc.lft.to/lastmile_qr_scan"}, "is_reserved": 0}, {"lon": -77.03479383333334, "bike_id": "afdb526309f7d5b3704661865072716a", "lat": 38.919120666666664, "fusion_lon": 0.0, "fusion_lat": 0.0, "type": "electric_scooter", "name": "afdb526309f7d5b3704661865072716a", "is_disabled": 0, "rental_uris": {"ios": "https://dc.lft.to/lastmile_qr_scan", "android": "https://dc.lft.to/lastmile_qr_scan"}, "is_reserved": 0}, {"lon": -76.90605783333334, "bike_id": "8936f2b35aab172f2e11942a9fac7f92", "lat": 39.004569333333336, "fusion_lon": 0.0, "fusion_lat": 0.0, "type": "electric_bike", "name": "8936f2b35aab172f2e11942a9fac7f92", "is_disabled": 0, "rental_uris": {"ios": "https://dc.lft.to/lastmile_qr_scan", "android": "https://dc.lft.to/lastmile_qr_scan"}, "is_reserved": 0}, {"lon": -77.03206766666666, "bike_id": "f23aa38b62b3f4de55c99c958e3e907f", "lat": 38.91199533333333, "fusion_lon": 0.0, "fusion_lat": 0.0, "type": "electric_scooter", "name": "f23aa38b62b3f4de55c99c958e3e907f", "is_disabled": 0, "rental_uris": {"ios": "https://dc.lft.to/lastmile_qr_scan", "android": "https://dc.lft.to/lastmile_qr_scan"}, "is_reserved": 0}, {"lon": -77.0247425, "bike_id": "bc3314c6012fc0955980458eebdc4cff", "lat": 38.904079833333334, "fusion_lon": 0.0, "fusion_lat": 0.0, "type": "electric_scooter", "name": "bc3314c6012fc0955980458eebdc4cff", "is_disabled": 0, "rental_uris": {"ios": "https://dc.lft.to/lastmile_qr_scan", "android": "https://dc.lft.to/lastmile_qr_scan"}, "is_reserved": 0}, {"lon": -77.03842916666666, "bike_id": "b88a20362eab394d5e755613b014eeca", "lat": 38.909865833333335, "fusion_lon": 0.0, "fusion_lat": 0.0, "type": "electric_scooter", "name": "b88a20362eab394d5e755613b014eeca", "is_disabled": 0, "rental_uris": {"ios": "https://dc.lft.to/lastmile_qr_scan", "android": "https://dc.lft.to/lastmile_qr_scan"}, "is_reserved": 0}, {"lon": -77.04358866666666, "bike_id": "8d29e2e9969c161d7541231877dedebb", "lat": 38.91590566666667, "fusion_lon": 0.0, "fusion_lat": 0.0, "type": "electric_scooter", "name": "8d29e2e9969c161d7541231877dedebb", "is_disabled": 0, "rental_uris": {"ios": "https://dc.lft.to/lastmile_qr_scan", "android": "https://dc.lft.to/lastmile_qr_scan"}, "is_reserved": 0}, {"lon": -76.99756666666667, "bike_id": "988886f77e5ec1aabea1740fa873f0f5", "lat": 38.95008983333334, "fusion_lon": 0.0, "fusion_lat": 0.0, "type": "electric_bike", "name": "988886f77e5ec1aabea1740fa873f0f5", "is_disabled": 0, "rental_uris": {"ios": "https://dc.lft.to/lastmile_qr_scan", "android": "https://dc.lft.to/lastmile_qr_scan"}, "is_reserved": 0}, {"lon": -77.00747516666667, "bike_id": "1b7ef4735cbde83c0e305e196081e178", "lat": 38.8984345, "fusion_lon": 0.0, "fusion_lat": 0.0, "type": "electric_scooter", "name": "1b7ef4735cbde83c0e305e196081e178", "is_disabled": 0, "rental_uris": {"ios": "https://dc.lft.to/lastmile_qr_scan", "android": "https://dc.lft.to/lastmile_qr_scan"}, "is_reserved": 0}, {"lon": -77.002151, "bike_id": "d0592cc1fde53b43c807e90b76a715e8", "lat": 38.885128, "fusion_lon": 0.0, "fusion_lat": 0.0, "type": "electric_scooter", "name": "d0592cc1fde53b43c807e90b76a715e8", "is_disabled": 0, "rental_uris": {"ios": "https://dc.lft.to/lastmile_qr_scan", "android": "https://dc.lft.to/lastmile_qr_scan"}, "is_reserved": 0}, {"lon": -76.950025, "bike_id": "938cfdc8f95e95c810c79b70216736d3", "lat": 38.893792833333336, "fusion_lon": 0.0, "fusion_lat": 0.0, "type": "electric_scooter", "name": "938cfdc8f95e95c810c79b70216736d3", "is_disabled": 0, "rental_uris": {"ios": "https://dc.lft.to/lastmile_qr_scan", "android": "https://dc.lft.to/lastmile_qr_scan"}, "is_reserved": 0}, {"lon": -77.0225775, "bike_id": "b59dfef956c379bb2f1c56aeb7ec9ae0", "lat": 38.92523166666667, "fusion_lon": 0.0, "fusion_lat": 0.0, "type": "electric_scooter", "name": "b59dfef956c379bb2f1c56aeb7ec9ae0", "is_disabled": 0, "rental_uris": {"ios": "https://dc.lft.to/lastmile_qr_scan", "android": "https://dc.lft.to/lastmile_qr_scan"}, "is_reserved": 0}, {"lon": -77.07596166666667, "bike_id": "b7f2639c1f0b4ee48906f3c43a861df6", "lat": 38.91216, "fusion_lon": 0.0, "fusion_lat": 0.0, "type": "electric_scooter", "name": "b7f2639c1f0b4ee48906f3c43a861df6", "is_disabled": 0, "rental_uris": {"ios": "https://dc.lft.to/lastmile_qr_scan", "android": "https://dc.lft.to/lastmile_qr_scan"}, "is_reserved": 0}, {"lon": -77.02767166666666, "bike_id": "e812dae162872c7628037e52848f4464", "lat": 38.954209166666665, "fusion_lon": 0.0, "fusion_lat": 0.0, "type": "electric_scooter", "name": "e812dae162872c7628037e52848f4464", "is_disabled": 0, "rental_uris": {"ios": "https://dc.lft.to/lastmile_qr_scan", "android": "https://dc.lft.to/lastmile_qr_scan"}, "is_reserved": 0}, {"lon": -76.988373, "bike_id": "8a9bf7faa0767b2d900fcceacff5123e", "lat": 38.900486, "fusion_lon": 0.0, "fusion_lat": 0.0, "type": "electric_scooter", "name": "8a9bf7faa0767b2d900fcceacff5123e", "is_disabled": 0, "rental_uris": {"ios": "https://dc.lft.to/lastmile_qr_scan", "android": "https://dc.lft.to/lastmile_qr_scan"}, "is_reserved": 0}, {"lon": -77.04088966666667, "bike_id": "ee4c381ce7a913284098df9d5216b184", "lat": 38.9057925, "fusion_lon": 0.0, "fusion_lat": 0.0, "type": "electric_scooter", "name": "ee4c381ce7a913284098df9d5216b184", "is_disabled": 0, "rental_uris": {"ios": "https://dc.lft.to/lastmile_qr_scan", "android": "https://dc.lft.to/lastmile_qr_scan"}, "is_reserved": 0}, {"lon": -77.01545666666667, "bike_id": "cc69890052668c355e36b2860ec6251f", "lat": 38.885028166666665, "fusion_lon": 0.0, "fusion_lat": 0.0, "type": "electric_scooter", "name": "cc69890052668c355e36b2860ec6251f", "is_disabled": 0, "rental_uris": {"ios": "https://dc.lft.to/lastmile_qr_scan", "android": "https://dc.lft.to/lastmile_qr_scan"}, "is_reserved": 0}, {"lon": -77.03758516666667, "bike_id": "4a28a96d73c0517fc898e4fa68161f63", "lat": 38.911921166666666, "fusion_lon": 0.0, "fusion_lat": 0.0, "type": "electric_scooter", "name": "4a28a96d73c0517fc898e4fa68161f63", "is_disabled": 0, "rental_uris": {"ios": "https://dc.lft.to/lastmile_qr_scan", "android": "https://dc.lft.to/lastmile_qr_scan"}, "is_reserved": 0}, {"lon": -77.0038835, "bike_id": "95047a274c3d03b6becd1b90a3d27a76", "lat": 38.91189883333333, "fusion_lon": 0.0, "fusion_lat": 0.0, "type": "electric_bike", "name": "95047a274c3d03b6becd1b90a3d27a76", "is_disabled": 0, "rental_uris": {"ios": "https://dc.lft.to/lastmile_qr_scan", "android": "https://dc.lft.to/lastmile_qr_scan"}, "is_reserved": 0}, {"lon": -77.0410195, "bike_id": "f3dfdd82c272651cff2925176c0066bc", "lat": 38.898504333333335, "fusion_lon": 0.0, "fusion_lat": 0.0, "type": "electric_scooter", "name": "f3dfdd82c272651cff2925176c0066bc", "is_disabled": 0, "rental_uris": {"ios": "https://dc.lft.to/lastmile_qr_scan", "android": "https://dc.lft.to/lastmile_qr_scan"}, "is_reserved": 0}, {"lon": -76.94121, "bike_id": "5be23a649078a61131e9f7208e454375", "lat": 38.908275833333335, "fusion_lon": 0.0, "fusion_lat": 0.0, "type": "electric_scooter", "name": "5be23a649078a61131e9f7208e454375", "is_disabled": 0, "rental_uris": {"ios": "https://dc.lft.to/lastmile_qr_scan", "android": "https://dc.lft.to/lastmile_qr_scan"}, "is_reserved": 0}, {"lon": -77.0338485, "bike_id": "8f21c22e4462dd37711f896ade552342", "lat": 38.9387745, "fusion_lon": 0.0, "fusion_lat": 0.0, "type": "electric_scooter", "name": "8f21c22e4462dd37711f896ade552342", "is_disabled": 0, "rental_uris": {"ios": "https://dc.lft.to/lastmile_qr_scan", "android": "https://dc.lft.to/lastmile_qr_scan"}, "is_reserved": 0}, {"lon": -76.99779983333333, "bike_id": "a4d51e2256bf44f824fcaa9adfad762d", "lat": 38.842987, "fusion_lon": 0.0, "fusion_lat": 0.0, "type": "electric_scooter", "name": "a4d51e2256bf44f824fcaa9adfad762d", "is_disabled": 0, "rental_uris": {"ios": "https://dc.lft.to/lastmile_qr_scan", "android": "https://dc.lft.to/lastmile_qr_scan"}, "is_reserved": 0}, {"lon": -77.007127, "bike_id": "b80272debfbb783f5e4154ffee84a4f6", "lat": 38.884906666666666, "fusion_lon": 0.0, "fusion_lat": 0.0, "type": "electric_scooter", "name": "b80272debfbb783f5e4154ffee84a4f6", "is_disabled": 0, "rental_uris": {"ios": "https://dc.lft.to/lastmile_qr_scan", "android": "https://dc.lft.to/lastmile_qr_scan"}, "is_reserved": 0}, {"lon": -77.00343616666666, "bike_id": "ce1cc35a08343f4a2538445650049e6c", "lat": 38.90363816666667, "fusion_lon": 0.0, "fusion_lat": 0.0, "type": "electric_scooter", "name": "ce1cc35a08343f4a2538445650049e6c", "is_disabled": 0, "rental_uris": {"ios": "https://dc.lft.to/lastmile_qr_scan", "android": "https://dc.lft.to/lastmile_qr_scan"}, "is_reserved": 0}, {"lon": -77.0238465, "bike_id": "738a470c6e49860fafbf0cfb9a7f1bc6", "lat": 38.906576666666666, "fusion_lon": 0.0, "fusion_lat": 0.0, "type": "electric_scooter", "name": "738a470c6e49860fafbf0cfb9a7f1bc6", "is_disabled": 0, "rental_uris": {"ios": "https://dc.lft.to/lastmile_qr_scan", "android": "https://dc.lft.to/lastmile_qr_scan"}, "is_reserved": 0}, {"lon": -77.0421295, "bike_id": "51a33e7a70b3641f96cfa8820f403fc6", "lat": 38.89271183333334, "fusion_lon": 0.0, "fusion_lat": 0.0, "type": "electric_scooter", "name": "51a33e7a70b3641f96cfa8820f403fc6", "is_disabled": 0, "rental_uris": {"ios": "https://dc.lft.to/lastmile_qr_scan", "android": "https://dc.lft.to/lastmile_qr_scan"}, "is_reserved": 0}, {"lon": -77.04066866666666, "bike_id": "f0b1d4131e035b9cc2cd2e7f216998cd", "lat": 38.912662166666664, "fusion_lon": 0.0, "fusion_lat": 0.0, "type": "electric_scooter", "name": "f0b1d4131e035b9cc2cd2e7f216998cd", "is_disabled": 0, "rental_uris": {"ios": "https://dc.lft.to/lastmile_qr_scan", "android": "https://dc.lft.to/lastmile_qr_scan"}, "is_reserved": 0}, {"lon": -77.03269016666667, "bike_id": "12ab86be37654b8d982ee5b1fae11c4e", "lat": 38.9344695, "fusion_lon": 0.0, "fusion_lat": 0.0, "type": "electric_scooter", "name": "12ab86be37654b8d982ee5b1fae11c4e", "is_disabled": 0, "rental_uris": {"ios": "https://dc.lft.to/lastmile_qr_scan", "android": "https://dc.lft.to/lastmile_qr_scan"}, "is_reserved": 0}, {"lon": -77.02372533333333, "bike_id": "438dfa9c7b4fd845e65804d0ecee11ab", "lat": 38.90028516666667, "fusion_lon": 0.0, "fusion_lat": 0.0, "type": "electric_scooter", "name": "438dfa9c7b4fd845e65804d0ecee11ab", "is_disabled": 0, "rental_uris": {"ios": "https://dc.lft.to/lastmile_qr_scan", "android": "https://dc.lft.to/lastmile_qr_scan"}, "is_reserved": 0}, {"lon": -76.94803183333333, "bike_id": "899abdd416ab7060fb5a27b4562c6739", "lat": 38.861928, "fusion_lon": 0.0, "fusion_lat": 0.0, "type": "electric_bike", "name": "899abdd416ab7060fb5a27b4562c6739", "is_disabled": 0, "rental_uris": {"ios": "https://dc.lft.to/lastmile_qr_scan", "android": "https://dc.lft.to/lastmile_qr_scan"}, "is_reserved": 0}, {"lon": -76.9872305, "bike_id": "160234c61a6595039aa172af112d958f", "lat": 38.8671715, "fusion_lon": 0.0, "fusion_lat": 0.0, "type": "electric_scooter", "name": "160234c61a6595039aa172af112d958f", "is_disabled": 0, "rental_uris": {"ios": "https://dc.lft.to/lastmile_qr_scan", "android": "https://dc.lft.to/lastmile_qr_scan"}, "is_reserved": 0}, {"lon": -77.03335516666667, "bike_id": "0184ccf3cf555d5a983494953873d25b", "lat": 38.93638333333333, "fusion_lon": 0.0, "fusion_lat": 0.0, "type": "electric_scooter", "name": "0184ccf3cf555d5a983494953873d25b", "is_disabled": 0, "rental_uris": {"ios": "https://dc.lft.to/lastmile_qr_scan", "android": "https://dc.lft.to/lastmile_qr_scan"}, "is_reserved": 0}, {"lon": -77.0241515, "bike_id": "a1fa998c4644cc1dce1dcdff66d424de", "lat": 38.89979183333333, "fusion_lon": 0.0, "fusion_lat": 0.0, "type": "electric_scooter", "name": "a1fa998c4644cc1dce1dcdff66d424de", "is_disabled": 0, "rental_uris": {"ios": "https://dc.lft.to/lastmile_qr_scan", "android": "https://dc.lft.to/lastmile_qr_scan"}, "is_reserved": 0}, {"lon": -77.02186, "bike_id": "bf36c6cf3fc0ca5f6e7b4608fdc6b93a", "lat": 38.9027835, "fusion_lon": 0.0, "fusion_lat": 0.0, "type": "electric_scooter", "name": "bf36c6cf3fc0ca5f6e7b4608fdc6b93a", "is_disabled": 0, "rental_uris": {"ios": "https://dc.lft.to/lastmile_qr_scan", "android": "https://dc.lft.to/lastmile_qr_scan"}, "is_reserved": 0}, {"lon": -76.98706133333333, "bike_id": "74c5bcfaec53eeae885e43f7858f6429", "lat": 38.86537, "fusion_lon": 0.0, "fusion_lat": 0.0, "type": "electric_scooter", "name": "74c5bcfaec53eeae885e43f7858f6429", "is_disabled": 0, "rental_uris": {"ios": "https://dc.lft.to/lastmile_qr_scan", "android": "https://dc.lft.to/lastmile_qr_scan"}, "is_reserved": 0}, {"lon": -77.020885, "bike_id": "fe6e67c6a3edd38f456bb539061e2272", "lat": 38.89607083333333, "fusion_lon": 0.0, "fusion_lat": 0.0, "type": "electric_bike", "name": "fe6e67c6a3edd38f456bb539061e2272", "is_disabled": 0, "rental_uris": {"ios": "https://dc.lft.to/lastmile_qr_scan", "android": "https://dc.lft.to/lastmile_qr_scan"}, "is_reserved": 0}, {"lon": -76.948877, "bike_id": "c0018ce9f0ad581f73c44219f1b963f3", "lat": 38.89511266666667, "fusion_lon": 0.0, "fusion_lat": 0.0, "type": "electric_scooter", "name": "c0018ce9f0ad581f73c44219f1b963f3", "is_disabled": 0, "rental_uris": {"ios": "https://dc.lft.to/lastmile_qr_scan", "android": "https://dc.lft.to/lastmile_qr_scan"}, "is_reserved": 0}, {"lon": -76.98546416666667, "bike_id": "60e5800ceb5f0f088a685d5500aa485e", "lat": 38.91059883333333, "fusion_lon": 0.0, "fusion_lat": 0.0, "type": "electric_scooter", "name": "60e5800ceb5f0f088a685d5500aa485e", "is_disabled": 0, "rental_uris": {"ios": "https://dc.lft.to/lastmile_qr_scan", "android": "https://dc.lft.to/lastmile_qr_scan"}, "is_reserved": 0}, {"lon": -77.03864966666667, "bike_id": "c9aafd7109cbbc0c9ca850b59a297e84", "lat": 38.90751616666667, "fusion_lon": 0.0, "fusion_lat": 0.0, "type": "electric_scooter", "name": "c9aafd7109cbbc0c9ca850b59a297e84", "is_disabled": 0, "rental_uris": {"ios": "https://dc.lft.to/lastmile_qr_scan", "android": "https://dc.lft.to/lastmile_qr_scan"}, "is_reserved": 0}, {"lon": -77.0441455, "bike_id": "afdc9d0b0e24a1843cd6c657bcf829cc", "lat": 38.9090555, "fusion_lon": 0.0, "fusion_lat": 0.0, "type": "electric_scooter", "name": "afdc9d0b0e24a1843cd6c657bcf829cc", "is_disabled": 0, "rental_uris": {"ios": "https://dc.lft.to/lastmile_qr_scan", "android": "https://dc.lft.to/lastmile_qr_scan"}, "is_reserved": 0}, {"lon": -77.0084935, "bike_id": "2456c72a1df6c3bf74b97aa3a1e17a48", "lat": 38.9509345, "fusion_lon": 0.0, "fusion_lat": 0.0, "type": "electric_bike", "name": "2456c72a1df6c3bf74b97aa3a1e17a48", "is_disabled": 0, "rental_uris": {"ios": "https://dc.lft.to/lastmile_qr_scan", "android": "https://dc.lft.to/lastmile_qr_scan"}, "is_reserved": 0}, {"lon": -77.03217566666666, "bike_id": "b2c965b2ad639c288d28ba0fdd3051f4", "lat": 38.907591833333335, "fusion_lon": 0.0, "fusion_lat": 0.0, "type": "electric_scooter", "name": "b2c965b2ad639c288d28ba0fdd3051f4", "is_disabled": 0, "rental_uris": {"ios": "https://dc.lft.to/lastmile_qr_scan", "android": "https://dc.lft.to/lastmile_qr_scan"}, "is_reserved": 0}, {"lon": -77.00377633333333, "bike_id": "abacb109b0a353430d32e55fab771b08", "lat": 38.88041366666667, "fusion_lon": 0.0, "fusion_lat": 0.0, "type": "electric_bike", "name": "abacb109b0a353430d32e55fab771b08", "is_disabled": 0, "rental_uris": {"ios": "https://dc.lft.to/lastmile_qr_scan", "android": "https://dc.lft.to/lastmile_qr_scan"}, "is_reserved": 0}, {"lon": -77.02090616666666, "bike_id": "38be03b72a6fcc0ca89465eacd50658c", "lat": 38.957476666666665, "fusion_lon": 0.0, "fusion_lat": 0.0, "type": "electric_scooter", "name": "38be03b72a6fcc0ca89465eacd50658c", "is_disabled": 0, "rental_uris": {"ios": "https://dc.lft.to/lastmile_qr_scan", "android": "https://dc.lft.to/lastmile_qr_scan"}, "is_reserved": 0}, {"lon": -76.99334466666667, "bike_id": "7d89644cae1836e2a5f8b4d157ce0864", "lat": 38.871430833333335, "fusion_lon": 0.0, "fusion_lat": 0.0, "type": "electric_scooter", "name": "7d89644cae1836e2a5f8b4d157ce0864", "is_disabled": 0, "rental_uris": {"ios": "https://dc.lft.to/lastmile_qr_scan", "android": "https://dc.lft.to/lastmile_qr_scan"}, "is_reserved": 0}, {"lon": -77.03864333333334, "bike_id": "90f785410ce472f0e617ebf7185d1761", "lat": 38.917131166666664, "fusion_lon": 0.0, "fusion_lat": 0.0, "type": "electric_scooter", "name": "90f785410ce472f0e617ebf7185d1761", "is_disabled": 0, "rental_uris": {"ios": "https://dc.lft.to/lastmile_qr_scan", "android": "https://dc.lft.to/lastmile_qr_scan"}, "is_reserved": 0}, {"lon": -76.98845183333333, "bike_id": "3b6cd9821064bd733c7df8150bc7fae2", "lat": 38.90074533333333, "fusion_lon": 0.0, "fusion_lat": 0.0, "type": "electric_scooter", "name": "3b6cd9821064bd733c7df8150bc7fae2", "is_disabled": 0, "rental_uris": {"ios": "https://dc.lft.to/lastmile_qr_scan", "android": "https://dc.lft.to/lastmile_qr_scan"}, "is_reserved": 0}, {"lon": -77.0256565, "bike_id": "fa08d9f9167f393930750d635e7ec70b", "lat": 38.941829, "fusion_lon": 0.0, "fusion_lat": 0.0, "type": "electric_scooter", "name": "fa08d9f9167f393930750d635e7ec70b", "is_disabled": 0, "rental_uris": {"ios": "https://dc.lft.to/lastmile_qr_scan", "android": "https://dc.lft.to/lastmile_qr_scan"}, "is_reserved": 0}, {"lon": -77.0246675, "bike_id": "60b6a3b802f628c2f70fb128a125cc47", "lat": 38.916917, "fusion_lon": 0.0, "fusion_lat": 0.0, "type": "electric_scooter", "name": "60b6a3b802f628c2f70fb128a125cc47", "is_disabled": 0, "rental_uris": {"ios": "https://dc.lft.to/lastmile_qr_scan", "android": "https://dc.lft.to/lastmile_qr_scan"}, "is_reserved": 0},