{"data": {"bikes": [{"is_reserved": 0, "type": "electric_scooter", "bike_id": "9cef329f3afac7ce695b43f2476a56b1", "lat": 38.8876295, "lon": -77.03385283333333, "rental_uris": {"android": "https://dc.lft.to/lastmile_qr_scan", "ios": "https://dc.lft.to/lastmile_qr_scan"}, "is_disabled": 0, "fusion_lat": 0.0, "name": "9cef329f3afac7ce695b43f2476a56b1", "fusion_lon": 0.0}, {"is_reserved": 0, "type": "electric_scooter", "bike_id": "fa814ffef4e1db9286775fd45ff0a425", "lat": 38.91995083333333, "lon": -76.9860655, "rental_uris": {"android": "https://dc.lft.to/lastmile_qr_scan", "ios": "https://dc.lft.to/lastmile_qr_scan"}, "is_disabled": 0, "fusion_lat": 0.0, "name": "fa814ffef4e1db9286775fd45ff0a425", "fusion_lon": 0.0}, {"is_reserved": 0, "type": "electric_scooter", "bike_id": "f9b48104ca5cf5b8f62ba5d61ffd55df", "lat": 38.8987625, "lon": -77.02942483333334, "rental_uris": {"android": "https://dc.lft.to/lastmile_qr_scan", "ios": "https://dc.lft.to/lastmile_qr_scan"}, "is_disabled": 0, "fusion_lat": 0.0, "name": "f9b48104ca5cf5b8f62ba5d61ffd55df", "fusion_lon": 0.0}, {"is_reserved": 0, "type": "electric_bike", "bike_id": "9bf31fdb0bc26adc09ac06ae25d5fcb5", "lat": 38.88789516666667, "lon": -76.92347866666667, "rental_uris": {"android": "https://dc.lft.to/lastmile_qr_scan", "ios": "https://dc.lft.to/lastmile_qr_scan"}, "is_disabled": 0, "fusion_lat": 0.0, "name": "9bf31fdb0bc26adc09ac06ae25d5fcb5", "fusion_lon": 0.0}, {"is_reserved": 0, "type": "electric_scooter", "bike_id": "a8f34fd8dfecb9fd604ecdd5308f79f3", "lat": 38.896199833333334, "lon": -77.0447935, "rental_uris": {"android": "https://dc.lft.to/lastmile_qr_scan", "ios": "https://dc.lft.to/lastmile_qr_scan"}, "is_disabled": 0, "fusion_lat": 0.0, "name": "a8f34fd8dfecb9fd604ecdd5308f79f3", "fusion_lon": 0.0}, {"is_reserved": 0, "type": "electric_scooter", "bike_id": "7dbb05dbb7701c9e9e70f668dbe77e84", "lat": 38.97498316666667, "lon": -77.01702583333334, "rental_uris": {"android": "https://dc.lft.to/lastmile_qr_scan", "ios": "https://dc.lft.to/lastmile_qr_scan"}, "is_disabled": 0, "fusion_lat": 0.0, "name": "7dbb05dbb7701c9e9e70f668dbe77e84", "fusion_lon": 0.0}, {"is_reserved": 0, "type": "electric_scooter", "bike_id": "70eb537308eacd78dcbbdaa718fe216a", "lat": 38.897303666666666, "lon": -77.054773, "rental_uris": {"android": "https://dc.lft.to/lastmile_qr_scan", "ios": "https://dc.lft.to/lastmile_qr_scan"}, "is_disabled": 0, "fusion_lat": 0.0, "name": "70eb537308eacd78dcbbdaa718fe216a", "fusion_lon": 0.0}, {"is_reserved": 0, "type": "electric_scooter", "bike_id": "d420f5ffd6ff1d5fb768c365f56f5051", "lat": 38.924207333333335, "lon": -77.01947216666667, "rental_uris": {"android": "https://dc.lft.to/lastmile_qr_scan", "ios": "https://dc.lft.to/lastmile_qr_scan"}, "is_disabled": 0, "fusion_lat": 0.0, "name": "d420f5ffd6ff1d5fb768c365f56f5051", "fusion_lon": 0.0}, {"is_reserved": 0, "type": "electric_scooter", "bike_id": "e89031abb808e474701c64b2e80c1f61", "lat": 38.91337383333333, "lon": -77.04802483333333, "rental_uris": {"android": "https://dc.lft.to/lastmile_qr_scan", "ios": "https://dc.lft.to/lastmile_qr_scan"}, "is_disabled": 0, "fusion_lat": 0.0, "name": "e89031abb808e474701c64b2e80c1f61", "fusion_lon": 0.0}, {"is_reserved": 0, "type": "electric_scooter", "bike_id": "9c3283e0fdbc1ee7112c4bcf474d6a91", "lat": 38.91915916666667, "lon": -77.0339625, "rental_uris": {"android": "https://dc.lft.to/lastmile_qr_scan", "ios": "https://dc.lft.to/lastmile_qr_scan"}, "is_disabled": 0, "fusion_lat": 0.0, "name": "9c3283e0fdbc1ee7112c4bcf474d6a91", "fusion_lon": 0.0}, {"is_reserved": 0, "type": "electric_scooter", "bike_id": "21990ac47a8df2f92cbb6be489ba35e5", "lat": 38.87481783333333, "lon": -77.01740383333333, "rental_uris": {"android": "https://dc.lft.to/lastmile_qr_scan", "ios": "https://dc.lft.to/lastmile_qr_scan"}, "is_disabled": 0, "fusion_lat": 0.0, "name": "21990ac47a8df2f92cbb6be489ba35e5", "fusion_lon": 0.0}, {"is_reserved": 0, "type": "electric_scooter", "bike_id": "115451496f7d36682d56246257b9a243", "lat": 38.8944965, "lon": -77.04540133333333, "rental_uris": {"android": "https://dc.lft.to/lastmile_qr_scan", "ios": "https://dc.lft.to/lastmile_qr_scan"}, "is_disabled": 0, "fusion_lat": 0.0, "name": "115451496f7d36682d56246257b9a243", "fusion_lon": 0.0}, {"is_reserved": 0, "type": "electric_scooter", "bike_id": "cdae553aa98361ccbe8041476a14c302", "lat": 38.94043533333333, "lon": -77.0290015, "rental_uris": {"android": "https://dc.lft.to/lastmile_qr_scan", "ios": "https://dc.lft.to/lastmile_qr_scan"}, "is_disabled": 0, "fusion_lat": 0.0, "name": "cdae553aa98361ccbe8041476a14c302", "fusion_lon": 0.0}, {"is_reserved": 0, "type": "electric_scooter", "bike_id": "d56dcbc39008e88ff22d66e57de72972", "lat": 38.9021635, "lon": -77.04892883333333, "rental_uris": {"android": "https://dc.lft.to/lastmile_qr_scan", "ios": "https://dc.lft.to/lastmile_qr_scan"}, "is_disabled": 0, "fusion_lat": 0.0, "name": "d56dcbc39008e88ff22d66e57de72972", "fusion_lon": 0.0}, {"is_reserved": 0, "type": "electric_scooter", "bike_id": "fd4a1028d6f63607b16bbb2c8e2cde60", "lat": 38.92330616666667, "lon": -77.00878733333333, "rental_uris": {"android": "https://dc.lft.to/lastmile_qr_scan", "ios": "https://dc.lft.to/lastmile_qr_scan"}, "is_disabled": 0, "fusion_lat": 0.0, "name": "fd4a1028d6f63607b16bbb2c8e2cde60", "fusion_lon": 0.0}, {"is_reserved": 0, "type": "electric_bike", "bike_id": "849faf87f4912be03ce3d482ef9bbd31", "lat": 38.849207, "lon": -77.08377683333333, "rental_uris": {"android": "https://dc.lft.to/lastmile_qr_scan", "ios": "https://dc.lft.to/lastmile_qr_scan"}, "is_disabled": 0, "fusion_lat": 0.0, "name": "849faf87f4912be03ce3d482ef9bbd31", "fusion_lon": 0.0}, {"is_reserved": 0, "type": "electric_scooter", "bike_id": "a1893c2cd0271ae07bd70ef538e822d4", "lat": 38.92432, "lon": -76.9967465, "rental_uris": {"android": "https://dc.lft.to/lastmile_qr_scan", "ios": "https://dc.lft.to/lastmile_qr_scan"}, "is_disabled": 0, "fusion_lat": 0.0, "name": "a1893c2cd0271ae07bd70ef538e822d4", "fusion_lon": 0.0}, {"is_reserved": 0, "type": "electric_scooter", "bike_id": "c170778104e62948a05c007598c0ba66", "lat": 38.8956535, "lon": -76.98212216666667, "rental_uris": {"android": "https://dc.lft.to/lastmile_qr_scan", "ios": "https://dc.lft.to/lastmile_qr_scan"}, "is_disabled": 0, "fusion_lat": 0.0, "name": "c170778104e62948a05c007598c0ba66", "fusion_lon": 0.0}, {"is_reserved": 0, "type": "electric_scooter", "bike_id": "b5d6a0619308f40d8235266f4dd06818", "lat": 38.910718833333334, "lon": -76.99137466666667, "rental_uris": {"android": "https://dc.lft.to/lastmile_qr_scan", "ios": "https://dc.lft.to/lastmile_qr_scan"}, "is_disabled": 0, "fusion_lat": 0.0, "name": "b5d6a0619308f40d8235266f4dd06818", "fusion_lon": 0.0}, {"is_reserved": 0, "type": "electric_scooter", "bike_id": "6c935ec05718f367f7d50073cb983e46", "lat": 38.915481666666665, "lon": -77.02090233333334, "rental_uris": {"android": "https://dc.lft.to/lastmile_qr_scan", "ios": "https://dc.lft.to/lastmile_qr_scan"}, "is_disabled": 0, "fusion_lat": 0.0, "name": "6c935ec05718f367f7d50073cb983e46", "fusion_lon": 0.0}, {"is_reserved": 0, "type": "electric_scooter", "bike_id": "2f26b245639e44420c892cec27e4aaac", "lat": 38.923185333333336, "lon": -77.0280655, "rental_uris": {"android": "https://dc.lft.to/lastmile_qr_scan", "ios": "https://dc.lft.to/lastmile_qr_scan"}, "is_disabled": 0, "fusion_lat": 0.0, "name": "2f26b245639e44420c892cec27e4aaac", "fusion_lon": 0.0}, {"is_reserved": 0, "type": "electric_scooter", "bike_id": "f0cb48d5ae219b49151f92e61013e356", "lat": 38.92247883333334, "lon": -77.0191875, "rental_uris": {"android": "https://dc.lft.to/lastmile_qr_scan", "ios": "https://dc.lft.to/lastmile_qr_scan"}, "is_disabled": 0, "fusion_lat": 0.0, "name": "f0cb48d5ae219b49151f92e61013e356", "fusion_lon": 0.0}, {"is_reserved": 0, "type": "electric_scooter", "bike_id": "0170ab210f5cbb92f1f3ddb5bb0b4415", "lat": 38.930955, "lon": -77.0247695, "rental_uris": {"android": "https://dc.lft.to/lastmile_qr_scan", "ios": "https://dc.lft.to/lastmile_qr_scan"}, "is_disabled": 0, "fusion_lat": 0.0, "name": "0170ab210f5cbb92f1f3ddb5bb0b4415", "fusion_lon": 0.0}, {"is_reserved": 0, "type": "electric_scooter", "bike_id": "933453605bd8b8879e0a5fa749346705", "lat": 38.96034933333333, "lon": -77.02428583333334, "rental_uris": {"android": "https://dc.lft.to/lastmile_qr_scan", "ios": "https://dc.lft.to/lastmile_qr_scan"}, "is_disabled": 0, "fusion_lat": 0.0, "name": "933453605bd8b8879e0a5fa749346705", "fusion_lon": 0.0}, {"is_reserved": 0, "type": "electric_scooter", "bike_id": "1de60120d0a9081f91df093c7b3d74a2", "lat": 38.92234366666667, "lon": -77.04134583333334, "rental_uris": {"android": "https://dc.lft.to/lastmile_qr_scan", "ios": "https://dc.lft.to/lastmile_qr_scan"}, "is_disabled": 0, "fusion_lat": 0.0, "name": "1de60120d0a9081f91df093c7b3d74a2", "fusion_lon": 0.0}, {"is_reserved": 0, "type": "electric_scooter", "bike_id": "104c426010b74910c02fe871c4e4d701", "lat": 38.898281, "lon": -76.94650916666667, "rental_uris": {"android": "https://dc.lft.to/lastmile_qr_scan", "ios": "https://dc.lft.to/lastmile_qr_scan"}, "is_disabled": 0, "fusion_lat": 0.0, "name": "104c426010b74910c02fe871c4e4d701", "fusion_lon": 0.0}, {"is_reserved": 0, "type": "electric_scooter", "bike_id": "21a887ff24991698a2891e7878d61d69", "lat": 38.93635066666667, "lon": -77.07302583333333, "rental_uris": {"android": "https://dc.lft.to/lastmile_qr_scan", "ios": "https://dc.lft.to/lastmile_qr_scan"}, "is_disabled": 0, "fusion_lat": 0.0, "name": "21a887ff24991698a2891e7878d61d69", "fusion_lon": 0.0}, {"is_reserved": 0, "type": "electric_bike", "bike_id": "2704d1432277d09e749c3f6c7d6fdefe", "lat": 38.899425, "lon": -76.98060016666666, "rental_uris": {"android": "https://dc.lft.to/lastmile_qr_scan", "ios": "https://dc.lft.to/lastmile_qr_scan"}, "is_disabled": 0, "fusion_lat": 0.0, "name": "2704d1432277d09e749c3f6c7d6fdefe", "fusion_lon": 0.0}, {"is_reserved": 0, "type": "electric_scooter", "bike_id": "e115d9c42d53e7282704f5ec85367625", "lat": 38.917548333333336, "lon": -77.014645, "rental_uris": {"android": "https://dc.lft.to/lastmile_qr_scan", "ios": "https://dc.lft.to/lastmile_qr_scan"}, "is_disabled": 0, "fusion_lat": 0.0, "name": "e115d9c42d53e7282704f5ec85367625", "fusion_lon": 0.0}, {"is_reserved": 0, "type": "electric_scooter", "bike_id": "3a7619c81f7c7a259e75f9ba8ce71020", "lat": 38.885215, "lon": -76.9771165, "rental_uris": {"android": "https://dc.lft.to/lastmile_qr_scan", "ios": "https://dc.lft.to/lastmile_qr_scan"}, "is_disabled": 0, "fusion_lat": 0.0, "name": "3a7619c81f7c7a259e75f9ba8ce71020", "fusion_lon": 0.0}, {"is_reserved": 0, "type": "electric_scooter", "bike_id": "e74a858ddd573ed48b743a07c676c28e", "lat": 38.9177085, "lon": -77.02306, "rental_uris": {"android": "https://dc.lft.to/lastmile_qr_scan", "ios": "https://dc.lft.to/lastmile_qr_scan"}, "is_disabled": 0, "fusion_lat": 0.0, "name": "e74a858ddd573ed48b743a07c676c28e", "fusion_lon": 0.0}, {"is_reserved": 0, "type": "electric_scooter", "bike_id": "066854ba2060f95487a1b768cb8d04fe", "lat": 38.83802933333333, "lon": -76.99857916666667, "rental_uris": {"android": "https://dc.lft.to/lastmile_qr_scan", "ios": "https://dc.lft.to/lastmile_qr_scan"}, "is_disabled": 0, "fusion_lat": 0.0, "name": "066854ba2060f95487a1b768cb8d04fe", "fusion_lon": 0.0}, {"is_reserved": 0, "type": "electric_scooter", "bike_id": "bc840aa65c57f926597990a20e4ff243", "lat": 38.91258116666667, "lon": -77.02856883333334, "rental_uris": {"android": "https://dc.lft.to/lastmile_qr_scan", "ios": "https://dc.lft.to/lastmile_qr_scan"}, "is_disabled": 0, "fusion_lat": 0.0, "name": "bc840aa65c57f926597990a20e4ff243", "fusion_lon": 0.0}, {"is_reserved": 0, "type": "electric_scooter", "bike_id": "9c97ff820e4d4b650302f4f9d9d33a29", "lat": 38.938408, "lon": -77.024695, "rental_uris": {"android": "https://dc.lft.to/lastmile_qr_scan", "ios": "https://dc.lft.to/lastmile_qr_scan"}, "is_disabled": 0, "fusion_lat": 0.0, "name": "9c97ff820e4d4b650302f4f9d9d33a29", "fusion_lon": 0.0}, {"is_reserved": 0, "type": "electric_scooter", "bike_id": "5ee26850e61b2d791030eae7d96a82f7", "lat": 38.899654166666664, "lon": -77.04481583333333, "rental_uris": {"android": "https://dc.lft.to/lastmile_qr_scan", "ios": "https://dc.lft.to/lastmile_qr_scan"}, "is_disabled": 0, "fusion_lat": 0.0, "name": "5ee26850e61b2d791030eae7d96a82f7", "fusion_lon": 0.0}, {"is_reserved": 0, "type": "electric_scooter", "bike_id": "d6fb8968ccd9b1f7e0d35aad86c6f548", "lat": 38.88165133333333, "lon": -77.00059633333333, "rental_uris": {"android": "https://dc.lft.to/lastmile_qr_scan", "ios": "https://dc.lft.to/lastmile_qr_scan"}, "is_disabled": 0, "fusion_lat": 0.0, "name": "d6fb8968ccd9b1f7e0d35aad86c6f548", "fusion_lon": 0.0}, {"is_reserved": 0, "type": "electric_scooter", "bike_id": "a04cb28e11a8c7883ec0bb13a0b77311", "lat": 38.91678483333333, "lon": -77.03466766666666, "rental_uris": {"android": "https://dc.lft.to/lastmile_qr_scan", "ios": "https://dc.lft.to/lastmile_qr_scan"}, "is_disabled": 0, "fusion_lat": 0.0, "name": "a04cb28e11a8c7883ec0bb13a0b77311", "fusion_lon": 0.0}, {"is_reserved": 0, "type": "electric_scooter", "bike_id": "1c02c0588b00f7ee1f88d972f29a877d", "lat": 38.89590483333333, "lon": -76.92982933333333, "rental_uris": {"android": "https://dc.lft.to/lastmile_qr_scan", "ios": "https://dc.lft.to/lastmile_qr_scan"}, "is_disabled": 0, "fusion_lat": 0.0, "name": "1c02c0588b00f7ee1f88d972f29a877d", "fusion_lon": 0.0}, {"is_reserved": 0, "type": "electric_scooter", "bike_id": "5c8ef4026e08befdaa9b97ec0573907e", "lat": 38.89854533333333, "lon": -77.02191883333333, "rental_uris": {"android": "https://dc.lft.to/lastmile_qr_scan", "ios": "https://dc.lft.to/lastmile_qr_scan"}, "is_disabled": 0, "fusion_lat": 0.0, "name": "5c8ef4026e08befdaa9b97ec0573907e", "fusion_lon": 0.0}, {"is_reserved": 0, "type": "electric_scooter", "bike_id": "a048bd5e718c46a02ae086c97ee3bb83", "lat": 38.970029833333335, "lon": -77.00911983333333, "rental_uris": {"android": "https://dc.lft.to/lastmile_qr_scan", "ios": "https://dc.lft.to/lastmile_qr_scan"}, "is_disabled": 0, "fusion_lat": 0.0, "name": "a048bd5e718c46a02ae086c97ee3bb83", "fusion_lon": 0.0}, {"is_reserved": 0, "type": "electric_scooter", "bike_id": "6616586aae05c77063965d7e97c1bdad", "lat": 38.90555766666667, "lon": -77.03248516666666, "rental_uris": {"android": "https://dc.lft.to/lastmile_qr_scan", "ios": "https://dc.lft.to/lastmile_qr_scan"}, "is_disabled": 0, "fusion_lat": 0.0, "name": "6616586aae05c77063965d7e97c1bdad", "fusion_lon": 0.0}, {"is_reserved": 0, "type": "electric_scooter", "bike_id": "c2d152d979972f4e10fe4662fcfcad4d", "lat": 38.892201166666666, "lon": -77.02421, "rental_uris": {"android": "https://dc.lft.to/lastmile_qr_scan", "ios": "https://dc.lft.to/lastmile_qr_scan"}, "is_disabled": 0, "fusion_lat": 0.0, "name": "c2d152d979972f4e10fe4662fcfcad4d", "fusion_lon": 0.0}, {"is_reserved": 0, "type": "electric_scooter", "bike_id": "e232ac21592b29c11355024ee69904dd", "lat": 38.8765565, "lon": -77.0080815, "rental_uris": {"android": "https://dc.lft.to/lastmile_qr_scan", "ios": "https://dc.lft.to/lastmile_qr_scan"}, "is_disabled": 0, "fusion_lat": 0.0, "name": "e232ac21592b29c11355024ee69904dd", "fusion_lon": 0.0}, {"is_reserved": 0, "type": "electric_scooter", "bike_id": "58a4ee9c9e93fe33e6cb29d1fa6e4042", "lat": 38.89521833333333, "lon": -77.03957033333333, "rental_uris": {"android": "https://dc.lft.to/lastmile_qr_scan", "ios": "https://dc.lft.to/lastmile_qr_scan"}, "is_disabled": 0, "fusion_lat": 0.0, "name": "58a4ee9c9e93fe33e6cb29d1fa6e4042", "fusion_lon": 0.0}, {"is_reserved": 0, "type": "electric_scooter", "bike_id": "79fe1ae220fd6af19282536e6e9ad3d2", "lat": 38.90959266666667, "lon": -77.0227515, "rental_uris": {"android": "https://dc.lft.to/lastmile_qr_scan", "ios": "https://dc.lft.to/lastmile_qr_scan"}, "is_disabled": 0, "fusion_lat": 0.0, "name": "79fe1ae220fd6af19282536e6e9ad3d2", "fusion_lon": 0.0}, {"is_reserved": 0, "type": "electric_scooter", "bike_id": "33ad5de48fc2b86830d9bebf031b0ae1", "lat": 38.95748733333333, "lon": -77.02109883333334, "rental_uris": {"android": "https://dc.lft.to/lastmile_qr_scan", "ios": "https://dc.lft.to/lastmile_qr_scan"}, "is_disabled": 0, "fusion_lat": 0.0, "name": "33ad5de48fc2b86830d9bebf031b0ae1", "fusion_lon": 0.0}, {"is_reserved": 0, "type": "electric_scooter", "bike_id": "8a456745dcaf9b98cf345f438ef96c26", "lat": 38.923955166666666, "lon": -77.04455066666667, "rental_uris": {"android": "https://dc.lft.to/lastmile_qr_scan", "ios": "https://dc.lft.to/lastmile_qr_scan"}, "is_disabled": 0, "fusion_lat": 0.0, "name": "8a456745dcaf9b98cf345f438ef96c26", "fusion_lon": 0.0}, {"is_reserved": 0, "type": "electric_scooter", "bike_id": "c426ac2f16889cc2641d64bcb0522c12", "lat": 38.89841666666667, "lon": -77.03041366666666, "rental_uris": {"android": "https://dc.lft.to/lastmile_qr_scan", "ios": "https://dc.lft.to/lastmile_qr_scan"}, "is_disabled": 0, "fusion_lat": 0.0, "name": "c426ac2f16889cc2641d64bcb0522c12", "fusion_lon": 0.0}, {"is_reserved": 0, "type": "electric_scooter", "bike_id": "9ad0003d52a8a0c4209bf7267e932f94", "lat": 38.91399166666667, "lon": -77.0318395, "rental_uris": {"android": "https://dc.lft.to/lastmile_qr_scan", "ios": "https://dc.lft.to/lastmile_qr_scan"}, "is_disabled": 0, "fusion_lat": 0.0, "name": "9ad0003d52a8a0c4209bf7267e932f94", "fusion_lon": 0.0}, {"is_reserved": 0, "type": "electric_scooter", "bike_id": "3b036edd9d9200ff3e29482442b2ef42", "lat": 38.9319715, "lon": -77.02355933333334, "rental_uris": {"android": "https://dc.lft.to/lastmile_qr_scan", "ios": "https://dc.lft.to/lastmile_qr_scan"}, "is_disabled": 0, "fusion_lat": 0.0, "name": "3b036edd9d9200ff3e29482442b2ef42", "fusion_lon": 0.0}, {"is_reserved": 0, "type": "electric_scooter", "bike_id": "66c251cb7a40a16906125f607f1f0eb2", "lat": 38.923290333333334, "lon": -77.036748, "rental_uris": {"android": "https://dc.lft.to/lastmile_qr_scan", "ios": "https://dc.lft.to/lastmile_qr_scan"}, "is_disabled": 0, "fusion_lat": 0.0, "name": "66c251cb7a40a16906125f607f1f0eb2", "fusion_lon": 0.0}, {"is_reserved": 0, "type": "electric_scooter", "bike_id": "bab962eda8aab0d469a4142aef8634dd", "lat": 38.90729416666667, "lon": -76.93446216666666, "rental_uris": {"android": "https://dc.lft.to/lastmile_qr_scan", "ios": "https://dc.lft.to/lastmile_qr_scan"}, "is_disabled": 0, "fusion_lat": 0.0, "name": "bab962eda8aab0d469a4142aef8634dd", "fusion_lon": 0.0}, {"is_reserved": 0, "type": "electric_scooter", "bike_id": "c1aaeabfbabc31cafd1e22c325647c49", "lat": 38.91398616666667, "lon": -77.04678683333333, "rental_uris": {"android": "https://dc.lft.to/lastmile_qr_scan", "ios": "https://dc.lft.to/lastmile_qr_scan"}, "is_disabled": 0, "fusion_lat": 0.0, "name": "c1aaeabfbabc31cafd1e22c325647c49", "fusion_lon": 0.0}, {"is_reserved": 0, "type": "electric_scooter", "bike_id": "bd3d8c92ace8fd98fd0dca2e2468b4a1", "lat": 38.89938216666667, "lon": -76.9791345, "rental_uris": {"android": "https://dc.lft.to/lastmile_qr_scan", "ios": "https://dc.lft.to/lastmile_qr_scan"}, "is_disabled": 0, "fusion_lat": 0.0, "name": "bd3d8c92ace8fd98fd0dca2e2468b4a1", "fusion_lon": 0.0}, {"is_reserved": 0, "type": "electric_scooter", "bike_id": "c546a5d2d40e52b3366c0faf4881f2ed", "lat": 38.905574333333334, "lon": -77.00586566666666, "rental_uris": {"android": "https://dc.lft.to/lastmile_qr_scan", "ios": "https://dc.lft.to/lastmile_qr_scan"}, "is_disabled": 0, "fusion_lat": 0.0, "name": "c546a5d2d40e52b3366c0faf4881f2ed", "fusion_lon": 0.0}, {"is_reserved": 0, "type": "electric_scooter", "bike_id": "5a4d255c2d784a27070f7502e9d726bb", "lat": 38.933035333333336, "lon": -77.02134383333333, "rental_uris": {"android": "https://dc.lft.to/lastmile_qr_scan", "ios": "https://dc.lft.to/lastmile_qr_scan"}, "is_disabled": 0, "fusion_lat": 0.0, "name": "5a4d255c2d784a27070f7502e9d726bb", "fusion_lon": 0.0}, {"is_reserved": 0, "type": "electric_scooter", "bike_id": "1c6d96b76b02febbebc213423f1b42d3", "lat": 38.92762183333333, "lon": -77.03240166666667, "rental_uris": {"android": "https://dc.lft.to/lastmile_qr_scan", "ios": "https://dc.lft.to/lastmile_qr_scan"}, "is_disabled": 0, "fusion_lat": 0.0, "name": "1c6d96b76b02febbebc213423f1b42d3", "fusion_lon": 0.0}, {"is_reserved": 0, "type": "electric_bike", "bike_id": "e222e0cf3dcf4d25af6e3d8230897589", "lat": 38.85780583333333, "lon": -76.98762283333333, "rental_uris": {"android": "https://dc.lft.to/lastmile_qr_scan", "ios": "https://dc.lft.to/lastmile_qr_scan"}, "is_disabled": 0, "fusion_lat": 0.0, "name": "e222e0cf3dcf4d25af6e3d8230897589", "fusion_lon": 0.0}, {"is_reserved": 0, "type": "electric_scooter", "bike_id": "17e88bcd0079a6e4d4acf2085707a88c", "lat": 38.91578366666667, "lon": -76.98377833333333, "rental_uris": {"android": "https://dc.lft.to/lastmile_qr_scan", "ios": "https://dc.lft.to/lastmile_qr_scan"}, "is_disabled": 0, "fusion_lat": 0.0, "name": "17e88bcd0079a6e4d4acf2085707a88c", "fusion_lon": 0.0}, {"is_reserved": 0, "type": "electric_scooter", "bike_id": "c1a0762698ec18297e33b74b4d2b0189", "lat": 38.92091416666667, "lon": -77.02436966666667, "rental_uris": {"android": "https://dc.lft.to/lastmile_qr_scan", "ios": "https://dc.lft.to/lastmile_qr_scan"}, "is_disabled": 0, "fusion_lat": 0.0, "name": "c1a0762698ec18297e33b74b4d2b0189", "fusion_lon": 0.0}, {"is_reserved": 0, "type": "electric_scooter", "bike_id": "955275c7611d25ecd0245bf3fabad7ff", "lat": 38.89728783333333, "lon": -76.99511033333333, "rental_uris": {"android": "https://dc.lft.to/lastmile_qr_scan", "ios": "https://dc.lft.to/lastmile_qr_scan"}, "is_disabled": 0, "fusion_lat": 0.0, "name": "955275c7611d25ecd0245bf3fabad7ff", "fusion_lon": 0.0}, {"is_reserved": 0, "type": "electric_scooter", "bike_id": "6b9d4f5fa5d9c992bbe1ddb62920fd0e", "lat": 38.92121066666667, "lon": -77.0456545, "rental_uris": {"android": "https://dc.lft.to/lastmile_qr_scan", "ios": "https://dc.lft.to/lastmile_qr_scan"}, "is_disabled": 0, "fusion_lat": 0.0, "name": "6b9d4f5fa5d9c992bbe1ddb62920fd0e", "fusion_lon": 0.0}, {"is_reserved": 0, "type": "electric_scooter", "bike_id": "d837c35a131b5e843e9728eecf80a54e", "lat": 38.91479016666667, "lon": -77.00218116666667, "rental_uris": {"android": "https://dc.lft.to/lastmile_qr_scan", "ios": "https://dc.lft.to/lastmile_qr_scan"}, "is_disabled": 0, "fusion_lat": 0.0, "name": "d837c35a131b5e843e9728eecf80a54e", "fusion_lon": 0.0}, {"is_reserved": 0, "type": "electric_scooter", "bike_id": "6b5e89de1fc3052ef24cac36446facc6", "lat": 38.944505, "lon": -77.027973, "rental_uris": {"android": "https://dc.lft.to/lastmile_qr_scan", "ios": "https://dc.lft.to/lastmile_qr_scan"}, "is_disabled": 0, "fusion_lat": 0.0, "name": "6b5e89de1fc3052ef24cac36446facc6", "fusion_lon": 0.0}, {"is_reserved": 0, "type": "electric_scooter", "bike_id": "95254264cf39ce83e40ec5c3a1e4a7b6", "lat": 38.925084, "lon": -77.02288566666667, "rental_uris": {"android": "https://dc.lft.to/lastmile_qr_scan", "ios": "https://dc.lft.to/lastmile_qr_scan"}, "is_disabled": 0, "fusion_lat": 0.0, "name": "95254264cf39ce83e40ec5c3a1e4a7b6", "fusion_lon": 0.0}, {"is_reserved": 0, "type": "electric_scooter", "bike_id": "80c15e06808b53df8c406f5b9bf7c213", "lat": 38.892235, "lon": -77.04359216666667, "rental_uris": {"android": "https://dc.lft.to/lastmile_qr_scan", "ios": "https://dc.lft.to/lastmile_qr_scan"}, "is_disabled": 0, "fusion_lat": 0.0, "name": "80c15e06808b53df8c406f5b9bf7c213", "fusion_lon": 0.0}, {"is_reserved": 0, "type": "electric_scooter", "bike_id": "5b6b576d5fa876d7ec07fd08b39f13bc", "lat": 38.928959166666665, "lon": -77.02494433333334, "rental_uris": {"android": "https://dc.lft.to/lastmile_qr_scan", "ios": "https://dc.lft.to/lastmile_qr_scan"}, "is_disabled": 0, "fusion_lat": 0.0, "name": "5b6b576d5fa876d7ec07fd08b39f13bc", "fusion_lon": 0.0}, {"is_reserved": 0, "type": "electric_bike", "bike_id": "cc49336c0648e79c8e958aa53577d881", "lat": 38.83029466666667, "lon": -77.083823, "rental_uris": {"android": "https://dc.lft.to/lastmile_qr_scan", "ios": "https://dc.lft.to/lastmile_qr_scan"}, "is_disabled": 0, "fusion_lat": 0.0, "name": "cc49336c0648e79c8e958aa53577d881", "fusion_lon": 0.0}, {"is_reserved": 0, "type": "electric_scooter", "bike_id": "8ab59d24ffe7d6e330678df1bdf8a87d", "lat": 38.89838816666666, "lon": -77.02814616666667, "rental_uris": {"android": "https://dc.lft.to/lastmile_qr_scan", "ios": "https://dc.lft.to/lastmile_qr_scan"}, "is_disabled": 0, "fusion_lat": 0.0, "name": "8ab59d24ffe7d6e330678df1bdf8a87d", "fusion_lon": 0.0}, {"is_reserved": 0, "type": "electric_scooter", "bike_id": "95a028e51b21b5c32cdac9bb94043efa", "lat": 38.92435533333333, "lon": -77.034092, "rental_uris": {"android": "https://dc.lft.to/lastmile_qr_scan", "ios": "https://dc.lft.to/lastmile_qr_scan"}, "is_disabled": 0, "fusion_lat": 0.0, "name": "95a028e51b21b5c32cdac9bb94043efa", "fusion_lon": 0.0}, {"is_reserved": 0, "type": "electric_scooter", "bike_id": "24798047d4aae37b423f440b89e1f5bf", "lat": 38.884934666666666, "lon": -77.00719766666667, "rental_uris": {"android": "https://dc.lft.to/lastmile_qr_scan", "ios": "https://dc.lft.to/lastmile_qr_scan"}, "is_disabled": 0, "fusion_lat": 0.0, "name": "24798047d4aae37b423f440b89e1f5bf", "fusion_lon": 0.0}, {"is_reserved": 0, "type": "electric_scooter", "bike_id": "11c187be44c812569a3e19cd04c5445c", "lat": 38.912724, "lon": -77.03165666666666, "rental_uris": {"android": "https://dc.lft.to/lastmile_qr_scan", "ios": "https://dc.lft.to/lastmile_qr_scan"}, "is_disabled": 0, "fusion_lat": 0.0, "name": "11c187be44c812569a3e19cd04c5445c", "fusion_lon": 0.0}, {"is_reserved": 0, "type": "electric_scooter", "bike_id": "1655b082678ab6364748ab777aebaa5d", "lat": 38.92442966666667, "lon": -77.03400716666667, "rental_uris": {"android": "https://dc.lft.to/lastmile_qr_scan", "ios": "https://dc.lft.to/lastmile_qr_scan"}, "is_disabled": 0, "fusion_lat": 0.0, "name": "1655b082678ab6364748ab777aebaa5d", "fusion_lon": 0.0}, {"is_reserved": 0, "type": "electric_scooter", "bike_id": "37cbe3f59b463f47058645f73b008738", "lat": 38.903837, "lon": -77.01617983333334, "rental_uris": {"android": "https://dc.lft.to/lastmile_qr_scan", "ios": "https://dc.lft.to/lastmile_qr_scan"}, "is_disabled": 0, "fusion_lat": 0.0, "name": "37cbe3f59b463f47058645f73b008738", "fusion_lon": 0.0}, {"is_reserved": 0, "type": "electric_bike", "bike_id": "21afd6585184756f0849bcbce8fab085", "lat": 38.911265, "lon": -77.06569216666666, "rental_uris": {"android": "https://dc.lft.to/lastmile_qr_scan", "ios": "https://dc.lft.to/lastmile_qr_scan"}, "is_disabled": 0, "fusion_lat": 0.0, "name": "21afd6585184756f0849bcbce8fab085", "fusion_lon": 0.0}, {"is_reserved": 0, "type": "electric_scooter", "bike_id": "4757388ede7e38237e90e5beee11ea96", "lat": 38.9222395, "lon": -77.018104, "rental_uris": {"android": "https://dc.lft.to/lastmile_qr_scan", "ios": "https://dc.lft.to/lastmile_qr_scan"}, "is_disabled": 0, "fusion_lat": 0.0, "name": "4757388ede7e38237e90e5beee11ea96", "fusion_lon": 0.0}, {"is_reserved": 0, "type": "electric_scooter", "bike_id": "6a82325d588dfbf7b38b806ca3c587c7", "lat": 38.89224133333333, "lon": -77.0486785, "rental_uris": {"android": "https://dc.lft.to/lastmile_qr_scan", "ios": "https://dc.lft.to/lastmile_qr_scan"}, "is_disabled": 0, "fusion_lat": 0.0, "name": "6a82325d588dfbf7b38b806ca3c587c7", "fusion_lon": 0.0}, {"is_reserved": 0, "type": "electric_scooter", "bike_id": "79f59044b6b1783596d91db0891fcf12", "lat": 38.907332833333335, "lon": -77.0075305, "rental_uris": {"android": "https://dc.lft.to/lastmile_qr_scan", "ios": "https://dc.lft.to/lastmile_qr_scan"}, "is_disabled": 0, "fusion_lat": 0.0, "name": "79f59044b6b1783596d91db0891fcf12", "fusion_lon": 0.0}, {"is_reserved": 0, "type": "electric_scooter", "bike_id": "bf65c292b641afcfdfef7a4d7a6b1b48", "lat": 38.916440333333334, "lon": -77.03201, "rental_uris": {"android": "https://dc.lft.to/lastmile_qr_scan", "ios": "https://dc.lft.to/lastmile_qr_scan"}, "is_disabled": 0, "fusion_lat": 0.0, "name": "bf65c292b641afcfdfef7a4d7a6b1b48", "fusion_lon": 0.0}, {"is_reserved": 0, "type": "electric_scooter", "bike_id": "173a59508a933cb2d3d0104aca00531e", "lat": 38.9038445, "lon": -77.02185583333333, "rental_uris": {"android": "https://dc.lft.to/lastmile_qr_scan", "ios": "https://dc.lft.to/lastmile_qr_scan"}, "is_disabled": 0, "fusion_lat": 0.0, "name": "173a59508a933cb2d3d0104aca00531e", "fusion_lon": 0.0}, {"is_reserved": 0, "type": "electric_scooter", "bike_id": "c215837db0d3ad3bee7df00d77f9ae38", "lat": 38.907188166666664, "lon": -77.04814666666667, "rental_uris": {"android": "https://dc.lft.to/lastmile_qr_scan", "ios": "https://dc.lft.to/lastmile_qr_scan"}, "is_disabled": 0, "fusion_lat": 0.0, "name": "c215837db0d3ad3bee7df00d77f9ae38", "fusion_lon": 0.0}, {"is_reserved": 0, "type": "electric_scooter", "bike_id": "e3000972348d0ce713caeedd9dde2226", "lat": 38.92579, "lon": -76.99498666666666, "rental_uris": {"android": "https://dc.lft.to/lastmile_qr_scan", "ios": "https://dc.lft.to/lastmile_qr_scan"}, "is_disabled": 0, "fusion_lat": 0.0, "name": "e3000972348d0ce713caeedd9dde2226", "fusion_lon": 0.0}, {"is_reserved": 0, "type": "electric_scooter", "bike_id": "526f748e3f732e446fc27a9626b200e0", "lat": 38.8861665, "lon": -76.99653, "rental_uris": {"android": "https://dc.lft.to/lastmile_qr_scan", "ios": "https://dc.lft.to/lastmile_qr_scan"}, "is_disabled": 0, "fusion_lat": 0.0, "name": "526f748e3f732e446fc27a9626b200e0", "fusion_lon": 0.0}, {"is_reserved": 0, "type": "electric_scooter", "bike_id": "c05c71fd59410edb1761c4bb737b2da5", "lat": 38.91763983333333, "lon": -77.012105, "rental_uris": {"android": "https://dc.lft.to/lastmile_qr_scan", "ios": "https://dc.lft.to/lastmile_qr_scan"}, "is_disabled": 0, "fusion_lat": 0.0, "name": "c05c71fd59410edb1761c4bb737b2da5", "fusion_lon": 0.0}, {"is_reserved": 0, "type": "electric_scooter", "bike_id": "84516144d7642874d34787240d77983b", "lat": 38.915582666666666, "lon": -77.03097433333333, "rental_uris": {"android": "https://dc.lft.to/lastmile_qr_scan", "ios": "https://dc.lft.to/lastmile_qr_scan"}, "is_disabled": 0, "fusion_lat": 0.0, "name": "84516144d7642874d34787240d77983b", "fusion_lon": 0.0}, {"is_reserved": 0, "type": "electric_scooter", "bike_id": "43eab4dbcc2ae4f87f466d2717b14e5d", "lat": 38.928363, "lon": -77.00604066666666, "rental_uris": {"android": "https://dc.lft.to/lastmile_qr_scan", "ios": "https://dc.lft.to/lastmile_qr_scan"}, "is_disabled": 0, "fusion_lat": 0.0, "name": "43eab4dbcc2ae4f87f466d2717b14e5d", "fusion_lon": 0.0}, {"is_reserved": 0, "type": "electric_scooter", "bike_id": "d7735fcc3c9b1ea3bc687fb65c4b4051", "lat": 38.878476666666664, "lon": -77.001377, "rental_uris": {"android": "https://dc.lft.to/lastmile_qr_scan", "ios": "https://dc.lft.to/lastmile_qr_scan"}, "is_disabled": 0, "fusion_lat": 0.0, "name": "d7735fcc3c9b1ea3bc687fb65c4b4051", "fusion_lon": 0.0}, {"is_reserved": 0, "type": "electric_scooter", "bike_id": "7de072f77b409b3f812ce17528d599de", "lat": 38.89601116666667, "lon": -77.04404166666667, "rental_uris": {"android": "https://dc.lft.to/lastmile_qr_scan", "ios": "https://dc.lft.to/lastmile_qr_scan"}, "is_disabled": 0, "fusion_lat": 0.0, "name": "7de072f77b409b3f812ce17528d599de", "fusion_lon": 0.0}, {"is_reserved": 0, "type": "electric_scooter", "bike_id": "dc68e0ec66f7fd078ea35e6f58197905", "lat": 38.886079, "lon": -76.98820633333334, "rental_uris": {"android": "https://dc.lft.to/lastmile_qr_scan", "ios": "https://dc.lft.to/lastmile_qr_scan"}, "is_disabled": 0, "fusion_lat": 0.0, "name": "dc68e0ec66f7fd078ea35e6f58197905", "fusion_lon": 0.0}, {"is_reserved": 0, "type": "electric_scooter", "bike_id": "a3dffb824a3e708cc3db8808ae449e55", "lat": 38.924622166666666, "lon": -77.05229683333333, "rental_uris": {"android": "https://dc.lft.to/lastmile_qr_scan", "ios": "https://dc.lft.to/lastmile_qr_scan"}, "is_disabled": 0, "fusion_lat": 0.0, "name": "a3dffb824a3e708cc3db8808ae449e55", "fusion_lon": 0.0}, {"is_reserved": 0, "type": "electric_scooter", "bike_id": "4d3fa74fd6bd17d1285f70ad9aa5c15c", "lat": 38.92602866666667, "lon": -77.02153566666667, "rental_uris": {"android": "https://dc.lft.to/lastmile_qr_scan", "ios": "https://dc.lft.to/lastmile_qr_scan"}, "is_disabled": 0, "fusion_lat": 0.0, "name": "4d3fa74fd6bd17d1285f70ad9aa5c15c", "fusion_lon": 0.0}, {"is_reserved": 0, "type": "electric_scooter", "bike_id": "070d016e129abd223789138ceb347702", "lat": 38.905641333333335, "lon": -77.00706116666667, "rental_uris": {"android": "https://dc.lft.to/lastmile_qr_scan", "ios": "https://dc.lft.to/lastmile_qr_scan"}, "is_disabled": 0, "fusion_lat": 0.0, "name": "070d016e129abd223789138ceb347702", "fusion_lon": 0.0}, {"is_reserved": 0, "type": "electric_scooter", "bike_id": "c2abc5afa113c8366ee21627f0cadaad", "lat": 38.9140605, "lon": -77.022111, "rental_uris": {"android": "https://dc.lft.to/lastmile_qr_scan", "ios": "https://dc.lft.to/lastmile_qr_scan"}, "is_disabled": 0, "fusion_lat": 0.0, "name": "c2abc5afa113c8366ee21627f0cadaad", "fusion_lon": 0.0}, {"is_reserved": 0, "type": "electric_scooter", "bike_id": "3bc247b957e4249c9a4ade8b590d458f", "lat": 38.86216533333333, "lon": -76.97919516666667, "rental_uris": {"android": "https://dc.lft.to/lastmile_qr_scan", "ios": "https://dc.lft.to/lastmile_qr_scan"}, "is_disabled": 0, "fusion_lat": 0.0, "name": "3bc247b957e4249c9a4ade8b590d458f", "fusion_lon": 0.0}, {"is_reserved": 0, "type": "electric_scooter", "bike_id": "d9b8c7a99195375507b1cd13ef16abc7", "lat": 38.88443933333333, "lon": -76.95765733333333, "rental_uris": {"android": "https://dc.lft.to/lastmile_qr_scan", "ios": "https://dc.lft.to/lastmile_qr_scan"}, "is_disabled": 0, "fusion_lat": 0.0, "name": "d9b8c7a99195375507b1cd13ef16abc7", "fusion_lon": 0.0}, {"is_reserved": 0, "type": "electric_scooter", "bike_id": "e3b6357fa37efb2bb7c95090bb4e095b", "lat": 38.92140966666667, "lon": -77.0470555, "rental_uris": {"android": "https://dc.lft.to/lastmile_qr_scan", "ios": "https://dc.lft.to/lastmile_qr_scan"}, "is_disabled": 0, "fusion_lat": 0.0, "name": "e3b6357fa37efb2bb7c95090bb4e095b", "fusion_lon": 0.0}, {"is_reserved": 0, "type": "electric_scooter", "bike_id": "90a90c6a3cd086e609930be79301dc7d", "lat": 38.90696716666667, "lon": -76.98501333333333, "rental_uris": {"android": "https://dc.lft.to/lastmile_qr_scan", "ios": "https://dc.lft.to/lastmile_qr_scan"}, "is_disabled": 0, "fusion_lat": 0.0, "name": "90a90c6a3cd086e609930be79301dc7d", "fusion_lon": 0.0}, {"is_reserved": 0, "type": "electric_scooter", "bike_id": "6d1f543efe6f08b0226ceac2f0ee293b", "lat": 38.92120116666667, "lon": -77.01211566666667, "rental_uris": {"android": "https://dc.lft.to/lastmile_qr_scan", "ios": "https://dc.lft.to/lastmile_qr_scan"}, "is_disabled": 0, "fusion_lat": 0.0, "name": "6d1f543efe6f08b0226ceac2f0ee293b", "fusion_lon": 0.0}, {"is_reserved": 0, "type": "electric_bike", "bike_id": "2a33c0e30eb06027933ea91fe5cb9113", "lat": 38.943224, "lon": -76.99017833333333, "rental_uris": {"android": "https://dc.lft.to/lastmile_qr_scan", "ios": "https://dc.lft.to/lastmile_qr_scan"}, "is_disabled": 0, "fusion_lat": 0.0, "name": "2a33c0e30eb06027933ea91fe5cb9113", "fusion_lon": 0.0}, {"is_reserved": 0, "type": "electric_scooter", "bike_id": "6db24ee956bdec8890b45c92dfca90b4", "lat": 38.900431166666664, "lon": -77.04335783333333, "rental_uris": {"android": "https://dc.lft.to/lastmile_qr_scan", "ios": "https://dc.lft.to/lastmile_qr_scan"}, "is_disabled": 0, "fusion_lat": 0.0, "name": "6db24ee956bdec8890b45c92dfca90b4", "fusion_lon": 0.0}, {"is_reserved": 0, "type": "electric_bike", "bike_id": "fcd7bbd103f7b54b8d11bbd35ddbfb4f", "lat": 38.87211, "lon": -77.11736183333333, "rental_uris": {"android": "https://dc.lft.to/lastmile_qr_scan", "ios": "https://dc.lft.to/lastmile_qr_scan"}, "is_disabled": 0, "fusion_lat": 0.0, "name": "fcd7bbd103f7b54b8d11bbd35ddbfb4f", "fusion_lon": 0.0}, {"is_reserved": 0, "type": "electric_scooter", "bike_id": "bc4d1733393e2e703995cb8877b21da3", "lat": 38.91675083333333, "lon": -77.0298715, "rental_uris": {"android": "https://dc.lft.to/lastmile_qr_scan", "ios": "https://dc.lft.to/lastmile_qr_scan"}, "is_disabled": 0, "fusion_lat": 0.0, "name": "bc4d1733393e2e703995cb8877b21da3", "fusion_lon": 0.0}, {"is_reserved": 0, "type": "electric_bike", "bike_id": "775e1d86dc0366d08a02d3c398d37746", "lat": 38.85786983333333, "lon": -76.98748983333333, "rental_uris": {"android": "https://dc.lft.to/lastmile_qr_scan", "ios": "https://dc.lft.to/lastmile_qr_scan"}, "is_disabled": 0, "fusion_lat": 0.0, "name": "775e1d86dc0366d08a02d3c398d37746", "fusion_lon": 0.0}, {"is_reserved": 0, "type": "electric_bike", "bike_id": "a62235e32590c5a21be27165d93b8c4d", "lat": 38.806728, "lon": -77.08760016666666, "rental_uris": {"android": "https://dc.lft.to/lastmile_qr_scan", "ios": "https://dc.lft.to/lastmile_qr_scan"}, "is_disabled": 0, "fusion_lat": 0.0, "name": "a62235e32590c5a21be27165d93b8c4d", "fusion_lon": 0.0}, {"is_reserved": 0, "type": "electric_scooter", "bike_id": "04ce7879a2df2958efd756405558e371", "lat": 38.938927166666666, "lon": -77.01762816666667, "rental_uris": {"android": "https://dc.lft.to/lastmile_qr_scan", "ios": "https://dc.lft.to/lastmile_qr_scan"}, "is_disabled": 0, "fusion_lat": 0.0, "name": "04ce7879a2df2958efd756405558e371", "fusion_lon": 0.0}, {"is_reserved": 0, "type": "electric_bike", "bike_id": "a2a8e556b6466c7e1ae1cceed27657d9", "lat": 38.855969333333334, "lon": -76.97457216666666, "rental_uris": {"android": "https://dc.lft.to/lastmile_qr_scan", "ios": "https://dc.lft.to/lastmile_qr_scan"}, "is_disabled": 0, "fusion_lat": 0.0, "name": "a2a8e556b6466c7e1ae1cceed27657d9", "fusion_lon": 0.0}, {"is_reserved": 0, "type": "electric_scooter", "bike_id": "37d6b0ac0a12550dace0a8a6102e2e05", "lat": 38.9013835, "lon": -77.03658383333334, "rental_uris": {"android": "https://dc.lft.to/lastmile_qr_scan", "ios": "https://dc.lft.to/lastmile_qr_scan"}, "is_disabled": 0, "fusion_lat": 0.0, "name": "37d6b0ac0a12550dace0a8a6102e2e05", "fusion_lon": 0.0}, {"is_reserved": 0, "type": "electric_scooter", "bike_id": "9df38f7aeab059d2b07077c999a07952", "lat": 38.89862216666667, "lon": -76.97762866666666, "rental_uris": {"android": "https://dc.lft.to/lastmile_qr_scan", "ios": "https://dc.lft.to/lastmile_qr_scan"}, "is_disabled": 0, "fusion_lat": 0.0, "name": "9df38f7aeab059d2b07077c999a07952", "fusion_lon": 0.0}, {"is_reserved": 0, "type": "electric_scooter", "bike_id": "95f5dec0e0e209df7b3f405037460ff5", "lat": 38.9126665, "lon": -77.03876983333333, "rental_uris": {"android": "https://dc.lft.to/lastmile_qr_scan", "ios": "https://dc.lft.to/lastmile_qr_scan"}, "is_disabled": 0, "fusion_lat": 0.0, "name": "95f5dec0e0e209df7b3f405037460ff5", "fusion_lon": 0.0}, {"is_reserved": 0, "type": "electric_scooter", "bike_id": "0a2f892c30d799a9125bbf05a7c86de7", "lat": 38.914611666666666, "lon": -77.02290583333334, "rental_uris": {"android": "https://dc.lft.to/lastmile_qr_scan", "ios": "https://dc.lft.to/lastmile_qr_scan"}, "is_disabled": 0, "fusion_lat": 0.0, "name": "0a2f892c30d799a9125bbf05a7c86de7", "fusion_lon": 0.0}, {"is_reserved": 0, "type": "electric_scooter", "bike_id": "cb72047318f18b81ba410ecf8afbf58d", "lat": 38.91418616666667, "lon": -77.03146733333334, "rental_uris": {"android": "https://dc.lft.to/lastmile_qr_scan", "ios": "https://dc.lft.to/lastmile_qr_scan"}, "is_disabled": 0, "fusion_lat": 0.0, "name": "cb72047318f18b81ba410ecf8afbf58d", "fusion_lon": 0.0}, {"is_reserved": 0, "type": "electric_scooter", "bike_id": "74f3d40c7e961788e389d0ce855ff1b8", "lat": 38.905887, "lon": -77.03637516666667, "rental_uris": {"android": "https://dc.lft.to/lastmile_qr_scan", "ios": "https://dc.lft.to/lastmile_qr_scan"}, "is_disabled": 0, "fusion_lat": 0.0, "name": "74f3d40c7e961788e389d0ce855ff1b8", "fusion_lon": 0.0}, {"is_reserved": 0, "type": "electric_scooter", "bike_id": "70da8e544bd78a0fe3bded2a93bd77b0", "lat": 38.91855783333333, "lon": -77.03644083333333, "rental_uris": {"android": "https://dc.lft.to/lastmile_qr_scan", "ios": "https://dc.lft.to/lastmile_qr_scan"}, "is_disabled": 0, "fusion_lat": 0.0, "name": "70da8e544bd78a0fe3bded2a93bd77b0", "fusion_lon": 0.0}, {"is_reserved": 0, "type": "electric_scooter", "bike_id": "3f897a7103fcbe2f2e3ea649a2f737c6", "lat": 38.91729983333333, "lon": -77.03675216666667, "rental_uris": {"android": "https://dc.lft.to/lastmile_qr_scan", "ios": "https://dc.lft.to/lastmile_qr_scan"}, "is_disabled": 0, "fusion_lat": 0.0, "name": "3f897a7103fcbe2f2e3ea649a2f737c6", "fusion_lon": 0.0}, {"is_reserved": 0, "type": "electric_scooter", "bike_id": "1a0de20ca69f188d4b9e3524b66a97b4", "lat": 38.91961666666667, "lon": -77.01442433333334, "rental_uris": {"android": "https://dc.lft.to/lastmile_qr_scan", "ios": "https://dc.lft.to/lastmile_qr_scan"}, "is_disabled": 0, "fusion_lat": 0.0, "name": "1a0de20ca69f188d4b9e3524b66a97b4", "fusion_lon": 0.0}, {"is_reserved": 0, "type": "electric_scooter", "bike_id": "7f270c9aec0ab9ecc0a254a1fe4fb314", "lat": 38.94614383333333, "lon": -77.030599, "rental_uris": {"android": "https://dc.lft.to/lastmile_qr_scan", "ios": "https://dc.lft.to/lastmile_qr_scan"}, "is_disabled": 0, "fusion_lat": 0.0, "name": "7f270c9aec0ab9ecc0a254a1fe4fb314", "fusion_lon": 0.0}, {"is_reserved": 0, "type": "electric_scooter", "bike_id": "ccf492646a95458b3d70caa26083623a", "lat": 38.918416, "lon": -76.96554583333334, "rental_uris": {"android": "https://dc.lft.to/lastmile_qr_scan", "ios": "https://dc.lft.to/lastmile_qr_scan"}, "is_disabled": 0, "fusion_lat": 0.0, "name": "ccf492646a95458b3d70caa26083623a", "fusion_lon": 0.0}, {"is_reserved": 0, "type": "electric_scooter", "bike_id": "74ba0d9853bb6b2fd88dacd0f6469a5e", "lat": 38.919556, "lon": -77.01784466666666, "rental_uris": {"android": "https://dc.lft.to/lastmile_qr_scan", "ios": "https://dc.lft.to/lastmile_qr_scan"}, "is_disabled": 0, "fusion_lat": 0.0, "name": "74ba0d9853bb6b2fd88dacd0f6469a5e", "fusion_lon": 0.0}, {"is_reserved": 0, "type": "electric_scooter", "bike_id": "1817ca42c797de190c823a88cf6d4e40", "lat": 38.94977183333334, "lon": -77.024586, "rental_uris": {"android": "https://dc.lft.to/lastmile_qr_scan", "ios": "https://dc.lft.to/lastmile_qr_scan"}, "is_disabled": 0, "fusion_lat": 0.0, "name": "1817ca42c797de190c823a88cf6d4e40", "fusion_lon": 0.0}, {"is_reserved": 0, "type": "electric_scooter", "bike_id": "774c0e9f809281d7af4ce9e3e873214f", "lat": 38.89408516666667, "lon": -77.02329366666666, "rental_uris": {"android": "https://dc.lft.to/lastmile_qr_scan", "ios": "https://dc.lft.to/lastmile_qr_scan"}, "is_disabled": 0, "fusion_lat": 0.0, "name": "774c0e9f809281d7af4ce9e3e873214f", "fusion_lon": 0.0}, {"is_reserved": 0, "type": "electric_scooter", "bike_id": "b3e194231c9359f0b23096796895c735", "lat": 38.9023905, "lon": -77.05342483333334, "rental_uris": {"android": "https://dc.lft.to/lastmile_qr_scan", "ios": "https://dc.lft.to/lastmile_qr_scan"}, "is_disabled": 0, "fusion_lat": 0.0, "name": "b3e194231c9359f0b23096796895c735", "fusion_lon": 0.0}, {"is_reserved": 0, "type": "electric_scooter", "bike_id": "2f901c0896a92b4c3c4efc5e7f5aa170", "lat": 38.90810783333333, "lon": -77.03626733333333, "rental_uris": {"android": "https://dc.lft.to/lastmile_qr_scan", "ios": "https://dc.lft.to/lastmile_qr_scan"}, "is_disabled": 0, "fusion_lat": 0.0, "name": "2f901c0896a92b4c3c4efc5e7f5aa170", "fusion_lon": 0.0}, {"is_reserved": 0, "type": "electric_scooter", "bike_id": "e4ab279aada6034696c131f0bd960ba3", "lat": 38.91404716666667, "lon": -77.028368, "rental_uris": {"android": "https://dc.lft.to/lastmile_qr_scan", "ios": "https://dc.lft.to/lastmile_qr_scan"}, "is_disabled": 0, "fusion_lat": 0.0, "name": "e4ab279aada6034696c131f0bd960ba3", "fusion_lon": 0.0}, {"is_reserved": 0, "type": "electric_scooter", "bike_id": "5d1d843f3700ed258ed693dc369c60c2", "lat": 38.908334333333336, "lon": -76.98719266666667, "rental_uris": {"android": "https://dc.lft.to/lastmile_qr_scan", "ios": "https://dc.lft.to/lastmile_qr_scan"}, "is_disabled": 0, "fusion_lat": 0.0, "name": "5d1d843f3700ed258ed693dc369c60c2", "fusion_lon": 0.0}, {"is_reserved": 0, "type": "electric_bike", "bike_id": "326c1600760d1940ac518536a86254dc", "lat": 39.01074466666667, "lon": -76.91065833333333, "rental_uris": {"android": "https://dc.lft.to/lastmile_qr_scan", "ios": "https://dc.lft.to/lastmile_qr_scan"}, "is_disabled": 0, "fusion_lat": 0.0, "name": "326c1600760d1940ac518536a86254dc", "fusion_lon": 0.0}, {"is_reserved": 0, "type": "electric_scooter", "bike_id": "afbb7b7a927ea918a39712349c039626", "lat": 38.913004, "lon": -76.98475916666666, "rental_uris": {"android": "https://dc.lft.to/lastmile_qr_scan", "ios": "https://dc.lft.to/lastmile_qr_scan"}, "is_disabled": 0, "fusion_lat": 0.0, "name": "afbb7b7a927ea918a39712349c039626", "fusion_lon": 0.0}, {"is_reserved": 0, "type": "electric_scooter", "bike_id": "7b8b8b7186192b04c0f95f3c406e70f0", "lat": 38.90093316666667, "lon": -77.0222055, "rental_uris": {"android": "https://dc.lft.to/lastmile_qr_scan", "ios": "https://dc.lft.to/lastmile_qr_scan"}, "is_disabled": 0, "fusion_lat": 0.0, "name": "7b8b8b7186192b04c0f95f3c406e70f0", "fusion_lon": 0.0}, {"is_reserved": 0, "type": "electric_scooter", "bike_id": "1e138e700afc8d0621b1b0053e018cf3", "lat": 38.92691416666667, "lon": -77.029772, "rental_uris": {"android": "https://dc.lft.to/lastmile_qr_scan", "ios": "https://dc.lft.to/lastmile_qr_scan"}, "is_disabled": 0, "fusion_lat": 0.0, "name": "1e138e700afc8d0621b1b0053e018cf3", "fusion_lon": 0.0}, {"is_reserved": 0, "type": "electric_bike", "bike_id": "de2d769e1c8ab6b89dac756dc1dde431", "lat": 38.88287316666667, "lon": -76.93240033333333, "rental_uris": {"android": "https://dc.lft.to/lastmile_qr_scan", "ios": "https://dc.lft.to/lastmile_qr_scan"}, "is_disabled": 0, "fusion_lat": 0.0, "name": "de2d769e1c8ab6b89dac756dc1dde431", "fusion_lon": 0.0}, {"is_reserved": 0, "type": "electric_scooter", "bike_id": "bc56ab4e2473576b3b4639d5d3c7b550", "lat": 38.88598833333333, "lon": -77.004092, "rental_uris": {"android": "https://dc.lft.to/lastmile_qr_scan", "ios": "https://dc.lft.to/lastmile_qr_scan"}, "is_disabled": 0, "fusion_lat": 0.0, "name": "bc56ab4e2473576b3b4639d5d3c7b550", "fusion_lon": 0.0}, {"is_reserved": 0, "type": "electric_scooter", "bike_id": "ce0b3348cbfeacc03e8ab07c9cb7086b", "lat": 38.91561216666667, "lon": -77.03667933333334, "rental_uris": {"android": "https://dc.lft.to/lastmile_qr_scan", "ios": "https://dc.lft.to/lastmile_qr_scan"}, "is_disabled": 0, "fusion_lat": 0.0, "name": "ce0b3348cbfeacc03e8ab07c9cb7086b", "fusion_lon": 0.0}, {"is_reserved": 0, "type": "electric_bike", "bike_id": "c5a46a2536bb2a03f98f80c4cb727f16", "lat": 38.93598, "lon": -77.03143716666666, "rental_uris": {"android": "https://dc.lft.to/lastmile_qr_scan", "ios": "https://dc.lft.to/lastmile_qr_scan"}, "is_disabled": 0, "fusion_lat": 0.0, "name": "c5a46a2536bb2a03f98f80c4cb727f16", "fusion_lon": 0.0}, {"is_reserved": 0, "type": "electric_scooter", "bike_id": "90cb078f808acd0c09293515618f973b", "lat": 38.92696483333334, "lon": -77.02417283333334, "rental_uris": {"android": "https://dc.lft.to/lastmile_qr_scan", "ios": "https://dc.lft.to/lastmile_qr_scan"}, "is_disabled": 0, "fusion_lat": 0.0, "name": "90cb078f808acd0c09293515618f973b", "fusion_lon": 0.0}, {"is_reserved": 0, "type": "electric_scooter", "bike_id": "563cb51668af890e8152aa097fa6ef02", "lat": 38.87340366666667, "lon": -76.99169216666667, "rental_uris": {"android": "https://dc.lft.to/lastmile_qr_scan", "ios": "https://dc.lft.to/lastmile_qr_scan"}, "is_disabled": 0, "fusion_lat": 0.0, "name": "563cb51668af890e8152aa097fa6ef02", "fusion_lon": 0.0}, {"is_reserved": 0, "type": "electric_scooter", "bike_id": "452ad5fdb6375229ff6dabacec098c35", "lat": 38.91885933333333, "lon": -77.03466583333334, "rental_uris": {"android": "https://dc.lft.to/lastmile_qr_scan", "ios": "https://dc.lft.to/lastmile_qr_scan"}, "is_disabled": 0, "fusion_lat": 0.0, "name": "452ad5fdb6375229ff6dabacec098c35", "fusion_lon": 0.0}, {"is_reserved": 0, "type": "electric_scooter", "bike_id": "8879927f04f6d00ac4a1025e4cdc8546", "lat": 38.8942915, "lon": -77.02087916666666, "rental_uris": {"android": "https://dc.lft.to/lastmile_qr_scan", "ios": "https://dc.lft.to/lastmile_qr_scan"}, "is_disabled": 0, "fusion_lat": 0.0, "name": "8879927f04f6d00ac4a1025e4cdc8546", "fusion_lon": 0.0}, {"is_reserved": 0, "type": "electric_scooter", "bike_id": "8493209e41d5f002417419329e525db7", "lat": 38.90078233333333, "lon": -77.01354916666666, "rental_uris": {"android": "https://dc.lft.to/lastmile_qr_scan", "ios": "https://dc.lft.to/lastmile_qr_scan"}, "is_disabled": 0, "fusion_lat": 0.0, "name": "8493209e41d5f002417419329e525db7", "fusion_lon": 0.0}, {"is_reserved": 0, "type": "electric_scooter", "bike_id": "c52b9808dc44903ce7d2ac547c273e3a", "lat": 38.90046733333333, "lon": -77.0293965, "rental_uris": {"android": "https://dc.lft.to/lastmile_qr_scan", "ios": "https://dc.lft.to/lastmile_qr_scan"}, "is_disabled": 0, "fusion_lat": 0.0, "name": "c52b9808dc44903ce7d2ac547c273e3a", "fusion_lon": 0.0}, {"is_reserved": 0, "type": "electric_scooter", "bike_id": "2d593ea51034fac8dadd7cf14f1d42e2", "lat": 38.89230466666667, "lon": -77.04998433333333, "rental_uris": {"android": "https://dc.lft.to/lastmile_qr_scan", "ios": "https://dc.lft.to/lastmile_qr_scan"}, "is_disabled": 0, "fusion_lat": 0.0, "name": "2d593ea51034fac8dadd7cf14f1d42e2", "fusion_lon": 0.0}, {"is_reserved": 0, "type": "electric_scooter", "bike_id": "0e7e118960ff2d3ea91cc0792c09c815", "lat": 38.89238983333333, "lon": -77.0489765, "rental_uris": {"android": "https://dc.lft.to/lastmile_qr_scan", "ios": "https://dc.lft.to/lastmile_qr_scan"}, "is_disabled": 0, "fusion_lat": 0.0, "name": "0e7e118960ff2d3ea91cc0792c09c815", "fusion_lon": 0.0}, {"is_reserved": 0, "type": "electric_scooter", "bike_id": "70fd2b2ef35b91de857b0983f5bc7a96", "lat": 38.924184, "lon": -77.01940666666667, "rental_uris": {"android": "https://dc.lft.to/lastmile_qr_scan", "ios": "https://dc.lft.to/lastmile_qr_scan"}, "is_disabled": 0, "fusion_lat": 0.0, "name": "70fd2b2ef35b91de857b0983f5bc7a96", "fusion_lon": 0.0}, {"is_reserved": 0, "type": "electric_scooter", "bike_id": "7fafb794d1f1a50dbaf6c6a6825be60b", "lat": 38.9385805, "lon": -77.07583783333334, "rental_uris": {"android": "https://dc.lft.to/lastmile_qr_scan", "ios": "https://dc.lft.to/lastmile_qr_scan"}, "is_disabled": 0, "fusion_lat": 0.0, "name": "7fafb794d1f1a50dbaf6c6a6825be60b", "fusion_lon": 0.0}, {"is_reserved": 0, "type": "electric_scooter", "bike_id": "ebb0e4039bbe53161610571081e3ac93", "lat": 38.883514166666664, "lon": -77.01999083333334, "rental_uris": {"android": "https://dc.lft.to/lastmile_qr_scan", "ios": "https://dc.lft.to/lastmile_qr_scan"}, "is_disabled": 0, "fusion_lat": 0.0, "name": "ebb0e4039bbe53161610571081e3ac93", "fusion_lon": 0.0}, {"is_reserved": 0, "type": "electric_scooter", "bike_id": "f76b4af63f7e045d4fc0da0f4ba904e3", "lat": 38.94030983333333, "lon": -77.025011, "rental_uris": {"android": "https://dc.lft.to/lastmile_qr_scan", "ios": "https://dc.lft.to/lastmile_qr_scan"}, "is_disabled": 0, "fusion_lat": 0.0, "name": "f76b4af63f7e045d4fc0da0f4ba904e3", "fusion_lon": 0.0}, {"is_reserved": 0, "type": "electric_scooter", "bike_id": "6cac09fb20e71aa90f22b9bc34610720", "lat": 38.935388333333336, "lon": -77.0728005, "rental_uris": {"android": "https://dc.lft.to/lastmile_qr_scan", "ios": "https://dc.lft.to/lastmile_qr_scan"}, "is_disabled": 0, "fusion_lat": 0.0, "name": "6cac09fb20e71aa90f22b9bc34610720", "fusion_lon": 0.0}, {"is_reserved": 0, "type": "electric_scooter", "bike_id": "3b384bcc209cc7d7850a195faae9a962", "lat": 38.91709316666667, "lon": -77.02670616666667, "rental_uris": {"android": "https://dc.lft.to/lastmile_qr_scan", "ios": "https://dc.lft.to/lastmile_qr_scan"}, "is_disabled": 0, "fusion_lat": 0.0, "name": "3b384bcc209cc7d7850a195faae9a962", "fusion_lon": 0.0}, {"is_reserved": 0, "type": "electric_scooter", "bike_id": "7545e4e58e10dc27f1ebc352fde67ab3", "lat": 38.90503616666667, "lon": -77.02946733333333, "rental_uris": {"android": "https://dc.lft.to/lastmile_qr_scan", "ios": "https://dc.lft.to/lastmile_qr_scan"}, "is_disabled": 0, "fusion_lat": 0.0, "name": "7545e4e58e10dc27f1ebc352fde67ab3", "fusion_lon": 0.0}, {"is_reserved": 0, "type": "electric_scooter", "bike_id": "54a7757eca6ee96c5f264c886e18852a", "lat": 38.90238, "lon": -77.03953516666667, "rental_uris": {"android": "https://dc.lft.to/lastmile_qr_scan", "ios": "https://dc.lft.to/lastmile_qr_scan"}, "is_disabled": 0, "fusion_lat": 0.0, "name": "54a7757eca6ee96c5f264c886e18852a", "fusion_lon": 0.0}, {"is_reserved": 0, "type": "electric_scooter", "bike_id": "7bc040af75743b651d2a32d896d42d38", "lat": 38.895452166666665, "lon": -76.98335033333333, "rental_uris": {"android": "https://dc.lft.to/lastmile_qr_scan", "ios": "https://dc.lft.to/lastmile_qr_scan"}, "is_disabled": 0, "fusion_lat": 0.0, "name": "7bc040af75743b651d2a32d896d42d38", "fusion_lon": 0.0}, {"is_reserved": 0, "type": "electric_scooter", "bike_id": "b8bab11a7b82757c9b0eb365878740a8", "lat": 38.89886283333333, "lon": -76.98835983333333, "rental_uris": {"android": "https://dc.lft.to/lastmile_qr_scan", "ios": "https://dc.lft.to/lastmile_qr_scan"}, "is_disabled": 0, "fusion_lat": 0.0, "name": "b8bab11a7b82757c9b0eb365878740a8", "fusion_lon": 0.0}, {"is_reserved": 0, "type": "electric_scooter", "bike_id": "5ede7dec8ac10ebb78490c2a0f56d3ce", "lat": 38.91497666666667, "lon": -77.0122555, "rental_uris": {"android": "https://dc.lft.to/lastmile_qr_scan", "ios": "https://dc.lft.to/lastmile_qr_scan"}, "is_disabled": 0, "fusion_lat": 0.0, "name": "5ede7dec8ac10ebb78490c2a0f56d3ce", "fusion_lon": 0.0}, {"is_reserved": 0, "type": "electric_scooter", "bike_id": "9a48bb2fb534eef8aad4f3471f10a1c6", "lat": 38.916307, "lon": -77.02813733333333, "rental_uris": {"android": "https://dc.lft.to/lastmile_qr_scan", "ios": "https://dc.lft.to/lastmile_qr_scan"}, "is_disabled": 0, "fusion_lat": 0.0, "name": "9a48bb2fb534eef8aad4f3471f10a1c6", "fusion_lon": 0.0}, {"is_reserved": 0, "type": "electric_scooter", "bike_id": "78079ef2de35cf6178cc8093a4cdc1df", "lat": 38.92128433333333, "lon": -77.01796283333333, "rental_uris": {"android": "https://dc.lft.to/lastmile_qr_scan", "ios": "https://dc.lft.to/lastmile_qr_scan"}, "is_disabled": 0, "fusion_lat": 0.0, "name": "78079ef2de35cf6178cc8093a4cdc1df", "fusion_lon": 0.0}, {"is_reserved": 0, "type": "electric_scooter", "bike_id": "ce4485d41657e8aca3ed84faf45b0b25", "lat": 38.911157, "lon": -77.01787833333333, "rental_uris": {"android": "https://dc.lft.to/lastmile_qr_scan", "ios": "https://dc.lft.to/lastmile_qr_scan"}, "is_disabled": 0, "fusion_lat": 0.0, "name": "ce4485d41657e8aca3ed84faf45b0b25", "fusion_lon": 0.0}, {"is_reserved": 0, "type": "electric_scooter", "bike_id": "bd8e1aa5557d8e56adbdbd3a218cf089", "lat": 38.905902, "lon": -77.01616116666666, "rental_uris": {"android": "https://dc.lft.to/lastmile_qr_scan", "ios": "https://dc.lft.to/lastmile_qr_scan"}, "is_disabled": 0, "fusion_lat": 0.0, "name": "bd8e1aa5557d8e56adbdbd3a218cf089", "fusion_lon": 0.0}, {"is_reserved": 0, "type": "electric_scooter", "bike_id": "1cc191463de66a092d8b5f38220816a4", "lat": 38.8922465, "lon": -77.04358183333333, "rental_uris": {"android": "https://dc.lft.to/lastmile_qr_scan", "ios": "https://dc.lft.to/lastmile_qr_scan"}, "is_disabled": 0, "fusion_lat": 0.0, "name": "1cc191463de66a092d8b5f38220816a4", "fusion_lon": 0.0}, {"is_reserved": 0, "type": "electric_scooter", "bike_id": "f932d1b04712327f945f95b919c7e9bb", "lat": 38.916601, "lon": -77.02698483333333, "rental_uris": {"android": "https://dc.lft.to/lastmile_qr_scan", "ios": "https://dc.lft.to/lastmile_qr_scan"}, "is_disabled": 0, "fusion_lat": 0.0, "name": "f932d1b04712327f945f95b919c7e9bb", "fusion_lon": 0.0}, {"is_reserved": 0, "type": "electric_scooter", "bike_id": "57bc725b194c8e3fa991017f0dc2160c", "lat": 38.911968333333334, "lon": -77.01195433333334, "rental_uris": {"android": "https://dc.lft.to/lastmile_qr_scan", "ios": "https://dc.lft.to/lastmile_qr_scan"}, "is_disabled": 0, "fusion_lat": 0.0, "name": "57bc725b194c8e3fa991017f0dc2160c", "fusion_lon": 0.0}, {"is_reserved": 0, "type": "electric_scooter", "bike_id": "9344ccb1aa6b1aae7a7fb9d2d6428730", "lat": 38.9040235, "lon": -77.06768766666667, "rental_uris": {"android": "https://dc.lft.to/lastmile_qr_scan", "ios": "https://dc.lft.to/lastmile_qr_scan"}, "is_disabled": 0, "fusion_lat": 0.0, "name": "9344ccb1aa6b1aae7a7fb9d2d6428730", "fusion_lon": 0.0}, {"is_reserved": 0, "type": "electric_scooter", "bike_id": "37fd6d55ad5f67d4bc46bd1ee10cd910", "lat": 38.92922216666667, "lon": -76.99817033333333, "rental_uris": {"android": "https://dc.lft.to/lastmile_qr_scan", "ios": "https://dc.lft.to/lastmile_qr_scan"}, "is_disabled": 0, "fusion_lat": 0.0, "name": "37fd6d55ad5f67d4bc46bd1ee10cd910", "fusion_lon": 0.0}, {"is_reserved": 0, "type": "electric_scooter", "bike_id": "37f00f4acd78e21742cdabd39f608645", "lat": 38.911733, "lon": -77.01975083333333, "rental_uris": {"android": "https://dc.lft.to/lastmile_qr_scan", "ios": "https://dc.lft.to/lastmile_qr_scan"}, "is_disabled": 0, "fusion_lat": 0.0, "name": "37f00f4acd78e21742cdabd39f608645", "fusion_lon": 0.0}, {"is_reserved": 0, "type": "electric_scooter", "bike_id": "882572543b2503b95f19180ca2452da1", "lat": 38.921403833333336, "lon": -77.0180315, "rental_uris": {"android": "https://dc.lft.to/lastmile_qr_scan", "ios": "https://dc.lft.to/lastmile_qr_scan"}, "is_disabled": 0, "fusion_lat": 0.0, "name": "882572543b2503b95f19180ca2452da1", "fusion_lon": 0.0}, {"is_reserved": 0, "type": "electric_scooter", "bike_id": "fb986b8c9687fbacdf84569442dedd61", "lat": 38.91458516666667, "lon": -77.02168633333334, "rental_uris": {"android": "https://dc.lft.to/lastmile_qr_scan", "ios": "https://dc.lft.to/lastmile_qr_scan"}, "is_disabled": 0, "fusion_lat": 0.0, "name": "fb986b8c9687fbacdf84569442dedd61", "fusion_lon": 0.0}, {"is_reserved": 0, "type": "electric_scooter", "bike_id": "cda1aeb4c3d30a6884f7a05b6e312c3c", "lat": 38.92020616666667, "lon": -77.03120633333333, "rental_uris": {"android": "https://dc.lft.to/lastmile_qr_scan", "ios": "https://dc.lft.to/lastmile_qr_scan"}, "is_disabled": 0, "fusion_lat": 0.0, "name": "cda1aeb4c3d30a6884f7a05b6e312c3c", "fusion_lon": 0.0}, {"is_reserved": 0, "type": "electric_scooter", "bike_id": "cfff373dd92e6cf4966dfde39fc1256a", "lat": 38.89608116666667, "lon": -77.0052565, "rental_uris": {"android": "https://dc.lft.to/lastmile_qr_scan", "ios": "https://dc.lft.to/lastmile_qr_scan"}, "is_disabled": 0, "fusion_lat": 0.0, "name": "cfff373dd92e6cf4966dfde39fc1256a", "fusion_lon": 0.0}, {"is_reserved": 0, "type": "electric_scooter", "bike_id": "80c7d266d12a0ca9b61006ce66062efb", "lat": 38.91622366666667, "lon": -77.0396795, "rental_uris": {"android": "https://dc.lft.to/lastmile_qr_scan", "ios": "https://dc.lft.to/lastmile_qr_scan"}, "is_disabled": 0, "fusion_lat": 0.0, "name": "80c7d266d12a0ca9b61006ce66062efb", "fusion_lon": 0.0}, {"is_reserved": 0, "type": "electric_scooter", "bike_id": "b958afc4923139fa712af267db43353f", "lat": 38.930300333333335, "lon": -77.083138, "rental_uris": {"android": "https://dc.lft.to/lastmile_qr_scan", "ios": "https://dc.lft.to/lastmile_qr_scan"}, "is_disabled": 0, "fusion_lat": 0.0, "name": "b958afc4923139fa712af267db43353f", "fusion_lon": 0.0}, {"is_reserved": 0, "type": "electric_scooter", "bike_id": "a5d83f1fbb103e9a0683c56fe47e50a8", "lat": 38.97499533333333, "lon": -77.0169625, "rental_uris": {"android": "https://dc.lft.to/lastmile_qr_scan", "ios": "https://dc.lft.to/lastmile_qr_scan"}, "is_disabled": 0, "fusion_lat": 0.0, "name": "a5d83f1fbb103e9a0683c56fe47e50a8", "fusion_lon": 0.0}, {"is_reserved": 0, "type": "electric_scooter", "bike_id": "01f39a752fa0301bed59fdeb7c2df54b", "lat": 38.91562833333333, "lon": -77.036684, "rental_uris": {"android": "https://dc.lft.to/lastmile_qr_scan", "ios": "https://dc.lft.to/lastmile_qr_scan"}, "is_disabled": 0, "fusion_lat": 0.0, "name": "01f39a752fa0301bed59fdeb7c2df54b", "fusion_lon": 0.0}, {"is_reserved": 0, "type": "electric_scooter", "bike_id": "d2bb1a8d24c0a528e0dbb8e42eff1df7", "lat": 38.9126125, "lon": -77.01885816666666, "rental_uris": {"android": "https://dc.lft.to/lastmile_qr_scan", "ios": "https://dc.lft.to/lastmile_qr_scan"}, "is_disabled": 0, "fusion_lat": 0.0, "name": "d2bb1a8d24c0a528e0dbb8e42eff1df7", "fusion_lon": 0.0}, {"is_reserved": 0, "type": "electric_scooter", "bike_id": "f01523875c40243eaf8355eed5ce0696", "lat": 38.9363295, "lon": -77.06480766666667, "rental_uris": {"android": "https://dc.lft.to/lastmile_qr_scan", "ios": "https://dc.lft.to/lastmile_qr_scan"}, "is_disabled": 0, "fusion_lat": 0.0, "name": "f01523875c40243eaf8355eed5ce0696", "fusion_lon": 0.0}, {"is_reserved": 0, "type": "electric_scooter", "bike_id": "b8a5bb22c41fa7324eccdfbb9433ba97", "lat": 38.89824616666667, "lon": -77.04833733333334, "rental_uris": {"android": "https://dc.lft.to/lastmile_qr_scan", "ios": "https://dc.lft.to/lastmile_qr_scan"}, "is_disabled": 0, "fusion_lat": 0.0, "name": "b8a5bb22c41fa7324eccdfbb9433ba97", "fusion_lon": 0.0}, {"is_reserved": 0, "type": "electric_scooter", "bike_id": "ff0e6ce8c9dca9f4f19eaadee333e484", "lat": 38.90265183333333, "lon": -77.003226, "rental_uris": {"android": "https://dc.lft.to/lastmile_qr_scan", "ios": "https://dc.lft.to/lastmile_qr_scan"}, "is_disabled": 0, "fusion_lat": 0.0, "name": "ff0e6ce8c9dca9f4f19eaadee333e484", "fusion_lon": 0.0}, {"is_reserved": 0, "type": "electric_scooter", "bike_id": "645f511220c7a42fa7975ea7e7d81ff0", "lat": 38.89926333333333, "lon": -76.94581316666667, "rental_uris": {"android": "https://dc.lft.to/lastmile_qr_scan", "ios": "https://dc.lft.to/lastmile_qr_scan"}, "is_disabled": 0, "fusion_lat": 0.0, "name": "645f511220c7a42fa7975ea7e7d81ff0", "fusion_lon": 0.0}, {"is_reserved": 0, "type": "electric_scooter", "bike_id": "d222f80ab6ff17e9a76feaaef97b8d21", "lat": 38.927539833333334, "lon": -77.0327515, "rental_uris": {"android": "https://dc.lft.to/lastmile_qr_scan", "ios": "https://dc.lft.to/lastmile_qr_scan"}, "is_disabled": 0, "fusion_lat": 0.0, "name": "d222f80ab6ff17e9a76feaaef97b8d21", "fusion_lon": 0.0}, {"is_reserved": 0, "type": "electric_scooter", "bike_id": "59e28b07bd5c81b728d0af3e13a60746", "lat": 38.918004, "lon": -77.031887, "rental_uris": {"android": "https://dc.lft.to/lastmile_qr_scan", "ios": "https://dc.lft.to/lastmile_qr_scan"}, "is_disabled": 0, "fusion_lat": 0.0, "name": "59e28b07bd5c81b728d0af3e13a60746", "fusion_lon": 0.0}, {"is_reserved": 0, "type": "electric_scooter", "bike_id": "7b83a98dc82094c8a1cd6d56bb80b3de", "lat": 38.916501, "lon": -77.02181333333333, "rental_uris": {"android": "https://dc.lft.to/lastmile_qr_scan", "ios": "https://dc.lft.to/lastmile_qr_scan"}, "is_disabled": 0, "fusion_lat": 0.0, "name": "7b83a98dc82094c8a1cd6d56bb80b3de", "fusion_lon": 0.0}, {"is_reserved": 0, "type": "electric_scooter", "bike_id": "828b405c9e9b09f6d9db9d353340f9f0", "lat": 38.9044525, "lon": -77.058636, "rental_uris": {"android": "https://dc.lft.to/lastmile_qr_scan", "ios": "https://dc.lft.to/lastmile_qr_scan"}, "is_disabled": 0, "fusion_lat": 0.0, "name": "828b405c9e9b09f6d9db9d353340f9f0", "fusion_lon": 0.0}, {"is_reserved": 0, "type": "electric_scooter", "bike_id": "e07a256ab84c96ef1b441573a24c01c1", "lat": 38.923129, "lon": -77.02896916666667, "rental_uris": {"android": "https://dc.lft.to/lastmile_qr_scan", "ios": "https://dc.lft.to/lastmile_qr_scan"}, "is_disabled": 0, "fusion_lat": 0.0, "name": "e07a256ab84c96ef1b441573a24c01c1", "fusion_lon": 0.0}, {"is_reserved": 0, "type": "electric_scooter", "bike_id": "12e8bb29204e215c1a78e8e0e75d6f1b", "lat": 38.9401, "lon": -77.02737016666667, "rental_uris": {"android": "https://dc.lft.to/lastmile_qr_scan", "ios": "https://dc.lft.to/lastmile_qr_scan"}, "is_disabled": 0, "fusion_lat": 0.0, "name": "12e8bb29204e215c1a78e8e0e75d6f1b", "fusion_lon": 0.0}, {"is_reserved": 0, "type": "electric_scooter", "bike_id": "9ad5b1a9045cec0ff3f815ede2b64410", "lat": 38.92056383333333, "lon": -76.99887833333334, "rental_uris": {"android": "https://dc.lft.to/lastmile_qr_scan", "ios": "https://dc.lft.to/lastmile_qr_scan"}, "is_disabled": 0, "fusion_lat": 0.0, "name": "9ad5b1a9045cec0ff3f815ede2b64410", "fusion_lon": 0.0}, {"is_reserved": 0, "type": "electric_scooter", "bike_id": "42625ed4e422c6f775d88df106b68a21", "lat": 38.905446833333336, "lon": -77.00551133333333, "rental_uris": {"android": "https://dc.lft.to/lastmile_qr_scan", "ios": "https://dc.lft.to/lastmile_qr_scan"}, "is_disabled": 0, "fusion_lat": 0.0, "name": "42625ed4e422c6f775d88df106b68a21", "fusion_lon": 0.0}, {"is_reserved": 0, "type": "electric_scooter", "bike_id": "9f561406bd5acd991b73b6ce9c30d5a4", "lat": 38.919666, "lon": -77.04369066666666, "rental_uris": {"android": "https://dc.lft.to/lastmile_qr_scan", "ios": "https://dc.lft.to/lastmile_qr_scan"}, "is_disabled": 0, "fusion_lat": 0.0, "name": "9f561406bd5acd991b73b6ce9c30d5a4", "fusion_lon": 0.0}, {"is_reserved": 0, "type": "electric_scooter", "bike_id": "7deb483aae822a9f71d279cfc21acef7", "lat": 38.936609833333335, "lon": -77.02144933333334, "rental_uris": {"android": "https://dc.lft.to/lastmile_qr_scan", "ios": "https://dc.lft.to/lastmile_qr_scan"}, "is_disabled": 0, "fusion_lat": 0.0, "name": "7deb483aae822a9f71d279cfc21acef7", "fusion_lon": 0.0}, {"is_reserved": 0, "type": "electric_scooter", "bike_id": "8d82fb76bf8a0d9053dd617da07537cf", "lat": 38.91941966666667, "lon": -77.01881816666666, "rental_uris": {"android": "https://dc.lft.to/lastmile_qr_scan", "ios": "https://dc.lft.to/lastmile_qr_scan"}, "is_disabled": 0, "fusion_lat": 0.0, "name": "8d82fb76bf8a0d9053dd617da07537cf", "fusion_lon": 0.0}, {"is_reserved": 0, "type": "electric_scooter", "bike_id": "11d322b93072ad8a148cfb2dd00cc413", "lat": 38.91664183333334, "lon": -77.0246865, "rental_uris": {"android": "https://dc.lft.to/lastmile_qr_scan", "ios": "https://dc.lft.to/lastmile_qr_scan"}, "is_disabled": 0, "fusion_lat": 0.0, "name": "11d322b93072ad8a148cfb2dd00cc413", "fusion_lon": 0.0}, {"is_reserved": 0, "type": "electric_scooter", "bike_id": "e2258b904a8c76d3e4bd5960f39195bd", "lat": 38.89227016666667, "lon": -77.04996383333334, "rental_uris": {"android": "https://dc.lft.to/lastmile_qr_scan", "ios": "https://dc.lft.to/lastmile_qr_scan"}, "is_disabled": 0, "fusion_lat": 0.0, "name": "e2258b904a8c76d3e4bd5960f39195bd", "fusion_lon": 0.0}, {"is_reserved": 0, "type": "electric_scooter", "bike_id": "fc243e5cc047d74285293ba556be3e6a", "lat": 38.9004025, "lon": -77.00194183333333, "rental_uris": {"android": "https://dc.lft.to/lastmile_qr_scan", "ios": "https://dc.lft.to/lastmile_qr_scan"}, "is_disabled": 0, "fusion_lat": 0.0, "name": "fc243e5cc047d74285293ba556be3e6a", "fusion_lon": 0.0}, {"is_reserved": 0, "type": "electric_scooter", "bike_id": "785e2a449a1320dabc0392b0f6492adb", "lat": 38.86716, "lon": -76.9807115, "rental_uris": {"android": "https://dc.lft.to/lastmile_qr_scan", "ios": "https://dc.lft.to/lastmile_qr_scan"}, "is_disabled": 0, "fusion_lat": 0.0, "name": "785e2a449a1320dabc0392b0f6492adb", "fusion_lon": 0.0}, {"is_reserved": 0, "type": "electric_scooter", "bike_id": "b161f4b188cf9f32e1eece60925615e6", "lat": 38.87654333333333, "lon": -77.02077983333334, "rental_uris": {"android": "https://dc.lft.to/lastmile_qr_scan", "ios": "https://dc.lft.to/lastmile_qr_scan"}, "is_disabled": 0, "fusion_lat": 0.0, "name": "b161f4b188cf9f32e1eece60925615e6", "fusion_lon": 0.0}, {"is_reserved": 0, "type": "electric_scooter", "bike_id": "72837465b8f6a1a1226231e8a5b8d4ed", "lat": 38.905840166666664, "lon": -77.0078595, "rental_uris": {"android": "https://dc.lft.to/lastmile_qr_scan", "ios": "https://dc.lft.to/lastmile_qr_scan"}, "is_disabled": 0, "fusion_lat": 0.0, "name": "72837465b8f6a1a1226231e8a5b8d4ed", "fusion_lon": 0.0}, {"is_reserved": 0, "type": "electric_scooter", "bike_id": "4bf8f2fb73ac9733da931df4440aa4d9", "lat": 38.885346, "lon": -76.98059116666667, "rental_uris": {"android": "https://dc.lft.to/lastmile_qr_scan", "ios": "https://dc.lft.to/lastmile_qr_scan"}, "is_disabled": 0, "fusion_lat": 0.0, "name": "4bf8f2fb73ac9733da931df4440aa4d9", "fusion_lon": 0.0}, {"is_reserved": 0, "type": "electric_scooter", "bike_id": "fdc6b8c3cc8ef545eee9138f8a40ddf7", "lat": 38.924767333333335, "lon": -77.0305295, "rental_uris": {"android": "https://dc.lft.to/lastmile_qr_scan", "ios": "https://dc.lft.to/lastmile_qr_scan"}, "is_disabled": 0, "fusion_lat": 0.0, "name": "fdc6b8c3cc8ef545eee9138f8a40ddf7", "fusion_lon": 0.0}, {"is_reserved": 0, "type": "electric_scooter", "bike_id": "1d4802310a89852fe4354ab6127cd3b3", "lat": 38.90199616666666, "lon": -76.98198716666667, "rental_uris": {"android": "https://dc.lft.to/lastmile_qr_scan", "ios": "https://dc.lft.to/lastmile_qr_scan"}, "is_disabled": 0, "fusion_lat": 0.0, "name": "1d4802310a89852fe4354ab6127cd3b3", "fusion_lon": 0.0}, {"is_reserved": 0, "type": "electric_scooter", "bike_id": "a30acfabf2e6d4b416546105f43f092e", "lat": 38.9245835, "lon": -77.05224683333333, "rental_uris": {"android": "https://dc.lft.to/lastmile_qr_scan", "ios": "https://dc.lft.to/lastmile_qr_scan"}, "is_disabled": 0, "fusion_lat": 0.0, "name": "a30acfabf2e6d4b416546105f43f092e", "fusion_lon": 0.0}, {"is_reserved": 0, "type": "electric_scooter", "bike_id": "0314f48c04e8be8f22b024463284507b", "lat": 38.918015833333335, "lon": -77.03437983333333, "rental_uris": {"android": "https://dc.lft.to/lastmile_qr_scan", "ios": "https://dc.lft.to/lastmile_qr_scan"}, "is_disabled": 0, "fusion_lat": 0.0, "name": "0314f48c04e8be8f22b024463284507b", "fusion_lon": 0.0}, {"is_reserved": 0, "type": "electric_scooter", "bike_id": "ae7bc8502e149f16cf2da0dd0a6383dc", "lat": 38.88671033333333, "lon": -77.00204833333333, "rental_uris": {"android": "https://dc.lft.to/lastmile_qr_scan", "ios": "https://dc.lft.to/lastmile_qr_scan"}, "is_disabled": 0, "fusion_lat": 0.0, "name": "ae7bc8502e149f16cf2da0dd0a6383dc", "fusion_lon": 0.0}, {"is_reserved": 0, "type": "electric_scooter", "bike_id": "3bdc8fee1e86991fc48a255badfd872b", "lat": 38.91555066666667, "lon": -77.03254216666667, "rental_uris": {"android": "https://dc.lft.to/lastmile_qr_scan", "ios": "https://dc.lft.to/lastmile_qr_scan"}, "is_disabled": 0, "fusion_lat": 0.0, "name": "3bdc8fee1e86991fc48a255badfd872b", "fusion_lon": 0.0}, {"is_reserved": 0, "type": "electric_scooter", "bike_id": "5297bf44f1740e5cc8255c339f54d6b5", "lat": 38.90043333333333, "lon": -77.00189216666666, "rental_uris": {"android": "https://dc.lft.to/lastmile_qr_scan", "ios": "https://dc.lft.to/lastmile_qr_scan"}, "is_disabled": 0, "fusion_lat": 0.0, "name": "5297bf44f1740e5cc8255c339f54d6b5", "fusion_lon": 0.0}, {"is_reserved": 0, "type": "electric_scooter", "bike_id": "fe7c850a68ebb9d1d47e99e47a5192f0", "lat": 38.86588666666667, "lon": -76.97449383333333, "rental_uris": {"android": "https://dc.lft.to/lastmile_qr_scan", "ios": "https://dc.lft.to/lastmile_qr_scan"}, "is_disabled": 0, "fusion_lat": 0.0, "name": "fe7c850a68ebb9d1d47e99e47a5192f0", "fusion_lon": 0.0}, {"is_reserved": 0, "type": "electric_scooter", "bike_id": "a42de714acc12109aca9f02770539119", "lat": 38.89042966666667, "lon": -76.95246933333334, "rental_uris": {"android": "https://dc.lft.to/lastmile_qr_scan", "ios": "https://dc.lft.to/lastmile_qr_scan"}, "is_disabled": 0, "fusion_lat": 0.0, "name": "a42de714acc12109aca9f02770539119", "fusion_lon": 0.0}, {"is_reserved": 0, "type": "electric_scooter", "bike_id": "bded02e577b52c7aa8a0de6d74526c81", "lat": 38.87606133333333, "lon": -76.9656285, "rental_uris": {"android": "https://dc.lft.to/lastmile_qr_scan", "ios": "https://dc.lft.to/lastmile_qr_scan"}, "is_disabled": 0, "fusion_lat": 0.0, "name": "bded02e577b52c7aa8a0de6d74526c81", "fusion_lon": 0.0}, {"is_reserved": 0, "type": "electric_scooter", "bike_id": "cb66be4abb8be6b67829fd8d4e54a8ed", "lat": 38.925546, "lon": -77.07762583333333, "rental_uris": {"android": "https://dc.lft.to/lastmile_qr_scan", "ios": "https://dc.lft.to/lastmile_qr_scan"}, "is_disabled": 0, "fusion_lat": 0.0, "name": "cb66be4abb8be6b67829fd8d4e54a8ed", "fusion_lon": 0.0}, {"is_reserved": 0, "type": "electric_scooter", "bike_id": "a125c60ddde0d16d39a81b6266c97694", "lat": 38.905145, "lon": -77.06381033333334, "rental_uris": {"android": "https://dc.lft.to/lastmile_qr_scan", "ios": "https://dc.lft.to/lastmile_qr_scan"}, "is_disabled": 0, "fusion_lat": 0.0, "name": "a125c60ddde0d16d39a81b6266c97694", "fusion_lon": 0.0}, {"is_reserved": 0, "type": "electric_scooter", "bike_id": "c492080352ef1d53afad92226b0fcb05", "lat": 38.91823433333333, "lon": -77.03145316666667, "rental_uris": {"android": "https://dc.lft.to/lastmile_qr_scan", "ios": "https://dc.lft.to/lastmile_qr_scan"}, "is_disabled": 0, "fusion_lat": 0.0, "name": "c492080352ef1d53afad92226b0fcb05", "fusion_lon": 0.0}, {"is_reserved": 0, "type": "electric_scooter", "bike_id": "d3b1886253c5da42fdc51ec823f259ec", "lat": 38.928242, "lon": -77.05446183333333, "rental_uris": {"android": "https://dc.lft.to/lastmile_qr_scan", "ios": "https://dc.lft.to/lastmile_qr_scan"}, "is_disabled": 0, "fusion_lat": 0.0, "name": "d3b1886253c5da42fdc51ec823f259ec", "fusion_lon": 0.0}, {"is_reserved": 0, "type": "electric_scooter", "bike_id": "498a6f1cd74e20a2f6552678edb81119", "lat": 38.919868, "lon": -77.04069133333333, "rental_uris": {"android": "https://dc.lft.to/lastmile_qr_scan", "ios": "https://dc.lft.to/lastmile_qr_scan"}, "is_disabled": 0, "fusion_lat": 0.0, "name": "498a6f1cd74e20a2f6552678edb81119", "fusion_lon": 0.0}, {"is_reserved": 0, "type": "electric_scooter", "bike_id": "7772e55284aa34a0ec7c7b77802dde1f", "lat": 38.92483083333333, "lon": -77.03476083333334, "rental_uris": {"android": "https://dc.lft.to/lastmile_qr_scan", "ios": "https://dc.lft.to/lastmile_qr_scan"}, "is_disabled": 0, "fusion_lat": 0.0, "name": "7772e55284aa34a0ec7c7b77802dde1f", "fusion_lon": 0.0}, {"is_reserved": 0, "type": "electric_scooter", "bike_id": "a7971ceb9e19168f871398952d83c667", "lat": 38.873734, "lon": -77.000214, "rental_uris": {"android": "https://dc.lft.to/lastmile_qr_scan", "ios": "https://dc.lft.to/lastmile_qr_scan"}, "is_disabled": 0, "fusion_lat": 0.0, "name": "a7971ceb9e19168f871398952d83c667", "fusion_lon": 0.0}, {"is_reserved": 0, "type": "electric_scooter", "bike_id": "090963fd545fbc05ecb4124d93842182", "lat": 38.93741933333333, "lon": -77.032561, "rental_uris": {"android": "https://dc.lft.to/lastmile_qr_scan", "ios": "https://dc.lft.to/lastmile_qr_scan"}, "is_disabled": 0, "fusion_lat": 0.0, "name": "090963fd545fbc05ecb4124d93842182", "fusion_lon": 0.0}, {"is_reserved": 0, "type": "electric_scooter", "bike_id": "5bac058d2b12d74623f8b4b9e942d531", "lat": 38.907903833333336, "lon": -77.04893933333334, "rental_uris": {"android": "https://dc.lft.to/lastmile_qr_scan", "ios": "https://dc.lft.to/lastmile_qr_scan"}, "is_disabled": 0, "fusion_lat": 0.0, "name": "5bac058d2b12d74623f8b4b9e942d531", "fusion_lon": 0.0}, {"is_reserved": 0, "type": "electric_scooter", "bike_id": "53224600381641cd51c6b609b3e077eb", "lat": 38.94312, "lon": -77.02178966666666, "rental_uris": {"android": "https://dc.lft.to/lastmile_qr_scan", "ios": "https://dc.lft.to/lastmile_qr_scan"}, "is_disabled": 0, "fusion_lat": 0.0, "name": "53224600381641cd51c6b609b3e077eb", "fusion_lon": 0.0}, {"is_reserved": 0, "type": "electric_scooter", "bike_id": "c94c2ca0c4112d55aa4d8fc3b6e54541", "lat": 38.888141, "lon": -77.00197533333333, "rental_uris": {"android": "https://dc.lft.to/lastmile_qr_scan", "ios": "https://dc.lft.to/lastmile_qr_scan"}, "is_disabled": 0, "fusion_lat": 0.0, "name": "c94c2ca0c4112d55aa4d8fc3b6e54541", "fusion_lon": 0.0}, {"is_reserved": 0, "type": "electric_scooter", "bike_id": "3016cc29788bf81f117edb40d6d32dfc", "lat": 38.9203165, "lon": -77.0103905, "rental_uris": {"android": "https://dc.lft.to/lastmile_qr_scan", "ios": "https://dc.lft.to/lastmile_qr_scan"}, "is_disabled": 0, "fusion_lat": 0.0, "name": "3016cc29788bf81f117edb40d6d32dfc", "fusion_lon": 0.0}, {"is_reserved": 0, "type": "electric_scooter", "bike_id": "1666fa93ef8fc1e988e2a7862400b229", "lat": 38.89937783333333, "lon": -77.026695, "rental_uris": {"android": "https://dc.lft.to/lastmile_qr_scan", "ios": "https://dc.lft.to/lastmile_qr_scan"}, "is_disabled": 0, "fusion_lat": 0.0, "name": "1666fa93ef8fc1e988e2a7862400b229", "fusion_lon": 0.0}, {"is_reserved": 0, "type": "electric_scooter", "bike_id": "fc07682bc3b361c70652318d9fd4c746", "lat": 38.8765755, "lon": -77.00753233333333, "rental_uris": {"android": "https://dc.lft.to/lastmile_qr_scan", "ios": "https://dc.lft.to/lastmile_qr_scan"}, "is_disabled": 0, "fusion_lat": 0.0, "name": "fc07682bc3b361c70652318d9fd4c746", "fusion_lon": 0.0}, {"is_reserved": 0, "type": "electric_scooter", "bike_id": "d201e14a67e31511034f853528ceb5df", "lat": 38.886311166666665, "lon": -77.03356783333334, "rental_uris": {"android": "https://dc.lft.to/lastmile_qr_scan", "ios": "https://dc.lft.to/lastmile_qr_scan"}, "is_disabled": 0, "fusion_lat": 0.0, "name": "d201e14a67e31511034f853528ceb5df", "fusion_lon": 0.0}, {"is_reserved": 0, "type": "electric_scooter", "bike_id": "60c37367ed2b4276bcbe954a89bddb89", "lat": 38.9085095, "lon": -77.03271283333333, "rental_uris": {"android": "https://dc.lft.to/lastmile_qr_scan", "ios": "https://dc.lft.to/lastmile_qr_scan"}, "is_disabled": 0, "fusion_lat": 0.0, "name": "60c37367ed2b4276bcbe954a89bddb89", "fusion_lon": 0.0}, {"is_reserved": 0, "type": "electric_scooter", "bike_id": "66f16ce7365d83be7abb1096ef262992", "lat": 38.86577166666667, "lon": -76.99030733333333, "rental_uris": {"android": "https://dc.lft.to/lastmile_qr_scan", "ios": "https://dc.lft.to/lastmile_qr_scan"}, "is_disabled": 0, "fusion_lat": 0.0, "name": "66f16ce7365d83be7abb1096ef262992", "fusion_lon": 0.0}, {"is_reserved": 0, "type": "electric_scooter", "bike_id": "a42741da9dfeebae0d7705e9d4ab45be", "lat": 38.9192195, "lon": -77.00975016666666, "rental_uris": {"android": "https://dc.lft.to/lastmile_qr_scan", "ios": "https://dc.lft.to/lastmile_qr_scan"}, "is_disabled": 0, "fusion_lat": 0.0, "name": "a42741da9dfeebae0d7705e9d4ab45be", "fusion_lon": 0.0}, {"is_reserved": 0, "type": "electric_scooter", "bike_id": "12c962322ca567b448561edc00d69ae7", "lat": 38.90591166666667, "lon": -77.046803, "rental_uris": {"android": "https://dc.lft.to/lastmile_qr_scan", "ios": "https://dc.lft.to/lastmile_qr_scan"}, "is_disabled": 0, "fusion_lat": 0.0, "name": "12c962322ca567b448561edc00d69ae7", "fusion_lon": 0.0}, {"is_reserved": 0, "type": "electric_scooter", "bike_id": "2bfb7d3c8a2883557102c1775fe093d5", "lat": 38.91291916666667, "lon": -76.985439, "rental_uris": {"android": "https://dc.lft.to/lastmile_qr_scan", "ios": "https://dc.lft.to/lastmile_qr_scan"}, "is_disabled": 0, "fusion_lat": 0.0, "name": "2bfb7d3c8a2883557102c1775fe093d5", "fusion_lon": 0.0}, {"is_reserved": 0, "type": "electric_scooter", "bike_id": "f0b6645cbf2e1c37027af1b795e38687", "lat": 38.92870416666667, "lon": -77.02710033333334, "rental_uris": {"android": "https://dc.lft.to/lastmile_qr_scan", "ios": "https://dc.lft.to/lastmile_qr_scan"}, "is_disabled": 0, "fusion_lat": 0.0, "name": "f0b6645cbf2e1c37027af1b795e38687", "fusion_lon": 0.0}, {"is_reserved": 0, "type": "electric_scooter", "bike_id": "a83f2e2b1c65a5699be30ec17cb777d7", "lat": 38.89363683333333, "lon": -77.00337516666667, "rental_uris": {"android": "https://dc.lft.to/lastmile_qr_scan", "ios": "https://dc.lft.to/lastmile_qr_scan"}, "is_disabled": 0, "fusion_lat": 0.0, "name": "a83f2e2b1c65a5699be30ec17cb777d7", "fusion_lon": 0.0}, {"is_reserved": 0, "type": "electric_scooter", "bike_id": "ca9acc31daee17e88b13206b61b75e94", "lat": 38.9240685, "lon": -77.02981316666667, "rental_uris": {"android": "https://dc.lft.to/lastmile_qr_scan", "ios": "https://dc.lft.to/lastmile_qr_scan"}, "is_disabled": 0, "fusion_lat": 0.0, "name": "ca9acc31daee17e88b13206b61b75e94", "fusion_lon": 0.0}, {"is_reserved": 0, "type": "electric_scooter", "bike_id": "e240659b60fcec50c655bdf9af282b03", "lat": 38.916383833333335, "lon": -77.01056733333333, "rental_uris": {"android": "https://dc.lft.to/lastmile_qr_scan", "ios": "https://dc.lft.to/lastmile_qr_scan"}, "is_disabled": 0, "fusion_lat": 0.0, "name": "e240659b60fcec50c655bdf9af282b03", "fusion_lon": 0.0}, {"is_reserved": 0, "type": "electric_scooter", "bike_id": "a9ec6e5ff8ac0884b4baa439a885893c", "lat": 38.89980583333333, "lon": -77.02191216666667, "rental_uris": {"android": "https://dc.lft.to/lastmile_qr_scan", "ios": "https://dc.lft.to/lastmile_qr_scan"}, "is_disabled": 0, "fusion_lat": 0.0, "name": "a9ec6e5ff8ac0884b4baa439a885893c", "fusion_lon": 0.0}, {"is_reserved": 0, "type": "electric_bike", "bike_id": "3952b3d896477cac877793b9486535f8", "lat": 38.966754333333334, "lon": -77.02305116666666, "rental_uris": {"android": "https://dc.lft.to/lastmile_qr_scan", "ios": "https://dc.lft.to/lastmile_qr_scan"}, "is_disabled": 0, "fusion_lat": 0.0, "name": "3952b3d896477cac877793b9486535f8", "fusion_lon": 0.0}, {"is_reserved": 0, "type": "electric_bike", "bike_id": "7fda47ea19fe1a92387ca09014a9fe75", "lat": 38.915518, "lon": -77.02018166666667, "rental_uris": {"android": "https://dc.lft.to/lastmile_qr_scan", "ios": "https://dc.lft.to/lastmile_qr_scan"}, "is_disabled": 0, "fusion_lat": 0.0, "name": "7fda47ea19fe1a92387ca09014a9fe75", "fusion_lon": 0.0}, {"is_reserved": 0, "type": "electric_scooter", "bike_id": "5c3a1b69b9dff5ca8349b567fb9b4cb6", "lat": 38.902528, "lon": -77.0534165, "rental_uris": {"android": "https://dc.lft.to/lastmile_qr_scan", "ios": "https://dc.lft.to/lastmile_qr_scan"}, "is_disabled": 0, "fusion_lat": 0.0, "name": "5c3a1b69b9dff5ca8349b567fb9b4cb6", "fusion_lon": 0.0}, {"is_reserved": 0, "type": "electric_scooter", "bike_id": "450abb657cb423cfcde6840f5dbd846b", "lat": 38.87151583333333, "lon": -76.96583733333334, "rental_uris": {"android": "https://dc.lft.to/lastmile_qr_scan", "ios": "https://dc.lft.to/lastmile_qr_scan"}, "is_disabled": 0, "fusion_lat": 0.0, "name": "450abb657cb423cfcde6840f5dbd846b", "fusion_lon": 0.0}, {"is_reserved": 0, "type": "electric_bike", "bike_id": "7c93d32526c90892ff87561b204dbafa", "lat": 38.86756333333334, "lon": -76.9453825, "rental_uris": {"android": "https://dc.lft.to/lastmile_qr_scan", "ios": "https://dc.lft.to/lastmile_qr_scan"}, "is_disabled": 0, "fusion_lat": 0.0, "name": "7c93d32526c90892ff87561b204dbafa", "fusion_lon": 0.0}, {"is_reserved": 0, "type": "electric_scooter", "bike_id": "96f1a9b95343b4783a3b2219f45459ca", "lat": 38.922912, "lon": -77.03399383333333, "rental_uris": {"android": "https://dc.lft.to/lastmile_qr_scan", "ios": "https://dc.lft.to/lastmile_qr_scan"}, "is_disabled": 0, "fusion_lat": 0.0, "name": "96f1a9b95343b4783a3b2219f45459ca", "fusion_lon": 0.0}, {"is_reserved": 0, "type": "electric_scooter", "bike_id": "f062b860f5b07aa3d3de3f110180255e", "lat": 38.92381966666667, "lon": -77.03063416666667, "rental_uris": {"android": "https://dc.lft.to/lastmile_qr_scan", "ios": "https://dc.lft.to/lastmile_qr_scan"}, "is_disabled": 0, "fusion_lat": 0.0, "name": "f062b860f5b07aa3d3de3f110180255e", "fusion_lon": 0.0}, {"is_reserved": 0, "type": "electric_scooter", "bike_id": "44d5a9f72ea4999fff310f35d0716644", "lat": 38.887722833333335, "lon": -76.93261866666667, "rental_uris": {"android": "https://dc.lft.to/lastmile_qr_scan", "ios": "https://dc.lft.to/lastmile_qr_scan"}, "is_disabled": 0, "fusion_lat": 0.0, "name": "44d5a9f72ea4999fff310f35d0716644", "fusion_lon": 0.0}, {"is_reserved": 0, "type": "electric_scooter", "bike_id": "4d8dfdfb4c12719f2abf3d3affb6454f", "lat": 38.9202635, "lon": -76.98544566666666, "rental_uris": {"android": "https://dc.lft.to/lastmile_qr_scan", "ios": "https://dc.lft.to/lastmile_qr_scan"}, "is_disabled": 0, "fusion_lat": 0.0, "name": "4d8dfdfb4c12719f2abf3d3affb6454f", "fusion_lon": 0.0}, {"is_reserved": 0, "type": "electric_scooter", "bike_id": "a3a92cb403d90207078e70e253b8e16c", "lat": 38.9118705, "lon": -77.00733283333334, "rental_uris": {"android": "https://dc.lft.to/lastmile_qr_scan", "ios": "https://dc.lft.to/lastmile_qr_scan"}, "is_disabled": 0, "fusion_lat": 0.0, "name": "a3a92cb403d90207078e70e253b8e16c", "fusion_lon": 0.0}, {"is_reserved": 0, "type": "electric_bike", "bike_id": "e0d1aefc828cf20e6149d658ce6c562c", "lat": 38.898156166666666, "lon": -76.99074683333333, "rental_uris": {"android": "https://dc.lft.to/lastmile_qr_scan", "ios": "https://dc.lft.to/lastmile_qr_scan"}, "is_disabled": 0, "fusion_lat": 0.0, "name": "e0d1aefc828cf20e6149d658ce6c562c", "fusion_lon": 0.0}, {"is_reserved": 0, "type": "electric_scooter", "bike_id": "187d2964deeb4b74ac65baffb6a32ddc", "lat": 38.9000635, "lon": -77.01022616666667, "rental_uris": {"android": "https://dc.lft.to/lastmile_qr_scan", "ios": "https://dc.lft.to/lastmile_qr_scan"}, "is_disabled": 0, "fusion_lat": 0.0, "name": "187d2964deeb4b74ac65baffb6a32ddc", "fusion_lon": 0.0}, {"is_reserved": 0, "type": "electric_scooter", "bike_id": "36c0485a5e3e535e27b58ed37867632e", "lat": 38.93357233333333, "lon": -77.05724266666667, "rental_uris": {"android": "https://dc.lft.to/lastmile_qr_scan", "ios": "https://dc.lft.to/lastmile_qr_scan"}, "is_disabled": 0, "fusion_lat": 0.0, "name": "36c0485a5e3e535e27b58ed37867632e", "fusion_lon": 0.0}, {"is_reserved": 0, "type": "electric_scooter", "bike_id": "091a8a71c0a232048d78ea88924b2a87", "lat": 38.8993825, "lon": -77.02717066666666, "rental_uris": {"android": "https://dc.lft.to/lastmile_qr_scan", "ios": "https://dc.lft.to/lastmile_qr_scan"}, "is_disabled": 0, "fusion_lat": 0.0, "name": "091a8a71c0a232048d78ea88924b2a87", "fusion_lon": 0.0}, {"is_reserved": 0, "type": "electric_scooter", "bike_id": "bbb525cb33ad4be82eb051886050cf78", "lat": 38.903602166666666, "lon": -77.03328783333333, "rental_uris": {"android": "https://dc.lft.to/lastmile_qr_scan", "ios": "https://dc.lft.to/lastmile_qr_scan"}, "is_disabled": 0, "fusion_lat": 0.0, "name": "bbb525cb33ad4be82eb051886050cf78", "fusion_lon": 0.0}, {"is_reserved": 0, "type": "electric_scooter", "bike_id": "b221a4bb4ed365b5a05042a03a808a3f", "lat": 38.9140315, "lon": -77.02898016666667, "rental_uris": {"android": "https://dc.lft.to/lastmile_qr_scan", "ios": "https://dc.lft.to/lastmile_qr_scan"}, "is_disabled": 0, "fusion_lat": 0.0, "name": "b221a4bb4ed365b5a05042a03a808a3f", "fusion_lon": 0.0}, {"is_reserved": 0, "type": "electric_scooter", "bike_id": "aa6b6654e7cf94d571dc8027ea2b46b4", "lat": 38.9170375, "lon": -77.03161983333334, "rental_uris": {"android": "https://dc.lft.to/lastmile_qr_scan", "ios": "https://dc.lft.to/lastmile_qr_scan"}, "is_disabled": 0, "fusion_lat": 0.0, "name": "aa6b6654e7cf94d571dc8027ea2b46b4", "fusion_lon": 0.0}, {"is_reserved": 0, "type": "electric_scooter", "bike_id": "40362aac5de5f2c2f08dd0c6deebecc6", "lat": 38.899623, "lon": -77.03167416666666, "rental_uris": {"android": "https://dc.lft.to/lastmile_qr_scan", "ios": "https://dc.lft.to/lastmile_qr_scan"}, "is_disabled": 0, "fusion_lat": 0.0, "name": "40362aac5de5f2c2f08dd0c6deebecc6", "fusion_lon": 0.0}, {"is_reserved": 0, "type": "electric_scooter", "bike_id": "b533b14257966351d2fde19f35087a0e", "lat": 38.924562333333334, "lon": -77.00889483333333, "rental_uris": {"android": "https://dc.lft.to/lastmile_qr_scan", "ios": "https://dc.lft.to/lastmile_qr_scan"}, "is_disabled": 0, "fusion_lat": 0.0, "name": "b533b14257966351d2fde19f35087a0e", "fusion_lon": 0.0}, {"is_reserved": 0, "type": "electric_scooter", "bike_id": "c1af8e1b8367005d8da1ebdc9bd52ef6", "lat": 38.90668183333333, "lon": -77.075035, "rental_uris": {"android": "https://dc.lft.to/lastmile_qr_scan", "ios": "https://dc.lft.to/lastmile_qr_scan"}, "is_disabled": 0, "fusion_lat": 0.0, "name": "c1af8e1b8367005d8da1ebdc9bd52ef6", "fusion_lon": 0.0}, {"is_reserved": 0, "type": "electric_scooter", "bike_id": "b55699c5e58521d95f0a36528a1b8cd9", "lat": 38.916443666666666, "lon": -77.0224725, "rental_uris": {"android": "https://dc.lft.to/lastmile_qr_scan", "ios": "https://dc.lft.to/lastmile_qr_scan"}, "is_disabled": 0, "fusion_lat": 0.0, "name": "b55699c5e58521d95f0a36528a1b8cd9", "fusion_lon": 0.0}, {"is_reserved": 0, "type": "electric_scooter", "bike_id": "aee9a577311f48f5f30990293d4a29f2", "lat": 38.941908166666664, "lon": -77.023476, "rental_uris": {"android": "https://dc.lft.to/lastmile_qr_scan", "ios": "https://dc.lft.to/lastmile_qr_scan"}, "is_disabled": 0, "fusion_lat": 0.0, "name": "aee9a577311f48f5f30990293d4a29f2", "fusion_lon": 0.0}, {"is_reserved": 0, "type": "electric_scooter", "bike_id": "ab929e39bc86b91e2f47eb0bc83fa836", "lat": 38.89229, "lon": -77.0416335, "rental_uris": {"android": "https://dc.lft.to/lastmile_qr_scan", "ios": "https://dc.lft.to/lastmile_qr_scan"}, "is_disabled": 0, "fusion_lat": 0.0, "name": "ab929e39bc86b91e2f47eb0bc83fa836", "fusion_lon": 0.0}, {"is_reserved": 0, "type": "electric_scooter", "bike_id": "af2568bc426047add28d895b099ff7c8", "lat": 38.8935035, "lon": -77.0116945, "rental_uris": {"android": "https://dc.lft.to/lastmile_qr_scan", "ios": "https://dc.lft.to/lastmile_qr_scan"}, "is_disabled": 0, "fusion_lat": 0.0, "name": "af2568bc426047add28d895b099ff7c8", "fusion_lon": 0.0}, {"is_reserved": 0, "type": "electric_scooter", "bike_id": "6546a9e1a893ea16ec8e0470b3cf6830", "lat": 38.92354183333333, "lon": -76.99947433333334, "rental_uris": {"android": "https://dc.lft.to/lastmile_qr_scan", "ios": "https://dc.lft.to/lastmile_qr_scan"}, "is_disabled": 0, "fusion_lat": 0.0, "name": "6546a9e1a893ea16ec8e0470b3cf6830", "fusion_lon": 0.0}, {"is_reserved": 0, "type": "electric_scooter", "bike_id": "4a10cb499aee565ef121a4738c8dd0be", "lat": 38.90650983333333, "lon": -77.00697816666667, "rental_uris": {"android": "https://dc.lft.to/lastmile_qr_scan", "ios": "https://dc.lft.to/lastmile_qr_scan"}, "is_disabled": 0, "fusion_lat": 0.0, "name": "4a10cb499aee565ef121a4738c8dd0be", "fusion_lon": 0.0}, {"is_reserved": 0, "type": "electric_scooter", "bike_id": "25a041e49d6ae646259dd9c37b4e2955", "lat": 38.904988833333334, "lon": -77.0295845, "rental_uris": {"android": "https://dc.lft.to/lastmile_qr_scan", "ios": "https://dc.lft.to/lastmile_qr_scan"}, "is_disabled": 0, "fusion_lat": 0.0, "name": "25a041e49d6ae646259dd9c37b4e2955", "fusion_lon": 0.0}, {"is_reserved": 0, "type": "electric_scooter", "bike_id": "5b089ff8ce3a66e27e87ff9ad55738b1", "lat": 38.924091, "lon": -77.01944883333333, "rental_uris": {"android": "https://dc.lft.to/lastmile_qr_scan", "ios": "https://dc.lft.to/lastmile_qr_scan"}, "is_disabled": 0, "fusion_lat": 0.0, "name": "5b089ff8ce3a66e27e87ff9ad55738b1", "fusion_lon": 0.0}, {"is_reserved": 0, "type": "electric_scooter", "bike_id": "68a89fee30f02d51615107e172e9af81", "lat": 38.90061216666667, "lon": -77.05304533333333, "rental_uris": {"android": "https://dc.lft.to/lastmile_qr_scan", "ios": "https://dc.lft.to/lastmile_qr_scan"}, "is_disabled": 0, "fusion_lat": 0.0, "name": "68a89fee30f02d51615107e172e9af81", "fusion_lon": 0.0}, {"is_reserved": 0, "type": "electric_scooter", "bike_id": "e3c469d79291e70a69313cf410ab7528", "lat": 38.8922145, "lon": -77.03108566666667, "rental_uris": {"android": "https://dc.lft.to/lastmile_qr_scan", "ios": "https://dc.lft.to/lastmile_qr_scan"}, "is_disabled": 0, "fusion_lat": 0.0, "name": "e3c469d79291e70a69313cf410ab7528", "fusion_lon": 0.0}, {"is_reserved": 0, "type": "electric_scooter", "bike_id": "14dcd2d6501311694310f8d18e24545b", "lat": 38.92207116666667, "lon": -77.02032983333334, "rental_uris": {"android": "https://dc.lft.to/lastmile_qr_scan", "ios": "https://dc.lft.to/lastmile_qr_scan"}, "is_disabled": 0, "fusion_lat": 0.0, "name": "14dcd2d6501311694310f8d18e24545b", "fusion_lon": 0.0}, {"is_reserved": 0, "type": "electric_scooter", "bike_id": "b8831521af86ec7daac5575b8d6c745d", "lat": 38.90641166666666, "lon": -77.0089635, "rental_uris": {"android": "https://dc.lft.to/lastmile_qr_scan", "ios": "https://dc.lft.to/lastmile_qr_scan"}, "is_disabled": 0, "fusion_lat": 0.0, "name": "b8831521af86ec7daac5575b8d6c745d", "fusion_lon": 0.0}, {"is_reserved": 0, "type": "electric_scooter", "bike_id": "ad0ce3ceefdc24ab9360316ea275e57c", "lat": 38.9102075, "lon": -76.99376, "rental_uris": {"android": "https://dc.lft.to/lastmile_qr_scan", "ios": "https://dc.lft.to/lastmile_qr_scan"}, "is_disabled": 0, "fusion_lat": 0.0, "name": "ad0ce3ceefdc24ab9360316ea275e57c", "fusion_lon": 0.0}, {"is_reserved": 0, "type": "electric_scooter", "bike_id": "ca17bc97ae6eb29e0cac4ce02c3e7cda", "lat": 38.91268016666667, "lon": -77.0388325, "rental_uris": {"android": "https://dc.lft.to/lastmile_qr_scan", "ios": "https://dc.lft.to/lastmile_qr_scan"}, "is_disabled": 0, "fusion_lat": 0.0, "name": "ca17bc97ae6eb29e0cac4ce02c3e7cda", "fusion_lon": 0.0}, {"is_reserved": 0, "type": "electric_scooter", "bike_id": "e7419bae6961e4ae6c709f41d4b8429d", "lat": 38.87293366666667, "lon": -77.00227383333333, "rental_uris": {"android": "https://dc.lft.to/lastmile_qr_scan", "ios": "https://dc.lft.to/lastmile_qr_scan"}, "is_disabled": 0, "fusion_lat": 0.0, "name": "e7419bae6961e4ae6c709f41d4b8429d", "fusion_lon": 0.0}, {"is_reserved": 0, "type": "electric_scooter", "bike_id": "09790e2e7103405895367dc8a32ad354", "lat": 38.92795016666667, "lon": -77.0253865, "rental_uris": {"android": "https://dc.lft.to/lastmile_qr_scan", "ios": "https://dc.lft.to/lastmile_qr_scan"}, "is_disabled": 0, "fusion_lat": 0.0, "name": "09790e2e7103405895367dc8a32ad354", "fusion_lon": 0.0}, {"is_reserved": 0, "type": "electric_scooter", "bike_id": "081aabcb6d06b395d982c73353ae2214", "lat": 38.92634566666667, "lon": -77.03463516666666, "rental_uris": {"android": "https://dc.lft.to/lastmile_qr_scan", "ios": "https://dc.lft.to/lastmile_qr_scan"}, "is_disabled": 0, "fusion_lat": 0.0, "name": "081aabcb6d06b395d982c73353ae2214", "fusion_lon": 0.0}, {"is_reserved": 0, "type": "electric_scooter", "bike_id": "556f8ef039a57e74bbacdd58c3dbabc5", "lat": 38.891416166666666, "lon": -76.99948466666666, "rental_uris": {"android": "https://dc.lft.to/lastmile_qr_scan", "ios": "https://dc.lft.to/lastmile_qr_scan"}, "is_disabled": 0, "fusion_lat": 0.0, "name": "556f8ef039a57e74bbacdd58c3dbabc5", "fusion_lon": 0.0}, {"is_reserved": 0, "type": "electric_scooter", "bike_id": "93724c2fbb49c0b0c9c00b8ab06e2e25", "lat": 38.90550266666666, "lon": -77.02725366666667, "rental_uris": {"android": "https://dc.lft.to/lastmile_qr_scan", "ios": "https://dc.lft.to/lastmile_qr_scan"}, "is_disabled": 0, "fusion_lat": 0.0, "name": "93724c2fbb49c0b0c9c00b8ab06e2e25", "fusion_lon": 0.0}, {"is_reserved": 0, "type": "electric_scooter", "bike_id": "cd0755b230e3794bb043ec28b2df2ef9", "lat": 38.931906166666664, "lon": -77.023752, "rental_uris": {"android": "https://dc.lft.to/lastmile_qr_scan", "ios": "https://dc.lft.to/lastmile_qr_scan"}, "is_disabled": 0, "fusion_lat": 0.0, "name": "cd0755b230e3794bb043ec28b2df2ef9", "fusion_lon": 0.0}, {"is_reserved": 0, "type": "electric_scooter", "bike_id": "057cc78d3463248b978ca748bf16c721", "lat": 38.8924425, "lon": -77.01351966666667, "rental_uris": {"android": "https://dc.lft.to/lastmile_qr_scan", "ios": "https://dc.lft.to/lastmile_qr_scan"}, "is_disabled": 0, "fusion_lat": 0.0, "name": "057cc78d3463248b978ca748bf16c721", "fusion_lon": 0.0}, {"is_reserved": 0, "type": "electric_scooter", "bike_id": "b0c061630287159091b3a2d76a4d2002", "lat": 38.91916166666667, "lon": -77.0481185, "rental_uris": {"android": "https://dc.lft.to/lastmile_qr_scan", "ios": "https://dc.lft.to/lastmile_qr_scan"}, "is_disabled": 0, "fusion_lat": 0.0, "name": "b0c061630287159091b3a2d76a4d2002", "fusion_lon": 0.0}, {"is_reserved": 0, "type": "electric_scooter", "bike_id": "13e6df65e02021773b81f6095b00d920", "lat": 38.911159833333336, "lon": -77.043078, "rental_uris": {"android": "https://dc.lft.to/lastmile_qr_scan", "ios": "https://dc.lft.to/lastmile_qr_scan"}, "is_disabled": 0, "fusion_lat": 0.0, "name": "13e6df65e02021773b81f6095b00d920", "fusion_lon": 0.0}, {"is_reserved": 0, "type": "electric_scooter", "bike_id": "055977dc66123aff95cb49b150b0213c", "lat": 38.89223116666667, "lon": -77.0486555, "rental_uris": {"android": "https://dc.lft.to/lastmile_qr_scan", "ios": "https://dc.lft.to/lastmile_qr_scan"}, "is_disabled": 0, "fusion_lat": 0.0, "name": "055977dc66123aff95cb49b150b0213c", "fusion_lon": 0.0}, {"is_reserved": 0, "type": "electric_scooter", "bike_id": "a2beb72e190271b535ea4176740e2efc", "lat": 38.924359333333335, "lon": -77.0006655, "rental_uris": {"android": "https://dc.lft.to/lastmile_qr_scan", "ios": "https://dc.lft.to/lastmile_qr_scan"}, "is_disabled": 0, "fusion_lat": 0.0, "name": "a2beb72e190271b535ea4176740e2efc", "fusion_lon": 0.0}, {"is_reserved": 0, "type": "electric_scooter", "bike_id": "91577ff985066c421d3bbb418afa1086", "lat": 38.95050466666667, "lon": -77.0541375, "rental_uris": {"android": "https://dc.lft.to/lastmile_qr_scan", "ios": "https://dc.lft.to/lastmile_qr_scan"}, "is_disabled": 0, "fusion_lat": 0.0, "name": "91577ff985066c421d3bbb418afa1086", "fusion_lon": 0.0}, {"is_reserved": 0, "type": "electric_bike", "bike_id": "558be852f25b9a2d08d69507e76dbd57", "lat": 38.94474816666666, "lon": -76.98689466666667, "rental_uris": {"android": "https://dc.lft.to/lastmile_qr_scan", "ios": "https://dc.lft.to/lastmile_qr_scan"}, "is_disabled": 0, "fusion_lat": 0.0, "name": "558be852f25b9a2d08d69507e76dbd57", "fusion_lon": 0.0}, {"is_reserved": 0, "type": "electric_scooter", "bike_id": "cacf429d411c164752342c0c95afb8cd", "lat": 38.916085833333334, "lon": -77.037373, "rental_uris": {"android": "https://dc.lft.to/lastmile_qr_scan", "ios": "https://dc.lft.to/lastmile_qr_scan"}, "is_disabled": 0, "fusion_lat": 0.0, "name": "cacf429d411c164752342c0c95afb8cd", "fusion_lon": 0.0}, {"is_reserved": 0, "type": "electric_scooter", "bike_id": "790064ddb03ba777be792d3eb7d2d011", "lat": 38.87805066666667, "lon": -77.0177155, "rental_uris": {"android": "https://dc.lft.to/lastmile_qr_scan", "ios": "https://dc.lft.to/lastmile_qr_scan"}, "is_disabled": 0, "fusion_lat": 0.0, "name": "790064ddb03ba777be792d3eb7d2d011", "fusion_lon": 0.0}, {"is_reserved": 0, "type": "electric_bike", "bike_id": "f3ec23e9bbbf857a3552836f1882ef91", "lat": 38.85434383333333, "lon": -77.08320633333334, "rental_uris": {"android": "https://dc.lft.to/lastmile_qr_scan", "ios": "https://dc.lft.to/lastmile_qr_scan"}, "is_disabled": 0, "fusion_lat": 0.0, "name": "f3ec23e9bbbf857a3552836f1882ef91", "fusion_lon": 0.0}, {"is_reserved": 0, "type": "electric_scooter", "bike_id": "f2e7b75e7fd974f4ba535689731b6e2e", "lat": 38.936174333333334, "lon": -77.02412483333333, "rental_uris": {"android": "https://dc.lft.to/lastmile_qr_scan", "ios": "https://dc.lft.to/lastmile_qr_scan"}, "is_disabled": 0, "fusion_lat": 0.0, "name": "f2e7b75e7fd974f4ba535689731b6e2e", "fusion_lon": 0.0}, {"is_reserved": 0, "type": "electric_scooter", "bike_id": "e3bac861783e8c5ba989df8b68d7caad", "lat": 38.89922, "lon": -77.03369966666666, "rental_uris": {"android": "https://dc.lft.to/lastmile_qr_scan", "ios": "https://dc.lft.to/lastmile_qr_scan"}, "is_disabled": 0, "fusion_lat": 0.0, "name": "e3bac861783e8c5ba989df8b68d7caad", "fusion_lon": 0.0}, {"is_reserved": 0, "type": "electric_scooter", "bike_id": "c983a3ff13254028e73a99c9d23d88fb", "lat": 38.86637133333333, "lon": -76.9828715, "rental_uris": {"android": "https://dc.lft.to/lastmile_qr_scan", "ios": "https://dc.lft.to/lastmile_qr_scan"}, "is_disabled": 0, "fusion_lat": 0.0, "name": "c983a3ff13254028e73a99c9d23d88fb", "fusion_lon": 0.0}, {"is_reserved": 0, "type": "electric_scooter", "bike_id": "e30d301579d4c52dfd24b2f63878f7bd", "lat": 38.91824616666667, "lon": -77.03449183333333, "rental_uris": {"android": "https://dc.lft.to/lastmile_qr_scan", "ios": "https://dc.lft.to/lastmile_qr_scan"}, "is_disabled": 0, "fusion_lat": 0.0, "name": "e30d301579d4c52dfd24b2f63878f7bd", "fusion_lon": 0.0}, {"is_reserved": 0, "type": "electric_scooter", "bike_id": "5ba63f1dc8ba7696d0ef4d5d978f1fdf", "lat": 38.8863045, "lon": -77.02223733333334, "rental_uris": {"android": "https://dc.lft.to/lastmile_qr_scan", "ios": "https://dc.lft.to/lastmile_qr_scan"}, "is_disabled": 0, "fusion_lat": 0.0, "name": "5ba63f1dc8ba7696d0ef4d5d978f1fdf", "fusion_lon": 0.0},