{"data": {"bikes": [{"bike_id": "65072d7427c04b8705540b5725bf1daf", "fusion_lon": 0.0, "name": "65072d7427c04b8705540b5725bf1daf", "lat": 38.896645666666664, "is_disabled": 0, "is_reserved": 0, "lon": -77.02498433333334, "type": "electric_scooter", "fusion_lat": 0.0, "rental_uris": {"android": "https://dc.lft.to/lastmile_qr_scan", "ios": "https://dc.lft.to/lastmile_qr_scan"}}, {"bike_id": "c38971d5de1e9cb88073c4a2e82bd70a", "fusion_lon": 0.0, "name": "c38971d5de1e9cb88073c4a2e82bd70a", "lat": 38.872394666666665, "is_disabled": 0, "is_reserved": 0, "lon": -76.97736533333334, "type": "electric_scooter", "fusion_lat": 0.0, "rental_uris": {"android": "https://dc.lft.to/lastmile_qr_scan", "ios": "https://dc.lft.to/lastmile_qr_scan"}}, {"bike_id": "05a494c9f88372d09f773969d0d432aa", "fusion_lon": 0.0, "name": "05a494c9f88372d09f773969d0d432aa", "lat": 38.98765366666667, "is_disabled": 0, "is_reserved": 0, "lon": -77.14059716666667, "type": "electric_bike", "fusion_lat": 0.0, "rental_uris": {"android": "https://dc.lft.to/lastmile_qr_scan", "ios": "https://dc.lft.to/lastmile_qr_scan"}}, {"bike_id": "ce267256aa09f8e3bdbd9e7468c5bd9f", "fusion_lon": 0.0, "name": "ce267256aa09f8e3bdbd9e7468c5bd9f", "lat": 38.90389066666667, "is_disabled": 0, "is_reserved": 0, "lon": -77.04390533333333, "type": "electric_scooter", "fusion_lat": 0.0, "rental_uris": {"android": "https://dc.lft.to/lastmile_qr_scan", "ios": "https://dc.lft.to/lastmile_qr_scan"}}, {"bike_id": "408fe0363e6a20f7b3277be821fcb678", "fusion_lon": 0.0, "name": "408fe0363e6a20f7b3277be821fcb678", "lat": 38.90319816666667, "is_disabled": 0, "is_reserved": 0, "lon": -77.0288195, "type": "electric_scooter", "fusion_lat": 0.0, "rental_uris": {"android": "https://dc.lft.to/lastmile_qr_scan", "ios": "https://dc.lft.to/lastmile_qr_scan"}}, {"bike_id": "98e0b8d7b6d00c0d0be56453daada4e5", "fusion_lon": 0.0, "name": "98e0b8d7b6d00c0d0be56453daada4e5", "lat": 38.90409483333333, "is_disabled": 0, "is_reserved": 0, "lon": -76.97328666666667, "type": "electric_scooter", "fusion_lat": 0.0, "rental_uris": {"android": "https://dc.lft.to/lastmile_qr_scan", "ios": "https://dc.lft.to/lastmile_qr_scan"}}, {"bike_id": "4ca9dd426fcbf50eb6339cb91b7dfef3", "fusion_lon": 0.0, "name": "4ca9dd426fcbf50eb6339cb91b7dfef3", "lat": 38.91692466666667, "is_disabled": 0, "is_reserved": 0, "lon": -77.03589216666667, "type": "electric_scooter", "fusion_lat": 0.0, "rental_uris": {"android": "https://dc.lft.to/lastmile_qr_scan", "ios": "https://dc.lft.to/lastmile_qr_scan"}}, {"bike_id": "b8c9e9e0c9c1f2f42cef11173fdc844e", "fusion_lon": 0.0, "name": "b8c9e9e0c9c1f2f42cef11173fdc844e", "lat": 38.905264833333334, "is_disabled": 0, "is_reserved": 0, "lon": -77.06304283333333, "type": "electric_scooter", "fusion_lat": 0.0, "rental_uris": {"android": "https://dc.lft.to/lastmile_qr_scan", "ios": "https://dc.lft.to/lastmile_qr_scan"}}, {"bike_id": "c19b002be404214b440a8f920325c725", "fusion_lon": 0.0, "name": "c19b002be404214b440a8f920325c725", "lat": 38.90247766666667, "is_disabled": 0, "is_reserved": 0, "lon": -77.0352215, "type": "electric_scooter", "fusion_lat": 0.0, "rental_uris": {"android": "https://dc.lft.to/lastmile_qr_scan", "ios": "https://dc.lft.to/lastmile_qr_scan"}}, {"bike_id": "9664228a68bc01302d59357f1718a137", "fusion_lon": 0.0, "name": "9664228a68bc01302d59357f1718a137", "lat": 38.954851166666664, "is_disabled": 0, "is_reserved": 0, "lon": -77.0266875, "type": "electric_bike", "fusion_lat": 0.0, "rental_uris": {"android": "https://dc.lft.to/lastmile_qr_scan", "ios": "https://dc.lft.to/lastmile_qr_scan"}}, {"bike_id": "c96b8aa6f79db2fb49ca233a49efc875", "fusion_lon": 0.0, "name": "c96b8aa6f79db2fb49ca233a49efc875", "lat": 38.9788385, "is_disabled": 0, "is_reserved": 0, "lon": -77.060332, "type": "electric_bike", "fusion_lat": 0.0, "rental_uris": {"android": "https://dc.lft.to/lastmile_qr_scan", "ios": "https://dc.lft.to/lastmile_qr_scan"}}, {"bike_id": "5c6b93dacd832a440fd67999025a7835", "fusion_lon": 0.0, "name": "5c6b93dacd832a440fd67999025a7835", "lat": 38.896794, "is_disabled": 0, "is_reserved": 0, "lon": -77.03225483333334, "type": "electric_scooter", "fusion_lat": 0.0, "rental_uris": {"android": "https://dc.lft.to/lastmile_qr_scan", "ios": "https://dc.lft.to/lastmile_qr_scan"}}, {"bike_id": "a735a8c8363541e0e64f2b91426d6ad7", "fusion_lon": 0.0, "name": "a735a8c8363541e0e64f2b91426d6ad7", "lat": 38.926029666666665, "is_disabled": 0, "is_reserved": 0, "lon": -77.02387733333333, "type": "electric_scooter", "fusion_lat": 0.0, "rental_uris": {"android": "https://dc.lft.to/lastmile_qr_scan", "ios": "https://dc.lft.to/lastmile_qr_scan"}}, {"bike_id": "204f7625805d850fc7d3097d60f06478", "fusion_lon": 0.0, "name": "204f7625805d850fc7d3097d60f06478", "lat": 38.905021833333336, "is_disabled": 0, "is_reserved": 0, "lon": -77.049113, "type": "electric_scooter", "fusion_lat": 0.0, "rental_uris": {"android": "https://dc.lft.to/lastmile_qr_scan", "ios": "https://dc.lft.to/lastmile_qr_scan"}}, {"bike_id": "f3e45975629f85ed308dcb964c20714d", "fusion_lon": 0.0, "name": "f3e45975629f85ed308dcb964c20714d", "lat": 38.9148505, "is_disabled": 0, "is_reserved": 0, "lon": -77.03729983333334, "type": "electric_scooter", "fusion_lat": 0.0, "rental_uris": {"android": "https://dc.lft.to/lastmile_qr_scan", "ios": "https://dc.lft.to/lastmile_qr_scan"}}, {"bike_id": "18c86b1273126a2a4e7847934223007f", "fusion_lon": 0.0, "name": "18c86b1273126a2a4e7847934223007f", "lat": 38.89222983333333, "is_disabled": 0, "is_reserved": 0, "lon": -77.03977533333334, "type": "electric_scooter", "fusion_lat": 0.0, "rental_uris": {"android": "https://dc.lft.to/lastmile_qr_scan", "ios": "https://dc.lft.to/lastmile_qr_scan"}}, {"bike_id": "e7fec0ef9273ae6ca2358d3bc49cda4c", "fusion_lon": 0.0, "name": "e7fec0ef9273ae6ca2358d3bc49cda4c", "lat": 38.886055166666665, "is_disabled": 0, "is_reserved": 0, "lon": -77.032188, "type": "electric_scooter", "fusion_lat": 0.0, "rental_uris": {"android": "https://dc.lft.to/lastmile_qr_scan", "ios": "https://dc.lft.to/lastmile_qr_scan"}}, {"bike_id": "fe1a0dae6c040a52a0d24929f2cdc1b3", "fusion_lon": 0.0, "name": "fe1a0dae6c040a52a0d24929f2cdc1b3", "lat": 38.910395, "is_disabled": 0, "is_reserved": 0, "lon": -77.04043216666666, "type": "electric_scooter", "fusion_lat": 0.0, "rental_uris": {"android": "https://dc.lft.to/lastmile_qr_scan", "ios": "https://dc.lft.to/lastmile_qr_scan"}}, {"bike_id": "8acdb03d94d64a10a8e01de9ecfe064a", "fusion_lon": 0.0, "name": "8acdb03d94d64a10a8e01de9ecfe064a", "lat": 38.8991875, "is_disabled": 0, "is_reserved": 0, "lon": -77.027263, "type": "electric_scooter", "fusion_lat": 0.0, "rental_uris": {"android": "https://dc.lft.to/lastmile_qr_scan", "ios": "https://dc.lft.to/lastmile_qr_scan"}}, {"bike_id": "e0a866140d925481531a06d5a72de11c", "fusion_lon": 0.0, "name": "e0a866140d925481531a06d5a72de11c", "lat": 38.887318666666665, "is_disabled": 0, "is_reserved": 0, "lon": -77.0258285, "type": "electric_scooter", "fusion_lat": 0.0, "rental_uris": {"android": "https://dc.lft.to/lastmile_qr_scan", "ios": "https://dc.lft.to/lastmile_qr_scan"}}, {"bike_id": "c96da6ea43565320172b25780e3ace85", "fusion_lon": 0.0, "name": "c96da6ea43565320172b25780e3ace85", "lat": 38.839366, "is_disabled": 0, "is_reserved": 0, "lon": -77.07899233333333, "type": "electric_bike", "fusion_lat": 0.0, "rental_uris": {"android": "https://dc.lft.to/lastmile_qr_scan", "ios": "https://dc.lft.to/lastmile_qr_scan"}}, {"bike_id": "74548715db7574b6b43127dd468a1599", "fusion_lon": 0.0, "name": "74548715db7574b6b43127dd468a1599", "lat": 38.909702833333334, "is_disabled": 0, "is_reserved": 0, "lon": -77.03307216666667, "type": "electric_scooter", "fusion_lat": 0.0, "rental_uris": {"android": "https://dc.lft.to/lastmile_qr_scan", "ios": "https://dc.lft.to/lastmile_qr_scan"}}, {"bike_id": "b7a86e1165331e5eaf9c4d337932f06c", "fusion_lon": 0.0, "name": "b7a86e1165331e5eaf9c4d337932f06c", "lat": 38.9202125, "is_disabled": 0, "is_reserved": 0, "lon": -77.0314575, "type": "electric_scooter", "fusion_lat": 0.0, "rental_uris": {"android": "https://dc.lft.to/lastmile_qr_scan", "ios": "https://dc.lft.to/lastmile_qr_scan"}}, {"bike_id": "0440c58416f6480104c21dfd0cda1421", "fusion_lon": 0.0, "name": "0440c58416f6480104c21dfd0cda1421", "lat": 38.9156275, "is_disabled": 0, "is_reserved": 0, "lon": -77.0212645, "type": "electric_scooter", "fusion_lat": 0.0, "rental_uris": {"android": "https://dc.lft.to/lastmile_qr_scan", "ios": "https://dc.lft.to/lastmile_qr_scan"}}, {"bike_id": "ada434ea5684eb2ba9c0a447212fc2d7", "fusion_lon": 0.0, "name": "ada434ea5684eb2ba9c0a447212fc2d7", "lat": 38.90726333333333, "is_disabled": 0, "is_reserved": 0, "lon": -76.997686, "type": "electric_scooter", "fusion_lat": 0.0, "rental_uris": {"android": "https://dc.lft.to/lastmile_qr_scan", "ios": "https://dc.lft.to/lastmile_qr_scan"}}, {"bike_id": "f52cb35f1653f0a9d5f9059de41f9aa7", "fusion_lon": 0.0, "name": "f52cb35f1653f0a9d5f9059de41f9aa7", "lat": 38.92655283333333, "is_disabled": 0, "is_reserved": 0, "lon": -77.02427816666666, "type": "electric_scooter", "fusion_lat": 0.0, "rental_uris": {"android": "https://dc.lft.to/lastmile_qr_scan", "ios": "https://dc.lft.to/lastmile_qr_scan"}}, {"bike_id": "8528b17fd4d84363e1bc02a47a817911", "fusion_lon": 0.0, "name": "8528b17fd4d84363e1bc02a47a817911", "lat": 38.8808075, "is_disabled": 0, "is_reserved": 0, "lon": -77.01683766666666, "type": "electric_bike", "fusion_lat": 0.0, "rental_uris": {"android": "https://dc.lft.to/lastmile_qr_scan", "ios": "https://dc.lft.to/lastmile_qr_scan"}}, {"bike_id": "83ae6ab64570567558dfb33bf03e1147", "fusion_lon": 0.0, "name": "83ae6ab64570567558dfb33bf03e1147", "lat": 38.89724, "is_disabled": 0, "is_reserved": 0, "lon": -77.03315633333334, "type": "electric_scooter", "fusion_lat": 0.0, "rental_uris": {"android": "https://dc.lft.to/lastmile_qr_scan", "ios": "https://dc.lft.to/lastmile_qr_scan"}}, {"bike_id": "d3fa591f520ab7a83875b609072f8f79", "fusion_lon": 0.0, "name": "d3fa591f520ab7a83875b609072f8f79", "lat": 38.8873705, "is_disabled": 0, "is_reserved": 0, "lon": -77.01536316666666, "type": "electric_scooter", "fusion_lat": 0.0, "rental_uris": {"android": "https://dc.lft.to/lastmile_qr_scan", "ios": "https://dc.lft.to/lastmile_qr_scan"}}, {"bike_id": "769ae89ba7255dcbec1856cca0568e42", "fusion_lon": 0.0, "name": "769ae89ba7255dcbec1856cca0568e42", "lat": 38.89976816666667, "is_disabled": 0, "is_reserved": 0, "lon": -77.05574783333333, "type": "electric_scooter", "fusion_lat": 0.0, "rental_uris": {"android": "https://dc.lft.to/lastmile_qr_scan", "ios": "https://dc.lft.to/lastmile_qr_scan"}}, {"bike_id": "472cf99a0bde1cfc3050d0654474078b", "fusion_lon": 0.0, "name": "472cf99a0bde1cfc3050d0654474078b", "lat": 38.89452266666667, "is_disabled": 0, "is_reserved": 0, "lon": -77.026996, "type": "electric_scooter", "fusion_lat": 0.0, "rental_uris": {"android": "https://dc.lft.to/lastmile_qr_scan", "ios": "https://dc.lft.to/lastmile_qr_scan"}}, {"bike_id": "ec2fa1cdc31733fc89cee2b135d037f3", "fusion_lon": 0.0, "name": "ec2fa1cdc31733fc89cee2b135d037f3", "lat": 38.89220433333333, "is_disabled": 0, "is_reserved": 0, "lon": -77.02507483333333, "type": "electric_scooter", "fusion_lat": 0.0, "rental_uris": {"android": "https://dc.lft.to/lastmile_qr_scan", "ios": "https://dc.lft.to/lastmile_qr_scan"}}, {"bike_id": "a46281b6eb1d13a9fc720ea8ce3b602a", "fusion_lon": 0.0, "name": "a46281b6eb1d13a9fc720ea8ce3b602a", "lat": 38.9063025, "is_disabled": 0, "is_reserved": 0, "lon": -77.03431866666666, "type": "electric_scooter", "fusion_lat": 0.0, "rental_uris": {"android": "https://dc.lft.to/lastmile_qr_scan", "ios": "https://dc.lft.to/lastmile_qr_scan"}}, {"bike_id": "be539d707548dca8462239630e00ae4b", "fusion_lon": 0.0, "name": "be539d707548dca8462239630e00ae4b", "lat": 38.92159616666667, "is_disabled": 0, "is_reserved": 0, "lon": -77.033229, "type": "electric_scooter", "fusion_lat": 0.0, "rental_uris": {"android": "https://dc.lft.to/lastmile_qr_scan", "ios": "https://dc.lft.to/lastmile_qr_scan"}}, {"bike_id": "87e2681d190ec1ad98940ce3a3b7697b", "fusion_lon": 0.0, "name": "87e2681d190ec1ad98940ce3a3b7697b", "lat": 38.91206966666667, "is_disabled": 0, "is_reserved": 0, "lon": -77.038477, "type": "electric_scooter", "fusion_lat": 0.0, "rental_uris": {"android": "https://dc.lft.to/lastmile_qr_scan", "ios": "https://dc.lft.to/lastmile_qr_scan"}}, {"bike_id": "4a018a134e58a8cec5d5731a3b2bc2dc", "fusion_lon": 0.0, "name": "4a018a134e58a8cec5d5731a3b2bc2dc", "lat": 38.90207383333333, "is_disabled": 0, "is_reserved": 0, "lon": -77.00587766666666, "type": "electric_scooter", "fusion_lat": 0.0, "rental_uris": {"android": "https://dc.lft.to/lastmile_qr_scan", "ios": "https://dc.lft.to/lastmile_qr_scan"}}, {"bike_id": "8019ba0a5b240d1b82149167b05544bb", "fusion_lon": 0.0, "name": "8019ba0a5b240d1b82149167b05544bb", "lat": 38.929965, "is_disabled": 0, "is_reserved": 0, "lon": -77.03239716666667, "type": "electric_scooter", "fusion_lat": 0.0, "rental_uris": {"android": "https://dc.lft.to/lastmile_qr_scan", "ios": "https://dc.lft.to/lastmile_qr_scan"}}, {"bike_id": "15ea2d2d2bc79006528f41037fc240cc", "fusion_lon": 0.0, "name": "15ea2d2d2bc79006528f41037fc240cc", "lat": 38.861347, "is_disabled": 0, "is_reserved": 0, "lon": -76.97174683333333, "type": "electric_bike", "fusion_lat": 0.0, "rental_uris": {"android": "https://dc.lft.to/lastmile_qr_scan", "ios": "https://dc.lft.to/lastmile_qr_scan"}}, {"bike_id": "c7a4532fea8478ca557d135d85bc926e", "fusion_lon": 0.0, "name": "c7a4532fea8478ca557d135d85bc926e", "lat": 38.899573333333336, "is_disabled": 0, "is_reserved": 0, "lon": -76.97536683333334, "type": "electric_scooter", "fusion_lat": 0.0, "rental_uris": {"android": "https://dc.lft.to/lastmile_qr_scan", "ios": "https://dc.lft.to/lastmile_qr_scan"}}, {"bike_id": "fde598dea668abdfe04891ced5bb696f", "fusion_lon": 0.0, "name": "fde598dea668abdfe04891ced5bb696f", "lat": 38.9119545, "is_disabled": 0, "is_reserved": 0, "lon": -77.03836416666667, "type": "electric_scooter", "fusion_lat": 0.0, "rental_uris": {"android": "https://dc.lft.to/lastmile_qr_scan", "ios": "https://dc.lft.to/lastmile_qr_scan"}}, {"bike_id": "b67fc1d8da1563da5c93c23ca30e060d", "fusion_lon": 0.0, "name": "b67fc1d8da1563da5c93c23ca30e060d", "lat": 38.9573845, "is_disabled": 0, "is_reserved": 0, "lon": -76.97254966666667, "type": "electric_bike", "fusion_lat": 0.0, "rental_uris": {"android": "https://dc.lft.to/lastmile_qr_scan", "ios": "https://dc.lft.to/lastmile_qr_scan"}}, {"bike_id": "239728017f90aacd53bccc9c955d9ab2", "fusion_lon": 0.0, "name": "239728017f90aacd53bccc9c955d9ab2", "lat": 38.957462166666666, "is_disabled": 0, "is_reserved": 0, "lon": -76.9725455, "type": "electric_bike", "fusion_lat": 0.0, "rental_uris": {"android": "https://dc.lft.to/lastmile_qr_scan", "ios": "https://dc.lft.to/lastmile_qr_scan"}}, {"bike_id": "a799a1fcd517f6c8574b3c3835c9276e", "fusion_lon": 0.0, "name": "a799a1fcd517f6c8574b3c3835c9276e", "lat": 38.8943265, "is_disabled": 0, "is_reserved": 0, "lon": -77.02636616666666, "type": "electric_scooter", "fusion_lat": 0.0, "rental_uris": {"android": "https://dc.lft.to/lastmile_qr_scan", "ios": "https://dc.lft.to/lastmile_qr_scan"}}, {"bike_id": "0a916598834436224efbc5771dfe0ebe", "fusion_lon": 0.0, "name": "0a916598834436224efbc5771dfe0ebe", "lat": 38.916986666666666, "is_disabled": 0, "is_reserved": 0, "lon": -77.00746716666667, "type": "electric_scooter", "fusion_lat": 0.0, "rental_uris": {"android": "https://dc.lft.to/lastmile_qr_scan", "ios": "https://dc.lft.to/lastmile_qr_scan"}}, {"bike_id": "d7e4303bf1bdd5b2799d67554d12cd48", "fusion_lon": 0.0, "name": "d7e4303bf1bdd5b2799d67554d12cd48", "lat": 38.90268183333333, "is_disabled": 0, "is_reserved": 0, "lon": -77.04382266666667, "type": "electric_scooter", "fusion_lat": 0.0, "rental_uris": {"android": "https://dc.lft.to/lastmile_qr_scan", "ios": "https://dc.lft.to/lastmile_qr_scan"}}, {"bike_id": "8913a9a6498f92adc7af15f1df852450", "fusion_lon": 0.0, "name": "8913a9a6498f92adc7af15f1df852450", "lat": 38.90233116666667, "is_disabled": 0, "is_reserved": 0, "lon": -77.0532385, "type": "electric_scooter", "fusion_lat": 0.0, "rental_uris": {"android": "https://dc.lft.to/lastmile_qr_scan", "ios": "https://dc.lft.to/lastmile_qr_scan"}}, {"bike_id": "7eb038181ddfae56e7380b469aefe1ce", "fusion_lon": 0.0, "name": "7eb038181ddfae56e7380b469aefe1ce", "lat": 38.9574055, "is_disabled": 0, "is_reserved": 0, "lon": -77.021679, "type": "electric_bike", "fusion_lat": 0.0, "rental_uris": {"android": "https://dc.lft.to/lastmile_qr_scan", "ios": "https://dc.lft.to/lastmile_qr_scan"}}, {"bike_id": "4b38ae2032f6b3a0fc5fe4cfe6585888", "fusion_lon": 0.0, "name": "4b38ae2032f6b3a0fc5fe4cfe6585888", "lat": 38.922234333333336, "is_disabled": 0, "is_reserved": 0, "lon": -76.993587, "type": "electric_scooter", "fusion_lat": 0.0, "rental_uris": {"android": "https://dc.lft.to/lastmile_qr_scan", "ios": "https://dc.lft.to/lastmile_qr_scan"}}, {"bike_id": "feb4a2dcdb3b8f1b4e9558ee71557cf1", "fusion_lon": 0.0, "name": "feb4a2dcdb3b8f1b4e9558ee71557cf1", "lat": 38.91320966666667, "is_disabled": 0, "is_reserved": 0, "lon": -77.02958316666667, "type": "electric_scooter", "fusion_lat": 0.0, "rental_uris": {"android": "https://dc.lft.to/lastmile_qr_scan", "ios": "https://dc.lft.to/lastmile_qr_scan"}}, {"bike_id": "a68adb4dc00dcee64529ac3176e664cc", "fusion_lon": 0.0, "name": "a68adb4dc00dcee64529ac3176e664cc", "lat": 38.897402, "is_disabled": 0, "is_reserved": 0, "lon": -77.0200465, "type": "electric_scooter", "fusion_lat": 0.0, "rental_uris": {"android": "https://dc.lft.to/lastmile_qr_scan", "ios": "https://dc.lft.to/lastmile_qr_scan"}}, {"bike_id": "f6d1bc802cc4b86496fa4ca93e3025d5", "fusion_lon": 0.0, "name": "f6d1bc802cc4b86496fa4ca93e3025d5", "lat": 38.926737, "is_disabled": 0, "is_reserved": 0, "lon": -77.098556, "type": "electric_bike", "fusion_lat": 0.0, "rental_uris": {"android": "https://dc.lft.to/lastmile_qr_scan", "ios": "https://dc.lft.to/lastmile_qr_scan"}}, {"bike_id": "36b301b2f27a097ad900a3ec3e3deab1", "fusion_lon": 0.0, "name": "36b301b2f27a097ad900a3ec3e3deab1", "lat": 38.914319, "is_disabled": 0, "is_reserved": 0, "lon": -77.02816033333333, "type": "electric_scooter", "fusion_lat": 0.0, "rental_uris": {"android": "https://dc.lft.to/lastmile_qr_scan", "ios": "https://dc.lft.to/lastmile_qr_scan"}}, {"bike_id": "23a23f7877302da11dbe47000841fee9", "fusion_lon": 0.0, "name": "23a23f7877302da11dbe47000841fee9", "lat": 38.91650216666667, "is_disabled": 0, "is_reserved": 0, "lon": -77.0386405, "type": "electric_scooter", "fusion_lat": 0.0, "rental_uris": {"android": "https://dc.lft.to/lastmile_qr_scan", "ios": "https://dc.lft.to/lastmile_qr_scan"}}, {"bike_id": "5d5afa5e34eff72434ed1daf2004abc7", "fusion_lon": 0.0, "name": "5d5afa5e34eff72434ed1daf2004abc7", "lat": 38.956335, "is_disabled": 0, "is_reserved": 0, "lon": -77.0330635, "type": "electric_scooter", "fusion_lat": 0.0, "rental_uris": {"android": "https://dc.lft.to/lastmile_qr_scan", "ios": "https://dc.lft.to/lastmile_qr_scan"}}, {"bike_id": "f990c515b9763894407bb967079d5a0c", "fusion_lon": 0.0, "name": "f990c515b9763894407bb967079d5a0c", "lat": 38.906661166666666, "is_disabled": 0, "is_reserved": 0, "lon": -77.02600033333333, "type": "electric_scooter", "fusion_lat": 0.0, "rental_uris": {"android": "https://dc.lft.to/lastmile_qr_scan", "ios": "https://dc.lft.to/lastmile_qr_scan"}}, {"bike_id": "718045828d4ed775948b362f25f409ee", "fusion_lon": 0.0, "name": "718045828d4ed775948b362f25f409ee", "lat": 38.9387445, "is_disabled": 0, "is_reserved": 0, "lon": -77.03084766666667, "type": "electric_scooter", "fusion_lat": 0.0, "rental_uris": {"android": "https://dc.lft.to/lastmile_qr_scan", "ios": "https://dc.lft.to/lastmile_qr_scan"}}, {"bike_id": "88351574345501d9fb127a1bedd80b97", "fusion_lon": 0.0, "name": "88351574345501d9fb127a1bedd80b97", "lat": 38.927241333333335, "is_disabled": 0, "is_reserved": 0, "lon": -77.02087416666667, "type": "electric_scooter", "fusion_lat": 0.0, "rental_uris": {"android": "https://dc.lft.to/lastmile_qr_scan", "ios": "https://dc.lft.to/lastmile_qr_scan"}}, {"bike_id": "09abeeb605956d832b7fe8a5bade5da0", "fusion_lon": 0.0, "name": "09abeeb605956d832b7fe8a5bade5da0", "lat": 38.89921733333333, "is_disabled": 0, "is_reserved": 0, "lon": -77.07191766666666, "type": "electric_scooter", "fusion_lat": 0.0, "rental_uris": {"android": "https://dc.lft.to/lastmile_qr_scan", "ios": "https://dc.lft.to/lastmile_qr_scan"}}, {"bike_id": "7b4d1f4da33c5b9540eff534d6895e1e", "fusion_lon": 0.0, "name": "7b4d1f4da33c5b9540eff534d6895e1e", "lat": 38.92229583333334, "is_disabled": 0, "is_reserved": 0, "lon": -77.029769, "type": "electric_scooter", "fusion_lat": 0.0, "rental_uris": {"android": "https://dc.lft.to/lastmile_qr_scan", "ios": "https://dc.lft.to/lastmile_qr_scan"}}, {"bike_id": "6de802d7904584f3581431eb3cc064ad", "fusion_lon": 0.0, "name": "6de802d7904584f3581431eb3cc064ad", "lat": 38.90569416666666, "is_disabled": 0, "is_reserved": 0, "lon": -77.04609766666667, "type": "electric_scooter", "fusion_lat": 0.0, "rental_uris": {"android": "https://dc.lft.to/lastmile_qr_scan", "ios": "https://dc.lft.to/lastmile_qr_scan"}}, {"bike_id": "23ace461650fc76124486a5f7e5026f0", "fusion_lon": 0.0, "name": "23ace461650fc76124486a5f7e5026f0", "lat": 38.89633516666667, "is_disabled": 0, "is_reserved": 0, "lon": -77.03322683333333, "type": "electric_scooter", "fusion_lat": 0.0, "rental_uris": {"android": "https://dc.lft.to/lastmile_qr_scan", "ios": "https://dc.lft.to/lastmile_qr_scan"}}, {"bike_id": "f389649a610567f8d21fc44b15285b08", "fusion_lon": 0.0, "name": "f389649a610567f8d21fc44b15285b08", "lat": 38.9433155, "is_disabled": 0, "is_reserved": 0, "lon": -77.026874, "type": "electric_scooter", "fusion_lat": 0.0, "rental_uris": {"android": "https://dc.lft.to/lastmile_qr_scan", "ios": "https://dc.lft.to/lastmile_qr_scan"}}, {"bike_id": "0dcd825ad333b230dfc65e078297dc39", "fusion_lon": 0.0, "name": "0dcd825ad333b230dfc65e078297dc39", "lat": 38.883162, "is_disabled": 0, "is_reserved": 0, "lon": -77.0175465, "type": "electric_scooter", "fusion_lat": 0.0, "rental_uris": {"android": "https://dc.lft.to/lastmile_qr_scan", "ios": "https://dc.lft.to/lastmile_qr_scan"}}, {"bike_id": "71503ecb10d733e69a3cb9d35ee309aa", "fusion_lon": 0.0, "name": "71503ecb10d733e69a3cb9d35ee309aa", "lat": 38.916378, "is_disabled": 0, "is_reserved": 0, "lon": -77.0479385, "type": "electric_scooter", "fusion_lat": 0.0, "rental_uris": {"android": "https://dc.lft.to/lastmile_qr_scan", "ios": "https://dc.lft.to/lastmile_qr_scan"}}, {"bike_id": "b5f7ddd944bcccab8faa40d9ce944d1c", "fusion_lon": 0.0, "name": "b5f7ddd944bcccab8faa40d9ce944d1c", "lat": 38.8989845, "is_disabled": 0, "is_reserved": 0, "lon": -77.0327845, "type": "electric_scooter", "fusion_lat": 0.0, "rental_uris": {"android": "https://dc.lft.to/lastmile_qr_scan", "ios": "https://dc.lft.to/lastmile_qr_scan"}}, {"bike_id": "5a88c15caf4867ee43f5c23ad01154c2", "fusion_lon": 0.0, "name": "5a88c15caf4867ee43f5c23ad01154c2", "lat": 38.9171075, "is_disabled": 0, "is_reserved": 0, "lon": -77.03474116666666, "type": "electric_scooter", "fusion_lat": 0.0, "rental_uris": {"android": "https://dc.lft.to/lastmile_qr_scan", "ios": "https://dc.lft.to/lastmile_qr_scan"}}, {"bike_id": "c790aa5a68b6e0353270e0e4c7acca70", "fusion_lon": 0.0, "name": "c790aa5a68b6e0353270e0e4c7acca70", "lat": 38.921044, "is_disabled": 0, "is_reserved": 0, "lon": -77.01322966666666, "type": "electric_scooter", "fusion_lat": 0.0, "rental_uris": {"android": "https://dc.lft.to/lastmile_qr_scan", "ios": "https://dc.lft.to/lastmile_qr_scan"}}, {"bike_id": "0a92da6c263da80603a923e436855957", "fusion_lon": 0.0, "name": "0a92da6c263da80603a923e436855957", "lat": 38.88463933333333, "is_disabled": 0, "is_reserved": 0, "lon": -76.94986616666667, "type": "electric_scooter", "fusion_lat": 0.0, "rental_uris": {"android": "https://dc.lft.to/lastmile_qr_scan", "ios": "https://dc.lft.to/lastmile_qr_scan"}}, {"bike_id": "070c60dc2e82feef2bbbb0cd2baa383f", "fusion_lon": 0.0, "name": "070c60dc2e82feef2bbbb0cd2baa383f", "lat": 38.92108983333333, "is_disabled": 0, "is_reserved": 0, "lon": -77.04404433333333, "type": "electric_scooter", "fusion_lat": 0.0, "rental_uris": {"android": "https://dc.lft.to/lastmile_qr_scan", "ios": "https://dc.lft.to/lastmile_qr_scan"}}, {"bike_id": "f4e3a1d8eac8a005e6ab4a4bcd47a744", "fusion_lon": 0.0, "name": "f4e3a1d8eac8a005e6ab4a4bcd47a744", "lat": 38.9367445, "is_disabled": 0, "is_reserved": 0, "lon": -77.0359475, "type": "electric_scooter", "fusion_lat": 0.0, "rental_uris": {"android": "https://dc.lft.to/lastmile_qr_scan", "ios": "https://dc.lft.to/lastmile_qr_scan"}}, {"bike_id": "b6079fb36505191ca98a919131d40f03", "fusion_lon": 0.0, "name": "b6079fb36505191ca98a919131d40f03", "lat": 38.9163, "is_disabled": 0, "is_reserved": 0, "lon": -77.04124183333333, "type": "electric_scooter", "fusion_lat": 0.0, "rental_uris": {"android": "https://dc.lft.to/lastmile_qr_scan", "ios": "https://dc.lft.to/lastmile_qr_scan"}}, {"bike_id": "885192361ed1045d3aa589475ba139b3", "fusion_lon": 0.0, "name": "885192361ed1045d3aa589475ba139b3", "lat": 38.87664916666667, "is_disabled": 0, "is_reserved": 0, "lon": -77.00516683333333, "type": "electric_scooter", "fusion_lat": 0.0, "rental_uris": {"android": "https://dc.lft.to/lastmile_qr_scan", "ios": "https://dc.lft.to/lastmile_qr_scan"}}, {"bike_id": "ca8997a5efdafdaf94fbd3a56ea5ab6e", "fusion_lon": 0.0, "name": "ca8997a5efdafdaf94fbd3a56ea5ab6e", "lat": 38.9260975, "is_disabled": 0, "is_reserved": 0, "lon": -77.057163, "type": "electric_scooter", "fusion_lat": 0.0, "rental_uris": {"android": "https://dc.lft.to/lastmile_qr_scan", "ios": "https://dc.lft.to/lastmile_qr_scan"}}, {"bike_id": "78546bdba9e7eb7bac28b37288584065", "fusion_lon": 0.0, "name": "78546bdba9e7eb7bac28b37288584065", "lat": 38.924793333333334, "is_disabled": 0, "is_reserved": 0, "lon": -77.0265025, "type": "electric_scooter", "fusion_lat": 0.0, "rental_uris": {"android": "https://dc.lft.to/lastmile_qr_scan", "ios": "https://dc.lft.to/lastmile_qr_scan"}}, {"bike_id": "5eb43886c3387cd1a5eb218b80efbae4", "fusion_lon": 0.0, "name": "5eb43886c3387cd1a5eb218b80efbae4", "lat": 38.896574666666666, "is_disabled": 0, "is_reserved": 0, "lon": -77.02610633333333, "type": "electric_scooter", "fusion_lat": 0.0, "rental_uris": {"android": "https://dc.lft.to/lastmile_qr_scan", "ios": "https://dc.lft.to/lastmile_qr_scan"}}, {"bike_id": "d91b023fdbfe06c2e03b16b2f573c1ef", "fusion_lon": 0.0, "name": "d91b023fdbfe06c2e03b16b2f573c1ef", "lat": 38.91556166666667, "is_disabled": 0, "is_reserved": 0, "lon": -77.037751, "type": "electric_scooter", "fusion_lat": 0.0, "rental_uris": {"android": "https://dc.lft.to/lastmile_qr_scan", "ios": "https://dc.lft.to/lastmile_qr_scan"}}, {"bike_id": "99ba63931d10f34768a854f034c9138b", "fusion_lon": 0.0, "name": "99ba63931d10f34768a854f034c9138b", "lat": 38.92365566666667, "is_disabled": 0, "is_reserved": 0, "lon": -77.05032583333333, "type": "electric_scooter", "fusion_lat": 0.0, "rental_uris": {"android": "https://dc.lft.to/lastmile_qr_scan", "ios": "https://dc.lft.to/lastmile_qr_scan"}}, {"bike_id": "27c7860a7fca56ee8616c6ec213dc19c", "fusion_lon": 0.0, "name": "27c7860a7fca56ee8616c6ec213dc19c", "lat": 38.90947116666667, "is_disabled": 0, "is_reserved": 0, "lon": -77.03182733333334, "type": "electric_scooter", "fusion_lat": 0.0, "rental_uris": {"android": "https://dc.lft.to/lastmile_qr_scan", "ios": "https://dc.lft.to/lastmile_qr_scan"}}, {"bike_id": "0697765f7d8f380a971945fc72cf971f", "fusion_lon": 0.0, "name": "0697765f7d8f380a971945fc72cf971f", "lat": 38.886194, "is_disabled": 0, "is_reserved": 0, "lon": -77.01537883333333, "type": "electric_scooter", "fusion_lat": 0.0, "rental_uris": {"android": "https://dc.lft.to/lastmile_qr_scan", "ios": "https://dc.lft.to/lastmile_qr_scan"}}, {"bike_id": "75faf220976a45b190a92c928af64bd1", "fusion_lon": 0.0, "name": "75faf220976a45b190a92c928af64bd1", "lat": 38.894967666666666, "is_disabled": 0, "is_reserved": 0, "lon": -77.00208866666667, "type": "electric_scooter", "fusion_lat": 0.0, "rental_uris": {"android": "https://dc.lft.to/lastmile_qr_scan", "ios": "https://dc.lft.to/lastmile_qr_scan"}}, {"bike_id": "4fb8cb63f257e1a39e184993e69ac17e", "fusion_lon": 0.0, "name": "4fb8cb63f257e1a39e184993e69ac17e", "lat": 38.912633, "is_disabled": 0, "is_reserved": 0, "lon": -77.01440916666667, "type": "electric_scooter", "fusion_lat": 0.0, "rental_uris": {"android": "https://dc.lft.to/lastmile_qr_scan", "ios": "https://dc.lft.to/lastmile_qr_scan"}}, {"bike_id": "2e2c6a5d171e9104bc79b2bf858f7bc5", "fusion_lon": 0.0, "name": "2e2c6a5d171e9104bc79b2bf858f7bc5", "lat": 38.891702333333335, "is_disabled": 0, "is_reserved": 0, "lon": -77.01537833333333, "type": "electric_scooter", "fusion_lat": 0.0, "rental_uris": {"android": "https://dc.lft.to/lastmile_qr_scan", "ios": "https://dc.lft.to/lastmile_qr_scan"}}, {"bike_id": "4521c19ca26ffcebcd0869de179fc743", "fusion_lon": 0.0, "name": "4521c19ca26ffcebcd0869de179fc743", "lat": 38.912661666666665, "is_disabled": 0, "is_reserved": 0, "lon": -77.03838616666667, "type": "electric_scooter", "fusion_lat": 0.0, "rental_uris": {"android": "https://dc.lft.to/lastmile_qr_scan", "ios": "https://dc.lft.to/lastmile_qr_scan"}}, {"bike_id": "c6b5f1ac0e3dcb5d169dfa63cba19f84", "fusion_lon": 0.0, "name": "c6b5f1ac0e3dcb5d169dfa63cba19f84", "lat": 38.93555033333333, "is_disabled": 0, "is_reserved": 0, "lon": -77.07456583333334, "type": "electric_scooter", "fusion_lat": 0.0, "rental_uris": {"android": "https://dc.lft.to/lastmile_qr_scan", "ios": "https://dc.lft.to/lastmile_qr_scan"}}, {"bike_id": "c6e11d16ba0d7a59463a8a0f3fb4f9f0", "fusion_lon": 0.0, "name": "c6e11d16ba0d7a59463a8a0f3fb4f9f0", "lat": 38.9391585, "is_disabled": 0, "is_reserved": 0, "lon": -77.06052916666667, "type": "electric_scooter", "fusion_lat": 0.0, "rental_uris": {"android": "https://dc.lft.to/lastmile_qr_scan", "ios": "https://dc.lft.to/lastmile_qr_scan"}}, {"bike_id": "cf9296f38b52bd8fe39c8c265fbb8b22", "fusion_lon": 0.0, "name": "cf9296f38b52bd8fe39c8c265fbb8b22", "lat": 38.91936833333333, "is_disabled": 0, "is_reserved": 0, "lon": -77.0185075, "type": "electric_scooter", "fusion_lat": 0.0, "rental_uris": {"android": "https://dc.lft.to/lastmile_qr_scan", "ios": "https://dc.lft.to/lastmile_qr_scan"}}, {"bike_id": "7b5d28499457e54e301ab36a84b00f0d", "fusion_lon": 0.0, "name": "7b5d28499457e54e301ab36a84b00f0d", "lat": 38.883903833333335, "is_disabled": 0, "is_reserved": 0, "lon": -76.93051333333334, "type": "electric_scooter", "fusion_lat": 0.0, "rental_uris": {"android": "https://dc.lft.to/lastmile_qr_scan", "ios": "https://dc.lft.to/lastmile_qr_scan"}}, {"bike_id": "594328d7907b5130dad0f04981917ff2", "fusion_lon": 0.0, "name": "594328d7907b5130dad0f04981917ff2", "lat": 38.923106833333335, "is_disabled": 0, "is_reserved": 0, "lon": -77.0440055, "type": "electric_scooter", "fusion_lat": 0.0, "rental_uris": {"android": "https://dc.lft.to/lastmile_qr_scan", "ios": "https://dc.lft.to/lastmile_qr_scan"}}, {"bike_id": "2d4c13d9536c4aadc0e2dd876b1598c4", "fusion_lon": 0.0, "name": "2d4c13d9536c4aadc0e2dd876b1598c4", "lat": 38.89226633333333, "is_disabled": 0, "is_reserved": 0, "lon": -77.02181066666667, "type": "electric_scooter", "fusion_lat": 0.0, "rental_uris": {"android": "https://dc.lft.to/lastmile_qr_scan", "ios": "https://dc.lft.to/lastmile_qr_scan"}}, {"bike_id": "eadceb0cda3a8729b5868cc76d450015", "fusion_lon": 0.0, "name": "eadceb0cda3a8729b5868cc76d450015", "lat": 38.9489185, "is_disabled": 0, "is_reserved": 0, "lon": -76.963762, "type": "electric_bike", "fusion_lat": 0.0, "rental_uris": {"android": "https://dc.lft.to/lastmile_qr_scan", "ios": "https://dc.lft.to/lastmile_qr_scan"}}, {"bike_id": "c3e4fea94a610938c90afd33bd0437e8", "fusion_lon": 0.0, "name": "c3e4fea94a610938c90afd33bd0437e8", "lat": 38.89554566666666, "is_disabled": 0, "is_reserved": 0, "lon": -77.046747, "type": "electric_scooter", "fusion_lat": 0.0, "rental_uris": {"android": "https://dc.lft.to/lastmile_qr_scan", "ios": "https://dc.lft.to/lastmile_qr_scan"}}, {"bike_id": "ed2fb4c4da8525f4a4fdb54ea70bea82", "fusion_lon": 0.0, "name": "ed2fb4c4da8525f4a4fdb54ea70bea82", "lat": 38.89232833333333, "is_disabled": 0, "is_reserved": 0, "lon": -77.04155233333333, "type": "electric_scooter", "fusion_lat": 0.0, "rental_uris": {"android": "https://dc.lft.to/lastmile_qr_scan", "ios": "https://dc.lft.to/lastmile_qr_scan"}}, {"bike_id": "c7461a63d8957241b6113e17ae4c7fcd", "fusion_lon": 0.0, "name": "c7461a63d8957241b6113e17ae4c7fcd", "lat": 38.931332166666664, "is_disabled": 0, "is_reserved": 0, "lon": -77.03258416666667, "type": "electric_scooter", "fusion_lat": 0.0, "rental_uris": {"android": "https://dc.lft.to/lastmile_qr_scan", "ios": "https://dc.lft.to/lastmile_qr_scan"}}, {"bike_id": "bd3628793742fb588e2c4733d02d82c0", "fusion_lon": 0.0, "name": "bd3628793742fb588e2c4733d02d82c0", "lat": 38.873908666666665, "is_disabled": 0, "is_reserved": 0, "lon": -77.00059116666667, "type": "electric_scooter", "fusion_lat": 0.0, "rental_uris": {"android": "https://dc.lft.to/lastmile_qr_scan", "ios": "https://dc.lft.to/lastmile_qr_scan"}}, {"bike_id": "5b183e0b7d9f1d3554cc4a760529f3da", "fusion_lon": 0.0, "name": "5b183e0b7d9f1d3554cc4a760529f3da", "lat": 38.86415933333333, "is_disabled": 0, "is_reserved": 0, "lon": -76.990035, "type": "electric_scooter", "fusion_lat": 0.0, "rental_uris": {"android": "https://dc.lft.to/lastmile_qr_scan", "ios": "https://dc.lft.to/lastmile_qr_scan"}}, {"bike_id": "523ad3095bd279761cfe4daa7735afb8", "fusion_lon": 0.0, "name": "523ad3095bd279761cfe4daa7735afb8", "lat": 38.88619666666666, "is_disabled": 0, "is_reserved": 0, "lon": -77.02123216666666, "type": "electric_scooter", "fusion_lat": 0.0, "rental_uris": {"android": "https://dc.lft.to/lastmile_qr_scan", "ios": "https://dc.lft.to/lastmile_qr_scan"}}, {"bike_id": "057a02aeca4a63272057b026a46d6555", "fusion_lon": 0.0, "name": "057a02aeca4a63272057b026a46d6555", "lat": 38.89040833333333, "is_disabled": 0, "is_reserved": 0, "lon": -76.95248016666666, "type": "electric_scooter", "fusion_lat": 0.0, "rental_uris": {"android": "https://dc.lft.to/lastmile_qr_scan", "ios": "https://dc.lft.to/lastmile_qr_scan"}}, {"bike_id": "b6a52310fb2fe9dad8c5c086bad3a2b1", "fusion_lon": 0.0, "name": "b6a52310fb2fe9dad8c5c086bad3a2b1", "lat": 38.91582016666667, "is_disabled": 0, "is_reserved": 0, "lon": -77.02113833333334, "type": "electric_scooter", "fusion_lat": 0.0, "rental_uris": {"android": "https://dc.lft.to/lastmile_qr_scan", "ios": "https://dc.lft.to/lastmile_qr_scan"}}, {"bike_id": "be7669fd4a9933496e2ae0c0ca7d20a9", "fusion_lon": 0.0, "name": "be7669fd4a9933496e2ae0c0ca7d20a9", "lat": 38.900439, "is_disabled": 0, "is_reserved": 0, "lon": -77.000468, "type": "electric_scooter", "fusion_lat": 0.0, "rental_uris": {"android": "https://dc.lft.to/lastmile_qr_scan", "ios": "https://dc.lft.to/lastmile_qr_scan"}}, {"bike_id": "8b1f757f17574ece7c4cb3fb28dc6fbf", "fusion_lon": 0.0, "name": "8b1f757f17574ece7c4cb3fb28dc6fbf", "lat": 38.882978, "is_disabled": 0, "is_reserved": 0, "lon": -76.948571, "type": "electric_scooter", "fusion_lat": 0.0, "rental_uris": {"android": "https://dc.lft.to/lastmile_qr_scan", "ios": "https://dc.lft.to/lastmile_qr_scan"}}, {"bike_id": "5169169e65ddf06b417b48d5f385db5e", "fusion_lon": 0.0, "name": "5169169e65ddf06b417b48d5f385db5e", "lat": 38.856967166666664, "is_disabled": 0, "is_reserved": 0, "lon": -76.99595866666667, "type": "electric_scooter", "fusion_lat": 0.0, "rental_uris": {"android": "https://dc.lft.to/lastmile_qr_scan", "ios": "https://dc.lft.to/lastmile_qr_scan"}}, {"bike_id": "b14108d9e785b6be2629572249485644", "fusion_lon": 0.0, "name": "b14108d9e785b6be2629572249485644", "lat": 38.8962615, "is_disabled": 0, "is_reserved": 0, "lon": -76.98837866666666, "type": "electric_scooter", "fusion_lat": 0.0, "rental_uris": {"android": "https://dc.lft.to/lastmile_qr_scan", "ios": "https://dc.lft.to/lastmile_qr_scan"}}, {"bike_id": "68488ffb10f0a8a57c94ae917fb52de8", "fusion_lon": 0.0, "name": "68488ffb10f0a8a57c94ae917fb52de8", "lat": 38.915306333333334, "is_disabled": 0, "is_reserved": 0, "lon": -77.01222833333334, "type": "electric_scooter", "fusion_lat": 0.0, "rental_uris": {"android": "https://dc.lft.to/lastmile_qr_scan", "ios": "https://dc.lft.to/lastmile_qr_scan"}}, {"bike_id": "566888d5d7be94de21ab81948d465558", "fusion_lon": 0.0, "name": "566888d5d7be94de21ab81948d465558", "lat": 38.88713666666666, "is_disabled": 0, "is_reserved": 0, "lon": -77.02205016666667, "type": "electric_scooter", "fusion_lat": 0.0, "rental_uris": {"android": "https://dc.lft.to/lastmile_qr_scan", "ios": "https://dc.lft.to/lastmile_qr_scan"}}, {"bike_id": "095d91ff46b4d7e2012f4ff600676cf0", "fusion_lon": 0.0, "name": "095d91ff46b4d7e2012f4ff600676cf0", "lat": 38.91708933333334, "is_disabled": 0, "is_reserved": 0, "lon": -77.02895466666666, "type": "electric_scooter", "fusion_lat": 0.0, "rental_uris": {"android": "https://dc.lft.to/lastmile_qr_scan", "ios": "https://dc.lft.to/lastmile_qr_scan"}}, {"bike_id": "5e8d05465dcbc33e6a50f2216e1468d9", "fusion_lon": 0.0, "name": "5e8d05465dcbc33e6a50f2216e1468d9", "lat": 38.89848166666667, "is_disabled": 0, "is_reserved": 0, "lon": -77.02857166666666, "type": "electric_scooter", "fusion_lat": 0.0, "rental_uris": {"android": "https://dc.lft.to/lastmile_qr_scan", "ios": "https://dc.lft.to/lastmile_qr_scan"}}, {"bike_id": "75bd19803eb336cfa7e6d18b64a11d77", "fusion_lon": 0.0, "name": "75bd19803eb336cfa7e6d18b64a11d77", "lat": 38.92846083333333, "is_disabled": 0, "is_reserved": 0, "lon": -77.03521983333333, "type": "electric_scooter", "fusion_lat": 0.0, "rental_uris": {"android": "https://dc.lft.to/lastmile_qr_scan", "ios": "https://dc.lft.to/lastmile_qr_scan"}}, {"bike_id": "8bf4d361d91fb7a16386aa3c82c83096", "fusion_lon": 0.0, "name": "8bf4d361d91fb7a16386aa3c82c83096", "lat": 38.9158805, "is_disabled": 0, "is_reserved": 0, "lon": -76.97971916666667, "type": "electric_scooter", "fusion_lat": 0.0, "rental_uris": {"android": "https://dc.lft.to/lastmile_qr_scan", "ios": "https://dc.lft.to/lastmile_qr_scan"}}, {"bike_id": "1fcbb1a0834930a0829123c10e20318c", "fusion_lon": 0.0, "name": "1fcbb1a0834930a0829123c10e20318c", "lat": 38.923180333333335, "is_disabled": 0, "is_reserved": 0, "lon": -77.0381425, "type": "electric_scooter", "fusion_lat": 0.0, "rental_uris": {"android": "https://dc.lft.to/lastmile_qr_scan", "ios": "https://dc.lft.to/lastmile_qr_scan"}}, {"bike_id": "f4eae1317427109778b1cf7e85553c6b", "fusion_lon": 0.0, "name": "f4eae1317427109778b1cf7e85553c6b", "lat": 38.89102616666667, "is_disabled": 0, "is_reserved": 0, "lon": -77.18416083333334, "type": "electric_bike", "fusion_lat": 0.0, "rental_uris": {"android": "https://dc.lft.to/lastmile_qr_scan", "ios": "https://dc.lft.to/lastmile_qr_scan"}}, {"bike_id": "24c57ee6e83111f12119562883fe543c", "fusion_lon": 0.0, "name": "24c57ee6e83111f12119562883fe543c", "lat": 38.92888, "is_disabled": 0, "is_reserved": 0, "lon": -77.03272766666667, "type": "electric_scooter", "fusion_lat": 0.0, "rental_uris": {"android": "https://dc.lft.to/lastmile_qr_scan", "ios": "https://dc.lft.to/lastmile_qr_scan"}}, {"bike_id": "8593976f28c87bad595542ed88d74953", "fusion_lon": 0.0, "name": "8593976f28c87bad595542ed88d74953", "lat": 38.89867133333333, "is_disabled": 0, "is_reserved": 0, "lon": -77.029482, "type": "electric_scooter", "fusion_lat": 0.0, "rental_uris": {"android": "https://dc.lft.to/lastmile_qr_scan", "ios": "https://dc.lft.to/lastmile_qr_scan"}}, {"bike_id": "500265ad8319007d418763554a805ff8", "fusion_lon": 0.0, "name": "500265ad8319007d418763554a805ff8", "lat": 38.92260483333333, "is_disabled": 0, "is_reserved": 0, "lon": -77.020396, "type": "electric_scooter", "fusion_lat": 0.0, "rental_uris": {"android": "https://dc.lft.to/lastmile_qr_scan", "ios": "https://dc.lft.to/lastmile_qr_scan"}}, {"bike_id": "32a4711ff5bce1badc2859ed4a2c2fb3", "fusion_lon": 0.0, "name": "32a4711ff5bce1badc2859ed4a2c2fb3", "lat": 38.90820133333333, "is_disabled": 0, "is_reserved": 0, "lon": -77.0549765, "type": "electric_scooter", "fusion_lat": 0.0, "rental_uris": {"android": "https://dc.lft.to/lastmile_qr_scan", "ios": "https://dc.lft.to/lastmile_qr_scan"}}, {"bike_id": "48e9b4cc58ed040720b6daa090695a12", "fusion_lon": 0.0, "name": "48e9b4cc58ed040720b6daa090695a12", "lat": 38.952810666666664, "is_disabled": 0, "is_reserved": 0, "lon": -77.01801433333333, "type": "electric_scooter", "fusion_lat": 0.0, "rental_uris": {"android": "https://dc.lft.to/lastmile_qr_scan", "ios": "https://dc.lft.to/lastmile_qr_scan"}}, {"bike_id": "e1d1af5dc65b0a9c658a8e9f2c6658cd", "fusion_lon": 0.0, "name": "e1d1af5dc65b0a9c658a8e9f2c6658cd", "lat": 38.91705266666666, "is_disabled": 0, "is_reserved": 0, "lon": -77.01214516666667, "type": "electric_scooter", "fusion_lat": 0.0, "rental_uris": {"android": "https://dc.lft.to/lastmile_qr_scan", "ios": "https://dc.lft.to/lastmile_qr_scan"}}, {"bike_id": "6a56c0b056b47ac7254f3796bfba733c", "fusion_lon": 0.0, "name": "6a56c0b056b47ac7254f3796bfba733c", "lat": 38.9031905, "is_disabled": 0, "is_reserved": 0, "lon": -77.04470266666667, "type": "electric_scooter", "fusion_lat": 0.0, "rental_uris": {"android": "https://dc.lft.to/lastmile_qr_scan", "ios": "https://dc.lft.to/lastmile_qr_scan"}}, {"bike_id": "d03a8f7862aafdec830b1113e8f65451", "fusion_lon": 0.0, "name": "d03a8f7862aafdec830b1113e8f65451", "lat": 38.87679516666667, "is_disabled": 0, "is_reserved": 0, "lon": -77.01788916666666, "type": "electric_scooter", "fusion_lat": 0.0, "rental_uris": {"android": "https://dc.lft.to/lastmile_qr_scan", "ios": "https://dc.lft.to/lastmile_qr_scan"}}, {"bike_id": "afbd2629922cca473d4fa3ca4bdb21fd", "fusion_lon": 0.0, "name": "afbd2629922cca473d4fa3ca4bdb21fd", "lat": 38.91877316666667, "is_disabled": 0, "is_reserved": 0, "lon": -77.040707, "type": "electric_scooter", "fusion_lat": 0.0, "rental_uris": {"android": "https://dc.lft.to/lastmile_qr_scan", "ios": "https://dc.lft.to/lastmile_qr_scan"}}, {"bike_id": "7cc5dbe27ad26ca63d6710c1225a45d5", "fusion_lon": 0.0, "name": "7cc5dbe27ad26ca63d6710c1225a45d5", "lat": 38.954037, "is_disabled": 0, "is_reserved": 0, "lon": -77.0274655, "type": "electric_scooter", "fusion_lat": 0.0, "rental_uris": {"android": "https://dc.lft.to/lastmile_qr_scan", "ios": "https://dc.lft.to/lastmile_qr_scan"}}, {"bike_id": "ff0f18f6bbda608882350b78c8c91334", "fusion_lon": 0.0, "name": "ff0f18f6bbda608882350b78c8c91334", "lat": 38.8948845, "is_disabled": 0, "is_reserved": 0, "lon": -77.0151565, "type": "electric_scooter", "fusion_lat": 0.0, "rental_uris": {"android": "https://dc.lft.to/lastmile_qr_scan", "ios": "https://dc.lft.to/lastmile_qr_scan"}}, {"bike_id": "7c0026634837575e5063b36abcf0051c", "fusion_lon": 0.0, "name": "7c0026634837575e5063b36abcf0051c", "lat": 38.9378245, "is_disabled": 0, "is_reserved": 0, "lon": -77.02471716666666, "type": "electric_scooter", "fusion_lat": 0.0, "rental_uris": {"android": "https://dc.lft.to/lastmile_qr_scan", "ios": "https://dc.lft.to/lastmile_qr_scan"}}, {"bike_id": "866aad77cea75a4fa634d93e78943b49", "fusion_lon": 0.0, "name": "866aad77cea75a4fa634d93e78943b49", "lat": 38.9287675, "is_disabled": 0, "is_reserved": 0, "lon": -77.03287733333333, "type": "electric_scooter", "fusion_lat": 0.0, "rental_uris": {"android": "https://dc.lft.to/lastmile_qr_scan", "ios": "https://dc.lft.to/lastmile_qr_scan"}}, {"bike_id": "8086aa38c7405785414ea457a8310200", "fusion_lon": 0.0, "name": "8086aa38c7405785414ea457a8310200", "lat": 38.9084305, "is_disabled": 0, "is_reserved": 0, "lon": -77.05492883333334, "type": "electric_bike", "fusion_lat": 0.0, "rental_uris": {"android": "https://dc.lft.to/lastmile_qr_scan", "ios": "https://dc.lft.to/lastmile_qr_scan"}}, {"bike_id": "47e7163a33d1391cb946f8af73de6fd8", "fusion_lon": 0.0, "name": "47e7163a33d1391cb946f8af73de6fd8", "lat": 38.9318295, "is_disabled": 0, "is_reserved": 0, "lon": -77.0429805, "type": "electric_scooter", "fusion_lat": 0.0, "rental_uris": {"android": "https://dc.lft.to/lastmile_qr_scan", "ios": "https://dc.lft.to/lastmile_qr_scan"}}, {"bike_id": "8889ac077466530c08be46e0c628d3aa", "fusion_lon": 0.0, "name": "8889ac077466530c08be46e0c628d3aa", "lat": 38.884493, "is_disabled": 0, "is_reserved": 0, "lon": -76.998363, "type": "electric_scooter", "fusion_lat": 0.0, "rental_uris": {"android": "https://dc.lft.to/lastmile_qr_scan", "ios": "https://dc.lft.to/lastmile_qr_scan"}}, {"bike_id": "ca59bea2aa5094afb653b05a78f74951", "fusion_lon": 0.0, "name": "ca59bea2aa5094afb653b05a78f74951", "lat": 38.91359166666667, "is_disabled": 0, "is_reserved": 0, "lon": -77.01990666666667, "type": "electric_scooter", "fusion_lat": 0.0, "rental_uris": {"android": "https://dc.lft.to/lastmile_qr_scan", "ios": "https://dc.lft.to/lastmile_qr_scan"}}, {"bike_id": "b9bc33635c93c5e80ec4a6a4ec3667a6", "fusion_lon": 0.0, "name": "b9bc33635c93c5e80ec4a6a4ec3667a6", "lat": 38.92020933333333, "is_disabled": 0, "is_reserved": 0, "lon": -77.01259766666666, "type": "electric_scooter", "fusion_lat": 0.0, "rental_uris": {"android": "https://dc.lft.to/lastmile_qr_scan", "ios": "https://dc.lft.to/lastmile_qr_scan"}}, {"bike_id": "6b70560ce7eca0d54af75e3526f53245", "fusion_lon": 0.0, "name": "6b70560ce7eca0d54af75e3526f53245", "lat": 38.93181766666667, "is_disabled": 0, "is_reserved": 0, "lon": -77.03852783333333, "type": "electric_scooter", "fusion_lat": 0.0, "rental_uris": {"android": "https://dc.lft.to/lastmile_qr_scan", "ios": "https://dc.lft.to/lastmile_qr_scan"}}, {"bike_id": "9a475e3b8852a5c4ff740ca9d12e4df2", "fusion_lon": 0.0, "name": "9a475e3b8852a5c4ff740ca9d12e4df2", "lat": 38.905262666666665, "is_disabled": 0, "is_reserved": 0, "lon": -77.06379916666667, "type": "electric_scooter", "fusion_lat": 0.0, "rental_uris": {"android": "https://dc.lft.to/lastmile_qr_scan", "ios": "https://dc.lft.to/lastmile_qr_scan"}}, {"bike_id": "a8e5d553cf6d51fc78626c35b06c4176", "fusion_lon": 0.0, "name": "a8e5d553cf6d51fc78626c35b06c4176", "lat": 38.96732133333333, "is_disabled": 0, "is_reserved": 0, "lon": -77.00918316666667, "type": "electric_scooter", "fusion_lat": 0.0, "rental_uris": {"android": "https://dc.lft.to/lastmile_qr_scan", "ios": "https://dc.lft.to/lastmile_qr_scan"}}, {"bike_id": "9beee4290371f02e21fcfdb9225ce7e3", "fusion_lon": 0.0, "name": "9beee4290371f02e21fcfdb9225ce7e3", "lat": 38.952442833333336, "is_disabled": 0, "is_reserved": 0, "lon": -77.0238415, "type": "electric_scooter", "fusion_lat": 0.0, "rental_uris": {"android": "https://dc.lft.to/lastmile_qr_scan", "ios": "https://dc.lft.to/lastmile_qr_scan"}}, {"bike_id": "2a25b65dab25bbd50f58eb27aa62d37f", "fusion_lon": 0.0, "name": "2a25b65dab25bbd50f58eb27aa62d37f", "lat": 38.928600333333335, "is_disabled": 0, "is_reserved": 0, "lon": -77.03225816666667, "type": "electric_scooter", "fusion_lat": 0.0, "rental_uris": {"android": "https://dc.lft.to/lastmile_qr_scan", "ios": "https://dc.lft.to/lastmile_qr_scan"}}, {"bike_id": "1e49c5b3eab8e14078fced566a1e5444", "fusion_lon": 0.0, "name": "1e49c5b3eab8e14078fced566a1e5444", "lat": 38.905912, "is_disabled": 0, "is_reserved": 0, "lon": -77.0403885, "type": "electric_scooter", "fusion_lat": 0.0, "rental_uris": {"android": "https://dc.lft.to/lastmile_qr_scan", "ios": "https://dc.lft.to/lastmile_qr_scan"}}, {"bike_id": "0e9ab6b42a8e068099c3dd4e66223c40", "fusion_lon": 0.0, "name": "0e9ab6b42a8e068099c3dd4e66223c40", "lat": 38.892512333333336, "is_disabled": 0, "is_reserved": 0, "lon": -76.95125183333333, "type": "electric_bike", "fusion_lat": 0.0, "rental_uris": {"android": "https://dc.lft.to/lastmile_qr_scan", "ios": "https://dc.lft.to/lastmile_qr_scan"}}, {"bike_id": "368dbe82996e806b96413ec29f49c882", "fusion_lon": 0.0, "name": "368dbe82996e806b96413ec29f49c882", "lat": 38.885006, "is_disabled": 0, "is_reserved": 0, "lon": -77.00566783333333, "type": "electric_scooter", "fusion_lat": 0.0, "rental_uris": {"android": "https://dc.lft.to/lastmile_qr_scan", "ios": "https://dc.lft.to/lastmile_qr_scan"}}, {"bike_id": "023d32a65c7b0f7813a3a3c7ad349e46", "fusion_lon": 0.0, "name": "023d32a65c7b0f7813a3a3c7ad349e46", "lat": 38.9222495, "is_disabled": 0, "is_reserved": 0, "lon": -77.042404, "type": "electric_scooter", "fusion_lat": 0.0, "rental_uris": {"android": "https://dc.lft.to/lastmile_qr_scan", "ios": "https://dc.lft.to/lastmile_qr_scan"}}, {"bike_id": "9daec60a4d968c9de296fbe221de2946", "fusion_lon": 0.0, "name": "9daec60a4d968c9de296fbe221de2946", "lat": 38.896238333333336, "is_disabled": 0, "is_reserved": 0, "lon": -77.02657133333334, "type": "electric_scooter", "fusion_lat": 0.0, "rental_uris": {"android": "https://dc.lft.to/lastmile_qr_scan", "ios": "https://dc.lft.to/lastmile_qr_scan"}}, {"bike_id": "f8a7bb1a85e877741d12d232939ebce7", "fusion_lon": 0.0, "name": "f8a7bb1a85e877741d12d232939ebce7", "lat": 38.88328516666667, "is_disabled": 0, "is_reserved": 0, "lon": -77.01739016666667, "type": "electric_scooter", "fusion_lat": 0.0, "rental_uris": {"android": "https://dc.lft.to/lastmile_qr_scan", "ios": "https://dc.lft.to/lastmile_qr_scan"}}, {"bike_id": "dd45a358dcea7d70511906289defa681", "fusion_lon": 0.0, "name": "dd45a358dcea7d70511906289defa681", "lat": 38.89624716666667, "is_disabled": 0, "is_reserved": 0, "lon": -77.028552, "type": "electric_scooter", "fusion_lat": 0.0, "rental_uris": {"android": "https://dc.lft.to/lastmile_qr_scan", "ios": "https://dc.lft.to/lastmile_qr_scan"}}, {"bike_id": "8546b2db87233300ff5ed828474fe530", "fusion_lon": 0.0, "name": "8546b2db87233300ff5ed828474fe530", "lat": 38.916645333333335, "is_disabled": 0, "is_reserved": 0, "lon": -77.0271495, "type": "electric_scooter", "fusion_lat": 0.0, "rental_uris": {"android": "https://dc.lft.to/lastmile_qr_scan", "ios": "https://dc.lft.to/lastmile_qr_scan"}}, {"bike_id": "d83c90e8185f546808b83963a2565445", "fusion_lon": 0.0, "name": "d83c90e8185f546808b83963a2565445", "lat": 38.89493933333333, "is_disabled": 0, "is_reserved": 0, "lon": -77.0261575, "type": "electric_scooter", "fusion_lat": 0.0, "rental_uris": {"android": "https://dc.lft.to/lastmile_qr_scan", "ios": "https://dc.lft.to/lastmile_qr_scan"}}, {"bike_id": "0067cf00b9ea6f54bc1acfa04eac0d20", "fusion_lon": 0.0, "name": "0067cf00b9ea6f54bc1acfa04eac0d20", "lat": 38.8873605, "is_disabled": 0, "is_reserved": 0, "lon": -77.01538466666666, "type": "electric_scooter", "fusion_lat": 0.0, "rental_uris": {"android": "https://dc.lft.to/lastmile_qr_scan", "ios": "https://dc.lft.to/lastmile_qr_scan"}}, {"bike_id": "0d5e77525a5596e3e0cfc4c4ccad448c", "fusion_lon": 0.0, "name": "0d5e77525a5596e3e0cfc4c4ccad448c", "lat": 38.855100666666665, "is_disabled": 0, "is_reserved": 0, "lon": -77.12044216666666, "type": "electric_bike", "fusion_lat": 0.0, "rental_uris": {"android": "https://dc.lft.to/lastmile_qr_scan", "ios": "https://dc.lft.to/lastmile_qr_scan"}}, {"bike_id": "3a9717bb981fc2f07347f36556718f6b", "fusion_lon": 0.0, "name": "3a9717bb981fc2f07347f36556718f6b", "lat": 38.9104965, "is_disabled": 0, "is_reserved": 0, "lon": -77.0435345, "type": "electric_scooter", "fusion_lat": 0.0, "rental_uris": {"android": "https://dc.lft.to/lastmile_qr_scan", "ios": "https://dc.lft.to/lastmile_qr_scan"}}, {"bike_id": "efb7af49a3c192ee9f566e311a09cd52", "fusion_lon": 0.0, "name": "efb7af49a3c192ee9f566e311a09cd52", "lat": 38.964739, "is_disabled": 0, "is_reserved": 0, "lon": -77.01197066666667, "type": "electric_scooter", "fusion_lat": 0.0, "rental_uris": {"android": "https://dc.lft.to/lastmile_qr_scan", "ios": "https://dc.lft.to/lastmile_qr_scan"}}, {"bike_id": "cee395c802244b7c7f74b3a55949981f", "fusion_lon": 0.0, "name": "cee395c802244b7c7f74b3a55949981f", "lat": 38.92233783333333, "is_disabled": 0, "is_reserved": 0, "lon": -77.04654216666667, "type": "electric_scooter", "fusion_lat": 0.0, "rental_uris": {"android": "https://dc.lft.to/lastmile_qr_scan", "ios": "https://dc.lft.to/lastmile_qr_scan"}}, {"bike_id": "dbd953732a2880e73e52ff42200d3818", "fusion_lon": 0.0, "name": "dbd953732a2880e73e52ff42200d3818", "lat": 38.920447, "is_disabled": 0, "is_reserved": 0, "lon": -77.02573433333333, "type": "electric_scooter", "fusion_lat": 0.0, "rental_uris": {"android": "https://dc.lft.to/lastmile_qr_scan", "ios": "https://dc.lft.to/lastmile_qr_scan"}}, {"bike_id": "3683043c6a841b897d0451d9846e6e50", "fusion_lon": 0.0, "name": "3683043c6a841b897d0451d9846e6e50", "lat": 38.857831166666664, "is_disabled": 0, "is_reserved": 0, "lon": -77.1201965, "type": "electric_bike", "fusion_lat": 0.0, "rental_uris": {"android": "https://dc.lft.to/lastmile_qr_scan", "ios": "https://dc.lft.to/lastmile_qr_scan"}}, {"bike_id": "ba9bd527615e7a85aa7e0c07e4605cce", "fusion_lon": 0.0, "name": "ba9bd527615e7a85aa7e0c07e4605cce", "lat": 38.95180533333333, "is_disabled": 0, "is_reserved": 0, "lon": -77.02726233333334, "type": "electric_scooter", "fusion_lat": 0.0, "rental_uris": {"android": "https://dc.lft.to/lastmile_qr_scan", "ios": "https://dc.lft.to/lastmile_qr_scan"}}, {"bike_id": "25e71bf6558d1c91bfaa94d74f1b69f1", "fusion_lon": 0.0, "name": "25e71bf6558d1c91bfaa94d74f1b69f1", "lat": 38.992106666666665, "is_disabled": 0, "is_reserved": 0, "lon": -76.94448866666667, "type": "electric_bike", "fusion_lat": 0.0, "rental_uris": {"android": "https://dc.lft.to/lastmile_qr_scan", "ios": "https://dc.lft.to/lastmile_qr_scan"}}, {"bike_id": "f58d221e36b4a1c89882a375c0106770", "fusion_lon": 0.0, "name": "f58d221e36b4a1c89882a375c0106770", "lat": 38.892092, "is_disabled": 0, "is_reserved": 0, "lon": -76.95697266666667, "type": "electric_scooter", "fusion_lat": 0.0, "rental_uris": {"android": "https://dc.lft.to/lastmile_qr_scan", "ios": "https://dc.lft.to/lastmile_qr_scan"}}, {"bike_id": "3fb83a851a8f8b74511fedab91f9ce43", "fusion_lon": 0.0, "name": "3fb83a851a8f8b74511fedab91f9ce43", "lat": 38.901492, "is_disabled": 0, "is_reserved": 0, "lon": -76.99023216666667, "type": "electric_scooter", "fusion_lat": 0.0, "rental_uris": {"android": "https://dc.lft.to/lastmile_qr_scan", "ios": "https://dc.lft.to/lastmile_qr_scan"}}, {"bike_id": "43bb6596429366378d1d55eaa760ba5f", "fusion_lon": 0.0, "name": "43bb6596429366378d1d55eaa760ba5f", "lat": 38.917754333333335, "is_disabled": 0, "is_reserved": 0, "lon": -77.0230345, "type": "electric_scooter", "fusion_lat": 0.0, "rental_uris": {"android": "https://dc.lft.to/lastmile_qr_scan", "ios": "https://dc.lft.to/lastmile_qr_scan"}}, {"bike_id": "df2235800876cba7defe8a08b93cd78e", "fusion_lon": 0.0, "name": "df2235800876cba7defe8a08b93cd78e", "lat": 38.90787, "is_disabled": 0, "is_reserved": 0, "lon": -76.99430533333333, "type": "electric_scooter", "fusion_lat": 0.0, "rental_uris": {"android": "https://dc.lft.to/lastmile_qr_scan", "ios": "https://dc.lft.to/lastmile_qr_scan"}}, {"bike_id": "ef92cfba7123b3e9869b3a49c7b0c848", "fusion_lon": 0.0, "name": "ef92cfba7123b3e9869b3a49c7b0c848", "lat": 38.91801733333333, "is_disabled": 0, "is_reserved": 0, "lon": -77.03178816666667, "type": "electric_scooter", "fusion_lat": 0.0, "rental_uris": {"android": "https://dc.lft.to/lastmile_qr_scan", "ios": "https://dc.lft.to/lastmile_qr_scan"}}, {"bike_id": "38fed32b4058c83c9e221bbb73646ac2", "fusion_lon": 0.0, "name": "38fed32b4058c83c9e221bbb73646ac2", "lat": 38.885215333333335, "is_disabled": 0, "is_reserved": 0, "lon": -76.97708933333334, "type": "electric_scooter", "fusion_lat": 0.0, "rental_uris": {"android": "https://dc.lft.to/lastmile_qr_scan", "ios": "https://dc.lft.to/lastmile_qr_scan"}}, {"bike_id": "ccb9dba490948353c721efd3945db5f9", "fusion_lon": 0.0, "name": "ccb9dba490948353c721efd3945db5f9", "lat": 38.890043666666664, "is_disabled": 0, "is_reserved": 0, "lon": -76.93746383333334, "type": "electric_scooter", "fusion_lat": 0.0, "rental_uris": {"android": "https://dc.lft.to/lastmile_qr_scan", "ios": "https://dc.lft.to/lastmile_qr_scan"}}, {"bike_id": "b63ee4e3afacd5c399f2a4ea67fa3849", "fusion_lon": 0.0, "name": "b63ee4e3afacd5c399f2a4ea67fa3849", "lat": 38.8966835, "is_disabled": 0, "is_reserved": 0, "lon": -77.0547225, "type": "electric_scooter", "fusion_lat": 0.0, "rental_uris": {"android": "https://dc.lft.to/lastmile_qr_scan", "ios": "https://dc.lft.to/lastmile_qr_scan"}}, {"bike_id": "7991b17139db733fb7ca764f70c0c7bb", "fusion_lon": 0.0, "name": "7991b17139db733fb7ca764f70c0c7bb", "lat": 38.92554166666667, "is_disabled": 0, "is_reserved": 0, "lon": -77.02283133333333, "type": "electric_scooter", "fusion_lat": 0.0, "rental_uris": {"android": "https://dc.lft.to/lastmile_qr_scan", "ios": "https://dc.lft.to/lastmile_qr_scan"}}, {"bike_id": "8ce129ccf22da2adc191521139ac12ea", "fusion_lon": 0.0, "name": "8ce129ccf22da2adc191521139ac12ea", "lat": 38.900258666666666, "is_disabled": 0, "is_reserved": 0, "lon": -76.9973955, "type": "electric_scooter", "fusion_lat": 0.0, "rental_uris": {"android": "https://dc.lft.to/lastmile_qr_scan", "ios": "https://dc.lft.to/lastmile_qr_scan"}}, {"bike_id": "c1e0646a2d8bd7e10f12fc81da4e9c87", "fusion_lon": 0.0, "name": "c1e0646a2d8bd7e10f12fc81da4e9c87", "lat": 38.909622166666665, "is_disabled": 0, "is_reserved": 0, "lon": -77.22896, "type": "electric_bike", "fusion_lat": 0.0, "rental_uris": {"android": "https://dc.lft.to/lastmile_qr_scan", "ios": "https://dc.lft.to/lastmile_qr_scan"}}, {"bike_id": "b4bbf803133705a0b84d7528a8a8b711", "fusion_lon": 0.0, "name": "b4bbf803133705a0b84d7528a8a8b711", "lat": 38.897968166666665, "is_disabled": 0, "is_reserved": 0, "lon": -77.03326716666666, "type": "electric_scooter", "fusion_lat": 0.0, "rental_uris": {"android": "https://dc.lft.to/lastmile_qr_scan", "ios": "https://dc.lft.to/lastmile_qr_scan"}}, {"bike_id": "0a2b417d6b9d8be441f4e8775084a28c", "fusion_lon": 0.0, "name": "0a2b417d6b9d8be441f4e8775084a28c", "lat": 38.880582, "is_disabled": 0, "is_reserved": 0, "lon": -76.93221166666666, "type": "electric_scooter", "fusion_lat": 0.0, "rental_uris": {"android": "https://dc.lft.to/lastmile_qr_scan", "ios": "https://dc.lft.to/lastmile_qr_scan"}}, {"bike_id": "9632f8d93f4bf593b3ab8256348c6bb2", "fusion_lon": 0.0, "name": "9632f8d93f4bf593b3ab8256348c6bb2", "lat": 38.92285416666667, "is_disabled": 0, "is_reserved": 0, "lon": -77.04286766666667, "type": "electric_scooter", "fusion_lat": 0.0, "rental_uris": {"android": "https://dc.lft.to/lastmile_qr_scan", "ios": "https://dc.lft.to/lastmile_qr_scan"}}, {"bike_id": "ec8e20a4efebccf59f75600551b1a091", "fusion_lon": 0.0, "name": "ec8e20a4efebccf59f75600551b1a091", "lat": 38.937469166666666, "is_disabled": 0, "is_reserved": 0, "lon": -77.02953916666667, "type": "electric_scooter", "fusion_lat": 0.0, "rental_uris": {"android": "https://dc.lft.to/lastmile_qr_scan", "ios": "https://dc.lft.to/lastmile_qr_scan"}}, {"bike_id": "0bb85caa9c79a74526e708d4de93934d", "fusion_lon": 0.0, "name": "0bb85caa9c79a74526e708d4de93934d", "lat": 38.921083833333334, "is_disabled": 0, "is_reserved": 0, "lon": -77.00923816666666, "type": "electric_scooter", "fusion_lat": 0.0, "rental_uris": {"android": "https://dc.lft.to/lastmile_qr_scan", "ios": "https://dc.lft.to/lastmile_qr_scan"}}, {"bike_id": "c6f233ae701e6530e018bd06b9a4d1c1", "fusion_lon": 0.0, "name": "c6f233ae701e6530e018bd06b9a4d1c1", "lat": 38.91403666666667, "is_disabled": 0, "is_reserved": 0, "lon": -77.02669016666667, "type": "electric_scooter", "fusion_lat": 0.0, "rental_uris": {"android": "https://dc.lft.to/lastmile_qr_scan", "ios": "https://dc.lft.to/lastmile_qr_scan"}}, {"bike_id": "e23746aa45a2586b232a747fe7f4eba0", "fusion_lon": 0.0, "name": "e23746aa45a2586b232a747fe7f4eba0", "lat": 38.89765666666667, "is_disabled": 0, "is_reserved": 0, "lon": -76.9855885, "type": "electric_scooter", "fusion_lat": 0.0, "rental_uris": {"android": "https://dc.lft.to/lastmile_qr_scan", "ios": "https://dc.lft.to/lastmile_qr_scan"}}, {"bike_id": "aa35be0c6f417088eb092755aa9d263f", "fusion_lon": 0.0, "name": "aa35be0c6f417088eb092755aa9d263f", "lat": 38.936046166666664, "is_disabled": 0, "is_reserved": 0, "lon": -77.05862916666666, "type": "electric_scooter", "fusion_lat": 0.0, "rental_uris": {"android": "https://dc.lft.to/lastmile_qr_scan", "ios": "https://dc.lft.to/lastmile_qr_scan"}}, {"bike_id": "ec98c3132f16629a5125e890c5365f78", "fusion_lon": 0.0, "name": "ec98c3132f16629a5125e890c5365f78", "lat": 38.840543, "is_disabled": 0, "is_reserved": 0, "lon": -76.976665, "type": "electric_scooter", "fusion_lat": 0.0, "rental_uris": {"android": "https://dc.lft.to/lastmile_qr_scan", "ios": "https://dc.lft.to/lastmile_qr_scan"}}, {"bike_id": "c452f0d08547a66fbfda93a2e4fc431a", "fusion_lon": 0.0, "name": "c452f0d08547a66fbfda93a2e4fc431a", "lat": 38.923427833333335, "is_disabled": 0, "is_reserved": 0, "lon": -77.0354275, "type": "electric_scooter", "fusion_lat": 0.0, "rental_uris": {"android": "https://dc.lft.to/lastmile_qr_scan", "ios": "https://dc.lft.to/lastmile_qr_scan"}}, {"bike_id": "bcec217547afc0ef67e71116721a37fd", "fusion_lon": 0.0, "name": "bcec217547afc0ef67e71116721a37fd", "lat": 38.921186666666664, "is_disabled": 0, "is_reserved": 0, "lon": -77.031757, "type": "electric_scooter", "fusion_lat": 0.0, "rental_uris": {"android": "https://dc.lft.to/lastmile_qr_scan", "ios": "https://dc.lft.to/lastmile_qr_scan"}}, {"bike_id": "5190505e66713b7a8247057da81a90c6", "fusion_lon": 0.0, "name": "5190505e66713b7a8247057da81a90c6", "lat": 38.89837216666667, "is_disabled": 0, "is_reserved": 0, "lon": -76.93178216666666, "type": "electric_scooter", "fusion_lat": 0.0, "rental_uris": {"android": "https://dc.lft.to/lastmile_qr_scan", "ios": "https://dc.lft.to/lastmile_qr_scan"}}, {"bike_id": "0093726f12437261b93ef49274d55362", "fusion_lon": 0.0, "name": "0093726f12437261b93ef49274d55362", "lat": 38.912971666666664, "is_disabled": 0, "is_reserved": 0, "lon": -77.0454195, "type": "electric_scooter", "fusion_lat": 0.0, "rental_uris": {"android": "https://dc.lft.to/lastmile_qr_scan", "ios": "https://dc.lft.to/lastmile_qr_scan"}}, {"bike_id": "86211bb77f116fb5716699d466f79173", "fusion_lon": 0.0, "name": "86211bb77f116fb5716699d466f79173", "lat": 38.94894216666667, "is_disabled": 0, "is_reserved": 0, "lon": -76.96381283333334, "type": "electric_bike", "fusion_lat": 0.0, "rental_uris": {"android": "https://dc.lft.to/lastmile_qr_scan", "ios": "https://dc.lft.to/lastmile_qr_scan"}}, {"bike_id": "e2f928b763c802f74818e4c86c4a0bc1", "fusion_lon": 0.0, "name": "e2f928b763c802f74818e4c86c4a0bc1", "lat": 38.89900733333333, "is_disabled": 0, "is_reserved": 0, "lon": -77.00346983333333, "type": "electric_scooter", "fusion_lat": 0.0, "rental_uris": {"android": "https://dc.lft.to/lastmile_qr_scan", "ios": "https://dc.lft.to/lastmile_qr_scan"}}, {"bike_id": "d42b8bd401460d2465979210d5863a9b", "fusion_lon": 0.0, "name": "d42b8bd401460d2465979210d5863a9b", "lat": 38.94990933333333, "is_disabled": 0, "is_reserved": 0, "lon": -77.02705783333333, "type": "electric_scooter", "fusion_lat": 0.0, "rental_uris": {"android": "https://dc.lft.to/lastmile_qr_scan", "ios": "https://dc.lft.to/lastmile_qr_scan"}}, {"bike_id": "7542aae517ec08afea8bfc848989821f", "fusion_lon": 0.0, "name": "7542aae517ec08afea8bfc848989821f", "lat": 38.905873166666666, "is_disabled": 0, "is_reserved": 0, "lon": -77.04093233333333, "type": "electric_scooter", "fusion_lat": 0.0, "rental_uris": {"android": "https://dc.lft.to/lastmile_qr_scan", "ios": "https://dc.lft.to/lastmile_qr_scan"}}, {"bike_id": "89cd0a094fac80aafb023abc918967dc", "fusion_lon": 0.0, "name": "89cd0a094fac80aafb023abc918967dc", "lat": 38.9098845, "is_disabled": 0, "is_reserved": 0, "lon": -77.033091, "type": "electric_scooter", "fusion_lat": 0.0, "rental_uris": {"android": "https://dc.lft.to/lastmile_qr_scan", "ios": "https://dc.lft.to/lastmile_qr_scan"}}, {"bike_id": "839522eae573ea536cfa72f58234da9d", "fusion_lon": 0.0, "name": "839522eae573ea536cfa72f58234da9d", "lat": 38.901165166666665, "is_disabled": 0, "is_reserved": 0, "lon": -77.04481766666666, "type": "electric_scooter", "fusion_lat": 0.0, "rental_uris": {"android": "https://dc.lft.to/lastmile_qr_scan", "ios": "https://dc.lft.to/lastmile_qr_scan"}}, {"bike_id": "2b3bcf507b0e9f091e764e7f64fb66b8", "fusion_lon": 0.0, "name": "2b3bcf507b0e9f091e764e7f64fb66b8", "lat": 38.92319666666667, "is_disabled": 0, "is_reserved": 0, "lon": -77.0213455, "type": "electric_scooter", "fusion_lat": 0.0, "rental_uris": {"android": "https://dc.lft.to/lastmile_qr_scan", "ios": "https://dc.lft.to/lastmile_qr_scan"}}, {"bike_id": "4cf6314eb76b1aa6c7fc32e02f4a50b7", "fusion_lon": 0.0, "name": "4cf6314eb76b1aa6c7fc32e02f4a50b7", "lat": 38.8408955, "is_disabled": 0, "is_reserved": 0, "lon": -76.97029966666666, "type": "electric_bike", "fusion_lat": 0.0, "rental_uris": {"android": "https://dc.lft.to/lastmile_qr_scan", "ios": "https://dc.lft.to/lastmile_qr_scan"}}, {"bike_id": "85f1befdbe27e78d7ffaeef6556f7216", "fusion_lon": 0.0, "name": "85f1befdbe27e78d7ffaeef6556f7216", "lat": 38.925109, "is_disabled": 0, "is_reserved": 0, "lon": -77.00233316666667, "type": "electric_scooter", "fusion_lat": 0.0, "rental_uris": {"android": "https://dc.lft.to/lastmile_qr_scan", "ios": "https://dc.lft.to/lastmile_qr_scan"}}, {"bike_id": "200e2964a6920101b4a1e6cdc13a3464", "fusion_lon": 0.0, "name": "200e2964a6920101b4a1e6cdc13a3464", "lat": 38.905923, "is_disabled": 0, "is_reserved": 0, "lon": -77.070084, "type": "electric_scooter", "fusion_lat": 0.0, "rental_uris": {"android": "https://dc.lft.to/lastmile_qr_scan", "ios": "https://dc.lft.to/lastmile_qr_scan"}}, {"bike_id": "61a26ed84bca457d3aca007add786188", "fusion_lon": 0.0, "name": "61a26ed84bca457d3aca007add786188", "lat": 38.922979833333336, "is_disabled": 0, "is_reserved": 0, "lon": -77.042691, "type": "electric_scooter", "fusion_lat": 0.0, "rental_uris": {"android": "https://dc.lft.to/lastmile_qr_scan", "ios": "https://dc.lft.to/lastmile_qr_scan"}}, {"bike_id": "5d66fa3f2081ec9ad29d7f9ab46cd39a", "fusion_lon": 0.0, "name": "5d66fa3f2081ec9ad29d7f9ab46cd39a", "lat": 38.942244333333335, "is_disabled": 0, "is_reserved": 0, "lon": -76.96594716666667, "type": "electric_bike", "fusion_lat": 0.0, "rental_uris": {"android": "https://dc.lft.to/lastmile_qr_scan", "ios": "https://dc.lft.to/lastmile_qr_scan"}}, {"bike_id": "315ae287983d94e0d29d9b5d0b70332d", "fusion_lon": 0.0, "name": "315ae287983d94e0d29d9b5d0b70332d", "lat": 38.9060935, "is_disabled": 0, "is_reserved": 0, "lon": -77.0039155, "type": "electric_scooter", "fusion_lat": 0.0, "rental_uris": {"android": "https://dc.lft.to/lastmile_qr_scan", "ios": "https://dc.lft.to/lastmile_qr_scan"}}, {"bike_id": "4905d3d110f59ae9377ebf20726b25e9", "fusion_lon": 0.0, "name": "4905d3d110f59ae9377ebf20726b25e9", "lat": 38.897376333333334, "is_disabled": 0, "is_reserved": 0, "lon": -77.009203, "type": "electric_scooter", "fusion_lat": 0.0, "rental_uris": {"android": "https://dc.lft.to/lastmile_qr_scan", "ios": "https://dc.lft.to/lastmile_qr_scan"}}, {"bike_id": "1a089b12bedf8771003ade850377c6e5", "fusion_lon": 0.0, "name": "1a089b12bedf8771003ade850377c6e5", "lat": 38.920464333333335, "is_disabled": 0, "is_reserved": 0, "lon": -77.02575316666666, "type": "electric_scooter", "fusion_lat": 0.0, "rental_uris": {"android": "https://dc.lft.to/lastmile_qr_scan", "ios": "https://dc.lft.to/lastmile_qr_scan"}}, {"bike_id": "5d902b171d0f5bc25ac8bb27cee175dd", "fusion_lon": 0.0, "name": "5d902b171d0f5bc25ac8bb27cee175dd", "lat": 38.9230805, "is_disabled": 0, "is_reserved": 0, "lon": -77.03916066666666, "type": "electric_scooter", "fusion_lat": 0.0, "rental_uris": {"android": "https://dc.lft.to/lastmile_qr_scan", "ios": "https://dc.lft.to/lastmile_qr_scan"}}, {"bike_id": "4d789ea48aba0e9f85f1193845dec899", "fusion_lon": 0.0, "name": "4d789ea48aba0e9f85f1193845dec899", "lat": 38.91981783333333, "is_disabled": 0, "is_reserved": 0, "lon": -76.9731015, "type": "electric_scooter", "fusion_lat": 0.0, "rental_uris": {"android": "https://dc.lft.to/lastmile_qr_scan", "ios": "https://dc.lft.to/lastmile_qr_scan"}}, {"bike_id": "7b98cdd8b9fbf854ada619aec1c300ba", "fusion_lon": 0.0, "name": "7b98cdd8b9fbf854ada619aec1c300ba", "lat": 38.85545716666667, "is_disabled": 0, "is_reserved": 0, "lon": -76.98757216666667, "type": "electric_scooter", "fusion_lat": 0.0, "rental_uris": {"android": "https://dc.lft.to/lastmile_qr_scan", "ios": "https://dc.lft.to/lastmile_qr_scan"}}, {"bike_id": "d6ad01b8971fb706b21bbbadf1fb1108", "fusion_lon": 0.0, "name": "d6ad01b8971fb706b21bbbadf1fb1108", "lat": 38.933355666666664, "is_disabled": 0, "is_reserved": 0, "lon": -77.04206016666667, "type": "electric_bike", "fusion_lat": 0.0, "rental_uris": {"android": "https://dc.lft.to/lastmile_qr_scan", "ios": "https://dc.lft.to/lastmile_qr_scan"}}, {"bike_id": "cf413dd185db3fcc1b35372afe94c42e", "fusion_lon": 0.0, "name": "cf413dd185db3fcc1b35372afe94c42e", "lat": 38.91110066666667, "is_disabled": 0, "is_reserved": 0, "lon": -77.03831, "type": "electric_scooter", "fusion_lat": 0.0, "rental_uris": {"android": "https://dc.lft.to/lastmile_qr_scan", "ios": "https://dc.lft.to/lastmile_qr_scan"}}, {"bike_id": "a07aeaa7cfc2e5b31e8946fcfe634d61", "fusion_lon": 0.0, "name": "a07aeaa7cfc2e5b31e8946fcfe634d61", "lat": 38.877873666666666, "is_disabled": 0, "is_reserved": 0, "lon": -77.00123583333334, "type": "electric_scooter", "fusion_lat": 0.0, "rental_uris": {"android": "https://dc.lft.to/lastmile_qr_scan", "ios": "https://dc.lft.to/lastmile_qr_scan"}}, {"bike_id": "51c67bf312a87b8b1dcce7a53fd34656", "fusion_lon": 0.0, "name": "51c67bf312a87b8b1dcce7a53fd34656", "lat": 38.918213333333334, "is_disabled": 0, "is_reserved": 0, "lon": -77.0417965, "type": "electric_scooter", "fusion_lat": 0.0, "rental_uris": {"android": "https://dc.lft.to/lastmile_qr_scan", "ios": "https://dc.lft.to/lastmile_qr_scan"}}, {"bike_id": "54b5a501d6cb53f1e6a6dd382c8814ee", "fusion_lon": 0.0, "name": "54b5a501d6cb53f1e6a6dd382c8814ee", "lat": 38.935151833333336, "is_disabled": 0, "is_reserved": 0, "lon": -77.0583705, "type": "electric_scooter", "fusion_lat": 0.0, "rental_uris": {"android": "https://dc.lft.to/lastmile_qr_scan", "ios": "https://dc.lft.to/lastmile_qr_scan"}}, {"bike_id": "a8af0b08594717e65465c18f78aeea8f", "fusion_lon": 0.0, "name": "a8af0b08594717e65465c18f78aeea8f", "lat": 38.88406616666666, "is_disabled": 0, "is_reserved": 0, "lon": -76.9542235, "type": "electric_bike", "fusion_lat": 0.0, "rental_uris": {"android": "https://dc.lft.to/lastmile_qr_scan", "ios": "https://dc.lft.to/lastmile_qr_scan"}}, {"bike_id": "44755eb6f7b560a5e8e30fec39df098e", "fusion_lon": 0.0, "name": "44755eb6f7b560a5e8e30fec39df098e", "lat": 38.887333, "is_disabled": 0, "is_reserved": 0, "lon": -77.021251, "type": "electric_scooter", "fusion_lat": 0.0, "rental_uris": {"android": "https://dc.lft.to/lastmile_qr_scan", "ios": "https://dc.lft.to/lastmile_qr_scan"}}, {"bike_id": "b7b48b0044d614095bdf3d9ca2feb836", "fusion_lon": 0.0, "name": "b7b48b0044d614095bdf3d9ca2feb836", "lat": 38.906648833333335, "is_disabled": 0, "is_reserved": 0, "lon": -77.0717945, "type": "electric_scooter", "fusion_lat": 0.0, "rental_uris": {"android": "https://dc.lft.to/lastmile_qr_scan", "ios": "https://dc.lft.to/lastmile_qr_scan"}}, {"bike_id": "85b79805fd3825acd78afed06b516504", "fusion_lon": 0.0, "name": "85b79805fd3825acd78afed06b516504", "lat": 38.901405833333335, "is_disabled": 0, "is_reserved": 0, "lon": -77.06074866666667, "type": "electric_scooter", "fusion_lat": 0.0, "rental_uris": {"android": "https://dc.lft.to/lastmile_qr_scan", "ios": "https://dc.lft.to/lastmile_qr_scan"}}, {"bike_id": "7ca9c080d1cbf4e8d53e1a5211664693", "fusion_lon": 0.0, "name": "7ca9c080d1cbf4e8d53e1a5211664693", "lat": 38.922486666666664, "is_disabled": 0, "is_reserved": 0, "lon": -77.01951166666667, "type": "electric_scooter", "fusion_lat": 0.0, "rental_uris": {"android": "https://dc.lft.to/lastmile_qr_scan", "ios": "https://dc.lft.to/lastmile_qr_scan"}}, {"bike_id": "d01d0c415402d39edfe86ce7dc6527d5", "fusion_lon": 0.0, "name": "d01d0c415402d39edfe86ce7dc6527d5", "lat": 38.90048066666667, "is_disabled": 0, "is_reserved": 0, "lon": -77.00072983333334, "type": "electric_scooter", "fusion_lat": 0.0, "rental_uris": {"android": "https://dc.lft.to/lastmile_qr_scan", "ios": "https://dc.lft.to/lastmile_qr_scan"}}, {"bike_id": "5f63a3b9cce7b89680f595e498c640f7", "fusion_lon": 0.0, "name": "5f63a3b9cce7b89680f595e498c640f7", "lat": 38.951843, "is_disabled": 0, "is_reserved": 0, "lon": -77.02724633333334, "type": "electric_scooter", "fusion_lat": 0.0, "rental_uris": {"android": "https://dc.lft.to/lastmile_qr_scan", "ios": "https://dc.lft.to/lastmile_qr_scan"}}, {"bike_id": "38065362d21cb4dfd1dba4beedeb0ff1", "fusion_lon": 0.0, "name": "38065362d21cb4dfd1dba4beedeb0ff1", "lat": 38.902632833333335, "is_disabled": 0, "is_reserved": 0, "lon": -77.0532645, "type": "electric_scooter", "fusion_lat": 0.0, "rental_uris": {"android": "https://dc.lft.to/lastmile_qr_scan", "ios": "https://dc.lft.to/lastmile_qr_scan"}}, {"bike_id": "e88713f100b202296a07c39763b6d54d", "fusion_lon": 0.0, "name": "e88713f100b202296a07c39763b6d54d", "lat": 38.913100166666666, "is_disabled": 0, "is_reserved": 0, "lon": -77.03178666666666, "type": "electric_scooter", "fusion_lat": 0.0, "rental_uris": {"android": "https://dc.lft.to/lastmile_qr_scan", "ios": "https://dc.lft.to/lastmile_qr_scan"}}, {"bike_id": "f49c2243803920e68267455825bb6c76", "fusion_lon": 0.0, "name": "f49c2243803920e68267455825bb6c76", "lat": 38.90846416666667, "is_disabled": 0, "is_reserved": 0, "lon": -76.998064, "type": "electric_scooter", "fusion_lat": 0.0, "rental_uris": {"android": "https://dc.lft.to/lastmile_qr_scan", "ios": "https://dc.lft.to/lastmile_qr_scan"}}, {"bike_id": "1146eb6010c920a5ed39090809159bb6", "fusion_lon": 0.0, "name": "1146eb6010c920a5ed39090809159bb6", "lat": 38.8990335, "is_disabled": 0, "is_reserved": 0, "lon": -77.00745166666667, "type": "electric_scooter", "fusion_lat": 0.0, "rental_uris": {"android": "https://dc.lft.to/lastmile_qr_scan", "ios": "https://dc.lft.to/lastmile_qr_scan"}}, {"bike_id": "5e798dba0ee5b0c488a53061df3221ea", "fusion_lon": 0.0, "name": "5e798dba0ee5b0c488a53061df3221ea", "lat": 38.90351833333333, "is_disabled": 0, "is_reserved": 0, "lon": -76.97479566666667, "type": "electric_scooter", "fusion_lat": 0.0, "rental_uris": {"android": "https://dc.lft.to/lastmile_qr_scan", "ios": "https://dc.lft.to/lastmile_qr_scan"}}, {"bike_id": "14909c682e440d7e510cd676b372eca9", "fusion_lon": 0.0, "name": "14909c682e440d7e510cd676b372eca9", "lat": 38.91798133333333, "is_disabled": 0, "is_reserved": 0, "lon": -77.0344445, "type": "electric_scooter", "fusion_lat": 0.0, "rental_uris": {"android": "https://dc.lft.to/lastmile_qr_scan", "ios": "https://dc.lft.to/lastmile_qr_scan"}}, {"bike_id": "d3ea039350d1266b966f61ed55cd19f6", "fusion_lon": 0.0, "name": "d3ea039350d1266b966f61ed55cd19f6", "lat": 38.89668, "is_disabled": 0, "is_reserved": 0, "lon": -76.9320975, "type": "electric_scooter", "fusion_lat": 0.0, "rental_uris": {"android": "https://dc.lft.to/lastmile_qr_scan", "ios": "https://dc.lft.to/lastmile_qr_scan"}}, {"bike_id": "6841e21e98f1f0e769adefb2639b53ef", "fusion_lon": 0.0, "name": "6841e21e98f1f0e769adefb2639b53ef", "lat": 38.901392, "is_disabled": 0, "is_reserved": 0, "lon": -77.0607685, "type": "electric_scooter", "fusion_lat": 0.0, "rental_uris": {"android": "https://dc.lft.to/lastmile_qr_scan", "ios": "https://dc.lft.to/lastmile_qr_scan"}}, {"bike_id": "c5b199b0f858d5c283f6052701122a57", "fusion_lon": 0.0, "name": "c5b199b0f858d5c283f6052701122a57", "lat": 38.930569, "is_disabled": 0, "is_reserved": 0, "lon": -77.01862983333334, "type": "electric_scooter", "fusion_lat": 0.0, "rental_uris": {"android": "https://dc.lft.to/lastmile_qr_scan", "ios": "https://dc.lft.to/lastmile_qr_scan"}}, {"bike_id": "c190d54295ce9a9d3a368dae1d36107a", "fusion_lon": 0.0, "name": "c190d54295ce9a9d3a368dae1d36107a", "lat": 38.8976625, "is_disabled": 0, "is_reserved": 0, "lon": -77.008964, "type": "electric_scooter", "fusion_lat": 0.0, "rental_uris": {"android": "https://dc.lft.to/lastmile_qr_scan", "ios": "https://dc.lft.to/lastmile_qr_scan"}}, {"bike_id": "420c93f66ef8d322adeaa82c59863a4a", "fusion_lon": 0.0, "name": "420c93f66ef8d322adeaa82c59863a4a", "lat": 38.883076, "is_disabled": 0, "is_reserved": 0, "lon": -77.01376333333333, "type": "electric_scooter", "fusion_lat": 0.0, "rental_uris": {"android": "https://dc.lft.to/lastmile_qr_scan", "ios": "https://dc.lft.to/lastmile_qr_scan"}}, {"bike_id": "a6e3c768dd265e38377c9ca6db61bb08", "fusion_lon": 0.0, "name": "a6e3c768dd265e38377c9ca6db61bb08", "lat": 38.896190833333335, "is_disabled": 0, "is_reserved": 0, "lon": -77.04077116666667, "type": "electric_scooter", "fusion_lat": 0.0, "rental_uris": {"android": "https://dc.lft.to/lastmile_qr_scan", "ios": "https://dc.lft.to/lastmile_qr_scan"}}, {"bike_id": "468782165ff6c9d4f98cd7379c06755a", "fusion_lon": 0.0, "name": "468782165ff6c9d4f98cd7379c06755a", "lat": 38.8960845, "is_disabled": 0, "is_reserved": 0, "lon": -77.04271316666667, "type": "electric_scooter", "fusion_lat": 0.0, "rental_uris": {"android": "https://dc.lft.to/lastmile_qr_scan", "ios": "https://dc.lft.to/lastmile_qr_scan"}}, {"bike_id": "806a03cfcabdabc257a4a118a9a5d38f", "fusion_lon": 0.0, "name": "806a03cfcabdabc257a4a118a9a5d38f", "lat": 38.930135666666665, "is_disabled": 0, "is_reserved": 0, "lon": -77.03799266666667, "type": "electric_scooter", "fusion_lat": 0.0, "rental_uris": {"android": "https://dc.lft.to/lastmile_qr_scan", "ios": "https://dc.lft.to/lastmile_qr_scan"}}, {"bike_id": "23ab6374fde718d96a43604c2e9c39ce", "fusion_lon": 0.0, "name": "23ab6374fde718d96a43604c2e9c39ce", "lat": 38.857207833333334, "is_disabled": 0, "is_reserved": 0, "lon": -76.98098433333334, "type": "electric_scooter", "fusion_lat": 0.0, "rental_uris": {"android": "https://dc.lft.to/lastmile_qr_scan", "ios": "https://dc.lft.to/lastmile_qr_scan"}}, {"bike_id": "32134f6dba4d9e58bc2fda74070f9a91", "fusion_lon": 0.0, "name": "32134f6dba4d9e58bc2fda74070f9a91", "lat": 38.863531333333334, "is_disabled": 0, "is_reserved": 0, "lon": -76.982605, "type": "electric_scooter", "fusion_lat": 0.0, "rental_uris": {"android": "https://dc.lft.to/lastmile_qr_scan", "ios": "https://dc.lft.to/lastmile_qr_scan"}}, {"bike_id": "faad2fdf7782b60ead700ee066311086", "fusion_lon": 0.0, "name": "faad2fdf7782b60ead700ee066311086", "lat": 38.928710333333335, "is_disabled": 0, "is_reserved": 0, "lon": -77.0350585, "type": "electric_scooter", "fusion_lat": 0.0, "rental_uris": {"android": "https://dc.lft.to/lastmile_qr_scan", "ios": "https://dc.lft.to/lastmile_qr_scan"}}, {"bike_id": "729a4c1a1089c5de0994fed8fe27dedf", "fusion_lon": 0.0, "name": "729a4c1a1089c5de0994fed8fe27dedf", "lat": 38.903246, "is_disabled": 0, "is_reserved": 0, "lon": -77.02523316666667, "type": "electric_scooter", "fusion_lat": 0.0, "rental_uris": {"android": "https://dc.lft.to/lastmile_qr_scan", "ios": "https://dc.lft.to/lastmile_qr_scan"}}, {"bike_id": "8f97926124e7a0f4199657be0e17b33e", "fusion_lon": 0.0, "name": "8f97926124e7a0f4199657be0e17b33e", "lat": 38.8973425, "is_disabled": 0, "is_reserved": 0, "lon": -76.947023, "type": "electric_scooter", "fusion_lat": 0.0, "rental_uris": {"android": "https://dc.lft.to/lastmile_qr_scan", "ios": "https://dc.lft.to/lastmile_qr_scan"}}, {"bike_id": "e9ea1b36bc3c61108bed32628a46777a", "fusion_lon": 0.0, "name": "e9ea1b36bc3c61108bed32628a46777a", "lat": 38.90826933333334, "is_disabled": 0, "is_reserved": 0, "lon": -77.06376783333333, "type": "electric_scooter", "fusion_lat": 0.0, "rental_uris": {"android": "https://dc.lft.to/lastmile_qr_scan", "ios": "https://dc.lft.to/lastmile_qr_scan"}}, {"bike_id": "b7d3d67147cc8ef093dc07f0cb046494", "fusion_lon": 0.0, "name": "b7d3d67147cc8ef093dc07f0cb046494", "lat": 38.91256033333333, "is_disabled": 0, "is_reserved": 0, "lon": -77.047419, "type": "electric_scooter", "fusion_lat": 0.0, "rental_uris": {"android": "https://dc.lft.to/lastmile_qr_scan", "ios": "https://dc.lft.to/lastmile_qr_scan"}}, {"bike_id": "44be11611363b3e2cf49d69fd26ff182", "fusion_lon": 0.0, "name": "44be11611363b3e2cf49d69fd26ff182", "lat": 38.89928533333333, "is_disabled": 0, "is_reserved": 0, "lon": -77.02992866666666, "type": "electric_scooter", "fusion_lat": 0.0, "rental_uris": {"android": "https://dc.lft.to/lastmile_qr_scan", "ios": "https://dc.lft.to/lastmile_qr_scan"}}, {"bike_id": "d49157971ccd37a28c672fbced1bfab5", "fusion_lon": 0.0, "name": "d49157971ccd37a28c672fbced1bfab5", "lat": 38.90457633333333, "is_disabled": 0, "is_reserved": 0, "lon": -77.04329683333333, "type": "electric_scooter", "fusion_lat": 0.0, "rental_uris": {"android": "https://dc.lft.to/lastmile_qr_scan", "ios": "https://dc.lft.to/lastmile_qr_scan"}}, {"bike_id": "9eb9860362648cdcd85b9dfbf1697c38", "fusion_lon": 0.0, "name": "9eb9860362648cdcd85b9dfbf1697c38", "lat": 38.88424416666667, "is_disabled": 0, "is_reserved": 0, "lon": -77.0253665, "type": "electric_scooter", "fusion_lat": 0.0, "rental_uris": {"android": "https://dc.lft.to/lastmile_qr_scan", "ios": "https://dc.lft.to/lastmile_qr_scan"}}, {"bike_id": "2acfb01ab4fed9c239bfc7700e36e728", "fusion_lon": 0.0, "name": "2acfb01ab4fed9c239bfc7700e36e728", "lat": 38.8874085, "is_disabled": 0, "is_reserved": 0, "lon": -76.983638, "type": "electric_scooter", "fusion_lat": 0.0, "rental_uris": {"android": "https://dc.lft.to/lastmile_qr_scan", "ios": "https://dc.lft.to/lastmile_qr_scan"}}, {"bike_id": "cb75ef7501587644f288ce6f1f9897ce", "fusion_lon": 0.0, "name": "cb75ef7501587644f288ce6f1f9897ce", "lat": 38.960363, "is_disabled": 0, "is_reserved": 0, "lon": -77.0719605, "type": "electric_scooter", "fusion_lat": 0.0, "rental_uris": {"android": "https://dc.lft.to/lastmile_qr_scan", "ios": "https://dc.lft.to/lastmile_qr_scan"}}, {"bike_id": "e8ea829c8b9c1bd29678b9440d2b3c7b", "fusion_lon": 0.0, "name": "e8ea829c8b9c1bd29678b9440d2b3c7b", "lat": 38.892141, "is_disabled": 0, "is_reserved": 0, "lon": -76.99572183333333, "type": "electric_scooter", "fusion_lat": 0.0, "rental_uris": {"android": "https://dc.lft.to/lastmile_qr_scan", "ios": "https://dc.lft.to/lastmile_qr_scan"}}, {"bike_id": "a1b8108f97cfeae7649807da6a4199fe", "fusion_lon": 0.0, "name": "a1b8108f97cfeae7649807da6a4199fe", "lat": 38.9126665, "is_disabled": 0, "is_reserved": 0, "lon": -77.03832433333334, "type": "electric_scooter", "fusion_lat": 0.0, "rental_uris": {"android": "https://dc.lft.to/lastmile_qr_scan", "ios": "https://dc.lft.to/lastmile_qr_scan"}}, {"bike_id": "a3964db4de4c1044206c21ba1c26868a", "fusion_lon": 0.0, "name": "a3964db4de4c1044206c21ba1c26868a", "lat": 38.928414, "is_disabled": 0, "is_reserved": 0, "lon": -77.01410333333334, "type": "electric_scooter", "fusion_lat": 0.0, "rental_uris": {"android": "https://dc.lft.to/lastmile_qr_scan", "ios": "https://dc.lft.to/lastmile_qr_scan"}}, {"bike_id": "c13b3fad8a7f2f8c3c4310622e3ec5c4", "fusion_lon": 0.0, "name": "c13b3fad8a7f2f8c3c4310622e3ec5c4", "lat": 38.928202, "is_disabled": 0, "is_reserved": 0, "lon": -77.05445633333333, "type": "electric_scooter", "fusion_lat": 0.0, "rental_uris": {"android": "https://dc.lft.to/lastmile_qr_scan", "ios": "https://dc.lft.to/lastmile_qr_scan"}}, {"bike_id": "0e34f5256432b4b1761746a51b0e8246", "fusion_lon": 0.0, "name": "0e34f5256432b4b1761746a51b0e8246", "lat": 38.922194, "is_disabled": 0, "is_reserved": 0, "lon": -77.20141566666666, "type": "electric_bike", "fusion_lat": 0.0, "rental_uris": {"android": "https://dc.lft.to/lastmile_qr_scan", "ios": "https://dc.lft.to/lastmile_qr_scan"}}, {"bike_id": "112e4e74c1bcf06db59b83cc9709d232", "fusion_lon": 0.0, "name": "112e4e74c1bcf06db59b83cc9709d232", "lat": 38.922946, "is_disabled": 0, "is_reserved": 0, "lon": -77.04174933333333, "type": "electric_scooter", "fusion_lat": 0.0, "rental_uris": {"android": "https://dc.lft.to/lastmile_qr_scan", "ios": "https://dc.lft.to/lastmile_qr_scan"}}, {"bike_id": "3d1ce9f664d016ad1551459451d90ce5", "fusion_lon": 0.0, "name": "3d1ce9f664d016ad1551459451d90ce5", "lat": 38.896041, "is_disabled": 0, "is_reserved": 0, "lon": -77.03348883333334, "type": "electric_scooter", "fusion_lat": 0.0, "rental_uris": {"android": "https://dc.lft.to/lastmile_qr_scan", "ios": "https://dc.lft.to/lastmile_qr_scan"}}, {"bike_id": "75c5b40c8fbfdf9c39cf7ae399c472e2", "fusion_lon": 0.0, "name": "75c5b40c8fbfdf9c39cf7ae399c472e2", "lat": 38.8814945, "is_disabled": 0, "is_reserved": 0, "lon": -77.02742733333334, "type": "electric_bike", "fusion_lat": 0.0, "rental_uris": {"android": "https://dc.lft.to/lastmile_qr_scan", "ios": "https://dc.lft.to/lastmile_qr_scan"}}, {"bike_id": "4f4a0f68bbb68a1c0f0d98aa2e57c974", "fusion_lon": 0.0, "name": "4f4a0f68bbb68a1c0f0d98aa2e57c974", "lat": 38.8986375, "is_disabled": 0, "is_reserved": 0, "lon": -76.946438, "type": "electric_scooter", "fusion_lat": 0.0, "rental_uris": {"android": "https://dc.lft.to/lastmile_qr_scan", "ios": "https://dc.lft.to/lastmile_qr_scan"}}, {"bike_id": "829b042a584105c3b148d1684ceb236a", "fusion_lon": 0.0, "name": "829b042a584105c3b148d1684ceb236a", "lat": 38.89343016666667, "is_disabled": 0, "is_reserved": 0, "lon": -76.93967266666667, "type": "electric_scooter", "fusion_lat": 0.0, "rental_uris": {"android": "https://dc.lft.to/lastmile_qr_scan", "ios": "https://dc.lft.to/lastmile_qr_scan"}}, {"bike_id": "a9cde10cf2a16832ecd76fef36223c63", "fusion_lon": 0.0, "name": "a9cde10cf2a16832ecd76fef36223c63", "lat": 38.887279666666664, "is_disabled": 0, "is_reserved": 0, "lon": -77.02580383333333, "type": "electric_scooter", "fusion_lat": 0.0, "rental_uris": {"android": "https://dc.lft.to/lastmile_qr_scan", "ios": "https://dc.lft.to/lastmile_qr_scan"}}, {"bike_id": "b989a4a80988a4be58a5a9ee29abc1e1", "fusion_lon": 0.0, "name": "b989a4a80988a4be58a5a9ee29abc1e1", "lat": 38.90469016666667, "is_disabled": 0, "is_reserved": 0, "lon": -77.03608016666666, "type": "electric_scooter", "fusion_lat": 0.0, "rental_uris": {"android": "https://dc.lft.to/lastmile_qr_scan", "ios": "https://dc.lft.to/lastmile_qr_scan"}}, {"bike_id": "6475f935b360b5a36e5fedfc9868249c", "fusion_lon": 0.0, "name": "6475f935b360b5a36e5fedfc9868249c", "lat": 38.932406666666665, "is_disabled": 0, "is_reserved": 0, "lon": -77.0283515, "type": "electric_scooter", "fusion_lat": 0.0, "rental_uris": {"android": "https://dc.lft.to/lastmile_qr_scan", "ios": "https://dc.lft.to/lastmile_qr_scan"}}, {"bike_id": "cf556f96a096b42d24aa384594686eff", "fusion_lon": 0.0, "name": "cf556f96a096b42d24aa384594686eff", "lat": 38.90031183333333, "is_disabled": 0, "is_reserved": 0, "lon": -77.0367805, "type": "electric_scooter", "fusion_lat": 0.0, "rental_uris": {"android": "https://dc.lft.to/lastmile_qr_scan", "ios": "https://dc.lft.to/lastmile_qr_scan"}}, {"bike_id": "6138bd3e256cddd28987e7cded0938c5", "fusion_lon": 0.0, "name": "6138bd3e256cddd28987e7cded0938c5", "lat": 38.92683916666667, "is_disabled": 0, "is_reserved": 0, "lon": -77.02300233333334, "type": "electric_scooter", "fusion_lat": 0.0, "rental_uris": {"android": "https://dc.lft.to/lastmile_qr_scan", "ios": "https://dc.lft.to/lastmile_qr_scan"}}, {"bike_id": "fba8319f3a38469ecd99abeb407cdb89", "fusion_lon": 0.0, "name": "fba8319f3a38469ecd99abeb407cdb89", "lat": 38.9119165, "is_disabled": 0, "is_reserved": 0, "lon": -77.00386466666667, "type": "electric_scooter", "fusion_lat": 0.0, "rental_uris": {"android": "https://dc.lft.to/lastmile_qr_scan", "ios": "https://dc.lft.to/lastmile_qr_scan"}}, {"bike_id": "2408c2d1d67401e99425ece73dadfec6", "fusion_lon": 0.0, "name": "2408c2d1d67401e99425ece73dadfec6", "lat": 38.887240166666665, "is_disabled": 0, "is_reserved": 0, "lon": -77.02585583333334, "type": "electric_scooter", "fusion_lat": 0.0, "rental_uris": {"android": "https://dc.lft.to/lastmile_qr_scan", "ios": "https://dc.lft.to/lastmile_qr_scan"}}, {"bike_id": "999c5440b23dbaffcdb6a20d47ba2743", "fusion_lon": 0.0, "name": "999c5440b23dbaffcdb6a20d47ba2743", "lat": 38.90262766666667, "is_disabled": 0, "is_reserved": 0, "lon": -77.03428166666667, "type": "electric_scooter", "fusion_lat": 0.0, "rental_uris": {"android": "https://dc.lft.to/lastmile_qr_scan", "ios": "https://dc.lft.to/lastmile_qr_scan"}}, {"bike_id": "5c1295bc57559a02e240659e81b70ee9", "fusion_lon": 0.0, "name": "5c1295bc57559a02e240659e81b70ee9", "lat": 38.891911666666665, "is_disabled": 0, "is_reserved": 0, "lon": -77.00294916666667, "type": "electric_scooter", "fusion_lat": 0.0, "rental_uris": {"android": "https://dc.lft.to/lastmile_qr_scan", "ios": "https://dc.lft.to/lastmile_qr_scan"}}, {"bike_id": "32352d7658200082e4a5f67f4000c3d6", "fusion_lon": 0.0, "name": "32352d7658200082e4a5f67f4000c3d6", "lat": 38.883291666666665, "is_disabled": 0, "is_reserved": 0, "lon": -77.0177165, "type": "electric_scooter", "fusion_lat": 0.0, "rental_uris": {"android": "https://dc.lft.to/lastmile_qr_scan", "ios": "https://dc.lft.to/lastmile_qr_scan"}}, {"bike_id": "de3b38ae04f7f0496990d0e2ec9e10b2", "fusion_lon": 0.0, "name": "de3b38ae04f7f0496990d0e2ec9e10b2", "lat": 38.903036666666665, "is_disabled": 0, "is_reserved": 0, "lon": -77.0603475, "type": "electric_scooter", "fusion_lat": 0.0, "rental_uris": {"android": "https://dc.lft.to/lastmile_qr_scan", "ios": "https://dc.lft.to/lastmile_qr_scan"}}, {"bike_id": "bd69e860e69367c8fb4c3eb7f7b903b4", "fusion_lon": 0.0, "name": "bd69e860e69367c8fb4c3eb7f7b903b4", "lat": 38.92459983333333, "is_disabled": 0, "is_reserved": 0, "lon": -77.06738533333333, "type": "electric_bike", "fusion_lat": 0.0, "rental_uris": {"android": "https://dc.lft.to/lastmile_qr_scan", "ios": "https://dc.lft.to/lastmile_qr_scan"}}, {"bike_id": "3a33230fecb215b5360a0bf86768f9a8", "fusion_lon": 0.0, "name": "3a33230fecb215b5360a0bf86768f9a8", "lat": 38.9211395, "is_disabled": 0, "is_reserved": 0, "lon": -77.07227133333333, "type": "electric_scooter", "fusion_lat": 0.0, "rental_uris": {"android": "https://dc.lft.to/lastmile_qr_scan", "ios": "https://dc.lft.to/lastmile_qr_scan"}}, {"bike_id": "fbd4fdf6e4477f3259cca0b13394def9", "fusion_lon": 0.0, "name": "fbd4fdf6e4477f3259cca0b13394def9", "lat": 38.901736666666665, "is_disabled": 0, "is_reserved": 0, "lon": -77.0274195, "type": "electric_scooter", "fusion_lat": 0.0, "rental_uris": {"android": "https://dc.lft.to/lastmile_qr_scan", "ios": "https://dc.lft.to/lastmile_qr_scan"}}, {"bike_id": "3bb71ff646fb5353be67e6b5cf7332bc", "fusion_lon": 0.0, "name": "3bb71ff646fb5353be67e6b5cf7332bc", "lat": 38.916925666666664, "is_disabled": 0, "is_reserved": 0, "lon": -77.03428266666667, "type": "electric_scooter", "fusion_lat": 0.0, "rental_uris": {"android": "https://dc.lft.to/lastmile_qr_scan", "ios": "https://dc.lft.to/lastmile_qr_scan"}}, {"bike_id": "dd0a754f1f87d8d0ad0c3b1c15f466de", "fusion_lon": 0.0, "name": "dd0a754f1f87d8d0ad0c3b1c15f466de", "lat": 38.916957833333335, "is_disabled": 0, "is_reserved": 0, "lon": -77.03336366666667, "type": "electric_scooter", "fusion_lat": 0.0, "rental_uris": {"android": "https://dc.lft.to/lastmile_qr_scan", "ios": "https://dc.lft.to/lastmile_qr_scan"}}, {"bike_id": "67a4e044e58c1e39713285a2d0e73bc0", "fusion_lon": 0.0, "name": "67a4e044e58c1e39713285a2d0e73bc0", "lat": 38.95633, "is_disabled": 0, "is_reserved": 0, "lon": -77.03306333333333, "type": "electric_scooter", "fusion_lat": 0.0, "rental_uris": {"android": "https://dc.lft.to/lastmile_qr_scan", "ios": "https://dc.lft.to/lastmile_qr_scan"}}, {"bike_id": "e1a4a8da3d6b4ec8e63027b87579e906", "fusion_lon": 0.0, "name": "e1a4a8da3d6b4ec8e63027b87579e906", "lat": 38.91776983333333, "is_disabled": 0, "is_reserved": 0, "lon": -77.0410415, "type": "electric_scooter", "fusion_lat": 0.0, "rental_uris": {"android": "https://dc.lft.to/lastmile_qr_scan", "ios": "https://dc.lft.to/lastmile_qr_scan"}}, {"bike_id": "89e229460bc1fb603d407b429bfd3803", "fusion_lon": 0.0, "name": "89e229460bc1fb603d407b429bfd3803", "lat": 38.895018, "is_disabled": 0, "is_reserved": 0, "lon": -77.01090083333334, "type": "electric_scooter", "fusion_lat": 0.0, "rental_uris": {"android": "https://dc.lft.to/lastmile_qr_scan", "ios": "https://dc.lft.to/lastmile_qr_scan"}}, {"bike_id": "29d6a5582d7752fe2c4884e9012c0450", "fusion_lon": 0.0, "name": "29d6a5582d7752fe2c4884e9012c0450", "lat": 38.88986833333333, "is_disabled": 0, "is_reserved": 0, "lon": -76.987347, "type": "electric_scooter", "fusion_lat": 0.0, "rental_uris": {"android": "https://dc.lft.to/lastmile_qr_scan", "ios": "https://dc.lft.to/lastmile_qr_scan"}}, {"bike_id": "49628d43d33d1daf9c1556bea10be4bb", "fusion_lon": 0.0, "name": "49628d43d33d1daf9c1556bea10be4bb", "lat": 38.898337833333336, "is_disabled": 0, "is_reserved": 0, "lon": -77.031623, "type": "electric_scooter", "fusion_lat": 0.0, "rental_uris": {"android": "https://dc.lft.to/lastmile_qr_scan", "ios": "https://dc.lft.to/lastmile_qr_scan"}}, {"bike_id": "c0bd66eb5b6d284806c8b4fd6af569d2", "fusion_lon": 0.0, "name": "c0bd66eb5b6d284806c8b4fd6af569d2", "lat": 38.9015765, "is_disabled": 0, "is_reserved": 0, "lon": -77.01339916666667, "type": "electric_scooter", "fusion_lat": 0.0, "rental_uris": {"android": "https://dc.lft.to/lastmile_qr_scan", "ios": "https://dc.lft.to/lastmile_qr_scan"}}, {"bike_id": "72b7dccea62ea4d5234246b4ae14f952", "fusion_lon": 0.0, "name": "72b7dccea62ea4d5234246b4ae14f952", "lat": 38.89521766666667, "is_disabled": 0, "is_reserved": 0, "lon": -77.00203033333334, "type": "electric_scooter", "fusion_lat": 0.0, "rental_uris": {"android": "https://dc.lft.to/lastmile_qr_scan", "ios": "https://dc.lft.to/lastmile_qr_scan"}}, {"bike_id": "d3a9081d3842d922e227821c39551853", "fusion_lon": 0.0, "name": "d3a9081d3842d922e227821c39551853", "lat": 38.902415166666664, "is_disabled": 0, "is_reserved": 0, "lon": -77.02153583333333, "type": "electric_scooter", "fusion_lat": 0.0, "rental_uris": {"android": "https://dc.lft.to/lastmile_qr_scan", "ios": "https://dc.lft.to/lastmile_qr_scan"}}, {"bike_id": "99d23d0424eaa32e4a4315176de8b971", "fusion_lon": 0.0, "name": "99d23d0424eaa32e4a4315176de8b971", "lat": 38.892227, "is_disabled": 0, "is_reserved": 0, "lon": -77.04377316666667, "type": "electric_scooter", "fusion_lat": 0.0, "rental_uris": {"android": "https://dc.lft.to/lastmile_qr_scan", "ios": "https://dc.lft.to/lastmile_qr_scan"}}, {"bike_id": "933b105f4bbcf59cf2be77037a1813ff", "fusion_lon": 0.0, "name": "933b105f4bbcf59cf2be77037a1813ff", "lat": 38.8589195, "is_disabled": 0, "is_reserved": 0, "lon": -77.09561666666667, "type": "electric_bike", "fusion_lat": 0.0, "rental_uris": {"android": "https://dc.lft.to/lastmile_qr_scan", "ios": "https://dc.lft.to/lastmile_qr_scan"}}, {"bike_id": "f94dff9b427e2d70f543864df2cd95a1", "fusion_lon": 0.0, "name": "f94dff9b427e2d70f543864df2cd95a1", "lat": 38.892132333333336, "is_disabled": 0, "is_reserved": 0, "lon": -76.99713066666666, "type": "electric_scooter", "fusion_lat": 0.0, "rental_uris": {"android": "https://dc.lft.to/lastmile_qr_scan", "ios": "https://dc.lft.to/lastmile_qr_scan"}}, {"bike_id": "ec13efc5f854c3d8655bb60e4782adc7", "fusion_lon": 0.0, "name": "ec13efc5f854c3d8655bb60e4782adc7", "lat": 38.93606416666667, "is_disabled": 0, "is_reserved": 0, "lon": -77.05861716666666, "type": "electric_scooter", "fusion_lat": 0.0, "rental_uris": {"android": "https://dc.lft.to/lastmile_qr_scan", "ios": "https://dc.lft.to/lastmile_qr_scan"}}, {"bike_id": "47f84bc9e0c7ad842eaa7676c69713cc", "fusion_lon": 0.0, "name": "47f84bc9e0c7ad842eaa7676c69713cc", "lat": 38.9023415, "is_disabled": 0, "is_reserved": 0, "lon": -77.03523816666667, "type": "electric_scooter", "fusion_lat": 0.0, "rental_uris": {"android": "https://dc.lft.to/lastmile_qr_scan", "ios": "https://dc.lft.to/lastmile_qr_scan"}}, {"bike_id": "c99965632a0b832d4178a4375749e061", "fusion_lon": 0.0, "name": "c99965632a0b832d4178a4375749e061", "lat": 38.89786183333333, "is_disabled": 0, "is_reserved": 0, "lon": -76.931277, "type": "electric_scooter", "fusion_lat": 0.0, "rental_uris": {"android": "https://dc.lft.to/lastmile_qr_scan", "ios": "https://dc.lft.to/lastmile_qr_scan"}}, {"bike_id": "df39f0a4811f104a68a70ced32db7c62", "fusion_lon": 0.0, "name": "df39f0a4811f104a68a70ced32db7c62", "lat": 38.8650085, "is_disabled": 0, "is_reserved": 0, "lon": -76.99001516666667, "type": "electric_scooter", "fusion_lat": 0.0, "rental_uris": {"android": "https://dc.lft.to/lastmile_qr_scan", "ios": "https://dc.lft.to/lastmile_qr_scan"}}, {"bike_id": "b025db4edd1d4f8c122c926da28d5a11", "fusion_lon": 0.0, "name": "b025db4edd1d4f8c122c926da28d5a11", "lat": 38.90785433333333, "is_disabled": 0, "is_reserved": 0, "lon": -77.000283, "type": "electric_scooter", "fusion_lat": 0.0, "rental_uris": {"android": "https://dc.lft.to/lastmile_qr_scan", "ios": "https://dc.lft.to/lastmile_qr_scan"}}, {"bike_id": "54ff391c6230fa4ccbb8e7796290baa7", "fusion_lon": 0.0, "name": "54ff391c6230fa4ccbb8e7796290baa7", "lat": 38.913396666666664, "is_disabled": 0, "is_reserved": 0, "lon": -77.03173666666666, "type": "electric_scooter", "fusion_lat": 0.0, "rental_uris": {"android": "https://dc.lft.to/lastmile_qr_scan", "ios": "https://dc.lft.to/lastmile_qr_scan"}}, {"bike_id": "ae0ec11282f93daa4d3ba3621821b98b", "fusion_lon": 0.0, "name": "ae0ec11282f93daa4d3ba3621821b98b", "lat": 38.878280333333336, "is_disabled": 0, "is_reserved": 0, "lon": -76.99035016666667, "type": "electric_scooter", "fusion_lat": 0.0, "rental_uris": {"android": "https://dc.lft.to/lastmile_qr_scan", "ios": "https://dc.lft.to/lastmile_qr_scan"}}, {"bike_id": "418e449c8fc75889140ec9e60f344395", "fusion_lon": 0.0, "name": "418e449c8fc75889140ec9e60f344395", "lat": 38.9056115, "is_disabled": 0, "is_reserved": 0, "lon": -77.00397933333333, "type": "electric_scooter", "fusion_lat": 0.0, "rental_uris": {"android": "https://dc.lft.to/lastmile_qr_scan", "ios": "https://dc.lft.to/lastmile_qr_scan"}}, {"bike_id": "cc704ffe947339d063a4faa8ae617e7b", "fusion_lon": 0.0, "name": "cc704ffe947339d063a4faa8ae617e7b", "lat": 38.838613, "is_disabled": 0, "is_reserved": 0, "lon": -76.99703333333333, "type": "electric_scooter", "fusion_lat": 0.0, "rental_uris": {"android": "https://dc.lft.to/lastmile_qr_scan", "ios": "https://dc.lft.to/lastmile_qr_scan"}}, {"bike_id": "9573645119bd9e6284c4aef75d4e324c", "fusion_lon": 0.0, "name": "9573645119bd9e6284c4aef75d4e324c", "lat": 38.921228166666666, "is_disabled": 0, "is_reserved": 0, "lon": -77.04112483333333, "type": "electric_scooter", "fusion_lat": 0.0, "rental_uris": {"android": "https://dc.lft.to/lastmile_qr_scan", "ios": "https://dc.lft.to/lastmile_qr_scan"}}, {"bike_id": "5dfe91fe7204b47c4d7d1ae79410718e", "fusion_lon": 0.0, "name": "5dfe91fe7204b47c4d7d1ae79410718e", "lat": 38.923170166666665, "is_disabled": 0, "is_reserved": 0, "lon": -77.04526166666666, "type": "electric_scooter", "fusion_lat": 0.0, "rental_uris": {"android": "https://dc.lft.to/lastmile_qr_scan", "ios": "https://dc.lft.to/lastmile_qr_scan"}}, {"bike_id": "3f5ca7eefa94e9c7d638ae3a40c834f2", "fusion_lon": 0.0, "name": "3f5ca7eefa94e9c7d638ae3a40c834f2", "lat": 38.902318, "is_disabled": 0, "is_reserved": 0, "lon": -77.0172935, "type": "electric_scooter", "fusion_lat": 0.0, "rental_uris": {"android": "https://dc.lft.to/lastmile_qr_scan", "ios": "https://dc.lft.to/lastmile_qr_scan"}}, {"bike_id": "3ae6724e868f7e1aa92d806fec1b2ead", "fusion_lon": 0.0, "name": "3ae6724e868f7e1aa92d806fec1b2ead", "lat": 38.911114166666664, "is_disabled": 0, "is_reserved": 0, "lon": -77.034382, "type": "electric_scooter", "fusion_lat": 0.0, "rental_uris": {"android": "https://dc.lft.to/lastmile_qr_scan", "ios": "https://dc.lft.to/lastmile_qr_scan"}}, {"bike_id": "d27784d5fa2aa427d55cb90d804caa8d", "fusion_lon": 0.0, "name": "d27784d5fa2aa427d55cb90d804caa8d", "lat": 38.93533333333333, "is_disabled": 0, "is_reserved": 0, "lon": -77.02348333333333, "type": "electric_scooter", "fusion_lat": 0.0, "rental_uris": {"android": "https://dc.lft.to/lastmile_qr_scan", "ios": "https://dc.lft.to/lastmile_qr_scan"}},