{"data": {"bikes": [{"rental_uris": {"ios": "https://dc.lft.to/lastmile_qr_scan", "android": "https://dc.lft.to/lastmile_qr_scan"}, "lat": 38.908570833333336, "is_reserved": 0, "bike_id": "18048471f748e487072f3e95284f1f17", "lon": -76.9979345, "is_disabled": 0, "fusion_lat": 0.0, "fusion_lon": 0.0, "name": "18048471f748e487072f3e95284f1f17", "type": "electric_scooter"}, {"rental_uris": {"ios": "https://dc.lft.to/lastmile_qr_scan", "android": "https://dc.lft.to/lastmile_qr_scan"}, "lat": 38.93222633333333, "is_reserved": 0, "bike_id": "4a1a2bcb1f3b388c119bf1ee13a17fd1", "lon": -76.99710483333334, "is_disabled": 0, "fusion_lat": 0.0, "fusion_lon": 0.0, "name": "4a1a2bcb1f3b388c119bf1ee13a17fd1", "type": "electric_scooter"}, {"rental_uris": {"ios": "https://dc.lft.to/lastmile_qr_scan", "android": "https://dc.lft.to/lastmile_qr_scan"}, "lat": 38.89850166666667, "is_reserved": 0, "bike_id": "0d48b857a8e44fbf617b61b389201b4c", "lon": -77.03951166666667, "is_disabled": 0, "fusion_lat": 0.0, "fusion_lon": 0.0, "name": "0d48b857a8e44fbf617b61b389201b4c", "type": "electric_scooter"}, {"rental_uris": {"ios": "https://dc.lft.to/lastmile_qr_scan", "android": "https://dc.lft.to/lastmile_qr_scan"}, "lat": 38.899573, "is_reserved": 0, "bike_id": "1ebebc410766b6a0456343ecaa351a45", "lon": -77.04580066666666, "is_disabled": 0, "fusion_lat": 0.0, "fusion_lon": 0.0, "name": "1ebebc410766b6a0456343ecaa351a45", "type": "electric_scooter"}, {"rental_uris": {"ios": "https://dc.lft.to/lastmile_qr_scan", "android": "https://dc.lft.to/lastmile_qr_scan"}, "lat": 38.904101833333335, "is_reserved": 0, "bike_id": "9e42aaa8cfea451b94d50e4c18776884", "lon": -76.97331316666667, "is_disabled": 0, "fusion_lat": 0.0, "fusion_lon": 0.0, "name": "9e42aaa8cfea451b94d50e4c18776884", "type": "electric_scooter"}, {"rental_uris": {"ios": "https://dc.lft.to/lastmile_qr_scan", "android": "https://dc.lft.to/lastmile_qr_scan"}, "lat": 38.944084, "is_reserved": 0, "bike_id": "680addcfdce998dcccf61e85484e2f44", "lon": -77.03204183333334, "is_disabled": 0, "fusion_lat": 0.0, "fusion_lon": 0.0, "name": "680addcfdce998dcccf61e85484e2f44", "type": "electric_bike"}, {"rental_uris": {"ios": "https://dc.lft.to/lastmile_qr_scan", "android": "https://dc.lft.to/lastmile_qr_scan"}, "lat": 38.907159666666665, "is_reserved": 0, "bike_id": "855c49d4040f66712f09e2f3535b88e2", "lon": -77.028907, "is_disabled": 0, "fusion_lat": 0.0, "fusion_lon": 0.0, "name": "855c49d4040f66712f09e2f3535b88e2", "type": "electric_scooter"}, {"rental_uris": {"ios": "https://dc.lft.to/lastmile_qr_scan", "android": "https://dc.lft.to/lastmile_qr_scan"}, "lat": 38.9170665, "is_reserved": 0, "bike_id": "6f7ad43412a6042c98bd68d4f498fa19", "lon": -77.041262, "is_disabled": 0, "fusion_lat": 0.0, "fusion_lon": 0.0, "name": "6f7ad43412a6042c98bd68d4f498fa19", "type": "electric_scooter"}, {"rental_uris": {"ios": "https://dc.lft.to/lastmile_qr_scan", "android": "https://dc.lft.to/lastmile_qr_scan"}, "lat": 38.9159245, "is_reserved": 0, "bike_id": "826ae4ec5db4bdab69bdbdbad94de086", "lon": -76.983778, "is_disabled": 0, "fusion_lat": 0.0, "fusion_lon": 0.0, "name": "826ae4ec5db4bdab69bdbdbad94de086", "type": "electric_scooter"}, {"rental_uris": {"ios": "https://dc.lft.to/lastmile_qr_scan", "android": "https://dc.lft.to/lastmile_qr_scan"}, "lat": 38.928749, "is_reserved": 0, "bike_id": "4cfd299d0c10d8576459e43dbe47d0cc", "lon": -77.0270585, "is_disabled": 0, "fusion_lat": 0.0, "fusion_lon": 0.0, "name": "4cfd299d0c10d8576459e43dbe47d0cc", "type": "electric_scooter"}, {"rental_uris": {"ios": "https://dc.lft.to/lastmile_qr_scan", "android": "https://dc.lft.to/lastmile_qr_scan"}, "lat": 38.92598133333333, "is_reserved": 0, "bike_id": "7efb6d5cc6374c1a91f6afde1de3e402", "lon": -77.021565, "is_disabled": 0, "fusion_lat": 0.0, "fusion_lon": 0.0, "name": "7efb6d5cc6374c1a91f6afde1de3e402", "type": "electric_scooter"}, {"rental_uris": {"ios": "https://dc.lft.to/lastmile_qr_scan", "android": "https://dc.lft.to/lastmile_qr_scan"}, "lat": 38.919087, "is_reserved": 0, "bike_id": "23a585aa22676e5332f0b93057d913f6", "lon": -76.987011, "is_disabled": 0, "fusion_lat": 0.0, "fusion_lon": 0.0, "name": "23a585aa22676e5332f0b93057d913f6", "type": "electric_scooter"}, {"rental_uris": {"ios": "https://dc.lft.to/lastmile_qr_scan", "android": "https://dc.lft.to/lastmile_qr_scan"}, "lat": 38.90254733333333, "is_reserved": 0, "bike_id": "72fa737f3f30cfd6f45cf39508aa2f87", "lon": -76.9746095, "is_disabled": 0, "fusion_lat": 0.0, "fusion_lon": 0.0, "name": "72fa737f3f30cfd6f45cf39508aa2f87", "type": "electric_scooter"}, {"rental_uris": {"ios": "https://dc.lft.to/lastmile_qr_scan", "android": "https://dc.lft.to/lastmile_qr_scan"}, "lat": 39.05254716666666, "is_reserved": 0, "bike_id": "869d0fc06a9b158cafc5fe0720bbacae", "lon": -77.08066416666666, "is_disabled": 0, "fusion_lat": 0.0, "fusion_lon": 0.0, "name": "869d0fc06a9b158cafc5fe0720bbacae", "type": "electric_bike"}, {"rental_uris": {"ios": "https://dc.lft.to/lastmile_qr_scan", "android": "https://dc.lft.to/lastmile_qr_scan"}, "lat": 38.90268433333333, "is_reserved": 0, "bike_id": "085f0d5b4ada125020db10eab1e1a8ec", "lon": -77.02949433333333, "is_disabled": 0, "fusion_lat": 0.0, "fusion_lon": 0.0, "name": "085f0d5b4ada125020db10eab1e1a8ec", "type": "electric_scooter"}, {"rental_uris": {"ios": "https://dc.lft.to/lastmile_qr_scan", "android": "https://dc.lft.to/lastmile_qr_scan"}, "lat": 38.873769833333334, "is_reserved": 0, "bike_id": "6a611d8f804286d8a7421d37aad6ec99", "lon": -76.97008883333334, "is_disabled": 0, "fusion_lat": 0.0, "fusion_lon": 0.0, "name": "6a611d8f804286d8a7421d37aad6ec99", "type": "electric_scooter"}, {"rental_uris": {"ios": "https://dc.lft.to/lastmile_qr_scan", "android": "https://dc.lft.to/lastmile_qr_scan"}, "lat": 38.93911716666667, "is_reserved": 0, "bike_id": "97cd544fa93da0f2ef49a3135879e718", "lon": -77.03623166666667, "is_disabled": 0, "fusion_lat": 0.0, "fusion_lon": 0.0, "name": "97cd544fa93da0f2ef49a3135879e718", "type": "electric_scooter"}, {"rental_uris": {"ios": "https://dc.lft.to/lastmile_qr_scan", "android": "https://dc.lft.to/lastmile_qr_scan"}, "lat": 38.91573966666667, "is_reserved": 0, "bike_id": "58b2d39f3cf567460f835135ffa3ff61", "lon": -77.04700983333333, "is_disabled": 0, "fusion_lat": 0.0, "fusion_lon": 0.0, "name": "58b2d39f3cf567460f835135ffa3ff61", "type": "electric_scooter"}, {"rental_uris": {"ios": "https://dc.lft.to/lastmile_qr_scan", "android": "https://dc.lft.to/lastmile_qr_scan"}, "lat": 38.90842983333334, "is_reserved": 0, "bike_id": "c6d10f7bef63458a39971bdc807fcbb9", "lon": -77.01256433333333, "is_disabled": 0, "fusion_lat": 0.0, "fusion_lon": 0.0, "name": "c6d10f7bef63458a39971bdc807fcbb9", "type": "electric_scooter"}, {"rental_uris": {"ios": "https://dc.lft.to/lastmile_qr_scan", "android": "https://dc.lft.to/lastmile_qr_scan"}, "lat": 38.8981115, "is_reserved": 0, "bike_id": "f18fc0f60bedca96d3c2eef61250b84f", "lon": -77.03332733333333, "is_disabled": 0, "fusion_lat": 0.0, "fusion_lon": 0.0, "name": "f18fc0f60bedca96d3c2eef61250b84f", "type": "electric_scooter"}, {"rental_uris": {"ios": "https://dc.lft.to/lastmile_qr_scan", "android": "https://dc.lft.to/lastmile_qr_scan"}, "lat": 38.928789, "is_reserved": 0, "bike_id": "5e0feb0b3465dd33428d23036dbb1f05", "lon": -77.033203, "is_disabled": 0, "fusion_lat": 0.0, "fusion_lon": 0.0, "name": "5e0feb0b3465dd33428d23036dbb1f05", "type": "electric_scooter"}, {"rental_uris": {"ios": "https://dc.lft.to/lastmile_qr_scan", "android": "https://dc.lft.to/lastmile_qr_scan"}, "lat": 38.878191666666666, "is_reserved": 0, "bike_id": "e208ff6f0de8e625c61b8252288dcbac", "lon": -77.01740683333334, "is_disabled": 0, "fusion_lat": 0.0, "fusion_lon": 0.0, "name": "e208ff6f0de8e625c61b8252288dcbac", "type": "electric_scooter"}, {"rental_uris": {"ios": "https://dc.lft.to/lastmile_qr_scan", "android": "https://dc.lft.to/lastmile_qr_scan"}, "lat": 38.914592166666665, "is_reserved": 0, "bike_id": "58801014f7799adeb67faccb66abf939", "lon": -77.0020665, "is_disabled": 0, "fusion_lat": 0.0, "fusion_lon": 0.0, "name": "58801014f7799adeb67faccb66abf939", "type": "electric_scooter"}, {"rental_uris": {"ios": "https://dc.lft.to/lastmile_qr_scan", "android": "https://dc.lft.to/lastmile_qr_scan"}, "lat": 38.896168333333335, "is_reserved": 0, "bike_id": "c0d6a0f1e6bb1c15909812a83c3e4e3a", "lon": -77.00923433333334, "is_disabled": 0, "fusion_lat": 0.0, "fusion_lon": 0.0, "name": "c0d6a0f1e6bb1c15909812a83c3e4e3a", "type": "electric_scooter"}, {"rental_uris": {"ios": "https://dc.lft.to/lastmile_qr_scan", "android": "https://dc.lft.to/lastmile_qr_scan"}, "lat": 38.902792, "is_reserved": 0, "bike_id": "7e1e3346bc3f7ad3809a3cd1fea05a53", "lon": -77.0466925, "is_disabled": 0, "fusion_lat": 0.0, "fusion_lon": 0.0, "name": "7e1e3346bc3f7ad3809a3cd1fea05a53", "type": "electric_scooter"}, {"rental_uris": {"ios": "https://dc.lft.to/lastmile_qr_scan", "android": "https://dc.lft.to/lastmile_qr_scan"}, "lat": 38.8833, "is_reserved": 0, "bike_id": "049fdb35cec8682d91a1b7bf2806a7c3", "lon": -77.01730233333333, "is_disabled": 0, "fusion_lat": 0.0, "fusion_lon": 0.0, "name": "049fdb35cec8682d91a1b7bf2806a7c3", "type": "electric_scooter"}, {"rental_uris": {"ios": "https://dc.lft.to/lastmile_qr_scan", "android": "https://dc.lft.to/lastmile_qr_scan"}, "lat": 38.896302166666665, "is_reserved": 0, "bike_id": "0bc8fd55adeca57dc7d66eff3d4505d3", "lon": -77.026229, "is_disabled": 0, "fusion_lat": 0.0, "fusion_lon": 0.0, "name": "0bc8fd55adeca57dc7d66eff3d4505d3", "type": "electric_scooter"}, {"rental_uris": {"ios": "https://dc.lft.to/lastmile_qr_scan", "android": "https://dc.lft.to/lastmile_qr_scan"}, "lat": 38.88733366666666, "is_reserved": 0, "bike_id": "511025f44cef5476213b89a5060a71d4", "lon": -77.02582916666667, "is_disabled": 0, "fusion_lat": 0.0, "fusion_lon": 0.0, "name": "511025f44cef5476213b89a5060a71d4", "type": "electric_scooter"}, {"rental_uris": {"ios": "https://dc.lft.to/lastmile_qr_scan", "android": "https://dc.lft.to/lastmile_qr_scan"}, "lat": 38.93523033333334, "is_reserved": 0, "bike_id": "51b509face6358081b1995d039db971e", "lon": -77.07656433333334, "is_disabled": 0, "fusion_lat": 0.0, "fusion_lon": 0.0, "name": "51b509face6358081b1995d039db971e", "type": "electric_scooter"}, {"rental_uris": {"ios": "https://dc.lft.to/lastmile_qr_scan", "android": "https://dc.lft.to/lastmile_qr_scan"}, "lat": 38.913962, "is_reserved": 0, "bike_id": "11d53e768c387d56193f55238d19600b", "lon": -77.03331166666666, "is_disabled": 0, "fusion_lat": 0.0, "fusion_lon": 0.0, "name": "11d53e768c387d56193f55238d19600b", "type": "electric_scooter"}, {"rental_uris": {"ios": "https://dc.lft.to/lastmile_qr_scan", "android": "https://dc.lft.to/lastmile_qr_scan"}, "lat": 38.895032, "is_reserved": 0, "bike_id": "8893e08a615c5d9bec4842136bf903eb", "lon": -76.9347585, "is_disabled": 0, "fusion_lat": 0.0, "fusion_lon": 0.0, "name": "8893e08a615c5d9bec4842136bf903eb", "type": "electric_scooter"}, {"rental_uris": {"ios": "https://dc.lft.to/lastmile_qr_scan", "android": "https://dc.lft.to/lastmile_qr_scan"}, "lat": 38.922602166666664, "is_reserved": 0, "bike_id": "74b734df96e1003e56519f6913cc9440", "lon": -77.04289733333333, "is_disabled": 0, "fusion_lat": 0.0, "fusion_lon": 0.0, "name": "74b734df96e1003e56519f6913cc9440", "type": "electric_scooter"}, {"rental_uris": {"ios": "https://dc.lft.to/lastmile_qr_scan", "android": "https://dc.lft.to/lastmile_qr_scan"}, "lat": 38.911289833333335, "is_reserved": 0, "bike_id": "c482969f9472ae094916530dc59d5acb", "lon": -77.03837133333333, "is_disabled": 0, "fusion_lat": 0.0, "fusion_lon": 0.0, "name": "c482969f9472ae094916530dc59d5acb", "type": "electric_scooter"}, {"rental_uris": {"ios": "https://dc.lft.to/lastmile_qr_scan", "android": "https://dc.lft.to/lastmile_qr_scan"}, "lat": 38.92470016666667, "is_reserved": 0, "bike_id": "363378b4e14539ac219796180bd09e3f", "lon": -77.02220316666667, "is_disabled": 0, "fusion_lat": 0.0, "fusion_lon": 0.0, "name": "363378b4e14539ac219796180bd09e3f", "type": "electric_scooter"}, {"rental_uris": {"ios": "https://dc.lft.to/lastmile_qr_scan", "android": "https://dc.lft.to/lastmile_qr_scan"}, "lat": 38.92892066666667, "is_reserved": 0, "bike_id": "8f98bf213164d42a3c09efec129e67a5", "lon": -77.03278933333333, "is_disabled": 0, "fusion_lat": 0.0, "fusion_lon": 0.0, "name": "8f98bf213164d42a3c09efec129e67a5", "type": "electric_scooter"}, {"rental_uris": {"ios": "https://dc.lft.to/lastmile_qr_scan", "android": "https://dc.lft.to/lastmile_qr_scan"}, "lat": 38.911127, "is_reserved": 0, "bike_id": "ef65a8a97951f5ea560f9f10b387dd41", "lon": -77.03831783333334, "is_disabled": 0, "fusion_lat": 0.0, "fusion_lon": 0.0, "name": "ef65a8a97951f5ea560f9f10b387dd41", "type": "electric_scooter"}, {"rental_uris": {"ios": "https://dc.lft.to/lastmile_qr_scan", "android": "https://dc.lft.to/lastmile_qr_scan"}, "lat": 38.898613833333336, "is_reserved": 0, "bike_id": "75d41e0df2c69e6d878f5073b354a7fb", "lon": -76.94643283333333, "is_disabled": 0, "fusion_lat": 0.0, "fusion_lon": 0.0, "name": "75d41e0df2c69e6d878f5073b354a7fb", "type": "electric_scooter"}, {"rental_uris": {"ios": "https://dc.lft.to/lastmile_qr_scan", "android": "https://dc.lft.to/lastmile_qr_scan"}, "lat": 38.89222616666667, "is_reserved": 0, "bike_id": "fe46a68cfd3741d75e82b28d6b6302ba", "lon": -77.0468895, "is_disabled": 0, "fusion_lat": 0.0, "fusion_lon": 0.0, "name": "fe46a68cfd3741d75e82b28d6b6302ba", "type": "electric_scooter"}, {"rental_uris": {"ios": "https://dc.lft.to/lastmile_qr_scan", "android": "https://dc.lft.to/lastmile_qr_scan"}, "lat": 38.917719, "is_reserved": 0, "bike_id": "43f897c22b8b42e01c096bd60a22c0bc", "lon": -77.01457416666666, "is_disabled": 0, "fusion_lat": 0.0, "fusion_lon": 0.0, "name": "43f897c22b8b42e01c096bd60a22c0bc", "type": "electric_scooter"}, {"rental_uris": {"ios": "https://dc.lft.to/lastmile_qr_scan", "android": "https://dc.lft.to/lastmile_qr_scan"}, "lat": 38.897311, "is_reserved": 0, "bike_id": "a59f70d7b763ead2280f54ced253d1bc", "lon": -77.00369066666667, "is_disabled": 0, "fusion_lat": 0.0, "fusion_lon": 0.0, "name": "a59f70d7b763ead2280f54ced253d1bc", "type": "electric_scooter"}, {"rental_uris": {"ios": "https://dc.lft.to/lastmile_qr_scan", "android": "https://dc.lft.to/lastmile_qr_scan"}, "lat": 38.9077575, "is_reserved": 0, "bike_id": "429fff2b0449a2b4c3becff4b33694c5", "lon": -77.02983583333334, "is_disabled": 0, "fusion_lat": 0.0, "fusion_lon": 0.0, "name": "429fff2b0449a2b4c3becff4b33694c5", "type": "electric_scooter"}, {"rental_uris": {"ios": "https://dc.lft.to/lastmile_qr_scan", "android": "https://dc.lft.to/lastmile_qr_scan"}, "lat": 38.866249333333336, "is_reserved": 0, "bike_id": "1e8495696ccc61330377547bd54643f9", "lon": -76.98715933333334, "is_disabled": 0, "fusion_lat": 0.0, "fusion_lon": 0.0, "name": "1e8495696ccc61330377547bd54643f9", "type": "electric_scooter"}, {"rental_uris": {"ios": "https://dc.lft.to/lastmile_qr_scan", "android": "https://dc.lft.to/lastmile_qr_scan"}, "lat": 38.92423183333333, "is_reserved": 0, "bike_id": "cf2827cc1a5b69f81ec5d7da10b20e10", "lon": -77.01950116666667, "is_disabled": 0, "fusion_lat": 0.0, "fusion_lon": 0.0, "name": "cf2827cc1a5b69f81ec5d7da10b20e10", "type": "electric_scooter"}, {"rental_uris": {"ios": "https://dc.lft.to/lastmile_qr_scan", "android": "https://dc.lft.to/lastmile_qr_scan"}, "lat": 38.862186333333334, "is_reserved": 0, "bike_id": "2266a6e262cff41ed272cbac6a758f3d", "lon": -76.99489766666667, "is_disabled": 0, "fusion_lat": 0.0, "fusion_lon": 0.0, "name": "2266a6e262cff41ed272cbac6a758f3d", "type": "electric_scooter"}, {"rental_uris": {"ios": "https://dc.lft.to/lastmile_qr_scan", "android": "https://dc.lft.to/lastmile_qr_scan"}, "lat": 38.8955625, "is_reserved": 0, "bike_id": "6badd1a5af52481d40b8823b7e363fe6", "lon": -77.04675533333334, "is_disabled": 0, "fusion_lat": 0.0, "fusion_lon": 0.0, "name": "6badd1a5af52481d40b8823b7e363fe6", "type": "electric_scooter"}, {"rental_uris": {"ios": "https://dc.lft.to/lastmile_qr_scan", "android": "https://dc.lft.to/lastmile_qr_scan"}, "lat": 38.931596666666664, "is_reserved": 0, "bike_id": "d6d0623aa44ce62d1433f5a7aaf00254", "lon": -77.07834983333333, "is_disabled": 0, "fusion_lat": 0.0, "fusion_lon": 0.0, "name": "d6d0623aa44ce62d1433f5a7aaf00254", "type": "electric_scooter"}, {"rental_uris": {"ios": "https://dc.lft.to/lastmile_qr_scan", "android": "https://dc.lft.to/lastmile_qr_scan"}, "lat": 38.91565683333334, "is_reserved": 0, "bike_id": "f1cf76a5bd40bc34de13f3b7cd04478e", "lon": -77.03240583333333, "is_disabled": 0, "fusion_lat": 0.0, "fusion_lon": 0.0, "name": "f1cf76a5bd40bc34de13f3b7cd04478e", "type": "electric_scooter"}, {"rental_uris": {"ios": "https://dc.lft.to/lastmile_qr_scan", "android": "https://dc.lft.to/lastmile_qr_scan"}, "lat": 38.90525316666667, "is_reserved": 0, "bike_id": "d7497260f2f6a39b6da04fc57a77fc38", "lon": -77.00588766666667, "is_disabled": 0, "fusion_lat": 0.0, "fusion_lon": 0.0, "name": "d7497260f2f6a39b6da04fc57a77fc38", "type": "electric_scooter"}, {"rental_uris": {"ios": "https://dc.lft.to/lastmile_qr_scan", "android": "https://dc.lft.to/lastmile_qr_scan"}, "lat": 38.91322183333333, "is_reserved": 0, "bike_id": "132f90fd3eb5cfe90507b688fc4d8bb0", "lon": -77.04004633333334, "is_disabled": 0, "fusion_lat": 0.0, "fusion_lon": 0.0, "name": "132f90fd3eb5cfe90507b688fc4d8bb0", "type": "electric_scooter"}, {"rental_uris": {"ios": "https://dc.lft.to/lastmile_qr_scan", "android": "https://dc.lft.to/lastmile_qr_scan"}, "lat": 38.88532333333333, "is_reserved": 0, "bike_id": "26a1f9806fe55649fd14614da06f0739", "lon": -76.92906216666667, "is_disabled": 0, "fusion_lat": 0.0, "fusion_lon": 0.0, "name": "26a1f9806fe55649fd14614da06f0739", "type": "electric_scooter"}, {"rental_uris": {"ios": "https://dc.lft.to/lastmile_qr_scan", "android": "https://dc.lft.to/lastmile_qr_scan"}, "lat": 38.91694616666667, "is_reserved": 0, "bike_id": "e68a4049fe4434f7137b40da2229356b", "lon": -77.02653983333333, "is_disabled": 0, "fusion_lat": 0.0, "fusion_lon": 0.0, "name": "e68a4049fe4434f7137b40da2229356b", "type": "electric_scooter"}, {"rental_uris": {"ios": "https://dc.lft.to/lastmile_qr_scan", "android": "https://dc.lft.to/lastmile_qr_scan"}, "lat": 38.9001805, "is_reserved": 0, "bike_id": "92d6e58b08edb5b953ea4f692aaedcdf", "lon": -77.00215283333333, "is_disabled": 0, "fusion_lat": 0.0, "fusion_lon": 0.0, "name": "92d6e58b08edb5b953ea4f692aaedcdf", "type": "electric_scooter"}, {"rental_uris": {"ios": "https://dc.lft.to/lastmile_qr_scan", "android": "https://dc.lft.to/lastmile_qr_scan"}, "lat": 38.87578766666667, "is_reserved": 0, "bike_id": "a4cf5a2fa7e014e85eaaf8d3f8a8e9f1", "lon": -77.23410983333333, "is_disabled": 0, "fusion_lat": 0.0, "fusion_lon": 0.0, "name": "a4cf5a2fa7e014e85eaaf8d3f8a8e9f1", "type": "electric_bike"}, {"rental_uris": {"ios": "https://dc.lft.to/lastmile_qr_scan", "android": "https://dc.lft.to/lastmile_qr_scan"}, "lat": 38.916205166666664, "is_reserved": 0, "bike_id": "864ab377934887755fd57e3e13c61610", "lon": -77.03206133333333, "is_disabled": 0, "fusion_lat": 0.0, "fusion_lon": 0.0, "name": "864ab377934887755fd57e3e13c61610", "type": "electric_scooter"}, {"rental_uris": {"ios": "https://dc.lft.to/lastmile_qr_scan", "android": "https://dc.lft.to/lastmile_qr_scan"}, "lat": 38.9178425, "is_reserved": 0, "bike_id": "64d0eaceeac78b53c448effeed5684fc", "lon": -77.023152, "is_disabled": 0, "fusion_lat": 0.0, "fusion_lon": 0.0, "name": "64d0eaceeac78b53c448effeed5684fc", "type": "electric_scooter"}, {"rental_uris": {"ios": "https://dc.lft.to/lastmile_qr_scan", "android": "https://dc.lft.to/lastmile_qr_scan"}, "lat": 38.91598783333333, "is_reserved": 0, "bike_id": "79f352da99af6ffba1351f53e80ad815", "lon": -77.03117633333333, "is_disabled": 0, "fusion_lat": 0.0, "fusion_lon": 0.0, "name": "79f352da99af6ffba1351f53e80ad815", "type": "electric_scooter"}, {"rental_uris": {"ios": "https://dc.lft.to/lastmile_qr_scan", "android": "https://dc.lft.to/lastmile_qr_scan"}, "lat": 38.9110465, "is_reserved": 0, "bike_id": "91f37ea80b15bc58372704d3abd19670", "lon": -77.04222233333333, "is_disabled": 0, "fusion_lat": 0.0, "fusion_lon": 0.0, "name": "91f37ea80b15bc58372704d3abd19670", "type": "electric_scooter"}, {"rental_uris": {"ios": "https://dc.lft.to/lastmile_qr_scan", "android": "https://dc.lft.to/lastmile_qr_scan"}, "lat": 38.86059516666667, "is_reserved": 0, "bike_id": "a3e86c02ac14b721c853cddd79b54847", "lon": -76.9850585, "is_disabled": 0, "fusion_lat": 0.0, "fusion_lon": 0.0, "name": "a3e86c02ac14b721c853cddd79b54847", "type": "electric_scooter"}, {"rental_uris": {"ios": "https://dc.lft.to/lastmile_qr_scan", "android": "https://dc.lft.to/lastmile_qr_scan"}, "lat": 38.91734433333333, "is_reserved": 0, "bike_id": "b880f3f5ce069defd37b29deb535984d", "lon": -77.0344315, "is_disabled": 0, "fusion_lat": 0.0, "fusion_lon": 0.0, "name": "b880f3f5ce069defd37b29deb535984d", "type": "electric_scooter"}, {"rental_uris": {"ios": "https://dc.lft.to/lastmile_qr_scan", "android": "https://dc.lft.to/lastmile_qr_scan"}, "lat": 38.835456, "is_reserved": 0, "bike_id": "667f7f1e9311d9da45f3b99e8200f8d5", "lon": -76.98736683333334, "is_disabled": 0, "fusion_lat": 0.0, "fusion_lon": 0.0, "name": "667f7f1e9311d9da45f3b99e8200f8d5", "type": "electric_bike"}, {"rental_uris": {"ios": "https://dc.lft.to/lastmile_qr_scan", "android": "https://dc.lft.to/lastmile_qr_scan"}, "lat": 38.916971333333336, "is_reserved": 0, "bike_id": "184dd37477ceb7e0595bccca8c113f8f", "lon": -77.01194483333333, "is_disabled": 0, "fusion_lat": 0.0, "fusion_lon": 0.0, "name": "184dd37477ceb7e0595bccca8c113f8f", "type": "electric_scooter"}, {"rental_uris": {"ios": "https://dc.lft.to/lastmile_qr_scan", "android": "https://dc.lft.to/lastmile_qr_scan"}, "lat": 38.844895333333334, "is_reserved": 0, "bike_id": "e0a6eb1cb7dea5f4b9f7fe1fad19fcea", "lon": -76.98795733333333, "is_disabled": 0, "fusion_lat": 0.0, "fusion_lon": 0.0, "name": "e0a6eb1cb7dea5f4b9f7fe1fad19fcea", "type": "electric_scooter"}, {"rental_uris": {"ios": "https://dc.lft.to/lastmile_qr_scan", "android": "https://dc.lft.to/lastmile_qr_scan"}, "lat": 38.92333516666667, "is_reserved": 0, "bike_id": "1fcf94aa5559ffb7d7ced4418c9588f3", "lon": -77.03611466666666, "is_disabled": 0, "fusion_lat": 0.0, "fusion_lon": 0.0, "name": "1fcf94aa5559ffb7d7ced4418c9588f3", "type": "electric_scooter"}, {"rental_uris": {"ios": "https://dc.lft.to/lastmile_qr_scan", "android": "https://dc.lft.to/lastmile_qr_scan"}, "lat": 38.907569, "is_reserved": 0, "bike_id": "66b1f2370b08b40fcf1401b351434f28", "lon": -77.032151, "is_disabled": 0, "fusion_lat": 0.0, "fusion_lon": 0.0, "name": "66b1f2370b08b40fcf1401b351434f28", "type": "electric_scooter"}, {"rental_uris": {"ios": "https://dc.lft.to/lastmile_qr_scan", "android": "https://dc.lft.to/lastmile_qr_scan"}, "lat": 38.90236083333333, "is_reserved": 0, "bike_id": "d3713be700e6abfeab8617674d6a797e", "lon": -77.04227216666666, "is_disabled": 0, "fusion_lat": 0.0, "fusion_lon": 0.0, "name": "d3713be700e6abfeab8617674d6a797e", "type": "electric_scooter"}, {"rental_uris": {"ios": "https://dc.lft.to/lastmile_qr_scan", "android": "https://dc.lft.to/lastmile_qr_scan"}, "lat": 38.87910016666667, "is_reserved": 0, "bike_id": "c32669aa9a971762c52b321aa0bd28b8", "lon": -77.021969, "is_disabled": 0, "fusion_lat": 0.0, "fusion_lon": 0.0, "name": "c32669aa9a971762c52b321aa0bd28b8", "type": "electric_scooter"}, {"rental_uris": {"ios": "https://dc.lft.to/lastmile_qr_scan", "android": "https://dc.lft.to/lastmile_qr_scan"}, "lat": 38.92322266666667, "is_reserved": 0, "bike_id": "054aa811e5c70334f6bb4e35d3384794", "lon": -77.01955666666667, "is_disabled": 0, "fusion_lat": 0.0, "fusion_lon": 0.0, "name": "054aa811e5c70334f6bb4e35d3384794", "type": "electric_scooter"}, {"rental_uris": {"ios": "https://dc.lft.to/lastmile_qr_scan", "android": "https://dc.lft.to/lastmile_qr_scan"}, "lat": 38.90778916666667, "is_reserved": 0, "bike_id": "64eceb5f775774fff0ca260f2a08f91d", "lon": -77.04225683333334, "is_disabled": 0, "fusion_lat": 0.0, "fusion_lon": 0.0, "name": "64eceb5f775774fff0ca260f2a08f91d", "type": "electric_scooter"}, {"rental_uris": {"ios": "https://dc.lft.to/lastmile_qr_scan", "android": "https://dc.lft.to/lastmile_qr_scan"}, "lat": 38.990500833333336, "is_reserved": 0, "bike_id": "461a6afa4804836ed77ba4f8db3531c4", "lon": -77.03867683333333, "is_disabled": 0, "fusion_lat": 0.0, "fusion_lon": 0.0, "name": "461a6afa4804836ed77ba4f8db3531c4", "type": "electric_bike"}, {"rental_uris": {"ios": "https://dc.lft.to/lastmile_qr_scan", "android": "https://dc.lft.to/lastmile_qr_scan"}, "lat": 38.886359, "is_reserved": 0, "bike_id": "7718b5599d7ae10a0a750eeab28fdf96", "lon": -77.01502666666667, "is_disabled": 0, "fusion_lat": 0.0, "fusion_lon": 0.0, "name": "7718b5599d7ae10a0a750eeab28fdf96", "type": "electric_scooter"}, {"rental_uris": {"ios": "https://dc.lft.to/lastmile_qr_scan", "android": "https://dc.lft.to/lastmile_qr_scan"}, "lat": 38.89224566666667, "is_reserved": 0, "bike_id": "90219a5ef558ba08512162a82288d36d", "lon": -77.0477435, "is_disabled": 0, "fusion_lat": 0.0, "fusion_lon": 0.0, "name": "90219a5ef558ba08512162a82288d36d", "type": "electric_scooter"}, {"rental_uris": {"ios": "https://dc.lft.to/lastmile_qr_scan", "android": "https://dc.lft.to/lastmile_qr_scan"}, "lat": 38.866794666666664, "is_reserved": 0, "bike_id": "8b95dc8e65bb5dead0a9a6b3f2971638", "lon": -76.9856505, "is_disabled": 0, "fusion_lat": 0.0, "fusion_lon": 0.0, "name": "8b95dc8e65bb5dead0a9a6b3f2971638", "type": "electric_scooter"}, {"rental_uris": {"ios": "https://dc.lft.to/lastmile_qr_scan", "android": "https://dc.lft.to/lastmile_qr_scan"}, "lat": 38.919891666666665, "is_reserved": 0, "bike_id": "076503519a8e37f6ea3b3e21e6ac7646", "lon": -77.04171516666666, "is_disabled": 0, "fusion_lat": 0.0, "fusion_lon": 0.0, "name": "076503519a8e37f6ea3b3e21e6ac7646", "type": "electric_scooter"}, {"rental_uris": {"ios": "https://dc.lft.to/lastmile_qr_scan", "android": "https://dc.lft.to/lastmile_qr_scan"}, "lat": 38.87682983333333, "is_reserved": 0, "bike_id": "c92a4d74b148c5ae7a095d7c322339f3", "lon": -77.00433266666667, "is_disabled": 0, "fusion_lat": 0.0, "fusion_lon": 0.0, "name": "c92a4d74b148c5ae7a095d7c322339f3", "type": "electric_scooter"}, {"rental_uris": {"ios": "https://dc.lft.to/lastmile_qr_scan", "android": "https://dc.lft.to/lastmile_qr_scan"}, "lat": 38.92061, "is_reserved": 0, "bike_id": "b8340ccc0ecf3034d6e9a5d135372749", "lon": -76.98195383333334, "is_disabled": 0, "fusion_lat": 0.0, "fusion_lon": 0.0, "name": "b8340ccc0ecf3034d6e9a5d135372749", "type": "electric_scooter"}, {"rental_uris": {"ios": "https://dc.lft.to/lastmile_qr_scan", "android": "https://dc.lft.to/lastmile_qr_scan"}, "lat": 38.92141633333333, "is_reserved": 0, "bike_id": "407b3a98124c37e482633a0286f8175f", "lon": -77.01804116666666, "is_disabled": 0, "fusion_lat": 0.0, "fusion_lon": 0.0, "name": "407b3a98124c37e482633a0286f8175f", "type": "electric_scooter"}, {"rental_uris": {"ios": "https://dc.lft.to/lastmile_qr_scan", "android": "https://dc.lft.to/lastmile_qr_scan"}, "lat": 38.92364416666667, "is_reserved": 0, "bike_id": "2ff1af5065339302bd25a3cb33cdd50a", "lon": -77.050319, "is_disabled": 0, "fusion_lat": 0.0, "fusion_lon": 0.0, "name": "2ff1af5065339302bd25a3cb33cdd50a", "type": "electric_scooter"}, {"rental_uris": {"ios": "https://dc.lft.to/lastmile_qr_scan", "android": "https://dc.lft.to/lastmile_qr_scan"}, "lat": 38.9248825, "is_reserved": 0, "bike_id": "c02c32a7e9ea74b8888b2010024c3b46", "lon": -76.99033466666667, "is_disabled": 0, "fusion_lat": 0.0, "fusion_lon": 0.0, "name": "c02c32a7e9ea74b8888b2010024c3b46", "type": "electric_scooter"}, {"rental_uris": {"ios": "https://dc.lft.to/lastmile_qr_scan", "android": "https://dc.lft.to/lastmile_qr_scan"}, "lat": 38.892232666666665, "is_reserved": 0, "bike_id": "1cf0d95c392f024d4ee8869e276ca787", "lon": -77.02504833333333, "is_disabled": 0, "fusion_lat": 0.0, "fusion_lon": 0.0, "name": "1cf0d95c392f024d4ee8869e276ca787", "type": "electric_scooter"}, {"rental_uris": {"ios": "https://dc.lft.to/lastmile_qr_scan", "android": "https://dc.lft.to/lastmile_qr_scan"}, "lat": 38.99094566666667, "is_reserved": 0, "bike_id": "095772ab083243df3693029a86dd2ea5", "lon": -76.99371216666667, "is_disabled": 0, "fusion_lat": 0.0, "fusion_lon": 0.0, "name": "095772ab083243df3693029a86dd2ea5", "type": "electric_bike"}, {"rental_uris": {"ios": "https://dc.lft.to/lastmile_qr_scan", "android": "https://dc.lft.to/lastmile_qr_scan"}, "lat": 38.93691033333333, "is_reserved": 0, "bike_id": "9ebc428d5537d29b3ad294dd7672f038", "lon": -76.99059633333333, "is_disabled": 0, "fusion_lat": 0.0, "fusion_lon": 0.0, "name": "9ebc428d5537d29b3ad294dd7672f038", "type": "electric_bike"}, {"rental_uris": {"ios": "https://dc.lft.to/lastmile_qr_scan", "android": "https://dc.lft.to/lastmile_qr_scan"}, "lat": 38.899733, "is_reserved": 0, "bike_id": "1ac7fac3e315a6825e6c163ee1f138e1", "lon": -76.9948815, "is_disabled": 0, "fusion_lat": 0.0, "fusion_lon": 0.0, "name": "1ac7fac3e315a6825e6c163ee1f138e1", "type": "electric_scooter"}, {"rental_uris": {"ios": "https://dc.lft.to/lastmile_qr_scan", "android": "https://dc.lft.to/lastmile_qr_scan"}, "lat": 38.8922905, "is_reserved": 0, "bike_id": "dfa37782cb4204116b563e2a23f3c7ea", "lon": -77.0220545, "is_disabled": 0, "fusion_lat": 0.0, "fusion_lon": 0.0, "name": "dfa37782cb4204116b563e2a23f3c7ea", "type": "electric_scooter"}, {"rental_uris": {"ios": "https://dc.lft.to/lastmile_qr_scan", "android": "https://dc.lft.to/lastmile_qr_scan"}, "lat": 38.9753615, "is_reserved": 0, "bike_id": "c086c283f8b731accee53646d1b31dc5", "lon": -77.01685183333333, "is_disabled": 0, "fusion_lat": 0.0, "fusion_lon": 0.0, "name": "c086c283f8b731accee53646d1b31dc5", "type": "electric_bike"}, {"rental_uris": {"ios": "https://dc.lft.to/lastmile_qr_scan", "android": "https://dc.lft.to/lastmile_qr_scan"}, "lat": 38.9440755, "is_reserved": 0, "bike_id": "6cc98981f9524a2ef14adbf51dedebe8", "lon": -77.02407266666667, "is_disabled": 0, "fusion_lat": 0.0, "fusion_lon": 0.0, "name": "6cc98981f9524a2ef14adbf51dedebe8", "type": "electric_scooter"}, {"rental_uris": {"ios": "https://dc.lft.to/lastmile_qr_scan", "android": "https://dc.lft.to/lastmile_qr_scan"}, "lat": 38.89720766666667, "is_reserved": 0, "bike_id": "1a98610d2e4703c83c6cbefd96936d70", "lon": -77.00990866666666, "is_disabled": 0, "fusion_lat": 0.0, "fusion_lon": 0.0, "name": "1a98610d2e4703c83c6cbefd96936d70", "type": "electric_scooter"}, {"rental_uris": {"ios": "https://dc.lft.to/lastmile_qr_scan", "android": "https://dc.lft.to/lastmile_qr_scan"}, "lat": 38.9245845, "is_reserved": 0, "bike_id": "1d207104dc61e97b8ffb16b9499541ec", "lon": -77.02246066666666, "is_disabled": 0, "fusion_lat": 0.0, "fusion_lon": 0.0, "name": "1d207104dc61e97b8ffb16b9499541ec", "type": "electric_scooter"}, {"rental_uris": {"ios": "https://dc.lft.to/lastmile_qr_scan", "android": "https://dc.lft.to/lastmile_qr_scan"}, "lat": 38.92162533333333, "is_reserved": 0, "bike_id": "86260e0bae79d96a3377b927f9e23847", "lon": -77.03381716666667, "is_disabled": 0, "fusion_lat": 0.0, "fusion_lon": 0.0, "name": "86260e0bae79d96a3377b927f9e23847", "type": "electric_scooter"}, {"rental_uris": {"ios": "https://dc.lft.to/lastmile_qr_scan", "android": "https://dc.lft.to/lastmile_qr_scan"}, "lat": 38.8794875, "is_reserved": 0, "bike_id": "c4946342fa9a1985428d4183311c1bdc", "lon": -77.02377966666667, "is_disabled": 0, "fusion_lat": 0.0, "fusion_lon": 0.0, "name": "c4946342fa9a1985428d4183311c1bdc", "type": "electric_scooter"}, {"rental_uris": {"ios": "https://dc.lft.to/lastmile_qr_scan", "android": "https://dc.lft.to/lastmile_qr_scan"}, "lat": 38.910970666666664, "is_reserved": 0, "bike_id": "d361bd122691ef438ac035e87d12b760", "lon": -77.038577, "is_disabled": 0, "fusion_lat": 0.0, "fusion_lon": 0.0, "name": "d361bd122691ef438ac035e87d12b760", "type": "electric_scooter"}, {"rental_uris": {"ios": "https://dc.lft.to/lastmile_qr_scan", "android": "https://dc.lft.to/lastmile_qr_scan"}, "lat": 38.908318666666666, "is_reserved": 0, "bike_id": "a893494e493d036c139c6200c0390aa7", "lon": -77.03395966666666, "is_disabled": 0, "fusion_lat": 0.0, "fusion_lon": 0.0, "name": "a893494e493d036c139c6200c0390aa7", "type": "electric_scooter"}, {"rental_uris": {"ios": "https://dc.lft.to/lastmile_qr_scan", "android": "https://dc.lft.to/lastmile_qr_scan"}, "lat": 38.92362116666666, "is_reserved": 0, "bike_id": "ba1e1cc79820cf1918bf1e6d448d35e2", "lon": -77.02983733333333, "is_disabled": 0, "fusion_lat": 0.0, "fusion_lon": 0.0, "name": "ba1e1cc79820cf1918bf1e6d448d35e2", "type": "electric_scooter"}, {"rental_uris": {"ios": "https://dc.lft.to/lastmile_qr_scan", "android": "https://dc.lft.to/lastmile_qr_scan"}, "lat": 38.948943166666666, "is_reserved": 0, "bike_id": "8b392f70fdc450c26247085e24ac31c2", "lon": -76.96376266666667, "is_disabled": 0, "fusion_lat": 0.0, "fusion_lon": 0.0, "name": "8b392f70fdc450c26247085e24ac31c2", "type": "electric_bike"}, {"rental_uris": {"ios": "https://dc.lft.to/lastmile_qr_scan", "android": "https://dc.lft.to/lastmile_qr_scan"}, "lat": 38.914139, "is_reserved": 0, "bike_id": "aca190d6482a3564d46efc0d49ae3881", "lon": -77.02335083333334, "is_disabled": 0, "fusion_lat": 0.0, "fusion_lon": 0.0, "name": "aca190d6482a3564d46efc0d49ae3881", "type": "electric_scooter"}, {"rental_uris": {"ios": "https://dc.lft.to/lastmile_qr_scan", "android": "https://dc.lft.to/lastmile_qr_scan"}, "lat": 38.923632166666664, "is_reserved": 0, "bike_id": "4fe62b3b918cd3c6f521ce6ac0aeadb0", "lon": -77.021267, "is_disabled": 0, "fusion_lat": 0.0, "fusion_lon": 0.0, "name": "4fe62b3b918cd3c6f521ce6ac0aeadb0", "type": "electric_scooter"}, {"rental_uris": {"ios": "https://dc.lft.to/lastmile_qr_scan", "android": "https://dc.lft.to/lastmile_qr_scan"}, "lat": 38.90734366666667, "is_reserved": 0, "bike_id": "808463559278cef8e699167873b334cf", "lon": -77.0317505, "is_disabled": 0, "fusion_lat": 0.0, "fusion_lon": 0.0, "name": "808463559278cef8e699167873b334cf", "type": "electric_scooter"}, {"rental_uris": {"ios": "https://dc.lft.to/lastmile_qr_scan", "android": "https://dc.lft.to/lastmile_qr_scan"}, "lat": 38.920618, "is_reserved": 0, "bike_id": "c4d2f407c1795b369296f70554566f7b", "lon": -77.02305116666666, "is_disabled": 0, "fusion_lat": 0.0, "fusion_lon": 0.0, "name": "c4d2f407c1795b369296f70554566f7b", "type": "electric_scooter"}, {"rental_uris": {"ios": "https://dc.lft.to/lastmile_qr_scan", "android": "https://dc.lft.to/lastmile_qr_scan"}, "lat": 38.919710333333335, "is_reserved": 0, "bike_id": "aa3522a85ff89918119f272769fc03d6", "lon": -77.023828, "is_disabled": 0, "fusion_lat": 0.0, "fusion_lon": 0.0, "name": "aa3522a85ff89918119f272769fc03d6", "type": "electric_scooter"}, {"rental_uris": {"ios": "https://dc.lft.to/lastmile_qr_scan", "android": "https://dc.lft.to/lastmile_qr_scan"}, "lat": 38.91884266666667, "is_reserved": 0, "bike_id": "ce3003f8f3b74c28975f3784cc413cbe", "lon": -77.00348716666667, "is_disabled": 0, "fusion_lat": 0.0, "fusion_lon": 0.0, "name": "ce3003f8f3b74c28975f3784cc413cbe", "type": "electric_scooter"}, {"rental_uris": {"ios": "https://dc.lft.to/lastmile_qr_scan", "android": "https://dc.lft.to/lastmile_qr_scan"}, "lat": 38.95628766666667, "is_reserved": 0, "bike_id": "d18bd656a75908af4058051cdfeeebaf", "lon": -76.9387035, "is_disabled": 0, "fusion_lat": 0.0, "fusion_lon": 0.0, "name": "d18bd656a75908af4058051cdfeeebaf", "type": "electric_bike"}, {"rental_uris": {"ios": "https://dc.lft.to/lastmile_qr_scan", "android": "https://dc.lft.to/lastmile_qr_scan"}, "lat": 38.91552933333333, "is_reserved": 0, "bike_id": "6a2a4dcbc844e676faf8b5ba4633c693", "lon": -77.03176633333334, "is_disabled": 0, "fusion_lat": 0.0, "fusion_lon": 0.0, "name": "6a2a4dcbc844e676faf8b5ba4633c693", "type": "electric_scooter"}, {"rental_uris": {"ios": "https://dc.lft.to/lastmile_qr_scan", "android": "https://dc.lft.to/lastmile_qr_scan"}, "lat": 38.93281416666667, "is_reserved": 0, "bike_id": "4ed59d88c4a06caae65ea93c507276a5", "lon": -77.0254815, "is_disabled": 0, "fusion_lat": 0.0, "fusion_lon": 0.0, "name": "4ed59d88c4a06caae65ea93c507276a5", "type": "electric_scooter"}, {"rental_uris": {"ios": "https://dc.lft.to/lastmile_qr_scan", "android": "https://dc.lft.to/lastmile_qr_scan"}, "lat": 38.90528166666667, "is_reserved": 0, "bike_id": "511fee4212d9aceb8927d3b926b69520", "lon": -76.996382, "is_disabled": 0, "fusion_lat": 0.0, "fusion_lon": 0.0, "name": "511fee4212d9aceb8927d3b926b69520", "type": "electric_scooter"}, {"rental_uris": {"ios": "https://dc.lft.to/lastmile_qr_scan", "android": "https://dc.lft.to/lastmile_qr_scan"}, "lat": 38.92465766666667, "is_reserved": 0, "bike_id": "ce09b3068e53696df4d56b925177282e", "lon": -77.0227385, "is_disabled": 0, "fusion_lat": 0.0, "fusion_lon": 0.0, "name": "ce09b3068e53696df4d56b925177282e", "type": "electric_scooter"}, {"rental_uris": {"ios": "https://dc.lft.to/lastmile_qr_scan", "android": "https://dc.lft.to/lastmile_qr_scan"}, "lat": 38.883772, "is_reserved": 0, "bike_id": "4f8030c1ed1108bf8766da96809882b2", "lon": -76.99527116666667, "is_disabled": 0, "fusion_lat": 0.0, "fusion_lon": 0.0, "name": "4f8030c1ed1108bf8766da96809882b2", "type": "electric_scooter"}, {"rental_uris": {"ios": "https://dc.lft.to/lastmile_qr_scan", "android": "https://dc.lft.to/lastmile_qr_scan"}, "lat": 38.9257465, "is_reserved": 0, "bike_id": "23373c8da2e15b32fec008e05dbfa734", "lon": -77.03643016666666, "is_disabled": 0, "fusion_lat": 0.0, "fusion_lon": 0.0, "name": "23373c8da2e15b32fec008e05dbfa734", "type": "electric_scooter"}, {"rental_uris": {"ios": "https://dc.lft.to/lastmile_qr_scan", "android": "https://dc.lft.to/lastmile_qr_scan"}, "lat": 38.90149816666667, "is_reserved": 0, "bike_id": "dad91197cd638e85b18043c872c5ce4a", "lon": -77.0356475, "is_disabled": 0, "fusion_lat": 0.0, "fusion_lon": 0.0, "name": "dad91197cd638e85b18043c872c5ce4a", "type": "electric_scooter"}, {"rental_uris": {"ios": "https://dc.lft.to/lastmile_qr_scan", "android": "https://dc.lft.to/lastmile_qr_scan"}, "lat": 38.91538966666667, "is_reserved": 0, "bike_id": "63e4711a4d6d9fab5d4ef97d7def2bb7", "lon": -77.03207766666667, "is_disabled": 0, "fusion_lat": 0.0, "fusion_lon": 0.0, "name": "63e4711a4d6d9fab5d4ef97d7def2bb7", "type": "electric_scooter"}, {"rental_uris": {"ios": "https://dc.lft.to/lastmile_qr_scan", "android": "https://dc.lft.to/lastmile_qr_scan"}, "lat": 38.92141266666667, "is_reserved": 0, "bike_id": "84f8208797ca804926e5f280f87d6ec7", "lon": -77.0349845, "is_disabled": 0, "fusion_lat": 0.0, "fusion_lon": 0.0, "name": "84f8208797ca804926e5f280f87d6ec7", "type": "electric_scooter"}, {"rental_uris": {"ios": "https://dc.lft.to/lastmile_qr_scan", "android": "https://dc.lft.to/lastmile_qr_scan"}, "lat": 38.908674500000004, "is_reserved": 0, "bike_id": "825b52fe90cd6f79f3a8965ff5985304", "lon": -76.93338666666666, "is_disabled": 0, "fusion_lat": 0.0, "fusion_lon": 0.0, "name": "825b52fe90cd6f79f3a8965ff5985304", "type": "electric_scooter"}, {"rental_uris": {"ios": "https://dc.lft.to/lastmile_qr_scan", "android": "https://dc.lft.to/lastmile_qr_scan"}, "lat": 38.927686666666666, "is_reserved": 0, "bike_id": "894803a38b34ce30418c9671618f0ce7", "lon": -77.027396, "is_disabled": 0, "fusion_lat": 0.0, "fusion_lon": 0.0, "name": "894803a38b34ce30418c9671618f0ce7", "type": "electric_scooter"}, {"rental_uris": {"ios": "https://dc.lft.to/lastmile_qr_scan", "android": "https://dc.lft.to/lastmile_qr_scan"}, "lat": 38.910056, "is_reserved": 0, "bike_id": "42ba09311305726de5df751a83265a2d", "lon": -77.03197666666667, "is_disabled": 0, "fusion_lat": 0.0, "fusion_lon": 0.0, "name": "42ba09311305726de5df751a83265a2d", "type": "electric_scooter"}, {"rental_uris": {"ios": "https://dc.lft.to/lastmile_qr_scan", "android": "https://dc.lft.to/lastmile_qr_scan"}, "lat": 38.903973, "is_reserved": 0, "bike_id": "b69f2f998f89c88a8ef45e7896c64410", "lon": -77.05341516666667, "is_disabled": 0, "fusion_lat": 0.0, "fusion_lon": 0.0, "name": "b69f2f998f89c88a8ef45e7896c64410", "type": "electric_scooter"}, {"rental_uris": {"ios": "https://dc.lft.to/lastmile_qr_scan", "android": "https://dc.lft.to/lastmile_qr_scan"}, "lat": 38.897242, "is_reserved": 0, "bike_id": "4d34c46b7dd6cb60bb8045e9647a4c70", "lon": -77.0092845, "is_disabled": 0, "fusion_lat": 0.0, "fusion_lon": 0.0, "name": "4d34c46b7dd6cb60bb8045e9647a4c70", "type": "electric_scooter"}, {"rental_uris": {"ios": "https://dc.lft.to/lastmile_qr_scan", "android": "https://dc.lft.to/lastmile_qr_scan"}, "lat": 38.8961675, "is_reserved": 0, "bike_id": "153b6ea05d244604bc504747656757fd", "lon": -77.01964633333333, "is_disabled": 0, "fusion_lat": 0.0, "fusion_lon": 0.0, "name": "153b6ea05d244604bc504747656757fd", "type": "electric_scooter"}, {"rental_uris": {"ios": "https://dc.lft.to/lastmile_qr_scan", "android": "https://dc.lft.to/lastmile_qr_scan"}, "lat": 38.91805316666667, "is_reserved": 0, "bike_id": "92229854450d344639d267a03c46d761", "lon": -77.03435066666667, "is_disabled": 0, "fusion_lat": 0.0, "fusion_lon": 0.0, "name": "92229854450d344639d267a03c46d761", "type": "electric_scooter"}, {"rental_uris": {"ios": "https://dc.lft.to/lastmile_qr_scan", "android": "https://dc.lft.to/lastmile_qr_scan"}, "lat": 38.909531, "is_reserved": 0, "bike_id": "7e244ce9747dd07c819ee879beb058a0", "lon": -77.02311816666666, "is_disabled": 0, "fusion_lat": 0.0, "fusion_lon": 0.0, "name": "7e244ce9747dd07c819ee879beb058a0", "type": "electric_scooter"}, {"rental_uris": {"ios": "https://dc.lft.to/lastmile_qr_scan", "android": "https://dc.lft.to/lastmile_qr_scan"}, "lat": 38.866466833333334, "is_reserved": 0, "bike_id": "b7d13b39825d774f8a2bafeff16e114a", "lon": -76.98509016666667, "is_disabled": 0, "fusion_lat": 0.0, "fusion_lon": 0.0, "name": "b7d13b39825d774f8a2bafeff16e114a", "type": "electric_scooter"}, {"rental_uris": {"ios": "https://dc.lft.to/lastmile_qr_scan", "android": "https://dc.lft.to/lastmile_qr_scan"}, "lat": 38.90463333333334, "is_reserved": 0, "bike_id": "38d0c9703fe4eda5407a17fea5eb3141", "lon": -77.01942016666666, "is_disabled": 0, "fusion_lat": 0.0, "fusion_lon": 0.0, "name": "38d0c9703fe4eda5407a17fea5eb3141", "type": "electric_scooter"}, {"rental_uris": {"ios": "https://dc.lft.to/lastmile_qr_scan", "android": "https://dc.lft.to/lastmile_qr_scan"}, "lat": 38.8845305, "is_reserved": 0, "bike_id": "4d904832778021c58c45cc68c302be7e", "lon": -76.950988, "is_disabled": 0, "fusion_lat": 0.0, "fusion_lon": 0.0, "name": "4d904832778021c58c45cc68c302be7e", "type": "electric_scooter"}, {"rental_uris": {"ios": "https://dc.lft.to/lastmile_qr_scan", "android": "https://dc.lft.to/lastmile_qr_scan"}, "lat": 38.937622, "is_reserved": 0, "bike_id": "8033d3f3e78ee076b2259ad17159d2b4", "lon": -77.02140533333333, "is_disabled": 0, "fusion_lat": 0.0, "fusion_lon": 0.0, "name": "8033d3f3e78ee076b2259ad17159d2b4", "type": "electric_scooter"}, {"rental_uris": {"ios": "https://dc.lft.to/lastmile_qr_scan", "android": "https://dc.lft.to/lastmile_qr_scan"}, "lat": 38.90202816666667, "is_reserved": 0, "bike_id": "5aaa99808bee67b854ccf616446d69b0", "lon": -76.98205316666666, "is_disabled": 0, "fusion_lat": 0.0, "fusion_lon": 0.0, "name": "5aaa99808bee67b854ccf616446d69b0", "type": "electric_scooter"}, {"rental_uris": {"ios": "https://dc.lft.to/lastmile_qr_scan", "android": "https://dc.lft.to/lastmile_qr_scan"}, "lat": 38.8990955, "is_reserved": 0, "bike_id": "3939fb4a113944356dfea8e075cc36e7", "lon": -77.03247483333334, "is_disabled": 0, "fusion_lat": 0.0, "fusion_lon": 0.0, "name": "3939fb4a113944356dfea8e075cc36e7", "type": "electric_scooter"}, {"rental_uris": {"ios": "https://dc.lft.to/lastmile_qr_scan", "android": "https://dc.lft.to/lastmile_qr_scan"}, "lat": 38.93173866666667, "is_reserved": 0, "bike_id": "badf6ef8700aeb7aaee682eff0c07f49", "lon": -77.04310083333333, "is_disabled": 0, "fusion_lat": 0.0, "fusion_lon": 0.0, "name": "badf6ef8700aeb7aaee682eff0c07f49", "type": "electric_scooter"}, {"rental_uris": {"ios": "https://dc.lft.to/lastmile_qr_scan", "android": "https://dc.lft.to/lastmile_qr_scan"}, "lat": 38.91417233333333, "is_reserved": 0, "bike_id": "93c9986442ea75f47a74c3318eb13238", "lon": -77.01559866666666, "is_disabled": 0, "fusion_lat": 0.0, "fusion_lon": 0.0, "name": "93c9986442ea75f47a74c3318eb13238", "type": "electric_scooter"}, {"rental_uris": {"ios": "https://dc.lft.to/lastmile_qr_scan", "android": "https://dc.lft.to/lastmile_qr_scan"}, "lat": 38.96154216666667, "is_reserved": 0, "bike_id": "f579b0d267fb8df6d742aaa963389f35", "lon": -77.0277615, "is_disabled": 0, "fusion_lat": 0.0, "fusion_lon": 0.0, "name": "f579b0d267fb8df6d742aaa963389f35", "type": "electric_scooter"}, {"rental_uris": {"ios": "https://dc.lft.to/lastmile_qr_scan", "android": "https://dc.lft.to/lastmile_qr_scan"}, "lat": 38.94102816666667, "is_reserved": 0, "bike_id": "86cd204109fe0f365798dd9440775dfd", "lon": -77.076003, "is_disabled": 0, "fusion_lat": 0.0, "fusion_lon": 0.0, "name": "86cd204109fe0f365798dd9440775dfd", "type": "electric_scooter"}, {"rental_uris": {"ios": "https://dc.lft.to/lastmile_qr_scan", "android": "https://dc.lft.to/lastmile_qr_scan"}, "lat": 38.9130035, "is_reserved": 0, "bike_id": "93ca41babc74fbba5dc7b7b48a9ccc21", "lon": -77.04869983333333, "is_disabled": 0, "fusion_lat": 0.0, "fusion_lon": 0.0, "name": "93ca41babc74fbba5dc7b7b48a9ccc21", "type": "electric_scooter"}, {"rental_uris": {"ios": "https://dc.lft.to/lastmile_qr_scan", "android": "https://dc.lft.to/lastmile_qr_scan"}, "lat": 38.941244, "is_reserved": 0, "bike_id": "9ccf729fdd30879673fccbfd099aa8ea", "lon": -77.015439, "is_disabled": 0, "fusion_lat": 0.0, "fusion_lon": 0.0, "name": "9ccf729fdd30879673fccbfd099aa8ea", "type": "electric_scooter"}, {"rental_uris": {"ios": "https://dc.lft.to/lastmile_qr_scan", "android": "https://dc.lft.to/lastmile_qr_scan"}, "lat": 38.90410816666667, "is_reserved": 0, "bike_id": "90eec01bad2063bc0ec17ca904147ea4", "lon": -77.005976, "is_disabled": 0, "fusion_lat": 0.0, "fusion_lon": 0.0, "name": "90eec01bad2063bc0ec17ca904147ea4", "type": "electric_scooter"}, {"rental_uris": {"ios": "https://dc.lft.to/lastmile_qr_scan", "android": "https://dc.lft.to/lastmile_qr_scan"}, "lat": 38.89080233333333, "is_reserved": 0, "bike_id": "6ed49252734f1afe2ab9639b310be760", "lon": -76.98825366666667, "is_disabled": 0, "fusion_lat": 0.0, "fusion_lon": 0.0, "name": "6ed49252734f1afe2ab9639b310be760", "type": "electric_scooter"}, {"rental_uris": {"ios": "https://dc.lft.to/lastmile_qr_scan", "android": "https://dc.lft.to/lastmile_qr_scan"}, "lat": 38.901701833333334, "is_reserved": 0, "bike_id": "a4e0b440996967142c5e5b62cf23947f", "lon": -77.0132085, "is_disabled": 0, "fusion_lat": 0.0, "fusion_lon": 0.0, "name": "a4e0b440996967142c5e5b62cf23947f", "type": "electric_scooter"}, {"rental_uris": {"ios": "https://dc.lft.to/lastmile_qr_scan", "android": "https://dc.lft.to/lastmile_qr_scan"}, "lat": 38.914839, "is_reserved": 0, "bike_id": "2875851848b6ba0f5889f4bb774bf807", "lon": -77.048353, "is_disabled": 0, "fusion_lat": 0.0, "fusion_lon": 0.0, "name": "2875851848b6ba0f5889f4bb774bf807", "type": "electric_scooter"}, {"rental_uris": {"ios": "https://dc.lft.to/lastmile_qr_scan", "android": "https://dc.lft.to/lastmile_qr_scan"}, "lat": 38.951909, "is_reserved": 0, "bike_id": "dc2438eab878cf783df7fa98c44f35a1", "lon": -77.0666025, "is_disabled": 0, "fusion_lat": 0.0, "fusion_lon": 0.0, "name": "dc2438eab878cf783df7fa98c44f35a1", "type": "electric_scooter"}, {"rental_uris": {"ios": "https://dc.lft.to/lastmile_qr_scan", "android": "https://dc.lft.to/lastmile_qr_scan"}, "lat": 38.90952866666667, "is_reserved": 0, "bike_id": "7555cd1d9b0341b24b8441dd830a1cde", "lon": -76.985384, "is_disabled": 0, "fusion_lat": 0.0, "fusion_lon": 0.0, "name": "7555cd1d9b0341b24b8441dd830a1cde", "type": "electric_scooter"}, {"rental_uris": {"ios": "https://dc.lft.to/lastmile_qr_scan", "android": "https://dc.lft.to/lastmile_qr_scan"}, "lat": 38.91269616666666, "is_reserved": 0, "bike_id": "03cff4e7bb6ece990630a9b6b07ae70d", "lon": -77.00796333333334, "is_disabled": 0, "fusion_lat": 0.0, "fusion_lon": 0.0, "name": "03cff4e7bb6ece990630a9b6b07ae70d", "type": "electric_scooter"}, {"rental_uris": {"ios": "https://dc.lft.to/lastmile_qr_scan", "android": "https://dc.lft.to/lastmile_qr_scan"}, "lat": 38.8971715, "is_reserved": 0, "bike_id": "76e67d8f49351d6e8c2b3dedaba128b9", "lon": -77.00796983333333, "is_disabled": 0, "fusion_lat": 0.0, "fusion_lon": 0.0, "name": "76e67d8f49351d6e8c2b3dedaba128b9", "type": "electric_scooter"}, {"rental_uris": {"ios": "https://dc.lft.to/lastmile_qr_scan", "android": "https://dc.lft.to/lastmile_qr_scan"}, "lat": 38.90892483333333, "is_reserved": 0, "bike_id": "557f5093010b9f3f60a7bbf6ff5d9f5d", "lon": -77.0386215, "is_disabled": 0, "fusion_lat": 0.0, "fusion_lon": 0.0, "name": "557f5093010b9f3f60a7bbf6ff5d9f5d", "type": "electric_scooter"}, {"rental_uris": {"ios": "https://dc.lft.to/lastmile_qr_scan", "android": "https://dc.lft.to/lastmile_qr_scan"}, "lat": 38.914043166666666, "is_reserved": 0, "bike_id": "464a35a68f5e13cb3ad57dd4d86a2285", "lon": -77.02281833333333, "is_disabled": 0, "fusion_lat": 0.0, "fusion_lon": 0.0, "name": "464a35a68f5e13cb3ad57dd4d86a2285", "type": "electric_scooter"}, {"rental_uris": {"ios": "https://dc.lft.to/lastmile_qr_scan", "android": "https://dc.lft.to/lastmile_qr_scan"}, "lat": 38.92218066666667, "is_reserved": 0, "bike_id": "d32e1ce8dce4f7ff333c941f6fc9e30e", "lon": -77.04335066666667, "is_disabled": 0, "fusion_lat": 0.0, "fusion_lon": 0.0, "name": "d32e1ce8dce4f7ff333c941f6fc9e30e", "type": "electric_scooter"}, {"rental_uris": {"ios": "https://dc.lft.to/lastmile_qr_scan", "android": "https://dc.lft.to/lastmile_qr_scan"}, "lat": 38.902345, "is_reserved": 0, "bike_id": "42aca825b85966ac9810c45d0670cff0", "lon": -77.02689966666667, "is_disabled": 0, "fusion_lat": 0.0, "fusion_lon": 0.0, "name": "42aca825b85966ac9810c45d0670cff0", "type": "electric_scooter"}, {"rental_uris": {"ios": "https://dc.lft.to/lastmile_qr_scan", "android": "https://dc.lft.to/lastmile_qr_scan"}, "lat": 38.923606166666666, "is_reserved": 0, "bike_id": "4871b407ac51f7c62bde99eeb2744a21", "lon": -77.0505265, "is_disabled": 0, "fusion_lat": 0.0, "fusion_lon": 0.0, "name": "4871b407ac51f7c62bde99eeb2744a21", "type": "electric_scooter"}, {"rental_uris": {"ios": "https://dc.lft.to/lastmile_qr_scan", "android": "https://dc.lft.to/lastmile_qr_scan"}, "lat": 38.865237, "is_reserved": 0, "bike_id": "c757c084f84a27b98ee62715085e9fd3", "lon": -77.12934783333333, "is_disabled": 0, "fusion_lat": 0.0, "fusion_lon": 0.0, "name": "c757c084f84a27b98ee62715085e9fd3", "type": "electric_bike"}, {"rental_uris": {"ios": "https://dc.lft.to/lastmile_qr_scan", "android": "https://dc.lft.to/lastmile_qr_scan"}, "lat": 38.8953975, "is_reserved": 0, "bike_id": "5e2d76c3b920ea6299373e97195aa528", "lon": -77.03161483333334, "is_disabled": 0, "fusion_lat": 0.0, "fusion_lon": 0.0, "name": "5e2d76c3b920ea6299373e97195aa528", "type": "electric_scooter"}, {"rental_uris": {"ios": "https://dc.lft.to/lastmile_qr_scan", "android": "https://dc.lft.to/lastmile_qr_scan"}, "lat": 38.912672666666666, "is_reserved": 0, "bike_id": "8e8b8a9748c87a6ecd5af0dd940c4483", "lon": -77.04840566666667, "is_disabled": 0, "fusion_lat": 0.0, "fusion_lon": 0.0, "name": "8e8b8a9748c87a6ecd5af0dd940c4483", "type": "electric_scooter"}, {"rental_uris": {"ios": "https://dc.lft.to/lastmile_qr_scan", "android": "https://dc.lft.to/lastmile_qr_scan"}, "lat": 38.8767545, "is_reserved": 0, "bike_id": "3dd92f5aca1529ba458b1078afd81353", "lon": -77.01762733333334, "is_disabled": 0, "fusion_lat": 0.0, "fusion_lon": 0.0, "name": "3dd92f5aca1529ba458b1078afd81353", "type": "electric_scooter"}, {"rental_uris": {"ios": "https://dc.lft.to/lastmile_qr_scan", "android": "https://dc.lft.to/lastmile_qr_scan"}, "lat": 38.89355, "is_reserved": 0, "bike_id": "cf42708080e8f9f6ec6d292506a8894b", "lon": -76.925929, "is_disabled": 0, "fusion_lat": 0.0, "fusion_lon": 0.0, "name": "cf42708080e8f9f6ec6d292506a8894b", "type": "electric_scooter"}, {"rental_uris": {"ios": "https://dc.lft.to/lastmile_qr_scan", "android": "https://dc.lft.to/lastmile_qr_scan"}, "lat": 38.8958775, "is_reserved": 0, "bike_id": "ca613c5e69082bd269acdaa72c6dc2a0", "lon": -77.02583433333334, "is_disabled": 0, "fusion_lat": 0.0, "fusion_lon": 0.0, "name": "ca613c5e69082bd269acdaa72c6dc2a0", "type": "electric_scooter"}, {"rental_uris": {"ios": "https://dc.lft.to/lastmile_qr_scan", "android": "https://dc.lft.to/lastmile_qr_scan"}, "lat": 38.902433, "is_reserved": 0, "bike_id": "3fcfede39d7a811500baa73933a1648b", "lon": -77.002019, "is_disabled": 0, "fusion_lat": 0.0, "fusion_lon": 0.0, "name": "3fcfede39d7a811500baa73933a1648b", "type": "electric_scooter"}, {"rental_uris": {"ios": "https://dc.lft.to/lastmile_qr_scan", "android": "https://dc.lft.to/lastmile_qr_scan"}, "lat": 38.92846633333333, "is_reserved": 0, "bike_id": "bd5c9c5aa6f55abb16bd248cd3e577aa", "lon": -77.03321, "is_disabled": 0, "fusion_lat": 0.0, "fusion_lon": 0.0, "name": "bd5c9c5aa6f55abb16bd248cd3e577aa", "type": "electric_scooter"}, {"rental_uris": {"ios": "https://dc.lft.to/lastmile_qr_scan", "android": "https://dc.lft.to/lastmile_qr_scan"}, "lat": 38.888875666666664, "is_reserved": 0, "bike_id": "7a3a5f4a8bb1221c5b43ca129ad63b16", "lon": -77.0332425, "is_disabled": 0, "fusion_lat": 0.0, "fusion_lon": 0.0, "name": "7a3a5f4a8bb1221c5b43ca129ad63b16", "type": "electric_scooter"}, {"rental_uris": {"ios": "https://dc.lft.to/lastmile_qr_scan", "android": "https://dc.lft.to/lastmile_qr_scan"}, "lat": 38.908284333333334, "is_reserved": 0, "bike_id": "6d7d5dbf5c067e2341f0a670409ce338", "lon": -77.03549066666666, "is_disabled": 0, "fusion_lat": 0.0, "fusion_lon": 0.0, "name": "6d7d5dbf5c067e2341f0a670409ce338", "type": "electric_scooter"}, {"rental_uris": {"ios": "https://dc.lft.to/lastmile_qr_scan", "android": "https://dc.lft.to/lastmile_qr_scan"}, "lat": 38.88133216666667, "is_reserved": 0, "bike_id": "78f2b00525a11d7e3ccb9620c6e68fa9", "lon": -77.01648416666667, "is_disabled": 0, "fusion_lat": 0.0, "fusion_lon": 0.0, "name": "78f2b00525a11d7e3ccb9620c6e68fa9", "type": "electric_scooter"}, {"rental_uris": {"ios": "https://dc.lft.to/lastmile_qr_scan", "android": "https://dc.lft.to/lastmile_qr_scan"}, "lat": 38.857176833333334, "is_reserved": 0, "bike_id": "325a1fb356cefe23d3a469f676650c76", "lon": -76.98097983333334, "is_disabled": 0, "fusion_lat": 0.0, "fusion_lon": 0.0, "name": "325a1fb356cefe23d3a469f676650c76", "type": "electric_scooter"}, {"rental_uris": {"ios": "https://dc.lft.to/lastmile_qr_scan", "android": "https://dc.lft.to/lastmile_qr_scan"}, "lat": 38.927173, "is_reserved": 0, "bike_id": "e930999e3ea3d845e0d8c154847eaa5f", "lon": -77.02314383333334, "is_disabled": 0, "fusion_lat": 0.0, "fusion_lon": 0.0, "name": "e930999e3ea3d845e0d8c154847eaa5f", "type": "electric_scooter"}, {"rental_uris": {"ios": "https://dc.lft.to/lastmile_qr_scan", "android": "https://dc.lft.to/lastmile_qr_scan"}, "lat": 38.911443, "is_reserved": 0, "bike_id": "7ed4a28918540783115cb02f5660908a", "lon": -77.02393216666667, "is_disabled": 0, "fusion_lat": 0.0, "fusion_lon": 0.0, "name": "7ed4a28918540783115cb02f5660908a", "type": "electric_scooter"}, {"rental_uris": {"ios": "https://dc.lft.to/lastmile_qr_scan", "android": "https://dc.lft.to/lastmile_qr_scan"}, "lat": 38.903440833333335, "is_reserved": 0, "bike_id": "fcd2e65ed65e48d4c7256cd275dc9e54", "lon": -77.02013283333334, "is_disabled": 0, "fusion_lat": 0.0, "fusion_lon": 0.0, "name": "fcd2e65ed65e48d4c7256cd275dc9e54", "type": "electric_scooter"}, {"rental_uris": {"ios": "https://dc.lft.to/lastmile_qr_scan", "android": "https://dc.lft.to/lastmile_qr_scan"}, "lat": 38.90747983333333, "is_reserved": 0, "bike_id": "cd36603429e899df2d60200831c1d0c4", "lon": -77.04276183333333, "is_disabled": 0, "fusion_lat": 0.0, "fusion_lon": 0.0, "name": "cd36603429e899df2d60200831c1d0c4", "type": "electric_scooter"}, {"rental_uris": {"ios": "https://dc.lft.to/lastmile_qr_scan", "android": "https://dc.lft.to/lastmile_qr_scan"}, "lat": 38.92602516666667, "is_reserved": 0, "bike_id": "3d0ec111b59df7eb513219c4413c205f", "lon": -77.02586633333334, "is_disabled": 0, "fusion_lat": 0.0, "fusion_lon": 0.0, "name": "3d0ec111b59df7eb513219c4413c205f", "type": "electric_scooter"}, {"rental_uris": {"ios": "https://dc.lft.to/lastmile_qr_scan", "android": "https://dc.lft.to/lastmile_qr_scan"}, "lat": 38.9144755, "is_reserved": 0, "bike_id": "e95c4bbe8eaf51a441c266ee183bad92", "lon": -77.0461165, "is_disabled": 0, "fusion_lat": 0.0, "fusion_lon": 0.0, "name": "e95c4bbe8eaf51a441c266ee183bad92", "type": "electric_scooter"}, {"rental_uris": {"ios": "https://dc.lft.to/lastmile_qr_scan", "android": "https://dc.lft.to/lastmile_qr_scan"}, "lat": 38.90570183333333, "is_reserved": 0, "bike_id": "0424c205ce972bda20f8eefcc5cc4319", "lon": -77.0061865, "is_disabled": 0, "fusion_lat": 0.0, "fusion_lon": 0.0, "name": "0424c205ce972bda20f8eefcc5cc4319", "type": "electric_scooter"}, {"rental_uris": {"ios": "https://dc.lft.to/lastmile_qr_scan", "android": "https://dc.lft.to/lastmile_qr_scan"}, "lat": 38.9026555, "is_reserved": 0, "bike_id": "b714a03b6a351bc76ed1c194c106e5ce", "lon": -77.0397975, "is_disabled": 0, "fusion_lat": 0.0, "fusion_lon": 0.0, "name": "b714a03b6a351bc76ed1c194c106e5ce", "type": "electric_scooter"}, {"rental_uris": {"ios": "https://dc.lft.to/lastmile_qr_scan", "android": "https://dc.lft.to/lastmile_qr_scan"}, "lat": 38.90667666666667, "is_reserved": 0, "bike_id": "0090f60f5da574dbb4e7ba36698729c5", "lon": -77.07196683333333, "is_disabled": 0, "fusion_lat": 0.0, "fusion_lon": 0.0, "name": "0090f60f5da574dbb4e7ba36698729c5", "type": "electric_scooter"}, {"rental_uris": {"ios": "https://dc.lft.to/lastmile_qr_scan", "android": "https://dc.lft.to/lastmile_qr_scan"}, "lat": 38.88401866666667, "is_reserved": 0, "bike_id": "e80f9517ea12d05d7b048929afacd5f1", "lon": -76.954188, "is_disabled": 0, "fusion_lat": 0.0, "fusion_lon": 0.0, "name": "e80f9517ea12d05d7b048929afacd5f1", "type": "electric_bike"}, {"rental_uris": {"ios": "https://dc.lft.to/lastmile_qr_scan", "android": "https://dc.lft.to/lastmile_qr_scan"}, "lat": 38.865452833333336, "is_reserved": 0, "bike_id": "e094e0c9aeef2c0858f435eeb9b15044", "lon": -76.98971, "is_disabled": 0, "fusion_lat": 0.0, "fusion_lon": 0.0, "name": "e094e0c9aeef2c0858f435eeb9b15044", "type": "electric_scooter"}, {"rental_uris": {"ios": "https://dc.lft.to/lastmile_qr_scan", "android": "https://dc.lft.to/lastmile_qr_scan"}, "lat": 38.92467716666667, "is_reserved": 0, "bike_id": "d6214f95d8d3c79cc41a52b24c350018", "lon": -77.0220525, "is_disabled": 0, "fusion_lat": 0.0, "fusion_lon": 0.0, "name": "d6214f95d8d3c79cc41a52b24c350018", "type": "electric_scooter"}, {"rental_uris": {"ios": "https://dc.lft.to/lastmile_qr_scan", "android": "https://dc.lft.to/lastmile_qr_scan"}, "lat": 38.9056615, "is_reserved": 0, "bike_id": "1b9852b1c6083ee38f20c5360b950caf", "lon": -77.00397366666667, "is_disabled": 0, "fusion_lat": 0.0, "fusion_lon": 0.0, "name": "1b9852b1c6083ee38f20c5360b950caf", "type": "electric_scooter"}, {"rental_uris": {"ios": "https://dc.lft.to/lastmile_qr_scan", "android": "https://dc.lft.to/lastmile_qr_scan"}, "lat": 38.906528, "is_reserved": 0, "bike_id": "de678a9d98b4d8d2f4a08ebf2855109b", "lon": -77.038661, "is_disabled": 0, "fusion_lat": 0.0, "fusion_lon": 0.0, "name": "de678a9d98b4d8d2f4a08ebf2855109b", "type": "electric_scooter"}, {"rental_uris": {"ios": "https://dc.lft.to/lastmile_qr_scan", "android": "https://dc.lft.to/lastmile_qr_scan"}, "lat": 38.887385333333334, "is_reserved": 0, "bike_id": "57b5b7b8a5dbd5436ccb72cb30f27e52", "lon": -77.021228, "is_disabled": 0, "fusion_lat": 0.0, "fusion_lon": 0.0, "name": "57b5b7b8a5dbd5436ccb72cb30f27e52", "type": "electric_scooter"}, {"rental_uris": {"ios": "https://dc.lft.to/lastmile_qr_scan", "android": "https://dc.lft.to/lastmile_qr_scan"}, "lat": 38.89819633333333, "is_reserved": 0, "bike_id": "d5867ada5f2b02ab89e5e0aaaf0200a6", "lon": -77.04814833333333, "is_disabled": 0, "fusion_lat": 0.0, "fusion_lon": 0.0, "name": "d5867ada5f2b02ab89e5e0aaaf0200a6", "type": "electric_scooter"}, {"rental_uris": {"ios": "https://dc.lft.to/lastmile_qr_scan", "android": "https://dc.lft.to/lastmile_qr_scan"}, "lat": 38.929766666666666, "is_reserved": 0, "bike_id": "11e23f26b84d3a26d43d8eb6b761274c", "lon": -77.0252875, "is_disabled": 0, "fusion_lat": 0.0, "fusion_lon": 0.0, "name": "11e23f26b84d3a26d43d8eb6b761274c", "type": "electric_scooter"}, {"rental_uris": {"ios": "https://dc.lft.to/lastmile_qr_scan", "android": "https://dc.lft.to/lastmile_qr_scan"}, "lat": 38.879188166666665, "is_reserved": 0, "bike_id": "846b53823077f7b8a72bd85195013c4e", "lon": -77.00542016666667, "is_disabled": 0, "fusion_lat": 0.0, "fusion_lon": 0.0, "name": "846b53823077f7b8a72bd85195013c4e", "type": "electric_scooter"}, {"rental_uris": {"ios": "https://dc.lft.to/lastmile_qr_scan", "android": "https://dc.lft.to/lastmile_qr_scan"}, "lat": 38.931157, "is_reserved": 0, "bike_id": "19bd6eec9c0ff8362e6b3142759360a8", "lon": -77.03278583333334, "is_disabled": 0, "fusion_lat": 0.0, "fusion_lon": 0.0, "name": "19bd6eec9c0ff8362e6b3142759360a8", "type": "electric_scooter"}, {"rental_uris": {"ios": "https://dc.lft.to/lastmile_qr_scan", "android": "https://dc.lft.to/lastmile_qr_scan"}, "lat": 38.900711333333334, "is_reserved": 0, "bike_id": "6668b63c29f34e801d9e012d906842fc", "lon": -77.023932, "is_disabled": 0, "fusion_lat": 0.0, "fusion_lon": 0.0, "name": "6668b63c29f34e801d9e012d906842fc", "type": "electric_scooter"}, {"rental_uris": {"ios": "https://dc.lft.to/lastmile_qr_scan", "android": "https://dc.lft.to/lastmile_qr_scan"}, "lat": 38.92334233333333, "is_reserved": 0, "bike_id": "1e80ca7a2e2f14db41b0a6709582421a", "lon": -77.05348633333334, "is_disabled": 0, "fusion_lat": 0.0, "fusion_lon": 0.0, "name": "1e80ca7a2e2f14db41b0a6709582421a", "type": "electric_scooter"}, {"rental_uris": {"ios": "https://dc.lft.to/lastmile_qr_scan", "android": "https://dc.lft.to/lastmile_qr_scan"}, "lat": 38.949144833333335, "is_reserved": 0, "bike_id": "e5f4196742673a13b92e78feac68e64e", "lon": -77.008006, "is_disabled": 0, "fusion_lat": 0.0, "fusion_lon": 0.0, "name": "e5f4196742673a13b92e78feac68e64e", "type": "electric_bike"}, {"rental_uris": {"ios": "https://dc.lft.to/lastmile_qr_scan", "android": "https://dc.lft.to/lastmile_qr_scan"}, "lat": 38.903120333333334, "is_reserved": 0, "bike_id": "824144771931e0ac33bc8e0943c8c4b4", "lon": -77.03844316666667, "is_disabled": 0, "fusion_lat": 0.0, "fusion_lon": 0.0, "name": "824144771931e0ac33bc8e0943c8c4b4", "type": "electric_scooter"}, {"rental_uris": {"ios": "https://dc.lft.to/lastmile_qr_scan", "android": "https://dc.lft.to/lastmile_qr_scan"}, "lat": 38.91649433333333, "is_reserved": 0, "bike_id": "53ab0ceb7937334fc13bf9f5d48ccbb5", "lon": -77.036438, "is_disabled": 0, "fusion_lat": 0.0, "fusion_lon": 0.0, "name": "53ab0ceb7937334fc13bf9f5d48ccbb5", "type": "electric_scooter"}, {"rental_uris": {"ios": "https://dc.lft.to/lastmile_qr_scan", "android": "https://dc.lft.to/lastmile_qr_scan"}, "lat": 38.93920416666667, "is_reserved": 0, "bike_id": "b03567e4442a0e525a96cdf2313407e4", "lon": -77.036749, "is_disabled": 0, "fusion_lat": 0.0, "fusion_lon": 0.0, "name": "b03567e4442a0e525a96cdf2313407e4", "type": "electric_scooter"}, {"rental_uris": {"ios": "https://dc.lft.to/lastmile_qr_scan", "android": "https://dc.lft.to/lastmile_qr_scan"}, "lat": 38.90127966666667, "is_reserved": 0, "bike_id": "385988d33fe98f266add6232f174708c", "lon": -77.03477, "is_disabled": 0, "fusion_lat": 0.0, "fusion_lon": 0.0, "name": "385988d33fe98f266add6232f174708c", "type": "electric_scooter"}, {"rental_uris": {"ios": "https://dc.lft.to/lastmile_qr_scan", "android": "https://dc.lft.to/lastmile_qr_scan"}, "lat": 38.91620566666667, "is_reserved": 0, "bike_id": "473bc40394d4ce63930d53ce6b1855e6", "lon": -77.0321325, "is_disabled": 0, "fusion_lat": 0.0, "fusion_lon": 0.0, "name": "473bc40394d4ce63930d53ce6b1855e6", "type": "electric_scooter"}, {"rental_uris": {"ios": "https://dc.lft.to/lastmile_qr_scan", "android": "https://dc.lft.to/lastmile_qr_scan"}, "lat": 38.9405065, "is_reserved": 0, "bike_id": "728baa322f1627fe2d81f3d9fe64df37", "lon": -76.90424116666667, "is_disabled": 0, "fusion_lat": 0.0, "fusion_lon": 0.0, "name": "728baa322f1627fe2d81f3d9fe64df37", "type": "electric_bike"}, {"rental_uris": {"ios": "https://dc.lft.to/lastmile_qr_scan", "android": "https://dc.lft.to/lastmile_qr_scan"}, "lat": 38.917045333333334, "is_reserved": 0, "bike_id": "6364d9f55a041b7f9be7449ed5daf9fe", "lon": -77.03862833333334, "is_disabled": 0, "fusion_lat": 0.0, "fusion_lon": 0.0, "name": "6364d9f55a041b7f9be7449ed5daf9fe", "type": "electric_scooter"}, {"rental_uris": {"ios": "https://dc.lft.to/lastmile_qr_scan", "android": "https://dc.lft.to/lastmile_qr_scan"}, "lat": 38.954948333333334, "is_reserved": 0, "bike_id": "5ff333a8be7fe87eb56c59b5dd48b2f8", "lon": -77.01721416666666, "is_disabled": 0, "fusion_lat": 0.0, "fusion_lon": 0.0, "name": "5ff333a8be7fe87eb56c59b5dd48b2f8", "type": "electric_scooter"}, {"rental_uris": {"ios": "https://dc.lft.to/lastmile_qr_scan", "android": "https://dc.lft.to/lastmile_qr_scan"}, "lat": 38.92856116666667, "is_reserved": 0, "bike_id": "dc16800a854d1eb545296fca711460c7", "lon": -77.01399216666667, "is_disabled": 0, "fusion_lat": 0.0, "fusion_lon": 0.0, "name": "dc16800a854d1eb545296fca711460c7", "type": "electric_scooter"}, {"rental_uris": {"ios": "https://dc.lft.to/lastmile_qr_scan", "android": "https://dc.lft.to/lastmile_qr_scan"}, "lat": 38.9180185, "is_reserved": 0, "bike_id": "deaefb1467fb9ee7d2324dc01784832a", "lon": -77.026968, "is_disabled": 0, "fusion_lat": 0.0, "fusion_lon": 0.0, "name": "deaefb1467fb9ee7d2324dc01784832a", "type": "electric_scooter"}, {"rental_uris": {"ios": "https://dc.lft.to/lastmile_qr_scan", "android": "https://dc.lft.to/lastmile_qr_scan"}, "lat": 38.86614733333333, "is_reserved": 0, "bike_id": "6fa73b58a73fd4f009c99bc145bbbc0c", "lon": -76.98232533333334, "is_disabled": 0, "fusion_lat": 0.0, "fusion_lon": 0.0, "name": "6fa73b58a73fd4f009c99bc145bbbc0c", "type": "electric_scooter"}, {"rental_uris": {"ios": "https://dc.lft.to/lastmile_qr_scan", "android": "https://dc.lft.to/lastmile_qr_scan"}, "lat": 38.90567933333333, "is_reserved": 0, "bike_id": "8384840130797a1476dac31f0581ee06", "lon": -77.04340866666666, "is_disabled": 0, "fusion_lat": 0.0, "fusion_lon": 0.0, "name": "8384840130797a1476dac31f0581ee06", "type": "electric_scooter"}, {"rental_uris": {"ios": "https://dc.lft.to/lastmile_qr_scan", "android": "https://dc.lft.to/lastmile_qr_scan"}, "lat": 38.9106855, "is_reserved": 0, "bike_id": "712517f8409ff62019b528410d68bc33", "lon": -77.043813, "is_disabled": 0, "fusion_lat": 0.0, "fusion_lon": 0.0, "name": "712517f8409ff62019b528410d68bc33", "type": "electric_scooter"}, {"rental_uris": {"ios": "https://dc.lft.to/lastmile_qr_scan", "android": "https://dc.lft.to/lastmile_qr_scan"}, "lat": 38.89223333333333, "is_reserved": 0, "bike_id": "e8bfcf85d3ba1b6fbdf61a2fd1d278a8", "lon": -77.04197116666667, "is_disabled": 0, "fusion_lat": 0.0, "fusion_lon": 0.0, "name": "e8bfcf85d3ba1b6fbdf61a2fd1d278a8", "type": "electric_scooter"}, {"rental_uris": {"ios": "https://dc.lft.to/lastmile_qr_scan", "android": "https://dc.lft.to/lastmile_qr_scan"}, "lat": 38.9236435, "is_reserved": 0, "bike_id": "294df116fa53362af7d0736fb50db094", "lon": -77.01916583333333, "is_disabled": 0, "fusion_lat": 0.0, "fusion_lon": 0.0, "name": "294df116fa53362af7d0736fb50db094", "type": "electric_scooter"}, {"rental_uris": {"ios": "https://dc.lft.to/lastmile_qr_scan", "android": "https://dc.lft.to/lastmile_qr_scan"}, "lat": 38.896182333333336, "is_reserved": 0, "bike_id": "0b964d4215c90b47cddd9707252123ef", "lon": -77.04764316666666, "is_disabled": 0, "fusion_lat": 0.0, "fusion_lon": 0.0, "name": "0b964d4215c90b47cddd9707252123ef", "type": "electric_scooter"}, {"rental_uris": {"ios": "https://dc.lft.to/lastmile_qr_scan", "android": "https://dc.lft.to/lastmile_qr_scan"}, "lat": 38.8942775, "is_reserved": 0, "bike_id": "81d599816ca3f810f7f740082ba400f2", "lon": -77.03088483333333, "is_disabled": 0, "fusion_lat": 0.0, "fusion_lon": 0.0, "name": "81d599816ca3f810f7f740082ba400f2", "type": "electric_scooter"}, {"rental_uris": {"ios": "https://dc.lft.to/lastmile_qr_scan", "android": "https://dc.lft.to/lastmile_qr_scan"}, "lat": 38.92540783333333, "is_reserved": 0, "bike_id": "8312c7336cf4ac34015cd01a1e353430", "lon": -77.03383583333333, "is_disabled": 0, "fusion_lat": 0.0, "fusion_lon": 0.0, "name": "8312c7336cf4ac34015cd01a1e353430", "type": "electric_scooter"}, {"rental_uris": {"ios": "https://dc.lft.to/lastmile_qr_scan", "android": "https://dc.lft.to/lastmile_qr_scan"}, "lat": 38.89824683333333, "is_reserved": 0, "bike_id": "b69dac8e462e3dabaa41e86ddfc38782", "lon": -77.03178183333333, "is_disabled": 0, "fusion_lat": 0.0, "fusion_lon": 0.0, "name": "b69dac8e462e3dabaa41e86ddfc38782", "type": "electric_scooter"}, {"rental_uris": {"ios": "https://dc.lft.to/lastmile_qr_scan", "android": "https://dc.lft.to/lastmile_qr_scan"}, "lat": 39.040854833333334, "is_reserved": 0, "bike_id": "b54c5e440356ae48b9c94cf331bcb051", "lon": -77.05343616666667, "is_disabled": 0, "fusion_lat": 0.0, "fusion_lon": 0.0, "name": "b54c5e440356ae48b9c94cf331bcb051", "type": "electric_bike"}, {"rental_uris": {"ios": "https://dc.lft.to/lastmile_qr_scan", "android": "https://dc.lft.to/lastmile_qr_scan"}, "lat": 38.917657, "is_reserved": 0, "bike_id": "9053a673717bcb0021af96101cf3caeb", "lon": -77.04057816666666, "is_disabled": 0, "fusion_lat": 0.0, "fusion_lon": 0.0, "name": "9053a673717bcb0021af96101cf3caeb", "type": "electric_scooter"}, {"rental_uris": {"ios": "https://dc.lft.to/lastmile_qr_scan", "android": "https://dc.lft.to/lastmile_qr_scan"}, "lat": 38.8806615, "is_reserved": 0, "bike_id": "9e64580891e06b5de6e65658fd06d4fd", "lon": -77.08632083333333, "is_disabled": 0, "fusion_lat": 0.0, "fusion_lon": 0.0, "name": "9e64580891e06b5de6e65658fd06d4fd", "type": "electric_bike"}, {"rental_uris": {"ios": "https://dc.lft.to/lastmile_qr_scan", "android": "https://dc.lft.to/lastmile_qr_scan"}, "lat": 38.909675666666665, "is_reserved": 0, "bike_id": "c5e80a71289ef9909fc7c996512e1cc5", "lon": -77.045186, "is_disabled": 0, "fusion_lat": 0.0, "fusion_lon": 0.0, "name": "c5e80a71289ef9909fc7c996512e1cc5", "type": "electric_scooter"}, {"rental_uris": {"ios": "https://dc.lft.to/lastmile_qr_scan", "android": "https://dc.lft.to/lastmile_qr_scan"}, "lat": 38.895915, "is_reserved": 0, "bike_id": "133dba36e3741adb359995623d6445a6", "lon": -77.04099233333334, "is_disabled": 0, "fusion_lat": 0.0, "fusion_lon": 0.0, "name": "133dba36e3741adb359995623d6445a6", "type": "electric_scooter"}, {"rental_uris": {"ios": "https://dc.lft.to/lastmile_qr_scan", "android": "https://dc.lft.to/lastmile_qr_scan"}, "lat": 38.8711665, "is_reserved": 0, "bike_id": "16bb5cc634bd0b621b2891de372cbdd1", "lon": -77.00757816666666, "is_disabled": 0, "fusion_lat": 0.0, "fusion_lon": 0.0, "name": "16bb5cc634bd0b621b2891de372cbdd1", "type": "electric_scooter"}, {"rental_uris": {"ios": "https://dc.lft.to/lastmile_qr_scan", "android": "https://dc.lft.to/lastmile_qr_scan"}, "lat": 38.927203666666664, "is_reserved": 0, "bike_id": "35d323e8161232165e1f8af2af467c3e", "lon": -77.03244266666667, "is_disabled": 0, "fusion_lat": 0.0, "fusion_lon": 0.0, "name": "35d323e8161232165e1f8af2af467c3e", "type": "electric_scooter"}, {"rental_uris": {"ios": "https://dc.lft.to/lastmile_qr_scan", "android": "https://dc.lft.to/lastmile_qr_scan"}, "lat": 38.88488183333333, "is_reserved": 0, "bike_id": "ddc315e9ab3d727770d493ec74b8488d", "lon": -77.0220285, "is_disabled": 0, "fusion_lat": 0.0, "fusion_lon": 0.0, "name": "ddc315e9ab3d727770d493ec74b8488d", "type": "electric_scooter"}, {"rental_uris": {"ios": "https://dc.lft.to/lastmile_qr_scan", "android": "https://dc.lft.to/lastmile_qr_scan"}, "lat": 38.897321833333336, "is_reserved": 0, "bike_id": "47008e62e3f4e8d987d3f27354cbb8fc", "lon": -77.05525033333333, "is_disabled": 0, "fusion_lat": 0.0, "fusion_lon": 0.0, "name": "47008e62e3f4e8d987d3f27354cbb8fc", "type": "electric_scooter"}, {"rental_uris": {"ios": "https://dc.lft.to/lastmile_qr_scan", "android": "https://dc.lft.to/lastmile_qr_scan"}, "lat": 38.9725575, "is_reserved": 0, "bike_id": "98daa4cbf14c7489d7ead98f8ba38202", "lon": -76.99277416666666, "is_disabled": 0, "fusion_lat": 0.0, "fusion_lon": 0.0, "name": "98daa4cbf14c7489d7ead98f8ba38202", "type": "electric_bike"}, {"rental_uris": {"ios": "https://dc.lft.to/lastmile_qr_scan", "android": "https://dc.lft.to/lastmile_qr_scan"}, "lat": 38.9358825, "is_reserved": 0, "bike_id": "25ddad816b8dbcdf80e50225603e6c35", "lon": -77.03351933333333, "is_disabled": 0, "fusion_lat": 0.0, "fusion_lon": 0.0, "name": "25ddad816b8dbcdf80e50225603e6c35", "type": "electric_scooter"}, {"rental_uris": {"ios": "https://dc.lft.to/lastmile_qr_scan", "android": "https://dc.lft.to/lastmile_qr_scan"}, "lat": 38.95070316666666, "is_reserved": 0, "bike_id": "2efd4ea6db05b58bd94119014fa78119", "lon": -76.996206, "is_disabled": 0, "fusion_lat": 0.0, "fusion_lon": 0.0, "name": "2efd4ea6db05b58bd94119014fa78119", "type": "electric_scooter"}, {"rental_uris": {"ios": "https://dc.lft.to/lastmile_qr_scan", "android": "https://dc.lft.to/lastmile_qr_scan"}, "lat": 38.89463116666667, "is_reserved": 0, "bike_id": "2c1548cd23ffb0267bfae69b29836127", "lon": -76.94959783333333, "is_disabled": 0, "fusion_lat": 0.0, "fusion_lon": 0.0, "name": "2c1548cd23ffb0267bfae69b29836127", "type": "electric_scooter"}, {"rental_uris": {"ios": "https://dc.lft.to/lastmile_qr_scan", "android": "https://dc.lft.to/lastmile_qr_scan"}, "lat": 38.91784066666666, "is_reserved": 0, "bike_id": "2a9401cee2327966ebb7d33c3a71ded8", "lon": -77.02312333333333, "is_disabled": 0, "fusion_lat": 0.0, "fusion_lon": 0.0, "name": "2a9401cee2327966ebb7d33c3a71ded8", "type": "electric_scooter"}, {"rental_uris": {"ios": "https://dc.lft.to/lastmile_qr_scan", "android": "https://dc.lft.to/lastmile_qr_scan"}, "lat": 38.924657833333335, "is_reserved": 0, "bike_id": "8c1b763e801e8215bfbb62cdf7dd30b1", "lon": -77.02153416666667, "is_disabled": 0, "fusion_lat": 0.0, "fusion_lon": 0.0, "name": "8c1b763e801e8215bfbb62cdf7dd30b1", "type": "electric_scooter"}, {"rental_uris": {"ios": "https://dc.lft.to/lastmile_qr_scan", "android": "https://dc.lft.to/lastmile_qr_scan"}, "lat": 38.930772166666664, "is_reserved": 0, "bike_id": "2fd2ccd9a1c89b44f71eebd9513f250a", "lon": -77.03482966666667, "is_disabled": 0, "fusion_lat": 0.0, "fusion_lon": 0.0, "name": "2fd2ccd9a1c89b44f71eebd9513f250a", "type": "electric_scooter"}, {"rental_uris": {"ios": "https://dc.lft.to/lastmile_qr_scan", "android": "https://dc.lft.to/lastmile_qr_scan"}, "lat": 38.90683583333333, "is_reserved": 0, "bike_id": "8230af699f4f12b478d9c23cca741e1d", "lon": -77.0269465, "is_disabled": 0, "fusion_lat": 0.0, "fusion_lon": 0.0, "name": "8230af699f4f12b478d9c23cca741e1d", "type": "electric_scooter"}, {"rental_uris": {"ios": "https://dc.lft.to/lastmile_qr_scan", "android": "https://dc.lft.to/lastmile_qr_scan"}, "lat": 38.89741933333333, "is_reserved": 0, "bike_id": "ab55c66a05377e1ac7bdb849b3bbffe8", "lon": -76.99843083333333, "is_disabled": 0, "fusion_lat": 0.0, "fusion_lon": 0.0, "name": "ab55c66a05377e1ac7bdb849b3bbffe8", "type": "electric_scooter"}, {"rental_uris": {"ios": "https://dc.lft.to/lastmile_qr_scan", "android": "https://dc.lft.to/lastmile_qr_scan"}, "lat": 38.93432166666667, "is_reserved": 0, "bike_id": "11b2dbb9082b17a02933d1f99b64be20", "lon": -77.04, "is_disabled": 0, "fusion_lat": 0.0, "fusion_lon": 0.0, "name": "11b2dbb9082b17a02933d1f99b64be20", "type": "electric_scooter"}, {"rental_uris": {"ios": "https://dc.lft.to/lastmile_qr_scan", "android": "https://dc.lft.to/lastmile_qr_scan"}, "lat": 38.81988283333333, "is_reserved": 0, "bike_id": "a1f049a7f83a47473ceb1a522d224b82", "lon": -76.99814516666666, "is_disabled": 0, "fusion_lat": 0.0, "fusion_lon": 0.0, "name": "a1f049a7f83a47473ceb1a522d224b82", "type": "electric_bike"}, {"rental_uris": {"ios": "https://dc.lft.to/lastmile_qr_scan", "android": "https://dc.lft.to/lastmile_qr_scan"}, "lat": 38.884904666666664, "is_reserved": 0, "bike_id": "98754381bf29b36c99aff0a57f5018cd", "lon": -77.02183516666666, "is_disabled": 0, "fusion_lat": 0.0, "fusion_lon": 0.0, "name": "98754381bf29b36c99aff0a57f5018cd", "type": "electric_scooter"}, {"rental_uris": {"ios": "https://dc.lft.to/lastmile_qr_scan", "android": "https://dc.lft.to/lastmile_qr_scan"}, "lat": 38.8662965, "is_reserved": 0, "bike_id": "2ae98df15f7dece6abd921b5cf86500b", "lon": -76.9870935, "is_disabled": 0, "fusion_lat": 0.0, "fusion_lon": 0.0, "name": "2ae98df15f7dece6abd921b5cf86500b", "type": "electric_scooter"}, {"rental_uris": {"ios": "https://dc.lft.to/lastmile_qr_scan", "android": "https://dc.lft.to/lastmile_qr_scan"}, "lat": 38.91327283333333, "is_reserved": 0, "bike_id": "2ecca82f1821a9acca57b0fcf549edff", "lon": -77.04016266666666, "is_disabled": 0, "fusion_lat": 0.0, "fusion_lon": 0.0, "name": "2ecca82f1821a9acca57b0fcf549edff", "type": "electric_scooter"}, {"rental_uris": {"ios": "https://dc.lft.to/lastmile_qr_scan", "android": "https://dc.lft.to/lastmile_qr_scan"}, "lat": 38.8906345, "is_reserved": 0, "bike_id": "56a435edb0159a4de6714ab706582b87", "lon": -77.1843485, "is_disabled": 0, "fusion_lat": 0.0, "fusion_lon": 0.0, "name": "56a435edb0159a4de6714ab706582b87", "type": "electric_bike"}, {"rental_uris": {"ios": "https://dc.lft.to/lastmile_qr_scan", "android": "https://dc.lft.to/lastmile_qr_scan"}, "lat": 38.9030405, "is_reserved": 0, "bike_id": "6614da2702d2f8023b3d28c16302cd97", "lon": -77.06028116666667, "is_disabled": 0, "fusion_lat": 0.0, "fusion_lon": 0.0, "name": "6614da2702d2f8023b3d28c16302cd97", "type": "electric_scooter"}, {"rental_uris": {"ios": "https://dc.lft.to/lastmile_qr_scan", "android": "https://dc.lft.to/lastmile_qr_scan"}, "lat": 38.8922905, "is_reserved": 0, "bike_id": "8ac7b198ba7c4beb18753514a8ab92e0", "lon": -77.02570533333333, "is_disabled": 0, "fusion_lat": 0.0, "fusion_lon": 0.0, "name": "8ac7b198ba7c4beb18753514a8ab92e0", "type": "electric_scooter"}, {"rental_uris": {"ios": "https://dc.lft.to/lastmile_qr_scan", "android": "https://dc.lft.to/lastmile_qr_scan"}, "lat": 38.92598233333333, "is_reserved": 0, "bike_id": "938d797efabe15d66a8e9e6463040e89", "lon": -77.0122145, "is_disabled": 0, "fusion_lat": 0.0, "fusion_lon": 0.0, "name": "938d797efabe15d66a8e9e6463040e89", "type": "electric_scooter"}, {"rental_uris": {"ios": "https://dc.lft.to/lastmile_qr_scan", "android": "https://dc.lft.to/lastmile_qr_scan"}, "lat": 38.952312, "is_reserved": 0, "bike_id": "bfb5e56dbae34309aef4110611ea25f5", "lon": -77.01374333333334, "is_disabled": 0, "fusion_lat": 0.0, "fusion_lon": 0.0, "name": "bfb5e56dbae34309aef4110611ea25f5", "type": "electric_scooter"}, {"rental_uris": {"ios": "https://dc.lft.to/lastmile_qr_scan", "android": "https://dc.lft.to/lastmile_qr_scan"}, "lat": 38.88491066666667, "is_reserved": 0, "bike_id": "9aaf237443f4dcea1aa80022b2f36ee3", "lon": -77.007103, "is_disabled": 0, "fusion_lat": 0.0, "fusion_lon": 0.0, "name": "9aaf237443f4dcea1aa80022b2f36ee3", "type": "electric_scooter"}, {"rental_uris": {"ios": "https://dc.lft.to/lastmile_qr_scan", "android": "https://dc.lft.to/lastmile_qr_scan"}, "lat": 38.9022995, "is_reserved": 0, "bike_id": "21a34abb97803ad795dd65e4fb04e46e", "lon": -77.04358933333333, "is_disabled": 0, "fusion_lat": 0.0, "fusion_lon": 0.0, "name": "21a34abb97803ad795dd65e4fb04e46e", "type": "electric_scooter"}, {"rental_uris": {"ios": "https://dc.lft.to/lastmile_qr_scan", "android": "https://dc.lft.to/lastmile_qr_scan"}, "lat": 38.9158275, "is_reserved": 0, "bike_id": "02ed942a14cae067b37e33598fbdc374", "lon": -77.04626, "is_disabled": 0, "fusion_lat": 0.0, "fusion_lon": 0.0, "name": "02ed942a14cae067b37e33598fbdc374", "type": "electric_scooter"}, {"rental_uris": {"ios": "https://dc.lft.to/lastmile_qr_scan", "android": "https://dc.lft.to/lastmile_qr_scan"}, "lat": 38.907386, "is_reserved": 0, "bike_id": "17e8ebd15ae229ccd96150dbe6a5079b", "lon": -77.04268016666667, "is_disabled": 0, "fusion_lat": 0.0, "fusion_lon": 0.0, "name": "17e8ebd15ae229ccd96150dbe6a5079b", "type": "electric_scooter"}, {"rental_uris": {"ios": "https://dc.lft.to/lastmile_qr_scan", "android": "https://dc.lft.to/lastmile_qr_scan"}, "lat": 38.924786833333336, "is_reserved": 0, "bike_id": "ea0501d0c7c0696cdeeb3a6ad81cb914", "lon": -77.02649733333334, "is_disabled": 0, "fusion_lat": 0.0, "fusion_lon": 0.0, "name": "ea0501d0c7c0696cdeeb3a6ad81cb914", "type": "electric_scooter"}, {"rental_uris": {"ios": "https://dc.lft.to/lastmile_qr_scan", "android": "https://dc.lft.to/lastmile_qr_scan"}, "lat": 38.903255333333334, "is_reserved": 0, "bike_id": "4d14de5d81408189935a5422c1730102", "lon": -77.043412, "is_disabled": 0, "fusion_lat": 0.0, "fusion_lon": 0.0, "name": "4d14de5d81408189935a5422c1730102", "type": "electric_scooter"}, {"rental_uris": {"ios": "https://dc.lft.to/lastmile_qr_scan", "android": "https://dc.lft.to/lastmile_qr_scan"}, "lat": 38.86759, "is_reserved": 0, "bike_id": "698f23a9f5a9f8641473a43436970596", "lon": -76.98281366666667, "is_disabled": 0, "fusion_lat": 0.0, "fusion_lon": 0.0, "name": "698f23a9f5a9f8641473a43436970596", "type": "electric_scooter"}, {"rental_uris": {"ios": "https://dc.lft.to/lastmile_qr_scan", "android": "https://dc.lft.to/lastmile_qr_scan"}, "lat": 38.881314, "is_reserved": 0, "bike_id": "6d60102cf4e94298fd407adfeecf12d5", "lon": -77.02712933333333, "is_disabled": 0, "fusion_lat": 0.0, "fusion_lon": 0.0, "name": "6d60102cf4e94298fd407adfeecf12d5", "type": "electric_scooter"}, {"rental_uris": {"ios": "https://dc.lft.to/lastmile_qr_scan", "android": "https://dc.lft.to/lastmile_qr_scan"}, "lat": 38.89740333333334, "is_reserved": 0, "bike_id": "ba9a9877f5b9f57266db51534562b5f5", "lon": -77.00921516666666, "is_disabled": 0, "fusion_lat": 0.0, "fusion_lon": 0.0, "name": "ba9a9877f5b9f57266db51534562b5f5", "type": "electric_scooter"}, {"rental_uris": {"ios": "https://dc.lft.to/lastmile_qr_scan", "android": "https://dc.lft.to/lastmile_qr_scan"}, "lat": 38.887043, "is_reserved": 0, "bike_id": "06b29e44f827abd276bb84bd3eba78f8", "lon": -77.01371633333333, "is_disabled": 0, "fusion_lat": 0.0, "fusion_lon": 0.0, "name": "06b29e44f827abd276bb84bd3eba78f8", "type": "electric_scooter"}, {"rental_uris": {"ios": "https://dc.lft.to/lastmile_qr_scan", "android": "https://dc.lft.to/lastmile_qr_scan"}, "lat": 38.899249833333336, "is_reserved": 0, "bike_id": "7c168690abb13415549a45536a993af9", "lon": -77.0401905, "is_disabled": 0, "fusion_lat": 0.0, "fusion_lon": 0.0, "name": "7c168690abb13415549a45536a993af9", "type": "electric_scooter"}, {"rental_uris": {"ios": "https://dc.lft.to/lastmile_qr_scan", "android": "https://dc.lft.to/lastmile_qr_scan"}, "lat": 38.904015, "is_reserved": 0, "bike_id": "17b3d5fa02587d8d2b3aa7d0e2fc7b43", "lon": -77.04352983333334, "is_disabled": 0, "fusion_lat": 0.0, "fusion_lon": 0.0, "name": "17b3d5fa02587d8d2b3aa7d0e2fc7b43", "type": "electric_scooter"}, {"rental_uris": {"ios": "https://dc.lft.to/lastmile_qr_scan", "android": "https://dc.lft.to/lastmile_qr_scan"}, "lat": 38.917069, "is_reserved": 0, "bike_id": "4696ffae55822e1f3b3af6bbef6cb15e", "lon": -77.03861783333333, "is_disabled": 0, "fusion_lat": 0.0, "fusion_lon": 0.0, "name": "4696ffae55822e1f3b3af6bbef6cb15e", "type": "electric_scooter"}, {"rental_uris": {"ios": "https://dc.lft.to/lastmile_qr_scan", "android": "https://dc.lft.to/lastmile_qr_scan"}, "lat": 38.9170475, "is_reserved": 0, "bike_id": "99b3deff477851f99f31ee6d63776320", "lon": -77.03866, "is_disabled": 0, "fusion_lat": 0.0, "fusion_lon": 0.0, "name": "99b3deff477851f99f31ee6d63776320", "type": "electric_scooter"}, {"rental_uris": {"ios": "https://dc.lft.to/lastmile_qr_scan", "android": "https://dc.lft.to/lastmile_qr_scan"}, "lat": 38.92789466666667, "is_reserved": 0, "bike_id": "de00f2ab923691ac89cedced9d0550b2", "lon": -77.02315866666666, "is_disabled": 0, "fusion_lat": 0.0, "fusion_lon": 0.0, "name": "de00f2ab923691ac89cedced9d0550b2", "type": "electric_scooter"}, {"rental_uris": {"ios": "https://dc.lft.to/lastmile_qr_scan", "android": "https://dc.lft.to/lastmile_qr_scan"}, "lat": 38.915681666666664, "is_reserved": 0, "bike_id": "0cfe81b14882965800735bbf94da3313", "lon": -77.03203233333333, "is_disabled": 0, "fusion_lat": 0.0, "fusion_lon": 0.0, "name": "0cfe81b14882965800735bbf94da3313", "type": "electric_scooter"}, {"rental_uris": {"ios": "https://dc.lft.to/lastmile_qr_scan", "android": "https://dc.lft.to/lastmile_qr_scan"}, "lat": 38.9181475, "is_reserved": 0, "bike_id": "0988f3cab9ca6afef865c1cdeae7f68f", "lon": -77.02687633333333, "is_disabled": 0, "fusion_lat": 0.0, "fusion_lon": 0.0, "name": "0988f3cab9ca6afef865c1cdeae7f68f", "type": "electric_scooter"}, {"rental_uris": {"ios": "https://dc.lft.to/lastmile_qr_scan", "android": "https://dc.lft.to/lastmile_qr_scan"}, "lat": 38.85592916666667, "is_reserved": 0, "bike_id": "87846362c71670314f62288891d698aa", "lon": -76.98725516666667, "is_disabled": 0, "fusion_lat": 0.0, "fusion_lon": 0.0, "name": "87846362c71670314f62288891d698aa", "type": "electric_scooter"}, {"rental_uris": {"ios": "https://dc.lft.to/lastmile_qr_scan", "android": "https://dc.lft.to/lastmile_qr_scan"}, "lat": 38.9003045, "is_reserved": 0, "bike_id": "471b0f7a0c0367258017161e8666b4d4", "lon": -76.98785983333333, "is_disabled": 0, "fusion_lat": 0.0, "fusion_lon": 0.0, "name": "471b0f7a0c0367258017161e8666b4d4", "type": "electric_scooter"}, {"rental_uris": {"ios": "https://dc.lft.to/lastmile_qr_scan", "android": "https://dc.lft.to/lastmile_qr_scan"}, "lat": 38.90269166666667, "is_reserved": 0, "bike_id": "472052f1500cfb1883d47474853b6c60", "lon": -77.03142533333333, "is_disabled": 0, "fusion_lat": 0.0, "fusion_lon": 0.0, "name": "472052f1500cfb1883d47474853b6c60", "type": "electric_scooter"}, {"rental_uris": {"ios": "https://dc.lft.to/lastmile_qr_scan", "android": "https://dc.lft.to/lastmile_qr_scan"}, "lat": 38.931042833333336, "is_reserved": 0, "bike_id": "c1271bcf149d2aeb873601e4787c098d", "lon": -77.02127066666667, "is_disabled": 0, "fusion_lat": 0.0, "fusion_lon": 0.0, "name": "c1271bcf149d2aeb873601e4787c098d", "type": "electric_scooter"}, {"rental_uris": {"ios": "https://dc.lft.to/lastmile_qr_scan", "android": "https://dc.lft.to/lastmile_qr_scan"}, "lat": 38.91251483333333, "is_reserved": 0, "bike_id": "e8c6e6a1b24cfc17a1a763a4d0b5c4d9", "lon": -77.04441183333333, "is_disabled": 0, "fusion_lat": 0.0, "fusion_lon": 0.0, "name": "e8c6e6a1b24cfc17a1a763a4d0b5c4d9", "type": "electric_scooter"}, {"rental_uris": {"ios": "https://dc.lft.to/lastmile_qr_scan", "android": "https://dc.lft.to/lastmile_qr_scan"}, "lat": 38.9182185, "is_reserved": 0, "bike_id": "0bf4d20626d1d791fd04c0042ec63ddf", "lon": -77.0035485, "is_disabled": 0, "fusion_lat": 0.0, "fusion_lon": 0.0, "name": "0bf4d20626d1d791fd04c0042ec63ddf", "type": "electric_scooter"}, {"rental_uris": {"ios": "https://dc.lft.to/lastmile_qr_scan", "android": "https://dc.lft.to/lastmile_qr_scan"}, "lat": 38.9204655, "is_reserved": 0, "bike_id": "1bd2d68370af3c47422c8740f501b80d", "lon": -77.02573183333334, "is_disabled": 0, "fusion_lat": 0.0, "fusion_lon": 0.0, "name": "1bd2d68370af3c47422c8740f501b80d", "type": "electric_scooter"}, {"rental_uris": {"ios": "https://dc.lft.to/lastmile_qr_scan", "android": "https://dc.lft.to/lastmile_qr_scan"}, "lat": 38.904090833333335, "is_reserved": 0, "bike_id": "1f8015a5796114a644c26a50623d6e74", "lon": -77.04356716666666, "is_disabled": 0, "fusion_lat": 0.0, "fusion_lon": 0.0, "name": "1f8015a5796114a644c26a50623d6e74", "type": "electric_scooter"}, {"rental_uris": {"ios": "https://dc.lft.to/lastmile_qr_scan", "android": "https://dc.lft.to/lastmile_qr_scan"}, "lat": 38.86031333333333, "is_reserved": 0, "bike_id": "a1d97d71a849a2af9176748ffe509462", "lon": -76.98375133333333, "is_disabled": 0, "fusion_lat": 0.0, "fusion_lon": 0.0, "name": "a1d97d71a849a2af9176748ffe509462", "type": "electric_scooter"}, {"rental_uris": {"ios": "https://dc.lft.to/lastmile_qr_scan", "android": "https://dc.lft.to/lastmile_qr_scan"}, "lat": 38.90265133333333, "is_reserved": 0, "bike_id": "c7e87ed3e361af93ebdc250271418e73", "lon": -77.03979466666667, "is_disabled": 0, "fusion_lat": 0.0, "fusion_lon": 0.0, "name": "c7e87ed3e361af93ebdc250271418e73", "type": "electric_scooter"}, {"rental_uris": {"ios": "https://dc.lft.to/lastmile_qr_scan", "android": "https://dc.lft.to/lastmile_qr_scan"}, "lat": 38.897270666666664, "is_reserved": 0, "bike_id": "522fb35ac68d83e2d67f2aa7b89312b5", "lon": -76.94703683333333, "is_disabled": 0, "fusion_lat": 0.0, "fusion_lon": 0.0, "name": "522fb35ac68d83e2d67f2aa7b89312b5", "type": "electric_scooter"}, {"rental_uris": {"ios": "https://dc.lft.to/lastmile_qr_scan", "android": "https://dc.lft.to/lastmile_qr_scan"}, "lat": 38.90455516666667, "is_reserved": 0, "bike_id": "bde3883dca3be36e18b4af1f1daaafd5", "lon": -76.9949245, "is_disabled": 0, "fusion_lat": 0.0, "fusion_lon": 0.0, "name": "bde3883dca3be36e18b4af1f1daaafd5", "type": "electric_scooter"}, {"rental_uris": {"ios": "https://dc.lft.to/lastmile_qr_scan", "android": "https://dc.lft.to/lastmile_qr_scan"}, "lat": 38.9285995, "is_reserved": 0, "bike_id": "0d531752f02dc7ba81cce916d4ada56e", "lon": -77.03500916666667, "is_disabled": 0, "fusion_lat": 0.0, "fusion_lon": 0.0, "name": "0d531752f02dc7ba81cce916d4ada56e", "type": "electric_scooter"}, {"rental_uris": {"ios": "https://dc.lft.to/lastmile_qr_scan", "android": "https://dc.lft.to/lastmile_qr_scan"}, "lat": 38.88405483333333, "is_reserved": 0, "bike_id": "2ba5f1265ee03719fab18adf57c62082", "lon": -76.9605655, "is_disabled": 0, "fusion_lat": 0.0, "fusion_lon": 0.0, "name": "2ba5f1265ee03719fab18adf57c62082", "type": "electric_bike"}, {"rental_uris": {"ios": "https://dc.lft.to/lastmile_qr_scan", "android": "https://dc.lft.to/lastmile_qr_scan"}, "lat": 38.9034505, "is_reserved": 0, "bike_id": "d399e9a4a872634bc5ad7944f0ad80c8", "lon": -77.02807683333333, "is_disabled": 0, "fusion_lat": 0.0, "fusion_lon": 0.0, "name": "d399e9a4a872634bc5ad7944f0ad80c8", "type": "electric_scooter"}, {"rental_uris": {"ios": "https://dc.lft.to/lastmile_qr_scan", "android": "https://dc.lft.to/lastmile_qr_scan"}, "lat": 38.90265483333334, "is_reserved": 0, "bike_id": "ed6b3148fb4a167f39572a2885d05205", "lon": -77.03842566666667, "is_disabled": 0, "fusion_lat": 0.0, "fusion_lon": 0.0, "name": "ed6b3148fb4a167f39572a2885d05205", "type": "electric_scooter"}, {"rental_uris": {"ios": "https://dc.lft.to/lastmile_qr_scan", "android": "https://dc.lft.to/lastmile_qr_scan"}, "lat": 38.898342666666665, "is_reserved": 0, "bike_id": "d9b2bb1b425129f36f77cbad363ebc6e", "lon": -77.0499245, "is_disabled": 0, "fusion_lat": 0.0, "fusion_lon": 0.0, "name": "d9b2bb1b425129f36f77cbad363ebc6e", "type": "electric_scooter"}, {"rental_uris": {"ios": "https://dc.lft.to/lastmile_qr_scan", "android": "https://dc.lft.to/lastmile_qr_scan"}, "lat": 38.895738333333334, "is_reserved": 0, "bike_id": "27c2ab5ea83ff40234c4a1aec9654d5a", "lon": -77.02985116666666, "is_disabled": 0, "fusion_lat": 0.0, "fusion_lon": 0.0, "name": "27c2ab5ea83ff40234c4a1aec9654d5a", "type": "electric_scooter"}, {"rental_uris": {"ios": "https://dc.lft.to/lastmile_qr_scan", "android": "https://dc.lft.to/lastmile_qr_scan"}, "lat": 38.89560616666667, "is_reserved": 0, "bike_id": "8297621f028e6383c795fc4f2520473a", "lon": -77.02179016666666, "is_disabled": 0, "fusion_lat": 0.0, "fusion_lon": 0.0, "name": "8297621f028e6383c795fc4f2520473a", "type": "electric_scooter"}, {"rental_uris": {"ios": "https://dc.lft.to/lastmile_qr_scan", "android": "https://dc.lft.to/lastmile_qr_scan"}, "lat": 38.91191116666667, "is_reserved": 0, "bike_id": "cf93582d8dcf09c61450e06e27194723", "lon": -77.03238083333333, "is_disabled": 0, "fusion_lat": 0.0, "fusion_lon": 0.0, "name": "cf93582d8dcf09c61450e06e27194723", "type": "electric_scooter"}, {"rental_uris": {"ios": "https://dc.lft.to/lastmile_qr_scan", "android": "https://dc.lft.to/lastmile_qr_scan"}, "lat": 38.863885, "is_reserved": 0, "bike_id": "0d7f7b8c2b4c843a132092696c8a41ec", "lon": -76.99039683333334, "is_disabled": 0, "fusion_lat": 0.0, "fusion_lon": 0.0, "name": "0d7f7b8c2b4c843a132092696c8a41ec", "type": "electric_scooter"}, {"rental_uris": {"ios": "https://dc.lft.to/lastmile_qr_scan", "android": "https://dc.lft.to/lastmile_qr_scan"}, "lat": 38.921184833333335, "is_reserved": 0, "bike_id": "13bac6da8f074854425221aba9f35151", "lon": -77.01210316666666, "is_disabled": 0, "fusion_lat": 0.0, "fusion_lon": 0.0, "name": "13bac6da8f074854425221aba9f35151", "type": "electric_bike"}, {"rental_uris": {"ios": "https://dc.lft.to/lastmile_qr_scan", "android": "https://dc.lft.to/lastmile_qr_scan"}, "lat": 38.8873445, "is_reserved": 0, "bike_id": "36f1379d944fce7add304fd755a9b517", "lon": -77.02585016666667, "is_disabled": 0, "fusion_lat": 0.0, "fusion_lon": 0.0, "name": "36f1379d944fce7add304fd755a9b517", "type": "electric_scooter"}, {"rental_uris": {"ios": "https://dc.lft.to/lastmile_qr_scan", "android": "https://dc.lft.to/lastmile_qr_scan"}, "lat": 38.894863666666666, "is_reserved": 0, "bike_id": "4b96aaab9af7e06591b15443fcee3972", "lon": -77.002277, "is_disabled": 0, "fusion_lat": 0.0, "fusion_lon": 0.0, "name": "4b96aaab9af7e06591b15443fcee3972", "type": "electric_scooter"}, {"rental_uris": {"ios": "https://dc.lft.to/lastmile_qr_scan", "android": "https://dc.lft.to/lastmile_qr_scan"}, "lat": 38.8984755, "is_reserved": 0, "bike_id": "8f54e2a84990b18f741a05eee85c6800", "lon": -77.00738633333333, "is_disabled": 0, "fusion_lat": 0.0, "fusion_lon": 0.0, "name": "8f54e2a84990b18f741a05eee85c6800", "type": "electric_scooter"}, {"rental_uris": {"ios": "https://dc.lft.to/lastmile_qr_scan", "android": "https://dc.lft.to/lastmile_qr_scan"}, "lat": 38.864735833333334, "is_reserved": 0, "bike_id": "398fbce0a4c01b4c577ef0334c1967d9", "lon": -76.98231666666666, "is_disabled": 0, "fusion_lat": 0.0, "fusion_lon": 0.0, "name": "398fbce0a4c01b4c577ef0334c1967d9", "type": "electric_scooter"}, {"rental_uris": {"ios": "https://dc.lft.to/lastmile_qr_scan", "android": "https://dc.lft.to/lastmile_qr_scan"}, "lat": 38.90075066666667, "is_reserved": 0, "bike_id": "10d6a43bb996ff3d2ee1a231c2d54c97", "lon": -76.980347, "is_disabled": 0, "fusion_lat": 0.0, "fusion_lon": 0.0, "name": "10d6a43bb996ff3d2ee1a231c2d54c97", "type": "electric_scooter"}, {"rental_uris": {"ios": "https://dc.lft.to/lastmile_qr_scan", "android": "https://dc.lft.to/lastmile_qr_scan"}, "lat": 38.88608716666667, "is_reserved": 0, "bike_id": "be8116fdcbee28ad73e1438c0ab4506e", "lon": -77.0451415, "is_disabled": 0, "fusion_lat": 0.0, "fusion_lon": 0.0, "name": "be8116fdcbee28ad73e1438c0ab4506e", "type": "electric_scooter"}, {"rental_uris": {"ios": "https://dc.lft.to/lastmile_qr_scan", "android": "https://dc.lft.to/lastmile_qr_scan"}, "lat": 38.901783, "is_reserved": 0, "bike_id": "82d76e0b0a43c0b7fb2d6e8e7674dbdd", "lon": -76.94148266666667, "is_disabled": 0, "fusion_lat": 0.0, "fusion_lon": 0.0, "name": "82d76e0b0a43c0b7fb2d6e8e7674dbdd", "type": "electric_scooter"}, {"rental_uris": {"ios": "https://dc.lft.to/lastmile_qr_scan", "android": "https://dc.lft.to/lastmile_qr_scan"}, "lat": 38.90131683333333, "is_reserved": 0, "bike_id": "49ff1845a8d718c9e5708e0bc629a133", "lon": -77.0363575, "is_disabled": 0, "fusion_lat": 0.0, "fusion_lon": 0.0, "name": "49ff1845a8d718c9e5708e0bc629a133", "type": "electric_scooter"}, {"rental_uris": {"ios": "https://dc.lft.to/lastmile_qr_scan", "android": "https://dc.lft.to/lastmile_qr_scan"}, "lat": 38.920466, "is_reserved": 0, "bike_id": "094b3e9894736f77748a8682c9fc9ac4", "lon": -77.025737, "is_disabled": 0, "fusion_lat": 0.0, "fusion_lon": 0.0, "name": "094b3e9894736f77748a8682c9fc9ac4", "type": "electric_scooter"}, {"rental_uris": {"ios": "https://dc.lft.to/lastmile_qr_scan", "android": "https://dc.lft.to/lastmile_qr_scan"}, "lat": 38.86155683333333, "is_reserved": 0, "bike_id": "99144a2ea1d0b0c011f18ea4bef2e958", "lon": -76.99737766666667, "is_disabled": 0, "fusion_lat": 0.0, "fusion_lon": 0.0, "name": "99144a2ea1d0b0c011f18ea4bef2e958", "type": "electric_scooter"}, {"rental_uris": {"ios": "https://dc.lft.to/lastmile_qr_scan", "android": "https://dc.lft.to/lastmile_qr_scan"}, "lat": 38.8907865, "is_reserved": 0, "bike_id": "2f362fe9d0a03063b6df3a922a81c96b", "lon": -76.98825183333334, "is_disabled": 0, "fusion_lat": 0.0, "fusion_lon": 0.0, "name": "2f362fe9d0a03063b6df3a922a81c96b", "type": "electric_scooter"}, {"rental_uris": {"ios": "https://dc.lft.to/lastmile_qr_scan", "android": "https://dc.lft.to/lastmile_qr_scan"}, "lat": 38.909689666666665, "is_reserved": 0, "bike_id": "c4a1fe21597cadbfd2883698e3c16052", "lon": -77.02180616666666, "is_disabled": 0, "fusion_lat": 0.0, "fusion_lon": 0.0, "name": "c4a1fe21597cadbfd2883698e3c16052", "type": "electric_scooter"}, {"rental_uris": {"ios": "https://dc.lft.to/lastmile_qr_scan", "android": "https://dc.lft.to/lastmile_qr_scan"}, "lat": 38.935105666666665, "is_reserved": 0, "bike_id": "52d60969b94270fdeda3806336f56cdb", "lon": -77.07421533333333, "is_disabled": 0, "fusion_lat": 0.0, "fusion_lon": 0.0, "name": "52d60969b94270fdeda3806336f56cdb", "type": "electric_scooter"}, {"rental_uris": {"ios": "https://dc.lft.to/lastmile_qr_scan", "android": "https://dc.lft.to/lastmile_qr_scan"}, "lat": 38.893628666666665, "is_reserved": 0, "bike_id": "8d73c8e3ce2fceb604a89f453823151c", "lon": -76.98681733333333, "is_disabled": 0, "fusion_lat": 0.0, "fusion_lon": 0.0, "name": "8d73c8e3ce2fceb604a89f453823151c", "type": "electric_scooter"}, {"rental_uris": {"ios": "https://dc.lft.to/lastmile_qr_scan", "android": "https://dc.lft.to/lastmile_qr_scan"}, "lat": 38.900303, "is_reserved": 0, "bike_id": "e42ad75ab0db30821b170ea21eb2bca6", "lon": -76.9986075, "is_disabled": 0, "fusion_lat": 0.0, "fusion_lon": 0.0, "name": "e42ad75ab0db30821b170ea21eb2bca6", "type": "electric_scooter"}, {"rental_uris": {"ios": "https://dc.lft.to/lastmile_qr_scan", "android": "https://dc.lft.to/lastmile_qr_scan"}, "lat": 38.89470716666666, "is_reserved": 0, "bike_id": "4e91f2e46e44dbe4f2466e4adf152a60", "lon": -76.99503133333333, "is_disabled": 0, "fusion_lat": 0.0, "fusion_lon": 0.0, "name": "4e91f2e46e44dbe4f2466e4adf152a60", "type": "electric_scooter"}, {"rental_uris": {"ios": "https://dc.lft.to/lastmile_qr_scan", "android": "https://dc.lft.to/lastmile_qr_scan"}, "lat": 38.91235283333333, "is_reserved": 0, "bike_id": "4012399394b3166a8ad6d70fc327f0ee", "lon": -77.017428, "is_disabled": 0, "fusion_lat": 0.0, "fusion_lon": 0.0, "name": "4012399394b3166a8ad6d70fc327f0ee", "type": "electric_scooter"}, {"rental_uris": {"ios": "https://dc.lft.to/lastmile_qr_scan", "android": "https://dc.lft.to/lastmile_qr_scan"}, "lat": 38.89897933333334, "is_reserved": 0, "bike_id": "1c8c7dedc7298992814ab29d80458694", "lon": -77.00225383333333, "is_disabled": 0, "fusion_lat": 0.0, "fusion_lon": 0.0, "name": "1c8c7dedc7298992814ab29d80458694", "type": "electric_scooter"}, {"rental_uris": {"ios": "https://dc.lft.to/lastmile_qr_scan", "android": "https://dc.lft.to/lastmile_qr_scan"}, "lat": 38.89568233333333, "is_reserved": 0, "bike_id": "b6042498d11e4c4d9afa806543388363", "lon": -77.02306366666667, "is_disabled": 0, "fusion_lat": 0.0, "fusion_lon": 0.0, "name": "b6042498d11e4c4d9afa806543388363", "type": "electric_scooter"}, {"rental_uris": {"ios": "https://dc.lft.to/lastmile_qr_scan", "android": "https://dc.lft.to/lastmile_qr_scan"}, "lat": 38.92216583333333, "is_reserved": 0, "bike_id": "0c094c6a2e65a4df742c16bd17049920", "lon": -77.03895566666667, "is_disabled": 0, "fusion_lat": 0.0, "fusion_lon": 0.0, "name": "0c094c6a2e65a4df742c16bd17049920", "type": "electric_scooter"}, {"rental_uris": {"ios": "https://dc.lft.to/lastmile_qr_scan", "android": "https://dc.lft.to/lastmile_qr_scan"},