{"data": {"bikes": [{"rental_uris": {"ios": "https://dc.lft.to/lastmile_qr_scan", "android": "https://dc.lft.to/lastmile_qr_scan"}, "type": "electric_scooter", "name": "131390862cb5b334e87f5d80f0f67f64", "is_reserved": 0, "lon": -77.03127833333333, "is_disabled": 0, "fusion_lat": 0.0, "lat": 38.915563, "bike_id": "131390862cb5b334e87f5d80f0f67f64", "fusion_lon": 0.0}, {"rental_uris": {"ios": "https://dc.lft.to/lastmile_qr_scan", "android": "https://dc.lft.to/lastmile_qr_scan"}, "type": "electric_scooter", "name": "0436b01735e086eada3c9ac3b4281335", "is_reserved": 0, "lon": -76.98929266666667, "is_disabled": 0, "fusion_lat": 0.0, "lat": 38.878649833333334, "bike_id": "0436b01735e086eada3c9ac3b4281335", "fusion_lon": 0.0}, {"rental_uris": {"ios": "https://dc.lft.to/lastmile_qr_scan", "android": "https://dc.lft.to/lastmile_qr_scan"}, "type": "electric_scooter", "name": "0b86c7e3497fdf540840e74c5fea06f2", "is_reserved": 0, "lon": -77.07449583333333, "is_disabled": 0, "fusion_lat": 0.0, "lat": 38.937849666666665, "bike_id": "0b86c7e3497fdf540840e74c5fea06f2", "fusion_lon": 0.0}, {"rental_uris": {"ios": "https://dc.lft.to/lastmile_qr_scan", "android": "https://dc.lft.to/lastmile_qr_scan"}, "type": "electric_scooter", "name": "0e09029d9f9e8e36079addea0a3b8111", "is_reserved": 0, "lon": -77.00556666666667, "is_disabled": 0, "fusion_lat": 0.0, "lat": 38.8747045, "bike_id": "0e09029d9f9e8e36079addea0a3b8111", "fusion_lon": 0.0}, {"rental_uris": {"ios": "https://dc.lft.to/lastmile_qr_scan", "android": "https://dc.lft.to/lastmile_qr_scan"}, "type": "electric_scooter", "name": "835c061682011d1e508d7f713606a3fe", "is_reserved": 0, "lon": -76.9953725, "is_disabled": 0, "fusion_lat": 0.0, "lat": 38.877489833333335, "bike_id": "835c061682011d1e508d7f713606a3fe", "fusion_lon": 0.0}, {"rental_uris": {"ios": "https://dc.lft.to/lastmile_qr_scan", "android": "https://dc.lft.to/lastmile_qr_scan"}, "type": "electric_scooter", "name": "6ccb16e809cfa1c536f38bfe2180caa0", "is_reserved": 0, "lon": -77.04131433333333, "is_disabled": 0, "fusion_lat": 0.0, "lat": 38.932816833333334, "bike_id": "6ccb16e809cfa1c536f38bfe2180caa0", "fusion_lon": 0.0}, {"rental_uris": {"ios": "https://dc.lft.to/lastmile_qr_scan", "android": "https://dc.lft.to/lastmile_qr_scan"}, "type": "electric_scooter", "name": "5d55257cc245c70d04536a2d11ebf3d1", "is_reserved": 0, "lon": -76.981057, "is_disabled": 0, "fusion_lat": 0.0, "lat": 38.902410333333336, "bike_id": "5d55257cc245c70d04536a2d11ebf3d1", "fusion_lon": 0.0}, {"rental_uris": {"ios": "https://dc.lft.to/lastmile_qr_scan", "android": "https://dc.lft.to/lastmile_qr_scan"}, "type": "electric_scooter", "name": "fcfc3d96ffd6861b1691095361c94079", "is_reserved": 0, "lon": -77.05921116666667, "is_disabled": 0, "fusion_lat": 0.0, "lat": 38.90145166666667, "bike_id": "fcfc3d96ffd6861b1691095361c94079", "fusion_lon": 0.0}, {"rental_uris": {"ios": "https://dc.lft.to/lastmile_qr_scan", "android": "https://dc.lft.to/lastmile_qr_scan"}, "type": "electric_scooter", "name": "137f5e804760abeb76b4f09d412a75d2", "is_reserved": 0, "lon": -77.03166, "is_disabled": 0, "fusion_lat": 0.0, "lat": 38.91414116666667, "bike_id": "137f5e804760abeb76b4f09d412a75d2", "fusion_lon": 0.0}, {"rental_uris": {"ios": "https://dc.lft.to/lastmile_qr_scan", "android": "https://dc.lft.to/lastmile_qr_scan"}, "type": "electric_scooter", "name": "c4857a097ff0c00cd0e2dbc3b4f75153", "is_reserved": 0, "lon": -77.03850366666667, "is_disabled": 0, "fusion_lat": 0.0, "lat": 38.911058, "bike_id": "c4857a097ff0c00cd0e2dbc3b4f75153", "fusion_lon": 0.0}, {"rental_uris": {"ios": "https://dc.lft.to/lastmile_qr_scan", "android": "https://dc.lft.to/lastmile_qr_scan"}, "type": "electric_bike", "name": "8f1ee4c3ced484bfaa02b929237e9d66", "is_reserved": 0, "lon": -77.05040066666666, "is_disabled": 0, "fusion_lat": 0.0, "lat": 39.039015, "bike_id": "8f1ee4c3ced484bfaa02b929237e9d66", "fusion_lon": 0.0}, {"rental_uris": {"ios": "https://dc.lft.to/lastmile_qr_scan", "android": "https://dc.lft.to/lastmile_qr_scan"}, "type": "electric_scooter", "name": "fb59b1b91835607279c943c92a4a3cda", "is_reserved": 0, "lon": -77.044316, "is_disabled": 0, "fusion_lat": 0.0, "lat": 38.9086535, "bike_id": "fb59b1b91835607279c943c92a4a3cda", "fusion_lon": 0.0}, {"rental_uris": {"ios": "https://dc.lft.to/lastmile_qr_scan", "android": "https://dc.lft.to/lastmile_qr_scan"}, "type": "electric_bike", "name": "0f471ea926d1e93b5dbc66b32e924823", "is_reserved": 0, "lon": -77.11351583333334, "is_disabled": 0, "fusion_lat": 0.0, "lat": 38.84196583333333, "bike_id": "0f471ea926d1e93b5dbc66b32e924823", "fusion_lon": 0.0}, {"rental_uris": {"ios": "https://dc.lft.to/lastmile_qr_scan", "android": "https://dc.lft.to/lastmile_qr_scan"}, "type": "electric_scooter", "name": "f6681eec857a8e3934fa6ae2b1941aca", "is_reserved": 0, "lon": -77.02179416666667, "is_disabled": 0, "fusion_lat": 0.0, "lat": 38.90669533333333, "bike_id": "f6681eec857a8e3934fa6ae2b1941aca", "fusion_lon": 0.0}, {"rental_uris": {"ios": "https://dc.lft.to/lastmile_qr_scan", "android": "https://dc.lft.to/lastmile_qr_scan"}, "type": "electric_scooter", "name": "09a43e839293411b4cb73d47f6ec6164", "is_reserved": 0, "lon": -76.99910833333334, "is_disabled": 0, "fusion_lat": 0.0, "lat": 38.921830166666666, "bike_id": "09a43e839293411b4cb73d47f6ec6164", "fusion_lon": 0.0}, {"rental_uris": {"ios": "https://dc.lft.to/lastmile_qr_scan", "android": "https://dc.lft.to/lastmile_qr_scan"}, "type": "electric_scooter", "name": "066ad05bf89bf8d11610b6f8819b7539", "is_reserved": 0, "lon": -77.03849216666667, "is_disabled": 0, "fusion_lat": 0.0, "lat": 38.91159416666667, "bike_id": "066ad05bf89bf8d11610b6f8819b7539", "fusion_lon": 0.0}, {"rental_uris": {"ios": "https://dc.lft.to/lastmile_qr_scan", "android": "https://dc.lft.to/lastmile_qr_scan"}, "type": "electric_scooter", "name": "69e9d0b9afdff91e98d2eaaeaa2f24a9", "is_reserved": 0, "lon": -77.0178435, "is_disabled": 0, "fusion_lat": 0.0, "lat": 38.90062733333333, "bike_id": "69e9d0b9afdff91e98d2eaaeaa2f24a9", "fusion_lon": 0.0}, {"rental_uris": {"ios": "https://dc.lft.to/lastmile_qr_scan", "android": "https://dc.lft.to/lastmile_qr_scan"}, "type": "electric_scooter", "name": "2b7653b5bbd2c9562dd88bfe009fb9cf", "is_reserved": 0, "lon": -77.02075383333333, "is_disabled": 0, "fusion_lat": 0.0, "lat": 38.908713666666664, "bike_id": "2b7653b5bbd2c9562dd88bfe009fb9cf", "fusion_lon": 0.0}, {"rental_uris": {"ios": "https://dc.lft.to/lastmile_qr_scan", "android": "https://dc.lft.to/lastmile_qr_scan"}, "type": "electric_scooter", "name": "ad487635154f0bbd4bde2d2d11ed8f24", "is_reserved": 0, "lon": -76.9934925, "is_disabled": 0, "fusion_lat": 0.0, "lat": 38.876932833333335, "bike_id": "ad487635154f0bbd4bde2d2d11ed8f24", "fusion_lon": 0.0}, {"rental_uris": {"ios": "https://dc.lft.to/lastmile_qr_scan", "android": "https://dc.lft.to/lastmile_qr_scan"}, "type": "electric_scooter", "name": "ae11326156c292e0645d76efd260f1f6", "is_reserved": 0, "lon": -77.0327095, "is_disabled": 0, "fusion_lat": 0.0, "lat": 38.9125965, "bike_id": "ae11326156c292e0645d76efd260f1f6", "fusion_lon": 0.0}, {"rental_uris": {"ios": "https://dc.lft.to/lastmile_qr_scan", "android": "https://dc.lft.to/lastmile_qr_scan"}, "type": "electric_scooter", "name": "164425b66e5fb38849ad4fbdb3414c90", "is_reserved": 0, "lon": -77.024839, "is_disabled": 0, "fusion_lat": 0.0, "lat": 38.92388733333333, "bike_id": "164425b66e5fb38849ad4fbdb3414c90", "fusion_lon": 0.0}, {"rental_uris": {"ios": "https://dc.lft.to/lastmile_qr_scan", "android": "https://dc.lft.to/lastmile_qr_scan"}, "type": "electric_bike", "name": "f5add4aa8fb25a8096179bcf5a0a4c28", "is_reserved": 0, "lon": -77.076177, "is_disabled": 0, "fusion_lat": 0.0, "lat": 38.906102, "bike_id": "f5add4aa8fb25a8096179bcf5a0a4c28", "fusion_lon": 0.0}, {"rental_uris": {"ios": "https://dc.lft.to/lastmile_qr_scan", "android": "https://dc.lft.to/lastmile_qr_scan"}, "type": "electric_scooter", "name": "eaa4b1e476f4952ea61353360d45b0ab", "is_reserved": 0, "lon": -77.03475683333333, "is_disabled": 0, "fusion_lat": 0.0, "lat": 38.93538683333333, "bike_id": "eaa4b1e476f4952ea61353360d45b0ab", "fusion_lon": 0.0}, {"rental_uris": {"ios": "https://dc.lft.to/lastmile_qr_scan", "android": "https://dc.lft.to/lastmile_qr_scan"}, "type": "electric_scooter", "name": "85d7dbb834362b61e436a8e65bece98c", "is_reserved": 0, "lon": -77.012984, "is_disabled": 0, "fusion_lat": 0.0, "lat": 38.901901, "bike_id": "85d7dbb834362b61e436a8e65bece98c", "fusion_lon": 0.0}, {"rental_uris": {"ios": "https://dc.lft.to/lastmile_qr_scan", "android": "https://dc.lft.to/lastmile_qr_scan"}, "type": "electric_bike", "name": "e9d9d719fb3f95d103582dda8ec42836", "is_reserved": 0, "lon": -76.98689216666666, "is_disabled": 0, "fusion_lat": 0.0, "lat": 38.94467616666667, "bike_id": "e9d9d719fb3f95d103582dda8ec42836", "fusion_lon": 0.0}, {"rental_uris": {"ios": "https://dc.lft.to/lastmile_qr_scan", "android": "https://dc.lft.to/lastmile_qr_scan"}, "type": "electric_scooter", "name": "ac64deaae74c60e46c6ee5eef218bf4a", "is_reserved": 0, "lon": -77.03205133333333, "is_disabled": 0, "fusion_lat": 0.0, "lat": 38.9120165, "bike_id": "ac64deaae74c60e46c6ee5eef218bf4a", "fusion_lon": 0.0}, {"rental_uris": {"ios": "https://dc.lft.to/lastmile_qr_scan", "android": "https://dc.lft.to/lastmile_qr_scan"}, "type": "electric_scooter", "name": "7b2fcf6a125153ac54ecd57668aca365", "is_reserved": 0, "lon": -77.04402283333333, "is_disabled": 0, "fusion_lat": 0.0, "lat": 38.92945616666667, "bike_id": "7b2fcf6a125153ac54ecd57668aca365", "fusion_lon": 0.0}, {"rental_uris": {"ios": "https://dc.lft.to/lastmile_qr_scan", "android": "https://dc.lft.to/lastmile_qr_scan"}, "type": "electric_scooter", "name": "e1fd1e9fe5837fb6853f708a747ed55b", "is_reserved": 0, "lon": -77.049257, "is_disabled": 0, "fusion_lat": 0.0, "lat": 38.89976566666667, "bike_id": "e1fd1e9fe5837fb6853f708a747ed55b", "fusion_lon": 0.0}, {"rental_uris": {"ios": "https://dc.lft.to/lastmile_qr_scan", "android": "https://dc.lft.to/lastmile_qr_scan"}, "type": "electric_scooter", "name": "e36bdc918954dbe2f9b47e82b1dfa5bc", "is_reserved": 0, "lon": -77.04256066666666, "is_disabled": 0, "fusion_lat": 0.0, "lat": 38.9045945, "bike_id": "e36bdc918954dbe2f9b47e82b1dfa5bc", "fusion_lon": 0.0}, {"rental_uris": {"ios": "https://dc.lft.to/lastmile_qr_scan", "android": "https://dc.lft.to/lastmile_qr_scan"}, "type": "electric_bike", "name": "65a50c3e17ea2179fd475bc14be00fb4", "is_reserved": 0, "lon": -77.02804133333333, "is_disabled": 0, "fusion_lat": 0.0, "lat": 38.9046725, "bike_id": "65a50c3e17ea2179fd475bc14be00fb4", "fusion_lon": 0.0}, {"rental_uris": {"ios": "https://dc.lft.to/lastmile_qr_scan", "android": "https://dc.lft.to/lastmile_qr_scan"}, "type": "electric_scooter", "name": "80e9c87f5a49599b03779461dbba8119", "is_reserved": 0, "lon": -76.9518615, "is_disabled": 0, "fusion_lat": 0.0, "lat": 38.9051455, "bike_id": "80e9c87f5a49599b03779461dbba8119", "fusion_lon": 0.0}, {"rental_uris": {"ios": "https://dc.lft.to/lastmile_qr_scan", "android": "https://dc.lft.to/lastmile_qr_scan"}, "type": "electric_scooter", "name": "22787810e63793a756adf32f18b13753", "is_reserved": 0, "lon": -77.005076, "is_disabled": 0, "fusion_lat": 0.0, "lat": 38.960458, "bike_id": "22787810e63793a756adf32f18b13753", "fusion_lon": 0.0}, {"rental_uris": {"ios": "https://dc.lft.to/lastmile_qr_scan", "android": "https://dc.lft.to/lastmile_qr_scan"}, "type": "electric_scooter", "name": "59f28ed9f6a4aa6811ec59825a82f88c", "is_reserved": 0, "lon": -77.032142, "is_disabled": 0, "fusion_lat": 0.0, "lat": 38.91636716666667, "bike_id": "59f28ed9f6a4aa6811ec59825a82f88c", "fusion_lon": 0.0}, {"rental_uris": {"ios": "https://dc.lft.to/lastmile_qr_scan", "android": "https://dc.lft.to/lastmile_qr_scan"}, "type": "electric_scooter", "name": "09fe7d65a39ea8709c8f856d9a3a0a5a", "is_reserved": 0, "lon": -77.0135485, "is_disabled": 0, "fusion_lat": 0.0, "lat": 38.89599033333333, "bike_id": "09fe7d65a39ea8709c8f856d9a3a0a5a", "fusion_lon": 0.0}, {"rental_uris": {"ios": "https://dc.lft.to/lastmile_qr_scan", "android": "https://dc.lft.to/lastmile_qr_scan"}, "type": "electric_scooter", "name": "2d378c1add479a06cc4f877656a1e140", "is_reserved": 0, "lon": -77.03235983333333, "is_disabled": 0, "fusion_lat": 0.0, "lat": 38.90558766666667, "bike_id": "2d378c1add479a06cc4f877656a1e140", "fusion_lon": 0.0}, {"rental_uris": {"ios": "https://dc.lft.to/lastmile_qr_scan", "android": "https://dc.lft.to/lastmile_qr_scan"}, "type": "electric_scooter", "name": "b62208200cb07f94fcab0950679a6c8a", "is_reserved": 0, "lon": -77.01943166666666, "is_disabled": 0, "fusion_lat": 0.0, "lat": 38.947011833333335, "bike_id": "b62208200cb07f94fcab0950679a6c8a", "fusion_lon": 0.0}, {"rental_uris": {"ios": "https://dc.lft.to/lastmile_qr_scan", "android": "https://dc.lft.to/lastmile_qr_scan"}, "type": "electric_scooter", "name": "ba56f37fe49138636342c328795b8b1c", "is_reserved": 0, "lon": -77.03261283333333, "is_disabled": 0, "fusion_lat": 0.0, "lat": 38.909578833333335, "bike_id": "ba56f37fe49138636342c328795b8b1c", "fusion_lon": 0.0}, {"rental_uris": {"ios": "https://dc.lft.to/lastmile_qr_scan", "android": "https://dc.lft.to/lastmile_qr_scan"}, "type": "electric_scooter", "name": "35549789032d84e2538c26f5eb8b39d2", "is_reserved": 0, "lon": -77.032201, "is_disabled": 0, "fusion_lat": 0.0, "lat": 38.91433466666667, "bike_id": "35549789032d84e2538c26f5eb8b39d2", "fusion_lon": 0.0}, {"rental_uris": {"ios": "https://dc.lft.to/lastmile_qr_scan", "android": "https://dc.lft.to/lastmile_qr_scan"}, "type": "electric_scooter", "name": "0eaf25b1d02191a5cba387aacef8fa65", "is_reserved": 0, "lon": -77.0081355, "is_disabled": 0, "fusion_lat": 0.0, "lat": 38.917083, "bike_id": "0eaf25b1d02191a5cba387aacef8fa65", "fusion_lon": 0.0}, {"rental_uris": {"ios": "https://dc.lft.to/lastmile_qr_scan", "android": "https://dc.lft.to/lastmile_qr_scan"}, "type": "electric_scooter", "name": "15704941eec6e9bc059c69f32db426e4", "is_reserved": 0, "lon": -77.0445505, "is_disabled": 0, "fusion_lat": 0.0, "lat": 38.90144383333333, "bike_id": "15704941eec6e9bc059c69f32db426e4", "fusion_lon": 0.0}, {"rental_uris": {"ios": "https://dc.lft.to/lastmile_qr_scan", "android": "https://dc.lft.to/lastmile_qr_scan"}, "type": "electric_scooter", "name": "387222320fd4848b3c34ebb729416537", "is_reserved": 0, "lon": -76.9996785, "is_disabled": 0, "fusion_lat": 0.0, "lat": 38.9085895, "bike_id": "387222320fd4848b3c34ebb729416537", "fusion_lon": 0.0}, {"rental_uris": {"ios": "https://dc.lft.to/lastmile_qr_scan", "android": "https://dc.lft.to/lastmile_qr_scan"}, "type": "electric_bike", "name": "af69e0c65cbddefc1adf48ccaa20e9ea", "is_reserved": 0, "lon": -76.973121, "is_disabled": 0, "fusion_lat": 0.0, "lat": 38.9176045, "bike_id": "af69e0c65cbddefc1adf48ccaa20e9ea", "fusion_lon": 0.0}, {"rental_uris": {"ios": "https://dc.lft.to/lastmile_qr_scan", "android": "https://dc.lft.to/lastmile_qr_scan"}, "type": "electric_scooter", "name": "efb0b1819e61f8946e210b7da4b0a9ff", "is_reserved": 0, "lon": -77.00044016666666, "is_disabled": 0, "fusion_lat": 0.0, "lat": 38.87469133333333, "bike_id": "efb0b1819e61f8946e210b7da4b0a9ff", "fusion_lon": 0.0}, {"rental_uris": {"ios": "https://dc.lft.to/lastmile_qr_scan", "android": "https://dc.lft.to/lastmile_qr_scan"}, "type": "electric_scooter", "name": "d499c5e12c623e09b4d0cbeca13e3540", "is_reserved": 0, "lon": -77.02152883333333, "is_disabled": 0, "fusion_lat": 0.0, "lat": 38.8954315, "bike_id": "d499c5e12c623e09b4d0cbeca13e3540", "fusion_lon": 0.0}, {"rental_uris": {"ios": "https://dc.lft.to/lastmile_qr_scan", "android": "https://dc.lft.to/lastmile_qr_scan"}, "type": "electric_scooter", "name": "356b93d606496ef50e59ce9d717937d5", "is_reserved": 0, "lon": -77.03441766666667, "is_disabled": 0, "fusion_lat": 0.0, "lat": 38.91803066666667, "bike_id": "356b93d606496ef50e59ce9d717937d5", "fusion_lon": 0.0}, {"rental_uris": {"ios": "https://dc.lft.to/lastmile_qr_scan", "android": "https://dc.lft.to/lastmile_qr_scan"}, "type": "electric_bike", "name": "e267e7768f8af09ecd21cbe847fa5f58", "is_reserved": 0, "lon": -76.96087183333333, "is_disabled": 0, "fusion_lat": 0.0, "lat": 38.91853783333333, "bike_id": "e267e7768f8af09ecd21cbe847fa5f58", "fusion_lon": 0.0}, {"rental_uris": {"ios": "https://dc.lft.to/lastmile_qr_scan", "android": "https://dc.lft.to/lastmile_qr_scan"}, "type": "electric_scooter", "name": "66d1ec394a16a7fe0673b59058c74576", "is_reserved": 0, "lon": -77.04136983333333, "is_disabled": 0, "fusion_lat": 0.0, "lat": 38.93475816666667, "bike_id": "66d1ec394a16a7fe0673b59058c74576", "fusion_lon": 0.0}, {"rental_uris": {"ios": "https://dc.lft.to/lastmile_qr_scan", "android": "https://dc.lft.to/lastmile_qr_scan"}, "type": "electric_scooter", "name": "08d928fa79bdb4d7f1fc36f1ad91693f", "is_reserved": 0, "lon": -77.02286483333333, "is_disabled": 0, "fusion_lat": 0.0, "lat": 38.907934, "bike_id": "08d928fa79bdb4d7f1fc36f1ad91693f", "fusion_lon": 0.0}, {"rental_uris": {"ios": "https://dc.lft.to/lastmile_qr_scan", "android": "https://dc.lft.to/lastmile_qr_scan"}, "type": "electric_bike", "name": "2810a1778b62663b86269fcbb2e659b2", "is_reserved": 0, "lon": -77.0221795, "is_disabled": 0, "fusion_lat": 0.0, "lat": 38.902272833333335, "bike_id": "2810a1778b62663b86269fcbb2e659b2", "fusion_lon": 0.0}, {"rental_uris": {"ios": "https://dc.lft.to/lastmile_qr_scan", "android": "https://dc.lft.to/lastmile_qr_scan"}, "type": "electric_scooter", "name": "2d88b729f714e6b18a03876817927338", "is_reserved": 0, "lon": -77.0131675, "is_disabled": 0, "fusion_lat": 0.0, "lat": 38.95656816666666, "bike_id": "2d88b729f714e6b18a03876817927338", "fusion_lon": 0.0}, {"rental_uris": {"ios": "https://dc.lft.to/lastmile_qr_scan", "android": "https://dc.lft.to/lastmile_qr_scan"}, "type": "electric_scooter", "name": "4f35cd3fb1aa8294031dd267ddba7032", "is_reserved": 0, "lon": -77.04158766666667, "is_disabled": 0, "fusion_lat": 0.0, "lat": 38.90660366666667, "bike_id": "4f35cd3fb1aa8294031dd267ddba7032", "fusion_lon": 0.0}, {"rental_uris": {"ios": "https://dc.lft.to/lastmile_qr_scan", "android": "https://dc.lft.to/lastmile_qr_scan"}, "type": "electric_bike", "name": "e390eebfe0bd4ebafc7dced4e048b32d", "is_reserved": 0, "lon": -76.991186, "is_disabled": 0, "fusion_lat": 0.0, "lat": 38.88243533333333, "bike_id": "e390eebfe0bd4ebafc7dced4e048b32d", "fusion_lon": 0.0}, {"rental_uris": {"ios": "https://dc.lft.to/lastmile_qr_scan", "android": "https://dc.lft.to/lastmile_qr_scan"}, "type": "electric_scooter", "name": "8b73f6a6731d88cf628ca205a8a70585", "is_reserved": 0, "lon": -77.0343585, "is_disabled": 0, "fusion_lat": 0.0, "lat": 38.9180845, "bike_id": "8b73f6a6731d88cf628ca205a8a70585", "fusion_lon": 0.0}, {"rental_uris": {"ios": "https://dc.lft.to/lastmile_qr_scan", "android": "https://dc.lft.to/lastmile_qr_scan"}, "type": "electric_scooter", "name": "b39d10371b0a8c0f645f4c4f22887030", "is_reserved": 0, "lon": -77.02301783333333, "is_disabled": 0, "fusion_lat": 0.0, "lat": 38.96127583333333, "bike_id": "b39d10371b0a8c0f645f4c4f22887030", "fusion_lon": 0.0}, {"rental_uris": {"ios": "https://dc.lft.to/lastmile_qr_scan", "android": "https://dc.lft.to/lastmile_qr_scan"}, "type": "electric_scooter", "name": "3ad4cf8e9c07b4adb54f4e935e38ffed", "is_reserved": 0, "lon": -77.02694983333333, "is_disabled": 0, "fusion_lat": 0.0, "lat": 38.900425, "bike_id": "3ad4cf8e9c07b4adb54f4e935e38ffed", "fusion_lon": 0.0}, {"rental_uris": {"ios": "https://dc.lft.to/lastmile_qr_scan", "android": "https://dc.lft.to/lastmile_qr_scan"}, "type": "electric_scooter", "name": "94ee5a034f6c90a0f436d0507bf5b63c", "is_reserved": 0, "lon": -77.00597066666667, "is_disabled": 0, "fusion_lat": 0.0, "lat": 38.875683333333335, "bike_id": "94ee5a034f6c90a0f436d0507bf5b63c", "fusion_lon": 0.0}, {"rental_uris": {"ios": "https://dc.lft.to/lastmile_qr_scan", "android": "https://dc.lft.to/lastmile_qr_scan"}, "type": "electric_scooter", "name": "c86f5c2444399fed7e4c17cd3f5b4b93", "is_reserved": 0, "lon": -77.0337245, "is_disabled": 0, "fusion_lat": 0.0, "lat": 38.91019883333333, "bike_id": "c86f5c2444399fed7e4c17cd3f5b4b93", "fusion_lon": 0.0}, {"rental_uris": {"ios": "https://dc.lft.to/lastmile_qr_scan", "android": "https://dc.lft.to/lastmile_qr_scan"}, "type": "electric_scooter", "name": "256157c7dcf706d238b2a1b33da99dc5", "is_reserved": 0, "lon": -77.01981233333333, "is_disabled": 0, "fusion_lat": 0.0, "lat": 38.89829533333333, "bike_id": "256157c7dcf706d238b2a1b33da99dc5", "fusion_lon": 0.0}, {"rental_uris": {"ios": "https://dc.lft.to/lastmile_qr_scan", "android": "https://dc.lft.to/lastmile_qr_scan"}, "type": "electric_scooter", "name": "9291074141f8efdb69288efdb2e2da44", "is_reserved": 0, "lon": -77.03290866666667, "is_disabled": 0, "fusion_lat": 0.0, "lat": 38.924610666666666, "bike_id": "9291074141f8efdb69288efdb2e2da44", "fusion_lon": 0.0}, {"rental_uris": {"ios": "https://dc.lft.to/lastmile_qr_scan", "android": "https://dc.lft.to/lastmile_qr_scan"}, "type": "electric_scooter", "name": "5907190b6b8b552d2343db7531015241", "is_reserved": 0, "lon": -77.03359316666666, "is_disabled": 0, "fusion_lat": 0.0, "lat": 38.930582, "bike_id": "5907190b6b8b552d2343db7531015241", "fusion_lon": 0.0}, {"rental_uris": {"ios": "https://dc.lft.to/lastmile_qr_scan", "android": "https://dc.lft.to/lastmile_qr_scan"}, "type": "electric_scooter", "name": "e17c2af0331b1cfea2a5d3465fd67915", "is_reserved": 0, "lon": -77.03055066666667, "is_disabled": 0, "fusion_lat": 0.0, "lat": 38.90962866666667, "bike_id": "e17c2af0331b1cfea2a5d3465fd67915", "fusion_lon": 0.0}, {"rental_uris": {"ios": "https://dc.lft.to/lastmile_qr_scan", "android": "https://dc.lft.to/lastmile_qr_scan"}, "type": "electric_scooter", "name": "062351206f0e3d4da92e3432d692ec7b", "is_reserved": 0, "lon": -77.02130883333334, "is_disabled": 0, "fusion_lat": 0.0, "lat": 38.91315083333333, "bike_id": "062351206f0e3d4da92e3432d692ec7b", "fusion_lon": 0.0}, {"rental_uris": {"ios": "https://dc.lft.to/lastmile_qr_scan", "android": "https://dc.lft.to/lastmile_qr_scan"}, "type": "electric_scooter", "name": "e29d597691e095d4e5e63fcf675d99dc", "is_reserved": 0, "lon": -77.055936, "is_disabled": 0, "fusion_lat": 0.0, "lat": 38.894256, "bike_id": "e29d597691e095d4e5e63fcf675d99dc", "fusion_lon": 0.0}, {"rental_uris": {"ios": "https://dc.lft.to/lastmile_qr_scan", "android": "https://dc.lft.to/lastmile_qr_scan"}, "type": "electric_scooter", "name": "8dee0426d381daab39451a320964da60", "is_reserved": 0, "lon": -77.032016, "is_disabled": 0, "fusion_lat": 0.0, "lat": 38.91178933333333, "bike_id": "8dee0426d381daab39451a320964da60", "fusion_lon": 0.0}, {"rental_uris": {"ios": "https://dc.lft.to/lastmile_qr_scan", "android": "https://dc.lft.to/lastmile_qr_scan"}, "type": "electric_scooter", "name": "097599dafc8d32320df5e86fc9b9e6aa", "is_reserved": 0, "lon": -77.01355783333334, "is_disabled": 0, "fusion_lat": 0.0, "lat": 38.9194065, "bike_id": "097599dafc8d32320df5e86fc9b9e6aa", "fusion_lon": 0.0}, {"rental_uris": {"ios": "https://dc.lft.to/lastmile_qr_scan", "android": "https://dc.lft.to/lastmile_qr_scan"}, "type": "electric_scooter", "name": "e36efddd98a15e929a696fa06b474e9a", "is_reserved": 0, "lon": -77.04825316666667, "is_disabled": 0, "fusion_lat": 0.0, "lat": 38.91266366666667, "bike_id": "e36efddd98a15e929a696fa06b474e9a", "fusion_lon": 0.0}, {"rental_uris": {"ios": "https://dc.lft.to/lastmile_qr_scan", "android": "https://dc.lft.to/lastmile_qr_scan"}, "type": "electric_scooter", "name": "abdc915de13a67f549436515b2890dde", "is_reserved": 0, "lon": -77.0039825, "is_disabled": 0, "fusion_lat": 0.0, "lat": 38.90761216666667, "bike_id": "abdc915de13a67f549436515b2890dde", "fusion_lon": 0.0}, {"rental_uris": {"ios": "https://dc.lft.to/lastmile_qr_scan", "android": "https://dc.lft.to/lastmile_qr_scan"}, "type": "electric_scooter", "name": "d3d92fa8abaedd89fbe522ec1d66933d", "is_reserved": 0, "lon": -76.99161983333333, "is_disabled": 0, "fusion_lat": 0.0, "lat": 38.90038233333333, "bike_id": "d3d92fa8abaedd89fbe522ec1d66933d", "fusion_lon": 0.0}, {"rental_uris": {"ios": "https://dc.lft.to/lastmile_qr_scan", "android": "https://dc.lft.to/lastmile_qr_scan"}, "type": "electric_scooter", "name": "043719e43439b1e976b62ac95d3e005f", "is_reserved": 0, "lon": -77.03711416666667, "is_disabled": 0, "fusion_lat": 0.0, "lat": 38.92833866666667, "bike_id": "043719e43439b1e976b62ac95d3e005f", "fusion_lon": 0.0}, {"rental_uris": {"ios": "https://dc.lft.to/lastmile_qr_scan", "android": "https://dc.lft.to/lastmile_qr_scan"}, "type": "electric_scooter", "name": "d8e93c9adeb6bb33bb7770b244847c1a", "is_reserved": 0, "lon": -77.01020333333334, "is_disabled": 0, "fusion_lat": 0.0, "lat": 38.91412016666666, "bike_id": "d8e93c9adeb6bb33bb7770b244847c1a", "fusion_lon": 0.0}, {"rental_uris": {"ios": "https://dc.lft.to/lastmile_qr_scan", "android": "https://dc.lft.to/lastmile_qr_scan"}, "type": "electric_scooter", "name": "a2319831767449f6b6bfdc90f9d8524c", "is_reserved": 0, "lon": -77.026923, "is_disabled": 0, "fusion_lat": 0.0, "lat": 38.91149983333333, "bike_id": "a2319831767449f6b6bfdc90f9d8524c", "fusion_lon": 0.0}, {"rental_uris": {"ios": "https://dc.lft.to/lastmile_qr_scan", "android": "https://dc.lft.to/lastmile_qr_scan"}, "type": "electric_scooter", "name": "b0818b0e70ac423433f3ba38f99fbcc2", "is_reserved": 0, "lon": -77.02510666666667, "is_disabled": 0, "fusion_lat": 0.0, "lat": 38.91915316666667, "bike_id": "b0818b0e70ac423433f3ba38f99fbcc2", "fusion_lon": 0.0}, {"rental_uris": {"ios": "https://dc.lft.to/lastmile_qr_scan", "android": "https://dc.lft.to/lastmile_qr_scan"}, "type": "electric_scooter", "name": "9b653f06b02230950379b97ffecff3a4", "is_reserved": 0, "lon": -76.999657, "is_disabled": 0, "fusion_lat": 0.0, "lat": 38.886572, "bike_id": "9b653f06b02230950379b97ffecff3a4", "fusion_lon": 0.0}, {"rental_uris": {"ios": "https://dc.lft.to/lastmile_qr_scan", "android": "https://dc.lft.to/lastmile_qr_scan"}, "type": "electric_scooter", "name": "165b0e19f596f995f344df10d11518b6", "is_reserved": 0, "lon": -77.02674866666666, "is_disabled": 0, "fusion_lat": 0.0, "lat": 38.984344, "bike_id": "165b0e19f596f995f344df10d11518b6", "fusion_lon": 0.0}, {"rental_uris": {"ios": "https://dc.lft.to/lastmile_qr_scan", "android": "https://dc.lft.to/lastmile_qr_scan"}, "type": "electric_scooter", "name": "da2a80fee372df5f1781e029145fcb05", "is_reserved": 0, "lon": -77.03797316666666, "is_disabled": 0, "fusion_lat": 0.0, "lat": 38.93102, "bike_id": "da2a80fee372df5f1781e029145fcb05", "fusion_lon": 0.0}, {"rental_uris": {"ios": "https://dc.lft.to/lastmile_qr_scan", "android": "https://dc.lft.to/lastmile_qr_scan"}, "type": "electric_scooter", "name": "6c6dd15533167ad1ec67196466915dbb", "is_reserved": 0, "lon": -77.07907033333333, "is_disabled": 0, "fusion_lat": 0.0, "lat": 38.947798666666664, "bike_id": "6c6dd15533167ad1ec67196466915dbb", "fusion_lon": 0.0}, {"rental_uris": {"ios": "https://dc.lft.to/lastmile_qr_scan", "android": "https://dc.lft.to/lastmile_qr_scan"}, "type": "electric_scooter", "name": "dcba9b32c3be6c3a75e9580944c55867", "is_reserved": 0, "lon": -76.93732083333333, "is_disabled": 0, "fusion_lat": 0.0, "lat": 38.8888255, "bike_id": "dcba9b32c3be6c3a75e9580944c55867", "fusion_lon": 0.0}, {"rental_uris": {"ios": "https://dc.lft.to/lastmile_qr_scan", "android": "https://dc.lft.to/lastmile_qr_scan"}, "type": "electric_scooter", "name": "44a8d73b620e09ee7a24ee1dd4266fca", "is_reserved": 0, "lon": -77.04674866666667, "is_disabled": 0, "fusion_lat": 0.0, "lat": 38.90262383333334, "bike_id": "44a8d73b620e09ee7a24ee1dd4266fca", "fusion_lon": 0.0}, {"rental_uris": {"ios": "https://dc.lft.to/lastmile_qr_scan", "android": "https://dc.lft.to/lastmile_qr_scan"}, "type": "electric_bike", "name": "71552ca93b54576eb64bcbb66a63b794", "is_reserved": 0, "lon": -77.1273455, "is_disabled": 0, "fusion_lat": 0.0, "lat": 38.89559883333333, "bike_id": "71552ca93b54576eb64bcbb66a63b794", "fusion_lon": 0.0}, {"rental_uris": {"ios": "https://dc.lft.to/lastmile_qr_scan", "android": "https://dc.lft.to/lastmile_qr_scan"}, "type": "electric_bike", "name": "13e944310729c17b52672ea5db3afdec", "is_reserved": 0, "lon": -77.07902716666666, "is_disabled": 0, "fusion_lat": 0.0, "lat": 38.839339833333334, "bike_id": "13e944310729c17b52672ea5db3afdec", "fusion_lon": 0.0}, {"rental_uris": {"ios": "https://dc.lft.to/lastmile_qr_scan", "android": "https://dc.lft.to/lastmile_qr_scan"}, "type": "electric_scooter", "name": "2b9747b744eb04f882a311b1019ab608", "is_reserved": 0, "lon": -77.035919, "is_disabled": 0, "fusion_lat": 0.0, "lat": 38.902388333333334, "bike_id": "2b9747b744eb04f882a311b1019ab608", "fusion_lon": 0.0}, {"rental_uris": {"ios": "https://dc.lft.to/lastmile_qr_scan", "android": "https://dc.lft.to/lastmile_qr_scan"}, "type": "electric_scooter", "name": "9371d12e0147c77db3139f66f9a29c7c", "is_reserved": 0, "lon": -77.03807116666667, "is_disabled": 0, "fusion_lat": 0.0, "lat": 38.9104165, "bike_id": "9371d12e0147c77db3139f66f9a29c7c", "fusion_lon": 0.0}, {"rental_uris": {"ios": "https://dc.lft.to/lastmile_qr_scan", "android": "https://dc.lft.to/lastmile_qr_scan"}, "type": "electric_scooter", "name": "f2a93e6eded33b72cdf3d35881e38e49", "is_reserved": 0, "lon": -77.0370875, "is_disabled": 0, "fusion_lat": 0.0, "lat": 38.926560333333335, "bike_id": "f2a93e6eded33b72cdf3d35881e38e49", "fusion_lon": 0.0}, {"rental_uris": {"ios": "https://dc.lft.to/lastmile_qr_scan", "android": "https://dc.lft.to/lastmile_qr_scan"}, "type": "electric_scooter", "name": "c0937c5164ea48e7ea4b9fbafbd298ed", "is_reserved": 0, "lon": -77.03439533333334, "is_disabled": 0, "fusion_lat": 0.0, "lat": 38.90425616666667, "bike_id": "c0937c5164ea48e7ea4b9fbafbd298ed", "fusion_lon": 0.0}, {"rental_uris": {"ios": "https://dc.lft.to/lastmile_qr_scan", "android": "https://dc.lft.to/lastmile_qr_scan"}, "type": "electric_scooter", "name": "ce6418f740ef51b23fa0c653671ad06b", "is_reserved": 0, "lon": -77.01356733333333, "is_disabled": 0, "fusion_lat": 0.0, "lat": 38.8948675, "bike_id": "ce6418f740ef51b23fa0c653671ad06b", "fusion_lon": 0.0}, {"rental_uris": {"ios": "https://dc.lft.to/lastmile_qr_scan", "android": "https://dc.lft.to/lastmile_qr_scan"}, "type": "electric_scooter", "name": "b708f8a402fae774df8b9af864ea1451", "is_reserved": 0, "lon": -77.038656, "is_disabled": 0, "fusion_lat": 0.0, "lat": 38.911165, "bike_id": "b708f8a402fae774df8b9af864ea1451", "fusion_lon": 0.0}, {"rental_uris": {"ios": "https://dc.lft.to/lastmile_qr_scan", "android": "https://dc.lft.to/lastmile_qr_scan"}, "type": "electric_scooter", "name": "5f779c543c87605002ab8e52cfd8c8a5", "is_reserved": 0, "lon": -77.04661916666667, "is_disabled": 0, "fusion_lat": 0.0, "lat": 38.9075905, "bike_id": "5f779c543c87605002ab8e52cfd8c8a5", "fusion_lon": 0.0}, {"rental_uris": {"ios": "https://dc.lft.to/lastmile_qr_scan", "android": "https://dc.lft.to/lastmile_qr_scan"}, "type": "electric_scooter", "name": "576e239efcb6bf085d6c3ccc378a0e57", "is_reserved": 0, "lon": -76.92828433333334, "is_disabled": 0, "fusion_lat": 0.0, "lat": 38.9017965, "bike_id": "576e239efcb6bf085d6c3ccc378a0e57", "fusion_lon": 0.0}, {"rental_uris": {"ios": "https://dc.lft.to/lastmile_qr_scan", "android": "https://dc.lft.to/lastmile_qr_scan"}, "type": "electric_scooter", "name": "639dfcbefbc84882991dc75b55ec52ba", "is_reserved": 0, "lon": -77.04506266666667, "is_disabled": 0, "fusion_lat": 0.0, "lat": 38.9157835, "bike_id": "639dfcbefbc84882991dc75b55ec52ba", "fusion_lon": 0.0}, {"rental_uris": {"ios": "https://dc.lft.to/lastmile_qr_scan", "android": "https://dc.lft.to/lastmile_qr_scan"}, "type": "electric_scooter", "name": "7fe678cae746b0b83d6514e8337783c8", "is_reserved": 0, "lon": -77.06372416666666, "is_disabled": 0, "fusion_lat": 0.0, "lat": 38.935604833333336, "bike_id": "7fe678cae746b0b83d6514e8337783c8", "fusion_lon": 0.0}, {"rental_uris": {"ios": "https://dc.lft.to/lastmile_qr_scan", "android": "https://dc.lft.to/lastmile_qr_scan"}, "type": "electric_scooter", "name": "6d239f7ad55bc9e3df121b643d71afe7", "is_reserved": 0, "lon": -77.043645, "is_disabled": 0, "fusion_lat": 0.0, "lat": 38.907755333333334, "bike_id": "6d239f7ad55bc9e3df121b643d71afe7", "fusion_lon": 0.0}, {"rental_uris": {"ios": "https://dc.lft.to/lastmile_qr_scan", "android": "https://dc.lft.to/lastmile_qr_scan"}, "type": "electric_scooter", "name": "22b45bc9412983db9492a805f2f5821b", "is_reserved": 0, "lon": -76.94703183333333, "is_disabled": 0, "fusion_lat": 0.0, "lat": 38.893012666666664, "bike_id": "22b45bc9412983db9492a805f2f5821b", "fusion_lon": 0.0}, {"rental_uris": {"ios": "https://dc.lft.to/lastmile_qr_scan", "android": "https://dc.lft.to/lastmile_qr_scan"}, "type": "electric_bike", "name": "cc3135eaaa74194b552093387e53079a", "is_reserved": 0, "lon": -76.95247116666667, "is_disabled": 0, "fusion_lat": 0.0, "lat": 38.9069585, "bike_id": "cc3135eaaa74194b552093387e53079a", "fusion_lon": 0.0}, {"rental_uris": {"ios": "https://dc.lft.to/lastmile_qr_scan", "android": "https://dc.lft.to/lastmile_qr_scan"}, "type": "electric_scooter", "name": "837958a93e73b784109dc18aca6d37d0", "is_reserved": 0, "lon": -77.038326, "is_disabled": 0, "fusion_lat": 0.0, "lat": 38.911879166666665, "bike_id": "837958a93e73b784109dc18aca6d37d0", "fusion_lon": 0.0}, {"rental_uris": {"ios": "https://dc.lft.to/lastmile_qr_scan", "android": "https://dc.lft.to/lastmile_qr_scan"}, "type": "electric_bike", "name": "8af23e3bfbbc26a3ce96aede6cfc88d6", "is_reserved": 0, "lon": -77.12648, "is_disabled": 0, "fusion_lat": 0.0, "lat": 38.81906633333333, "bike_id": "8af23e3bfbbc26a3ce96aede6cfc88d6", "fusion_lon": 0.0}, {"rental_uris": {"ios": "https://dc.lft.to/lastmile_qr_scan", "android": "https://dc.lft.to/lastmile_qr_scan"}, "type": "electric_scooter", "name": "3dd4cf055af86441fc0fac19d20093df", "is_reserved": 0, "lon": -77.04943733333333, "is_disabled": 0, "fusion_lat": 0.0, "lat": 38.90534133333333, "bike_id": "3dd4cf055af86441fc0fac19d20093df", "fusion_lon": 0.0}, {"rental_uris": {"ios": "https://dc.lft.to/lastmile_qr_scan", "android": "https://dc.lft.to/lastmile_qr_scan"}, "type": "electric_scooter", "name": "0438401ba1c35c6bd2c81a8e9eef1f72", "is_reserved": 0, "lon": -77.038029, "is_disabled": 0, "fusion_lat": 0.0, "lat": 38.93225183333333, "bike_id": "0438401ba1c35c6bd2c81a8e9eef1f72", "fusion_lon": 0.0}, {"rental_uris": {"ios": "https://dc.lft.to/lastmile_qr_scan", "android": "https://dc.lft.to/lastmile_qr_scan"}, "type": "electric_scooter", "name": "45dfa0117ae3f0e3c4f906a21db93b03", "is_reserved": 0, "lon": -77.06404066666667, "is_disabled": 0, "fusion_lat": 0.0, "lat": 38.908583666666665, "bike_id": "45dfa0117ae3f0e3c4f906a21db93b03", "fusion_lon": 0.0}, {"rental_uris": {"ios": "https://dc.lft.to/lastmile_qr_scan", "android": "https://dc.lft.to/lastmile_qr_scan"}, "type": "electric_scooter", "name": "d767bb1dfebb948c26e6f1d78c14334f", "is_reserved": 0, "lon": -77.03482616666666, "is_disabled": 0, "fusion_lat": 0.0, "lat": 38.906818333333334, "bike_id": "d767bb1dfebb948c26e6f1d78c14334f", "fusion_lon": 0.0}, {"rental_uris": {"ios": "https://dc.lft.to/lastmile_qr_scan", "android": "https://dc.lft.to/lastmile_qr_scan"}, "type": "electric_scooter", "name": "f4dfb54f7215e1106021747a2b6727e0", "is_reserved": 0, "lon": -77.01839183333334, "is_disabled": 0, "fusion_lat": 0.0, "lat": 38.915262, "bike_id": "f4dfb54f7215e1106021747a2b6727e0", "fusion_lon": 0.0}, {"rental_uris": {"ios": "https://dc.lft.to/lastmile_qr_scan", "android": "https://dc.lft.to/lastmile_qr_scan"}, "type": "electric_scooter", "name": "e5acf04d9ddea28a7378bd9a7862fba2", "is_reserved": 0, "lon": -77.0092475, "is_disabled": 0, "fusion_lat": 0.0, "lat": 38.896104333333334, "bike_id": "e5acf04d9ddea28a7378bd9a7862fba2", "fusion_lon": 0.0}, {"rental_uris": {"ios": "https://dc.lft.to/lastmile_qr_scan", "android": "https://dc.lft.to/lastmile_qr_scan"}, "type": "electric_scooter", "name": "b3a489fa2bb9b733c13716db27f90ec9", "is_reserved": 0, "lon": -77.02940333333333, "is_disabled": 0, "fusion_lat": 0.0, "lat": 38.9155215, "bike_id": "b3a489fa2bb9b733c13716db27f90ec9", "fusion_lon": 0.0}, {"rental_uris": {"ios": "https://dc.lft.to/lastmile_qr_scan", "android": "https://dc.lft.to/lastmile_qr_scan"}, "type": "electric_scooter", "name": "3cac0da7e71294b0dea4ea82e438a25e", "is_reserved": 0, "lon": -77.0286845, "is_disabled": 0, "fusion_lat": 0.0, "lat": 38.903688833333334, "bike_id": "3cac0da7e71294b0dea4ea82e438a25e", "fusion_lon": 0.0}, {"rental_uris": {"ios": "https://dc.lft.to/lastmile_qr_scan", "android": "https://dc.lft.to/lastmile_qr_scan"}, "type": "electric_scooter", "name": "569959354e73732ef9384f0ae0b33e9f", "is_reserved": 0, "lon": -77.02315366666667, "is_disabled": 0, "fusion_lat": 0.0, "lat": 38.91777883333334, "bike_id": "569959354e73732ef9384f0ae0b33e9f", "fusion_lon": 0.0}, {"rental_uris": {"ios": "https://dc.lft.to/lastmile_qr_scan", "android": "https://dc.lft.to/lastmile_qr_scan"}, "type": "electric_scooter", "name": "2ae67801db1752ee1555ddddc5874bd0", "is_reserved": 0, "lon": -77.04400983333333, "is_disabled": 0, "fusion_lat": 0.0, "lat": 38.90902716666667, "bike_id": "2ae67801db1752ee1555ddddc5874bd0", "fusion_lon": 0.0}, {"rental_uris": {"ios": "https://dc.lft.to/lastmile_qr_scan", "android": "https://dc.lft.to/lastmile_qr_scan"}, "type": "electric_scooter", "name": "d3ca1a17f56f0231f6ba8735681bfa6f", "is_reserved": 0, "lon": -77.01453816666667, "is_disabled": 0, "fusion_lat": 0.0, "lat": 38.926582833333335, "bike_id": "d3ca1a17f56f0231f6ba8735681bfa6f", "fusion_lon": 0.0}, {"rental_uris": {"ios": "https://dc.lft.to/lastmile_qr_scan", "android": "https://dc.lft.to/lastmile_qr_scan"}, "type": "electric_scooter", "name": "bd6420b0ff7f1bbd4f12fdc958f40c8d", "is_reserved": 0, "lon": -77.050227, "is_disabled": 0, "fusion_lat": 0.0, "lat": 38.92359366666667, "bike_id": "bd6420b0ff7f1bbd4f12fdc958f40c8d", "fusion_lon": 0.0}, {"rental_uris": {"ios": "https://dc.lft.to/lastmile_qr_scan", "android": "https://dc.lft.to/lastmile_qr_scan"}, "type": "electric_scooter", "name": "43d0fd30fadc0db02769eb2e0183d624", "is_reserved": 0, "lon": -77.0004105, "is_disabled": 0, "fusion_lat": 0.0, "lat": 38.874814666666666, "bike_id": "43d0fd30fadc0db02769eb2e0183d624", "fusion_lon": 0.0}, {"rental_uris": {"ios": "https://dc.lft.to/lastmile_qr_scan", "android": "https://dc.lft.to/lastmile_qr_scan"}, "type": "electric_scooter", "name": "d853b8828d816128f7fe75d259ed62d7", "is_reserved": 0, "lon": -77.05870233333333, "is_disabled": 0, "fusion_lat": 0.0, "lat": 38.90452, "bike_id": "d853b8828d816128f7fe75d259ed62d7", "fusion_lon": 0.0}, {"rental_uris": {"ios": "https://dc.lft.to/lastmile_qr_scan", "android": "https://dc.lft.to/lastmile_qr_scan"}, "type": "electric_scooter", "name": "b4a07db322a5355abd09aba791caab3d", "is_reserved": 0, "lon": -77.01214516666667, "is_disabled": 0, "fusion_lat": 0.0, "lat": 38.917076333333334, "bike_id": "b4a07db322a5355abd09aba791caab3d", "fusion_lon": 0.0}, {"rental_uris": {"ios": "https://dc.lft.to/lastmile_qr_scan", "android": "https://dc.lft.to/lastmile_qr_scan"}, "type": "electric_scooter", "name": "bf8b0634debf5048e0864904ffbb84ba", "is_reserved": 0, "lon": -77.02143133333334, "is_disabled": 0, "fusion_lat": 0.0, "lat": 38.9244345, "bike_id": "bf8b0634debf5048e0864904ffbb84ba", "fusion_lon": 0.0}, {"rental_uris": {"ios": "https://dc.lft.to/lastmile_qr_scan", "android": "https://dc.lft.to/lastmile_qr_scan"}, "type": "electric_scooter", "name": "c7b5a6413a0e891c7323974d123e2093", "is_reserved": 0, "lon": -77.01951383333333, "is_disabled": 0, "fusion_lat": 0.0, "lat": 38.929111166666665, "bike_id": "c7b5a6413a0e891c7323974d123e2093", "fusion_lon": 0.0}, {"rental_uris": {"ios": "https://dc.lft.to/lastmile_qr_scan", "android": "https://dc.lft.to/lastmile_qr_scan"}, "type": "electric_bike", "name": "5e37fe0e159a267d5c363d19afca7c0a", "is_reserved": 0, "lon": -76.99499866666666, "is_disabled": 0, "fusion_lat": 0.0, "lat": 38.88181, "bike_id": "5e37fe0e159a267d5c363d19afca7c0a", "fusion_lon": 0.0}, {"rental_uris": {"ios": "https://dc.lft.to/lastmile_qr_scan", "android": "https://dc.lft.to/lastmile_qr_scan"}, "type": "electric_scooter", "name": "a78f50e9ec0021528bbe7fce602ae5a5", "is_reserved": 0, "lon": -77.01371583333334, "is_disabled": 0, "fusion_lat": 0.0, "lat": 38.8696395, "bike_id": "a78f50e9ec0021528bbe7fce602ae5a5", "fusion_lon": 0.0}, {"rental_uris": {"ios": "https://dc.lft.to/lastmile_qr_scan", "android": "https://dc.lft.to/lastmile_qr_scan"}, "type": "electric_scooter", "name": "ee95b0f759194eb5be66d0a7838f1454", "is_reserved": 0, "lon": -77.02236633333334, "is_disabled": 0, "fusion_lat": 0.0, "lat": 38.91118383333333, "bike_id": "ee95b0f759194eb5be66d0a7838f1454", "fusion_lon": 0.0}, {"rental_uris": {"ios": "https://dc.lft.to/lastmile_qr_scan", "android": "https://dc.lft.to/lastmile_qr_scan"}, "type": "electric_scooter", "name": "414309cc6eeaa5c281347cb5d0dd7192", "is_reserved": 0, "lon": -77.0460175, "is_disabled": 0, "fusion_lat": 0.0, "lat": 38.919128666666666, "bike_id": "414309cc6eeaa5c281347cb5d0dd7192", "fusion_lon": 0.0}, {"rental_uris": {"ios": "https://dc.lft.to/lastmile_qr_scan", "android": "https://dc.lft.to/lastmile_qr_scan"}, "type": "electric_scooter", "name": "009566c039157a76860f25d1aaba8542", "is_reserved": 0, "lon": -77.00582366666667, "is_disabled": 0, "fusion_lat": 0.0, "lat": 38.900330333333336, "bike_id": "009566c039157a76860f25d1aaba8542", "fusion_lon": 0.0}, {"rental_uris": {"ios": "https://dc.lft.to/lastmile_qr_scan", "android": "https://dc.lft.to/lastmile_qr_scan"}, "type": "electric_scooter", "name": "26d04c503a1906a430c2a0b151af8239", "is_reserved": 0, "lon": -77.00439216666666, "is_disabled": 0, "fusion_lat": 0.0, "lat": 38.92093783333333, "bike_id": "26d04c503a1906a430c2a0b151af8239", "fusion_lon": 0.0}, {"rental_uris": {"ios": "https://dc.lft.to/lastmile_qr_scan", "android": "https://dc.lft.to/lastmile_qr_scan"}, "type": "electric_scooter", "name": "535705a3bb229f1ea6790fef70b1e420", "is_reserved": 0, "lon": -77.0628205, "is_disabled": 0, "fusion_lat": 0.0, "lat": 38.912485333333336, "bike_id": "535705a3bb229f1ea6790fef70b1e420", "fusion_lon": 0.0}, {"rental_uris": {"ios": "https://dc.lft.to/lastmile_qr_scan", "android": "https://dc.lft.to/lastmile_qr_scan"}, "type": "electric_scooter", "name": "630b433dfd7c96ab1169475df6b88024", "is_reserved": 0, "lon": -77.05504316666666, "is_disabled": 0, "fusion_lat": 0.0, "lat": 38.92969266666667, "bike_id": "630b433dfd7c96ab1169475df6b88024", "fusion_lon": 0.0}, {"rental_uris": {"ios": "https://dc.lft.to/lastmile_qr_scan", "android": "https://dc.lft.to/lastmile_qr_scan"}, "type": "electric_scooter", "name": "b0e821368f1cba021b4004c7ab2a80a6", "is_reserved": 0, "lon": -77.0257225, "is_disabled": 0, "fusion_lat": 0.0, "lat": 38.93527316666667, "bike_id": "b0e821368f1cba021b4004c7ab2a80a6", "fusion_lon": 0.0}, {"rental_uris": {"ios": "https://dc.lft.to/lastmile_qr_scan", "android": "https://dc.lft.to/lastmile_qr_scan"}, "type": "electric_scooter", "name": "d18ef7f01a545b1b7fdd01c09978093e", "is_reserved": 0, "lon": -77.03180533333334, "is_disabled": 0, "fusion_lat": 0.0, "lat": 38.93045866666667, "bike_id": "d18ef7f01a545b1b7fdd01c09978093e", "fusion_lon": 0.0}, {"rental_uris": {"ios": "https://dc.lft.to/lastmile_qr_scan", "android": "https://dc.lft.to/lastmile_qr_scan"}, "type": "electric_scooter", "name": "ee70bb1154d4a758434dda5f1302f686", "is_reserved": 0, "lon": -77.02155616666667, "is_disabled": 0, "fusion_lat": 0.0, "lat": 38.9260285, "bike_id": "ee70bb1154d4a758434dda5f1302f686", "fusion_lon": 0.0}, {"rental_uris": {"ios": "https://dc.lft.to/lastmile_qr_scan", "android": "https://dc.lft.to/lastmile_qr_scan"}, "type": "electric_scooter", "name": "c61d2a8fa7f35985d9530fa2f5686e73", "is_reserved": 0, "lon": -77.04906583333333, "is_disabled": 0, "fusion_lat": 0.0, "lat": 38.89745216666667, "bike_id": "c61d2a8fa7f35985d9530fa2f5686e73", "fusion_lon": 0.0}, {"rental_uris": {"ios": "https://dc.lft.to/lastmile_qr_scan", "android": "https://dc.lft.to/lastmile_qr_scan"}, "type": "electric_scooter", "name": "27e16639a661550e7d34822d9acdeee4", "is_reserved": 0, "lon": -77.03017933333334, "is_disabled": 0, "fusion_lat": 0.0, "lat": 38.878505833333335, "bike_id": "27e16639a661550e7d34822d9acdeee4", "fusion_lon": 0.0}, {"rental_uris": {"ios": "https://dc.lft.to/lastmile_qr_scan", "android": "https://dc.lft.to/lastmile_qr_scan"}, "type": "electric_scooter", "name": "1d479d5a7e8c4e855e07fa1b6eb5370f", "is_reserved": 0, "lon": -77.00749266666666, "is_disabled": 0, "fusion_lat": 0.0, "lat": 38.8990015, "bike_id": "1d479d5a7e8c4e855e07fa1b6eb5370f", "fusion_lon": 0.0}, {"rental_uris": {"ios": "https://dc.lft.to/lastmile_qr_scan", "android": "https://dc.lft.to/lastmile_qr_scan"}, "type": "electric_scooter", "name": "c0c74bf7688c1be6db32d85767c9051f", "is_reserved": 0, "lon": -77.05794283333333, "is_disabled": 0, "fusion_lat": 0.0, "lat": 38.9348515, "bike_id": "c0c74bf7688c1be6db32d85767c9051f", "fusion_lon": 0.0}, {"rental_uris": {"ios": "https://dc.lft.to/lastmile_qr_scan", "android": "https://dc.lft.to/lastmile_qr_scan"}, "type": "electric_scooter", "name": "430d115b905d4481675f6c4ad8781b9f", "is_reserved": 0, "lon": -77.01367516666667, "is_disabled": 0, "fusion_lat": 0.0, "lat": 38.886757833333334, "bike_id": "430d115b905d4481675f6c4ad8781b9f", "fusion_lon": 0.0}, {"rental_uris": {"ios": "https://dc.lft.to/lastmile_qr_scan", "android": "https://dc.lft.to/lastmile_qr_scan"}, "type": "electric_scooter", "name": "29c6fdd0608bf2267074ba5cfb62d8bb", "is_reserved": 0, "lon": -77.04863566666667, "is_disabled": 0, "fusion_lat": 0.0, "lat": 38.892237, "bike_id": "29c6fdd0608bf2267074ba5cfb62d8bb", "fusion_lon": 0.0}, {"rental_uris": {"ios": "https://dc.lft.to/lastmile_qr_scan", "android": "https://dc.lft.to/lastmile_qr_scan"}, "type": "electric_scooter", "name": "a7a94266efb64138e7fb627c8212aa80", "is_reserved": 0, "lon": -77.0323415, "is_disabled": 0, "fusion_lat": 0.0, "lat": 38.91557816666667, "bike_id": "a7a94266efb64138e7fb627c8212aa80", "fusion_lon": 0.0}, {"rental_uris": {"ios": "https://dc.lft.to/lastmile_qr_scan", "android": "https://dc.lft.to/lastmile_qr_scan"}, "type": "electric_bike", "name": "d01e20c40e2edaea4f114b5e58a578df", "is_reserved": 0, "lon": -76.9949085, "is_disabled": 0, "fusion_lat": 0.0, "lat": 38.86215416666667, "bike_id": "d01e20c40e2edaea4f114b5e58a578df", "fusion_lon": 0.0}, {"rental_uris": {"ios": "https://dc.lft.to/lastmile_qr_scan", "android": "https://dc.lft.to/lastmile_qr_scan"}, "type": "electric_scooter", "name": "fe5fc1efd9fe252c8facccb45ed650cd", "is_reserved": 0, "lon": -77.04567133333333, "is_disabled": 0, "fusion_lat": 0.0, "lat": 38.914108666666664, "bike_id": "fe5fc1efd9fe252c8facccb45ed650cd", "fusion_lon": 0.0}, {"rental_uris": {"ios": "https://dc.lft.to/lastmile_qr_scan", "android": "https://dc.lft.to/lastmile_qr_scan"}, "type": "electric_bike", "name": "d58605f5802abdc80cdad0addc633f05", "is_reserved": 0, "lon": -76.90739966666666, "is_disabled": 0, "fusion_lat": 0.0, "lat": 38.896225666666666, "bike_id": "d58605f5802abdc80cdad0addc633f05", "fusion_lon": 0.0}, {"rental_uris": {"ios": "https://dc.lft.to/lastmile_qr_scan", "android": "https://dc.lft.to/lastmile_qr_scan"}, "type": "electric_scooter", "name": "f2cdde58bddb7a780cfb58d5a4e22ef3", "is_reserved": 0, "lon": -77.01216816666667, "is_disabled": 0, "fusion_lat": 0.0, "lat": 38.916842, "bike_id": "f2cdde58bddb7a780cfb58d5a4e22ef3", "fusion_lon": 0.0}, {"rental_uris": {"ios": "https://dc.lft.to/lastmile_qr_scan", "android": "https://dc.lft.to/lastmile_qr_scan"}, "type": "electric_bike", "name": "931b12566648540d95555da660a982b8", "is_reserved": 0, "lon": -76.99623966666667, "is_disabled": 0, "fusion_lat": 0.0, "lat": 38.894357, "bike_id": "931b12566648540d95555da660a982b8", "fusion_lon": 0.0}, {"rental_uris": {"ios": "https://dc.lft.to/lastmile_qr_scan", "android": "https://dc.lft.to/lastmile_qr_scan"}, "type": "electric_scooter", "name": "547cc31b66aca42f7762f5cc4a94eb33", "is_reserved": 0, "lon": -77.04251533333333, "is_disabled": 0, "fusion_lat": 0.0, "lat": 38.9223725, "bike_id": "547cc31b66aca42f7762f5cc4a94eb33", "fusion_lon": 0.0}, {"rental_uris": {"ios": "https://dc.lft.to/lastmile_qr_scan", "android": "https://dc.lft.to/lastmile_qr_scan"}, "type": "electric_scooter", "name": "917df36fcdf63d6137d44ae71c98a7ea", "is_reserved": 0, "lon": -77.02462933333334, "is_disabled": 0, "fusion_lat": 0.0, "lat": 38.917108999999996, "bike_id": "917df36fcdf63d6137d44ae71c98a7ea", "fusion_lon": 0.0}, {"rental_uris": {"ios": "https://dc.lft.to/lastmile_qr_scan", "android": "https://dc.lft.to/lastmile_qr_scan"}, "type": "electric_scooter", "name": "d63b1379075fb22692ea7d9915cdca93", "is_reserved": 0, "lon": -77.03877066666666, "is_disabled": 0, "fusion_lat": 0.0, "lat": 38.903375, "bike_id": "d63b1379075fb22692ea7d9915cdca93", "fusion_lon": 0.0}, {"rental_uris": {"ios": "https://dc.lft.to/lastmile_qr_scan", "android": "https://dc.lft.to/lastmile_qr_scan"}, "type": "electric_scooter", "name": "65920ebe7897ff3f9c847aaed6d013e7", "is_reserved": 0, "lon": -76.98050666666667, "is_disabled": 0, "fusion_lat": 0.0, "lat": 38.900039666666665, "bike_id": "65920ebe7897ff3f9c847aaed6d013e7", "fusion_lon": 0.0}, {"rental_uris": {"ios": "https://dc.lft.to/lastmile_qr_scan", "android": "https://dc.lft.to/lastmile_qr_scan"}, "type": "electric_scooter", "name": "c96ea37de3ac09f91dcaae650280afce", "is_reserved": 0, "lon": -77.01965833333334, "is_disabled": 0, "fusion_lat": 0.0, "lat": 38.923279, "bike_id": "c96ea37de3ac09f91dcaae650280afce", "fusion_lon": 0.0}, {"rental_uris": {"ios": "https://dc.lft.to/lastmile_qr_scan", "android": "https://dc.lft.to/lastmile_qr_scan"}, "type": "electric_bike", "name": "26d9c18d7b54d96f22f4aa8968ea3851", "is_reserved": 0, "lon": -76.98016033333333, "is_disabled": 0, "fusion_lat": 0.0, "lat": 38.853103, "bike_id": "26d9c18d7b54d96f22f4aa8968ea3851", "fusion_lon": 0.0}, {"rental_uris": {"ios": "https://dc.lft.to/lastmile_qr_scan", "android": "https://dc.lft.to/lastmile_qr_scan"}, "type": "electric_bike", "name": "220ca84b39275e98e744b0cc457065c2", "is_reserved": 0, "lon": -76.98252883333333, "is_disabled": 0, "fusion_lat": 0.0, "lat": 38.95244066666667, "bike_id": "220ca84b39275e98e744b0cc457065c2", "fusion_lon": 0.0}, {"rental_uris": {"ios": "https://dc.lft.to/lastmile_qr_scan", "android": "https://dc.lft.to/lastmile_qr_scan"}, "type": "electric_scooter", "name": "b1bb354552a4d9b3586e8d21736a216f", "is_reserved": 0, "lon": -77.04204233333333, "is_disabled": 0, "fusion_lat": 0.0, "lat": 38.892649166666665, "bike_id": "b1bb354552a4d9b3586e8d21736a216f", "fusion_lon": 0.0}, {"rental_uris": {"ios": "https://dc.lft.to/lastmile_qr_scan", "android": "https://dc.lft.to/lastmile_qr_scan"}, "type": "electric_scooter", "name": "8937c0b13b2c1b82f19ab01aba32908a", "is_reserved": 0, "lon": -77.03130416666667, "is_disabled": 0, "fusion_lat": 0.0, "lat": 38.91701166666667, "bike_id": "8937c0b13b2c1b82f19ab01aba32908a", "fusion_lon": 0.0}, {"rental_uris": {"ios": "https://dc.lft.to/lastmile_qr_scan", "android": "https://dc.lft.to/lastmile_qr_scan"}, "type": "electric_scooter", "name": "b71016c102bc98c1c6d3bbef47935c40", "is_reserved": 0, "lon": -77.0408265, "is_disabled": 0, "fusion_lat": 0.0, "lat": 38.947864833333334, "bike_id": "b71016c102bc98c1c6d3bbef47935c40", "fusion_lon": 0.0}, {"rental_uris": {"ios": "https://dc.lft.to/lastmile_qr_scan", "android": "https://dc.lft.to/lastmile_qr_scan"}, "type": "electric_scooter", "name": "22634364991ec1c6641263d7f9c81c73", "is_reserved": 0, "lon": -77.03164366666667, "is_disabled": 0, "fusion_lat": 0.0, "lat": 38.93680483333333, "bike_id": "22634364991ec1c6641263d7f9c81c73", "fusion_lon": 0.0}, {"rental_uris": {"ios": "https://dc.lft.to/lastmile_qr_scan", "android": "https://dc.lft.to/lastmile_qr_scan"}, "type": "electric_scooter", "name": "ac8fdb8f278e133115f0006260ab8e5c", "is_reserved": 0, "lon": -77.05196083333334, "is_disabled": 0, "fusion_lat": 0.0, "lat": 38.90243733333333, "bike_id": "ac8fdb8f278e133115f0006260ab8e5c", "fusion_lon": 0.0}, {"rental_uris": {"ios": "https://dc.lft.to/lastmile_qr_scan", "android": "https://dc.lft.to/lastmile_qr_scan"}, "type": "electric_scooter", "name": "13d2832f35c0b50c95aa87d6df00bb04", "is_reserved": 0, "lon": -77.04499333333334, "is_disabled": 0, "fusion_lat": 0.0, "lat": 38.89613683333334, "bike_id": "13d2832f35c0b50c95aa87d6df00bb04", "fusion_lon": 0.0}, {"rental_uris": {"ios": "https://dc.lft.to/lastmile_qr_scan", "android": "https://dc.lft.to/lastmile_qr_scan"}, "type": "electric_scooter", "name": "1f23d85e0446673399107de4966f24d2", "is_reserved": 0, "lon": -77.03254716666666, "is_disabled": 0, "fusion_lat": 0.0, "lat": 38.91551583333333, "bike_id": "1f23d85e0446673399107de4966f24d2", "fusion_lon": 0.0}, {"rental_uris": {"ios": "https://dc.lft.to/lastmile_qr_scan", "android": "https://dc.lft.to/lastmile_qr_scan"}, "type": "electric_scooter", "name": "27f4ce1b86af2714359fb5b794081af2", "is_reserved": 0, "lon": -77.015219, "is_disabled": 0, "fusion_lat": 0.0, "lat": 38.913289, "bike_id": "27f4ce1b86af2714359fb5b794081af2", "fusion_lon": 0.0}, {"rental_uris": {"ios": "https://dc.lft.to/lastmile_qr_scan", "android": "https://dc.lft.to/lastmile_qr_scan"}, "type": "electric_scooter", "name": "9f40ed3234cae628173c45d4aa83064a", "is_reserved": 0, "lon": -77.036488, "is_disabled": 0, "fusion_lat": 0.0, "lat": 38.91620616666667, "bike_id": "9f40ed3234cae628173c45d4aa83064a", "fusion_lon": 0.0}, {"rental_uris": {"ios": "https://dc.lft.to/lastmile_qr_scan", "android": "https://dc.lft.to/lastmile_qr_scan"}, "type": "electric_scooter", "name": "8b21b8c2efb16c043282e4ca3b3e0cdb", "is_reserved": 0, "lon": -76.99497783333334, "is_disabled": 0, "fusion_lat": 0.0, "lat": 38.883025, "bike_id": "8b21b8c2efb16c043282e4ca3b3e0cdb", "fusion_lon": 0.0}, {"rental_uris": {"ios": "https://dc.lft.to/lastmile_qr_scan", "android": "https://dc.lft.to/lastmile_qr_scan"}, "type": "electric_scooter", "name": "deb3f58b833995225706dc6f2ad74978", "is_reserved": 0, "lon": -77.03685083333333, "is_disabled": 0, "fusion_lat": 0.0, "lat": 38.91681116666667, "bike_id": "deb3f58b833995225706dc6f2ad74978", "fusion_lon": 0.0}, {"rental_uris": {"ios": "https://dc.lft.to/lastmile_qr_scan", "android": "https://dc.lft.to/lastmile_qr_scan"}, "type": "electric_bike", "name": "ea787bac688ef5f22e3761f9f8493f3b", "is_reserved": 0, "lon": -76.91719933333333, "is_disabled": 0, "fusion_lat": 0.0, "lat": 38.8802905, "bike_id": "ea787bac688ef5f22e3761f9f8493f3b", "fusion_lon": 0.0}, {"rental_uris": {"ios": "https://dc.lft.to/lastmile_qr_scan", "android": "https://dc.lft.to/lastmile_qr_scan"}, "type": "electric_scooter", "name": "123d674b858c7aa8c8308e92f6814e27", "is_reserved": 0, "lon": -77.04204933333334, "is_disabled": 0, "fusion_lat": 0.0, "lat": 38.9205565, "bike_id": "123d674b858c7aa8c8308e92f6814e27", "fusion_lon": 0.0}, {"rental_uris": {"ios": "https://dc.lft.to/lastmile_qr_scan", "android": "https://dc.lft.to/lastmile_qr_scan"}, "type": "electric_scooter", "name": "0a3fe905b2ab793562702f335d06cd46", "is_reserved": 0, "lon": -77.05009083333333, "is_disabled": 0, "fusion_lat": 0.0, "lat": 38.89675116666667, "bike_id": "0a3fe905b2ab793562702f335d06cd46", "fusion_lon": 0.0}, {"rental_uris": {"ios": "https://dc.lft.to/lastmile_qr_scan", "android": "https://dc.lft.to/lastmile_qr_scan"}, "type": "electric_scooter", "name": "ab5cd329ae7a3cca2de04e969d2ea262", "is_reserved": 0, "lon": -77.04132583333333, "is_disabled": 0, "fusion_lat": 0.0, "lat": 38.93365383333333, "bike_id": "ab5cd329ae7a3cca2de04e969d2ea262", "fusion_lon": 0.0}, {"rental_uris": {"ios": "https://dc.lft.to/lastmile_qr_scan", "android": "https://dc.lft.to/lastmile_qr_scan"}, "type": "electric_scooter", "name": "eef0bdfa0638efa4e91a0cd2c790ea60", "is_reserved": 0, "lon": -76.940635, "is_disabled": 0, "fusion_lat": 0.0, "lat": 38.885896, "bike_id": "eef0bdfa0638efa4e91a0cd2c790ea60", "fusion_lon": 0.0}, {"rental_uris": {"ios": "https://dc.lft.to/lastmile_qr_scan", "android": "https://dc.lft.to/lastmile_qr_scan"}, "type": "electric_scooter", "name": "4451fb0217997e28eb560b1698e7bbcc", "is_reserved": 0, "lon": -76.95280533333333, "is_disabled": 0, "fusion_lat": 0.0, "lat": 38.885277333333335, "bike_id": "4451fb0217997e28eb560b1698e7bbcc", "fusion_lon": 0.0}, {"rental_uris": {"ios": "https://dc.lft.to/lastmile_qr_scan", "android": "https://dc.lft.to/lastmile_qr_scan"}, "type": "electric_scooter", "name": "f4676886fe452536f4ea3c14aaee1f2d", "is_reserved": 0, "lon": -76.99510033333334, "is_disabled": 0, "fusion_lat": 0.0, "lat": 38.909781333333335, "bike_id": "f4676886fe452536f4ea3c14aaee1f2d", "fusion_lon": 0.0}, {"rental_uris": {"ios": "https://dc.lft.to/lastmile_qr_scan", "android": "https://dc.lft.to/lastmile_qr_scan"}, "type": "electric_scooter", "name": "436fc34583359f816ce7fba91644e95b", "is_reserved": 0, "lon": -77.025523, "is_disabled": 0, "fusion_lat": 0.0, "lat": 38.95172216666667, "bike_id": "436fc34583359f816ce7fba91644e95b", "fusion_lon": 0.0}, {"rental_uris": {"ios": "https://dc.lft.to/lastmile_qr_scan", "android": "https://dc.lft.to/lastmile_qr_scan"}, "type": "electric_scooter", "name": "b53571d235e2e1a775a3793730e5c689", "is_reserved": 0, "lon": -77.00473366666667, "is_disabled": 0, "fusion_lat": 0.0, "lat": 38.885083, "bike_id": "b53571d235e2e1a775a3793730e5c689", "fusion_lon": 0.0}, {"rental_uris": {"ios": "https://dc.lft.to/lastmile_qr_scan", "android": "https://dc.lft.to/lastmile_qr_scan"}, "type": "electric_scooter", "name": "8dab779c7f4dd6ae7b87da0e28a4ecc5", "is_reserved": 0, "lon": -77.03465966666667, "is_disabled": 0, "fusion_lat": 0.0, "lat": 38.90236566666667, "bike_id": "8dab779c7f4dd6ae7b87da0e28a4ecc5", "fusion_lon": 0.0}, {"rental_uris": {"ios": "https://dc.lft.to/lastmile_qr_scan", "android": "https://dc.lft.to/lastmile_qr_scan"}, "type": "electric_scooter", "name": "05934cfa429eec66e6da4ff15331c2d4", "is_reserved": 0, "lon": -77.00755, "is_disabled": 0, "fusion_lat": 0.0, "lat": 38.925375833333334, "bike_id": "05934cfa429eec66e6da4ff15331c2d4", "fusion_lon": 0.0}, {"rental_uris": {"ios": "https://dc.lft.to/lastmile_qr_scan", "android": "https://dc.lft.to/lastmile_qr_scan"}, "type": "electric_scooter", "name": "8eaab7e18ad3e8a85d20be7e257ec375", "is_reserved": 0, "lon": -76.98614966666666, "is_disabled": 0, "fusion_lat": 0.0, "lat": 38.9035305, "bike_id": "8eaab7e18ad3e8a85d20be7e257ec375", "fusion_lon": 0.0}, {"rental_uris": {"ios": "https://dc.lft.to/lastmile_qr_scan", "android": "https://dc.lft.to/lastmile_qr_scan"}, "type": "electric_scooter", "name": "09afe425c42f80db1ed820ebba4da4a6", "is_reserved": 0, "lon": -76.9588335, "is_disabled": 0, "fusion_lat": 0.0, "lat": 38.8584145, "bike_id": "09afe425c42f80db1ed820ebba4da4a6", "fusion_lon": 0.0}, {"rental_uris": {"ios": "https://dc.lft.to/lastmile_qr_scan", "android": "https://dc.lft.to/lastmile_qr_scan"}, "type": "electric_scooter", "name": "6e804ed2ac6004b06e2d0b3b4627bef2", "is_reserved": 0, "lon": -77.02518033333334, "is_disabled": 0, "fusion_lat": 0.0, "lat": 38.8984205, "bike_id": "6e804ed2ac6004b06e2d0b3b4627bef2", "fusion_lon": 0.0}, {"rental_uris": {"ios": "https://dc.lft.to/lastmile_qr_scan", "android": "https://dc.lft.to/lastmile_qr_scan"}, "type": "electric_bike", "name": "ad568bb938d02d7d3e97072648caa917", "is_reserved": 0, "lon": -77.12708033333334, "is_disabled": 0, "fusion_lat": 0.0, "lat": 38.89569816666667, "bike_id": "ad568bb938d02d7d3e97072648caa917", "fusion_lon": 0.0}, {"rental_uris": {"ios": "https://dc.lft.to/lastmile_qr_scan", "android": "https://dc.lft.to/lastmile_qr_scan"}, "type": "electric_scooter", "name": "b0806f13b7bdd00e2259fb7d69cc4ee5", "is_reserved": 0, "lon": -77.02558416666666, "is_disabled": 0, "fusion_lat": 0.0, "lat": 38.93861316666667, "bike_id": "b0806f13b7bdd00e2259fb7d69cc4ee5", "fusion_lon": 0.0}, {"rental_uris": {"ios": "https://dc.lft.to/lastmile_qr_scan", "android": "https://dc.lft.to/lastmile_qr_scan"}, "type": "electric_bike", "name": "f7e2cec61293cc6a61852eb36cbaf5f2", "is_reserved": 0, "lon": -77.09012833333334, "is_disabled": 0, "fusion_lat": 0.0, "lat": 38.926487, "bike_id": "f7e2cec61293cc6a61852eb36cbaf5f2", "fusion_lon": 0.0}, {"rental_uris": {"ios": "https://dc.lft.to/lastmile_qr_scan", "android": "https://dc.lft.to/lastmile_qr_scan"}, "type": "electric_scooter", "name": "53a7b2b8815dc1b8b24fb0e66f37717d", "is_reserved": 0, "lon": -76.9835355, "is_disabled": 0, "fusion_lat": 0.0, "lat": 38.887445166666666, "bike_id": "53a7b2b8815dc1b8b24fb0e66f37717d", "fusion_lon": 0.0}, {"rental_uris": {"ios": "https://dc.lft.to/lastmile_qr_scan", "android": "https://dc.lft.to/lastmile_qr_scan"}, "type": "electric_scooter", "name": "e47191f071b560813007a1bab08e62de", "is_reserved": 0, "lon": -77.02799383333333, "is_disabled": 0, "fusion_lat": 0.0, "lat": 38.90742216666666, "bike_id": "e47191f071b560813007a1bab08e62de", "fusion_lon": 0.0}, {"rental_uris": {"ios": "https://dc.lft.to/lastmile_qr_scan", "android": "https://dc.lft.to/lastmile_qr_scan"}, "type": "electric_scooter", "name": "dbb0de165b2e18651ab62601d17aed4d", "is_reserved": 0, "lon": -77.02351583333333, "is_disabled": 0, "fusion_lat": 0.0, "lat": 38.931802, "bike_id": "dbb0de165b2e18651ab62601d17aed4d", "fusion_lon": 0.0}, {"rental_uris": {"ios": "https://dc.lft.to/lastmile_qr_scan", "android": "https://dc.lft.to/lastmile_qr_scan"}, "type": "electric_scooter", "name": "7394b831e8ea1b1992fa44820f47e990", "is_reserved": 0, "lon": -77.02424983333333, "is_disabled": 0, "fusion_lat": 0.0, "lat": 38.9031365, "bike_id": "7394b831e8ea1b1992fa44820f47e990", "fusion_lon": 0.0}, {"rental_uris": {"ios": "https://dc.lft.to/lastmile_qr_scan", "android": "https://dc.lft.to/lastmile_qr_scan"}, "type": "electric_scooter", "name": "05f9d2a74f13d20e0598e53bece122c2", "is_reserved": 0, "lon": -76.98579333333333, "is_disabled": 0, "fusion_lat": 0.0, "lat": 38.861899, "bike_id": "05f9d2a74f13d20e0598e53bece122c2", "fusion_lon": 0.0}, {"rental_uris": {"ios": "https://dc.lft.to/lastmile_qr_scan", "android": "https://dc.lft.to/lastmile_qr_scan"}, "type": "electric_bike", "name": "18ba4364407ef5ee64226364e76c10b8", "is_reserved": 0, "lon": -76.95690483333334, "is_disabled": 0, "fusion_lat": 0.0, "lat": 38.850959833333334, "bike_id": "18ba4364407ef5ee64226364e76c10b8", "fusion_lon": 0.0}, {"rental_uris": {"ios": "https://dc.lft.to/lastmile_qr_scan", "android": "https://dc.lft.to/lastmile_qr_scan"}, "type": "electric_scooter", "name": "153806b83d9eda4486527b59e1c0012d", "is_reserved": 0, "lon": -77.0266375, "is_disabled": 0, "fusion_lat": 0.0, "lat": 38.884835333333335, "bike_id": "153806b83d9eda4486527b59e1c0012d", "fusion_lon": 0.0}, {"rental_uris": {"ios": "https://dc.lft.to/lastmile_qr_scan", "android": "https://dc.lft.to/lastmile_qr_scan"}, "type": "electric_scooter", "name": "0ddd793560caf01a4b126029ad8565a3", "is_reserved": 0, "lon": -77.0114895, "is_disabled": 0, "fusion_lat": 0.0, "lat": 38.91451033333333, "bike_id": "0ddd793560caf01a4b126029ad8565a3", "fusion_lon": 0.0}, {"rental_uris": {"ios": "https://dc.lft.to/lastmile_qr_scan", "android": "https://dc.lft.to/lastmile_qr_scan"}, "type": "electric_scooter", "name": "c0ce78ee8d80f65d6a836add24a1957d", "is_reserved": 0, "lon": -77.0364905, "is_disabled": 0, "fusion_lat": 0.0, "lat": 38.9006305, "bike_id": "c0ce78ee8d80f65d6a836add24a1957d", "fusion_lon": 0.0}, {"rental_uris": {"ios": "https://dc.lft.to/lastmile_qr_scan", "android": "https://dc.lft.to/lastmile_qr_scan"}, "type": "electric_scooter", "name": "c0269f479482b817165dbb8fc997fdb7", "is_reserved": 0, "lon": -77.0088885, "is_disabled": 0, "fusion_lat": 0.0, "lat": 38.905943666666666, "bike_id": "c0269f479482b817165dbb8fc997fdb7", "fusion_lon": 0.0}, {"rental_uris": {"ios": "https://dc.lft.to/lastmile_qr_scan", "android": "https://dc.lft.to/lastmile_qr_scan"}, "type": "electric_scooter", "name": "f020a79b7986297abb8f2f3e80a3e36c", "is_reserved": 0, "lon": -76.99035, "is_disabled": 0, "fusion_lat": 0.0, "lat": 38.8886825, "bike_id": "f020a79b7986297abb8f2f3e80a3e36c", "fusion_lon": 0.0}, {"rental_uris": {"ios": "https://dc.lft.to/lastmile_qr_scan", "android": "https://dc.lft.to/lastmile_qr_scan"}, "type": "electric_scooter", "name": "6a5656f3ca6390265bf319dd1ba3dfd2", "is_reserved": 0, "lon": -77.00417616666667, "is_disabled": 0, "fusion_lat": 0.0, "lat": 38.874533, "bike_id": "6a5656f3ca6390265bf319dd1ba3dfd2", "fusion_lon": 0.0}, {"rental_uris": {"ios": "https://dc.lft.to/lastmile_qr_scan", "android": "https://dc.lft.to/lastmile_qr_scan"}, "type": "electric_scooter", "name": "644b72b8d020e87e6c5de551f3f90f4f", "is_reserved": 0, "lon": -77.04905766666667, "is_disabled": 0, "fusion_lat": 0.0, "lat": 38.8884515, "bike_id": "644b72b8d020e87e6c5de551f3f90f4f", "fusion_lon": 0.0}, {"rental_uris": {"ios": "https://dc.lft.to/lastmile_qr_scan", "android": "https://dc.lft.to/lastmile_qr_scan"}, "type": "electric_scooter", "name": "0312b0df2254ab80815e5a7a5a34d1d2", "is_reserved": 0, "lon": -77.00927783333333, "is_disabled": 0, "fusion_lat": 0.0, "lat": 38.912593333333334, "bike_id": "0312b0df2254ab80815e5a7a5a34d1d2", "fusion_lon": 0.0}, {"rental_uris": {"ios": "https://dc.lft.to/lastmile_qr_scan", "android": "https://dc.lft.to/lastmile_qr_scan"}, "type": "electric_scooter", "name": "52f6617922c07bbce3efc1ab1ba0d051", "is_reserved": 0, "lon": -77.01979666666666, "is_disabled": 0, "fusion_lat": 0.0, "lat": 38.875920666666666, "bike_id": "52f6617922c07bbce3efc1ab1ba0d051", "fusion_lon": 0.0}, {"rental_uris": {"ios": "https://dc.lft.to/lastmile_qr_scan", "android": "https://dc.lft.to/lastmile_qr_scan"}, "type": "electric_scooter", "name": "148e463b30094e93f1961f1b53921fe7", "is_reserved": 0, "lon": -77.06805033333333, "is_disabled": 0, "fusion_lat": 0.0, "lat": 38.90523533333333, "bike_id": "148e463b30094e93f1961f1b53921fe7", "fusion_lon": 0.0}, {"rental_uris": {"ios": "https://dc.lft.to/lastmile_qr_scan", "android": "https://dc.lft.to/lastmile_qr_scan"}, "type": "electric_scooter", "name": "d194a60229dd7769dd0f1ee62b373748", "is_reserved": 0, "lon": -77.018966, "is_disabled": 0, "fusion_lat": 0.0, "lat": 38.9233845, "bike_id": "d194a60229dd7769dd0f1ee62b373748", "fusion_lon": 0.0}, {"rental_uris": {"ios": "https://dc.lft.to/lastmile_qr_scan", "android": "https://dc.lft.to/lastmile_qr_scan"}, "type": "electric_scooter", "name": "65e0aeb7d6c1021a9572bc21eb50215c", "is_reserved": 0, "lon": -77.01852516666666, "is_disabled": 0, "fusion_lat": 0.0, "lat": 38.91479733333333, "bike_id": "65e0aeb7d6c1021a9572bc21eb50215c", "fusion_lon": 0.0}, {"rental_uris": {"ios": "https://dc.lft.to/lastmile_qr_scan", "android": "https://dc.lft.to/lastmile_qr_scan"}, "type": "electric_scooter", "name": "eedff5660949443032e92440b951181c", "is_reserved": 0, "lon": -77.02845716666667, "is_disabled": 0, "fusion_lat": 0.0, "lat": 38.9175335, "bike_id": "eedff5660949443032e92440b951181c", "fusion_lon": 0.0}, {"rental_uris": {"ios": "https://dc.lft.to/lastmile_qr_scan", "android": "https://dc.lft.to/lastmile_qr_scan"}, "type": "electric_scooter", "name": "e7d7229df2bfafb5d5f13b44f1759735", "is_reserved": 0, "lon": -77.0116775, "is_disabled": 0, "fusion_lat": 0.0, "lat": 38.87664783333334, "bike_id": "e7d7229df2bfafb5d5f13b44f1759735", "fusion_lon": 0.0}, {"rental_uris": {"ios": "https://dc.lft.to/lastmile_qr_scan", "android": "https://dc.lft.to/lastmile_qr_scan"}, "type": "electric_scooter", "name": "fc30c00de3186f3657f439e7bce9bdcd", "is_reserved": 0, "lon": -76.95691716666667, "is_disabled": 0, "fusion_lat": 0.0, "lat": 38.892050833333336, "bike_id": "fc30c00de3186f3657f439e7bce9bdcd", "fusion_lon": 0.0}, {"rental_uris": {"ios": "https://dc.lft.to/lastmile_qr_scan", "android": "https://dc.lft.to/lastmile_qr_scan"}, "type": "electric_scooter", "name": "3caac11f43fff9ce93a70352a4f46586", "is_reserved": 0, "lon": -77.0435945, "is_disabled": 0, "fusion_lat": 0.0, "lat": 38.90125183333333, "bike_id": "3caac11f43fff9ce93a70352a4f46586", "fusion_lon": 0.0}, {"rental_uris": {"ios": "https://dc.lft.to/lastmile_qr_scan", "android": "https://dc.lft.to/lastmile_qr_scan"}, "type": "electric_scooter", "name": "c1caefddece30600a6695976d6f4ee5e", "is_reserved": 0, "lon": -76.99413433333334, "is_disabled": 0, "fusion_lat": 0.0, "lat": 38.9208455, "bike_id": "c1caefddece30600a6695976d6f4ee5e", "fusion_lon": 0.0}, {"rental_uris": {"ios": "https://dc.lft.to/lastmile_qr_scan", "android": "https://dc.lft.to/lastmile_qr_scan"}, "type": "electric_scooter", "name": "837e762bf101eb137afdeeae1a01c59d", "is_reserved": 0, "lon": -77.03177716666667, "is_disabled": 0, "fusion_lat": 0.0, "lat": 38.91188066666667, "bike_id": "837e762bf101eb137afdeeae1a01c59d", "fusion_lon": 0.0}, {"rental_uris": {"ios": "https://dc.lft.to/lastmile_qr_scan", "android": "https://dc.lft.to/lastmile_qr_scan"}, "type": "electric_scooter", "name": "64ac1ba153cec0cda32ce627d649c5f1", "is_reserved": 0, "lon": -77.0502305, "is_disabled": 0, "fusion_lat": 0.0, "lat": 38.923586666666665, "bike_id": "64ac1ba153cec0cda32ce627d649c5f1", "fusion_lon": 0.0}, {"rental_uris": {"ios": "https://dc.lft.to/lastmile_qr_scan", "android": "https://dc.lft.to/lastmile_qr_scan"}, "type": "electric_scooter", "name": "63afcf84f0ed314006f47b607b51c852", "is_reserved": 0, "lon": -77.04486, "is_disabled": 0, "fusion_lat": 0.0, "lat": 38.893425, "bike_id": "63afcf84f0ed314006f47b607b51c852", "fusion_lon": 0.0}, {"rental_uris": {"ios": "https://dc.lft.to/lastmile_qr_scan", "android": "https://dc.lft.to/lastmile_qr_scan"}, "type": "electric_scooter", "name": "24963ac1d4c7159988396e76bfd90224", "is_reserved": 0, "lon": -77.00950316666666, "is_disabled": 0, "fusion_lat": 0.0, "lat": 38.87633666666667, "bike_id": "24963ac1d4c7159988396e76bfd90224", "fusion_lon": 0.0}, {"rental_uris": {"ios": "https://dc.lft.to/lastmile_qr_scan", "android": "https://dc.lft.to/lastmile_qr_scan"}, "type": "electric_scooter", "name": "a83d2502b30bffb27c0f1c7e803f9917", "is_reserved": 0, "lon": -77.03662983333334, "is_disabled": 0, "fusion_lat": 0.0, "lat": 38.909565666666666, "bike_id": "a83d2502b30bffb27c0f1c7e803f9917", "fusion_lon": 0.0}, {"rental_uris": {"ios": "https://dc.lft.to/lastmile_qr_scan", "android": "https://dc.lft.to/lastmile_qr_scan"}, "type": "electric_scooter", "name": "32fad33fd8c00bff4075ea9e8c44bf88", "is_reserved": 0, "lon": -77.007486, "is_disabled": 0, "fusion_lat": 0.0, "lat": 38.87649233333333, "bike_id": "32fad33fd8c00bff4075ea9e8c44bf88", "fusion_lon": 0.0}, {"rental_uris": {"ios": "https://dc.lft.to/lastmile_qr_scan", "android": "https://dc.lft.to/lastmile_qr_scan"}, "type": "electric_scooter", "name": "fbedd08d306c524424a1169324372010", "is_reserved": 0, "lon": -77.03540983333333, "is_disabled": 0, "fusion_lat": 0.0, "lat": 38.90463833333333, "bike_id": "fbedd08d306c524424a1169324372010", "fusion_lon": 0.0}, {"rental_uris": {"ios": "https://dc.lft.to/lastmile_qr_scan", "android": "https://dc.lft.to/lastmile_qr_scan"}, "type": "electric_scooter", "name": "01eda25e50ddde0c6f94acc02b8c14b7", "is_reserved": 0, "lon": -77.010916, "is_disabled": 0, "fusion_lat": 0.0, "lat": 38.90331783333333, "bike_id": "01eda25e50ddde0c6f94acc02b8c14b7", "fusion_lon": 0.0}, {"rental_uris": {"ios": "https://dc.lft.to/lastmile_qr_scan", "android": "https://dc.lft.to/lastmile_qr_scan"}, "type": "electric_scooter", "name": "afcf214edcd13e9c76bda2f08c013f0b", "is_reserved": 0, "lon": -77.04028433333333, "is_disabled": 0, "fusion_lat": 0.0, "lat": 38.91827216666667, "bike_id": "afcf214edcd13e9c76bda2f08c013f0b", "fusion_lon": 0.0}, {"rental_uris": {"ios": "https://dc.lft.to/lastmile_qr_scan", "android": "https://dc.lft.to/lastmile_qr_scan"}, "type": "electric_scooter", "name": "8dfc56e846f63124860e1b73a8c0a474", "is_reserved": 0, "lon": -77.04023666666667, "is_disabled": 0, "fusion_lat": 0.0, "lat": 38.9180175, "bike_id": "8dfc56e846f63124860e1b73a8c0a474", "fusion_lon": 0.0}, {"rental_uris": {"ios": "https://dc.lft.to/lastmile_qr_scan", "android": "https://dc.lft.to/lastmile_qr_scan"}, "type": "electric_scooter", "name": "8a0bd57c0b00dfcd7867848d7ce247ce", "is_reserved": 0, "lon": -77.01507466666666, "is_disabled": 0, "fusion_lat": 0.0, "lat": 38.88744416666667, "bike_id": "8a0bd57c0b00dfcd7867848d7ce247ce", "fusion_lon": 0.0}, {"rental_uris": {"ios": "https://dc.lft.to/lastmile_qr_scan", "android": "https://dc.lft.to/lastmile_qr_scan"}, "type": "electric_bike", "name": "1bf8412e5aa3ceb2a40ddd89c6a077c7", "is_reserved": 0, "lon": -76.97321866666667, "is_disabled": 0, "fusion_lat": 0.0, "lat": 38.85783166666667, "bike_id": "1bf8412e5aa3ceb2a40ddd89c6a077c7", "fusion_lon": 0.0}, {"rental_uris": {"ios": "https://dc.lft.to/lastmile_qr_scan", "android": "https://dc.lft.to/lastmile_qr_scan"}, "type": "electric_scooter", "name": "194e41a9b3cefec1eeb4090c0b8f4fe9", "is_reserved": 0, "lon": -77.04035766666667, "is_disabled": 0, "fusion_lat": 0.0, "lat": 38.9037765, "bike_id": "194e41a9b3cefec1eeb4090c0b8f4fe9", "fusion_lon": 0.0}, {"rental_uris": {"ios": "https://dc.lft.to/lastmile_qr_scan", "android": "https://dc.lft.to/lastmile_qr_scan"}, "type": "electric_scooter", "name": "3d42a6e18c41a50924becf08fc209b83", "is_reserved": 0, "lon": -77.02474983333333, "is_disabled": 0, "fusion_lat": 0.0, "lat": 38.93097216666666, "bike_id": "3d42a6e18c41a50924becf08fc209b83", "fusion_lon": 0.0}, {"rental_uris": {"ios": "https://dc.lft.to/lastmile_qr_scan", "android": "https://dc.lft.to/lastmile_qr_scan"}, "type": "electric_scooter", "name": "4bf61ae0b53d8db88a57941ea7c35907", "is_reserved": 0, "lon": -77.03126233333333, "is_disabled": 0, "fusion_lat": 0.0, "lat": 38.91702466666667, "bike_id": "4bf61ae0b53d8db88a57941ea7c35907", "fusion_lon": 0.0}, {"rental_uris": {"ios": "https://dc.lft.to/lastmile_qr_scan", "android": "https://dc.lft.to/lastmile_qr_scan"}, "type": "electric_scooter", "name": "70350f4c2450e4032dccd13ed0e4bcb8", "is_reserved": 0, "lon": -77.00924716666667, "is_disabled": 0, "fusion_lat": 0.0, "lat": 38.881767833333335, "bike_id": "70350f4c2450e4032dccd13ed0e4bcb8", "fusion_lon": 0.0}, {"rental_uris": {"ios": "https://dc.lft.to/lastmile_qr_scan", "android": "https://dc.lft.to/lastmile_qr_scan"}, "type": "electric_scooter", "name": "0d39284317169739029758a4ca2d4aec", "is_reserved": 0, "lon": -77.0316195, "is_disabled": 0, "fusion_lat": 0.0, "lat": 38.89982216666667, "bike_id": "0d39284317169739029758a4ca2d4aec", "fusion_lon": 0.0}, {"rental_uris": {"ios": "https://dc.lft.to/lastmile_qr_scan", "android": "https://dc.lft.to/lastmile_qr_scan"}, "type": "electric_scooter", "name": "4c9a85670489e0924501dd29b466570f", "is_reserved": 0, "lon": -77.04544766666666, "is_disabled": 0, "fusion_lat": 0.0, "lat": 38.91781533333333, "bike_id": "4c9a85670489e0924501dd29b466570f", "fusion_lon": 0.0}, {"rental_uris": {"ios": "https://dc.lft.to/lastmile_qr_scan", "android": "https://dc.lft.to/lastmile_qr_scan"}, "type": "electric_scooter", "name": "c35858f6f85cd0975aab4ed515d04982", "is_reserved": 0, "lon": -76.9851005, "is_disabled": 0, "fusion_lat": 0.0, "lat": 38.880839, "bike_id": "c35858f6f85cd0975aab4ed515d04982", "fusion_lon": 0.0}, {"rental_uris": {"ios": "https://dc.lft.to/lastmile_qr_scan", "android": "https://dc.lft.to/lastmile_qr_scan"}, "type": "electric_scooter", "name": "870c8818d6e8331901deeedc34fc9573", "is_reserved": 0, "lon": -77.04246016666667, "is_disabled": 0, "fusion_lat": 0.0, "lat": 38.922256833333336, "bike_id": "870c8818d6e8331901deeedc34fc9573", "fusion_lon": 0.0}, {"rental_uris": {"ios": "https://dc.lft.to/lastmile_qr_scan", "android": "https://dc.lft.to/lastmile_qr_scan"}, "type": "electric_scooter", "name": "bed0c35215f9e21b76365908915d6b40", "is_reserved": 0, "lon": -77.04673783333334, "is_disabled": 0, "fusion_lat": 0.0, "lat": 38.8923565, "bike_id": "bed0c35215f9e21b76365908915d6b40", "fusion_lon": 0.0}, {"rental_uris": {"ios": "https://dc.lft.to/lastmile_qr_scan", "android": "https://dc.lft.to/lastmile_qr_scan"}, "type": "electric_scooter", "name": "157189af856250bb341b30d37682f63b", "is_reserved": 0, "lon": -77.016667, "is_disabled": 0, "fusion_lat": 0.0, "lat": 38.91107133333333, "bike_id": "157189af856250bb341b30d37682f63b", "fusion_lon": 0.0}, {"rental_uris": {"ios": "https://dc.lft.to/lastmile_qr_scan", "android": "https://dc.lft.to/lastmile_qr_scan"}, "type": "electric_scooter", "name": "62a153eefdfb32a2292e9c9b727901c1", "is_reserved": 0, "lon": -77.04290533333334, "is_disabled": 0, "fusion_lat": 0.0, "lat": 38.9224065, "bike_id": "62a153eefdfb32a2292e9c9b727901c1", "fusion_lon": 0.0}, {"rental_uris": {"ios": "https://dc.lft.to/lastmile_qr_scan", "android": "https://dc.lft.to/lastmile_qr_scan"}, "type": "electric_scooter", "name": "0eaaff4d4ed66955c1b2874b40b60d04", "is_reserved": 0, "lon": -77.0424465, "is_disabled": 0, "fusion_lat": 0.0, "lat": 38.92155616666667, "bike_id": "0eaaff4d4ed66955c1b2874b40b60d04", "fusion_lon": 0.0}, {"rental_uris": {"ios": "https://dc.lft.to/lastmile_qr_scan", "android": "https://dc.lft.to/lastmile_qr_scan"}, "type": "electric_scooter", "name": "e5e9bd8f6cf550636ea4dd1472ba7453", "is_reserved": 0, "lon": -77.03838566666667, "is_disabled": 0, "fusion_lat": 0.0, "lat": 38.93115433333333, "bike_id": "e5e9bd8f6cf550636ea4dd1472ba7453", "fusion_lon": 0.0}, {"rental_uris": {"ios": "https://dc.lft.to/lastmile_qr_scan", "android": "https://dc.lft.to/lastmile_qr_scan"}, "type": "electric_scooter", "name": "6641cf038f946640bd079e46687a4e5a", "is_reserved": 0, "lon": -77.041485, "is_disabled": 0, "fusion_lat": 0.0, "lat": 38.922948833333336, "bike_id": "6641cf038f946640bd079e46687a4e5a", "fusion_lon": 0.0}, {"rental_uris": {"ios": "https://dc.lft.to/lastmile_qr_scan", "android": "https://dc.lft.to/lastmile_qr_scan"}, "type": "electric_scooter", "name": "c8712eda7d8bd506c7e05905e07e9d8f", "is_reserved": 0, "lon": -76.9876895, "is_disabled": 0, "fusion_lat": 0.0, "lat": 38.911992, "bike_id": "c8712eda7d8bd506c7e05905e07e9d8f", "fusion_lon": 0.0}, {"rental_uris": {"ios": "https://dc.lft.to/lastmile_qr_scan", "android": "https://dc.lft.to/lastmile_qr_scan"}, "type": "electric_scooter", "name": "4d81b097794914437c42ad5fd2e42e6e", "is_reserved": 0, "lon": -77.0306205, "is_disabled": 0, "fusion_lat": 0.0, "lat": 38.924861166666666, "bike_id": "4d81b097794914437c42ad5fd2e42e6e", "fusion_lon": 0.0}, {"rental_uris": {"ios": "https://dc.lft.to/lastmile_qr_scan", "android": "https://dc.lft.to/lastmile_qr_scan"}, "type": "electric_scooter", "name": "52680d65caae38af16bae4c6ad772d10", "is_reserved": 0, "lon": -77.03088416666667, "is_disabled": 0, "fusion_lat": 0.0, "lat": 38.910837, "bike_id": "52680d65caae38af16bae4c6ad772d10", "fusion_lon": 0.0}, {"rental_uris": {"ios": "https://dc.lft.to/lastmile_qr_scan", "android": "https://dc.lft.to/lastmile_qr_scan"}, "type": "electric_bike", "name": "4b8b4089910afd1fa1487ac6cbe06948", "is_reserved": 0, "lon": -76.90735133333334, "is_disabled": 0, "fusion_lat": 0.0, "lat": 38.89618383333333, "bike_id": "4b8b4089910afd1fa1487ac6cbe06948", "fusion_lon": 0.0}, {"rental_uris": {"ios": "https://dc.lft.to/lastmile_qr_scan", "android": "https://dc.lft.to/lastmile_qr_scan"}, "type": "electric_scooter", "name": "a59eef8b54bbc0c432dfcbc2d1ae369d", "is_reserved": 0, "lon": -77.00733533333333, "is_disabled": 0, "fusion_lat": 0.0, "lat": 38.871350166666666, "bike_id": "a59eef8b54bbc0c432dfcbc2d1ae369d", "fusion_lon": 0.0}, {"rental_uris": {"ios": "https://dc.lft.to/lastmile_qr_scan", "android": "https://dc.lft.to/lastmile_qr_scan"}, "type": "electric_scooter", "name": "7de2896e88a344c2f7d228464e773e3b", "is_reserved": 0, "lon": -77.05619033333333, "is_disabled": 0, "fusion_lat": 0.0, "lat": 38.90690816666667, "bike_id": "7de2896e88a344c2f7d228464e773e3b", "fusion_lon": 0.0}, {"rental_uris": {"ios": "https://dc.lft.to/lastmile_qr_scan", "android": "https://dc.lft.to/lastmile_qr_scan"}, "type": "electric_scooter", "name": "9671d3f3c0bc0ef279e0953574f489be", "is_reserved": 0, "lon": -77.03843716666667, "is_disabled": 0, "fusion_lat": 0.0, "lat": 38.901136666666666, "bike_id": "9671d3f3c0bc0ef279e0953574f489be", "fusion_lon": 0.0}, {"rental_uris": {"ios": "https://dc.lft.to/lastmile_qr_scan", "android": "https://dc.lft.to/lastmile_qr_scan"}, "type": "electric_scooter", "name": "e2cbe37246645998240af8bb746ca6c7", "is_reserved": 0, "lon": -76.99233416666667, "is_disabled": 0, "fusion_lat": 0.0, "lat": 38.88750983333333, "bike_id": "e2cbe37246645998240af8bb746ca6c7", "fusion_lon": 0.0}, {"rental_uris": {"ios": "https://dc.lft.to/lastmile_qr_scan", "android": "https://dc.lft.to/lastmile_qr_scan"}, "type": "electric_scooter", "name": "0a6ca359d2690e4d2b3c2d36be921b79", "is_reserved": 0, "lon": -77.04758116666666, "is_disabled": 0, "fusion_lat": 0.0, "lat": 38.94095933333333, "bike_id": "0a6ca359d2690e4d2b3c2d36be921b79", "fusion_lon": 0.0}, {"rental_uris": {"ios": "https://dc.lft.to/lastmile_qr_scan", "android": "https://dc.lft.to/lastmile_qr_scan"}, "type": "electric_scooter", "name": "ad68ecf0c41cf16b5b5bbc73da32e09d", "is_reserved": 0, "lon": -77.05335966666667, "is_disabled": 0, "fusion_lat": 0.0, "lat": 38.902575, "bike_id": "ad68ecf0c41cf16b5b5bbc73da32e09d", "fusion_lon": 0.0}, {"rental_uris": {"ios": "https://dc.lft.to/lastmile_qr_scan", "android": "https://dc.lft.to/lastmile_qr_scan"}, "type": "electric_scooter", "name": "17d5230cbe1747a0620e265c2c627a2d", "is_reserved": 0, "lon": -77.00833866666666, "is_disabled": 0, "fusion_lat": 0.0, "lat": 38.913744333333334, "bike_id": "17d5230cbe1747a0620e265c2c627a2d", "fusion_lon": 0.0}, {"rental_uris": {"ios": "https://dc.lft.to/lastmile_qr_scan", "android": "https://dc.lft.to/lastmile_qr_scan"}, "type": "electric_scooter", "name": "3fc5b2f4c00b7c89a9e3fa55de0505c6", "is_reserved": 0, "lon": -77.04225883333334, "is_disabled": 0, "fusion_lat": 0.0, "lat": 38.913373166666666, "bike_id": "3fc5b2f4c00b7c89a9e3fa55de0505c6", "fusion_lon": 0.0}, {"rental_uris": {"ios": "https://dc.lft.to/lastmile_qr_scan", "android": "https://dc.lft.to/lastmile_qr_scan"}, "type": "electric_scooter", "name": "03a1ae4d096a19b1769047ad19e95eea", "is_reserved": 0, "lon": -77.04034766666666, "is_disabled": 0, "fusion_lat": 0.0, "lat": 38.904162666666664, "bike_id": "03a1ae4d096a19b1769047ad19e95eea", "fusion_lon": 0.0}, {"rental_uris": {"ios": "https://dc.lft.to/lastmile_qr_scan", "android": "https://dc.lft.to/lastmile_qr_scan"}, "type": "electric_scooter", "name": "2a1d7748dc4a76829fef0a81f7ebcafc", "is_reserved": 0, "lon": -76.9803625, "is_disabled": 0, "fusion_lat": 0.0, "lat": 38.88963916666667, "bike_id": "2a1d7748dc4a76829fef0a81f7ebcafc", "fusion_lon": 0.0}, {"rental_uris": {"ios": "https://dc.lft.to/lastmile_qr_scan", "android": "https://dc.lft.to/lastmile_qr_scan"}, "type": "electric_bike", "name": "6b586dd607298d62fe1bd4c3235c6fbd", "is_reserved": 0, "lon": -76.99366716666667, "is_disabled": 0, "fusion_lat": 0.0, "lat": 38.9272125, "bike_id": "6b586dd607298d62fe1bd4c3235c6fbd", "fusion_lon": 0.0}, {"rental_uris": {"ios": "https://dc.lft.to/lastmile_qr_scan", "android": "https://dc.lft.to/lastmile_qr_scan"}, "type": "electric_scooter", "name": "5f7e7b476ef271fadcbd6d09c814dac8", "is_reserved": 0, "lon": -76.99161166666667, "is_disabled": 0, "fusion_lat": 0.0, "lat": 38.9004175, "bike_id": "5f7e7b476ef271fadcbd6d09c814dac8", "fusion_lon": 0.0}, {"rental_uris": {"ios": "https://dc.lft.to/lastmile_qr_scan", "android": "https://dc.lft.to/lastmile_qr_scan"}, "type": "electric_scooter", "name": "dfa57d2f73773cfd2b34040cea83d25a", "is_reserved": 0, "lon": -76.999608, "is_disabled": 0, "fusion_lat": 0.0, "lat": 38.9085455, "bike_id": "dfa57d2f73773cfd2b34040cea83d25a", "fusion_lon": 0.0}, {"rental_uris": {"ios": "https://dc.lft.to/lastmile_qr_scan", "android": "https://dc.lft.to/lastmile_qr_scan"}, "type": "electric_scooter", "name": "5facd94d7a14d3859a695ecebfe9ebd6", "is_reserved": 0, "lon": -77.036236, "is_disabled": 0, "fusion_lat": 0.0, "lat": 38.94297133333333, "bike_id": "5facd94d7a14d3859a695ecebfe9ebd6", "fusion_lon": 0.0}, {"rental_uris": {"ios": "https://dc.lft.to/lastmile_qr_scan", "android": "https://dc.lft.to/lastmile_qr_scan"}, "type": "electric_scooter", "name": "f240335efd5dd78a6e003513f7774991", "is_reserved": 0, "lon": -77.0318855, "is_disabled": 0, "fusion_lat": 0.0, "lat": 38.908183333333334, "bike_id": "f240335efd5dd78a6e003513f7774991", "fusion_lon": 0.0}, {"rental_uris": {"ios": "https://dc.lft.to/lastmile_qr_scan", "android": "https://dc.lft.to/lastmile_qr_scan"}, "type": "electric_scooter", "name": "232f1c9efd4f76603fa15660a22e49e3", "is_reserved": 0, "lon": -77.0167015, "is_disabled": 0, "fusion_lat": 0.0, "lat": 38.916855, "bike_id": "232f1c9efd4f76603fa15660a22e49e3", "fusion_lon": 0.0}, {"rental_uris": {"ios": "https://dc.lft.to/lastmile_qr_scan", "android": "https://dc.lft.to/lastmile_qr_scan"}, "type": "electric_scooter", "name": "154789a9f558927bcea7b04a8d4457e2", "is_reserved": 0, "lon": -77.04536566666667, "is_disabled": 0, "fusion_lat": 0.0, "lat": 38.91811666666667, "bike_id": "154789a9f558927bcea7b04a8d4457e2", "fusion_lon": 0.0}, {"rental_uris": {"ios": "https://dc.lft.to/lastmile_qr_scan", "android": "https://dc.lft.to/lastmile_qr_scan"}, "type": "electric_scooter", "name": "7f3ccd89f2224ff9b2c8500d95917786", "is_reserved": 0, "lon": -77.02104166666666, "is_disabled": 0, "fusion_lat": 0.0, "lat": 38.966822, "bike_id": "7f3ccd89f2224ff9b2c8500d95917786", "fusion_lon": 0.0}, {"rental_uris": {"ios": "https://dc.lft.to/lastmile_qr_scan", "android": "https://dc.lft.to/lastmile_qr_scan"}, "type": "electric_bike", "name": "2b5cacdc39a4d7172c9a6fec34cad347", "is_reserved": 0, "lon": -77.01908483333334, "is_disabled": 0, "fusion_lat": 0.0, "lat": 38.976742333333334, "bike_id": "2b5cacdc39a4d7172c9a6fec34cad347", "fusion_lon": 0.0}, {"rental_uris": {"ios": "https://dc.lft.to/lastmile_qr_scan", "android": "https://dc.lft.to/lastmile_qr_scan"}, "type": "electric_scooter", "name": "dcded2432cf0d7ab69f5815e92434104", "is_reserved": 0, "lon": -76.99027866666667, "is_disabled": 0, "fusion_lat": 0.0, "lat": 38.88881133333334, "bike_id": "dcded2432cf0d7ab69f5815e92434104", "fusion_lon": 0.0}, {"rental_uris": {"ios": "https://dc.lft.to/lastmile_qr_scan", "android": "https://dc.lft.to/lastmile_qr_scan"}, "type": "electric_scooter", "name": "b9e9e4d62fa7bad0da4b5964dc10ec2d", "is_reserved": 0, "lon": -77.02377916666667, "is_disabled": 0, "fusion_lat": 0.0, "lat": 38.905759, "bike_id": "b9e9e4d62fa7bad0da4b5964dc10ec2d", "fusion_lon": 0.0}, {"rental_uris": {"ios": "https://dc.lft.to/lastmile_qr_scan", "android": "https://dc.lft.to/lastmile_qr_scan"}, "type": "electric_scooter", "name": "750bca0516e6dc535af4c9c8304ab71c", "is_reserved": 0, "lon": -77.03868966666667, "is_disabled": 0, "fusion_lat": 0.0, "lat": 38.91120766666667, "bike_id": "750bca0516e6dc535af4c9c8304ab71c", "fusion_lon": 0.0}, {"rental_uris": {"ios": "https://dc.lft.to/lastmile_qr_scan", "android": "https://dc.lft.to/lastmile_qr_scan"}, "type": "electric_bike", "name": "b37adf9b924963cf1fd17b9e96061289", "is_reserved": 0, "lon": -77.07657466666667, "is_disabled": 0, "fusion_lat": 0.0, "lat": 38.80982083333333, "bike_id": "b37adf9b924963cf1fd17b9e96061289", "fusion_lon": 0.0}, {"rental_uris": {"ios": "https://dc.lft.to/lastmile_qr_scan", "android": "https://dc.lft.to/lastmile_qr_scan"}, "type": "electric_bike", "name": "af593ee5d2c2816c8739ca437a3779df", "is_reserved": 0, "lon": -77.02068133333333, "is_disabled": 0, "fusion_lat": 0.0, "lat": 38.96437866666667, "bike_id": "af593ee5d2c2816c8739ca437a3779df", "fusion_lon": 0.0}, {"rental_uris": {"ios": "https://dc.lft.to/lastmile_qr_scan", "android": "https://dc.lft.to/lastmile_qr_scan"}, "type": "electric_scooter", "name": "1f162a3f080688ba616c817158720245", "is_reserved": 0, "lon": -76.98532066666667, "is_disabled": 0, "fusion_lat": 0.0, "lat": 38.9144765, "bike_id": "1f162a3f080688ba616c817158720245", "fusion_lon": 0.0}, {"rental_uris": {"ios": "https://dc.lft.to/lastmile_qr_scan", "android": "https://dc.lft.to/lastmile_qr_scan"}, "type": "electric_scooter", "name": "3b0041e47a90b13c5297ae0724999e4c", "is_reserved": 0, "lon": -77.02716933333333, "is_disabled": 0, "fusion_lat": 0.0, "lat": 38.912192, "bike_id": "3b0041e47a90b13c5297ae0724999e4c", "fusion_lon": 0.0}, {"rental_uris": {"ios": "https://dc.lft.to/lastmile_qr_scan", "android": "https://dc.lft.to/lastmile_qr_scan"}, "type": "electric_scooter", "name": "dbfb9b0e426a51a8a09f37f001c16401", "is_reserved": 0, "lon": -77.0089455, "is_disabled": 0, "fusion_lat": 0.0, "lat": 38.898672, "bike_id": "dbfb9b0e426a51a8a09f37f001c16401", "fusion_lon": 0.0}, {"rental_uris": {"ios": "https://dc.lft.to/lastmile_qr_scan", "android": "https://dc.lft.to/lastmile_qr_scan"}, "type": "electric_scooter", "name": "f06ecd366e2f92a3cbe82ecc93eab515", "is_reserved": 0, "lon": -77.05685733333334, "is_disabled": 0, "fusion_lat": 0.0, "lat": 38.90482566666667, "bike_id": "f06ecd366e2f92a3cbe82ecc93eab515", "fusion_lon": 0.0}, {"rental_uris": {"ios": "https://dc.lft.to/lastmile_qr_scan", "android": "https://dc.lft.to/lastmile_qr_scan"}, "type": "electric_scooter", "name": "67cf993ea4cee6bbf0fcea9878361897", "is_reserved": 0, "lon": -77.032931, "is_disabled": 0, "fusion_lat": 0.0, "lat": 38.90397866666667, "bike_id": "67cf993ea4cee6bbf0fcea9878361897", "fusion_lon": 0.0}, {"rental_uris": {"ios": "https://dc.lft.to/lastmile_qr_scan", "android": "https://dc.lft.to/lastmile_qr_scan"}, "type": "electric_scooter", "name": "f5208b4ab632ee34e2d3645cbdeeda2a", "is_reserved": 0, "lon": -77.09653283333333, "is_disabled": 0, "fusion_lat": 0.0, "lat": 38.91627833333333, "bike_id": "f5208b4ab632ee34e2d3645cbdeeda2a", "fusion_lon": 0.0}, {"rental_uris": {"ios": "https://dc.lft.to/lastmile_qr_scan", "android": "https://dc.lft.to/lastmile_qr_scan"}, "type": "electric_bike", "name": "918ba5def6e39c544b251b21afecae48", "is_reserved": 0, "lon": -77.001464, "is_disabled": 0, "fusion_lat": 0.0, "lat": 38.995123, "bike_id": "918ba5def6e39c544b251b21afecae48", "fusion_lon": 0.0}, {"rental_uris": {"ios": "https://dc.lft.to/lastmile_qr_scan", "android": "https://dc.lft.to/lastmile_qr_scan"}, "type": "electric_scooter", "name": "06086b3f6ad5e62883c23094a7cc4457", "is_reserved": 0, "lon": -77.05789683333333, "is_disabled": 0, "fusion_lat": 0.0, "lat": 38.905096, "bike_id": "06086b3f6ad5e62883c23094a7cc4457", "fusion_lon": 0.0}, {"rental_uris": {"ios": "https://dc.lft.to/lastmile_qr_scan", "android": "https://dc.lft.to/lastmile_qr_scan"}, "type": "electric_scooter", "name": "7c044c999da973673b0d908a0fc1c040", "is_reserved": 0, "lon": -77.00207083333333, "is_disabled": 0, "fusion_lat": 0.0, "lat": 38.893271166666665, "bike_id": "7c044c999da973673b0d908a0fc1c040", "fusion_lon": 0.0}, {"rental_uris": {"ios": "https://dc.lft.to/lastmile_qr_scan", "android": "https://dc.lft.to/lastmile_qr_scan"}, "type": "electric_scooter", "name": "a4cf81de82b0736ac477c1db589f49a6", "is_reserved": 0, "lon": -77.016673, "is_disabled": 0, "fusion_lat": 0.0, "lat": 38.93521166666667, "bike_id": "a4cf81de82b0736ac477c1db589f49a6", "fusion_lon": 0.0}, {"rental_uris": {"ios": "https://dc.lft.to/lastmile_qr_scan", "android": "https://dc.lft.to/lastmile_qr_scan"}, "type": "electric_bike", "name": "38d1b62d80ae2f4fa05086b0f6ce6b09", "is_reserved": 0, "lon": -76.9691825, "is_disabled": 0, "fusion_lat": 0.0, "lat": 38.84614666666667, "bike_id": "38d1b62d80ae2f4fa05086b0f6ce6b09", "fusion_lon": 0.0}, {"rental_uris": {"ios": "https://dc.lft.to/lastmile_qr_scan", "android": "https://dc.lft.to/lastmile_qr_scan"}, "type": "electric_scooter", "name": "b0befccccf337c7e267e54cddc83500c", "is_reserved": 0, "lon": -76.979374, "is_disabled": 0, "fusion_lat": 0.0, "lat": 38.90661866666667, "bike_id": "b0befccccf337c7e267e54cddc83500c", "fusion_lon": 0.0}, {"rental_uris": {"ios": "https://dc.lft.to/lastmile_qr_scan", "android": "https://dc.lft.to/lastmile_qr_scan"}, "type": "electric_scooter", "name": "58d0c946be691c49f5c0b5e74bbc23ae", "is_reserved": 0, "lon": -77.05153783333333, "is_disabled": 0, "fusion_lat": 0.0, "lat": 38.904622333333336, "bike_id": "58d0c946be691c49f5c0b5e74bbc23ae", "fusion_lon": 0.0}, {"rental_uris": {"ios": "https://dc.lft.to/lastmile_qr_scan", "android": "https://dc.lft.to/lastmile_qr_scan"}, "type": "electric_scooter", "name": "06d168476f39d07b444e1eaffb5f273b", "is_reserved": 0, "lon": -77.03515916666667, "is_disabled": 0, "fusion_lat": 0.0, "lat": 38.90968066666667, "bike_id": "06d168476f39d07b444e1eaffb5f273b", "fusion_lon": 0.0}, {"rental_uris": {"ios": "https://dc.lft.to/lastmile_qr_scan", "android": "https://dc.lft.to/lastmile_qr_scan"}, "type": "electric_scooter", "name": "ade9158126cc5daf90d36e53a27abc06", "is_reserved": 0, "lon": -77.02708983333333, "is_disabled": 0, "fusion_lat": 0.0, "lat": 38.920634666666665, "bike_id": "ade9158126cc5daf90d36e53a27abc06", "fusion_lon": 0.0}, {"rental_uris": {"ios": "https://dc.lft.to/lastmile_qr_scan", "android": "https://dc.lft.to/lastmile_qr_scan"}, "type": "electric_scooter", "name": "791991d3ca5167017fa73e5da8749d55", "is_reserved": 0, "lon": -77.04478433333334, "is_disabled": 0, "fusion_lat": 0.0, "lat": 38.91083, "bike_id": "791991d3ca5167017fa73e5da8749d55", "fusion_lon": 0.0}, {"rental_uris": {"ios": "https://dc.lft.to/lastmile_qr_scan", "android": "https://dc.lft.to/lastmile_qr_scan"}, "type": "electric_scooter", "name": "246316ebd9b5b4dcfa6e55e781eb1bf0", "is_reserved": 0, "lon": -77.04246466666666, "is_disabled": 0, "fusion_lat": 0.0, "lat": 38.92277216666667, "bike_id": "246316ebd9b5b4dcfa6e55e781eb1bf0", "fusion_lon": 0.0}, {"rental_uris": {"ios": "https://dc.lft.to/lastmile_qr_scan", "android": "https://dc.lft.to/lastmile_qr_scan"}, "type": "electric_scooter", "name": "636d64ccd04d2066956037d0edb12e8e", "is_reserved": 0, "lon": -77.0639035, "is_disabled": 0, "fusion_lat": 0.0, "lat": 38.90867033333333, "bike_id": "636d64ccd04d2066956037d0edb12e8e", "fusion_lon": 0.0}, {"rental_uris": {"ios": "https://dc.lft.to/lastmile_qr_scan", "android": "https://dc.lft.to/lastmile_qr_scan"}, "type": "electric_bike", "name": "e792d12e009cd3da4491ed4b372e92a2", "is_reserved": 0, "lon": -77.1289505, "is_disabled": 0, "fusion_lat": 0.0, "lat": 38.9060305, "bike_id": "e792d12e009cd3da4491ed4b372e92a2", "fusion_lon": 0.0}, {"rental_uris": {"ios": "https://dc.lft.to/lastmile_qr_scan", "android": "https://dc.lft.to/lastmile_qr_scan"}, "type": "electric_scooter", "name": "53532f29c8d2de92f1119b17e58c97f0", "is_reserved": 0, "lon": -77.05318416666667, "is_disabled": 0, "fusion_lat": 0.0, "lat": 38.940995, "bike_id": "53532f29c8d2de92f1119b17e58c97f0", "fusion_lon": 0.0}, {"rental_uris": {"ios": "https://dc.lft.to/lastmile_qr_scan", "android": "https://dc.lft.to/lastmile_qr_scan"}, "type": "electric_scooter", "name": "4edb4119870f7f09144fdac1595f65b2", "is_reserved": 0, "lon": -77.04009383333333, "is_disabled": 0, "fusion_lat": 0.0, "lat": 38.9343205, "bike_id": "4edb4119870f7f09144fdac1595f65b2", "fusion_lon": 0.0}, {"rental_uris": {"ios": "https://dc.lft.to/lastmile_qr_scan", "android": "https://dc.lft.to/lastmile_qr_scan"}, "type": "electric_scooter", "name": "097666c95c1be8446dd809aa2a2f3606", "is_reserved": 0, "lon": -77.0388265, "is_disabled": 0, "fusion_lat": 0.0, "lat": 38.90341216666667, "bike_id": "097666c95c1be8446dd809aa2a2f3606", "fusion_lon": 0.0}, {"rental_uris": {"ios": "https://dc.lft.to/lastmile_qr_scan", "android": "https://dc.lft.to/lastmile_qr_scan"}, "type": "electric_bike", "name": "eec57a4fd970cdd88336ae107735f717", "is_reserved": 0, "lon": -76.96889816666666, "is_disabled": 0, "fusion_lat": 0.0, "lat": 38.8698785, "bike_id": "eec57a4fd970cdd88336ae107735f717", "fusion_lon": 0.0}, {"rental_uris": {"ios": "https://dc.lft.to/lastmile_qr_scan", "android": "https://dc.lft.to/lastmile_qr_scan"}, "type": "electric_scooter", "name": "9b72a00a1c769a0b7d8cf43d47a7a78f", "is_reserved": 0, "lon": -76.99144816666667, "is_disabled": 0, "fusion_lat": 0.0, "lat": 38.8733875, "bike_id": "9b72a00a1c769a0b7d8cf43d47a7a78f", "fusion_lon": 0.0}, {"rental_uris": {"ios": "https://dc.lft.to/lastmile_qr_scan", "android": "https://dc.lft.to/lastmile_qr_scan"}, "type": "electric_scooter", "name": "0ce9c33e9848d1524a195b547949cd70", "is_reserved": 0, "lon": -77.00068733333333, "is_disabled": 0, "fusion_lat": 0.0, "lat": 38.87691816666667, "bike_id": "0ce9c33e9848d1524a195b547949cd70", "fusion_lon": 0.0}, {"rental_uris": {"ios": "https://dc.lft.to/lastmile_qr_scan", "android": "https://dc.lft.to/lastmile_qr_scan"}, "type": "electric_scooter", "name": "070189c43a7a33cc8cd522288be17024", "is_reserved": 0, "lon": -77.03048016666666, "is_disabled": 0, "fusion_lat": 0.0, "lat": 38.923907166666666, "bike_id": "070189c43a7a33cc8cd522288be17024", "fusion_lon": 0.0}, {"rental_uris": {"ios": "https://dc.lft.to/lastmile_qr_scan", "android": "https://dc.lft.to/lastmile_qr_scan"}, "type": "electric_scooter", "name": "925d17037d9a2d3b2875aa77b4d721ef", "is_reserved": 0, "lon": -77.0247935, "is_disabled": 0, "fusion_lat": 0.0, "lat": 38.8802025, "bike_id": "925d17037d9a2d3b2875aa77b4d721ef", "fusion_lon": 0.0}, {"rental_uris": {"ios": "https://dc.lft.to/lastmile_qr_scan", "android": "https://dc.lft.to/lastmile_qr_scan"}, "type": "electric_scooter", "name": "0f89cf69a9c6115186b97ec27638c488", "is_reserved": 0, "lon": -77.0634375, "is_disabled": 0, "fusion_lat": 0.0, "lat": 38.90847633333333, "bike_id": "0f89cf69a9c6115186b97ec27638c488", "fusion_lon": 0.0}, {"rental_uris": {"ios": "https://dc.lft.to/lastmile_qr_scan", "android": "https://dc.lft.to/lastmile_qr_scan"}, "type": "electric_scooter", "name": "d807d2caad990271e6e1cca5610d6ce5", "is_reserved": 0, "lon": -77.0485715, "is_disabled": 0, "fusion_lat": 0.0, "lat": 38.90363216666667, "bike_id": "d807d2caad990271e6e1cca5610d6ce5", "fusion_lon": 0.0}, {"rental_uris": {"ios": "https://dc.lft.to/lastmile_qr_scan", "android": "https://dc.lft.to/lastmile_qr_scan"}, "type": "electric_scooter", "name": "375846f2e66d80b28975b78dc13bb508", "is_reserved": 0, "lon": -77.048947, "is_disabled": 0, "fusion_lat": 0.0, "lat": 38.90273466666667, "bike_id": "375846f2e66d80b28975b78dc13bb508", "fusion_lon": 0.0}, {"rental_uris": {"ios": "https://dc.lft.to/lastmile_qr_scan", "android": "https://dc.lft.to/lastmile_qr_scan"}, "type": "electric_bike", "name": "c2475c46b84937b6df204b86c69b95c4", "is_reserved": 0, "lon": -77.020321, "is_disabled": 0, "fusion_lat": 0.0, "lat": 38.96559216666667, "bike_id": "c2475c46b84937b6df204b86c69b95c4", "fusion_lon": 0.0}, {"rental_uris": {"ios": "https://dc.lft.to/lastmile_qr_scan", "android": "https://dc.lft.to/lastmile_qr_scan"}, "type": "electric_bike", "name": "000f388852a851100a31929942bf5a92", "is_reserved": 0, "lon": -76.982659, "is_disabled": 0, "fusion_lat": 0.0, "lat": 38.846709, "bike_id": "000f388852a851100a31929942bf5a92", "fusion_lon": 0.0}, {"rental_uris": {"ios": "https://dc.lft.to/lastmile_qr_scan", "android": "https://dc.lft.to/lastmile_qr_scan"}, "type": "electric_scooter", "name": "0195e66fc530ce2469ac9f6afea6d1f1", "is_reserved": 0, "lon": -77.0213625, "is_disabled": 0, "fusion_lat": 0.0, "lat": 38.92489316666666, "bike_id": "0195e66fc530ce2469ac9f6afea6d1f1", "fusion_lon": 0.0}, {"rental_uris": {"ios": "https://dc.lft.to/lastmile_qr_scan", "android": "https://dc.lft.to/lastmile_qr_scan"}, "type": "electric_scooter", "name": "e5d32c73a872ba5bca5ecbd4aed83cb9", "is_reserved": 0, "lon": -77.02877133333334, "is_disabled": 0, "fusion_lat": 0.0, "lat": 38.9035665, "bike_id": "e5d32c73a872ba5bca5ecbd4aed83cb9", "fusion_lon": 0.0}, {"rental_uris": {"ios": "https://dc.lft.to/lastmile_qr_scan", "android": "https://dc.lft.to/lastmile_qr_scan"}, "type": "electric_scooter", "name": "ac6ace01cfca22a49625a9d764c836db", "is_reserved": 0, "lon": -77.02281316666667, "is_disabled": 0, "fusion_lat": 0.0, "lat": 38.9096785, "bike_id": "ac6ace01cfca22a49625a9d764c836db", "fusion_lon": 0.0}, {"rental_uris": {"ios": "https://dc.lft.to/lastmile_qr_scan", "android": "https://dc.lft.to/lastmile_qr_scan"},