{"data": {"bikes": [{"is_reserved": 0, "fusion_lon": 0.0, "lon": -77.046611, "fusion_lat": 0.0, "rental_uris": {"ios": "https://dc.lft.to/lastmile_qr_scan", "android": "https://dc.lft.to/lastmile_qr_scan"}, "bike_id": "9dfd7ffd348e67293f37602ecc817906", "lat": 38.89955416666667, "type": "electric_scooter", "name": "9dfd7ffd348e67293f37602ecc817906", "is_disabled": 0}, {"is_reserved": 0, "fusion_lon": 0.0, "lon": -77.02215566666666, "fusion_lat": 0.0, "rental_uris": {"ios": "https://dc.lft.to/lastmile_qr_scan", "android": "https://dc.lft.to/lastmile_qr_scan"}, "bike_id": "b339467844204be4455d99774a21887b", "lat": 38.914130666666665, "type": "electric_scooter", "name": "b339467844204be4455d99774a21887b", "is_disabled": 0}, {"is_reserved": 0, "fusion_lon": 0.0, "lon": -77.03586966666667, "fusion_lat": 0.0, "rental_uris": {"ios": "https://dc.lft.to/lastmile_qr_scan", "android": "https://dc.lft.to/lastmile_qr_scan"}, "bike_id": "0b1f663505dae5cb6cf4e433615290fc", "lat": 38.91263033333333, "type": "electric_scooter", "name": "0b1f663505dae5cb6cf4e433615290fc", "is_disabled": 0}, {"is_reserved": 0, "fusion_lon": 0.0, "lon": -77.001134, "fusion_lat": 0.0, "rental_uris": {"ios": "https://dc.lft.to/lastmile_qr_scan", "android": "https://dc.lft.to/lastmile_qr_scan"}, "bike_id": "c71b055fddd1edef42c44a1505dbe4f5", "lat": 38.87371, "type": "electric_scooter", "name": "c71b055fddd1edef42c44a1505dbe4f5", "is_disabled": 0}, {"is_reserved": 0, "fusion_lon": 0.0, "lon": -77.07656766666666, "fusion_lat": 0.0, "rental_uris": {"ios": "https://dc.lft.to/lastmile_qr_scan", "android": "https://dc.lft.to/lastmile_qr_scan"}, "bike_id": "5f6a79e56746417510a29c1bdef72840", "lat": 38.943225, "type": "electric_scooter", "name": "5f6a79e56746417510a29c1bdef72840", "is_disabled": 0}, {"is_reserved": 0, "fusion_lon": 0.0, "lon": -77.035239, "fusion_lat": 0.0, "rental_uris": {"ios": "https://dc.lft.to/lastmile_qr_scan", "android": "https://dc.lft.to/lastmile_qr_scan"}, "bike_id": "8abc799c6b4cf01ac004246950cec688", "lat": 38.92532966666667, "type": "electric_scooter", "name": "8abc799c6b4cf01ac004246950cec688", "is_disabled": 0}, {"is_reserved": 0, "fusion_lon": 0.0, "lon": -77.01956083333333, "fusion_lat": 0.0, "rental_uris": {"ios": "https://dc.lft.to/lastmile_qr_scan", "android": "https://dc.lft.to/lastmile_qr_scan"}, "bike_id": "a8a92c7ce9be7ba6a0b85100f51f0861", "lat": 38.92414466666666, "type": "electric_scooter", "name": "a8a92c7ce9be7ba6a0b85100f51f0861", "is_disabled": 0}, {"is_reserved": 0, "fusion_lon": 0.0, "lon": -77.04534683333333, "fusion_lat": 0.0, "rental_uris": {"ios": "https://dc.lft.to/lastmile_qr_scan", "android": "https://dc.lft.to/lastmile_qr_scan"}, "bike_id": "67e322d18ef4ed565b0f01e380d36005", "lat": 38.91203433333333, "type": "electric_scooter", "name": "67e322d18ef4ed565b0f01e380d36005", "is_disabled": 0}, {"is_reserved": 0, "fusion_lon": 0.0, "lon": -77.04229066666667, "fusion_lat": 0.0, "rental_uris": {"ios": "https://dc.lft.to/lastmile_qr_scan", "android": "https://dc.lft.to/lastmile_qr_scan"}, "bike_id": "e546a1209b3eb7e0c32b6d5a9e8f92b9", "lat": 38.92302866666667, "type": "electric_scooter", "name": "e546a1209b3eb7e0c32b6d5a9e8f92b9", "is_disabled": 0}, {"is_reserved": 0, "fusion_lon": 0.0, "lon": -77.043803, "fusion_lat": 0.0, "rental_uris": {"ios": "https://dc.lft.to/lastmile_qr_scan", "android": "https://dc.lft.to/lastmile_qr_scan"}, "bike_id": "b7b04435894da2d87fef43640ebd10c8", "lat": 38.892208833333335, "type": "electric_scooter", "name": "b7b04435894da2d87fef43640ebd10c8", "is_disabled": 0}, {"is_reserved": 0, "fusion_lon": 0.0, "lon": -77.0512545, "fusion_lat": 0.0, "rental_uris": {"ios": "https://dc.lft.to/lastmile_qr_scan", "android": "https://dc.lft.to/lastmile_qr_scan"}, "bike_id": "fc053060226ab5554104c1844b5d2170", "lat": 38.92518616666667, "type": "electric_scooter", "name": "fc053060226ab5554104c1844b5d2170", "is_disabled": 0}, {"is_reserved": 0, "fusion_lon": 0.0, "lon": -77.01759366666667, "fusion_lat": 0.0, "rental_uris": {"ios": "https://dc.lft.to/lastmile_qr_scan", "android": "https://dc.lft.to/lastmile_qr_scan"}, "bike_id": "619f3ab2f278f6f316a41604e1aadbe8", "lat": 38.9013, "type": "electric_scooter", "name": "619f3ab2f278f6f316a41604e1aadbe8", "is_disabled": 0}, {"is_reserved": 0, "fusion_lon": 0.0, "lon": -77.02713216666666, "fusion_lat": 0.0, "rental_uris": {"ios": "https://dc.lft.to/lastmile_qr_scan", "android": "https://dc.lft.to/lastmile_qr_scan"}, "bike_id": "b6304964156e5b1f51b98aabc9b27f0c", "lat": 38.915493833333336, "type": "electric_scooter", "name": "b6304964156e5b1f51b98aabc9b27f0c", "is_disabled": 0}, {"is_reserved": 0, "fusion_lon": 0.0, "lon": -77.02518683333334, "fusion_lat": 0.0, "rental_uris": {"ios": "https://dc.lft.to/lastmile_qr_scan", "android": "https://dc.lft.to/lastmile_qr_scan"}, "bike_id": "840a783ec2af26734917809f743cb45e", "lat": 38.920858, "type": "electric_scooter", "name": "840a783ec2af26734917809f743cb45e", "is_disabled": 0}, {"is_reserved": 0, "fusion_lon": 0.0, "lon": -76.9733085, "fusion_lat": 0.0, "rental_uris": {"ios": "https://dc.lft.to/lastmile_qr_scan", "android": "https://dc.lft.to/lastmile_qr_scan"}, "bike_id": "937bdfaffd19c9133a0a28a024a007ac", "lat": 38.865168, "type": "electric_scooter", "name": "937bdfaffd19c9133a0a28a024a007ac", "is_disabled": 0}, {"is_reserved": 0, "fusion_lon": 0.0, "lon": -77.02136033333333, "fusion_lat": 0.0, "rental_uris": {"ios": "https://dc.lft.to/lastmile_qr_scan", "android": "https://dc.lft.to/lastmile_qr_scan"}, "bike_id": "f95ae2a341037ebb4cd3a63e5f9e3ebd", "lat": 38.9230525, "type": "electric_scooter", "name": "f95ae2a341037ebb4cd3a63e5f9e3ebd", "is_disabled": 0}, {"is_reserved": 0, "fusion_lon": 0.0, "lon": -77.0388965, "fusion_lat": 0.0, "rental_uris": {"ios": "https://dc.lft.to/lastmile_qr_scan", "android": "https://dc.lft.to/lastmile_qr_scan"}, "bike_id": "3b93dda11509e9390bce107b2d012a48", "lat": 38.90144816666667, "type": "electric_scooter", "name": "3b93dda11509e9390bce107b2d012a48", "is_disabled": 0}, {"is_reserved": 0, "fusion_lon": 0.0, "lon": -76.94640633333333, "fusion_lat": 0.0, "rental_uris": {"ios": "https://dc.lft.to/lastmile_qr_scan", "android": "https://dc.lft.to/lastmile_qr_scan"}, "bike_id": "44d365bbba1b5f93a679ce01f81d3768", "lat": 38.898677666666664, "type": "electric_scooter", "name": "44d365bbba1b5f93a679ce01f81d3768", "is_disabled": 0}, {"is_reserved": 0, "fusion_lon": 0.0, "lon": -77.00805466666667, "fusion_lat": 0.0, "rental_uris": {"ios": "https://dc.lft.to/lastmile_qr_scan", "android": "https://dc.lft.to/lastmile_qr_scan"}, "bike_id": "c0b61e82289e744c89106c16aec1cb50", "lat": 38.8315835, "type": "electric_scooter", "name": "c0b61e82289e744c89106c16aec1cb50", "is_disabled": 0}, {"is_reserved": 0, "fusion_lon": 0.0, "lon": -77.04336783333333, "fusion_lat": 0.0, "rental_uris": {"ios": "https://dc.lft.to/lastmile_qr_scan", "android": "https://dc.lft.to/lastmile_qr_scan"}, "bike_id": "3a5bf688ad6bc3a32738053de1ebbfca", "lat": 38.90617433333333, "type": "electric_scooter", "name": "3a5bf688ad6bc3a32738053de1ebbfca", "is_disabled": 0}, {"is_reserved": 0, "fusion_lon": 0.0, "lon": -77.04355083333333, "fusion_lat": 0.0, "rental_uris": {"ios": "https://dc.lft.to/lastmile_qr_scan", "android": "https://dc.lft.to/lastmile_qr_scan"}, "bike_id": "1a0e4034a500ed7db3436efdecd8a9f1", "lat": 38.903899833333334, "type": "electric_scooter", "name": "1a0e4034a500ed7db3436efdecd8a9f1", "is_disabled": 0}, {"is_reserved": 0, "fusion_lon": 0.0, "lon": -77.02717, "fusion_lat": 0.0, "rental_uris": {"ios": "https://dc.lft.to/lastmile_qr_scan", "android": "https://dc.lft.to/lastmile_qr_scan"}, "bike_id": "cb22ce8a95902b5638ff464cd25d7755", "lat": 38.91713633333333, "type": "electric_scooter", "name": "cb22ce8a95902b5638ff464cd25d7755", "is_disabled": 0}, {"is_reserved": 0, "fusion_lon": 0.0, "lon": -77.02497233333334, "fusion_lat": 0.0, "rental_uris": {"ios": "https://dc.lft.to/lastmile_qr_scan", "android": "https://dc.lft.to/lastmile_qr_scan"}, "bike_id": "ee53c3930894340907070d9413026b5a", "lat": 38.8974655, "type": "electric_scooter", "name": "ee53c3930894340907070d9413026b5a", "is_disabled": 0}, {"is_reserved": 0, "fusion_lon": 0.0, "lon": -77.036829, "fusion_lat": 0.0, "rental_uris": {"ios": "https://dc.lft.to/lastmile_qr_scan", "android": "https://dc.lft.to/lastmile_qr_scan"}, "bike_id": "d88ce4a956bda7b420d59e91853bc778", "lat": 38.909554666666665, "type": "electric_scooter", "name": "d88ce4a956bda7b420d59e91853bc778", "is_disabled": 0}, {"is_reserved": 0, "fusion_lon": 0.0, "lon": -77.0178235, "fusion_lat": 0.0, "rental_uris": {"ios": "https://dc.lft.to/lastmile_qr_scan", "android": "https://dc.lft.to/lastmile_qr_scan"}, "bike_id": "0e3add59a3df1995848ee6187bf86aa1", "lat": 38.87454966666667, "type": "electric_scooter", "name": "0e3add59a3df1995848ee6187bf86aa1", "is_disabled": 0}, {"is_reserved": 0, "fusion_lon": 0.0, "lon": -77.02172516666667, "fusion_lat": 0.0, "rental_uris": {"ios": "https://dc.lft.to/lastmile_qr_scan", "android": "https://dc.lft.to/lastmile_qr_scan"}, "bike_id": "913c4435ae643279ef389b9ee91a4614", "lat": 38.926274166666666, "type": "electric_scooter", "name": "913c4435ae643279ef389b9ee91a4614", "is_disabled": 0}, {"is_reserved": 0, "fusion_lon": 0.0, "lon": -77.0453075, "fusion_lat": 0.0, "rental_uris": {"ios": "https://dc.lft.to/lastmile_qr_scan", "android": "https://dc.lft.to/lastmile_qr_scan"}, "bike_id": "39eef467f7548531e1e568285c318888", "lat": 38.894711, "type": "electric_scooter", "name": "39eef467f7548531e1e568285c318888", "is_disabled": 0}, {"is_reserved": 0, "fusion_lon": 0.0, "lon": -77.03214983333334, "fusion_lat": 0.0, "rental_uris": {"ios": "https://dc.lft.to/lastmile_qr_scan", "android": "https://dc.lft.to/lastmile_qr_scan"}, "bike_id": "57d3fdc15fd7db18409d07f90027fd13", "lat": 38.922813, "type": "electric_scooter", "name": "57d3fdc15fd7db18409d07f90027fd13", "is_disabled": 0}, {"is_reserved": 0, "fusion_lon": 0.0, "lon": -77.034621, "fusion_lat": 0.0, "rental_uris": {"ios": "https://dc.lft.to/lastmile_qr_scan", "android": "https://dc.lft.to/lastmile_qr_scan"}, "bike_id": "bec14bcfaf993d41d4140c2547e7ae29", "lat": 38.90247, "type": "electric_scooter", "name": "bec14bcfaf993d41d4140c2547e7ae29", "is_disabled": 0}, {"is_reserved": 0, "fusion_lon": 0.0, "lon": -77.0383655, "fusion_lat": 0.0, "rental_uris": {"ios": "https://dc.lft.to/lastmile_qr_scan", "android": "https://dc.lft.to/lastmile_qr_scan"}, "bike_id": "8de99372f9d8d4f867c29edba891d760", "lat": 38.903321, "type": "electric_scooter", "name": "8de99372f9d8d4f867c29edba891d760", "is_disabled": 0}, {"is_reserved": 0, "fusion_lon": 0.0, "lon": -77.03582233333333, "fusion_lat": 0.0, "rental_uris": {"ios": "https://dc.lft.to/lastmile_qr_scan", "android": "https://dc.lft.to/lastmile_qr_scan"}, "bike_id": "08da2e23770b8c29bcc670e55d8b647f", "lat": 38.91871916666667, "type": "electric_scooter", "name": "08da2e23770b8c29bcc670e55d8b647f", "is_disabled": 0}, {"is_reserved": 0, "fusion_lon": 0.0, "lon": -76.96017483333333, "fusion_lat": 0.0, "rental_uris": {"ios": "https://dc.lft.to/lastmile_qr_scan", "android": "https://dc.lft.to/lastmile_qr_scan"}, "bike_id": "ca3e882fae9fc8df79129d5cd70edefe", "lat": 38.86930916666667, "type": "electric_scooter", "name": "ca3e882fae9fc8df79129d5cd70edefe", "is_disabled": 0}, {"is_reserved": 0, "fusion_lon": 0.0, "lon": -77.02709766666666, "fusion_lat": 0.0, "rental_uris": {"ios": "https://dc.lft.to/lastmile_qr_scan", "android": "https://dc.lft.to/lastmile_qr_scan"}, "bike_id": "4719e8acc42d8bc0cd2e5926165c4cfc", "lat": 38.91794483333334, "type": "electric_scooter", "name": "4719e8acc42d8bc0cd2e5926165c4cfc", "is_disabled": 0}, {"is_reserved": 0, "fusion_lon": 0.0, "lon": -77.03444716666667, "fusion_lat": 0.0, "rental_uris": {"ios": "https://dc.lft.to/lastmile_qr_scan", "android": "https://dc.lft.to/lastmile_qr_scan"}, "bike_id": "ac30f2ba38048584b1d20c8e1c112a98", "lat": 38.907040333333335, "type": "electric_scooter", "name": "ac30f2ba38048584b1d20c8e1c112a98", "is_disabled": 0}, {"is_reserved": 0, "fusion_lon": 0.0, "lon": -76.90423966666667, "fusion_lat": 0.0, "rental_uris": {"ios": "https://dc.lft.to/lastmile_qr_scan", "android": "https://dc.lft.to/lastmile_qr_scan"}, "bike_id": "4e92615eb8a91b9fba8c201bd644c878", "lat": 38.94043033333333, "type": "electric_bike", "name": "4e92615eb8a91b9fba8c201bd644c878", "is_disabled": 0}, {"is_reserved": 0, "fusion_lon": 0.0, "lon": -77.02414283333333, "fusion_lat": 0.0, "rental_uris": {"ios": "https://dc.lft.to/lastmile_qr_scan", "android": "https://dc.lft.to/lastmile_qr_scan"}, "bike_id": "1720e226113cf18fcfba9093cba9a7da", "lat": 38.892226666666666, "type": "electric_scooter", "name": "1720e226113cf18fcfba9093cba9a7da", "is_disabled": 0}, {"is_reserved": 0, "fusion_lon": 0.0, "lon": -77.025041, "fusion_lat": 0.0, "rental_uris": {"ios": "https://dc.lft.to/lastmile_qr_scan", "android": "https://dc.lft.to/lastmile_qr_scan"}, "bike_id": "f9080cd1564a2aac3eff5d7f1ac19a19", "lat": 38.91812483333333, "type": "electric_scooter", "name": "f9080cd1564a2aac3eff5d7f1ac19a19", "is_disabled": 0}, {"is_reserved": 0, "fusion_lon": 0.0, "lon": -77.0177975, "fusion_lat": 0.0, "rental_uris": {"ios": "https://dc.lft.to/lastmile_qr_scan", "android": "https://dc.lft.to/lastmile_qr_scan"}, "bike_id": "6f86a9b865c44969d6dfe96401bed9e1", "lat": 38.9195815, "type": "electric_scooter", "name": "6f86a9b865c44969d6dfe96401bed9e1", "is_disabled": 0}, {"is_reserved": 0, "fusion_lon": 0.0, "lon": -77.04595983333333, "fusion_lat": 0.0, "rental_uris": {"ios": "https://dc.lft.to/lastmile_qr_scan", "android": "https://dc.lft.to/lastmile_qr_scan"}, "bike_id": "6856333e9e14b8a7e6dea333690c6573", "lat": 38.92138716666667, "type": "electric_scooter", "name": "6856333e9e14b8a7e6dea333690c6573", "is_disabled": 0}, {"is_reserved": 0, "fusion_lon": 0.0, "lon": -77.0435735, "fusion_lat": 0.0, "rental_uris": {"ios": "https://dc.lft.to/lastmile_qr_scan", "android": "https://dc.lft.to/lastmile_qr_scan"}, "bike_id": "634770af6a6b0f0ddf674f20bacfb4d7", "lat": 38.91034766666667, "type": "electric_scooter", "name": "634770af6a6b0f0ddf674f20bacfb4d7", "is_disabled": 0}, {"is_reserved": 0, "fusion_lon": 0.0, "lon": -77.23411116666666, "fusion_lat": 0.0, "rental_uris": {"ios": "https://dc.lft.to/lastmile_qr_scan", "android": "https://dc.lft.to/lastmile_qr_scan"}, "bike_id": "c3503023e05afe34a7237a2702f24188", "lat": 38.87579866666667, "type": "electric_bike", "name": "c3503023e05afe34a7237a2702f24188", "is_disabled": 0}, {"is_reserved": 0, "fusion_lon": 0.0, "lon": -77.021805, "fusion_lat": 0.0, "rental_uris": {"ios": "https://dc.lft.to/lastmile_qr_scan", "android": "https://dc.lft.to/lastmile_qr_scan"}, "bike_id": "b3b4f7888426ea4b2c8d747e124e4a57", "lat": 38.9002065, "type": "electric_scooter", "name": "b3b4f7888426ea4b2c8d747e124e4a57", "is_disabled": 0}, {"is_reserved": 0, "fusion_lon": 0.0, "lon": -77.0098715, "fusion_lat": 0.0, "rental_uris": {"ios": "https://dc.lft.to/lastmile_qr_scan", "android": "https://dc.lft.to/lastmile_qr_scan"}, "bike_id": "89cda7f44588b6b07453b6c546a2333c", "lat": 38.8728685, "type": "electric_scooter", "name": "89cda7f44588b6b07453b6c546a2333c", "is_disabled": 0}, {"is_reserved": 0, "fusion_lon": 0.0, "lon": -77.02217116666667, "fusion_lat": 0.0, "rental_uris": {"ios": "https://dc.lft.to/lastmile_qr_scan", "android": "https://dc.lft.to/lastmile_qr_scan"}, "bike_id": "a979d47a75191ef309973122a274986a", "lat": 38.9141605, "type": "electric_scooter", "name": "a979d47a75191ef309973122a274986a", "is_disabled": 0}, {"is_reserved": 0, "fusion_lon": 0.0, "lon": -77.0322665, "fusion_lat": 0.0, "rental_uris": {"ios": "https://dc.lft.to/lastmile_qr_scan", "android": "https://dc.lft.to/lastmile_qr_scan"}, "bike_id": "bf23caef6a90123edceab5ce2be37159", "lat": 38.91636533333333, "type": "electric_scooter", "name": "bf23caef6a90123edceab5ce2be37159", "is_disabled": 0}, {"is_reserved": 0, "fusion_lon": 0.0, "lon": -77.031425, "fusion_lat": 0.0, "rental_uris": {"ios": "https://dc.lft.to/lastmile_qr_scan", "android": "https://dc.lft.to/lastmile_qr_scan"}, "bike_id": "f446f5b7c446d80fac45ceef3b10f0a5", "lat": 38.915996, "type": "electric_scooter", "name": "f446f5b7c446d80fac45ceef3b10f0a5", "is_disabled": 0}, {"is_reserved": 0, "fusion_lon": 0.0, "lon": -76.94703283333334, "fusion_lat": 0.0, "rental_uris": {"ios": "https://dc.lft.to/lastmile_qr_scan", "android": "https://dc.lft.to/lastmile_qr_scan"}, "bike_id": "feb46ff4f61ec1d387b307f1e9eaebde", "lat": 38.8936325, "type": "electric_scooter", "name": "feb46ff4f61ec1d387b307f1e9eaebde", "is_disabled": 0}, {"is_reserved": 0, "fusion_lon": 0.0, "lon": -77.04330683333333, "fusion_lat": 0.0, "rental_uris": {"ios": "https://dc.lft.to/lastmile_qr_scan", "android": "https://dc.lft.to/lastmile_qr_scan"}, "bike_id": "38e2fd54665c34745b4d2bbf8e7f8ebd", "lat": 38.9261645, "type": "electric_scooter", "name": "38e2fd54665c34745b4d2bbf8e7f8ebd", "is_disabled": 0}, {"is_reserved": 0, "fusion_lon": 0.0, "lon": -76.98507933333333, "fusion_lat": 0.0, "rental_uris": {"ios": "https://dc.lft.to/lastmile_qr_scan", "android": "https://dc.lft.to/lastmile_qr_scan"}, "bike_id": "133f8f98c3aca0b972dd26a8e2c9de17", "lat": 38.860573, "type": "electric_scooter", "name": "133f8f98c3aca0b972dd26a8e2c9de17", "is_disabled": 0}, {"is_reserved": 0, "fusion_lon": 0.0, "lon": -77.02340283333334, "fusion_lat": 0.0, "rental_uris": {"ios": "https://dc.lft.to/lastmile_qr_scan", "android": "https://dc.lft.to/lastmile_qr_scan"}, "bike_id": "fb5db978b7760b899735f834a274e666", "lat": 38.9270795, "type": "electric_scooter", "name": "fb5db978b7760b899735f834a274e666", "is_disabled": 0}, {"is_reserved": 0, "fusion_lon": 0.0, "lon": -77.03352966666667, "fusion_lat": 0.0, "rental_uris": {"ios": "https://dc.lft.to/lastmile_qr_scan", "android": "https://dc.lft.to/lastmile_qr_scan"}, "bike_id": "e7479c47add246e49fa55c590e49aea7", "lat": 38.93586633333334, "type": "electric_scooter", "name": "e7479c47add246e49fa55c590e49aea7", "is_disabled": 0}, {"is_reserved": 0, "fusion_lon": 0.0, "lon": -77.0338965, "fusion_lat": 0.0, "rental_uris": {"ios": "https://dc.lft.to/lastmile_qr_scan", "android": "https://dc.lft.to/lastmile_qr_scan"}, "bike_id": "4e735e6452e9c3b4a638fa41b6424624", "lat": 38.9253975, "type": "electric_scooter", "name": "4e735e6452e9c3b4a638fa41b6424624", "is_disabled": 0}, {"is_reserved": 0, "fusion_lon": 0.0, "lon": -77.032464, "fusion_lat": 0.0, "rental_uris": {"ios": "https://dc.lft.to/lastmile_qr_scan", "android": "https://dc.lft.to/lastmile_qr_scan"}, "bike_id": "7e434f56a12ef1bdd2282d7d77941e16", "lat": 38.927243833333335, "type": "electric_scooter", "name": "7e434f56a12ef1bdd2282d7d77941e16", "is_disabled": 0}, {"is_reserved": 0, "fusion_lon": 0.0, "lon": -77.0528145, "fusion_lat": 0.0, "rental_uris": {"ios": "https://dc.lft.to/lastmile_qr_scan", "android": "https://dc.lft.to/lastmile_qr_scan"}, "bike_id": "ff9af2246c31a100e702610b067575d5", "lat": 38.910161, "type": "electric_scooter", "name": "ff9af2246c31a100e702610b067575d5", "is_disabled": 0}, {"is_reserved": 0, "fusion_lon": 0.0, "lon": -77.038456, "fusion_lat": 0.0, "rental_uris": {"ios": "https://dc.lft.to/lastmile_qr_scan", "android": "https://dc.lft.to/lastmile_qr_scan"}, "bike_id": "9768649c3d7db1e1fdf8d899d55fa15c", "lat": 38.90982916666667, "type": "electric_scooter", "name": "9768649c3d7db1e1fdf8d899d55fa15c", "is_disabled": 0}, {"is_reserved": 0, "fusion_lon": 0.0, "lon": -77.0384465, "fusion_lat": 0.0, "rental_uris": {"ios": "https://dc.lft.to/lastmile_qr_scan", "android": "https://dc.lft.to/lastmile_qr_scan"}, "bike_id": "54a57bd10826fea3c8ed92fa31bb74b4", "lat": 38.90969966666667, "type": "electric_scooter", "name": "54a57bd10826fea3c8ed92fa31bb74b4", "is_disabled": 0}, {"is_reserved": 0, "fusion_lon": 0.0, "lon": -77.05342433333334, "fusion_lat": 0.0, "rental_uris": {"ios": "https://dc.lft.to/lastmile_qr_scan", "android": "https://dc.lft.to/lastmile_qr_scan"}, "bike_id": "31aff4bbedcc40d35e1c98c19a36b1ff", "lat": 39.040826333333335, "type": "electric_bike", "name": "31aff4bbedcc40d35e1c98c19a36b1ff", "is_disabled": 0}, {"is_reserved": 0, "fusion_lon": 0.0, "lon": -77.0328475, "fusion_lat": 0.0, "rental_uris": {"ios": "https://dc.lft.to/lastmile_qr_scan", "android": "https://dc.lft.to/lastmile_qr_scan"}, "bike_id": "4e7d44fa4770e01f9ab286f117edb0c5", "lat": 38.92276733333333, "type": "electric_scooter", "name": "4e7d44fa4770e01f9ab286f117edb0c5", "is_disabled": 0}, {"is_reserved": 0, "fusion_lon": 0.0, "lon": -76.99275266666666, "fusion_lat": 0.0, "rental_uris": {"ios": "https://dc.lft.to/lastmile_qr_scan", "android": "https://dc.lft.to/lastmile_qr_scan"}, "bike_id": "f91e203d615a16c43471e18ad2838526", "lat": 38.97252366666667, "type": "electric_bike", "name": "f91e203d615a16c43471e18ad2838526", "is_disabled": 0}, {"is_reserved": 0, "fusion_lon": 0.0, "lon": -77.04572783333333, "fusion_lat": 0.0, "rental_uris": {"ios": "https://dc.lft.to/lastmile_qr_scan", "android": "https://dc.lft.to/lastmile_qr_scan"}, "bike_id": "dcecb0df307fe3c98d2e21f554fa3954", "lat": 38.908556833333336, "type": "electric_scooter", "name": "dcecb0df307fe3c98d2e21f554fa3954", "is_disabled": 0}, {"is_reserved": 0, "fusion_lon": 0.0, "lon": -77.03850783333333, "fusion_lat": 0.0, "rental_uris": {"ios": "https://dc.lft.to/lastmile_qr_scan", "android": "https://dc.lft.to/lastmile_qr_scan"}, "bike_id": "e1a271721d34f9d8bc420faa5ea0f2e9", "lat": 38.90266283333333, "type": "electric_scooter", "name": "e1a271721d34f9d8bc420faa5ea0f2e9", "is_disabled": 0}, {"is_reserved": 0, "fusion_lon": 0.0, "lon": -76.99622833333333, "fusion_lat": 0.0, "rental_uris": {"ios": "https://dc.lft.to/lastmile_qr_scan", "android": "https://dc.lft.to/lastmile_qr_scan"}, "bike_id": "59d3d7d7e941c910948fa4a6b44c3299", "lat": 38.9506675, "type": "electric_scooter", "name": "59d3d7d7e941c910948fa4a6b44c3299", "is_disabled": 0}, {"is_reserved": 0, "fusion_lon": 0.0, "lon": -77.03375916666667, "fusion_lat": 0.0, "rental_uris": {"ios": "https://dc.lft.to/lastmile_qr_scan", "android": "https://dc.lft.to/lastmile_qr_scan"}, "bike_id": "9e5cfd2e17627c2fdb97fe248cfe6a25", "lat": 38.91710633333334, "type": "electric_scooter", "name": "9e5cfd2e17627c2fdb97fe248cfe6a25", "is_disabled": 0}, {"is_reserved": 0, "fusion_lon": 0.0, "lon": -77.05185283333333, "fusion_lat": 0.0, "rental_uris": {"ios": "https://dc.lft.to/lastmile_qr_scan", "android": "https://dc.lft.to/lastmile_qr_scan"}, "bike_id": "e40b79ae8d2e30d5337622d39a1e4f28", "lat": 38.92422366666667, "type": "electric_scooter", "name": "e40b79ae8d2e30d5337622d39a1e4f28", "is_disabled": 0}, {"is_reserved": 0, "fusion_lon": 0.0, "lon": -77.04230033333333, "fusion_lat": 0.0, "rental_uris": {"ios": "https://dc.lft.to/lastmile_qr_scan", "android": "https://dc.lft.to/lastmile_qr_scan"}, "bike_id": "0fefbb338cb0a8858cba5c85891dd756", "lat": 38.9261195, "type": "electric_scooter", "name": "0fefbb338cb0a8858cba5c85891dd756", "is_disabled": 0}, {"is_reserved": 0, "fusion_lon": 0.0, "lon": -77.03349133333333, "fusion_lat": 0.0, "rental_uris": {"ios": "https://dc.lft.to/lastmile_qr_scan", "android": "https://dc.lft.to/lastmile_qr_scan"}, "bike_id": "3df5d34c7cd4e46325cd8cfce4877a9d", "lat": 38.917133, "type": "electric_scooter", "name": "3df5d34c7cd4e46325cd8cfce4877a9d", "is_disabled": 0}, {"is_reserved": 0, "fusion_lon": 0.0, "lon": -77.02785, "fusion_lat": 0.0, "rental_uris": {"ios": "https://dc.lft.to/lastmile_qr_scan", "android": "https://dc.lft.to/lastmile_qr_scan"}, "bike_id": "c004ce63042c2af2fb4e9d6c04cc839c", "lat": 38.917118333333335, "type": "electric_scooter", "name": "c004ce63042c2af2fb4e9d6c04cc839c", "is_disabled": 0}, {"is_reserved": 0, "fusion_lon": 0.0, "lon": -77.10688066666667, "fusion_lat": 0.0, "rental_uris": {"ios": "https://dc.lft.to/lastmile_qr_scan", "android": "https://dc.lft.to/lastmile_qr_scan"}, "bike_id": "45147c9406381dd2ebdc22ac7cff68cb", "lat": 38.864421166666666, "type": "electric_bike", "name": "45147c9406381dd2ebdc22ac7cff68cb", "is_disabled": 0}, {"is_reserved": 0, "fusion_lon": 0.0, "lon": -77.05132616666667, "fusion_lat": 0.0, "rental_uris": {"ios": "https://dc.lft.to/lastmile_qr_scan", "android": "https://dc.lft.to/lastmile_qr_scan"}, "bike_id": "16f98f5cdf1b592d6193379d923a4732", "lat": 38.923630833333334, "type": "electric_scooter", "name": "16f98f5cdf1b592d6193379d923a4732", "is_disabled": 0}, {"is_reserved": 0, "fusion_lon": 0.0, "lon": -77.05586333333333, "fusion_lat": 0.0, "rental_uris": {"ios": "https://dc.lft.to/lastmile_qr_scan", "android": "https://dc.lft.to/lastmile_qr_scan"}, "bike_id": "a92088d51e6c0da51e9e351ec2b232fb", "lat": 38.934305333333334, "type": "electric_scooter", "name": "a92088d51e6c0da51e9e351ec2b232fb", "is_disabled": 0}, {"is_reserved": 0, "fusion_lon": 0.0, "lon": -77.02622183333334, "fusion_lat": 0.0, "rental_uris": {"ios": "https://dc.lft.to/lastmile_qr_scan", "android": "https://dc.lft.to/lastmile_qr_scan"}, "bike_id": "8e45e013de0e9c0e802180a31719656d", "lat": 38.8984045, "type": "electric_scooter", "name": "8e45e013de0e9c0e802180a31719656d", "is_disabled": 0}, {"is_reserved": 0, "fusion_lon": 0.0, "lon": -77.05711466666666, "fusion_lat": 0.0, "rental_uris": {"ios": "https://dc.lft.to/lastmile_qr_scan", "android": "https://dc.lft.to/lastmile_qr_scan"}, "bike_id": "72394db72236c2b297eaaa97975be496", "lat": 38.9337985, "type": "electric_scooter", "name": "72394db72236c2b297eaaa97975be496", "is_disabled": 0}, {"is_reserved": 0, "fusion_lon": 0.0, "lon": -76.9866085, "fusion_lat": 0.0, "rental_uris": {"ios": "https://dc.lft.to/lastmile_qr_scan", "android": "https://dc.lft.to/lastmile_qr_scan"}, "bike_id": "0218539adb78a295ca0507b2fe50aea8", "lat": 38.910676333333335, "type": "electric_scooter", "name": "0218539adb78a295ca0507b2fe50aea8", "is_disabled": 0}, {"is_reserved": 0, "fusion_lon": 0.0, "lon": -77.02326916666667, "fusion_lat": 0.0, "rental_uris": {"ios": "https://dc.lft.to/lastmile_qr_scan", "android": "https://dc.lft.to/lastmile_qr_scan"}, "bike_id": "a38675e074355f353476df3b8609e288", "lat": 38.907173666666665, "type": "electric_scooter", "name": "a38675e074355f353476df3b8609e288", "is_disabled": 0}, {"is_reserved": 0, "fusion_lon": 0.0, "lon": -77.03304533333333, "fusion_lat": 0.0, "rental_uris": {"ios": "https://dc.lft.to/lastmile_qr_scan", "android": "https://dc.lft.to/lastmile_qr_scan"}, "bike_id": "c18c205be776e5c30f3988705644455d", "lat": 38.90975983333333, "type": "electric_scooter", "name": "c18c205be776e5c30f3988705644455d", "is_disabled": 0}, {"is_reserved": 0, "fusion_lon": 0.0, "lon": -77.00744, "fusion_lat": 0.0, "rental_uris": {"ios": "https://dc.lft.to/lastmile_qr_scan", "android": "https://dc.lft.to/lastmile_qr_scan"}, "bike_id": "1a4183edafa4212d5959830cd86cabd6", "lat": 38.877919, "type": "electric_scooter", "name": "1a4183edafa4212d5959830cd86cabd6", "is_disabled": 0}, {"is_reserved": 0, "fusion_lon": 0.0, "lon": -77.0568005, "fusion_lat": 0.0, "rental_uris": {"ios": "https://dc.lft.to/lastmile_qr_scan", "android": "https://dc.lft.to/lastmile_qr_scan"}, "bike_id": "dfb611cd606bf890abe0c5b1311a7823", "lat": 38.93159466666667, "type": "electric_scooter", "name": "dfb611cd606bf890abe0c5b1311a7823", "is_disabled": 0}, {"is_reserved": 0, "fusion_lon": 0.0, "lon": -77.03587666666667, "fusion_lat": 0.0, "rental_uris": {"ios": "https://dc.lft.to/lastmile_qr_scan", "android": "https://dc.lft.to/lastmile_qr_scan"}, "bike_id": "479bb5e13e768e5b640b0eaa0e80b396", "lat": 38.92329216666667, "type": "electric_scooter", "name": "479bb5e13e768e5b640b0eaa0e80b396", "is_disabled": 0}, {"is_reserved": 0, "fusion_lon": 0.0, "lon": -77.0237805, "fusion_lat": 0.0, "rental_uris": {"ios": "https://dc.lft.to/lastmile_qr_scan", "android": "https://dc.lft.to/lastmile_qr_scan"}, "bike_id": "120cad1ba78cc83df34badae69d4b848", "lat": 38.907275, "type": "electric_scooter", "name": "120cad1ba78cc83df34badae69d4b848", "is_disabled": 0}, {"is_reserved": 0, "fusion_lon": 0.0, "lon": -77.03357083333333, "fusion_lat": 0.0, "rental_uris": {"ios": "https://dc.lft.to/lastmile_qr_scan", "android": "https://dc.lft.to/lastmile_qr_scan"}, "bike_id": "8a65964b4d46641a358fefbb827118b6", "lat": 38.90717316666667, "type": "electric_scooter", "name": "8a65964b4d46641a358fefbb827118b6", "is_disabled": 0}, {"is_reserved": 0, "fusion_lon": 0.0, "lon": -76.998388, "fusion_lat": 0.0, "rental_uris": {"ios": "https://dc.lft.to/lastmile_qr_scan", "android": "https://dc.lft.to/lastmile_qr_scan"}, "bike_id": "a4e636a2c59f6ef924373aa5ffc8dbda", "lat": 38.900549, "type": "electric_scooter", "name": "a4e636a2c59f6ef924373aa5ffc8dbda", "is_disabled": 0}, {"is_reserved": 0, "fusion_lon": 0.0, "lon": -76.98910583333333, "fusion_lat": 0.0, "rental_uris": {"ios": "https://dc.lft.to/lastmile_qr_scan", "android": "https://dc.lft.to/lastmile_qr_scan"}, "bike_id": "dd6cfd2ff8a6ecdd790c843d6d0d4e02", "lat": 38.9002725, "type": "electric_scooter", "name": "dd6cfd2ff8a6ecdd790c843d6d0d4e02", "is_disabled": 0}, {"is_reserved": 0, "fusion_lon": 0.0, "lon": -77.02459333333333, "fusion_lat": 0.0, "rental_uris": {"ios": "https://dc.lft.to/lastmile_qr_scan", "android": "https://dc.lft.to/lastmile_qr_scan"}, "bike_id": "76277e56495f5e0e4b61410c2c9ea082", "lat": 38.91699033333333, "type": "electric_scooter", "name": "76277e56495f5e0e4b61410c2c9ea082", "is_disabled": 0}, {"is_reserved": 0, "fusion_lon": 0.0, "lon": -76.96559533333334, "fusion_lat": 0.0, "rental_uris": {"ios": "https://dc.lft.to/lastmile_qr_scan", "android": "https://dc.lft.to/lastmile_qr_scan"}, "bike_id": "5b658bc1e7870cace25a12d4e183ce8f", "lat": 38.9184745, "type": "electric_scooter", "name": "5b658bc1e7870cace25a12d4e183ce8f", "is_disabled": 0}, {"is_reserved": 0, "fusion_lon": 0.0, "lon": -77.034314, "fusion_lat": 0.0, "rental_uris": {"ios": "https://dc.lft.to/lastmile_qr_scan", "android": "https://dc.lft.to/lastmile_qr_scan"}, "bike_id": "2a32ddb29103a89b94b218e40d60b4f4", "lat": 38.91912083333333, "type": "electric_scooter", "name": "2a32ddb29103a89b94b218e40d60b4f4", "is_disabled": 0}, {"is_reserved": 0, "fusion_lon": 0.0, "lon": -77.03215133333333, "fusion_lat": 0.0, "rental_uris": {"ios": "https://dc.lft.to/lastmile_qr_scan", "android": "https://dc.lft.to/lastmile_qr_scan"}, "bike_id": "1a5254d7cb4a28dbe9237ebe8f781aa9", "lat": 38.927855, "type": "electric_scooter", "name": "1a5254d7cb4a28dbe9237ebe8f781aa9", "is_disabled": 0}, {"is_reserved": 0, "fusion_lon": 0.0, "lon": -77.04573583333334, "fusion_lat": 0.0, "rental_uris": {"ios": "https://dc.lft.to/lastmile_qr_scan", "android": "https://dc.lft.to/lastmile_qr_scan"}, "bike_id": "cc2273a765b956153b40b268a4e34263", "lat": 38.921273166666666, "type": "electric_scooter", "name": "cc2273a765b956153b40b268a4e34263", "is_disabled": 0}, {"is_reserved": 0, "fusion_lon": 0.0, "lon": -77.03998833333333, "fusion_lat": 0.0, "rental_uris": {"ios": "https://dc.lft.to/lastmile_qr_scan", "android": "https://dc.lft.to/lastmile_qr_scan"}, "bike_id": "8ae3dd31b89da7ac0163b9dd9dd2d3b6", "lat": 38.89636933333333, "type": "electric_scooter", "name": "8ae3dd31b89da7ac0163b9dd9dd2d3b6", "is_disabled": 0}, {"is_reserved": 0, "fusion_lon": 0.0, "lon": -77.04383233333333, "fusion_lat": 0.0, "rental_uris": {"ios": "https://dc.lft.to/lastmile_qr_scan", "android": "https://dc.lft.to/lastmile_qr_scan"}, "bike_id": "91eb6c124c6b2aa2bb32bd1e9f4c1947", "lat": 38.920648666666665, "type": "electric_scooter", "name": "91eb6c124c6b2aa2bb32bd1e9f4c1947", "is_disabled": 0}, {"is_reserved": 0, "fusion_lon": 0.0, "lon": -77.02742416666666, "fusion_lat": 0.0, "rental_uris": {"ios": "https://dc.lft.to/lastmile_qr_scan", "android": "https://dc.lft.to/lastmile_qr_scan"}, "bike_id": "5e672e4a958f124ec3eef89e2afc11f6", "lat": 38.930767333333336, "type": "electric_scooter", "name": "5e672e4a958f124ec3eef89e2afc11f6", "is_disabled": 0}, {"is_reserved": 0, "fusion_lon": 0.0, "lon": -77.0395415, "fusion_lat": 0.0, "rental_uris": {"ios": "https://dc.lft.to/lastmile_qr_scan", "android": "https://dc.lft.to/lastmile_qr_scan"}, "bike_id": "41373602abe47b189293e3fbe1c9daec", "lat": 38.924710833333336, "type": "electric_scooter", "name": "41373602abe47b189293e3fbe1c9daec", "is_disabled": 0}, {"is_reserved": 0, "fusion_lon": 0.0, "lon": -77.02917683333334, "fusion_lat": 0.0, "rental_uris": {"ios": "https://dc.lft.to/lastmile_qr_scan", "android": "https://dc.lft.to/lastmile_qr_scan"}, "bike_id": "e2bd94f91b7c5dcdf950657892745bcf", "lat": 38.91692666666667, "type": "electric_scooter", "name": "e2bd94f91b7c5dcdf950657892745bcf", "is_disabled": 0}, {"is_reserved": 0, "fusion_lon": 0.0, "lon": -77.03553583333333, "fusion_lat": 0.0, "rental_uris": {"ios": "https://dc.lft.to/lastmile_qr_scan", "android": "https://dc.lft.to/lastmile_qr_scan"}, "bike_id": "8fb4aa23180430a826257de8bed21151", "lat": 38.90142216666667, "type": "electric_scooter", "name": "8fb4aa23180430a826257de8bed21151", "is_disabled": 0}, {"is_reserved": 0, "fusion_lon": 0.0, "lon": -77.02707766666667, "fusion_lat": 0.0, "rental_uris": {"ios": "https://dc.lft.to/lastmile_qr_scan", "android": "https://dc.lft.to/lastmile_qr_scan"}, "bike_id": "15a4b0b44f1d6dfc727b9db87cdcc42b", "lat": 38.90669416666667, "type": "electric_scooter", "name": "15a4b0b44f1d6dfc727b9db87cdcc42b", "is_disabled": 0}, {"is_reserved": 0, "fusion_lon": 0.0, "lon": -77.0091575, "fusion_lat": 0.0, "rental_uris": {"ios": "https://dc.lft.to/lastmile_qr_scan", "android": "https://dc.lft.to/lastmile_qr_scan"}, "bike_id": "e825235ffdb638ab68cfe7a969ebca93", "lat": 38.896401166666664, "type": "electric_scooter", "name": "e825235ffdb638ab68cfe7a969ebca93", "is_disabled": 0}, {"is_reserved": 0, "fusion_lon": 0.0, "lon": -76.9797355, "fusion_lat": 0.0, "rental_uris": {"ios": "https://dc.lft.to/lastmile_qr_scan", "android": "https://dc.lft.to/lastmile_qr_scan"}, "bike_id": "54382ed5bfec4b6bca4421853c62737c", "lat": 38.89738366666667, "type": "electric_scooter", "name": "54382ed5bfec4b6bca4421853c62737c", "is_disabled": 0}, {"is_reserved": 0, "fusion_lon": 0.0, "lon": -77.03629483333333, "fusion_lat": 0.0, "rental_uris": {"ios": "https://dc.lft.to/lastmile_qr_scan", "android": "https://dc.lft.to/lastmile_qr_scan"}, "bike_id": "9d9012618e416d8ff96dc026a727d32d", "lat": 38.93679766666666, "type": "electric_scooter", "name": "9d9012618e416d8ff96dc026a727d32d", "is_disabled": 0}, {"is_reserved": 0, "fusion_lon": 0.0, "lon": -77.02992083333334, "fusion_lat": 0.0, "rental_uris": {"ios": "https://dc.lft.to/lastmile_qr_scan", "android": "https://dc.lft.to/lastmile_qr_scan"}, "bike_id": "d530023dacec315c66719c21916b0e48", "lat": 38.899408666666666, "type": "electric_scooter", "name": "d530023dacec315c66719c21916b0e48", "is_disabled": 0}, {"is_reserved": 0, "fusion_lon": 0.0, "lon": -77.0513955, "fusion_lat": 0.0, "rental_uris": {"ios": "https://dc.lft.to/lastmile_qr_scan", "android": "https://dc.lft.to/lastmile_qr_scan"}, "bike_id": "55081cb8b070e389f8430e1d3b74343b", "lat": 38.897537, "type": "electric_scooter", "name": "55081cb8b070e389f8430e1d3b74343b", "is_disabled": 0}, {"is_reserved": 0, "fusion_lon": 0.0, "lon": -77.03280366666667, "fusion_lat": 0.0, "rental_uris": {"ios": "https://dc.lft.to/lastmile_qr_scan", "android": "https://dc.lft.to/lastmile_qr_scan"}, "bike_id": "3cc7459ba79a68a2c9d2206461b265b8", "lat": 38.9409025, "type": "electric_scooter", "name": "3cc7459ba79a68a2c9d2206461b265b8", "is_disabled": 0}, {"is_reserved": 0, "fusion_lon": 0.0, "lon": -77.03445466666666, "fusion_lat": 0.0, "rental_uris": {"ios": "https://dc.lft.to/lastmile_qr_scan", "android": "https://dc.lft.to/lastmile_qr_scan"}, "bike_id": "54ecac8a431103596887c6d6c22ee5bf", "lat": 38.906702, "type": "electric_scooter", "name": "54ecac8a431103596887c6d6c22ee5bf", "is_disabled": 0}, {"is_reserved": 0, "fusion_lon": 0.0, "lon": -76.98574933333333, "fusion_lat": 0.0, "rental_uris": {"ios": "https://dc.lft.to/lastmile_qr_scan", "android": "https://dc.lft.to/lastmile_qr_scan"}, "bike_id": "f03119f4779f1213d5741ef01489b835", "lat": 38.86679766666666, "type": "electric_scooter", "name": "f03119f4779f1213d5741ef01489b835", "is_disabled": 0}, {"is_reserved": 0, "fusion_lon": 0.0, "lon": -77.0451585, "fusion_lat": 0.0, "rental_uris": {"ios": "https://dc.lft.to/lastmile_qr_scan", "android": "https://dc.lft.to/lastmile_qr_scan"}, "bike_id": "49e9624707d9ba774dde0b7a9b07c4de", "lat": 38.8922275, "type": "electric_scooter", "name": "49e9624707d9ba774dde0b7a9b07c4de", "is_disabled": 0}, {"is_reserved": 0, "fusion_lon": 0.0, "lon": -77.02059516666667, "fusion_lat": 0.0, "rental_uris": {"ios": "https://dc.lft.to/lastmile_qr_scan", "android": "https://dc.lft.to/lastmile_qr_scan"}, "bike_id": "af6685b0b71d6c8fe47898db0e209dbf", "lat": 38.90208783333333, "type": "electric_scooter", "name": "af6685b0b71d6c8fe47898db0e209dbf", "is_disabled": 0}, {"is_reserved": 0, "fusion_lon": 0.0, "lon": -77.041749, "fusion_lat": 0.0, "rental_uris": {"ios": "https://dc.lft.to/lastmile_qr_scan", "android": "https://dc.lft.to/lastmile_qr_scan"}, "bike_id": "72e93e9f01a7dfa3b1a7ac44f1921f55", "lat": 38.917052166666664, "type": "electric_scooter", "name": "72e93e9f01a7dfa3b1a7ac44f1921f55", "is_disabled": 0}, {"is_reserved": 0, "fusion_lon": 0.0, "lon": -76.99598633333333, "fusion_lat": 0.0, "rental_uris": {"ios": "https://dc.lft.to/lastmile_qr_scan", "android": "https://dc.lft.to/lastmile_qr_scan"}, "bike_id": "6fbea2c37d1bddccb9af2941cafc5993", "lat": 38.85687466666667, "type": "electric_scooter", "name": "6fbea2c37d1bddccb9af2941cafc5993", "is_disabled": 0}, {"is_reserved": 0, "fusion_lon": 0.0, "lon": -77.02341833333334, "fusion_lat": 0.0, "rental_uris": {"ios": "https://dc.lft.to/lastmile_qr_scan", "android": "https://dc.lft.to/lastmile_qr_scan"}, "bike_id": "1d763f8f2817a957464b60b02e216238", "lat": 38.8939075, "type": "electric_scooter", "name": "1d763f8f2817a957464b60b02e216238", "is_disabled": 0}, {"is_reserved": 0, "fusion_lon": 0.0, "lon": -77.04347533333333, "fusion_lat": 0.0, "rental_uris": {"ios": "https://dc.lft.to/lastmile_qr_scan", "android": "https://dc.lft.to/lastmile_qr_scan"}, "bike_id": "64aa76901c0311c6cad05dbb336525a8", "lat": 38.92814716666667, "type": "electric_scooter", "name": "64aa76901c0311c6cad05dbb336525a8", "is_disabled": 0}, {"is_reserved": 0, "fusion_lon": 0.0, "lon": -76.99501466666666, "fusion_lat": 0.0, "rental_uris": {"ios": "https://dc.lft.to/lastmile_qr_scan", "android": "https://dc.lft.to/lastmile_qr_scan"}, "bike_id": "ec58fb9c34de837b41c864fae34efaa0", "lat": 38.90981283333333, "type": "electric_scooter", "name": "ec58fb9c34de837b41c864fae34efaa0", "is_disabled": 0}, {"is_reserved": 0, "fusion_lon": 0.0, "lon": -77.04501316666666, "fusion_lat": 0.0, "rental_uris": {"ios": "https://dc.lft.to/lastmile_qr_scan", "android": "https://dc.lft.to/lastmile_qr_scan"}, "bike_id": "d005d913b2652bd4eea4b3392f649ff1", "lat": 38.89945733333333, "type": "electric_scooter", "name": "d005d913b2652bd4eea4b3392f649ff1", "is_disabled": 0}, {"is_reserved": 0, "fusion_lon": 0.0, "lon": -77.00767466666667, "fusion_lat": 0.0, "rental_uris": {"ios": "https://dc.lft.to/lastmile_qr_scan", "android": "https://dc.lft.to/lastmile_qr_scan"}, "bike_id": "b7793f353b9157c57f1c7106601cf944", "lat": 38.907336, "type": "electric_scooter", "name": "b7793f353b9157c57f1c7106601cf944", "is_disabled": 0}, {"is_reserved": 0, "fusion_lon": 0.0, "lon": -77.048963, "fusion_lat": 0.0, "rental_uris": {"ios": "https://dc.lft.to/lastmile_qr_scan", "android": "https://dc.lft.to/lastmile_qr_scan"}, "bike_id": "e7bb0d79cf503f5a88156d5d66fcc25f", "lat": 38.8975105, "type": "electric_scooter", "name": "e7bb0d79cf503f5a88156d5d66fcc25f", "is_disabled": 0}, {"is_reserved": 0, "fusion_lon": 0.0, "lon": -77.0325495, "fusion_lat": 0.0, "rental_uris": {"ios": "https://dc.lft.to/lastmile_qr_scan", "android": "https://dc.lft.to/lastmile_qr_scan"}, "bike_id": "daeb54f3421be4dcb45e54da63e0bcae", "lat": 38.901206, "type": "electric_scooter", "name": "daeb54f3421be4dcb45e54da63e0bcae", "is_disabled": 0}, {"is_reserved": 0, "fusion_lon": 0.0, "lon": -76.980891, "fusion_lat": 0.0, "rental_uris": {"ios": "https://dc.lft.to/lastmile_qr_scan", "android": "https://dc.lft.to/lastmile_qr_scan"}, "bike_id": "e7d76c786ac91fd8ab650ede479ff7be", "lat": 38.92240783333333, "type": "electric_scooter", "name": "e7d76c786ac91fd8ab650ede479ff7be", "is_disabled": 0}, {"is_reserved": 0, "fusion_lon": 0.0, "lon": -77.02055483333334, "fusion_lat": 0.0, "rental_uris": {"ios": "https://dc.lft.to/lastmile_qr_scan", "android": "https://dc.lft.to/lastmile_qr_scan"}, "bike_id": "d99c8f8722340e35d92f2476f525a0e2", "lat": 38.903985, "type": "electric_scooter", "name": "d99c8f8722340e35d92f2476f525a0e2", "is_disabled": 0}, {"is_reserved": 0, "fusion_lon": 0.0, "lon": -77.01861633333333, "fusion_lat": 0.0, "rental_uris": {"ios": "https://dc.lft.to/lastmile_qr_scan", "android": "https://dc.lft.to/lastmile_qr_scan"}, "bike_id": "4544f041e7c15dfe4fa4dc4554ffe590", "lat": 38.902628, "type": "electric_scooter", "name": "4544f041e7c15dfe4fa4dc4554ffe590", "is_disabled": 0}, {"is_reserved": 0, "fusion_lon": 0.0, "lon": -77.02384366666666, "fusion_lat": 0.0, "rental_uris": {"ios": "https://dc.lft.to/lastmile_qr_scan", "android": "https://dc.lft.to/lastmile_qr_scan"}, "bike_id": "e533ae420bc182f69f60fa2c516b68a2", "lat": 38.93208516666667, "type": "electric_scooter", "name": "e533ae420bc182f69f60fa2c516b68a2", "is_disabled": 0}, {"is_reserved": 0, "fusion_lon": 0.0, "lon": -77.00490966666666, "fusion_lat": 0.0, "rental_uris": {"ios": "https://dc.lft.to/lastmile_qr_scan", "android": "https://dc.lft.to/lastmile_qr_scan"}, "bike_id": "a4655b1183725b39fcdf74f2f63d4c33", "lat": 38.874637666666665, "type": "electric_scooter", "name": "a4655b1183725b39fcdf74f2f63d4c33", "is_disabled": 0}, {"is_reserved": 0, "fusion_lon": 0.0, "lon": -77.02132183333333, "fusion_lat": 0.0, "rental_uris": {"ios": "https://dc.lft.to/lastmile_qr_scan", "android": "https://dc.lft.to/lastmile_qr_scan"}, "bike_id": "2c1cc39812aecc29a08e8748f3f0bcf5", "lat": 38.922491666666666, "type": "electric_scooter", "name": "2c1cc39812aecc29a08e8748f3f0bcf5", "is_disabled": 0}, {"is_reserved": 0, "fusion_lon": 0.0, "lon": -77.043665, "fusion_lat": 0.0, "rental_uris": {"ios": "https://dc.lft.to/lastmile_qr_scan", "android": "https://dc.lft.to/lastmile_qr_scan"}, "bike_id": "42e84c53eea6f8cda5ea40e7878627c3", "lat": 38.904713, "type": "electric_scooter", "name": "42e84c53eea6f8cda5ea40e7878627c3", "is_disabled": 0}, {"is_reserved": 0, "fusion_lon": 0.0, "lon": -77.0346475, "fusion_lat": 0.0, "rental_uris": {"ios": "https://dc.lft.to/lastmile_qr_scan", "android": "https://dc.lft.to/lastmile_qr_scan"}, "bike_id": "677ade6b0674c06a25b2c5585559f379", "lat": 38.902832333333336, "type": "electric_scooter", "name": "677ade6b0674c06a25b2c5585559f379", "is_disabled": 0}, {"is_reserved": 0, "fusion_lon": 0.0, "lon": -77.02412366666667, "fusion_lat": 0.0, "rental_uris": {"ios": "https://dc.lft.to/lastmile_qr_scan", "android": "https://dc.lft.to/lastmile_qr_scan"}, "bike_id": "8e66373a9e6ad5952c8f11c6da836aee", "lat": 38.89223666666667, "type": "electric_scooter", "name": "8e66373a9e6ad5952c8f11c6da836aee", "is_disabled": 0}, {"is_reserved": 0, "fusion_lon": 0.0, "lon": -77.01762133333334, "fusion_lat": 0.0, "rental_uris": {"ios": "https://dc.lft.to/lastmile_qr_scan", "android": "https://dc.lft.to/lastmile_qr_scan"}, "bike_id": "46d186e4bc31f0123dd719587eca38ef", "lat": 38.87211216666667, "type": "electric_scooter", "name": "46d186e4bc31f0123dd719587eca38ef", "is_disabled": 0}, {"is_reserved": 0, "fusion_lon": 0.0, "lon": -77.03673566666667, "fusion_lat": 0.0, "rental_uris": {"ios": "https://dc.lft.to/lastmile_qr_scan", "android": "https://dc.lft.to/lastmile_qr_scan"}, "bike_id": "96434a8502c8fe6bdde741efc0521894", "lat": 38.9212715, "type": "electric_scooter", "name": "96434a8502c8fe6bdde741efc0521894", "is_disabled": 0}, {"is_reserved": 0, "fusion_lon": 0.0, "lon": -77.02904283333334, "fusion_lat": 0.0, "rental_uris": {"ios": "https://dc.lft.to/lastmile_qr_scan", "android": "https://dc.lft.to/lastmile_qr_scan"}, "bike_id": "c7c8b7b672c1a4818fc3435f3d99b059", "lat": 38.918153, "type": "electric_scooter", "name": "c7c8b7b672c1a4818fc3435f3d99b059", "is_disabled": 0}, {"is_reserved": 0, "fusion_lon": 0.0, "lon": -76.95756866666666, "fusion_lat": 0.0, "rental_uris": {"ios": "https://dc.lft.to/lastmile_qr_scan", "android": "https://dc.lft.to/lastmile_qr_scan"}, "bike_id": "8b16b576aff42b2e15baf1393f4c33a0", "lat": 38.884243166666664, "type": "electric_scooter", "name": "8b16b576aff42b2e15baf1393f4c33a0", "is_disabled": 0}, {"is_reserved": 0, "fusion_lon": 0.0, "lon": -77.040157, "fusion_lat": 0.0, "rental_uris": {"ios": "https://dc.lft.to/lastmile_qr_scan", "android": "https://dc.lft.to/lastmile_qr_scan"}, "bike_id": "2d4cfcffba354a0d2e46a5604685623f", "lat": 38.91840216666667, "type": "electric_scooter", "name": "2d4cfcffba354a0d2e46a5604685623f", "is_disabled": 0}, {"is_reserved": 0, "fusion_lon": 0.0, "lon": -77.0224845, "fusion_lat": 0.0, "rental_uris": {"ios": "https://dc.lft.to/lastmile_qr_scan", "android": "https://dc.lft.to/lastmile_qr_scan"}, "bike_id": "18f30c25f97bd6c11ba0fa5cfa286868", "lat": 38.896198, "type": "electric_scooter", "name": "18f30c25f97bd6c11ba0fa5cfa286868", "is_disabled": 0}, {"is_reserved": 0, "fusion_lon": 0.0, "lon": -77.02723733333333, "fusion_lat": 0.0, "rental_uris": {"ios": "https://dc.lft.to/lastmile_qr_scan", "android": "https://dc.lft.to/lastmile_qr_scan"}, "bike_id": "d037e3725db66baa5fc456b4a1e49b25", "lat": 38.951913166666664, "type": "electric_scooter", "name": "d037e3725db66baa5fc456b4a1e49b25", "is_disabled": 0}, {"is_reserved": 0, "fusion_lon": 0.0, "lon": -76.94921333333333, "fusion_lat": 0.0, "rental_uris": {"ios": "https://dc.lft.to/lastmile_qr_scan", "android": "https://dc.lft.to/lastmile_qr_scan"}, "bike_id": "31f9ff02d77bb593101e45b2e682dc35", "lat": 38.8934075, "type": "electric_scooter", "name": "31f9ff02d77bb593101e45b2e682dc35", "is_disabled": 0}, {"is_reserved": 0, "fusion_lon": 0.0, "lon": -77.04520266666667, "fusion_lat": 0.0, "rental_uris": {"ios": "https://dc.lft.to/lastmile_qr_scan", "android": "https://dc.lft.to/lastmile_qr_scan"}, "bike_id": "8c52e1a1e5168bd6eb625937011e8dfc", "lat": 38.92314316666667, "type": "electric_scooter", "name": "8c52e1a1e5168bd6eb625937011e8dfc", "is_disabled": 0}, {"is_reserved": 0, "fusion_lon": 0.0, "lon": -77.02389516666666, "fusion_lat": 0.0, "rental_uris": {"ios": "https://dc.lft.to/lastmile_qr_scan", "android": "https://dc.lft.to/lastmile_qr_scan"}, "bike_id": "7ae71dbe7b482c25c12be292281e57c5", "lat": 38.91143016666667, "type": "electric_scooter", "name": "7ae71dbe7b482c25c12be292281e57c5", "is_disabled": 0}, {"is_reserved": 0, "fusion_lon": 0.0, "lon": -77.07188433333333, "fusion_lat": 0.0, "rental_uris": {"ios": "https://dc.lft.to/lastmile_qr_scan", "android": "https://dc.lft.to/lastmile_qr_scan"}, "bike_id": "4c00f84b958335b28479953c3300cd06", "lat": 38.909061333333334, "type": "electric_scooter", "name": "4c00f84b958335b28479953c3300cd06", "is_disabled": 0}, {"is_reserved": 0, "fusion_lon": 0.0, "lon": -77.02862133333333, "fusion_lat": 0.0, "rental_uris": {"ios": "https://dc.lft.to/lastmile_qr_scan", "android": "https://dc.lft.to/lastmile_qr_scan"}, "bike_id": "fb63311aaf7537d20972119c621d1a86", "lat": 38.9170755, "type": "electric_scooter", "name": "fb63311aaf7537d20972119c621d1a86", "is_disabled": 0}, {"is_reserved": 0, "fusion_lon": 0.0, "lon": -77.03076, "fusion_lat": 0.0, "rental_uris": {"ios": "https://dc.lft.to/lastmile_qr_scan", "android": "https://dc.lft.to/lastmile_qr_scan"}, "bike_id": "a88039f84a611f5548c6061ab01447f5", "lat": 38.899663833333335, "type": "electric_scooter", "name": "a88039f84a611f5548c6061ab01447f5", "is_disabled": 0}, {"is_reserved": 0, "fusion_lon": 0.0, "lon": -77.01997733333333, "fusion_lat": 0.0, "rental_uris": {"ios": "https://dc.lft.to/lastmile_qr_scan", "android": "https://dc.lft.to/lastmile_qr_scan"}, "bike_id": "0d3086db16737bdf24e1a3822b27bac1", "lat": 38.89982766666667, "type": "electric_scooter", "name": "0d3086db16737bdf24e1a3822b27bac1", "is_disabled": 0}, {"is_reserved": 0, "fusion_lon": 0.0, "lon": -77.04168833333334, "fusion_lat": 0.0, "rental_uris": {"ios": "https://dc.lft.to/lastmile_qr_scan", "android": "https://dc.lft.to/lastmile_qr_scan"}, "bike_id": "6953ee87a7fdbfdfb979e84b5d16368e", "lat": 38.9083345, "type": "electric_scooter", "name": "6953ee87a7fdbfdfb979e84b5d16368e", "is_disabled": 0}, {"is_reserved": 0, "fusion_lon": 0.0, "lon": -77.03177416666666, "fusion_lat": 0.0, "rental_uris": {"ios": "https://dc.lft.to/lastmile_qr_scan", "android": "https://dc.lft.to/lastmile_qr_scan"}, "bike_id": "2cb7ca49832820437ab73c97fa34ab2d", "lat": 38.914153166666665, "type": "electric_scooter", "name": "2cb7ca49832820437ab73c97fa34ab2d", "is_disabled": 0}, {"is_reserved": 0, "fusion_lon": 0.0, "lon": -77.03530433333333, "fusion_lat": 0.0, "rental_uris": {"ios": "https://dc.lft.to/lastmile_qr_scan", "android": "https://dc.lft.to/lastmile_qr_scan"}, "bike_id": "46df7945c99f9217afe378f74bd76684", "lat": 38.90672333333333, "type": "electric_scooter", "name": "46df7945c99f9217afe378f74bd76684", "is_disabled": 0}, {"is_reserved": 0, "fusion_lon": 0.0, "lon": -77.00927366666667, "fusion_lat": 0.0, "rental_uris": {"ios": "https://dc.lft.to/lastmile_qr_scan", "android": "https://dc.lft.to/lastmile_qr_scan"}, "bike_id": "3af412eff994c4a870ec8c59bc6c5eb5", "lat": 38.896080166666664, "type": "electric_scooter", "name": "3af412eff994c4a870ec8c59bc6c5eb5", "is_disabled": 0}, {"is_reserved": 0, "fusion_lon": 0.0, "lon": -77.0209175, "fusion_lat": 0.0, "rental_uris": {"ios": "https://dc.lft.to/lastmile_qr_scan", "android": "https://dc.lft.to/lastmile_qr_scan"}, "bike_id": "146cfcd68b102645eb7609e5a87f6e1d", "lat": 38.884959333333335, "type": "electric_scooter", "name": "146cfcd68b102645eb7609e5a87f6e1d", "is_disabled": 0}, {"is_reserved": 0, "fusion_lon": 0.0, "lon": -76.954193, "fusion_lat": 0.0, "rental_uris": {"ios": "https://dc.lft.to/lastmile_qr_scan", "android": "https://dc.lft.to/lastmile_qr_scan"}, "bike_id": "752bb35414a994e83035953f92d3acf3", "lat": 38.88408066666667, "type": "electric_bike", "name": "752bb35414a994e83035953f92d3acf3", "is_disabled": 0}, {"is_reserved": 0, "fusion_lon": 0.0, "lon": -77.0211845, "fusion_lat": 0.0, "rental_uris": {"ios": "https://dc.lft.to/lastmile_qr_scan", "android": "https://dc.lft.to/lastmile_qr_scan"}, "bike_id": "205a0af6150c5171130e4f5a4c01e39c", "lat": 38.887410333333335, "type": "electric_scooter", "name": "205a0af6150c5171130e4f5a4c01e39c", "is_disabled": 0}, {"is_reserved": 0, "fusion_lon": 0.0, "lon": -76.9889365, "fusion_lat": 0.0, "rental_uris": {"ios": "https://dc.lft.to/lastmile_qr_scan", "android": "https://dc.lft.to/lastmile_qr_scan"}, "bike_id": "2e99e311938f28d57d5af8450e2b7c31", "lat": 38.86667683333334, "type": "electric_scooter", "name": "2e99e311938f28d57d5af8450e2b7c31", "is_disabled": 0}, {"is_reserved": 0, "fusion_lon": 0.0, "lon": -77.0587775, "fusion_lat": 0.0, "rental_uris": {"ios": "https://dc.lft.to/lastmile_qr_scan", "android": "https://dc.lft.to/lastmile_qr_scan"}, "bike_id": "0bdd6c733573fc0b8ab7c2135aa9ca53", "lat": 38.90528583333333, "type": "electric_scooter", "name": "0bdd6c733573fc0b8ab7c2135aa9ca53", "is_disabled": 0}, {"is_reserved": 0, "fusion_lon": 0.0, "lon": -77.0006265, "fusion_lat": 0.0, "rental_uris": {"ios": "https://dc.lft.to/lastmile_qr_scan", "android": "https://dc.lft.to/lastmile_qr_scan"}, "bike_id": "c5ff4b094cfb53db07dbb51d8eb92229", "lat": 38.90570016666667, "type": "electric_scooter", "name": "c5ff4b094cfb53db07dbb51d8eb92229", "is_disabled": 0}, {"is_reserved": 0, "fusion_lon": 0.0, "lon": -77.0461315, "fusion_lat": 0.0, "rental_uris": {"ios": "https://dc.lft.to/lastmile_qr_scan", "android": "https://dc.lft.to/lastmile_qr_scan"}, "bike_id": "7d96d39788dc854e1949be10301985a0", "lat": 38.91450016666667, "type": "electric_scooter", "name": "7d96d39788dc854e1949be10301985a0", "is_disabled": 0}, {"is_reserved": 0, "fusion_lon": 0.0, "lon": -77.058482, "fusion_lat": 0.0, "rental_uris": {"ios": "https://dc.lft.to/lastmile_qr_scan", "android": "https://dc.lft.to/lastmile_qr_scan"}, "bike_id": "f551a6c827d33a8d849b991be5a0b75e", "lat": 38.9304805, "type": "electric_scooter", "name": "f551a6c827d33a8d849b991be5a0b75e", "is_disabled": 0}, {"is_reserved": 0, "fusion_lon": 0.0, "lon": -77.01343433333334, "fusion_lat": 0.0, "rental_uris": {"ios": "https://dc.lft.to/lastmile_qr_scan", "android": "https://dc.lft.to/lastmile_qr_scan"}, "bike_id": "ce824fb5329efa86347da2f73bc9dc17", "lat": 38.926421500000004, "type": "electric_scooter", "name": "ce824fb5329efa86347da2f73bc9dc17", "is_disabled": 0}, {"is_reserved": 0, "fusion_lon": 0.0, "lon": -77.0401845, "fusion_lat": 0.0, "rental_uris": {"ios": "https://dc.lft.to/lastmile_qr_scan", "android": "https://dc.lft.to/lastmile_qr_scan"}, "bike_id": "71ec42a6dac6e1b25b2e0c8bd09f63cf", "lat": 38.90848533333333, "type": "electric_scooter", "name": "71ec42a6dac6e1b25b2e0c8bd09f63cf", "is_disabled": 0}, {"is_reserved": 0, "fusion_lon": 0.0, "lon": -77.04500616666667, "fusion_lat": 0.0, "rental_uris": {"ios": "https://dc.lft.to/lastmile_qr_scan", "android": "https://dc.lft.to/lastmile_qr_scan"}, "bike_id": "21d2788c9fadc635db85ef50dc69b76c", "lat": 38.914156, "type": "electric_scooter", "name": "21d2788c9fadc635db85ef50dc69b76c", "is_disabled": 0}, {"is_reserved": 0, "fusion_lon": 0.0, "lon": -77.03105083333334, "fusion_lat": 0.0, "rental_uris": {"ios": "https://dc.lft.to/lastmile_qr_scan", "android": "https://dc.lft.to/lastmile_qr_scan"}, "bike_id": "06681b776ff9f2ab4a34c879465a731b", "lat": 38.88318683333333, "type": "electric_scooter", "name": "06681b776ff9f2ab4a34c879465a731b", "is_disabled": 0}, {"is_reserved": 0, "fusion_lon": 0.0, "lon": -77.03528283333333, "fusion_lat": 0.0, "rental_uris": {"ios": "https://dc.lft.to/lastmile_qr_scan", "android": "https://dc.lft.to/lastmile_qr_scan"}, "bike_id": "ff8c46c181540d4b6233aa8f604bbab1", "lat": 38.925256833333336, "type": "electric_scooter", "name": "ff8c46c181540d4b6233aa8f604bbab1", "is_disabled": 0}, {"is_reserved": 0, "fusion_lon": 0.0, "lon": -77.02911616666667, "fusion_lat": 0.0, "rental_uris": {"ios": "https://dc.lft.to/lastmile_qr_scan", "android": "https://dc.lft.to/lastmile_qr_scan"}, "bike_id": "8bdc51d9feb11ce886bbe466a1b8bd3f", "lat": 38.91707316666667, "type": "electric_scooter", "name": "8bdc51d9feb11ce886bbe466a1b8bd3f", "is_disabled": 0}, {"is_reserved": 0, "fusion_lon": 0.0, "lon": -77.03189983333333, "fusion_lat": 0.0, "rental_uris": {"ios": "https://dc.lft.to/lastmile_qr_scan", "android": "https://dc.lft.to/lastmile_qr_scan"}, "bike_id": "395785c8493dc44d2226324a92b3fd08", "lat": 38.901452166666665, "type": "electric_scooter", "name": "395785c8493dc44d2226324a92b3fd08", "is_disabled": 0}, {"is_reserved": 0, "fusion_lon": 0.0, "lon": -77.04692733333333, "fusion_lat": 0.0, "rental_uris": {"ios": "https://dc.lft.to/lastmile_qr_scan", "android": "https://dc.lft.to/lastmile_qr_scan"}, "bike_id": "e6cf9681eae1fdeb9b8ab2da619c7364", "lat": 38.921733333333336, "type": "electric_scooter", "name": "e6cf9681eae1fdeb9b8ab2da619c7364", "is_disabled": 0}, {"is_reserved": 0, "fusion_lon": 0.0, "lon": -77.02957866666667, "fusion_lat": 0.0, "rental_uris": {"ios": "https://dc.lft.to/lastmile_qr_scan", "android": "https://dc.lft.to/lastmile_qr_scan"}, "bike_id": "b6a4c8ed862b9d5cfb3f726db2d3f01f", "lat": 38.91682133333333, "type": "electric_scooter", "name": "b6a4c8ed862b9d5cfb3f726db2d3f01f", "is_disabled": 0}, {"is_reserved": 0, "fusion_lon": 0.0, "lon": -77.02697566666667, "fusion_lat": 0.0, "rental_uris": {"ios": "https://dc.lft.to/lastmile_qr_scan", "android": "https://dc.lft.to/lastmile_qr_scan"}, "bike_id": "bbcffe76d781c12799feb333899b5fb2", "lat": 38.91300283333333, "type": "electric_scooter", "name": "bbcffe76d781c12799feb333899b5fb2", "is_disabled": 0}, {"is_reserved": 0, "fusion_lon": 0.0, "lon": -77.0240885, "fusion_lat": 0.0, "rental_uris": {"ios": "https://dc.lft.to/lastmile_qr_scan", "android": "https://dc.lft.to/lastmile_qr_scan"}, "bike_id": "0bfb95b1e9001fb91ca83355933ecf07", "lat": 38.90863483333333, "type": "electric_scooter", "name": "0bfb95b1e9001fb91ca83355933ecf07", "is_disabled": 0}, {"is_reserved": 0, "fusion_lon": 0.0, "lon": -77.04304366666666, "fusion_lat": 0.0, "rental_uris": {"ios": "https://dc.lft.to/lastmile_qr_scan", "android": "https://dc.lft.to/lastmile_qr_scan"}, "bike_id": "248bc11ceacbd9cd25268da84e99952c", "lat": 38.9233335, "type": "electric_scooter", "name": "248bc11ceacbd9cd25268da84e99952c", "is_disabled": 0}, {"is_reserved": 0, "fusion_lon": 0.0, "lon": -77.04263366666666, "fusion_lat": 0.0, "rental_uris": {"ios": "https://dc.lft.to/lastmile_qr_scan", "android": "https://dc.lft.to/lastmile_qr_scan"}, "bike_id": "714e532ce97ce0d4587ff23ce9824604", "lat": 38.90645083333333, "type": "electric_scooter", "name": "714e532ce97ce0d4587ff23ce9824604", "is_disabled": 0}, {"is_reserved": 0, "fusion_lon": 0.0, "lon": -77.00571516666666, "fusion_lat": 0.0, "rental_uris": {"ios": "https://dc.lft.to/lastmile_qr_scan", "android": "https://dc.lft.to/lastmile_qr_scan"}, "bike_id": "29f1e1f1488328b574c6360713caa629", "lat": 38.8784075, "type": "electric_scooter", "name": "29f1e1f1488328b574c6360713caa629", "is_disabled": 0}, {"is_reserved": 0, "fusion_lon": 0.0, "lon": -77.03439983333334, "fusion_lat": 0.0, "rental_uris": {"ios": "https://dc.lft.to/lastmile_qr_scan", "android": "https://dc.lft.to/lastmile_qr_scan"}, "bike_id": "9b22221cf76c36f4c25f045fcbeaa5c3", "lat": 38.91801483333333, "type": "electric_scooter", "name": "9b22221cf76c36f4c25f045fcbeaa5c3", "is_disabled": 0}, {"is_reserved": 0, "fusion_lon": 0.0, "lon": -77.07727866666667, "fusion_lat": 0.0, "rental_uris": {"ios": "https://dc.lft.to/lastmile_qr_scan", "android": "https://dc.lft.to/lastmile_qr_scan"}, "bike_id": "c411105e6bf64c22c1e6526fdfbb5f21", "lat": 38.94096433333333, "type": "electric_scooter", "name": "c411105e6bf64c22c1e6526fdfbb5f21", "is_disabled": 0}, {"is_reserved": 0, "fusion_lon": 0.0, "lon": -77.02557983333334, "fusion_lat": 0.0, "rental_uris": {"ios": "https://dc.lft.to/lastmile_qr_scan", "android": "https://dc.lft.to/lastmile_qr_scan"}, "bike_id": "665b322fe681d0405fa9de768d0e951b", "lat": 38.941654166666666, "type": "electric_scooter", "name": "665b322fe681d0405fa9de768d0e951b", "is_disabled": 0}, {"is_reserved": 0, "fusion_lon": 0.0, "lon": -77.05108683333333, "fusion_lat": 0.0, "rental_uris": {"ios": "https://dc.lft.to/lastmile_qr_scan", "android": "https://dc.lft.to/lastmile_qr_scan"}, "bike_id": "41aeec9359a4e6ec0eca4c23afe2460e", "lat": 38.923568, "type": "electric_scooter", "name": "41aeec9359a4e6ec0eca4c23afe2460e", "is_disabled": 0}, {"is_reserved": 0, "fusion_lon": 0.0, "lon": -77.02274683333333, "fusion_lat": 0.0, "rental_uris": {"ios": "https://dc.lft.to/lastmile_qr_scan", "android": "https://dc.lft.to/lastmile_qr_scan"}, "bike_id": "8ab6026938fefa3cbd1f5d134c1190ed", "lat": 38.9141795, "type": "electric_scooter", "name": "8ab6026938fefa3cbd1f5d134c1190ed", "is_disabled": 0}, {"is_reserved": 0, "fusion_lon": 0.0, "lon": -77.03660583333334, "fusion_lat": 0.0, "rental_uris": {"ios": "https://dc.lft.to/lastmile_qr_scan", "android": "https://dc.lft.to/lastmile_qr_scan"}, "bike_id": "22debc7257d7d2a5628001da1c9b5056", "lat": 38.911314833333336, "type": "electric_scooter", "name": "22debc7257d7d2a5628001da1c9b5056", "is_disabled": 0}, {"is_reserved": 0, "fusion_lon": 0.0, "lon": -77.02486433333333, "fusion_lat": 0.0, "rental_uris": {"ios": "https://dc.lft.to/lastmile_qr_scan", "android": "https://dc.lft.to/lastmile_qr_scan"}, "bike_id": "eaf292f4221daf91c4359548c3bca387", "lat": 38.938436, "type": "electric_scooter", "name": "eaf292f4221daf91c4359548c3bca387", "is_disabled": 0}, {"is_reserved": 0, "fusion_lon": 0.0, "lon": -76.98322316666666, "fusion_lat": 0.0, "rental_uris": {"ios": "https://dc.lft.to/lastmile_qr_scan", "android": "https://dc.lft.to/lastmile_qr_scan"}, "bike_id": "bc5b212d6d6c550b35810cb0de92c90f", "lat": 38.904354166666664, "type": "electric_scooter", "name": "bc5b212d6d6c550b35810cb0de92c90f", "is_disabled": 0}, {"is_reserved": 0, "fusion_lon": 0.0, "lon": -77.00343083333334, "fusion_lat": 0.0, "rental_uris": {"ios": "https://dc.lft.to/lastmile_qr_scan", "android": "https://dc.lft.to/lastmile_qr_scan"}, "bike_id": "f8513bf7d27807637176af89c9491eae", "lat": 38.894644666666665, "type": "electric_scooter", "name": "f8513bf7d27807637176af89c9491eae", "is_disabled": 0}, {"is_reserved": 0, "fusion_lon": 0.0, "lon": -77.034767, "fusion_lat": 0.0, "rental_uris": {"ios": "https://dc.lft.to/lastmile_qr_scan", "android": "https://dc.lft.to/lastmile_qr_scan"}, "bike_id": "6db7cc953606ed5d24587137668f6d38", "lat": 38.91695283333333, "type": "electric_scooter", "name": "6db7cc953606ed5d24587137668f6d38", "is_disabled": 0}, {"is_reserved": 0, "fusion_lon": 0.0, "lon": -77.0326615, "fusion_lat": 0.0, "rental_uris": {"ios": "https://dc.lft.to/lastmile_qr_scan", "android": "https://dc.lft.to/lastmile_qr_scan"}, "bike_id": "1613504abc8d2bb1086a254c4764fc3b", "lat": 38.93985516666667, "type": "electric_scooter", "name": "1613504abc8d2bb1086a254c4764fc3b", "is_disabled": 0}, {"is_reserved": 0, "fusion_lon": 0.0, "lon": -77.00212316666666, "fusion_lat": 0.0, "rental_uris": {"ios": "https://dc.lft.to/lastmile_qr_scan", "android": "https://dc.lft.to/lastmile_qr_scan"}, "bike_id": "d4fc7aa876598cc07903c7933dc0c8ba", "lat": 38.89512766666667, "type": "electric_scooter", "name": "d4fc7aa876598cc07903c7933dc0c8ba", "is_disabled": 0}, {"is_reserved": 0, "fusion_lon": 0.0, "lon": -77.050719, "fusion_lat": 0.0, "rental_uris": {"ios": "https://dc.lft.to/lastmile_qr_scan", "android": "https://dc.lft.to/lastmile_qr_scan"}, "bike_id": "29f05974d02ec2bc269daef13b73df23", "lat": 38.900554666666665, "type": "electric_scooter", "name": "29f05974d02ec2bc269daef13b73df23", "is_disabled": 0}, {"is_reserved": 0, "fusion_lon": 0.0, "lon": -77.041824, "fusion_lat": 0.0, "rental_uris": {"ios": "https://dc.lft.to/lastmile_qr_scan", "android": "https://dc.lft.to/lastmile_qr_scan"}, "bike_id": "5da7c3246c277cdbd498b50ada4414d4", "lat": 38.90128683333333, "type": "electric_scooter", "name": "5da7c3246c277cdbd498b50ada4414d4", "is_disabled": 0}, {"is_reserved": 0, "fusion_lon": 0.0, "lon": -77.02630083333334, "fusion_lat": 0.0, "rental_uris": {"ios": "https://dc.lft.to/lastmile_qr_scan", "android": "https://dc.lft.to/lastmile_qr_scan"}, "bike_id": "a1f9fe0ee060bb60447a0c3e1ccf8ad3", "lat": 38.88768916666667, "type": "electric_scooter", "name": "a1f9fe0ee060bb60447a0c3e1ccf8ad3", "is_disabled": 0}, {"is_reserved": 0, "fusion_lon": 0.0, "lon": -77.05129083333334, "fusion_lat": 0.0, "rental_uris": {"ios": "https://dc.lft.to/lastmile_qr_scan", "android": "https://dc.lft.to/lastmile_qr_scan"}, "bike_id": "e31ebef90b92a31222f72e69c31a3bd2", "lat": 38.9252115, "type": "electric_scooter", "name": "e31ebef90b92a31222f72e69c31a3bd2", "is_disabled": 0}, {"is_reserved": 0, "fusion_lon": 0.0, "lon": -77.04194666666666, "fusion_lat": 0.0, "rental_uris": {"ios": "https://dc.lft.to/lastmile_qr_scan", "android": "https://dc.lft.to/lastmile_qr_scan"}, "bike_id": "b63753e6e27b04edb8f56afc59131f17", "lat": 38.92106716666667, "type": "electric_scooter", "name": "b63753e6e27b04edb8f56afc59131f17", "is_disabled": 0}, {"is_reserved": 0, "fusion_lon": 0.0, "lon": -77.032084, "fusion_lat": 0.0, "rental_uris": {"ios": "https://dc.lft.to/lastmile_qr_scan", "android": "https://dc.lft.to/lastmile_qr_scan"}, "bike_id": "15ae61bf53a18fb8d9dcd23f4cbb4655", "lat": 38.91690333333333, "type": "electric_scooter", "name": "15ae61bf53a18fb8d9dcd23f4cbb4655", "is_disabled": 0}, {"is_reserved": 0, "fusion_lon": 0.0, "lon": -77.02002716666667, "fusion_lat": 0.0, "rental_uris": {"ios": "https://dc.lft.to/lastmile_qr_scan", "android": "https://dc.lft.to/lastmile_qr_scan"}, "bike_id": "96f40b9bb18109977df6b51e12ca23f2", "lat": 38.895289, "type": "electric_scooter", "name": "96f40b9bb18109977df6b51e12ca23f2", "is_disabled": 0}, {"is_reserved": 0, "fusion_lon": 0.0, "lon": -76.93025183333333, "fusion_lat": 0.0, "rental_uris": {"ios": "https://dc.lft.to/lastmile_qr_scan", "android": "https://dc.lft.to/lastmile_qr_scan"}, "bike_id": "a56154a80e51ee597e678a94fc1d01f7", "lat": 38.90165666666667, "type": "electric_scooter", "name": "a56154a80e51ee597e678a94fc1d01f7", "is_disabled": 0}, {"is_reserved": 0, "fusion_lon": 0.0, "lon": -77.02835783333333, "fusion_lat": 0.0, "rental_uris": {"ios": "https://dc.lft.to/lastmile_qr_scan", "android": "https://dc.lft.to/lastmile_qr_scan"}, "bike_id": "7cbf18aa5f78aa4a08f6fd9966526a4b", "lat": 38.931877, "type": "electric_scooter", "name": "7cbf18aa5f78aa4a08f6fd9966526a4b", "is_disabled": 0}, {"is_reserved": 0, "fusion_lon": 0.0, "lon": -77.03455366666667, "fusion_lat": 0.0, "rental_uris": {"ios": "https://dc.lft.to/lastmile_qr_scan", "android": "https://dc.lft.to/lastmile_qr_scan"}, "bike_id": "38af64827d38455e8bd5b6cd296e7840", "lat": 38.902603666666664, "type": "electric_scooter", "name": "38af64827d38455e8bd5b6cd296e7840", "is_disabled": 0}, {"is_reserved": 0, "fusion_lon": 0.0, "lon": -77.0158245, "fusion_lat": 0.0, "rental_uris": {"ios": "https://dc.lft.to/lastmile_qr_scan", "android": "https://dc.lft.to/lastmile_qr_scan"}, "bike_id": "32bff97f8dd842bcbda959f6645bc0e6", "lat": 38.876579166666666, "type": "electric_scooter", "name": "32bff97f8dd842bcbda959f6645bc0e6", "is_disabled": 0}, {"is_reserved": 0, "fusion_lon": 0.0, "lon": -76.9845345, "fusion_lat": 0.0, "rental_uris": {"ios": "https://dc.lft.to/lastmile_qr_scan", "android": "https://dc.lft.to/lastmile_qr_scan"}, "bike_id": "beaa3098a4ae5e32b6d9ebbfac92db3e", "lat": 38.914639666666666, "type": "electric_scooter", "name": "beaa3098a4ae5e32b6d9ebbfac92db3e", "is_disabled": 0}, {"is_reserved": 0, "fusion_lon": 0.0, "lon": -77.00561216666667, "fusion_lat": 0.0, "rental_uris": {"ios": "https://dc.lft.to/lastmile_qr_scan", "android": "https://dc.lft.to/lastmile_qr_scan"}, "bike_id": "3c1674e16565bd6afdc54ed52015254b", "lat": 38.87469266666667, "type": "electric_scooter", "name": "3c1674e16565bd6afdc54ed52015254b", "is_disabled": 0}, {"is_reserved": 0, "fusion_lon": 0.0, "lon": -76.92050066666667, "fusion_lat": 0.0, "rental_uris": {"ios": "https://dc.lft.to/lastmile_qr_scan", "android": "https://dc.lft.to/lastmile_qr_scan"}, "bike_id": "5871a112f1e45b2e83d93282e32e3b2c", "lat": 38.89732683333333, "type": "electric_bike", "name": "5871a112f1e45b2e83d93282e32e3b2c", "is_disabled": 0}, {"is_reserved": 0, "fusion_lon": 0.0, "lon": -77.03640816666666, "fusion_lat": 0.0, "rental_uris": {"ios": "https://dc.lft.to/lastmile_qr_scan", "android": "https://dc.lft.to/lastmile_qr_scan"}, "bike_id": "576f4ab0c91eb155c0ed905dbaf553a2", "lat": 38.92746833333333, "type": "electric_bike", "name": "576f4ab0c91eb155c0ed905dbaf553a2", "is_disabled": 0}, {"is_reserved": 0, "fusion_lon": 0.0, "lon": -77.02685666666666, "fusion_lat": 0.0, "rental_uris": {"ios": "https://dc.lft.to/lastmile_qr_scan", "android": "https://dc.lft.to/lastmile_qr_scan"}, "bike_id": "51ae85b2800c08c7b420a63aa304e432", "lat": 38.9035075, "type": "electric_scooter", "name": "51ae85b2800c08c7b420a63aa304e432", "is_disabled": 0}, {"is_reserved": 0, "fusion_lon": 0.0, "lon": -77.02709166666666, "fusion_lat": 0.0, "rental_uris": {"ios": "https://dc.lft.to/lastmile_qr_scan", "android": "https://dc.lft.to/lastmile_qr_scan"}, "bike_id": "363028096d1846c663fa3b6718ecd272", "lat": 38.9179935, "type": "electric_scooter", "name": "363028096d1846c663fa3b6718ecd272", "is_disabled": 0}, {"is_reserved": 0, "fusion_lon": 0.0, "lon": -76.98464433333334, "fusion_lat": 0.0, "rental_uris": {"ios": "https://dc.lft.to/lastmile_qr_scan", "android": "https://dc.lft.to/lastmile_qr_scan"}, "bike_id": "faf3881d6e3beccb424670f44e89f5ce", "lat": 38.9039805, "type": "electric_scooter", "name": "faf3881d6e3beccb424670f44e89f5ce", "is_disabled": 0}, {"is_reserved": 0, "fusion_lon": 0.0, "lon": -77.02151816666667, "fusion_lat": 0.0, "rental_uris": {"ios": "https://dc.lft.to/lastmile_qr_scan", "android": "https://dc.lft.to/lastmile_qr_scan"}, "bike_id": "36257b421f24d569f8c77c7004f4d3bf", "lat": 38.924639166666665, "type": "electric_scooter", "name": "36257b421f24d569f8c77c7004f4d3bf", "is_disabled": 0}, {"is_reserved": 0, "fusion_lon": 0.0, "lon": -77.01241166666667, "fusion_lat": 0.0, "rental_uris": {"ios": "https://dc.lft.to/lastmile_qr_scan", "android": "https://dc.lft.to/lastmile_qr_scan"}, "bike_id": "a132b67a6187a488475a30fbb2a29664", "lat": 38.872069333333336, "type": "electric_scooter", "name": "a132b67a6187a488475a30fbb2a29664", "is_disabled": 0}, {"is_reserved": 0, "fusion_lon": 0.0, "lon": -76.97054633333333, "fusion_lat": 0.0, "rental_uris": {"ios": "https://dc.lft.to/lastmile_qr_scan", "android": "https://dc.lft.to/lastmile_qr_scan"}, "bike_id": "2c6c85cc49c637272a0944614f5abeb2", "lat": 38.98456433333333, "type": "electric_bike", "name": "2c6c85cc49c637272a0944614f5abeb2", "is_disabled": 0}, {"is_reserved": 0, "fusion_lon": 0.0, "lon": -77.00710666666667, "fusion_lat": 0.0, "rental_uris": {"ios": "https://dc.lft.to/lastmile_qr_scan", "android": "https://dc.lft.to/lastmile_qr_scan"}, "bike_id": "690ea9cfa01bdce681440df5ad093b68", "lat": 38.911745833333335, "type": "electric_scooter", "name": "690ea9cfa01bdce681440df5ad093b68", "is_disabled": 0}, {"is_reserved": 0, "fusion_lon": 0.0, "lon": -77.03602716666667, "fusion_lat": 0.0, "rental_uris": {"ios": "https://dc.lft.to/lastmile_qr_scan", "android": "https://dc.lft.to/lastmile_qr_scan"}, "bike_id": "15ed30112618195f792372cf624e2d0b", "lat": 38.9276505, "type": "electric_scooter", "name": "15ed30112618195f792372cf624e2d0b", "is_disabled": 0}, {"is_reserved": 0, "fusion_lon": 0.0, "lon": -77.02392883333333, "fusion_lat": 0.0, "rental_uris": {"ios": "https://dc.lft.to/lastmile_qr_scan", "android": "https://dc.lft.to/lastmile_qr_scan"}, "bike_id": "9e06df1bfba8663f132662b7fb4ff36c", "lat": 38.91972333333333, "type": "electric_scooter", "name": "9e06df1bfba8663f132662b7fb4ff36c", "is_disabled": 0}, {"is_reserved": 0, "fusion_lon": 0.0, "lon": -77.03661783333334, "fusion_lat": 0.0, "rental_uris": {"ios": "https://dc.lft.to/lastmile_qr_scan", "android": "https://dc.lft.to/lastmile_qr_scan"}, "bike_id": "0fbbd64bb80f599ee6701f6df6345118", "lat": 38.910025833333336, "type": "electric_scooter", "name": "0fbbd64bb80f599ee6701f6df6345118", "is_disabled": 0}, {"is_reserved": 0, "fusion_lon": 0.0, "lon": -77.03443766666666, "fusion_lat": 0.0, "rental_uris": {"ios": "https://dc.lft.to/lastmile_qr_scan", "android": "https://dc.lft.to/lastmile_qr_scan"}, "bike_id": "a771e8ffec03a95fa6bbd702dcbd1c99", "lat": 38.92147216666667, "type": "electric_scooter", "name": "a771e8ffec03a95fa6bbd702dcbd1c99", "is_disabled": 0}, {"is_reserved": 0, "fusion_lon": 0.0, "lon": -77.04355666666666, "fusion_lat": 0.0, "rental_uris": {"ios": "https://dc.lft.to/lastmile_qr_scan", "android": "https://dc.lft.to/lastmile_qr_scan"}, "bike_id": "cc777970ad800998e400dde01c67a955", "lat": 38.90402683333333, "type": "electric_scooter", "name": "cc777970ad800998e400dde01c67a955", "is_disabled": 0}, {"is_reserved": 0, "fusion_lon": 0.0, "lon": -77.0302025, "fusion_lat": 0.0, "rental_uris": {"ios": "https://dc.lft.to/lastmile_qr_scan", "android": "https://dc.lft.to/lastmile_qr_scan"}, "bike_id": "3dd46d5074d39e6db4b9b8548a023060", "lat": 38.90910516666667, "type": "electric_scooter", "name": "3dd46d5074d39e6db4b9b8548a023060", "is_disabled": 0}, {"is_reserved": 0, "fusion_lon": 0.0, "lon": -77.038951, "fusion_lat": 0.0, "rental_uris": {"ios": "https://dc.lft.to/lastmile_qr_scan", "android": "https://dc.lft.to/lastmile_qr_scan"}, "bike_id": "d64f65602a51b0d842ae77ed9627ffeb", "lat": 38.922514, "type": "electric_scooter", "name": "d64f65602a51b0d842ae77ed9627ffeb", "is_disabled": 0}, {"is_reserved": 0, "fusion_lon": 0.0, "lon": -76.9655655, "fusion_lat": 0.0, "rental_uris": {"ios": "https://dc.lft.to/lastmile_qr_scan", "android": "https://dc.lft.to/lastmile_qr_scan"}, "bike_id": "467142607fd60b0c54a815a26be7f9b7", "lat": 38.918452, "type": "electric_scooter", "name": "467142607fd60b0c54a815a26be7f9b7", "is_disabled": 0}, {"is_reserved": 0, "fusion_lon": 0.0, "lon": -77.039926, "fusion_lat": 0.0, "rental_uris": {"ios": "https://dc.lft.to/lastmile_qr_scan", "android": "https://dc.lft.to/lastmile_qr_scan"}, "bike_id": "6020758a5ed99ad98ca8e620aecccf74", "lat": 38.92441866666667, "type": "electric_scooter", "name": "6020758a5ed99ad98ca8e620aecccf74", "is_disabled": 0}, {"is_reserved": 0, "fusion_lon": 0.0, "lon": -76.98623333333333, "fusion_lat": 0.0, "rental_uris": {"ios": "https://dc.lft.to/lastmile_qr_scan", "android": "https://dc.lft.to/lastmile_qr_scan"}, "bike_id": "b43b0ffaf93dfe8aab993a510a2c1633", "lat": 38.932872833333334, "type": "electric_scooter", "name": "b43b0ffaf93dfe8aab993a510a2c1633", "is_disabled": 0}, {"is_reserved": 0, "fusion_lon": 0.0, "lon": -77.044117, "fusion_lat": 0.0, "rental_uris": {"ios": "https://dc.lft.to/lastmile_qr_scan", "android": "https://dc.lft.to/lastmile_qr_scan"}, "bike_id": "d305acd52e5f3c5db4fa290d501402b1", "lat": 38.934186, "type": "electric_scooter", "name": "d305acd52e5f3c5db4fa290d501402b1", "is_disabled": 0}, {"is_reserved": 0, "fusion_lon": 0.0, "lon": -76.98887266666667, "fusion_lat": 0.0, "rental_uris": {"ios": "https://dc.lft.to/lastmile_qr_scan", "android": "https://dc.lft.to/lastmile_qr_scan"}, "bike_id": "ddf07138f8587b9b524c9f171e51dbb2", "lat": 38.86650016666667, "type": "electric_scooter", "name": "ddf07138f8587b9b524c9f171e51dbb2", "is_disabled": 0}, {"is_reserved": 0, "fusion_lon": 0.0, "lon": -77.22892383333334, "fusion_lat": 0.0, "rental_uris": {"ios": "https://dc.lft.to/lastmile_qr_scan", "android": "https://dc.lft.to/lastmile_qr_scan"}, "bike_id": "e8a6d7db9093ca55519e968ab9ed8a98", "lat": 38.90955783333333, "type": "electric_bike", "name": "e8a6d7db9093ca55519e968ab9ed8a98", "is_disabled": 0}, {"is_reserved": 0, "fusion_lon": 0.0, "lon": -77.03103583333333, "fusion_lat": 0.0, "rental_uris": {"ios": "https://dc.lft.to/lastmile_qr_scan", "android": "https://dc.lft.to/lastmile_qr_scan"}, "bike_id": "0ab5cf00fec9d5d8315b3ae20efbc08a", "lat": 38.9238545, "type": "electric_scooter", "name": "0ab5cf00fec9d5d8315b3ae20efbc08a", "is_disabled": 0}, {"is_reserved": 0, "fusion_lon": 0.0, "lon": -77.0225655, "fusion_lat": 0.0, "rental_uris": {"ios": "https://dc.lft.to/lastmile_qr_scan", "android": "https://dc.lft.to/lastmile_qr_scan"}, "bike_id": "65d801f1d49eda0e2979c039b7914a3e", "lat": 38.89388233333333, "type": "electric_scooter", "name": "65d801f1d49eda0e2979c039b7914a3e", "is_disabled": 0}, {"is_reserved": 0, "fusion_lon": 0.0, "lon": -77.0259725, "fusion_lat": 0.0, "rental_uris": {"ios": "https://dc.lft.to/lastmile_qr_scan", "android": "https://dc.lft.to/lastmile_qr_scan"}, "bike_id": "180aaa7cdc3868bd87cb474c33880ed4", "lat": 38.96390616666667, "type": "electric_scooter", "name": "180aaa7cdc3868bd87cb474c33880ed4", "is_disabled": 0}, {"is_reserved": 0, "fusion_lon": 0.0, "lon": -77.03495866666667, "fusion_lat": 0.0, "rental_uris": {"ios": "https://dc.lft.to/lastmile_qr_scan", "android": "https://dc.lft.to/lastmile_qr_scan"}, "bike_id": "0cce0fa574cf941834cff7ec61c8fd05", "lat": 38.916893333333334, "type": "electric_scooter", "name": "0cce0fa574cf941834cff7ec61c8fd05", "is_disabled": 0}, {"is_reserved": 0, "fusion_lon": 0.0, "lon": -77.03834416666666, "fusion_lat": 0.0, "rental_uris": {"ios": "https://dc.lft.to/lastmile_qr_scan", "android": "https://dc.lft.to/lastmile_qr_scan"}, "bike_id": "1b9c6152930fb02f2a0db261eda1f72a", "lat": 38.921696, "type": "electric_scooter", "name": "1b9c6152930fb02f2a0db261eda1f72a", "is_disabled": 0}, {"is_reserved": 0, "fusion_lon": 0.0, "lon": -77.02206416666667, "fusion_lat": 0.0, "rental_uris": {"ios": "https://dc.lft.to/lastmile_qr_scan", "android": "https://dc.lft.to/lastmile_qr_scan"}, "bike_id": "2c4b8c8f6c73e588d47d8eb1464ab721", "lat": 38.919747, "type": "electric_scooter", "name": "2c4b8c8f6c73e588d47d8eb1464ab721", "is_disabled": 0}, {"is_reserved": 0, "fusion_lon": 0.0, "lon": -77.05859783333334, "fusion_lat": 0.0, "rental_uris": {"ios": "https://dc.lft.to/lastmile_qr_scan", "android": "https://dc.lft.to/lastmile_qr_scan"}, "bike_id": "82973b8aec293998a4763dbc7e1aa258", "lat": 38.936067, "type": "electric_scooter", "name": "82973b8aec293998a4763dbc7e1aa258", "is_disabled": 0}, {"is_reserved": 0, "fusion_lon": 0.0, "lon": -77.02975116666667, "fusion_lat": 0.0, "rental_uris": {"ios": "https://dc.lft.to/lastmile_qr_scan", "android": "https://dc.lft.to/lastmile_qr_scan"}, "bike_id": "2899af137c7a3b21dadb6cc106a44cb0", "lat": 38.90619433333333, "type": "electric_scooter", "name": "2899af137c7a3b21dadb6cc106a44cb0", "is_disabled": 0}, {"is_reserved": 0, "fusion_lon": 0.0, "lon": -77.051314, "fusion_lat": 0.0, "rental_uris": {"ios": "https://dc.lft.to/lastmile_qr_scan", "android": "https://dc.lft.to/lastmile_qr_scan"}, "bike_id": "ef299cb15ae0281cf374f559c99b4b4d", "lat": 38.92362266666667, "type": "electric_scooter", "name": "ef299cb15ae0281cf374f559c99b4b4d", "is_disabled": 0}, {"is_reserved": 0, "fusion_lon": 0.0, "lon": -76.97825816666666, "fusion_lat": 0.0, "rental_uris": {"ios": "https://dc.lft.to/lastmile_qr_scan", "android": "https://dc.lft.to/lastmile_qr_scan"}, "bike_id": "9141f0edc74047f5e16b4087351b3c7a", "lat": 38.898361333333334, "type": "electric_scooter", "name": "9141f0edc74047f5e16b4087351b3c7a", "is_disabled": 0}, {"is_reserved": 0, "fusion_lon": 0.0, "lon": -77.048981, "fusion_lat": 0.0, "rental_uris": {"ios": "https://dc.lft.to/lastmile_qr_scan", "android": "https://dc.lft.to/lastmile_qr_scan"}, "bike_id": "228be9f6b33f3f13389b57ffa361428f", "lat": 38.897484166666665, "type": "electric_scooter", "name": "228be9f6b33f3f13389b57ffa361428f", "is_disabled": 0}, {"is_reserved": 0, "fusion_lon": 0.0, "lon": -77.03323016666667, "fusion_lat": 0.0, "rental_uris": {"ios": "https://dc.lft.to/lastmile_qr_scan", "android": "https://dc.lft.to/lastmile_qr_scan"}, "bike_id": "6b2925b400ce0e1877c240c9cf8f010d", "lat": 38.89852333333333, "type": "electric_scooter", "name": "6b2925b400ce0e1877c240c9cf8f010d", "is_disabled": 0}, {"is_reserved": 0, "fusion_lon": 0.0, "lon": -77.0071575, "fusion_lat": 0.0, "rental_uris": {"ios": "https://dc.lft.to/lastmile_qr_scan", "android": "https://dc.lft.to/lastmile_qr_scan"}, "bike_id": "4a8465d179d5970ee07c7ec1e9cf2b69", "lat": 38.884897, "type": "electric_scooter", "name": "4a8465d179d5970ee07c7ec1e9cf2b69", "is_disabled": 0}, {"is_reserved": 0, "fusion_lon": 0.0, "lon": -77.00682266666666, "fusion_lat": 0.0, "rental_uris": {"ios": "https://dc.lft.to/lastmile_qr_scan", "android": "https://dc.lft.to/lastmile_qr_scan"}, "bike_id": "2d7c952ad76c003f81dfbd266337ac9e", "lat": 38.87168416666667, "type": "electric_scooter", "name": "2d7c952ad76c003f81dfbd266337ac9e", "is_disabled": 0}, {"is_reserved": 0, "fusion_lon": 0.0, "lon": -77.04267266666666, "fusion_lat": 0.0, "rental_uris": {"ios": "https://dc.lft.to/lastmile_qr_scan", "android": "https://dc.lft.to/lastmile_qr_scan"}, "bike_id": "52c4d87aa85dc5461cdd6f6c91451d91", "lat": 38.89944666666667, "type": "electric_scooter", "name": "52c4d87aa85dc5461cdd6f6c91451d91", "is_disabled": 0}, {"is_reserved": 0, "fusion_lon": 0.0, "lon": -77.038705, "fusion_lat": 0.0, "rental_uris": {"ios": "https://dc.lft.to/lastmile_qr_scan", "android": "https://dc.lft.to/lastmile_qr_scan"}, "bike_id": "ea958e14dec35ede352095c3a22ef354", "lat": 38.93266, "type": "electric_scooter", "name": "ea958e14dec35ede352095c3a22ef354", "is_disabled": 0}, {"is_reserved": 0, "fusion_lon": 0.0, "lon": -77.024833, "fusion_lat": 0.0, "rental_uris": {"ios": "https://dc.lft.to/lastmile_qr_scan", "android": "https://dc.lft.to/lastmile_qr_scan"}, "bike_id": "f0f3faa9bc7d8eb61c0f637a4493dab3", "lat": 38.91875833333334, "type": "electric_scooter", "name": "f0f3faa9bc7d8eb61c0f637a4493dab3", "is_disabled": 0}, {"is_reserved": 0, "fusion_lon": 0.0, "lon": -77.005192, "fusion_lat": 0.0, "rental_uris": {"ios": "https://dc.lft.to/lastmile_qr_scan", "android": "https://dc.lft.to/lastmile_qr_scan"}, "bike_id": "8ce7a263baa44be8888ca7fe64d71b9f", "lat": 38.87470583333333, "type": "electric_scooter", "name": "8ce7a263baa44be8888ca7fe64d71b9f", "is_disabled": 0}, {"is_reserved": 0, "fusion_lon": 0.0, "lon": -77.02988116666667, "fusion_lat": 0.0, "rental_uris": {"ios": "https://dc.lft.to/lastmile_qr_scan", "android": "https://dc.lft.to/lastmile_qr_scan"}, "bike_id": "9ed3e95f8e2d2f1eec144258be174dc5", "lat": 38.907226666666666, "type": "electric_scooter", "name": "9ed3e95f8e2d2f1eec144258be174dc5", "is_disabled": 0}, {"is_reserved": 0, "fusion_lon": 0.0, "lon": -77.064065, "fusion_lat": 0.0, "rental_uris": {"ios": "https://dc.lft.to/lastmile_qr_scan", "android": "https://dc.lft.to/lastmile_qr_scan"}, "bike_id": "2f5598d4c34b0044c3d2ca9b541efe2a", "lat": 38.944376166666665, "type": "electric_scooter", "name": "2f5598d4c34b0044c3d2ca9b541efe2a", "is_disabled": 0}, {"is_reserved": 0, "fusion_lon": 0.0, "lon": -76.91806383333333, "fusion_lat": 0.0, "rental_uris": {"ios": "https://dc.lft.to/lastmile_qr_scan", "android": "https://dc.lft.to/lastmile_qr_scan"}, "bike_id": "e078901fcc0078cb83bdc2c3f8f4c42d", "lat": 38.99998, "type": "electric_bike", "name": "e078901fcc0078cb83bdc2c3f8f4c42d", "is_disabled": 0}, {"is_reserved": 0, "fusion_lon": 0.0, "lon": -77.02414166666667, "fusion_lat": 0.0, "rental_uris": {"ios": "https://dc.lft.to/lastmile_qr_scan", "android": "https://dc.lft.to/lastmile_qr_scan"}, "bike_id": "a9a810fc04e4e2c449e84b2f33cdf443", "lat": 38.892157833333336, "type": "electric_scooter", "name": "a9a810fc04e4e2c449e84b2f33cdf443", "is_disabled": 0}, {"is_reserved": 0, "fusion_lon": 0.0, "lon": -76.98375866666666, "fusion_lat": 0.0, "rental_uris": {"ios": "https://dc.lft.to/lastmile_qr_scan", "android": "https://dc.lft.to/lastmile_qr_scan"}, "bike_id": "9a27e4d623b9e7c5155a80be523f1412", "lat": 38.914906, "type": "electric_scooter", "name": "9a27e4d623b9e7c5155a80be523f1412", "is_disabled": 0}, {"is_reserved": 0, "fusion_lon": 0.0, "lon": -76.93970766666666, "fusion_lat": 0.0, "rental_uris": {"ios": "https://dc.lft.to/lastmile_qr_scan", "android": "https://dc.lft.to/lastmile_qr_scan"}, "bike_id": "bcbe5b300ce5cbeeee7cb66d84a14b9b", "lat": 38.893423, "type": "electric_scooter", "name": "bcbe5b300ce5cbeeee7cb66d84a14b9b", "is_disabled": 0}, {"is_reserved": 0, "fusion_lon": 0.0, "lon": -77.03410716666667, "fusion_lat": 0.0, "rental_uris": {"ios": "https://dc.lft.to/lastmile_qr_scan", "android": "https://dc.lft.to/lastmile_qr_scan"}, "bike_id": "362f07040333818a9e7880e3286487e6", "lat": 38.922656333333336, "type": "electric_scooter", "name": "362f07040333818a9e7880e3286487e6", "is_disabled": 0}, {"is_reserved": 0, "fusion_lon": 0.0, "lon": -77.038359, "fusion_lat": 0.0, "rental_uris": {"ios": "https://dc.lft.to/lastmile_qr_scan", "android": "https://dc.lft.to/lastmile_qr_scan"}, "bike_id": "b5c98be0f28d68da60ec5cd568bfb6ac", "lat": 38.904729333333336, "type": "electric_scooter", "name": "b5c98be0f28d68da60ec5cd568bfb6ac", "is_disabled": 0}, {"is_reserved": 0, "fusion_lon": 0.0, "lon": -77.01135266666667, "fusion_lat": 0.0, "rental_uris": {"ios": "https://dc.lft.to/lastmile_qr_scan", "android": "https://dc.lft.to/lastmile_qr_scan"}, "bike_id": "40c5822a0713748c286ff07d14c07a7f", "lat": 38.90722616666667, "type": "electric_scooter", "name": "40c5822a0713748c286ff07d14c07a7f", "is_disabled": 0}, {"is_reserved": 0, "fusion_lon": 0.0, "lon": -77.0154865, "fusion_lat": 0.0, "rental_uris": {"ios": "https://dc.lft.to/lastmile_qr_scan", "android": "https://dc.lft.to/lastmile_qr_scan"}, "bike_id": "34ef26c6b3fb39db3a30537f07d5ac0d", "lat": 38.89166483333333, "type": "electric_scooter", "name": "34ef26c6b3fb39db3a30537f07d5ac0d", "is_disabled": 0}, {"is_reserved": 0, "fusion_lon": 0.0, "lon": -77.01516866666667, "fusion_lat": 0.0, "rental_uris": {"ios": "https://dc.lft.to/lastmile_qr_scan", "android": "https://dc.lft.to/lastmile_qr_scan"}, "bike_id": "a47016dadb25c201df9b5d772561a2c1", "lat": 38.91319983333333, "type": "electric_scooter", "name": "a47016dadb25c201df9b5d772561a2c1", "is_disabled": 0}, {"is_reserved": 0, "fusion_lon": 0.0, "lon": -77.04373783333334, "fusion_lat": 0.0, "rental_uris": {"ios": "https://dc.lft.to/lastmile_qr_scan", "android": "https://dc.lft.to/lastmile_qr_scan"}, "bike_id": "57b473c49192898fc73bb4e33e46ee25", "lat": 38.89217766666667, "type": "electric_scooter", "name": "57b473c49192898fc73bb4e33e46ee25", "is_disabled": 0}, {"is_reserved": 0, "fusion_lon": 0.0, "lon": -77.00225866666666, "fusion_lat": 0.0, "rental_uris": {"ios": "https://dc.lft.to/lastmile_qr_scan", "android": "https://dc.lft.to/lastmile_qr_scan"}, "bike_id": "6da98ab2b5cfd3a09990bd9c927ecb8c", "lat": 38.92509666666667, "type": "electric_scooter", "name": "6da98ab2b5cfd3a09990bd9c927ecb8c", "is_disabled": 0}, {"is_reserved": 0, "fusion_lon": 0.0, "lon": -77.05316233333333, "fusion_lat": 0.0, "rental_uris": {"ios": "https://dc.lft.to/lastmile_qr_scan", "android": "https://dc.lft.to/lastmile_qr_scan"}, "bike_id": "a0335f623b21b1c12d357e512b29fed5", "lat": 38.90527266666667, "type": "electric_scooter", "name": "a0335f623b21b1c12d357e512b29fed5", "is_disabled": 0}, {"is_reserved": 0, "fusion_lon": 0.0, "lon": -77.02230766666666, "fusion_lat": 0.0, "rental_uris": {"ios": "https://dc.lft.to/lastmile_qr_scan", "android": "https://dc.lft.to/lastmile_qr_scan"}, "bike_id": "82402762672da2e0e241e9f9e5087363", "lat": 38.892176, "type": "electric_scooter", "name": "82402762672da2e0e241e9f9e5087363", "is_disabled": 0}, {"is_reserved": 0, "fusion_lon": 0.0, "lon": -76.94640916666667, "fusion_lat": 0.0, "rental_uris": {"ios": "https://dc.lft.to/lastmile_qr_scan", "android": "https://dc.lft.to/lastmile_qr_scan"}, "bike_id": "1b399f1cf42001f1617c9c713234c994", "lat": 38.898589333333334, "type": "electric_scooter", "name": "1b399f1cf42001f1617c9c713234c994", "is_disabled": 0}, {"is_reserved": 0, "fusion_lon": 0.0, "lon": -76.97170116666666, "fusion_lat": 0.0, "rental_uris": {"ios": "https://dc.lft.to/lastmile_qr_scan", "android": "https://dc.lft.to/lastmile_qr_scan"}, "bike_id": "86a9bcaa08247e8e4cf3ad974a829b3f", "lat": 38.86138866666667, "type": "electric_scooter", "name": "86a9bcaa08247e8e4cf3ad974a829b3f", "is_disabled": 0}, {"is_reserved": 0, "fusion_lon": 0.0, "lon": -77.0239075, "fusion_lat": 0.0, "rental_uris": {"ios": "https://dc.lft.to/lastmile_qr_scan", "android": "https://dc.lft.to/lastmile_qr_scan"}, "bike_id": "992f67a02dec9d85da6924b5bda858b9", "lat": 38.91972333333333, "type": "electric_scooter", "name": "992f67a02dec9d85da6924b5bda858b9", "is_disabled": 0}, {"is_reserved": 0, "fusion_lon": 0.0, "lon": -77.0572075, "fusion_lat": 0.0, "rental_uris": {"ios": "https://dc.lft.to/lastmile_qr_scan", "android": "https://dc.lft.to/lastmile_qr_scan"}, "bike_id": "9790c71a22127021166e18c3e161c0bb", "lat": 38.93375966666667, "type": "electric_scooter", "name": "9790c71a22127021166e18c3e161c0bb", "is_disabled": 0}, {"is_reserved": 0, "fusion_lon": 0.0, "lon": -77.07240916666667, "fusion_lat": 0.0, "rental_uris": {"ios": "https://dc.lft.to/lastmile_qr_scan", "android": "https://dc.lft.to/lastmile_qr_scan"}, "bike_id": "6a97d3d52446b197f48614eb32042794", "lat": 38.939451166666665, "type": "electric_scooter", "name": "6a97d3d52446b197f48614eb32042794", "is_disabled": 0}, {"is_reserved": 0, "fusion_lon": 0.0, "lon": -77.12551633333334, "fusion_lat": 0.0, "rental_uris": {"ios": "https://dc.lft.to/lastmile_qr_scan", "android": "https://dc.lft.to/lastmile_qr_scan"}, "bike_id": "37699bd79fac5fa5c97addf24cc9f584", "lat": 39.057094, "type": "electric_bike", "name": "37699bd79fac5fa5c97addf24cc9f584", "is_disabled": 0}, {"is_reserved": 0, "fusion_lon": 0.0, "lon": -77.04202733333334, "fusion_lat": 0.0, "rental_uris": {"ios": "https://dc.lft.to/lastmile_qr_scan", "android": "https://dc.lft.to/lastmile_qr_scan"}, "bike_id": "89fee0eb4453e1b9bc11fd2e0f1a24b8", "lat": 38.920947, "type": "electric_scooter", "name": "89fee0eb4453e1b9bc11fd2e0f1a24b8", "is_disabled": 0}, {"is_reserved": 0, "fusion_lon": 0.0, "lon": -77.02626266666667, "fusion_lat": 0.0, "rental_uris": {"ios": "https://dc.lft.to/lastmile_qr_scan", "android": "https://dc.lft.to/lastmile_qr_scan"}, "bike_id": "9d82efe0c50df81823919349a6e800ab", "lat": 38.9333215, "type": "electric_scooter", "name": "9d82efe0c50df81823919349a6e800ab", "is_disabled": 0}, {"is_reserved": 0, "fusion_lon": 0.0, "lon": -77.02171433333334, "fusion_lat": 0.0, "rental_uris": {"ios": "https://dc.lft.to/lastmile_qr_scan", "android": "https://dc.lft.to/lastmile_qr_scan"}, "bike_id": "6afe5038a5c3538ac6517951b1336be2", "lat": 38.905656, "type": "electric_scooter", "name": "6afe5038a5c3538ac6517951b1336be2", "is_disabled": 0}, {"is_reserved": 0, "fusion_lon": 0.0, "lon": -77.03126683333333, "fusion_lat": 0.0, "rental_uris": {"ios": "https://dc.lft.to/lastmile_qr_scan", "android": "https://dc.lft.to/lastmile_qr_scan"}, "bike_id": "39f137641f3d8bec9cd10d1108cc8283", "lat": 38.90717516666667, "type": "electric_scooter", "name": "39f137641f3d8bec9cd10d1108cc8283", "is_disabled": 0}, {"is_reserved": 0, "fusion_lon": 0.0, "lon": -77.0417305, "fusion_lat": 0.0, "rental_uris": {"ios": "https://dc.lft.to/lastmile_qr_scan", "android": "https://dc.lft.to/lastmile_qr_scan"}, "bike_id": "1d1283f18d62a78d6b7e9a955d739d51", "lat": 38.918145, "type": "electric_scooter", "name": "1d1283f18d62a78d6b7e9a955d739d51", "is_disabled": 0}, {"is_reserved": 0, "fusion_lon": 0.0, "lon": -77.02819116666667, "fusion_lat": 0.0, "rental_uris": {"ios": "https://dc.lft.to/lastmile_qr_scan", "android": "https://dc.lft.to/lastmile_qr_scan"}, "bike_id": "509b31b7301b6eaefaf798a7d1b19043", "lat": 38.898655166666664, "type": "electric_scooter", "name": "509b31b7301b6eaefaf798a7d1b19043", "is_disabled": 0}, {"is_reserved": 0, "fusion_lon": 0.0, "lon": -77.01472066666666, "fusion_lat": 0.0, "rental_uris": {"ios": "https://dc.lft.to/lastmile_qr_scan", "android": "https://dc.lft.to/lastmile_qr_scan"}, "bike_id": "b7663f42ec84d7d2be15e7efb1ebdf1d", "lat": 38.918529666666664, "type": "electric_scooter", "name": "b7663f42ec84d7d2be15e7efb1ebdf1d", "is_disabled": 0}, {"is_reserved": 0, "fusion_lon": 0.0, "lon": -77.046883, "fusion_lat": 0.0, "rental_uris": {"ios": "https://dc.lft.to/lastmile_qr_scan", "android": "https://dc.lft.to/lastmile_qr_scan"}, "bike_id": "b941d5bd7cea3679842a0ba5ab3315b9", "lat": 38.892208833333335, "type": "electric_scooter", "name": "b941d5bd7cea3679842a0ba5ab3315b9", "is_disabled": 0}, {"is_reserved": 0, "fusion_lon": 0.0, "lon": -76.94724583333333, "fusion_lat": 0.0, "rental_uris": {"ios": "https://dc.lft.to/lastmile_qr_scan", "android": "https://dc.lft.to/lastmile_qr_scan"}, "bike_id": "e99ebef8b93962df89e43f83a3a63580", "lat": 38.8973545, "type": "electric_scooter", "name": "e99ebef8b93962df89e43f83a3a63580", "is_disabled": 0}, {"is_reserved": 0, "fusion_lon": 0.0, "lon": -77.02314416666667, "fusion_lat": 0.0, "rental_uris": {"ios": "https://dc.lft.to/lastmile_qr_scan", "android": "https://dc.lft.to/lastmile_qr_scan"}, "bike_id": "3d84364a5969c5e58b82759d5c84ded3", "lat": 38.9179215, "type": "electric_scooter", "name": "3d84364a5969c5e58b82759d5c84ded3", "is_disabled": 0}, {"is_reserved": 0, "fusion_lon": 0.0, "lon": -77.03147683333333, "fusion_lat": 0.0, "rental_uris": {"ios": "https://dc.lft.to/lastmile_qr_scan", "android": "https://dc.lft.to/lastmile_qr_scan"}, "bike_id": "96b8bb1272be0f6cb675732bb51b4402", "lat": 38.941718333333334, "type": "electric_scooter", "name": "96b8bb1272be0f6cb675732bb51b4402", "is_disabled": 0}, {"is_reserved": 0, "fusion_lon": 0.0, "lon": -77.02215983333333, "fusion_lat": 0.0, "rental_uris": {"ios": "https://dc.lft.to/lastmile_qr_scan", "android": "https://dc.lft.to/lastmile_qr_scan"}, "bike_id": "e7eee78ed34b8341600f4e9222e42119", "lat": 38.89574316666667, "type": "electric_scooter", "name": "e7eee78ed34b8341600f4e9222e42119", "is_disabled": 0}, {"is_reserved": 0, "fusion_lon": 0.0, "lon": -77.04086033333333, "fusion_lat": 0.0, "rental_uris": {"ios": "https://dc.lft.to/lastmile_qr_scan", "android": "https://dc.lft.to/lastmile_qr_scan"}, "bike_id": "03d9cda0e7f1386fb0dad74408d03544", "lat": 38.92389083333333, "type": "electric_scooter", "name": "03d9cda0e7f1386fb0dad74408d03544", "is_disabled": 0}, {"is_reserved": 0, "fusion_lon": 0.0, "lon": -77.0433625, "fusion_lat": 0.0, "rental_uris": {"ios": "https://dc.lft.to/lastmile_qr_scan", "android": "https://dc.lft.to/lastmile_qr_scan"}, "bike_id": "42ccdf2b720efcd8e8efb726b98fd2af", "lat": 38.91328716666666, "type": "electric_scooter", "name": "42ccdf2b720efcd8e8efb726b98fd2af", "is_disabled": 0}, {"is_reserved": 0, "fusion_lon": 0.0, "lon": -77.021997, "fusion_lat": 0.0, "rental_uris": {"ios": "https://dc.lft.to/lastmile_qr_scan", "android": "https://dc.lft.to/lastmile_qr_scan"}, "bike_id": "69c962e4366053ce4452731642ca2932", "lat": 38.892668666666665, "type": "electric_scooter", "name": "69c962e4366053ce4452731642ca2932", "is_disabled": 0}, {"is_reserved": 0, "fusion_lon": 0.0, "lon": -77.0347025, "fusion_lat": 0.0, "rental_uris": {"ios": "https://dc.lft.to/lastmile_qr_scan", "android": "https://dc.lft.to/lastmile_qr_scan"}, "bike_id": "56d58bb409015aee8d85d4304fb3dcde", "lat": 38.901653, "type": "electric_scooter", "name": "56d58bb409015aee8d85d4304fb3dcde", "is_disabled": 0}, {"is_reserved": 0, "fusion_lon": 0.0, "lon": -77.0231955, "fusion_lat": 0.0, "rental_uris": {"ios": "https://dc.lft.to/lastmile_qr_scan", "android": "https://dc.lft.to/lastmile_qr_scan"}, "bike_id": "e1a5cc51c60e98afcfbcf75b743b6029", "lat": 38.895760333333335, "type": "electric_scooter", "name": "e1a5cc51c60e98afcfbcf75b743b6029", "is_disabled": 0}, {"is_reserved": 0, "fusion_lon": 0.0, "lon": -77.04023366666667, "fusion_lat": 0.0, "rental_uris": {"ios": "https://dc.lft.to/lastmile_qr_scan", "android": "https://dc.lft.to/lastmile_qr_scan"}, "bike_id": "579fb3aaf08c42b75428c2408e590bbd", "lat": 38.92443933333333, "type": "electric_scooter", "name": "579fb3aaf08c42b75428c2408e590bbd", "is_disabled": 0}, {"is_reserved": 0, "fusion_lon": 0.0, "lon": -77.04196983333334, "fusion_lat": 0.0, "rental_uris": {"ios": "https://dc.lft.to/lastmile_qr_scan", "android": "https://dc.lft.to/lastmile_qr_scan"}, "bike_id": "665a99c2b693c05e3d2ca1a8a7806859", "lat": 38.9052805, "type": "electric_scooter", "name": "665a99c2b693c05e3d2ca1a8a7806859", "is_disabled": 0}, {"is_reserved": 0, "fusion_lon": 0.0, "lon": -77.033039, "fusion_lat": 0.0, "rental_uris": {"ios": "https://dc.lft.to/lastmile_qr_scan", "android": "https://dc.lft.to/lastmile_qr_scan"}, "bike_id": "81186d8c3aa4ab3eecad2d88d9e0bedd", "lat": 38.928691, "type": "electric_scooter", "name": "81186d8c3aa4ab3eecad2d88d9e0bedd", "is_disabled": 0}, {"is_reserved": 0, "fusion_lon": 0.0, "lon": -77.00118333333333, "fusion_lat": 0.0, "rental_uris": {"ios": "https://dc.lft.to/lastmile_qr_scan", "android": "https://dc.lft.to/lastmile_qr_scan"}, "bike_id": "3b9665c359244b498d182d122604a48f", "lat": 38.87368566666667, "type": "electric_scooter", "name": "3b9665c359244b498d182d122604a48f", "is_disabled": 0}, {"is_reserved": 0, "fusion_lon": 0.0, "lon": -77.00219133333333, "fusion_lat": 0.0, "rental_uris": {"ios": "https://dc.lft.to/lastmile_qr_scan", "android": "https://dc.lft.to/lastmile_qr_scan"}, "bike_id": "ff9391d2c3120c9df53bb09f406de70a", "lat": 38.91456433333333, "type": "electric_scooter", "name": "ff9391d2c3120c9df53bb09f406de70a", "is_disabled": 0}, {"is_reserved": 0, "fusion_lon": 0.0, "lon": -76.956709, "fusion_lat": 0.0, "rental_uris": {"ios": "https://dc.lft.to/lastmile_qr_scan", "android": "https://dc.lft.to/lastmile_qr_scan"}, "bike_id": "b899eb03fc2e0641a1ffac28a848847b", "lat": 38.8848975, "type": "electric_bike", "name": "b899eb03fc2e0641a1ffac28a848847b", "is_disabled": 0}, {"is_reserved": 0, "fusion_lon": 0.0, "lon": -76.98000416666666, "fusion_lat": 0.0, "rental_uris": {"ios": "https://dc.lft.to/lastmile_qr_scan", "android": "https://dc.lft.to/lastmile_qr_scan"}, "bike_id": "34f0250eda68e8840623a2df8c854144", "lat": 38.90679933333333, "type": "electric_scooter", "name": "34f0250eda68e8840623a2df8c854144", "is_disabled": 0}, {"is_reserved": 0, "fusion_lon": 0.0, "lon": -77.01659933333333, "fusion_lat": 0.0, "rental_uris": {"ios": "https://dc.lft.to/lastmile_qr_scan", "android": "https://dc.lft.to/lastmile_qr_scan"}, "bike_id": "10e14a6fd6eae6fcf69300bae23e49eb", "lat": 38.8812145, "type": "electric_scooter", "name": "10e14a6fd6eae6fcf69300bae23e49eb", "is_disabled": 0}, {"is_reserved": 0, "fusion_lon": 0.0, "lon": -77.0393635, "fusion_lat": 0.0, "rental_uris": {"ios": "https://dc.lft.to/lastmile_qr_scan", "android": "https://dc.lft.to/lastmile_qr_scan"}, "bike_id": "72fa1c7db18debe6c72d92c6a8f4be4a", "lat": 38.9156475, "type": "electric_scooter", "name": "72fa1c7db18debe6c72d92c6a8f4be4a", "is_disabled": 0}, {"is_reserved": 0, "fusion_lon": 0.0, "lon": -77.02177933333333, "fusion_lat": 0.0, "rental_uris": {"ios": "https://dc.lft.to/lastmile_qr_scan", "android": "https://dc.lft.to/lastmile_qr_scan"}, "bike_id": "cc1f42be6abc94ab58d21ac67e9ce947", "lat": 38.893720333333334, "type": "electric_scooter", "name": "cc1f42be6abc94ab58d21ac67e9ce947", "is_disabled": 0}, {"is_reserved": 0, "fusion_lon": 0.0, "lon": -77.04429383333333, "fusion_lat": 0.0, "rental_uris": {"ios": "https://dc.lft.to/lastmile_qr_scan", "android": "https://dc.lft.to/lastmile_qr_scan"}, "bike_id": "64ea448a9d964e7a6aa4bc7ede83b938", "lat": 38.89399733333333, "type": "electric_scooter", "name": "64ea448a9d964e7a6aa4bc7ede83b938", "is_disabled": 0}, {"is_reserved": 0, "fusion_lon": 0.0, "lon": -77.01414433333333, "fusion_lat": 0.0, "rental_uris": {"ios": "https://dc.lft.to/lastmile_qr_scan", "android": "https://dc.lft.to/lastmile_qr_scan"}, "bike_id": "97c10ce21c7e09350d10f1c569a30b54", "lat": 38.91398016666667, "type": "electric_scooter", "name": "97c10ce21c7e09350d10f1c569a30b54", "is_disabled": 0}, {"is_reserved": 0, "fusion_lon": 0.0, "lon": -77.04209633333333, "fusion_lat": 0.0, "rental_uris": {"ios": "https://dc.lft.to/lastmile_qr_scan", "android": "https://dc.lft.to/lastmile_qr_scan"}, "bike_id": "5dcb9301d2a0f33412854fe09dacacb0", "lat": 38.921307, "type": "electric_scooter", "name": "5dcb9301d2a0f33412854fe09dacacb0", "is_disabled": 0}, {"is_reserved": 0, "fusion_lon": 0.0, "lon": -76.97305033333333, "fusion_lat": 0.0, "rental_uris": {"ios": "https://dc.lft.to/lastmile_qr_scan", "android": "https://dc.lft.to/lastmile_qr_scan"}, "bike_id": "2919678cbba59aec660bea8424961e41", "lat": 38.919875166666664, "type": "electric_scooter", "name": "2919678cbba59aec660bea8424961e41", "is_disabled": 0}, {"is_reserved": 0, "fusion_lon": 0.0, "lon": -77.0006875, "fusion_lat": 0.0, "rental_uris": {"ios": "https://dc.lft.to/lastmile_qr_scan", "android": "https://dc.lft.to/lastmile_qr_scan"}, "bike_id": "2ed4c95e2d5859c8eb7473bc2b2429b0", "lat": 38.886935, "type": "electric_scooter", "name": "2ed4c95e2d5859c8eb7473bc2b2429b0", "is_disabled": 0}, {"is_reserved": 0, "fusion_lon": 0.0, "lon": -77.0337015, "fusion_lat": 0.0, "rental_uris": {"ios": "https://dc.lft.to/lastmile_qr_scan", "android": "https://dc.lft.to/lastmile_qr_scan"}, "bike_id": "0f45286023f894e2e60b60ddf33bc3e2", "lat": 38.90225366666667, "type": "electric_scooter", "name": "0f45286023f894e2e60b60ddf33bc3e2", "is_disabled": 0}, {"is_reserved": 0, "fusion_lon": 0.0, "lon": -77.02232716666667, "fusion_lat": 0.0, "rental_uris": {"ios": "https://dc.lft.to/lastmile_qr_scan", "android": "https://dc.lft.to/lastmile_qr_scan"}, "bike_id": "fdc7dd69a37384ce5863aa505323206e", "lat": 38.887627333333334, "type": "electric_scooter", "name": "fdc7dd69a37384ce5863aa505323206e", "is_disabled": 0},