{"data": {"bikes": [{"fusion_lat": 0.0, "name": "b72cc0a16aca7511fabc920fe9e57a72", "is_disabled": 0, "rental_uris": {"android": "https://dc.lft.to/lastmile_qr_scan", "ios": "https://dc.lft.to/lastmile_qr_scan"}, "fusion_lon": 0.0, "lat": 38.9088765, "bike_id": "b72cc0a16aca7511fabc920fe9e57a72", "type": "electric_scooter", "is_reserved": 0, "lon": -77.0439665}, {"fusion_lat": 0.0, "name": "ed5c10a91c0801e5b1c25990c1d4265f", "is_disabled": 0, "rental_uris": {"android": "https://dc.lft.to/lastmile_qr_scan", "ios": "https://dc.lft.to/lastmile_qr_scan"}, "fusion_lon": 0.0, "lat": 38.900178333333336, "bike_id": "ed5c10a91c0801e5b1c25990c1d4265f", "type": "electric_scooter", "is_reserved": 0, "lon": -76.993117}, {"fusion_lat": 0.0, "name": "7cb3109c0c86cfd000e3a6035ef9eff2", "is_disabled": 0, "rental_uris": {"android": "https://dc.lft.to/lastmile_qr_scan", "ios": "https://dc.lft.to/lastmile_qr_scan"}, "fusion_lon": 0.0, "lat": 38.897701166666664, "bike_id": "7cb3109c0c86cfd000e3a6035ef9eff2", "type": "electric_scooter", "is_reserved": 0, "lon": -77.02717783333334}, {"fusion_lat": 0.0, "name": "3a92795cd36d86248002048ed17088b2", "is_disabled": 0, "rental_uris": {"android": "https://dc.lft.to/lastmile_qr_scan", "ios": "https://dc.lft.to/lastmile_qr_scan"}, "fusion_lon": 0.0, "lat": 38.954223, "bike_id": "3a92795cd36d86248002048ed17088b2", "type": "electric_scooter", "is_reserved": 0, "lon": -77.02762816666667}, {"fusion_lat": 0.0, "name": "e52381696ab746850d6449682976e15b", "is_disabled": 0, "rental_uris": {"android": "https://dc.lft.to/lastmile_qr_scan", "ios": "https://dc.lft.to/lastmile_qr_scan"}, "fusion_lon": 0.0, "lat": 38.916370666666666, "bike_id": "e52381696ab746850d6449682976e15b", "type": "electric_scooter", "is_reserved": 0, "lon": -77.05078833333333}, {"fusion_lat": 0.0, "name": "14ff2158720ef7be41fa31ec1327cb2e", "is_disabled": 0, "rental_uris": {"android": "https://dc.lft.to/lastmile_qr_scan", "ios": "https://dc.lft.to/lastmile_qr_scan"}, "fusion_lon": 0.0, "lat": 38.89350616666667, "bike_id": "14ff2158720ef7be41fa31ec1327cb2e", "type": "electric_scooter", "is_reserved": 0, "lon": -76.98660683333334}, {"fusion_lat": 0.0, "name": "7f73d8fad71746adbf0ac0bf8e89e129", "is_disabled": 0, "rental_uris": {"android": "https://dc.lft.to/lastmile_qr_scan", "ios": "https://dc.lft.to/lastmile_qr_scan"}, "fusion_lon": 0.0, "lat": 38.9319045, "bike_id": "7f73d8fad71746adbf0ac0bf8e89e129", "type": "electric_scooter", "is_reserved": 0, "lon": -77.03303433333333}, {"fusion_lat": 0.0, "name": "825dff18fa4ea0e58a6189abdeba9404", "is_disabled": 0, "rental_uris": {"android": "https://dc.lft.to/lastmile_qr_scan", "ios": "https://dc.lft.to/lastmile_qr_scan"}, "fusion_lon": 0.0, "lat": 38.900032833333334, "bike_id": "825dff18fa4ea0e58a6189abdeba9404", "type": "electric_scooter", "is_reserved": 0, "lon": -76.99857716666666}, {"fusion_lat": 0.0, "name": "b1658c3e36115d99d5cc6905657139dc", "is_disabled": 0, "rental_uris": {"android": "https://dc.lft.to/lastmile_qr_scan", "ios": "https://dc.lft.to/lastmile_qr_scan"}, "fusion_lon": 0.0, "lat": 38.918499833333335, "bike_id": "b1658c3e36115d99d5cc6905657139dc", "type": "electric_scooter", "is_reserved": 0, "lon": -77.02312116666667}, {"fusion_lat": 0.0, "name": "f4b6a7412a3f0a86f214952b6cafd4a8", "is_disabled": 0, "rental_uris": {"android": "https://dc.lft.to/lastmile_qr_scan", "ios": "https://dc.lft.to/lastmile_qr_scan"}, "fusion_lon": 0.0, "lat": 38.898479, "bike_id": "f4b6a7412a3f0a86f214952b6cafd4a8", "type": "electric_scooter", "is_reserved": 0, "lon": -76.94255633333333}, {"fusion_lat": 0.0, "name": "2cd21b0f553a4399dab5833d80e81d2d", "is_disabled": 0, "rental_uris": {"android": "https://dc.lft.to/lastmile_qr_scan", "ios": "https://dc.lft.to/lastmile_qr_scan"}, "fusion_lon": 0.0, "lat": 38.9228845, "bike_id": "2cd21b0f553a4399dab5833d80e81d2d", "type": "electric_scooter", "is_reserved": 0, "lon": -77.02963433333333}, {"fusion_lat": 0.0, "name": "e51ae2c949185462f32ee3a24326fcb9", "is_disabled": 0, "rental_uris": {"android": "https://dc.lft.to/lastmile_qr_scan", "ios": "https://dc.lft.to/lastmile_qr_scan"}, "fusion_lon": 0.0, "lat": 38.89716933333333, "bike_id": "e51ae2c949185462f32ee3a24326fcb9", "type": "electric_scooter", "is_reserved": 0, "lon": -77.00797133333333}, {"fusion_lat": 0.0, "name": "4d33393f2feda91d3cef72b0c95a7793", "is_disabled": 0, "rental_uris": {"android": "https://dc.lft.to/lastmile_qr_scan", "ios": "https://dc.lft.to/lastmile_qr_scan"}, "fusion_lon": 0.0, "lat": 38.89983633333333, "bike_id": "4d33393f2feda91d3cef72b0c95a7793", "type": "electric_scooter", "is_reserved": 0, "lon": -77.0270775}, {"fusion_lat": 0.0, "name": "76104c51df61083415fe76df8d9a80f5", "is_disabled": 0, "rental_uris": {"android": "https://dc.lft.to/lastmile_qr_scan", "ios": "https://dc.lft.to/lastmile_qr_scan"}, "fusion_lon": 0.0, "lat": 38.90149666666667, "bike_id": "76104c51df61083415fe76df8d9a80f5", "type": "electric_scooter", "is_reserved": 0, "lon": -77.02601066666666}, {"fusion_lat": 0.0, "name": "5dc21aa1356212b8a7d368ca05160657", "is_disabled": 0, "rental_uris": {"android": "https://dc.lft.to/lastmile_qr_scan", "ios": "https://dc.lft.to/lastmile_qr_scan"}, "fusion_lon": 0.0, "lat": 38.892217, "bike_id": "5dc21aa1356212b8a7d368ca05160657", "type": "electric_scooter", "is_reserved": 0, "lon": -77.02310583333333}, {"fusion_lat": 0.0, "name": "7ed2c7d2f4bae658c2754ae84a1901a1", "is_disabled": 0, "rental_uris": {"android": "https://dc.lft.to/lastmile_qr_scan", "ios": "https://dc.lft.to/lastmile_qr_scan"}, "fusion_lon": 0.0, "lat": 38.9340095, "bike_id": "7ed2c7d2f4bae658c2754ae84a1901a1", "type": "electric_scooter", "is_reserved": 0, "lon": -77.02203233333333}, {"fusion_lat": 0.0, "name": "0dcf451f4b5b9eb1ff60ede116739d21", "is_disabled": 0, "rental_uris": {"android": "https://dc.lft.to/lastmile_qr_scan", "ios": "https://dc.lft.to/lastmile_qr_scan"}, "fusion_lon": 0.0, "lat": 38.90131916666667, "bike_id": "0dcf451f4b5b9eb1ff60ede116739d21", "type": "electric_scooter", "is_reserved": 0, "lon": -77.033782}, {"fusion_lat": 0.0, "name": "88edf2f1a3bf9d57d270d6bbc13f1839", "is_disabled": 0, "rental_uris": {"android": "https://dc.lft.to/lastmile_qr_scan", "ios": "https://dc.lft.to/lastmile_qr_scan"}, "fusion_lon": 0.0, "lat": 38.922762166666665, "bike_id": "88edf2f1a3bf9d57d270d6bbc13f1839", "type": "electric_bike", "is_reserved": 0, "lon": -76.98642416666667}, {"fusion_lat": 0.0, "name": "697f1afef99dc27e7dc375d327dfcfdc", "is_disabled": 0, "rental_uris": {"android": "https://dc.lft.to/lastmile_qr_scan", "ios": "https://dc.lft.to/lastmile_qr_scan"}, "fusion_lon": 0.0, "lat": 38.902261333333335, "bike_id": "697f1afef99dc27e7dc375d327dfcfdc", "type": "electric_scooter", "is_reserved": 0, "lon": -77.03250766666666}, {"fusion_lat": 0.0, "name": "dd33ffb423f2af26889d6ec52b97bb19", "is_disabled": 0, "rental_uris": {"android": "https://dc.lft.to/lastmile_qr_scan", "ios": "https://dc.lft.to/lastmile_qr_scan"}, "fusion_lon": 0.0, "lat": 38.9054345, "bike_id": "dd33ffb423f2af26889d6ec52b97bb19", "type": "electric_scooter", "is_reserved": 0, "lon": -77.04666833333333}, {"fusion_lat": 0.0, "name": "a627ffa90ebf0837aef507b0f4b677a2", "is_disabled": 0, "rental_uris": {"android": "https://dc.lft.to/lastmile_qr_scan", "ios": "https://dc.lft.to/lastmile_qr_scan"}, "fusion_lon": 0.0, "lat": 38.906713333333336, "bike_id": "a627ffa90ebf0837aef507b0f4b677a2", "type": "electric_scooter", "is_reserved": 0, "lon": -77.02695}, {"fusion_lat": 0.0, "name": "eece4e2d32d7c6975cde8af6b1543989", "is_disabled": 0, "rental_uris": {"android": "https://dc.lft.to/lastmile_qr_scan", "ios": "https://dc.lft.to/lastmile_qr_scan"}, "fusion_lon": 0.0, "lat": 38.9184235, "bike_id": "eece4e2d32d7c6975cde8af6b1543989", "type": "electric_scooter", "is_reserved": 0, "lon": -77.03224283333333}, {"fusion_lat": 0.0, "name": "5fb990d282ca9e3d00c6ef2109c8916e", "is_disabled": 0, "rental_uris": {"android": "https://dc.lft.to/lastmile_qr_scan", "ios": "https://dc.lft.to/lastmile_qr_scan"}, "fusion_lon": 0.0, "lat": 38.93580766666667, "bike_id": "5fb990d282ca9e3d00c6ef2109c8916e", "type": "electric_scooter", "is_reserved": 0, "lon": -77.02127433333334}, {"fusion_lat": 0.0, "name": "e5a9102a05419118f9fff6c15ce65872", "is_disabled": 0, "rental_uris": {"android": "https://dc.lft.to/lastmile_qr_scan", "ios": "https://dc.lft.to/lastmile_qr_scan"}, "fusion_lon": 0.0, "lat": 38.89999366666667, "bike_id": "e5a9102a05419118f9fff6c15ce65872", "type": "electric_scooter", "is_reserved": 0, "lon": -76.99755833333333}, {"fusion_lat": 0.0, "name": "7fae165ebaa6485e1401b0967b6c0985", "is_disabled": 0, "rental_uris": {"android": "https://dc.lft.to/lastmile_qr_scan", "ios": "https://dc.lft.to/lastmile_qr_scan"}, "fusion_lon": 0.0, "lat": 38.92098283333333, "bike_id": "7fae165ebaa6485e1401b0967b6c0985", "type": "electric_scooter", "is_reserved": 0, "lon": -77.02512883333333}, {"fusion_lat": 0.0, "name": "7822d3e1b6433044b078cea07a25fd5b", "is_disabled": 0, "rental_uris": {"android": "https://dc.lft.to/lastmile_qr_scan", "ios": "https://dc.lft.to/lastmile_qr_scan"}, "fusion_lon": 0.0, "lat": 38.9245735, "bike_id": "7822d3e1b6433044b078cea07a25fd5b", "type": "electric_scooter", "is_reserved": 0, "lon": -77.0397115}, {"fusion_lat": 0.0, "name": "311e6e65d78cfecb6f82ff0c25956337", "is_disabled": 0, "rental_uris": {"android": "https://dc.lft.to/lastmile_qr_scan", "ios": "https://dc.lft.to/lastmile_qr_scan"}, "fusion_lon": 0.0, "lat": 38.949378833333334, "bike_id": "311e6e65d78cfecb6f82ff0c25956337", "type": "electric_scooter", "is_reserved": 0, "lon": -77.06615966666666}, {"fusion_lat": 0.0, "name": "f1f4bb1a9ef7aaa7e67dca8bdfc9f87c", "is_disabled": 0, "rental_uris": {"android": "https://dc.lft.to/lastmile_qr_scan", "ios": "https://dc.lft.to/lastmile_qr_scan"}, "fusion_lon": 0.0, "lat": 38.90458783333333, "bike_id": "f1f4bb1a9ef7aaa7e67dca8bdfc9f87c", "type": "electric_scooter", "is_reserved": 0, "lon": -77.02824433333333}, {"fusion_lat": 0.0, "name": "38cca7f9ac37c756d19654f26900c2d2", "is_disabled": 0, "rental_uris": {"android": "https://dc.lft.to/lastmile_qr_scan", "ios": "https://dc.lft.to/lastmile_qr_scan"}, "fusion_lon": 0.0, "lat": 38.8748755, "bike_id": "38cca7f9ac37c756d19654f26900c2d2", "type": "electric_scooter", "is_reserved": 0, "lon": -77.00590333333334}, {"fusion_lat": 0.0, "name": "1ef83d6737d38ce139adb6d6ef446f2c", "is_disabled": 0, "rental_uris": {"android": "https://dc.lft.to/lastmile_qr_scan", "ios": "https://dc.lft.to/lastmile_qr_scan"}, "fusion_lon": 0.0, "lat": 38.902626166666664, "bike_id": "1ef83d6737d38ce139adb6d6ef446f2c", "type": "electric_scooter", "is_reserved": 0, "lon": -77.00540516666666}, {"fusion_lat": 0.0, "name": "06b6548c959a813b7718ee9bd8b23847", "is_disabled": 0, "rental_uris": {"android": "https://dc.lft.to/lastmile_qr_scan", "ios": "https://dc.lft.to/lastmile_qr_scan"}, "fusion_lon": 0.0, "lat": 38.90201883333334, "bike_id": "06b6548c959a813b7718ee9bd8b23847", "type": "electric_scooter", "is_reserved": 0, "lon": -77.02216583333333}, {"fusion_lat": 0.0, "name": "4693eb06524a1de823e4bd6827d51508", "is_disabled": 0, "rental_uris": {"android": "https://dc.lft.to/lastmile_qr_scan", "ios": "https://dc.lft.to/lastmile_qr_scan"}, "fusion_lon": 0.0, "lat": 38.876492666666664, "bike_id": "4693eb06524a1de823e4bd6827d51508", "type": "electric_scooter", "is_reserved": 0, "lon": -77.0007965}, {"fusion_lat": 0.0, "name": "6e78b178cb3c61371c9c01f03ad5921c", "is_disabled": 0, "rental_uris": {"android": "https://dc.lft.to/lastmile_qr_scan", "ios": "https://dc.lft.to/lastmile_qr_scan"}, "fusion_lon": 0.0, "lat": 38.895864333333336, "bike_id": "6e78b178cb3c61371c9c01f03ad5921c", "type": "electric_scooter", "is_reserved": 0, "lon": -76.98313}, {"fusion_lat": 0.0, "name": "1d50123050c1a9544bf26bde19af8296", "is_disabled": 0, "rental_uris": {"android": "https://dc.lft.to/lastmile_qr_scan", "ios": "https://dc.lft.to/lastmile_qr_scan"}, "fusion_lon": 0.0, "lat": 38.892284, "bike_id": "1d50123050c1a9544bf26bde19af8296", "type": "electric_scooter", "is_reserved": 0, "lon": -77.0489615}, {"fusion_lat": 0.0, "name": "88c1af5b32d067e7f3241eeeec6e8d6c", "is_disabled": 0, "rental_uris": {"android": "https://dc.lft.to/lastmile_qr_scan", "ios": "https://dc.lft.to/lastmile_qr_scan"}, "fusion_lon": 0.0, "lat": 38.90725366666667, "bike_id": "88c1af5b32d067e7f3241eeeec6e8d6c", "type": "electric_scooter", "is_reserved": 0, "lon": -77.007547}, {"fusion_lat": 0.0, "name": "f50068f6a5cdab007ae49ea45e00e725", "is_disabled": 0, "rental_uris": {"android": "https://dc.lft.to/lastmile_qr_scan", "ios": "https://dc.lft.to/lastmile_qr_scan"}, "fusion_lon": 0.0, "lat": 38.90241966666667, "bike_id": "f50068f6a5cdab007ae49ea45e00e725", "type": "electric_scooter", "is_reserved": 0, "lon": -77.01970633333333}, {"fusion_lat": 0.0, "name": "6efa4572e35ef9eeb3233205a42c1c93", "is_disabled": 0, "rental_uris": {"android": "https://dc.lft.to/lastmile_qr_scan", "ios": "https://dc.lft.to/lastmile_qr_scan"}, "fusion_lon": 0.0, "lat": 38.916849, "bike_id": "6efa4572e35ef9eeb3233205a42c1c93", "type": "electric_scooter", "is_reserved": 0, "lon": -77.03764666666666}, {"fusion_lat": 0.0, "name": "1fc18c4652b1048f2c16a583e36a96de", "is_disabled": 0, "rental_uris": {"android": "https://dc.lft.to/lastmile_qr_scan", "ios": "https://dc.lft.to/lastmile_qr_scan"}, "fusion_lon": 0.0, "lat": 38.92335816666667, "bike_id": "1fc18c4652b1048f2c16a583e36a96de", "type": "electric_scooter", "is_reserved": 0, "lon": -77.05299066666667}, {"fusion_lat": 0.0, "name": "e2d8739687bc7a36b185819027d7d4f6", "is_disabled": 0, "rental_uris": {"android": "https://dc.lft.to/lastmile_qr_scan", "ios": "https://dc.lft.to/lastmile_qr_scan"}, "fusion_lon": 0.0, "lat": 38.883941666666665, "bike_id": "e2d8739687bc7a36b185819027d7d4f6", "type": "electric_scooter", "is_reserved": 0, "lon": -76.93041866666667}, {"fusion_lat": 0.0, "name": "d2dbaee8477939a716b0bd566c7e24b3", "is_disabled": 0, "rental_uris": {"android": "https://dc.lft.to/lastmile_qr_scan", "ios": "https://dc.lft.to/lastmile_qr_scan"}, "fusion_lon": 0.0, "lat": 38.883691, "bike_id": "d2dbaee8477939a716b0bd566c7e24b3", "type": "electric_scooter", "is_reserved": 0, "lon": -77.01368733333334}, {"fusion_lat": 0.0, "name": "cdaf4108293b3f233b01ac964cbd2152", "is_disabled": 0, "rental_uris": {"android": "https://dc.lft.to/lastmile_qr_scan", "ios": "https://dc.lft.to/lastmile_qr_scan"}, "fusion_lon": 0.0, "lat": 38.915625666666664, "bike_id": "cdaf4108293b3f233b01ac964cbd2152", "type": "electric_scooter", "is_reserved": 0, "lon": -77.03169483333333}, {"fusion_lat": 0.0, "name": "69db6e5a64859bdb45bfd65caddfc4ee", "is_disabled": 0, "rental_uris": {"android": "https://dc.lft.to/lastmile_qr_scan", "ios": "https://dc.lft.to/lastmile_qr_scan"}, "fusion_lon": 0.0, "lat": 38.922944, "bike_id": "69db6e5a64859bdb45bfd65caddfc4ee", "type": "electric_scooter", "is_reserved": 0, "lon": -77.04214466666667}, {"fusion_lat": 0.0, "name": "6e3c2a1d53c883a93a66b0ea3d16d737", "is_disabled": 0, "rental_uris": {"android": "https://dc.lft.to/lastmile_qr_scan", "ios": "https://dc.lft.to/lastmile_qr_scan"}, "fusion_lon": 0.0, "lat": 38.90040883333333, "bike_id": "6e3c2a1d53c883a93a66b0ea3d16d737", "type": "electric_scooter", "is_reserved": 0, "lon": -77.01628466666666}, {"fusion_lat": 0.0, "name": "8c7436d5a72bc51c6473c63580fbe9ee", "is_disabled": 0, "rental_uris": {"android": "https://dc.lft.to/lastmile_qr_scan", "ios": "https://dc.lft.to/lastmile_qr_scan"}, "fusion_lon": 0.0, "lat": 38.85514783333333, "bike_id": "8c7436d5a72bc51c6473c63580fbe9ee", "type": "electric_bike", "is_reserved": 0, "lon": -76.98429266666666}, {"fusion_lat": 0.0, "name": "8ce34922ad2f1c633a93f11fc0903d85", "is_disabled": 0, "rental_uris": {"android": "https://dc.lft.to/lastmile_qr_scan", "ios": "https://dc.lft.to/lastmile_qr_scan"}, "fusion_lon": 0.0, "lat": 38.910204666666665, "bike_id": "8ce34922ad2f1c633a93f11fc0903d85", "type": "electric_scooter", "is_reserved": 0, "lon": -77.0528155}, {"fusion_lat": 0.0, "name": "7cbcb6e71cf08029be5c1f4c3cb6c92a", "is_disabled": 0, "rental_uris": {"android": "https://dc.lft.to/lastmile_qr_scan", "ios": "https://dc.lft.to/lastmile_qr_scan"}, "fusion_lon": 0.0, "lat": 38.917755, "bike_id": "7cbcb6e71cf08029be5c1f4c3cb6c92a", "type": "electric_scooter", "is_reserved": 0, "lon": -77.0241205}, {"fusion_lat": 0.0, "name": "e550c79f8be461fd1fdba079df67d613", "is_disabled": 0, "rental_uris": {"android": "https://dc.lft.to/lastmile_qr_scan", "ios": "https://dc.lft.to/lastmile_qr_scan"}, "fusion_lon": 0.0, "lat": 38.87211766666667, "bike_id": "e550c79f8be461fd1fdba079df67d613", "type": "electric_scooter", "is_reserved": 0, "lon": -77.00577283333334}, {"fusion_lat": 0.0, "name": "6531354f8737bde54cb83288adb09998", "is_disabled": 0, "rental_uris": {"android": "https://dc.lft.to/lastmile_qr_scan", "ios": "https://dc.lft.to/lastmile_qr_scan"}, "fusion_lon": 0.0, "lat": 38.91921983333334, "bike_id": "6531354f8737bde54cb83288adb09998", "type": "electric_scooter", "is_reserved": 0, "lon": -77.02666066666667}, {"fusion_lat": 0.0, "name": "f12a68454ce7d5b72b0dec8fab580f7b", "is_disabled": 0, "rental_uris": {"android": "https://dc.lft.to/lastmile_qr_scan", "ios": "https://dc.lft.to/lastmile_qr_scan"}, "fusion_lon": 0.0, "lat": 38.90722233333334, "bike_id": "f12a68454ce7d5b72b0dec8fab580f7b", "type": "electric_scooter", "is_reserved": 0, "lon": -77.04331283333333}, {"fusion_lat": 0.0, "name": "1972bd00e8f41a27bdb7b421c3e76d29", "is_disabled": 0, "rental_uris": {"android": "https://dc.lft.to/lastmile_qr_scan", "ios": "https://dc.lft.to/lastmile_qr_scan"}, "fusion_lon": 0.0, "lat": 38.91171416666667, "bike_id": "1972bd00e8f41a27bdb7b421c3e76d29", "type": "electric_scooter", "is_reserved": 0, "lon": -77.02194616666667}, {"fusion_lat": 0.0, "name": "62b5708cff257dfce8e535cadb339da2", "is_disabled": 0, "rental_uris": {"android": "https://dc.lft.to/lastmile_qr_scan", "ios": "https://dc.lft.to/lastmile_qr_scan"}, "fusion_lon": 0.0, "lat": 38.909759, "bike_id": "62b5708cff257dfce8e535cadb339da2", "type": "electric_scooter", "is_reserved": 0, "lon": -77.03443616666667}, {"fusion_lat": 0.0, "name": "0add4ee7cdfa2d5ad7f9777b33680178", "is_disabled": 0, "rental_uris": {"android": "https://dc.lft.to/lastmile_qr_scan", "ios": "https://dc.lft.to/lastmile_qr_scan"}, "fusion_lon": 0.0, "lat": 38.90364983333333, "bike_id": "0add4ee7cdfa2d5ad7f9777b33680178", "type": "electric_scooter", "is_reserved": 0, "lon": -77.01983966666667}, {"fusion_lat": 0.0, "name": "19038269e24ef7fdcf9f41c929d893a1", "is_disabled": 0, "rental_uris": {"android": "https://dc.lft.to/lastmile_qr_scan", "ios": "https://dc.lft.to/lastmile_qr_scan"}, "fusion_lon": 0.0, "lat": 38.93764733333333, "bike_id": "19038269e24ef7fdcf9f41c929d893a1", "type": "electric_scooter", "is_reserved": 0, "lon": -77.0245645}, {"fusion_lat": 0.0, "name": "ffd5319d3972ea6e8b6592b72dc85e64", "is_disabled": 0, "rental_uris": {"android": "https://dc.lft.to/lastmile_qr_scan", "ios": "https://dc.lft.to/lastmile_qr_scan"}, "fusion_lon": 0.0, "lat": 38.92488216666667, "bike_id": "ffd5319d3972ea6e8b6592b72dc85e64", "type": "electric_scooter", "is_reserved": 0, "lon": -77.02546533333333}, {"fusion_lat": 0.0, "name": "fd7fcde3f13ed7940aa8e565ac52708e", "is_disabled": 0, "rental_uris": {"android": "https://dc.lft.to/lastmile_qr_scan", "ios": "https://dc.lft.to/lastmile_qr_scan"}, "fusion_lon": 0.0, "lat": 38.917783666666665, "bike_id": "fd7fcde3f13ed7940aa8e565ac52708e", "type": "electric_scooter", "is_reserved": 0, "lon": -77.03205966666667}, {"fusion_lat": 0.0, "name": "47b32b6dd644de271f906c6803980b7e", "is_disabled": 0, "rental_uris": {"android": "https://dc.lft.to/lastmile_qr_scan", "ios": "https://dc.lft.to/lastmile_qr_scan"}, "fusion_lon": 0.0, "lat": 38.9029075, "bike_id": "47b32b6dd644de271f906c6803980b7e", "type": "electric_scooter", "is_reserved": 0, "lon": -77.061231}, {"fusion_lat": 0.0, "name": "bf10cd3d4290ef730a3b6df43edbfc57", "is_disabled": 0, "rental_uris": {"android": "https://dc.lft.to/lastmile_qr_scan", "ios": "https://dc.lft.to/lastmile_qr_scan"}, "fusion_lon": 0.0, "lat": 38.916661166666664, "bike_id": "bf10cd3d4290ef730a3b6df43edbfc57", "type": "electric_scooter", "is_reserved": 0, "lon": -77.03699183333333}, {"fusion_lat": 0.0, "name": "d380e8f116bb2fe12fee834cbec3eeab", "is_disabled": 0, "rental_uris": {"android": "https://dc.lft.to/lastmile_qr_scan", "ios": "https://dc.lft.to/lastmile_qr_scan"}, "fusion_lon": 0.0, "lat": 38.941845, "bike_id": "d380e8f116bb2fe12fee834cbec3eeab", "type": "electric_scooter", "is_reserved": 0, "lon": -77.02488166666667}, {"fusion_lat": 0.0, "name": "e10f17790d875af350982223cfa64e77", "is_disabled": 0, "rental_uris": {"android": "https://dc.lft.to/lastmile_qr_scan", "ios": "https://dc.lft.to/lastmile_qr_scan"}, "fusion_lon": 0.0, "lat": 38.90365083333333, "bike_id": "e10f17790d875af350982223cfa64e77", "type": "electric_scooter", "is_reserved": 0, "lon": -77.01646633333333}, {"fusion_lat": 0.0, "name": "c85ba2fce655eee75526d3428f86e2b5", "is_disabled": 0, "rental_uris": {"android": "https://dc.lft.to/lastmile_qr_scan", "ios": "https://dc.lft.to/lastmile_qr_scan"}, "fusion_lon": 0.0, "lat": 38.920943666666666, "bike_id": "c85ba2fce655eee75526d3428f86e2b5", "type": "electric_scooter", "is_reserved": 0, "lon": -77.02520133333333}, {"fusion_lat": 0.0, "name": "c3fa3bc14127c274339110c9ad3138ae", "is_disabled": 0, "rental_uris": {"android": "https://dc.lft.to/lastmile_qr_scan", "ios": "https://dc.lft.to/lastmile_qr_scan"}, "fusion_lon": 0.0, "lat": 38.912491333333335, "bike_id": "c3fa3bc14127c274339110c9ad3138ae", "type": "electric_scooter", "is_reserved": 0, "lon": -77.03871766666667}, {"fusion_lat": 0.0, "name": "0398f9230304cb909ff2bd816be4df08", "is_disabled": 0, "rental_uris": {"android": "https://dc.lft.to/lastmile_qr_scan", "ios": "https://dc.lft.to/lastmile_qr_scan"}, "fusion_lon": 0.0, "lat": 38.901300166666665, "bike_id": "0398f9230304cb909ff2bd816be4df08", "type": "electric_scooter", "is_reserved": 0, "lon": -77.038689}, {"fusion_lat": 0.0, "name": "6c85cf05d4e475a9e29e99eccec509ad", "is_disabled": 0, "rental_uris": {"android": "https://dc.lft.to/lastmile_qr_scan", "ios": "https://dc.lft.to/lastmile_qr_scan"}, "fusion_lon": 0.0, "lat": 38.887487666666665, "bike_id": "6c85cf05d4e475a9e29e99eccec509ad", "type": "electric_scooter", "is_reserved": 0, "lon": -77.02566033333333}, {"fusion_lat": 0.0, "name": "2d1092a22b9a5087990d5b680123f40a", "is_disabled": 0, "rental_uris": {"android": "https://dc.lft.to/lastmile_qr_scan", "ios": "https://dc.lft.to/lastmile_qr_scan"}, "fusion_lon": 0.0, "lat": 38.898489833333336, "bike_id": "2d1092a22b9a5087990d5b680123f40a", "type": "electric_scooter", "is_reserved": 0, "lon": -76.990363}, {"fusion_lat": 0.0, "name": "8d21a359085c560163d4fa566412af81", "is_disabled": 0, "rental_uris": {"android": "https://dc.lft.to/lastmile_qr_scan", "ios": "https://dc.lft.to/lastmile_qr_scan"}, "fusion_lon": 0.0, "lat": 38.994431, "bike_id": "8d21a359085c560163d4fa566412af81", "type": "electric_bike", "is_reserved": 0, "lon": -76.99589416666667}, {"fusion_lat": 0.0, "name": "a5b582d19166ded8606bd2ab391ab573", "is_disabled": 0, "rental_uris": {"android": "https://dc.lft.to/lastmile_qr_scan", "ios": "https://dc.lft.to/lastmile_qr_scan"}, "fusion_lon": 0.0, "lat": 38.94835066666667, "bike_id": "a5b582d19166ded8606bd2ab391ab573", "type": "electric_scooter", "is_reserved": 0, "lon": -77.06537783333333}, {"fusion_lat": 0.0, "name": "fae6b90a5db3b17743330b0a92cdfa0c", "is_disabled": 0, "rental_uris": {"android": "https://dc.lft.to/lastmile_qr_scan", "ios": "https://dc.lft.to/lastmile_qr_scan"}, "fusion_lon": 0.0, "lat": 38.93447166666667, "bike_id": "fae6b90a5db3b17743330b0a92cdfa0c", "type": "electric_bike", "is_reserved": 0, "lon": -77.02098983333333}, {"fusion_lat": 0.0, "name": "7eb8d0feb59158fd0d345a48050f88da", "is_disabled": 0, "rental_uris": {"android": "https://dc.lft.to/lastmile_qr_scan", "ios": "https://dc.lft.to/lastmile_qr_scan"}, "fusion_lon": 0.0, "lat": 38.90024716666667, "bike_id": "7eb8d0feb59158fd0d345a48050f88da", "type": "electric_scooter", "is_reserved": 0, "lon": -76.996348}, {"fusion_lat": 0.0, "name": "a6d699ffd276a1f63c99e695ce65f072", "is_disabled": 0, "rental_uris": {"android": "https://dc.lft.to/lastmile_qr_scan", "ios": "https://dc.lft.to/lastmile_qr_scan"}, "fusion_lon": 0.0, "lat": 38.951989, "bike_id": "a6d699ffd276a1f63c99e695ce65f072", "type": "electric_scooter", "is_reserved": 0, "lon": -77.01248766666667}, {"fusion_lat": 0.0, "name": "495f5a18f8b0026625f8b02784b4bd65", "is_disabled": 0, "rental_uris": {"android": "https://dc.lft.to/lastmile_qr_scan", "ios": "https://dc.lft.to/lastmile_qr_scan"}, "fusion_lon": 0.0, "lat": 38.9878505, "bike_id": "495f5a18f8b0026625f8b02784b4bd65", "type": "electric_bike", "is_reserved": 0, "lon": -77.141022}, {"fusion_lat": 0.0, "name": "3c3896b5284a9d2c1c42415e730b91d1", "is_disabled": 0, "rental_uris": {"android": "https://dc.lft.to/lastmile_qr_scan", "ios": "https://dc.lft.to/lastmile_qr_scan"}, "fusion_lon": 0.0, "lat": 38.94168, "bike_id": "3c3896b5284a9d2c1c42415e730b91d1", "type": "electric_bike", "is_reserved": 0, "lon": -76.96650116666666}, {"fusion_lat": 0.0, "name": "f2ed367fa04dce58392491147b5813b7", "is_disabled": 0, "rental_uris": {"android": "https://dc.lft.to/lastmile_qr_scan", "ios": "https://dc.lft.to/lastmile_qr_scan"}, "fusion_lon": 0.0, "lat": 38.915988, "bike_id": "f2ed367fa04dce58392491147b5813b7", "type": "electric_scooter", "is_reserved": 0, "lon": -77.0229205}, {"fusion_lat": 0.0, "name": "76cf49baa350ac7e2b7efef5fb83e0d9", "is_disabled": 0, "rental_uris": {"android": "https://dc.lft.to/lastmile_qr_scan", "ios": "https://dc.lft.to/lastmile_qr_scan"}, "fusion_lon": 0.0, "lat": 38.895439, "bike_id": "76cf49baa350ac7e2b7efef5fb83e0d9", "type": "electric_scooter", "is_reserved": 0, "lon": -76.983393}, {"fusion_lat": 0.0, "name": "cff8cef77affb33bf77d92d85d752704", "is_disabled": 0, "rental_uris": {"android": "https://dc.lft.to/lastmile_qr_scan", "ios": "https://dc.lft.to/lastmile_qr_scan"}, "fusion_lon": 0.0, "lat": 38.90838866666667, "bike_id": "cff8cef77affb33bf77d92d85d752704", "type": "electric_scooter", "is_reserved": 0, "lon": -77.02398266666667}, {"fusion_lat": 0.0, "name": "1ba6e058cdc7c035599fe4adf440a0ec", "is_disabled": 0, "rental_uris": {"android": "https://dc.lft.to/lastmile_qr_scan", "ios": "https://dc.lft.to/lastmile_qr_scan"}, "fusion_lon": 0.0, "lat": 38.9180815, "bike_id": "1ba6e058cdc7c035599fe4adf440a0ec", "type": "electric_scooter", "is_reserved": 0, "lon": -77.034373}, {"fusion_lat": 0.0, "name": "64de932393003b94db846def542286f7", "is_disabled": 0, "rental_uris": {"android": "https://dc.lft.to/lastmile_qr_scan", "ios": "https://dc.lft.to/lastmile_qr_scan"}, "fusion_lon": 0.0, "lat": 38.9407745, "bike_id": "64de932393003b94db846def542286f7", "type": "electric_bike", "is_reserved": 0, "lon": -77.00026966666667}, {"fusion_lat": 0.0, "name": "f38db89f7ca350dc33d78073586f89dc", "is_disabled": 0, "rental_uris": {"android": "https://dc.lft.to/lastmile_qr_scan", "ios": "https://dc.lft.to/lastmile_qr_scan"}, "fusion_lon": 0.0, "lat": 38.91476266666667, "bike_id": "f38db89f7ca350dc33d78073586f89dc", "type": "electric_scooter", "is_reserved": 0, "lon": -77.04563266666666}, {"fusion_lat": 0.0, "name": "081c9b80378ffd024a84599edfac9f89", "is_disabled": 0, "rental_uris": {"android": "https://dc.lft.to/lastmile_qr_scan", "ios": "https://dc.lft.to/lastmile_qr_scan"}, "fusion_lon": 0.0, "lat": 38.873714666666665, "bike_id": "081c9b80378ffd024a84599edfac9f89", "type": "electric_scooter", "is_reserved": 0, "lon": -77.0012605}, {"fusion_lat": 0.0, "name": "4e72c5a44e8302f17a3f16fc84c869b9", "is_disabled": 0, "rental_uris": {"android": "https://dc.lft.to/lastmile_qr_scan", "ios": "https://dc.lft.to/lastmile_qr_scan"}, "fusion_lon": 0.0, "lat": 38.87738366666667, "bike_id": "4e72c5a44e8302f17a3f16fc84c869b9", "type": "electric_scooter", "is_reserved": 0, "lon": -76.9703135}, {"fusion_lat": 0.0, "name": "99cdb5871f7570acf1a2b4fd76076f48", "is_disabled": 0, "rental_uris": {"android": "https://dc.lft.to/lastmile_qr_scan", "ios": "https://dc.lft.to/lastmile_qr_scan"}, "fusion_lon": 0.0, "lat": 38.903930333333335, "bike_id": "99cdb5871f7570acf1a2b4fd76076f48", "type": "electric_scooter", "is_reserved": 0, "lon": -77.04891466666666}, {"fusion_lat": 0.0, "name": "d91dc915c5243da7720a2288295bb7a6", "is_disabled": 0, "rental_uris": {"android": "https://dc.lft.to/lastmile_qr_scan", "ios": "https://dc.lft.to/lastmile_qr_scan"}, "fusion_lon": 0.0, "lat": 38.9264605, "bike_id": "d91dc915c5243da7720a2288295bb7a6", "type": "electric_scooter", "is_reserved": 0, "lon": -77.02598116666667}, {"fusion_lat": 0.0, "name": "30f7fc222e20297ca4df6d50103d7842", "is_disabled": 0, "rental_uris": {"android": "https://dc.lft.to/lastmile_qr_scan", "ios": "https://dc.lft.to/lastmile_qr_scan"}, "fusion_lon": 0.0, "lat": 38.892314166666665, "bike_id": "30f7fc222e20297ca4df6d50103d7842", "type": "electric_scooter", "is_reserved": 0, "lon": -77.0487495}, {"fusion_lat": 0.0, "name": "6b668580f16d3a2d08b79c09c731f526", "is_disabled": 0, "rental_uris": {"android": "https://dc.lft.to/lastmile_qr_scan", "ios": "https://dc.lft.to/lastmile_qr_scan"}, "fusion_lon": 0.0, "lat": 38.902191333333334, "bike_id": "6b668580f16d3a2d08b79c09c731f526", "type": "electric_scooter", "is_reserved": 0, "lon": -77.04159416666667}, {"fusion_lat": 0.0, "name": "c174719443e91705dff5932032581e5a", "is_disabled": 0, "rental_uris": {"android": "https://dc.lft.to/lastmile_qr_scan", "ios": "https://dc.lft.to/lastmile_qr_scan"}, "fusion_lon": 0.0, "lat": 38.929823166666665, "bike_id": "c174719443e91705dff5932032581e5a", "type": "electric_scooter", "is_reserved": 0, "lon": -77.03653866666667}, {"fusion_lat": 0.0, "name": "b2534f77adf7aeff0257d3349b5e3f08", "is_disabled": 0, "rental_uris": {"android": "https://dc.lft.to/lastmile_qr_scan", "ios": "https://dc.lft.to/lastmile_qr_scan"}, "fusion_lon": 0.0, "lat": 38.92444366666667, "bike_id": "b2534f77adf7aeff0257d3349b5e3f08", "type": "electric_scooter", "is_reserved": 0, "lon": -77.02022716666667}, {"fusion_lat": 0.0, "name": "5ed314fc5f9b1ab7e6209f5ec0003a22", "is_disabled": 0, "rental_uris": {"android": "https://dc.lft.to/lastmile_qr_scan", "ios": "https://dc.lft.to/lastmile_qr_scan"}, "fusion_lon": 0.0, "lat": 38.91406666666666, "bike_id": "5ed314fc5f9b1ab7e6209f5ec0003a22", "type": "electric_scooter", "is_reserved": 0, "lon": -77.02206583333333}, {"fusion_lat": 0.0, "name": "13fbf41090ab504e28706608a2dc7ef4", "is_disabled": 0, "rental_uris": {"android": "https://dc.lft.to/lastmile_qr_scan", "ios": "https://dc.lft.to/lastmile_qr_scan"}, "fusion_lon": 0.0, "lat": 38.916490833333334, "bike_id": "13fbf41090ab504e28706608a2dc7ef4", "type": "electric_scooter", "is_reserved": 0, "lon": -77.02181416666667}, {"fusion_lat": 0.0, "name": "432a2e35201839c7757cbbc06181e360", "is_disabled": 0, "rental_uris": {"android": "https://dc.lft.to/lastmile_qr_scan", "ios": "https://dc.lft.to/lastmile_qr_scan"}, "fusion_lon": 0.0, "lat": 38.921289, "bike_id": "432a2e35201839c7757cbbc06181e360", "type": "electric_scooter", "is_reserved": 0, "lon": -77.00406866666667}, {"fusion_lat": 0.0, "name": "621a605afd1e396fc5f8e611a201a84f", "is_disabled": 0, "rental_uris": {"android": "https://dc.lft.to/lastmile_qr_scan", "ios": "https://dc.lft.to/lastmile_qr_scan"}, "fusion_lon": 0.0, "lat": 38.992309166666665, "bike_id": "621a605afd1e396fc5f8e611a201a84f", "type": "electric_bike", "is_reserved": 0, "lon": -76.9441685}, {"fusion_lat": 0.0, "name": "6fc16d88952e20dc07a999782f6f89bf", "is_disabled": 0, "rental_uris": {"android": "https://dc.lft.to/lastmile_qr_scan", "ios": "https://dc.lft.to/lastmile_qr_scan"}, "fusion_lon": 0.0, "lat": 38.907968833333335, "bike_id": "6fc16d88952e20dc07a999782f6f89bf", "type": "electric_scooter", "is_reserved": 0, "lon": -77.02948633333334}, {"fusion_lat": 0.0, "name": "0b591264150c61d9587acef5965e9976", "is_disabled": 0, "rental_uris": {"android": "https://dc.lft.to/lastmile_qr_scan", "ios": "https://dc.lft.to/lastmile_qr_scan"}, "fusion_lon": 0.0, "lat": 38.90352466666667, "bike_id": "0b591264150c61d9587acef5965e9976", "type": "electric_scooter", "is_reserved": 0, "lon": -77.03659883333333}, {"fusion_lat": 0.0, "name": "8e6e089a6ad71bf540d860cd1a7e6e01", "is_disabled": 0, "rental_uris": {"android": "https://dc.lft.to/lastmile_qr_scan", "ios": "https://dc.lft.to/lastmile_qr_scan"}, "fusion_lon": 0.0, "lat": 38.92607016666667, "bike_id": "8e6e089a6ad71bf540d860cd1a7e6e01", "type": "electric_bike", "is_reserved": 0, "lon": -77.06418716666667}, {"fusion_lat": 0.0, "name": "5e7b18e4c7d3442a1905759dde2f56d1", "is_disabled": 0, "rental_uris": {"android": "https://dc.lft.to/lastmile_qr_scan", "ios": "https://dc.lft.to/lastmile_qr_scan"}, "fusion_lon": 0.0, "lat": 38.987881333333334, "bike_id": "5e7b18e4c7d3442a1905759dde2f56d1", "type": "electric_scooter", "is_reserved": 0, "lon": -77.02416983333333}, {"fusion_lat": 0.0, "name": "017f6a54cef0a96bf4ddfbb14e525b65", "is_disabled": 0, "rental_uris": {"android": "https://dc.lft.to/lastmile_qr_scan", "ios": "https://dc.lft.to/lastmile_qr_scan"}, "fusion_lon": 0.0, "lat": 38.93576133333333, "bike_id": "017f6a54cef0a96bf4ddfbb14e525b65", "type": "electric_scooter", "is_reserved": 0, "lon": -77.03663666666667}, {"fusion_lat": 0.0, "name": "94f212b739fe1a8f33e979776ef66217", "is_disabled": 0, "rental_uris": {"android": "https://dc.lft.to/lastmile_qr_scan", "ios": "https://dc.lft.to/lastmile_qr_scan"}, "fusion_lon": 0.0, "lat": 38.901664, "bike_id": "94f212b739fe1a8f33e979776ef66217", "type": "electric_scooter", "is_reserved": 0, "lon": -76.99267633333334}, {"fusion_lat": 0.0, "name": "06e529b10babe6e3e3c7552181b112a4", "is_disabled": 0, "rental_uris": {"android": "https://dc.lft.to/lastmile_qr_scan", "ios": "https://dc.lft.to/lastmile_qr_scan"}, "fusion_lon": 0.0, "lat": 38.9087035, "bike_id": "06e529b10babe6e3e3c7552181b112a4", "type": "electric_scooter", "is_reserved": 0, "lon": -77.07164}, {"fusion_lat": 0.0, "name": "a343065c16e89187a3d74a2894ee8e57", "is_disabled": 0, "rental_uris": {"android": "https://dc.lft.to/lastmile_qr_scan", "ios": "https://dc.lft.to/lastmile_qr_scan"}, "fusion_lon": 0.0, "lat": 38.90707583333333, "bike_id": "a343065c16e89187a3d74a2894ee8e57", "type": "electric_scooter", "is_reserved": 0, "lon": -77.027159}, {"fusion_lat": 0.0, "name": "78250597a70f1400e33a0593bfaef29f", "is_disabled": 0, "rental_uris": {"android": "https://dc.lft.to/lastmile_qr_scan", "ios": "https://dc.lft.to/lastmile_qr_scan"}, "fusion_lon": 0.0, "lat": 38.883453, "bike_id": "78250597a70f1400e33a0593bfaef29f", "type": "electric_scooter", "is_reserved": 0, "lon": -77.03180533333334}, {"fusion_lat": 0.0, "name": "0b5b7f9710653c1d044922ad56f97811", "is_disabled": 0, "rental_uris": {"android": "https://dc.lft.to/lastmile_qr_scan", "ios": "https://dc.lft.to/lastmile_qr_scan"}, "fusion_lon": 0.0, "lat": 38.923105166666666, "bike_id": "0b5b7f9710653c1d044922ad56f97811", "type": "electric_scooter", "is_reserved": 0, "lon": -77.03974316666667}, {"fusion_lat": 0.0, "name": "899412abd467b4683438a48ce85a9c6a", "is_disabled": 0, "rental_uris": {"android": "https://dc.lft.to/lastmile_qr_scan", "ios": "https://dc.lft.to/lastmile_qr_scan"}, "fusion_lon": 0.0, "lat": 38.94184283333333, "bike_id": "899412abd467b4683438a48ce85a9c6a", "type": "electric_scooter", "is_reserved": 0, "lon": -77.02616383333333}, {"fusion_lat": 0.0, "name": "3ed8d4ca46ac985738cccf9d1028ab43", "is_disabled": 0, "rental_uris": {"android": "https://dc.lft.to/lastmile_qr_scan", "ios": "https://dc.lft.to/lastmile_qr_scan"}, "fusion_lon": 0.0, "lat": 38.91262616666667, "bike_id": "3ed8d4ca46ac985738cccf9d1028ab43", "type": "electric_scooter", "is_reserved": 0, "lon": -77.038401}, {"fusion_lat": 0.0, "name": "5388d9350342225b7fabc404308b67a3", "is_disabled": 0, "rental_uris": {"android": "https://dc.lft.to/lastmile_qr_scan", "ios": "https://dc.lft.to/lastmile_qr_scan"}, "fusion_lon": 0.0, "lat": 38.9055025, "bike_id": "5388d9350342225b7fabc404308b67a3", "type": "electric_scooter", "is_reserved": 0, "lon": -77.04654966666666}, {"fusion_lat": 0.0, "name": "9ed9836b00bbba70527452bf536fe715", "is_disabled": 0, "rental_uris": {"android": "https://dc.lft.to/lastmile_qr_scan", "ios": "https://dc.lft.to/lastmile_qr_scan"}, "fusion_lon": 0.0, "lat": 38.84757966666667, "bike_id": "9ed9836b00bbba70527452bf536fe715", "type": "electric_scooter", "is_reserved": 0, "lon": -76.99501216666667}, {"fusion_lat": 0.0, "name": "abbe480aac282eb848c6d03e38d470c6", "is_disabled": 0, "rental_uris": {"android": "https://dc.lft.to/lastmile_qr_scan", "ios": "https://dc.lft.to/lastmile_qr_scan"}, "fusion_lon": 0.0, "lat": 38.9068325, "bike_id": "abbe480aac282eb848c6d03e38d470c6", "type": "electric_scooter", "is_reserved": 0, "lon": -77.02695333333334}, {"fusion_lat": 0.0, "name": "6a53707597fdd89065a51ecc670a21f0", "is_disabled": 0, "rental_uris": {"android": "https://dc.lft.to/lastmile_qr_scan", "ios": "https://dc.lft.to/lastmile_qr_scan"}, "fusion_lon": 0.0, "lat": 38.91984016666667, "bike_id": "6a53707597fdd89065a51ecc670a21f0", "type": "electric_scooter", "is_reserved": 0, "lon": -77.02608083333334}, {"fusion_lat": 0.0, "name": "e930eb43cac768e06ec7c3782af4fcec", "is_disabled": 0, "rental_uris": {"android": "https://dc.lft.to/lastmile_qr_scan", "ios": "https://dc.lft.to/lastmile_qr_scan"}, "fusion_lon": 0.0, "lat": 38.92248383333333, "bike_id": "e930eb43cac768e06ec7c3782af4fcec", "type": "electric_scooter", "is_reserved": 0, "lon": -77.028083}, {"fusion_lat": 0.0, "name": "99ddbf63aeadd25f2d4810152daff1b3", "is_disabled": 0, "rental_uris": {"android": "https://dc.lft.to/lastmile_qr_scan", "ios": "https://dc.lft.to/lastmile_qr_scan"}, "fusion_lon": 0.0, "lat": 38.9244225, "bike_id": "99ddbf63aeadd25f2d4810152daff1b3", "type": "electric_scooter", "is_reserved": 0, "lon": -77.02267216666667}, {"fusion_lat": 0.0, "name": "fd3ec976c6c5ce912d35773925799eb2", "is_disabled": 0, "rental_uris": {"android": "https://dc.lft.to/lastmile_qr_scan", "ios": "https://dc.lft.to/lastmile_qr_scan"}, "fusion_lon": 0.0, "lat": 38.90529183333334, "bike_id": "fd3ec976c6c5ce912d35773925799eb2", "type": "electric_scooter", "is_reserved": 0, "lon": -77.05140933333334}, {"fusion_lat": 0.0, "name": "dd55fde760bf7ff60294867a2ede9488", "is_disabled": 0, "rental_uris": {"android": "https://dc.lft.to/lastmile_qr_scan", "ios": "https://dc.lft.to/lastmile_qr_scan"}, "fusion_lon": 0.0, "lat": 38.941831, "bike_id": "dd55fde760bf7ff60294867a2ede9488", "type": "electric_scooter", "is_reserved": 0, "lon": -77.02490116666667}, {"fusion_lat": 0.0, "name": "b24f97c60a547a75840cb6a71e8c8895", "is_disabled": 0, "rental_uris": {"android": "https://dc.lft.to/lastmile_qr_scan", "ios": "https://dc.lft.to/lastmile_qr_scan"}, "fusion_lon": 0.0, "lat": 38.91703316666667, "bike_id": "b24f97c60a547a75840cb6a71e8c8895", "type": "electric_scooter", "is_reserved": 0, "lon": -77.02392833333333}, {"fusion_lat": 0.0, "name": "19610779d7d2f04723ce2961a405fb98", "is_disabled": 0, "rental_uris": {"android": "https://dc.lft.to/lastmile_qr_scan", "ios": "https://dc.lft.to/lastmile_qr_scan"}, "fusion_lon": 0.0, "lat": 38.8870095, "bike_id": "19610779d7d2f04723ce2961a405fb98", "type": "electric_bike", "is_reserved": 0, "lon": -76.996837}, {"fusion_lat": 0.0, "name": "8626b694a3e05ac903ef01fca317aded", "is_disabled": 0, "rental_uris": {"android": "https://dc.lft.to/lastmile_qr_scan", "ios": "https://dc.lft.to/lastmile_qr_scan"}, "fusion_lon": 0.0, "lat": 38.873687, "bike_id": "8626b694a3e05ac903ef01fca317aded", "type": "electric_scooter", "is_reserved": 0, "lon": -77.000344}, {"fusion_lat": 0.0, "name": "99ac314fe67fd72b721b4fa242f89282", "is_disabled": 0, "rental_uris": {"android": "https://dc.lft.to/lastmile_qr_scan", "ios": "https://dc.lft.to/lastmile_qr_scan"}, "fusion_lon": 0.0, "lat": 38.870857666666666, "bike_id": "99ac314fe67fd72b721b4fa242f89282", "type": "electric_scooter", "is_reserved": 0, "lon": -76.96568516666666}, {"fusion_lat": 0.0, "name": "dd96dbcfb7b0e0e0d9df269f6a55d44c", "is_disabled": 0, "rental_uris": {"android": "https://dc.lft.to/lastmile_qr_scan", "ios": "https://dc.lft.to/lastmile_qr_scan"}, "fusion_lon": 0.0, "lat": 38.91278, "bike_id": "dd96dbcfb7b0e0e0d9df269f6a55d44c", "type": "electric_scooter", "is_reserved": 0, "lon": -77.0358405}, {"fusion_lat": 0.0, "name": "90775a4b5bd7d68c3fcfb5b1236d8f06", "is_disabled": 0, "rental_uris": {"android": "https://dc.lft.to/lastmile_qr_scan", "ios": "https://dc.lft.to/lastmile_qr_scan"}, "fusion_lon": 0.0, "lat": 38.92048416666667, "bike_id": "90775a4b5bd7d68c3fcfb5b1236d8f06", "type": "electric_scooter", "is_reserved": 0, "lon": -77.03392383333333}, {"fusion_lat": 0.0, "name": "cfec911428030891472da02baf4b8aff", "is_disabled": 0, "rental_uris": {"android": "https://dc.lft.to/lastmile_qr_scan", "ios": "https://dc.lft.to/lastmile_qr_scan"}, "fusion_lon": 0.0, "lat": 38.90061983333333, "bike_id": "cfec911428030891472da02baf4b8aff", "type": "electric_scooter", "is_reserved": 0, "lon": -77.05026833333334}, {"fusion_lat": 0.0, "name": "198a25e305bb2f4f9e57144177c924e1", "is_disabled": 0, "rental_uris": {"android": "https://dc.lft.to/lastmile_qr_scan", "ios": "https://dc.lft.to/lastmile_qr_scan"}, "fusion_lon": 0.0, "lat": 38.907367666666666, "bike_id": "198a25e305bb2f4f9e57144177c924e1", "type": "electric_scooter", "is_reserved": 0, "lon": -77.02392483333334}, {"fusion_lat": 0.0, "name": "ae5292c507a0b73a5a18a8a1931c0531", "is_disabled": 0, "rental_uris": {"android": "https://dc.lft.to/lastmile_qr_scan", "ios": "https://dc.lft.to/lastmile_qr_scan"}, "fusion_lon": 0.0, "lat": 38.90685083333334, "bike_id": "ae5292c507a0b73a5a18a8a1931c0531", "type": "electric_scooter", "is_reserved": 0, "lon": -77.04155016666667}, {"fusion_lat": 0.0, "name": "b4f358c145694074e760912cd8881ee3", "is_disabled": 0, "rental_uris": {"android": "https://dc.lft.to/lastmile_qr_scan", "ios": "https://dc.lft.to/lastmile_qr_scan"}, "fusion_lon": 0.0, "lat": 38.9305315, "bike_id": "b4f358c145694074e760912cd8881ee3", "type": "electric_scooter", "is_reserved": 0, "lon": -77.032092}, {"fusion_lat": 0.0, "name": "e80cfb098cc06da71b73f2052964308b", "is_disabled": 0, "rental_uris": {"android": "https://dc.lft.to/lastmile_qr_scan", "ios": "https://dc.lft.to/lastmile_qr_scan"}, "fusion_lon": 0.0, "lat": 38.91924016666667, "bike_id": "e80cfb098cc06da71b73f2052964308b", "type": "electric_scooter", "is_reserved": 0, "lon": -77.03103}, {"fusion_lat": 0.0, "name": "527323d88ef2ef987d31f7202417b7d3", "is_disabled": 0, "rental_uris": {"android": "https://dc.lft.to/lastmile_qr_scan", "ios": "https://dc.lft.to/lastmile_qr_scan"}, "fusion_lon": 0.0, "lat": 38.89728616666667, "bike_id": "527323d88ef2ef987d31f7202417b7d3", "type": "electric_scooter", "is_reserved": 0, "lon": -77.0438815}, {"fusion_lat": 0.0, "name": "8479a621eee21b709f913f5ec669f898", "is_disabled": 0, "rental_uris": {"android": "https://dc.lft.to/lastmile_qr_scan", "ios": "https://dc.lft.to/lastmile_qr_scan"}, "fusion_lon": 0.0, "lat": 38.87833166666667, "bike_id": "8479a621eee21b709f913f5ec669f898", "type": "electric_scooter", "is_reserved": 0, "lon": -76.963235}, {"fusion_lat": 0.0, "name": "ccc4674ef5fd6c25b3f6d61e53ed2699", "is_disabled": 0, "rental_uris": {"android": "https://dc.lft.to/lastmile_qr_scan", "ios": "https://dc.lft.to/lastmile_qr_scan"}, "fusion_lon": 0.0, "lat": 38.940850166666664, "bike_id": "ccc4674ef5fd6c25b3f6d61e53ed2699", "type": "electric_scooter", "is_reserved": 0, "lon": -77.02639666666667}, {"fusion_lat": 0.0, "name": "208790fabe109cd6b17d36623aabb7e8", "is_disabled": 0, "rental_uris": {"android": "https://dc.lft.to/lastmile_qr_scan", "ios": "https://dc.lft.to/lastmile_qr_scan"}, "fusion_lon": 0.0, "lat": 38.920997, "bike_id": "208790fabe109cd6b17d36623aabb7e8", "type": "electric_scooter", "is_reserved": 0, "lon": -77.0299435}, {"fusion_lat": 0.0, "name": "f3f4a77df6e6f8ceeebb66150d7425c0", "is_disabled": 0, "rental_uris": {"android": "https://dc.lft.to/lastmile_qr_scan", "ios": "https://dc.lft.to/lastmile_qr_scan"}, "fusion_lon": 0.0, "lat": 38.82216716666667, "bike_id": "f3f4a77df6e6f8ceeebb66150d7425c0", "type": "electric_bike", "is_reserved": 0, "lon": -77.00189583333334}, {"fusion_lat": 0.0, "name": "5ebdd41e146bcdfc39723268d8d4f5bd", "is_disabled": 0, "rental_uris": {"android": "https://dc.lft.to/lastmile_qr_scan", "ios": "https://dc.lft.to/lastmile_qr_scan"}, "fusion_lon": 0.0, "lat": 38.899137, "bike_id": "5ebdd41e146bcdfc39723268d8d4f5bd", "type": "electric_scooter", "is_reserved": 0, "lon": -76.94547616666667}, {"fusion_lat": 0.0, "name": "97c2a442e2413eda33a03b53d0980079", "is_disabled": 0, "rental_uris": {"android": "https://dc.lft.to/lastmile_qr_scan", "ios": "https://dc.lft.to/lastmile_qr_scan"}, "fusion_lon": 0.0, "lat": 38.914018666666664, "bike_id": "97c2a442e2413eda33a03b53d0980079", "type": "electric_scooter", "is_reserved": 0, "lon": -77.008467}, {"fusion_lat": 0.0, "name": "d496fd23694f3f968f9b153390905a9c", "is_disabled": 0, "rental_uris": {"android": "https://dc.lft.to/lastmile_qr_scan", "ios": "https://dc.lft.to/lastmile_qr_scan"}, "fusion_lon": 0.0, "lat": 38.84303533333333, "bike_id": "d496fd23694f3f968f9b153390905a9c", "type": "electric_bike", "is_reserved": 0, "lon": -77.10866733333333}, {"fusion_lat": 0.0, "name": "0b802961ff10c794b720f0ac34ea5711", "is_disabled": 0, "rental_uris": {"android": "https://dc.lft.to/lastmile_qr_scan", "ios": "https://dc.lft.to/lastmile_qr_scan"}, "fusion_lon": 0.0, "lat": 38.94737416666667, "bike_id": "0b802961ff10c794b720f0ac34ea5711", "type": "electric_scooter", "is_reserved": 0, "lon": -77.01616966666667}, {"fusion_lat": 0.0, "name": "c2fa846c781b93515a65e9f17c9aedbc", "is_disabled": 0, "rental_uris": {"android": "https://dc.lft.to/lastmile_qr_scan", "ios": "https://dc.lft.to/lastmile_qr_scan"}, "fusion_lon": 0.0, "lat": 38.902232166666664, "bike_id": "c2fa846c781b93515a65e9f17c9aedbc", "type": "electric_scooter", "is_reserved": 0, "lon": -77.06143433333334}, {"fusion_lat": 0.0, "name": "bddb71d8cec7b5a29f5802af1c3f8c30", "is_disabled": 0, "rental_uris": {"android": "https://dc.lft.to/lastmile_qr_scan", "ios": "https://dc.lft.to/lastmile_qr_scan"}, "fusion_lon": 0.0, "lat": 38.907276, "bike_id": "bddb71d8cec7b5a29f5802af1c3f8c30", "type": "electric_scooter", "is_reserved": 0, "lon": -77.04159866666667}, {"fusion_lat": 0.0, "name": "c48888593d53a45251c0946a2d378c4c", "is_disabled": 0, "rental_uris": {"android": "https://dc.lft.to/lastmile_qr_scan", "ios": "https://dc.lft.to/lastmile_qr_scan"}, "fusion_lon": 0.0, "lat": 38.9309495, "bike_id": "c48888593d53a45251c0946a2d378c4c", "type": "electric_scooter", "is_reserved": 0, "lon": -77.02660233333333}, {"fusion_lat": 0.0, "name": "f3db1aab852d102babc85dea6e17707f", "is_disabled": 0, "rental_uris": {"android": "https://dc.lft.to/lastmile_qr_scan", "ios": "https://dc.lft.to/lastmile_qr_scan"}, "fusion_lon": 0.0, "lat": 38.924483333333335, "bike_id": "f3db1aab852d102babc85dea6e17707f", "type": "electric_scooter", "is_reserved": 0, "lon": -77.040224}, {"fusion_lat": 0.0, "name": "b102a8a641d1aec57c5553e71e748c43", "is_disabled": 0, "rental_uris": {"android": "https://dc.lft.to/lastmile_qr_scan", "ios": "https://dc.lft.to/lastmile_qr_scan"}, "fusion_lon": 0.0, "lat": 38.90972133333333, "bike_id": "b102a8a641d1aec57c5553e71e748c43", "type": "electric_scooter", "is_reserved": 0, "lon": -77.03206733333333}, {"fusion_lat": 0.0, "name": "dc3f657500989d56ea99809aa295412c", "is_disabled": 0, "rental_uris": {"android": "https://dc.lft.to/lastmile_qr_scan", "ios": "https://dc.lft.to/lastmile_qr_scan"}, "fusion_lon": 0.0, "lat": 38.88115883333333, "bike_id": "dc3f657500989d56ea99809aa295412c", "type": "electric_bike", "is_reserved": 0, "lon": -77.00182266666667}, {"fusion_lat": 0.0, "name": "5ef233a95d1c8227bb6a26470c090567", "is_disabled": 0, "rental_uris": {"android": "https://dc.lft.to/lastmile_qr_scan", "ios": "https://dc.lft.to/lastmile_qr_scan"}, "fusion_lon": 0.0, "lat": 38.892217333333335, "bike_id": "5ef233a95d1c8227bb6a26470c090567", "type": "electric_scooter", "is_reserved": 0, "lon": -77.04868566666667}, {"fusion_lat": 0.0, "name": "fb235528aca6146a3d62b2964d7024ee", "is_disabled": 0, "rental_uris": {"android": "https://dc.lft.to/lastmile_qr_scan", "ios": "https://dc.lft.to/lastmile_qr_scan"}, "fusion_lon": 0.0, "lat": 38.9441105, "bike_id": "fb235528aca6146a3d62b2964d7024ee", "type": "electric_scooter", "is_reserved": 0, "lon": -77.03862816666667}, {"fusion_lat": 0.0, "name": "82d72ad1dc7aab6830659634329c02cf", "is_disabled": 0, "rental_uris": {"android": "https://dc.lft.to/lastmile_qr_scan", "ios": "https://dc.lft.to/lastmile_qr_scan"}, "fusion_lon": 0.0, "lat": 38.904984666666664, "bike_id": "82d72ad1dc7aab6830659634329c02cf", "type": "electric_scooter", "is_reserved": 0, "lon": -77.007115}, {"fusion_lat": 0.0, "name": "17ceacb8eb310cda3cf7e298fb329421", "is_disabled": 0, "rental_uris": {"android": "https://dc.lft.to/lastmile_qr_scan", "ios": "https://dc.lft.to/lastmile_qr_scan"}, "fusion_lon": 0.0, "lat": 38.93489316666667, "bike_id": "17ceacb8eb310cda3cf7e298fb329421", "type": "electric_scooter", "is_reserved": 0, "lon": -77.027191}, {"fusion_lat": 0.0, "name": "f72fb864d9f0ac0f356e70633cef972c", "is_disabled": 0, "rental_uris": {"android": "https://dc.lft.to/lastmile_qr_scan", "ios": "https://dc.lft.to/lastmile_qr_scan"}, "fusion_lon": 0.0, "lat": 38.907095, "bike_id": "f72fb864d9f0ac0f356e70633cef972c", "type": "electric_scooter", "is_reserved": 0, "lon": -77.05140983333334}, {"fusion_lat": 0.0, "name": "79a6c398616393ea58ac676c911c58e7", "is_disabled": 0, "rental_uris": {"android": "https://dc.lft.to/lastmile_qr_scan", "ios": "https://dc.lft.to/lastmile_qr_scan"}, "fusion_lon": 0.0, "lat": 38.892378, "bike_id": "79a6c398616393ea58ac676c911c58e7", "type": "electric_scooter", "is_reserved": 0, "lon": -77.02384116666667}, {"fusion_lat": 0.0, "name": "ef32966c9f13b9a389e4fbc8786ce543", "is_disabled": 0, "rental_uris": {"android": "https://dc.lft.to/lastmile_qr_scan", "ios": "https://dc.lft.to/lastmile_qr_scan"}, "fusion_lon": 0.0, "lat": 38.8921815, "bike_id": "ef32966c9f13b9a389e4fbc8786ce543", "type": "electric_scooter", "is_reserved": 0, "lon": -77.03215583333333}, {"fusion_lat": 0.0, "name": "d289b059ad93942bf1365c438c2eb397", "is_disabled": 0, "rental_uris": {"android": "https://dc.lft.to/lastmile_qr_scan", "ios": "https://dc.lft.to/lastmile_qr_scan"}, "fusion_lon": 0.0, "lat": 38.91114833333334, "bike_id": "d289b059ad93942bf1365c438c2eb397", "type": "electric_scooter", "is_reserved": 0, "lon": -77.02199583333334}, {"fusion_lat": 0.0, "name": "f538fefeeea0a47e6d78dcae799d6299", "is_disabled": 0, "rental_uris": {"android": "https://dc.lft.to/lastmile_qr_scan", "ios": "https://dc.lft.to/lastmile_qr_scan"}, "fusion_lon": 0.0, "lat": 38.9127035, "bike_id": "f538fefeeea0a47e6d78dcae799d6299", "type": "electric_scooter", "is_reserved": 0, "lon": -77.022343}, {"fusion_lat": 0.0, "name": "4834df38fb7926fa716b740402e8ca3f", "is_disabled": 0, "rental_uris": {"android": "https://dc.lft.to/lastmile_qr_scan", "ios": "https://dc.lft.to/lastmile_qr_scan"}, "fusion_lon": 0.0, "lat": 38.89585366666667, "bike_id": "4834df38fb7926fa716b740402e8ca3f", "type": "electric_scooter", "is_reserved": 0, "lon": -77.02685133333334}, {"fusion_lat": 0.0, "name": "f22cc8db36ced8fc1cf842619706ba4f", "is_disabled": 0, "rental_uris": {"android": "https://dc.lft.to/lastmile_qr_scan", "ios": "https://dc.lft.to/lastmile_qr_scan"}, "fusion_lon": 0.0, "lat": 38.900129166666666, "bike_id": "f22cc8db36ced8fc1cf842619706ba4f", "type": "electric_scooter", "is_reserved": 0, "lon": -76.98813083333333}, {"fusion_lat": 0.0, "name": "f59ea203eaf96dbaf40e37b7a1b64be3", "is_disabled": 0, "rental_uris": {"android": "https://dc.lft.to/lastmile_qr_scan", "ios": "https://dc.lft.to/lastmile_qr_scan"}, "fusion_lon": 0.0, "lat": 38.93687383333334, "bike_id": "f59ea203eaf96dbaf40e37b7a1b64be3", "type": "electric_scooter", "is_reserved": 0, "lon": -77.03634416666667}, {"fusion_lat": 0.0, "name": "83d44e21420f2feda91fcf6bf6f395d7", "is_disabled": 0, "rental_uris": {"android": "https://dc.lft.to/lastmile_qr_scan", "ios": "https://dc.lft.to/lastmile_qr_scan"}, "fusion_lon": 0.0, "lat": 38.90027283333333, "bike_id": "83d44e21420f2feda91fcf6bf6f395d7", "type": "electric_scooter", "is_reserved": 0, "lon": -76.99635566666667}, {"fusion_lat": 0.0, "name": "acc2b06be7609eccc4bfe4b550231bd2", "is_disabled": 0, "rental_uris": {"android": "https://dc.lft.to/lastmile_qr_scan", "ios": "https://dc.lft.to/lastmile_qr_scan"}, "fusion_lon": 0.0, "lat": 38.90202633333333, "bike_id": "acc2b06be7609eccc4bfe4b550231bd2", "type": "electric_scooter", "is_reserved": 0, "lon": -77.01772066666666}, {"fusion_lat": 0.0, "name": "8d1fc2bcb8d23888e7bffb304b766aba", "is_disabled": 0, "rental_uris": {"android": "https://dc.lft.to/lastmile_qr_scan", "ios": "https://dc.lft.to/lastmile_qr_scan"}, "fusion_lon": 0.0, "lat": 38.9007845, "bike_id": "8d1fc2bcb8d23888e7bffb304b766aba", "type": "electric_scooter", "is_reserved": 0, "lon": -77.04760466666667}, {"fusion_lat": 0.0, "name": "8ab17a7048f417e61da46ec9c23088d2", "is_disabled": 0, "rental_uris": {"android": "https://dc.lft.to/lastmile_qr_scan", "ios": "https://dc.lft.to/lastmile_qr_scan"}, "fusion_lon": 0.0, "lat": 38.89625133333333, "bike_id": "8ab17a7048f417e61da46ec9c23088d2", "type": "electric_scooter", "is_reserved": 0, "lon": -77.0310105}, {"fusion_lat": 0.0, "name": "70374de1bdc41276d883e7f4b27dc219", "is_disabled": 0, "rental_uris": {"android": "https://dc.lft.to/lastmile_qr_scan", "ios": "https://dc.lft.to/lastmile_qr_scan"}, "fusion_lon": 0.0, "lat": 38.91953983333333, "bike_id": "70374de1bdc41276d883e7f4b27dc219", "type": "electric_scooter", "is_reserved": 0, "lon": -77.01784466666666}, {"fusion_lat": 0.0, "name": "8bc0436e471f7aa6cbaacf7ebebcdb2b", "is_disabled": 0, "rental_uris": {"android": "https://dc.lft.to/lastmile_qr_scan", "ios": "https://dc.lft.to/lastmile_qr_scan"}, "fusion_lon": 0.0, "lat": 38.9193405, "bike_id": "8bc0436e471f7aa6cbaacf7ebebcdb2b", "type": "electric_scooter", "is_reserved": 0, "lon": -77.0305875}, {"fusion_lat": 0.0, "name": "317cc326502ed1d569daa702870f72fc", "is_disabled": 0, "rental_uris": {"android": "https://dc.lft.to/lastmile_qr_scan", "ios": "https://dc.lft.to/lastmile_qr_scan"}, "fusion_lon": 0.0, "lat": 38.925673833333335, "bike_id": "317cc326502ed1d569daa702870f72fc", "type": "electric_scooter", "is_reserved": 0, "lon": -77.05264033333333}, {"fusion_lat": 0.0, "name": "e44dc18cffadc16213de6d4204e86cf7", "is_disabled": 0, "rental_uris": {"android": "https://dc.lft.to/lastmile_qr_scan", "ios": "https://dc.lft.to/lastmile_qr_scan"}, "fusion_lon": 0.0, "lat": 38.90958416666667, "bike_id": "e44dc18cffadc16213de6d4204e86cf7", "type": "electric_scooter", "is_reserved": 0, "lon": -76.985384}, {"fusion_lat": 0.0, "name": "d012864ef8d0a64263f61c571db5e157", "is_disabled": 0, "rental_uris": {"android": "https://dc.lft.to/lastmile_qr_scan", "ios": "https://dc.lft.to/lastmile_qr_scan"}, "fusion_lon": 0.0, "lat": 38.92032666666667, "bike_id": "d012864ef8d0a64263f61c571db5e157", "type": "electric_scooter", "is_reserved": 0, "lon": -77.07147933333333}, {"fusion_lat": 0.0, "name": "26afd7ae4779f85e12eb0a85d89b176e", "is_disabled": 0, "rental_uris": {"android": "https://dc.lft.to/lastmile_qr_scan", "ios": "https://dc.lft.to/lastmile_qr_scan"}, "fusion_lon": 0.0, "lat": 38.9977795, "bike_id": "26afd7ae4779f85e12eb0a85d89b176e", "type": "electric_bike", "is_reserved": 0, "lon": -77.04719416666667}, {"fusion_lat": 0.0, "name": "45bbede6b79fd107ce0582147b8a4d17", "is_disabled": 0, "rental_uris": {"android": "https://dc.lft.to/lastmile_qr_scan", "ios": "https://dc.lft.to/lastmile_qr_scan"}, "fusion_lon": 0.0, "lat": 38.903804666666666, "bike_id": "45bbede6b79fd107ce0582147b8a4d17", "type": "electric_scooter", "is_reserved": 0, "lon": -77.0482785}, {"fusion_lat": 0.0, "name": "66ab0b6721249c01e352ae98aa963802", "is_disabled": 0, "rental_uris": {"android": "https://dc.lft.to/lastmile_qr_scan", "ios": "https://dc.lft.to/lastmile_qr_scan"}, "fusion_lon": 0.0, "lat": 38.93241483333333, "bike_id": "66ab0b6721249c01e352ae98aa963802", "type": "electric_scooter", "is_reserved": 0, "lon": -77.03265083333334}, {"fusion_lat": 0.0, "name": "79b1e6fb6eeb3e58e0725f7903ee76c1", "is_disabled": 0, "rental_uris": {"android": "https://dc.lft.to/lastmile_qr_scan", "ios": "https://dc.lft.to/lastmile_qr_scan"}, "fusion_lon": 0.0, "lat": 38.89224866666667, "bike_id": "79b1e6fb6eeb3e58e0725f7903ee76c1", "type": "electric_scooter", "is_reserved": 0, "lon": -77.0333965}, {"fusion_lat": 0.0, "name": "cfd0daacac144f0c1e5c05a6c5834d97", "is_disabled": 0, "rental_uris": {"android": "https://dc.lft.to/lastmile_qr_scan", "ios": "https://dc.lft.to/lastmile_qr_scan"}, "fusion_lon": 0.0, "lat": 38.9272965, "bike_id": "cfd0daacac144f0c1e5c05a6c5834d97", "type": "electric_scooter", "is_reserved": 0, "lon": -77.0306325}, {"fusion_lat": 0.0, "name": "1a00a307b925853635c9e5113a654c5e", "is_disabled": 0, "rental_uris": {"android": "https://dc.lft.to/lastmile_qr_scan", "ios": "https://dc.lft.to/lastmile_qr_scan"}, "fusion_lon": 0.0, "lat": 38.87369183333333, "bike_id": "1a00a307b925853635c9e5113a654c5e", "type": "electric_scooter", "is_reserved": 0, "lon": -77.00127216666667}, {"fusion_lat": 0.0, "name": "5675299daa611f0202af18dd174fcb7b", "is_disabled": 0, "rental_uris": {"android": "https://dc.lft.to/lastmile_qr_scan", "ios": "https://dc.lft.to/lastmile_qr_scan"}, "fusion_lon": 0.0, "lat": 38.892757333333336, "bike_id": "5675299daa611f0202af18dd174fcb7b", "type": "electric_scooter", "is_reserved": 0, "lon": -76.929967}, {"fusion_lat": 0.0, "name": "0b037f998822e00388d9629982d0c1f4", "is_disabled": 0, "rental_uris": {"android": "https://dc.lft.to/lastmile_qr_scan", "ios": "https://dc.lft.to/lastmile_qr_scan"}, "fusion_lon": 0.0, "lat": 38.90120233333333, "bike_id": "0b037f998822e00388d9629982d0c1f4", "type": "electric_scooter", "is_reserved": 0, "lon": -77.04997166666666}, {"fusion_lat": 0.0, "name": "2eb4947f1e08adfdc617c0ab49c3dcca", "is_disabled": 0, "rental_uris": {"android": "https://dc.lft.to/lastmile_qr_scan", "ios": "https://dc.lft.to/lastmile_qr_scan"}, "fusion_lon": 0.0, "lat": 38.9004205, "bike_id": "2eb4947f1e08adfdc617c0ab49c3dcca", "type": "electric_scooter", "is_reserved": 0, "lon": -76.99147983333333}, {"fusion_lat": 0.0, "name": "8cbb593e336ac4133eb4199493c9c259", "is_disabled": 0, "rental_uris": {"android": "https://dc.lft.to/lastmile_qr_scan", "ios": "https://dc.lft.to/lastmile_qr_scan"}, "fusion_lon": 0.0, "lat": 38.812491666666666, "bike_id": "8cbb593e336ac4133eb4199493c9c259", "type": "electric_bike", "is_reserved": 0, "lon": -77.11758916666666}, {"fusion_lat": 0.0, "name": "503ecfd5623a78f6a04aa51a439e9da2", "is_disabled": 0, "rental_uris": {"android": "https://dc.lft.to/lastmile_qr_scan", "ios": "https://dc.lft.to/lastmile_qr_scan"}, "fusion_lon": 0.0, "lat": 38.8071, "bike_id": "503ecfd5623a78f6a04aa51a439e9da2", "type": "electric_bike", "is_reserved": 0, "lon": -77.0617555}, {"fusion_lat": 0.0, "name": "356a852f5f8fd14522657b6adcf9c146", "is_disabled": 0, "rental_uris": {"android": "https://dc.lft.to/lastmile_qr_scan", "ios": "https://dc.lft.to/lastmile_qr_scan"}, "fusion_lon": 0.0, "lat": 38.90408333333333, "bike_id": "356a852f5f8fd14522657b6adcf9c146", "type": "electric_scooter", "is_reserved": 0, "lon": -77.06814816666666}, {"fusion_lat": 0.0, "name": "9fb2338c00fc046423576fde5e128580", "is_disabled": 0, "rental_uris": {"android": "https://dc.lft.to/lastmile_qr_scan", "ios": "https://dc.lft.to/lastmile_qr_scan"}, "fusion_lon": 0.0, "lat": 38.926719, "bike_id": "9fb2338c00fc046423576fde5e128580", "type": "electric_scooter", "is_reserved": 0, "lon": -77.01469366666667}, {"fusion_lat": 0.0, "name": "44be319e9b8f9cc43f5e533a0e43bd12", "is_disabled": 0, "rental_uris": {"android": "https://dc.lft.to/lastmile_qr_scan", "ios": "https://dc.lft.to/lastmile_qr_scan"}, "fusion_lon": 0.0, "lat": 38.87932966666666, "bike_id": "44be319e9b8f9cc43f5e533a0e43bd12", "type": "electric_scooter", "is_reserved": 0, "lon": -77.00622533333333}, {"fusion_lat": 0.0, "name": "997cc1277c8532339673f9d54168d03a", "is_disabled": 0, "rental_uris": {"android": "https://dc.lft.to/lastmile_qr_scan", "ios": "https://dc.lft.to/lastmile_qr_scan"}, "fusion_lon": 0.0, "lat": 38.90748166666667, "bike_id": "997cc1277c8532339673f9d54168d03a", "type": "electric_scooter", "is_reserved": 0, "lon": -76.93553783333333}, {"fusion_lat": 0.0, "name": "5483af1d8670c103211387f855fdb0be", "is_disabled": 0, "rental_uris": {"android": "https://dc.lft.to/lastmile_qr_scan", "ios": "https://dc.lft.to/lastmile_qr_scan"}, "fusion_lon": 0.0, "lat": 38.92240616666667, "bike_id": "5483af1d8670c103211387f855fdb0be", "type": "electric_scooter", "is_reserved": 0, "lon": -77.0424235}, {"fusion_lat": 0.0, "name": "efab9217a348e7d69dff908ea66a97cc", "is_disabled": 0, "rental_uris": {"android": "https://dc.lft.to/lastmile_qr_scan", "ios": "https://dc.lft.to/lastmile_qr_scan"}, "fusion_lon": 0.0, "lat": 38.90046816666667, "bike_id": "efab9217a348e7d69dff908ea66a97cc", "type": "electric_scooter", "is_reserved": 0, "lon": -77.00203983333333}, {"fusion_lat": 0.0, "name": "17605d36301a62a30a4aa2c0cd731c64", "is_disabled": 0, "rental_uris": {"android": "https://dc.lft.to/lastmile_qr_scan", "ios": "https://dc.lft.to/lastmile_qr_scan"}, "fusion_lon": 0.0, "lat": 38.877447, "bike_id": "17605d36301a62a30a4aa2c0cd731c64", "type": "electric_scooter", "is_reserved": 0, "lon": -77.00263516666666}, {"fusion_lat": 0.0, "name": "ff5f00bc26aab3a7d4823603ebb047c0", "is_disabled": 0, "rental_uris": {"android": "https://dc.lft.to/lastmile_qr_scan", "ios": "https://dc.lft.to/lastmile_qr_scan"}, "fusion_lon": 0.0, "lat": 38.892116, "bike_id": "ff5f00bc26aab3a7d4823603ebb047c0", "type": "electric_scooter", "is_reserved": 0, "lon": -77.02642416666667}, {"fusion_lat": 0.0, "name": "9ce031bd0362cc619f2190676f0b4ad0", "is_disabled": 0, "rental_uris": {"android": "https://dc.lft.to/lastmile_qr_scan", "ios": "https://dc.lft.to/lastmile_qr_scan"}, "fusion_lon": 0.0, "lat": 38.916819, "bike_id": "9ce031bd0362cc619f2190676f0b4ad0", "type": "electric_scooter", "is_reserved": 0, "lon": -77.01577616666667}, {"fusion_lat": 0.0, "name": "602b4fd948ea44c42f9a910144b81b70", "is_disabled": 0, "rental_uris": {"android": "https://dc.lft.to/lastmile_qr_scan", "ios": "https://dc.lft.to/lastmile_qr_scan"}, "fusion_lon": 0.0, "lat": 38.9166535, "bike_id": "602b4fd948ea44c42f9a910144b81b70", "type": "electric_bike", "is_reserved": 0, "lon": -77.038581}, {"fusion_lat": 0.0, "name": "de4845a3ba750d03099a4d71c827f539", "is_disabled": 0, "rental_uris": {"android": "https://dc.lft.to/lastmile_qr_scan", "ios": "https://dc.lft.to/lastmile_qr_scan"}, "fusion_lon": 0.0, "lat": 38.91796633333333, "bike_id": "de4845a3ba750d03099a4d71c827f539", "type": "electric_scooter", "is_reserved": 0, "lon": -77.03217983333333}, {"fusion_lat": 0.0, "name": "be6ab79848dda6564de74ce3ec641979", "is_disabled": 0, "rental_uris": {"android": "https://dc.lft.to/lastmile_qr_scan", "ios": "https://dc.lft.to/lastmile_qr_scan"}, "fusion_lon": 0.0, "lat": 38.88725616666667, "bike_id": "be6ab79848dda6564de74ce3ec641979", "type": "electric_scooter", "is_reserved": 0, "lon": -77.013454}, {"fusion_lat": 0.0, "name": "45a05d846e7d3c380fa000af3a47eefa", "is_disabled": 0, "rental_uris": {"android": "https://dc.lft.to/lastmile_qr_scan", "ios": "https://dc.lft.to/lastmile_qr_scan"}, "fusion_lon": 0.0, "lat": 38.92483516666667, "bike_id": "45a05d846e7d3c380fa000af3a47eefa", "type": "electric_scooter", "is_reserved": 0, "lon": -77.0271125}, {"fusion_lat": 0.0, "name": "797fdda840d29fc899b05595244fd907", "is_disabled": 0, "rental_uris": {"android": "https://dc.lft.to/lastmile_qr_scan", "ios": "https://dc.lft.to/lastmile_qr_scan"}, "fusion_lon": 0.0, "lat": 38.9275625, "bike_id": "797fdda840d29fc899b05595244fd907", "type": "electric_scooter", "is_reserved": 0, "lon": -77.03280116666667}, {"fusion_lat": 0.0, "name": "66c70f663b8ad2594af417a4b34676bd", "is_disabled": 0, "rental_uris": {"android": "https://dc.lft.to/lastmile_qr_scan", "ios": "https://dc.lft.to/lastmile_qr_scan"}, "fusion_lon": 0.0, "lat": 38.8731095, "bike_id": "66c70f663b8ad2594af417a4b34676bd", "type": "electric_scooter", "is_reserved": 0, "lon": -77.00137216666667}, {"fusion_lat": 0.0, "name": "4973618e223f6de7017d0282e18334bd", "is_disabled": 0, "rental_uris": {"android": "https://dc.lft.to/lastmile_qr_scan", "ios": "https://dc.lft.to/lastmile_qr_scan"}, "fusion_lon": 0.0, "lat": 38.94185916666667, "bike_id": "4973618e223f6de7017d0282e18334bd", "type": "electric_scooter", "is_reserved": 0, "lon": -77.02491883333333}, {"fusion_lat": 0.0, "name": "8c038999f553c8af9f92e2049a590278", "is_disabled": 0, "rental_uris": {"android": "https://dc.lft.to/lastmile_qr_scan", "ios": "https://dc.lft.to/lastmile_qr_scan"}, "fusion_lon": 0.0, "lat": 38.933442, "bike_id": "8c038999f553c8af9f92e2049a590278", "type": "electric_scooter", "is_reserved": 0, "lon": -77.06200216666667}, {"fusion_lat": 0.0, "name": "df95ce0d8736e0ab8fea87fd9f1e5a0f", "is_disabled": 0, "rental_uris": {"android": "https://dc.lft.to/lastmile_qr_scan", "ios": "https://dc.lft.to/lastmile_qr_scan"}, "fusion_lon": 0.0, "lat": 38.896668166666664, "bike_id": "df95ce0d8736e0ab8fea87fd9f1e5a0f", "type": "electric_scooter", "is_reserved": 0, "lon": -77.05053166666667}, {"fusion_lat": 0.0, "name": "580ac23fa413496f2cb3a754d76495fe", "is_disabled": 0, "rental_uris": {"android": "https://dc.lft.to/lastmile_qr_scan", "ios": "https://dc.lft.to/lastmile_qr_scan"}, "fusion_lon": 0.0, "lat": 38.91675216666667, "bike_id": "580ac23fa413496f2cb3a754d76495fe", "type": "electric_scooter", "is_reserved": 0, "lon": -77.02382916666667}, {"fusion_lat": 0.0, "name": "9679592697692e190325b15724af2220", "is_disabled": 0, "rental_uris": {"android": "https://dc.lft.to/lastmile_qr_scan", "ios": "https://dc.lft.to/lastmile_qr_scan"}, "fusion_lon": 0.0, "lat": 38.91480883333333, "bike_id": "9679592697692e190325b15724af2220", "type": "electric_scooter", "is_reserved": 0, "lon": -77.0460795}, {"fusion_lat": 0.0, "name": "392d66ed333c3e67aa6ec25e2d33d1fa", "is_disabled": 0, "rental_uris": {"android": "https://dc.lft.to/lastmile_qr_scan", "ios": "https://dc.lft.to/lastmile_qr_scan"}, "fusion_lon": 0.0, "lat": 38.92474416666667, "bike_id": "392d66ed333c3e67aa6ec25e2d33d1fa", "type": "electric_scooter", "is_reserved": 0, "lon": -77.03557933333333}, {"fusion_lat": 0.0, "name": "859567e6dbc210cedee9d3b57e1aef61", "is_disabled": 0, "rental_uris": {"android": "https://dc.lft.to/lastmile_qr_scan", "ios": "https://dc.lft.to/lastmile_qr_scan"}, "fusion_lon": 0.0, "lat": 38.874711166666664, "bike_id": "859567e6dbc210cedee9d3b57e1aef61", "type": "electric_scooter", "is_reserved": 0, "lon": -77.00467316666666}, {"fusion_lat": 0.0, "name": "833b6ac032dc2b47695303ca0ac56279", "is_disabled": 0, "rental_uris": {"android": "https://dc.lft.to/lastmile_qr_scan", "ios": "https://dc.lft.to/lastmile_qr_scan"}, "fusion_lon": 0.0, "lat": 38.969912, "bike_id": "833b6ac032dc2b47695303ca0ac56279", "type": "electric_scooter", "is_reserved": 0, "lon": -77.01161983333333}, {"fusion_lat": 0.0, "name": "a79021d25efe6707bf072feb438c2f36", "is_disabled": 0, "rental_uris": {"android": "https://dc.lft.to/lastmile_qr_scan", "ios": "https://dc.lft.to/lastmile_qr_scan"}, "fusion_lon": 0.0, "lat": 38.897391, "bike_id": "a79021d25efe6707bf072feb438c2f36", "type": "electric_scooter", "is_reserved": 0, "lon": -76.94719183333333}, {"fusion_lat": 0.0, "name": "fc597053291b15df0041e4f8c63c17ec", "is_disabled": 0, "rental_uris": {"android": "https://dc.lft.to/lastmile_qr_scan", "ios": "https://dc.lft.to/lastmile_qr_scan"}, "fusion_lon": 0.0, "lat": 38.90052416666666, "bike_id": "fc597053291b15df0041e4f8c63c17ec", "type": "electric_scooter", "is_reserved": 0, "lon": -77.02200833333333}, {"fusion_lat": 0.0, "name": "316de5ed599f88784b374e8ca3442bde", "is_disabled": 0, "rental_uris": {"android": "https://dc.lft.to/lastmile_qr_scan", "ios": "https://dc.lft.to/lastmile_qr_scan"}, "fusion_lon": 0.0, "lat": 38.873691666666666, "bike_id": "316de5ed599f88784b374e8ca3442bde", "type": "electric_scooter", "is_reserved": 0, "lon": -77.00127566666667}, {"fusion_lat": 0.0, "name": "34b8869cd12b59fccc1fa1d035a37418", "is_disabled": 0, "rental_uris": {"android": "https://dc.lft.to/lastmile_qr_scan", "ios": "https://dc.lft.to/lastmile_qr_scan"}, "fusion_lon": 0.0, "lat": 38.91552633333333, "bike_id": "34b8869cd12b59fccc1fa1d035a37418", "type": "electric_scooter", "is_reserved": 0, "lon": -77.03855166666666}, {"fusion_lat": 0.0, "name": "567a3f1428abe1da449ac60bb57b4def", "is_disabled": 0, "rental_uris": {"android": "https://dc.lft.to/lastmile_qr_scan", "ios": "https://dc.lft.to/lastmile_qr_scan"}, "fusion_lon": 0.0, "lat": 38.88179816666667, "bike_id": "567a3f1428abe1da449ac60bb57b4def", "type": "electric_scooter", "is_reserved": 0, "lon": -77.02777566666667}, {"fusion_lat": 0.0, "name": "3c6c47c131861d555a43b78a1b0dcb1d", "is_disabled": 0, "rental_uris": {"android": "https://dc.lft.to/lastmile_qr_scan", "ios": "https://dc.lft.to/lastmile_qr_scan"}, "fusion_lon": 0.0, "lat": 38.905570833333336, "bike_id": "3c6c47c131861d555a43b78a1b0dcb1d", "type": "electric_scooter", "is_reserved": 0, "lon": -77.0220545}, {"fusion_lat": 0.0, "name": "d3d5333e28e614550300dfadb5c9c9f2", "is_disabled": 0, "rental_uris": {"android": "https://dc.lft.to/lastmile_qr_scan", "ios": "https://dc.lft.to/lastmile_qr_scan"}, "fusion_lon": 0.0, "lat": 38.899846833333335, "bike_id": "d3d5333e28e614550300dfadb5c9c9f2", "type": "electric_scooter", "is_reserved": 0, "lon": -77.0214675}, {"fusion_lat": 0.0, "name": "582faf88aff62f064d559383b511eb7b", "is_disabled": 0, "rental_uris": {"android": "https://dc.lft.to/lastmile_qr_scan", "ios": "https://dc.lft.to/lastmile_qr_scan"}, "fusion_lon": 0.0, "lat": 38.895613, "bike_id": "582faf88aff62f064d559383b511eb7b", "type": "electric_bike", "is_reserved": 0, "lon": -77.12731033333333}, {"fusion_lat": 0.0, "name": "cfd63ea6df3d690e3798e9882b77e90e", "is_disabled": 0, "rental_uris": {"android": "https://dc.lft.to/lastmile_qr_scan", "ios": "https://dc.lft.to/lastmile_qr_scan"}, "fusion_lon": 0.0, "lat": 38.955606333333336, "bike_id": "cfd63ea6df3d690e3798e9882b77e90e", "type": "electric_bike", "is_reserved": 0, "lon": -77.02441316666666}, {"fusion_lat": 0.0, "name": "3bebab5cb1698239831790cdc076d587", "is_disabled": 0, "rental_uris": {"android": "https://dc.lft.to/lastmile_qr_scan", "ios": "https://dc.lft.to/lastmile_qr_scan"}, "fusion_lon": 0.0, "lat": 38.9019875, "bike_id": "3bebab5cb1698239831790cdc076d587", "type": "electric_scooter", "is_reserved": 0, "lon": -77.022184}, {"fusion_lat": 0.0, "name": "f30c3b3086f50465e7fcf67521d2e581", "is_disabled": 0, "rental_uris": {"android": "https://dc.lft.to/lastmile_qr_scan", "ios": "https://dc.lft.to/lastmile_qr_scan"}, "fusion_lon": 0.0, "lat": 38.9126965, "bike_id": "f30c3b3086f50465e7fcf67521d2e581", "type": "electric_scooter", "is_reserved": 0, "lon": -77.03055216666667}, {"fusion_lat": 0.0, "name": "f1c7cbc372e1a356a38955cbe77365a3", "is_disabled": 0, "rental_uris": {"android": "https://dc.lft.to/lastmile_qr_scan", "ios": "https://dc.lft.to/lastmile_qr_scan"}, "fusion_lon": 0.0, "lat": 39.0141715, "bike_id": "f1c7cbc372e1a356a38955cbe77365a3", "type": "electric_bike", "is_reserved": 0, "lon": -77.045014}, {"fusion_lat": 0.0, "name": "02f47effaa7d2f0dba5ac248e617aae8", "is_disabled": 0, "rental_uris": {"android": "https://dc.lft.to/lastmile_qr_scan", "ios": "https://dc.lft.to/lastmile_qr_scan"}, "fusion_lon": 0.0, "lat": 38.9056025, "bike_id": "02f47effaa7d2f0dba5ac248e617aae8", "type": "electric_scooter", "is_reserved": 0, "lon": -77.0169255}, {"fusion_lat": 0.0, "name": "3cd0cb6347dc90f6e1cae60b30a5b48f", "is_disabled": 0, "rental_uris": {"android": "https://dc.lft.to/lastmile_qr_scan", "ios": "https://dc.lft.to/lastmile_qr_scan"}, "fusion_lon": 0.0, "lat": 38.95528616666667, "bike_id": "3cd0cb6347dc90f6e1cae60b30a5b48f", "type": "electric_bike", "is_reserved": 0, "lon": -77.02471966666667}, {"fusion_lat": 0.0, "name": "b8a48eba57b7405d988708eaf75f71b7", "is_disabled": 0, "rental_uris": {"android": "https://dc.lft.to/lastmile_qr_scan", "ios": "https://dc.lft.to/lastmile_qr_scan"}, "fusion_lon": 0.0, "lat": 38.928379, "bike_id": "b8a48eba57b7405d988708eaf75f71b7", "type": "electric_bike", "is_reserved": 0, "lon": -77.02069383333334}, {"fusion_lat": 0.0, "name": "8abb44aa44bcc3a937bb0d197cfcbb49", "is_disabled": 0, "rental_uris": {"android": "https://dc.lft.to/lastmile_qr_scan", "ios": "https://dc.lft.to/lastmile_qr_scan"}, "fusion_lon": 0.0, "lat": 38.906564, "bike_id": "8abb44aa44bcc3a937bb0d197cfcbb49", "type": "electric_scooter", "is_reserved": 0, "lon": -77.04334083333333}, {"fusion_lat": 0.0, "name": "f180889ca04957549a79e36b958d0796", "is_disabled": 0, "rental_uris": {"android": "https://dc.lft.to/lastmile_qr_scan", "ios": "https://dc.lft.to/lastmile_qr_scan"}, "fusion_lon": 0.0, "lat": 38.93056683333333, "bike_id": "f180889ca04957549a79e36b958d0796", "type": "electric_bike", "is_reserved": 0, "lon": -77.03888583333334}, {"fusion_lat": 0.0, "name": "c9da4f458074448ae0e0122d13e05b74", "is_disabled": 0, "rental_uris": {"android": "https://dc.lft.to/lastmile_qr_scan", "ios": "https://dc.lft.to/lastmile_qr_scan"}, "fusion_lon": 0.0, "lat": 38.924315, "bike_id": "c9da4f458074448ae0e0122d13e05b74", "type": "electric_scooter", "is_reserved": 0, "lon": -77.027094}, {"fusion_lat": 0.0, "name": "9829ed534b45e5f8e0aa8b75e932202d", "is_disabled": 0, "rental_uris": {"android": "https://dc.lft.to/lastmile_qr_scan", "ios": "https://dc.lft.to/lastmile_qr_scan"}, "fusion_lon": 0.0, "lat": 38.90067283333333, "bike_id": "9829ed534b45e5f8e0aa8b75e932202d", "type": "electric_scooter", "is_reserved": 0, "lon": -77.05067133333333}, {"fusion_lat": 0.0, "name": "6d6bf0469ad2b18fe80ca3ac080f5a83", "is_disabled": 0, "rental_uris": {"android": "https://dc.lft.to/lastmile_qr_scan", "ios": "https://dc.lft.to/lastmile_qr_scan"}, "fusion_lon": 0.0, "lat": 38.914760666666666, "bike_id": "6d6bf0469ad2b18fe80ca3ac080f5a83", "type": "electric_scooter", "is_reserved": 0, "lon": -77.0425185}, {"fusion_lat": 0.0, "name": "1f042844b97039c6847f097f43e6a8e2", "is_disabled": 0, "rental_uris": {"android": "https://dc.lft.to/lastmile_qr_scan", "ios": "https://dc.lft.to/lastmile_qr_scan"}, "fusion_lon": 0.0, "lat": 38.921451833333336, "bike_id": "1f042844b97039c6847f097f43e6a8e2", "type": "electric_scooter", "is_reserved": 0, "lon": -77.04359916666667}, {"fusion_lat": 0.0, "name": "314169c50abe608d8909aa2877865893", "is_disabled": 0, "rental_uris": {"android": "https://dc.lft.to/lastmile_qr_scan", "ios": "https://dc.lft.to/lastmile_qr_scan"}, "fusion_lon": 0.0, "lat": 38.907585166666664, "bike_id": "314169c50abe608d8909aa2877865893", "type": "electric_scooter", "is_reserved": 0, "lon": -77.03584816666667}, {"fusion_lat": 0.0, "name": "007052eb939bfd8795800c98e07e6626", "is_disabled": 0, "rental_uris": {"android": "https://dc.lft.to/lastmile_qr_scan", "ios": "https://dc.lft.to/lastmile_qr_scan"}, "fusion_lon": 0.0, "lat": 38.91594, "bike_id": "007052eb939bfd8795800c98e07e6626", "type": "electric_scooter", "is_reserved": 0, "lon": -77.03206116666667}, {"fusion_lat": 0.0, "name": "ca0f93937235c445b087d78dd5958e06", "is_disabled": 0, "rental_uris": {"android": "https://dc.lft.to/lastmile_qr_scan", "ios": "https://dc.lft.to/lastmile_qr_scan"}, "fusion_lon": 0.0, "lat": 38.908142, "bike_id": "ca0f93937235c445b087d78dd5958e06", "type": "electric_scooter", "is_reserved": 0, "lon": -77.04168283333334}, {"fusion_lat": 0.0, "name": "f85188057aa2947ec06c5ac4a7f7d753", "is_disabled": 0, "rental_uris": {"android": "https://dc.lft.to/lastmile_qr_scan", "ios": "https://dc.lft.to/lastmile_qr_scan"}, "fusion_lon": 0.0, "lat": 38.905823166666664, "bike_id": "f85188057aa2947ec06c5ac4a7f7d753", "type": "electric_scooter", "is_reserved": 0, "lon": -77.0080585}, {"fusion_lat": 0.0, "name": "33fd1c91fe0205c725d6f06e1830790f", "is_disabled": 0, "rental_uris": {"android": "https://dc.lft.to/lastmile_qr_scan", "ios": "https://dc.lft.to/lastmile_qr_scan"}, "fusion_lon": 0.0, "lat": 38.8974575, "bike_id": "33fd1c91fe0205c725d6f06e1830790f", "type": "electric_scooter", "is_reserved": 0, "lon": -77.033001}, {"fusion_lat": 0.0, "name": "a02071b8e211859623b49dd5caa7b6b6", "is_disabled": 0, "rental_uris": {"android": "https://dc.lft.to/lastmile_qr_scan", "ios": "https://dc.lft.to/lastmile_qr_scan"}, "fusion_lon": 0.0, "lat": 38.91268616666667, "bike_id": "a02071b8e211859623b49dd5caa7b6b6", "type": "electric_scooter", "is_reserved": 0, "lon": -77.04036066666667}, {"fusion_lat": 0.0, "name": "a99dc952382da961f56eac7e2521aa1b", "is_disabled": 0, "rental_uris": {"android": "https://dc.lft.to/lastmile_qr_scan", "ios": "https://dc.lft.to/lastmile_qr_scan"}, "fusion_lon": 0.0, "lat": 38.876771833333336, "bike_id": "a99dc952382da961f56eac7e2521aa1b", "type": "electric_scooter", "is_reserved": 0, "lon": -77.003263}, {"fusion_lat": 0.0, "name": "3ca1cd9b356d4f73c76feeb665eb11ae", "is_disabled": 0, "rental_uris": {"android": "https://dc.lft.to/lastmile_qr_scan", "ios": "https://dc.lft.to/lastmile_qr_scan"}, "fusion_lon": 0.0, "lat": 38.90017366666667, "bike_id": "3ca1cd9b356d4f73c76feeb665eb11ae", "type": "electric_scooter", "is_reserved": 0, "lon": -76.9997455}, {"fusion_lat": 0.0, "name": "9b835985ab59590e8288094c4488e158", "is_disabled": 0, "rental_uris": {"android": "https://dc.lft.to/lastmile_qr_scan", "ios": "https://dc.lft.to/lastmile_qr_scan"}, "fusion_lon": 0.0, "lat": 38.8976905, "bike_id": "9b835985ab59590e8288094c4488e158", "type": "electric_scooter", "is_reserved": 0, "lon": -77.0447535}, {"fusion_lat": 0.0, "name": "6140e6be22093977e74c3ad7647b7a53", "is_disabled": 0, "rental_uris": {"android": "https://dc.lft.to/lastmile_qr_scan", "ios": "https://dc.lft.to/lastmile_qr_scan"}, "fusion_lon": 0.0, "lat": 38.9276825, "bike_id": "6140e6be22093977e74c3ad7647b7a53", "type": "electric_scooter", "is_reserved": 0, "lon": -77.03244833333333}, {"fusion_lat": 0.0, "name": "3cff2e9c363db19457aca170144361a1", "is_disabled": 0, "rental_uris": {"android": "https://dc.lft.to/lastmile_qr_scan", "ios": "https://dc.lft.to/lastmile_qr_scan"}, "fusion_lon": 0.0, "lat": 38.906016666666666, "bike_id": "3cff2e9c363db19457aca170144361a1", "type": "electric_scooter", "is_reserved": 0, "lon": -77.06295983333334}, {"fusion_lat": 0.0, "name": "3a07e709e2932e05ced5ac5188ad1e52", "is_disabled": 0, "rental_uris": {"android": "https://dc.lft.to/lastmile_qr_scan", "ios": "https://dc.lft.to/lastmile_qr_scan"}, "fusion_lon": 0.0, "lat": 38.9167305, "bike_id": "3a07e709e2932e05ced5ac5188ad1e52", "type": "electric_scooter", "is_reserved": 0, "lon": -77.02713583333333}, {"fusion_lat": 0.0, "name": "fa4dab97903bd67f3d07f1f4bd01fdc0", "is_disabled": 0, "rental_uris": {"android": "https://dc.lft.to/lastmile_qr_scan", "ios": "https://dc.lft.to/lastmile_qr_scan"}, "fusion_lon": 0.0, "lat": 38.90544083333333, "bike_id": "fa4dab97903bd67f3d07f1f4bd01fdc0", "type": "electric_scooter", "is_reserved": 0, "lon": -77.02964716666666}, {"fusion_lat": 0.0, "name": "dc9cb81543854c1d796cece8b7562ef1", "is_disabled": 0, "rental_uris": {"android": "https://dc.lft.to/lastmile_qr_scan", "ios": "https://dc.lft.to/lastmile_qr_scan"}, "fusion_lon": 0.0, "lat": 38.907450833333336, "bike_id": "dc9cb81543854c1d796cece8b7562ef1", "type": "electric_scooter", "is_reserved": 0, "lon": -77.0354405}, {"fusion_lat": 0.0, "name": "6840f0ebf586e45d792631517c6a9923", "is_disabled": 0, "rental_uris": {"android": "https://dc.lft.to/lastmile_qr_scan", "ios": "https://dc.lft.to/lastmile_qr_scan"}, "fusion_lon": 0.0, "lat": 38.89985033333333, "bike_id": "6840f0ebf586e45d792631517c6a9923", "type": "electric_scooter", "is_reserved": 0, "lon": -77.0512255}, {"fusion_lat": 0.0, "name": "c729bb934b64123065c412fd0f2f2531", "is_disabled": 0, "rental_uris": {"android": "https://dc.lft.to/lastmile_qr_scan", "ios": "https://dc.lft.to/lastmile_qr_scan"}, "fusion_lon": 0.0, "lat": 38.883804166666664, "bike_id": "c729bb934b64123065c412fd0f2f2531", "type": "electric_scooter", "is_reserved": 0, "lon": -77.005297}, {"fusion_lat": 0.0, "name": "9bea7d792c0733e75c625ba9114d378b", "is_disabled": 0, "rental_uris": {"android": "https://dc.lft.to/lastmile_qr_scan", "ios": "https://dc.lft.to/lastmile_qr_scan"}, "fusion_lon": 0.0, "lat": 38.8442625, "bike_id": "9bea7d792c0733e75c625ba9114d378b", "type": "electric_scooter", "is_reserved": 0, "lon": -76.9978355}, {"fusion_lat": 0.0, "name": "b48911fec999d57911f127ddc084fe88", "is_disabled": 0, "rental_uris": {"android": "https://dc.lft.to/lastmile_qr_scan", "ios": "https://dc.lft.to/lastmile_qr_scan"}, "fusion_lon": 0.0, "lat": 38.917133166666666, "bike_id": "b48911fec999d57911f127ddc084fe88", "type": "electric_scooter", "is_reserved": 0, "lon": -77.028969}, {"fusion_lat": 0.0, "name": "f1b2607b97ce1f9f30ee8c954cf8f1ae", "is_disabled": 0, "rental_uris": {"android": "https://dc.lft.to/lastmile_qr_scan", "ios": "https://dc.lft.to/lastmile_qr_scan"}, "fusion_lon": 0.0, "lat": 38.9210375, "bike_id": "f1b2607b97ce1f9f30ee8c954cf8f1ae", "type": "electric_scooter", "is_reserved": 0, "lon": -77.01771816666667}, {"fusion_lat": 0.0, "name": "a487d7b9b1b66ba95af9d7503b4131f3", "is_disabled": 0, "rental_uris": {"android": "https://dc.lft.to/lastmile_qr_scan", "ios": "https://dc.lft.to/lastmile_qr_scan"}, "fusion_lon": 0.0, "lat": 38.85202916666667, "bike_id": "a487d7b9b1b66ba95af9d7503b4131f3", "type": "electric_bike", "is_reserved": 0, "lon": -76.96291066666667}, {"fusion_lat": 0.0, "name": "810eed799bf943b70260f948b1fd31f1", "is_disabled": 0, "rental_uris": {"android": "https://dc.lft.to/lastmile_qr_scan", "ios": "https://dc.lft.to/lastmile_qr_scan"}, "fusion_lon": 0.0, "lat": 38.924781833333334, "bike_id": "810eed799bf943b70260f948b1fd31f1", "type": "electric_scooter", "is_reserved": 0, "lon": -77.05213183333333}, {"fusion_lat": 0.0, "name": "d56133386ab0e02740ff65955b6561fb", "is_disabled": 0, "rental_uris": {"android": "https://dc.lft.to/lastmile_qr_scan", "ios": "https://dc.lft.to/lastmile_qr_scan"}, "fusion_lon": 0.0, "lat": 38.88679483333333, "bike_id": "d56133386ab0e02740ff65955b6561fb", "type": "electric_scooter", "is_reserved": 0, "lon": -77.00197733333333}, {"fusion_lat": 0.0, "name": "15eac5acfdf96707d2b89b18af5fdf25", "is_disabled": 0, "rental_uris": {"android": "https://dc.lft.to/lastmile_qr_scan", "ios": "https://dc.lft.to/lastmile_qr_scan"}, "fusion_lon": 0.0, "lat": 38.887400666666665, "bike_id": "15eac5acfdf96707d2b89b18af5fdf25", "type": "electric_scooter", "is_reserved": 0, "lon": -77.02127183333333}, {"fusion_lat": 0.0, "name": "07cda871371798d757fa546a2a9701d3", "is_disabled": 0, "rental_uris": {"android": "https://dc.lft.to/lastmile_qr_scan", "ios": "https://dc.lft.to/lastmile_qr_scan"}, "fusion_lon": 0.0, "lat": 38.907789, "bike_id": "07cda871371798d757fa546a2a9701d3", "type": "electric_scooter", "is_reserved": 0, "lon": -77.07255983333333}, {"fusion_lat": 0.0, "name": "3889143bcbe069a15a3e3af76e8f266b", "is_disabled": 0, "rental_uris": {"android": "https://dc.lft.to/lastmile_qr_scan", "ios": "https://dc.lft.to/lastmile_qr_scan"}, "fusion_lon": 0.0, "lat": 38.92029433333333, "bike_id": "3889143bcbe069a15a3e3af76e8f266b", "type": "electric_scooter", "is_reserved": 0, "lon": -77.08189216666666}, {"fusion_lat": 0.0, "name": "aa958ba31cc6bc4f38107fa32a367dca", "is_disabled": 0, "rental_uris": {"android": "https://dc.lft.to/lastmile_qr_scan", "ios": "https://dc.lft.to/lastmile_qr_scan"}, "fusion_lon": 0.0, "lat": 38.928741333333335, "bike_id": "aa958ba31cc6bc4f38107fa32a367dca", "type": "electric_scooter", "is_reserved": 0, "lon": -77.01382366666667}, {"fusion_lat": 0.0, "name": "e1d5f6a58eeb5d3b740e0ad2f827b377", "is_disabled": 0, "rental_uris": {"android": "https://dc.lft.to/lastmile_qr_scan", "ios": "https://dc.lft.to/lastmile_qr_scan"}, "fusion_lon": 0.0, "lat": 38.9098285, "bike_id": "e1d5f6a58eeb5d3b740e0ad2f827b377", "type": "electric_scooter", "is_reserved": 0, "lon": -77.03442783333334}, {"fusion_lat": 0.0, "name": "7d672a1493727995332b9555653a1e2c", "is_disabled": 0, "rental_uris": {"android": "https://dc.lft.to/lastmile_qr_scan", "ios": "https://dc.lft.to/lastmile_qr_scan"}, "fusion_lon": 0.0, "lat": 38.93418, "bike_id": "7d672a1493727995332b9555653a1e2c", "type": "electric_scooter", "is_reserved": 0, "lon": -77.042832}, {"fusion_lat": 0.0, "name": "9c6149c062a874963e4f3bfebb8ee284", "is_disabled": 0, "rental_uris": {"android": "https://dc.lft.to/lastmile_qr_scan", "ios": "https://dc.lft.to/lastmile_qr_scan"}, "fusion_lon": 0.0, "lat": 38.89980216666667, "bike_id": "9c6149c062a874963e4f3bfebb8ee284", "type": "electric_scooter", "is_reserved": 0, "lon": -77.02448916666667}, {"fusion_lat": 0.0, "name": "2886584c654e923efa6928b2e060cd1b", "is_disabled": 0, "rental_uris": {"android": "https://dc.lft.to/lastmile_qr_scan", "ios": "https://dc.lft.to/lastmile_qr_scan"}, "fusion_lon": 0.0, "lat": 38.91725433333333, "bike_id": "2886584c654e923efa6928b2e060cd1b", "type": "electric_scooter", "is_reserved": 0, "lon": -77.03442716666666}, {"fusion_lat": 0.0, "name": "2d1fde9c03ff181ae3df487c2e6e4e4f", "is_disabled": 0, "rental_uris": {"android": "https://dc.lft.to/lastmile_qr_scan", "ios": "https://dc.lft.to/lastmile_qr_scan"}, "fusion_lon": 0.0, "lat": 38.90245633333333, "bike_id": "2d1fde9c03ff181ae3df487c2e6e4e4f", "type": "electric_scooter", "is_reserved": 0, "lon": -77.01098283333333}, {"fusion_lat": 0.0, "name": "7e31a5a40943994001ea9cce91a148ed", "is_disabled": 0, "rental_uris": {"android": "https://dc.lft.to/lastmile_qr_scan", "ios": "https://dc.lft.to/lastmile_qr_scan"}, "fusion_lon": 0.0, "lat": 38.8785065, "bike_id": "7e31a5a40943994001ea9cce91a148ed", "type": "electric_scooter", "is_reserved": 0, "lon": -77.00556483333334}, {"fusion_lat": 0.0, "name": "81d8b7c3a3f53b47c0a4f2bc9c64f216", "is_disabled": 0, "rental_uris": {"android": "https://dc.lft.to/lastmile_qr_scan", "ios": "https://dc.lft.to/lastmile_qr_scan"}, "fusion_lon": 0.0, "lat": 38.90702566666667, "bike_id": "81d8b7c3a3f53b47c0a4f2bc9c64f216", "type": "electric_scooter", "is_reserved": 0, "lon": -77.04081483333333}, {"fusion_lat": 0.0, "name": "4bca091200dd95c154da451dfe2f1d68", "is_disabled": 0, "rental_uris": {"android": "https://dc.lft.to/lastmile_qr_scan", "ios": "https://dc.lft.to/lastmile_qr_scan"}, "fusion_lon": 0.0, "lat": 38.89986916666667, "bike_id": "4bca091200dd95c154da451dfe2f1d68", "type": "electric_scooter", "is_reserved": 0, "lon": -77.027123}, {"fusion_lat": 0.0, "name": "b778cfbf7125b0af8ebbfd6b3645415d", "is_disabled": 0, "rental_uris": {"android": "https://dc.lft.to/lastmile_qr_scan", "ios": "https://dc.lft.to/lastmile_qr_scan"}, "fusion_lon": 0.0, "lat": 38.91638366666667, "bike_id": "b778cfbf7125b0af8ebbfd6b3645415d", "type": "electric_scooter", "is_reserved": 0, "lon": -77.05068583333333}, {"fusion_lat": 0.0, "name": "af22bda2b024b1c820f19cbcb5e9eb60", "is_disabled": 0, "rental_uris": {"android": "https://dc.lft.to/lastmile_qr_scan", "ios": "https://dc.lft.to/lastmile_qr_scan"}, "fusion_lon": 0.0, "lat": 38.89717733333333, "bike_id": "af22bda2b024b1c820f19cbcb5e9eb60", "type": "electric_scooter", "is_reserved": 0, "lon": -77.027337}, {"fusion_lat": 0.0, "name": "0cecbbcdc4a7b67c81f085198ca9ac0d", "is_disabled": 0, "rental_uris": {"android": "https://dc.lft.to/lastmile_qr_scan", "ios": "https://dc.lft.to/lastmile_qr_scan"}, "fusion_lon": 0.0, "lat": 38.908153666666664, "bike_id": "0cecbbcdc4a7b67c81f085198ca9ac0d", "type": "electric_scooter", "is_reserved": 0, "lon": -77.04329433333334}, {"fusion_lat": 0.0, "name": "7b28d4c0f388e0bcdf8f8c2e485ab1d9", "is_disabled": 0, "rental_uris": {"android": "https://dc.lft.to/lastmile_qr_scan", "ios": "https://dc.lft.to/lastmile_qr_scan"}, "fusion_lon": 0.0, "lat": 38.93448016666667, "bike_id": "7b28d4c0f388e0bcdf8f8c2e485ab1d9", "type": "electric_scooter", "is_reserved": 0, "lon": -77.03276333333334}, {"fusion_lat": 0.0, "name": "c96a66a990724c73ce4cce506f372816", "is_disabled": 0, "rental_uris": {"android": "https://dc.lft.to/lastmile_qr_scan", "ios": "https://dc.lft.to/lastmile_qr_scan"}, "fusion_lon": 0.0, "lat": 38.887446833333335, "bike_id": "c96a66a990724c73ce4cce506f372816", "type": "electric_scooter", "is_reserved": 0, "lon": -77.02775833333334}, {"fusion_lat": 0.0, "name": "7e791317586bdcf89f44779a4e5de2c5", "is_disabled": 0, "rental_uris": {"android": "https://dc.lft.to/lastmile_qr_scan", "ios": "https://dc.lft.to/lastmile_qr_scan"}, "fusion_lon": 0.0, "lat": 38.924169, "bike_id": "7e791317586bdcf89f44779a4e5de2c5", "type": "electric_scooter", "is_reserved": 0, "lon": -77.027017}, {"fusion_lat": 0.0, "name": "55f483324833724e153133921ab0a7d4", "is_disabled": 0, "rental_uris": {"android": "https://dc.lft.to/lastmile_qr_scan", "ios": "https://dc.lft.to/lastmile_qr_scan"}, "fusion_lon": 0.0, "lat": 38.900381, "bike_id": "55f483324833724e153133921ab0a7d4", "type": "electric_scooter", "is_reserved": 0, "lon": -77.001922}, {"fusion_lat": 0.0, "name": "cdc0ba98cc01c294d119f6b9e9c375dd", "is_disabled": 0, "rental_uris": {"android": "https://dc.lft.to/lastmile_qr_scan", "ios": "https://dc.lft.to/lastmile_qr_scan"}, "fusion_lon": 0.0, "lat": 38.92128683333333, "bike_id": "cdc0ba98cc01c294d119f6b9e9c375dd", "type": "electric_scooter", "is_reserved": 0, "lon": -77.0251565}, {"fusion_lat": 0.0, "name": "ec4dd862695a35103162915d7848b551", "is_disabled": 0, "rental_uris": {"android": "https://dc.lft.to/lastmile_qr_scan", "ios": "https://dc.lft.to/lastmile_qr_scan"}, "fusion_lon": 0.0, "lat": 38.914555166666666, "bike_id": "ec4dd862695a35103162915d7848b551", "type": "electric_scooter", "is_reserved": 0, "lon": -77.00207966666666}, {"fusion_lat": 0.0, "name": "434da01c809fda416ff45917a10de1f0", "is_disabled": 0, "rental_uris": {"android": "https://dc.lft.to/lastmile_qr_scan", "ios": "https://dc.lft.to/lastmile_qr_scan"}, "fusion_lon": 0.0, "lat": 38.95017516666667, "bike_id": "434da01c809fda416ff45917a10de1f0", "type": "electric_scooter", "is_reserved": 0, "lon": -77.08033833333333}, {"fusion_lat": 0.0, "name": "7b50a42ae6ec66e520e07dcb9b58d925", "is_disabled": 0, "rental_uris": {"android": "https://dc.lft.to/lastmile_qr_scan", "ios": "https://dc.lft.to/lastmile_qr_scan"}, "fusion_lon": 0.0, "lat": 38.903617833333335, "bike_id": "7b50a42ae6ec66e520e07dcb9b58d925", "type": "electric_scooter", "is_reserved": 0, "lon": -77.0098265}, {"fusion_lat": 0.0, "name": "3ceeaa43d60d48a463c0a83dd2fc2732", "is_disabled": 0, "rental_uris": {"android": "https://dc.lft.to/lastmile_qr_scan", "ios": "https://dc.lft.to/lastmile_qr_scan"}, "fusion_lon": 0.0, "lat": 38.8836825, "bike_id": "3ceeaa43d60d48a463c0a83dd2fc2732", "type": "electric_scooter", "is_reserved": 0, "lon": -76.995184}, {"fusion_lat": 0.0, "name": "d430accfbe2dd74f2c91b2ed839bb6d4", "is_disabled": 0, "rental_uris": {"android": "https://dc.lft.to/lastmile_qr_scan", "ios": "https://dc.lft.to/lastmile_qr_scan"}, "fusion_lon": 0.0, "lat": 38.892188, "bike_id": "d430accfbe2dd74f2c91b2ed839bb6d4", "type": "electric_scooter", "is_reserved": 0, "lon": -77.026563}, {"fusion_lat": 0.0, "name": "cf0d8088361729a8abf7e7d7d3f66182", "is_disabled": 0, "rental_uris": {"android": "https://dc.lft.to/lastmile_qr_scan", "ios": "https://dc.lft.to/lastmile_qr_scan"}, "fusion_lon": 0.0, "lat": 38.9171805, "bike_id": "cf0d8088361729a8abf7e7d7d3f66182", "type": "electric_scooter", "is_reserved": 0, "lon": -77.022942}, {"fusion_lat": 0.0, "name": "8349847810e447ec2078f8171897ba6d", "is_disabled": 0, "rental_uris": {"android": "https://dc.lft.to/lastmile_qr_scan", "ios": "https://dc.lft.to/lastmile_qr_scan"}, "fusion_lon": 0.0, "lat": 38.92867833333333, "bike_id": "8349847810e447ec2078f8171897ba6d", "type": "electric_scooter", "is_reserved": 0, "lon": -77.03298766666667}, {"fusion_lat": 0.0, "name": "e242b640f4461336293fc5977fd89c67", "is_disabled": 0, "rental_uris": {"android": "https://dc.lft.to/lastmile_qr_scan", "ios": "https://dc.lft.to/lastmile_qr_scan"}, "fusion_lon": 0.0, "lat": 38.94182383333333, "bike_id": "e242b640f4461336293fc5977fd89c67", "type": "electric_scooter", "is_reserved": 0, "lon": -77.02614366666667}, {"fusion_lat": 0.0, "name": "317f7b9df0b247f9a95649f8425f3352", "is_disabled": 0, "rental_uris": {"android": "https://dc.lft.to/lastmile_qr_scan", "ios": "https://dc.lft.to/lastmile_qr_scan"}, "fusion_lon": 0.0, "lat": 38.914323, "bike_id": "317f7b9df0b247f9a95649f8425f3352", "type": "electric_scooter", "is_reserved": 0, "lon": -77.0220005}, {"fusion_lat": 0.0, "name": "24388fde2bbb105f9e0aeddc9edc0e69", "is_disabled": 0, "rental_uris": {"android": "https://dc.lft.to/lastmile_qr_scan", "ios": "https://dc.lft.to/lastmile_qr_scan"}, "fusion_lon": 0.0, "lat": 38.90555583333333, "bike_id": "24388fde2bbb105f9e0aeddc9edc0e69", "type": "electric_scooter", "is_reserved": 0, "lon": -76.99487983333333}, {"fusion_lat": 0.0, "name": "2b905c87a1a826b076e06290d5514d02", "is_disabled": 0, "rental_uris": {"android": "https://dc.lft.to/lastmile_qr_scan", "ios": "https://dc.lft.to/lastmile_qr_scan"}, "fusion_lon": 0.0, "lat": 38.921991, "bike_id": "2b905c87a1a826b076e06290d5514d02", "type": "electric_scooter", "is_reserved": 0, "lon": -77.039757}, {"fusion_lat": 0.0, "name": "47e284e2d15a8c0dabf18299ae242b4b", "is_disabled": 0, "rental_uris": {"android": "https://dc.lft.to/lastmile_qr_scan", "ios": "https://dc.lft.to/lastmile_qr_scan"}, "fusion_lon": 0.0, "lat": 38.900052333333335, "bike_id": "47e284e2d15a8c0dabf18299ae242b4b", "type": "electric_scooter", "is_reserved": 0, "lon": -77.04493066666667}, {"fusion_lat": 0.0, "name": "9f109f123e6a6210bd17392f4a98ca08", "is_disabled": 0, "rental_uris": {"android": "https://dc.lft.to/lastmile_qr_scan", "ios": "https://dc.lft.to/lastmile_qr_scan"}, "fusion_lon": 0.0, "lat": 38.917003666666666, "bike_id": "9f109f123e6a6210bd17392f4a98ca08", "type": "electric_scooter", "is_reserved": 0, "lon": -77.02397133333334}, {"fusion_lat": 0.0, "name": "ea5a772b88abc3480e8d6b0794061d0f", "is_disabled": 0, "rental_uris": {"android": "https://dc.lft.to/lastmile_qr_scan", "ios": "https://dc.lft.to/lastmile_qr_scan"}, "fusion_lon": 0.0, "lat": 38.915404833333334, "bike_id": "ea5a772b88abc3480e8d6b0794061d0f", "type": "electric_scooter", "is_reserved": 0, "lon": -77.03204766666667}, {"fusion_lat": 0.0, "name": "a4cec56bd1a9edd1b45e2e46821ed20f", "is_disabled": 0, "rental_uris": {"android": "https://dc.lft.to/lastmile_qr_scan", "ios": "https://dc.lft.to/lastmile_qr_scan"}, "fusion_lon": 0.0, "lat": 38.915647, "bike_id": "a4cec56bd1a9edd1b45e2e46821ed20f", "type": "electric_bike", "is_reserved": 0, "lon": -77.00585283333334}, {"fusion_lat": 0.0, "name": "59b261090041f8d6d782e80a8ee63e5b", "is_disabled": 0, "rental_uris": {"android": "https://dc.lft.to/lastmile_qr_scan", "ios": "https://dc.lft.to/lastmile_qr_scan"}, "fusion_lon": 0.0, "lat": 38.915353833333334, "bike_id": "59b261090041f8d6d782e80a8ee63e5b", "type": "electric_scooter", "is_reserved": 0, "lon": -77.03184216666666}, {"fusion_lat": 0.0, "name": "8ae40f275f76c893cf63dbe8f5bc1c34", "is_disabled": 0, "rental_uris": {"android": "https://dc.lft.to/lastmile_qr_scan", "ios": "https://dc.lft.to/lastmile_qr_scan"}, "fusion_lon": 0.0, "lat": 38.9192215, "bike_id": "8ae40f275f76c893cf63dbe8f5bc1c34", "type": "electric_scooter", "is_reserved": 0, "lon": -77.03421766666666}, {"fusion_lat": 0.0, "name": "cf81fd2b20138c79765a9a7982df503e", "is_disabled": 0, "rental_uris": {"android": "https://dc.lft.to/lastmile_qr_scan", "ios": "https://dc.lft.to/lastmile_qr_scan"}, "fusion_lon": 0.0, "lat": 38.906557666666664, "bike_id": "cf81fd2b20138c79765a9a7982df503e", "type": "electric_scooter", "is_reserved": 0, "lon": -77.04131683333334}, {"fusion_lat": 0.0, "name": "b50f59d29c0ca3e494c6ff1aadef5086", "is_disabled": 0, "rental_uris": {"android": "https://dc.lft.to/lastmile_qr_scan", "ios": "https://dc.lft.to/lastmile_qr_scan"}, "fusion_lon": 0.0, "lat": 38.887427833333334, "bike_id": "b50f59d29c0ca3e494c6ff1aadef5086", "type": "electric_scooter", "is_reserved": 0, "lon": -77.02131}, {"fusion_lat": 0.0, "name": "ced3d07c7fba4437248352bb664c6b50", "is_disabled": 0, "rental_uris": {"android": "https://dc.lft.to/lastmile_qr_scan", "ios": "https://dc.lft.to/lastmile_qr_scan"}, "fusion_lon": 0.0, "lat": 38.92154033333333, "bike_id": "ced3d07c7fba4437248352bb664c6b50", "type": "electric_scooter", "is_reserved": 0, "lon": -77.03263483333333}, {"fusion_lat": 0.0, "name": "90d45a1c94d72c2ebd908cdd114bf58b", "is_disabled": 0, "rental_uris": {"android": "https://dc.lft.to/lastmile_qr_scan", "ios": "https://dc.lft.to/lastmile_qr_scan"}, "fusion_lon": 0.0, "lat": 38.90295716666667, "bike_id": "90d45a1c94d72c2ebd908cdd114bf58b", "type": "electric_scooter", "is_reserved": 0, "lon": -77.01631983333333}, {"fusion_lat": 0.0, "name": "460c40c8f1c6fb9514ab58dc4d1ff902", "is_disabled": 0, "rental_uris": {"android": "https://dc.lft.to/lastmile_qr_scan", "ios": "https://dc.lft.to/lastmile_qr_scan"}, "fusion_lon": 0.0, "lat": 38.92582766666666, "bike_id": "460c40c8f1c6fb9514ab58dc4d1ff902", "type": "electric_scooter", "is_reserved": 0, "lon": -77.02978833333333}, {"fusion_lat": 0.0, "name": "5907fa8715a9387697b9c8446293d9af", "is_disabled": 0, "rental_uris": {"android": "https://dc.lft.to/lastmile_qr_scan", "ios": "https://dc.lft.to/lastmile_qr_scan"}, "fusion_lon": 0.0, "lat": 38.921185333333334, "bike_id": "5907fa8715a9387697b9c8446293d9af", "type": "electric_scooter", "is_reserved": 0, "lon": -77.044266}, {"fusion_lat": 0.0, "name": "497ac3955286ce4c344bd848fd80ca3c", "is_disabled": 0, "rental_uris": {"android": "https://dc.lft.to/lastmile_qr_scan", "ios": "https://dc.lft.to/lastmile_qr_scan"}, "fusion_lon": 0.0, "lat": 38.915532166666665, "bike_id": "497ac3955286ce4c344bd848fd80ca3c", "type": "electric_scooter", "is_reserved": 0, "lon": -77.03865333333333}, {"fusion_lat": 0.0, "name": "054cef9019d978e5f73b24c5bf052098", "is_disabled": 0, "rental_uris": {"android": "https://dc.lft.to/lastmile_qr_scan", "ios": "https://dc.lft.to/lastmile_qr_scan"}, "fusion_lon": 0.0, "lat": 38.92505766666667, "bike_id": "054cef9019d978e5f73b24c5bf052098", "type": "electric_scooter", "is_reserved": 0, "lon": -77.03798866666666}, {"fusion_lat": 0.0, "name": "fe6eda70ca70f50e011d977327f3660d", "is_disabled": 0, "rental_uris": {"android": "https://dc.lft.to/lastmile_qr_scan", "ios": "https://dc.lft.to/lastmile_qr_scan"}, "fusion_lon": 0.0, "lat": 38.86542766666667, "bike_id": "fe6eda70ca70f50e011d977327f3660d", "type": "electric_bike", "is_reserved": 0, "lon": -76.97383683333334}, {"fusion_lat": 0.0, "name": "de4c547e6977c56acfed4914367ee9ce", "is_disabled": 0, "rental_uris": {"android": "https://dc.lft.to/lastmile_qr_scan", "ios": "https://dc.lft.to/lastmile_qr_scan"}, "fusion_lon": 0.0, "lat": 38.90241, "bike_id": "de4c547e6977c56acfed4914367ee9ce", "type": "electric_scooter", "is_reserved": 0, "lon": -77.03778916666667}, {"fusion_lat": 0.0, "name": "5073a26fa9551cc3f28d781abb7ec993", "is_disabled": 0, "rental_uris": {"android": "https://dc.lft.to/lastmile_qr_scan", "ios": "https://dc.lft.to/lastmile_qr_scan"}, "fusion_lon": 0.0, "lat": 38.899402, "bike_id": "5073a26fa9551cc3f28d781abb7ec993", "type": "electric_scooter", "is_reserved": 0, "lon": -77.02948366666666}, {"fusion_lat": 0.0, "name": "2f470886e59a4c1ad887aa96bab0b739", "is_disabled": 0, "rental_uris": {"android": "https://dc.lft.to/lastmile_qr_scan", "ios": "https://dc.lft.to/lastmile_qr_scan"}, "fusion_lon": 0.0, "lat": 38.900518166666664, "bike_id": "2f470886e59a4c1ad887aa96bab0b739", "type": "electric_scooter", "is_reserved": 0, "lon": -77.0162785},