{"data": {"bikes": [{"type": "electric_scooter", "fusion_lon": 0.0, "name": "4c7c229ec6f97aea6c7be82737e04ca6", "lon": -77.0279835, "fusion_lat": 0.0, "is_disabled": 0, "is_reserved": 0, "rental_uris": {"ios": "https://dc.lft.to/lastmile_qr_scan", "android": "https://dc.lft.to/lastmile_qr_scan"}, "bike_id": "4c7c229ec6f97aea6c7be82737e04ca6", "lat": 38.892348}, {"type": "electric_scooter", "fusion_lon": 0.0, "name": "d99f48201574c76579894477a8938816", "lon": -77.0268515, "fusion_lat": 0.0, "is_disabled": 0, "is_reserved": 0, "rental_uris": {"ios": "https://dc.lft.to/lastmile_qr_scan", "android": "https://dc.lft.to/lastmile_qr_scan"}, "bike_id": "d99f48201574c76579894477a8938816", "lat": 38.92479}, {"type": "electric_scooter", "fusion_lon": 0.0, "name": "b10a1841f637cc9543e6352c37d6e7b4", "lon": -77.06756416666667, "fusion_lat": 0.0, "is_disabled": 0, "is_reserved": 0, "rental_uris": {"ios": "https://dc.lft.to/lastmile_qr_scan", "android": "https://dc.lft.to/lastmile_qr_scan"}, "bike_id": "b10a1841f637cc9543e6352c37d6e7b4", "lat": 38.949669666666665}, {"type": "electric_scooter", "fusion_lon": 0.0, "name": "da17ed0a1e6343135710662557ab331f", "lon": -77.0283045, "fusion_lat": 0.0, "is_disabled": 0, "is_reserved": 0, "rental_uris": {"ios": "https://dc.lft.to/lastmile_qr_scan", "android": "https://dc.lft.to/lastmile_qr_scan"}, "bike_id": "da17ed0a1e6343135710662557ab331f", "lat": 38.90858133333333}, {"type": "electric_scooter", "fusion_lon": 0.0, "name": "e66f7dc8e6ac434517d9b570155ffd6a", "lon": -77.02408, "fusion_lat": 0.0, "is_disabled": 0, "is_reserved": 0, "rental_uris": {"ios": "https://dc.lft.to/lastmile_qr_scan", "android": "https://dc.lft.to/lastmile_qr_scan"}, "bike_id": "e66f7dc8e6ac434517d9b570155ffd6a", "lat": 38.957365}, {"type": "electric_scooter", "fusion_lon": 0.0, "name": "6d43f39fb3cadb606f6119de6417ccba", "lon": -76.9948005, "fusion_lat": 0.0, "is_disabled": 0, "is_reserved": 0, "rental_uris": {"ios": "https://dc.lft.to/lastmile_qr_scan", "android": "https://dc.lft.to/lastmile_qr_scan"}, "bike_id": "6d43f39fb3cadb606f6119de6417ccba", "lat": 38.862152}, {"type": "electric_scooter", "fusion_lon": 0.0, "name": "efb461b5f6c1761537a426d0d2ed74d0", "lon": -77.0005455, "fusion_lat": 0.0, "is_disabled": 0, "is_reserved": 0, "rental_uris": {"ios": "https://dc.lft.to/lastmile_qr_scan", "android": "https://dc.lft.to/lastmile_qr_scan"}, "bike_id": "efb461b5f6c1761537a426d0d2ed74d0", "lat": 38.8768665}, {"type": "electric_scooter", "fusion_lon": 0.0, "name": "b186b2cb992b91e95307f779408e3ca7", "lon": -77.02200666666667, "fusion_lat": 0.0, "is_disabled": 0, "is_reserved": 0, "rental_uris": {"ios": "https://dc.lft.to/lastmile_qr_scan", "android": "https://dc.lft.to/lastmile_qr_scan"}, "bike_id": "b186b2cb992b91e95307f779408e3ca7", "lat": 38.924757}, {"type": "electric_scooter", "fusion_lon": 0.0, "name": "b366229113deabf0838fb90a4476a90a", "lon": -77.01561516666666, "fusion_lat": 0.0, "is_disabled": 0, "is_reserved": 0, "rental_uris": {"ios": "https://dc.lft.to/lastmile_qr_scan", "android": "https://dc.lft.to/lastmile_qr_scan"}, "bike_id": "b366229113deabf0838fb90a4476a90a", "lat": 38.8922335}, {"type": "electric_scooter", "fusion_lon": 0.0, "name": "7cfd1b8dbf0ba9e4b0fe4444d6a75ecc", "lon": -77.02188333333334, "fusion_lat": 0.0, "is_disabled": 0, "is_reserved": 0, "rental_uris": {"ios": "https://dc.lft.to/lastmile_qr_scan", "android": "https://dc.lft.to/lastmile_qr_scan"}, "bike_id": "7cfd1b8dbf0ba9e4b0fe4444d6a75ecc", "lat": 38.9105715}, {"type": "electric_scooter", "fusion_lon": 0.0, "name": "eda01c4b876c28b945132b1d96afefe8", "lon": -77.00070166666667, "fusion_lat": 0.0, "is_disabled": 0, "is_reserved": 0, "rental_uris": {"ios": "https://dc.lft.to/lastmile_qr_scan", "android": "https://dc.lft.to/lastmile_qr_scan"}, "bike_id": "eda01c4b876c28b945132b1d96afefe8", "lat": 38.9243975}, {"type": "electric_scooter", "fusion_lon": 0.0, "name": "fbc3ba7e7e1d3d4fd109da6b69d9f0b4", "lon": -77.0223625, "fusion_lat": 0.0, "is_disabled": 0, "is_reserved": 0, "rental_uris": {"ios": "https://dc.lft.to/lastmile_qr_scan", "android": "https://dc.lft.to/lastmile_qr_scan"}, "bike_id": "fbc3ba7e7e1d3d4fd109da6b69d9f0b4", "lat": 38.95695083333333}, {"type": "electric_scooter", "fusion_lon": 0.0, "name": "de43fdd3cec51d6d63941578cef4a65e", "lon": -77.03668883333333, "fusion_lat": 0.0, "is_disabled": 0, "is_reserved": 0, "rental_uris": {"ios": "https://dc.lft.to/lastmile_qr_scan", "android": "https://dc.lft.to/lastmile_qr_scan"}, "bike_id": "de43fdd3cec51d6d63941578cef4a65e", "lat": 38.931743833333336}, {"type": "electric_bike", "fusion_lon": 0.0, "name": "5a7d99b91f4ce940293b644a1aebf802", "lon": -77.0601165, "fusion_lat": 0.0, "is_disabled": 0, "is_reserved": 0, "rental_uris": {"ios": "https://dc.lft.to/lastmile_qr_scan", "android": "https://dc.lft.to/lastmile_qr_scan"}, "bike_id": "5a7d99b91f4ce940293b644a1aebf802", "lat": 38.8278035}, {"type": "electric_scooter", "fusion_lon": 0.0, "name": "3c4142dc472422a812af988742ad1624", "lon": -77.03083616666666, "fusion_lat": 0.0, "is_disabled": 0, "is_reserved": 0, "rental_uris": {"ios": "https://dc.lft.to/lastmile_qr_scan", "android": "https://dc.lft.to/lastmile_qr_scan"}, "bike_id": "3c4142dc472422a812af988742ad1624", "lat": 38.92251916666667}, {"type": "electric_scooter", "fusion_lon": 0.0, "name": "4cdba84e60f2e72a437d6fae503ca63a", "lon": -77.04173966666667, "fusion_lat": 0.0, "is_disabled": 0, "is_reserved": 0, "rental_uris": {"ios": "https://dc.lft.to/lastmile_qr_scan", "android": "https://dc.lft.to/lastmile_qr_scan"}, "bike_id": "4cdba84e60f2e72a437d6fae503ca63a", "lat": 38.905409666666664}, {"type": "electric_scooter", "fusion_lon": 0.0, "name": "bc288411c287253cc6572e1d90ad6efc", "lon": -77.02901083333333, "fusion_lat": 0.0, "is_disabled": 0, "is_reserved": 0, "rental_uris": {"ios": "https://dc.lft.to/lastmile_qr_scan", "android": "https://dc.lft.to/lastmile_qr_scan"}, "bike_id": "bc288411c287253cc6572e1d90ad6efc", "lat": 38.923131833333336}, {"type": "electric_scooter", "fusion_lon": 0.0, "name": "9a3eba3b1587e4fae3b7c3862215a8d3", "lon": -77.017871, "fusion_lat": 0.0, "is_disabled": 0, "is_reserved": 0, "rental_uris": {"ios": "https://dc.lft.to/lastmile_qr_scan", "android": "https://dc.lft.to/lastmile_qr_scan"}, "bike_id": "9a3eba3b1587e4fae3b7c3862215a8d3", "lat": 38.87744283333333}, {"type": "electric_scooter", "fusion_lon": 0.0, "name": "88f9c9bd7629cea0d05b5fcf1558d456", "lon": -77.03792216666666, "fusion_lat": 0.0, "is_disabled": 0, "is_reserved": 0, "rental_uris": {"ios": "https://dc.lft.to/lastmile_qr_scan", "android": "https://dc.lft.to/lastmile_qr_scan"}, "bike_id": "88f9c9bd7629cea0d05b5fcf1558d456", "lat": 38.92197916666667}, {"type": "electric_scooter", "fusion_lon": 0.0, "name": "7f62be49bf110f33aec56e057f5f3c16", "lon": -77.0309815, "fusion_lat": 0.0, "is_disabled": 0, "is_reserved": 0, "rental_uris": {"ios": "https://dc.lft.to/lastmile_qr_scan", "android": "https://dc.lft.to/lastmile_qr_scan"}, "bike_id": "7f62be49bf110f33aec56e057f5f3c16", "lat": 38.919185166666665}, {"type": "electric_scooter", "fusion_lon": 0.0, "name": "54b98ae4801c25564f45805af19d1124", "lon": -77.02210116666667, "fusion_lat": 0.0, "is_disabled": 0, "is_reserved": 0, "rental_uris": {"ios": "https://dc.lft.to/lastmile_qr_scan", "android": "https://dc.lft.to/lastmile_qr_scan"}, "bike_id": "54b98ae4801c25564f45805af19d1124", "lat": 38.8874045}, {"type": "electric_bike", "fusion_lon": 0.0, "name": "90f587522ba45510a20ae702415aa8f5", "lon": -76.98756116666667, "fusion_lat": 0.0, "is_disabled": 0, "is_reserved": 0, "rental_uris": {"ios": "https://dc.lft.to/lastmile_qr_scan", "android": "https://dc.lft.to/lastmile_qr_scan"}, "bike_id": "90f587522ba45510a20ae702415aa8f5", "lat": 38.857916833333334}, {"type": "electric_scooter", "fusion_lon": 0.0, "name": "3c4d485175dad107b374d23fb0b9a064", "lon": -77.03982233333333, "fusion_lat": 0.0, "is_disabled": 0, "is_reserved": 0, "rental_uris": {"ios": "https://dc.lft.to/lastmile_qr_scan", "android": "https://dc.lft.to/lastmile_qr_scan"}, "bike_id": "3c4d485175dad107b374d23fb0b9a064", "lat": 38.901482333333334}, {"type": "electric_scooter", "fusion_lon": 0.0, "name": "89916019f0d33f299a3aebe3db139169", "lon": -77.04645533333333, "fusion_lat": 0.0, "is_disabled": 0, "is_reserved": 0, "rental_uris": {"ios": "https://dc.lft.to/lastmile_qr_scan", "android": "https://dc.lft.to/lastmile_qr_scan"}, "bike_id": "89916019f0d33f299a3aebe3db139169", "lat": 38.89342833333333}, {"type": "electric_scooter", "fusion_lon": 0.0, "name": "e03f47a9e82927017aa6e8cb4259f6da", "lon": -77.0348405, "fusion_lat": 0.0, "is_disabled": 0, "is_reserved": 0, "rental_uris": {"ios": "https://dc.lft.to/lastmile_qr_scan", "android": "https://dc.lft.to/lastmile_qr_scan"}, "bike_id": "e03f47a9e82927017aa6e8cb4259f6da", "lat": 38.9234505}, {"type": "electric_scooter", "fusion_lon": 0.0, "name": "41b1181428f0b86bb1eff84b8ca6b9f0", "lon": -77.05026833333334, "fusion_lat": 0.0, "is_disabled": 0, "is_reserved": 0, "rental_uris": {"ios": "https://dc.lft.to/lastmile_qr_scan", "android": "https://dc.lft.to/lastmile_qr_scan"}, "bike_id": "41b1181428f0b86bb1eff84b8ca6b9f0", "lat": 38.902042}, {"type": "electric_scooter", "fusion_lon": 0.0, "name": "8656af4a388f50fce92f6cf61669b873", "lon": -77.02715716666667, "fusion_lat": 0.0, "is_disabled": 0, "is_reserved": 0, "rental_uris": {"ios": "https://dc.lft.to/lastmile_qr_scan", "android": "https://dc.lft.to/lastmile_qr_scan"}, "bike_id": "8656af4a388f50fce92f6cf61669b873", "lat": 38.924699833333335}, {"type": "electric_bike", "fusion_lon": 0.0, "name": "4d1088222d9f05edf838f503bc751c2f", "lon": -77.06625816666667, "fusion_lat": 0.0, "is_disabled": 0, "is_reserved": 0, "rental_uris": {"ios": "https://dc.lft.to/lastmile_qr_scan", "android": "https://dc.lft.to/lastmile_qr_scan"}, "bike_id": "4d1088222d9f05edf838f503bc751c2f", "lat": 38.867856833333335}, {"type": "electric_bike", "fusion_lon": 0.0, "name": "9c773c03ec098f506aadb608112590d9", "lon": -76.981493, "fusion_lat": 0.0, "is_disabled": 0, "is_reserved": 0, "rental_uris": {"ios": "https://dc.lft.to/lastmile_qr_scan", "android": "https://dc.lft.to/lastmile_qr_scan"}, "bike_id": "9c773c03ec098f506aadb608112590d9", "lat": 39.007185166666666}, {"type": "electric_bike", "fusion_lon": 0.0, "name": "f9be328177fd6f1477532869bd9c1217", "lon": -77.02673966666667, "fusion_lat": 0.0, "is_disabled": 0, "is_reserved": 0, "rental_uris": {"ios": "https://dc.lft.to/lastmile_qr_scan", "android": "https://dc.lft.to/lastmile_qr_scan"}, "bike_id": "f9be328177fd6f1477532869bd9c1217", "lat": 38.92977833333333}, {"type": "electric_scooter", "fusion_lon": 0.0, "name": "ecf8efb9f367df871e5772399ca476d4", "lon": -77.040558, "fusion_lat": 0.0, "is_disabled": 0, "is_reserved": 0, "rental_uris": {"ios": "https://dc.lft.to/lastmile_qr_scan", "android": "https://dc.lft.to/lastmile_qr_scan"}, "bike_id": "ecf8efb9f367df871e5772399ca476d4", "lat": 38.93065716666667}, {"type": "electric_scooter", "fusion_lon": 0.0, "name": "b69672409623290f4a65461696348783", "lon": -77.04520833333333, "fusion_lat": 0.0, "is_disabled": 0, "is_reserved": 0, "rental_uris": {"ios": "https://dc.lft.to/lastmile_qr_scan", "android": "https://dc.lft.to/lastmile_qr_scan"}, "bike_id": "b69672409623290f4a65461696348783", "lat": 38.9096565}, {"type": "electric_scooter", "fusion_lon": 0.0, "name": "ddc79ad7693358c7f6c3c89b0f869b8b", "lon": -77.05263883333333, "fusion_lat": 0.0, "is_disabled": 0, "is_reserved": 0, "rental_uris": {"ios": "https://dc.lft.to/lastmile_qr_scan", "android": "https://dc.lft.to/lastmile_qr_scan"}, "bike_id": "ddc79ad7693358c7f6c3c89b0f869b8b", "lat": 38.9278375}, {"type": "electric_scooter", "fusion_lon": 0.0, "name": "84e367e059b74ad401b27685736018ba", "lon": -77.00679366666667, "fusion_lat": 0.0, "is_disabled": 0, "is_reserved": 0, "rental_uris": {"ios": "https://dc.lft.to/lastmile_qr_scan", "android": "https://dc.lft.to/lastmile_qr_scan"}, "bike_id": "84e367e059b74ad401b27685736018ba", "lat": 38.8763935}, {"type": "electric_scooter", "fusion_lon": 0.0, "name": "0879bde01a821e5aaae4bf1c896bf495", "lon": -77.057441, "fusion_lat": 0.0, "is_disabled": 0, "is_reserved": 0, "rental_uris": {"ios": "https://dc.lft.to/lastmile_qr_scan", "android": "https://dc.lft.to/lastmile_qr_scan"}, "bike_id": "0879bde01a821e5aaae4bf1c896bf495", "lat": 38.93400033333333}, {"type": "electric_bike", "fusion_lon": 0.0, "name": "7a01d13801cf7fd81ecff44b19a2e9f7", "lon": -77.06886616666667, "fusion_lat": 0.0, "is_disabled": 0, "is_reserved": 0, "rental_uris": {"ios": "https://dc.lft.to/lastmile_qr_scan", "android": "https://dc.lft.to/lastmile_qr_scan"}, "bike_id": "7a01d13801cf7fd81ecff44b19a2e9f7", "lat": 38.991305833333335}, {"type": "electric_scooter", "fusion_lon": 0.0, "name": "3be4b23bae2445d51dc34a372a760bdd", "lon": -77.032141, "fusion_lat": 0.0, "is_disabled": 0, "is_reserved": 0, "rental_uris": {"ios": "https://dc.lft.to/lastmile_qr_scan", "android": "https://dc.lft.to/lastmile_qr_scan"}, "bike_id": "3be4b23bae2445d51dc34a372a760bdd", "lat": 38.91664183333334}, {"type": "electric_scooter", "fusion_lon": 0.0, "name": "ca97859c22168039fde743f4712a1cd6", "lon": -77.01987666666666, "fusion_lat": 0.0, "is_disabled": 0, "is_reserved": 0, "rental_uris": {"ios": "https://dc.lft.to/lastmile_qr_scan", "android": "https://dc.lft.to/lastmile_qr_scan"}, "bike_id": "ca97859c22168039fde743f4712a1cd6", "lat": 38.899746}, {"type": "electric_scooter", "fusion_lon": 0.0, "name": "c1e1b9752afd767abb7ff4449d5cb253", "lon": -77.03035483333333, "fusion_lat": 0.0, "is_disabled": 0, "is_reserved": 0, "rental_uris": {"ios": "https://dc.lft.to/lastmile_qr_scan", "android": "https://dc.lft.to/lastmile_qr_scan"}, "bike_id": "c1e1b9752afd767abb7ff4449d5cb253", "lat": 38.9258335}, {"type": "electric_scooter", "fusion_lon": 0.0, "name": "c3baa2775181d3a020d6af2f2a6caad9", "lon": -77.00680266666667, "fusion_lat": 0.0, "is_disabled": 0, "is_reserved": 0, "rental_uris": {"ios": "https://dc.lft.to/lastmile_qr_scan", "android": "https://dc.lft.to/lastmile_qr_scan"}, "bike_id": "c3baa2775181d3a020d6af2f2a6caad9", "lat": 38.87676616666667}, {"type": "electric_scooter", "fusion_lon": 0.0, "name": "b3c0c6003313b2fbead65457c3822e37", "lon": -77.0376435, "fusion_lat": 0.0, "is_disabled": 0, "is_reserved": 0, "rental_uris": {"ios": "https://dc.lft.to/lastmile_qr_scan", "android": "https://dc.lft.to/lastmile_qr_scan"}, "bike_id": "b3c0c6003313b2fbead65457c3822e37", "lat": 38.916943}, {"type": "electric_scooter", "fusion_lon": 0.0, "name": "49dd00dd3df14787d5d5f4cc3c64858a", "lon": -77.025201, "fusion_lat": 0.0, "is_disabled": 0, "is_reserved": 0, "rental_uris": {"ios": "https://dc.lft.to/lastmile_qr_scan", "android": "https://dc.lft.to/lastmile_qr_scan"}, "bike_id": "49dd00dd3df14787d5d5f4cc3c64858a", "lat": 38.897331666666666}, {"type": "electric_scooter", "fusion_lon": 0.0, "name": "7e9edf64511c25ca61270437f115274e", "lon": -77.05591, "fusion_lat": 0.0, "is_disabled": 0, "is_reserved": 0, "rental_uris": {"ios": "https://dc.lft.to/lastmile_qr_scan", "android": "https://dc.lft.to/lastmile_qr_scan"}, "bike_id": "7e9edf64511c25ca61270437f115274e", "lat": 38.92793266666666}, {"type": "electric_scooter", "fusion_lon": 0.0, "name": "e52aeb1d71a8e6737dadec51680c8bb6", "lon": -77.03245416666667, "fusion_lat": 0.0, "is_disabled": 0, "is_reserved": 0, "rental_uris": {"ios": "https://dc.lft.to/lastmile_qr_scan", "android": "https://dc.lft.to/lastmile_qr_scan"}, "bike_id": "e52aeb1d71a8e6737dadec51680c8bb6", "lat": 38.919937}, {"type": "electric_scooter", "fusion_lon": 0.0, "name": "90740159935aa12235b1f505cbd92017", "lon": -77.029537, "fusion_lat": 0.0, "is_disabled": 0, "is_reserved": 0, "rental_uris": {"ios": "https://dc.lft.to/lastmile_qr_scan", "android": "https://dc.lft.to/lastmile_qr_scan"}, "bike_id": "90740159935aa12235b1f505cbd92017", "lat": 38.89830666666667}, {"type": "electric_scooter", "fusion_lon": 0.0, "name": "95c0253dc337dacbeb450c6f7a635c3b", "lon": -77.02794483333334, "fusion_lat": 0.0, "is_disabled": 0, "is_reserved": 0, "rental_uris": {"ios": "https://dc.lft.to/lastmile_qr_scan", "android": "https://dc.lft.to/lastmile_qr_scan"}, "bike_id": "95c0253dc337dacbeb450c6f7a635c3b", "lat": 38.9072315}, {"type": "electric_scooter", "fusion_lon": 0.0, "name": "4cb61af463f3375b7c1486455c0b8a33", "lon": -77.037502, "fusion_lat": 0.0, "is_disabled": 0, "is_reserved": 0, "rental_uris": {"ios": "https://dc.lft.to/lastmile_qr_scan", "android": "https://dc.lft.to/lastmile_qr_scan"}, "bike_id": "4cb61af463f3375b7c1486455c0b8a33", "lat": 38.9287535}, {"type": "electric_scooter", "fusion_lon": 0.0, "name": "b8fe70f1d795111bb763c3548615b257", "lon": -77.03667633333333, "fusion_lat": 0.0, "is_disabled": 0, "is_reserved": 0, "rental_uris": {"ios": "https://dc.lft.to/lastmile_qr_scan", "android": "https://dc.lft.to/lastmile_qr_scan"}, "bike_id": "b8fe70f1d795111bb763c3548615b257", "lat": 38.922769333333335}, {"type": "electric_scooter", "fusion_lon": 0.0, "name": "977ecd32649e77c383011d5f75072a82", "lon": -77.04335233333333, "fusion_lat": 0.0, "is_disabled": 0, "is_reserved": 0, "rental_uris": {"ios": "https://dc.lft.to/lastmile_qr_scan", "android": "https://dc.lft.to/lastmile_qr_scan"}, "bike_id": "977ecd32649e77c383011d5f75072a82", "lat": 38.900431833333336}, {"type": "electric_scooter", "fusion_lon": 0.0, "name": "041acc5691bdb481ead568bea4d52144", "lon": -77.02098333333333, "fusion_lat": 0.0, "is_disabled": 0, "is_reserved": 0, "rental_uris": {"ios": "https://dc.lft.to/lastmile_qr_scan", "android": "https://dc.lft.to/lastmile_qr_scan"}, "bike_id": "041acc5691bdb481ead568bea4d52144", "lat": 38.93268916666667}, {"type": "electric_scooter", "fusion_lon": 0.0, "name": "ed6d814f3dbe217aee410ca594456ab2", "lon": -77.0230975, "fusion_lat": 0.0, "is_disabled": 0, "is_reserved": 0, "rental_uris": {"ios": "https://dc.lft.to/lastmile_qr_scan", "android": "https://dc.lft.to/lastmile_qr_scan"}, "bike_id": "ed6d814f3dbe217aee410ca594456ab2", "lat": 38.9029615}, {"type": "electric_scooter", "fusion_lon": 0.0, "name": "d1a91e880a9c534575b9b09d1ac3afd7", "lon": -77.02767316666667, "fusion_lat": 0.0, "is_disabled": 0, "is_reserved": 0, "rental_uris": {"ios": "https://dc.lft.to/lastmile_qr_scan", "android": "https://dc.lft.to/lastmile_qr_scan"}, "bike_id": "d1a91e880a9c534575b9b09d1ac3afd7", "lat": 38.965832}, {"type": "electric_scooter", "fusion_lon": 0.0, "name": "f0b249591c3d8cc618b85c728345e682", "lon": -77.0414195, "fusion_lat": 0.0, "is_disabled": 0, "is_reserved": 0, "rental_uris": {"ios": "https://dc.lft.to/lastmile_qr_scan", "android": "https://dc.lft.to/lastmile_qr_scan"}, "bike_id": "f0b249591c3d8cc618b85c728345e682", "lat": 38.922979166666664}, {"type": "electric_scooter", "fusion_lon": 0.0, "name": "87d691a107c767bfa4c2e6cfadd43adf", "lon": -77.032545, "fusion_lat": 0.0, "is_disabled": 0, "is_reserved": 0, "rental_uris": {"ios": "https://dc.lft.to/lastmile_qr_scan", "android": "https://dc.lft.to/lastmile_qr_scan"}, "bike_id": "87d691a107c767bfa4c2e6cfadd43adf", "lat": 38.9119415}, {"type": "electric_scooter", "fusion_lon": 0.0, "name": "ed9548bc9583f53f48045f891269fc2e", "lon": -77.05151266666667, "fusion_lat": 0.0, "is_disabled": 0, "is_reserved": 0, "rental_uris": {"ios": "https://dc.lft.to/lastmile_qr_scan", "android": "https://dc.lft.to/lastmile_qr_scan"}, "bike_id": "ed9548bc9583f53f48045f891269fc2e", "lat": 38.921390333333335}, {"type": "electric_scooter", "fusion_lon": 0.0, "name": "6d7e96e715bbdb74df871840119dae07", "lon": -76.9327775, "fusion_lat": 0.0, "is_disabled": 0, "is_reserved": 0, "rental_uris": {"ios": "https://dc.lft.to/lastmile_qr_scan", "android": "https://dc.lft.to/lastmile_qr_scan"}, "bike_id": "6d7e96e715bbdb74df871840119dae07", "lat": 38.90457716666667}, {"type": "electric_scooter", "fusion_lon": 0.0, "name": "70b839af244544e55027808d79f626f8", "lon": -77.02291116666666, "fusion_lat": 0.0, "is_disabled": 0, "is_reserved": 0, "rental_uris": {"ios": "https://dc.lft.to/lastmile_qr_scan", "android": "https://dc.lft.to/lastmile_qr_scan"}, "bike_id": "70b839af244544e55027808d79f626f8", "lat": 38.91570016666667}, {"type": "electric_scooter", "fusion_lon": 0.0, "name": "164074d2d000824de08450f985739f04", "lon": -77.02119033333334, "fusion_lat": 0.0, "is_disabled": 0, "is_reserved": 0, "rental_uris": {"ios": "https://dc.lft.to/lastmile_qr_scan", "android": "https://dc.lft.to/lastmile_qr_scan"}, "bike_id": "164074d2d000824de08450f985739f04", "lat": 38.922443333333334}, {"type": "electric_scooter", "fusion_lon": 0.0, "name": "6c89d8f736800386663474f70f79f66a", "lon": -77.02437533333334, "fusion_lat": 0.0, "is_disabled": 0, "is_reserved": 0, "rental_uris": {"ios": "https://dc.lft.to/lastmile_qr_scan", "android": "https://dc.lft.to/lastmile_qr_scan"}, "bike_id": "6c89d8f736800386663474f70f79f66a", "lat": 38.92273866666667}, {"type": "electric_scooter", "fusion_lon": 0.0, "name": "eef44983b4b270f5411b77d5917d7120", "lon": -77.0226065, "fusion_lat": 0.0, "is_disabled": 0, "is_reserved": 0, "rental_uris": {"ios": "https://dc.lft.to/lastmile_qr_scan", "android": "https://dc.lft.to/lastmile_qr_scan"}, "bike_id": "eef44983b4b270f5411b77d5917d7120", "lat": 38.925544333333335}, {"type": "electric_scooter", "fusion_lon": 0.0, "name": "f2182a6b3d3e4d9b739a5ea018c0b605", "lon": -77.02675716666667, "fusion_lat": 0.0, "is_disabled": 0, "is_reserved": 0, "rental_uris": {"ios": "https://dc.lft.to/lastmile_qr_scan", "android": "https://dc.lft.to/lastmile_qr_scan"}, "bike_id": "f2182a6b3d3e4d9b739a5ea018c0b605", "lat": 38.894956666666666}, {"type": "electric_scooter", "fusion_lon": 0.0, "name": "f12d51c33b84ad39492bdf0898e9f649", "lon": -77.03090333333333, "fusion_lat": 0.0, "is_disabled": 0, "is_reserved": 0, "rental_uris": {"ios": "https://dc.lft.to/lastmile_qr_scan", "android": "https://dc.lft.to/lastmile_qr_scan"}, "bike_id": "f12d51c33b84ad39492bdf0898e9f649", "lat": 38.923887666666666}, {"type": "electric_scooter", "fusion_lon": 0.0, "name": "4eb10054f15dcee728dbb949a452ae0d", "lon": -76.93445283333334, "fusion_lat": 0.0, "is_disabled": 0, "is_reserved": 0, "rental_uris": {"ios": "https://dc.lft.to/lastmile_qr_scan", "android": "https://dc.lft.to/lastmile_qr_scan"}, "bike_id": "4eb10054f15dcee728dbb949a452ae0d", "lat": 38.90844033333333}, {"type": "electric_scooter", "fusion_lon": 0.0, "name": "017d98b6ef5b022c980e7cf465c82d47", "lon": -77.0243435, "fusion_lat": 0.0, "is_disabled": 0, "is_reserved": 0, "rental_uris": {"ios": "https://dc.lft.to/lastmile_qr_scan", "android": "https://dc.lft.to/lastmile_qr_scan"}, "bike_id": "017d98b6ef5b022c980e7cf465c82d47", "lat": 38.967976666666665}, {"type": "electric_scooter", "fusion_lon": 0.0, "name": "b31c610b955de47c8c37e70b5995425c", "lon": -77.03172733333334, "fusion_lat": 0.0, "is_disabled": 0, "is_reserved": 0, "rental_uris": {"ios": "https://dc.lft.to/lastmile_qr_scan", "android": "https://dc.lft.to/lastmile_qr_scan"}, "bike_id": "b31c610b955de47c8c37e70b5995425c", "lat": 38.91423183333333}, {"type": "electric_scooter", "fusion_lon": 0.0, "name": "08bf1b9ab1b22181a36b64256fb96375", "lon": -77.031891, "fusion_lat": 0.0, "is_disabled": 0, "is_reserved": 0, "rental_uris": {"ios": "https://dc.lft.to/lastmile_qr_scan", "android": "https://dc.lft.to/lastmile_qr_scan"}, "bike_id": "08bf1b9ab1b22181a36b64256fb96375", "lat": 38.91690633333333}, {"type": "electric_scooter", "fusion_lon": 0.0, "name": "3d73f81b05fa2aa81f35f7d94f69c57c", "lon": -76.99609966666667, "fusion_lat": 0.0, "is_disabled": 0, "is_reserved": 0, "rental_uris": {"ios": "https://dc.lft.to/lastmile_qr_scan", "android": "https://dc.lft.to/lastmile_qr_scan"}, "bike_id": "3d73f81b05fa2aa81f35f7d94f69c57c", "lat": 38.8872135}, {"type": "electric_bike", "fusion_lon": 0.0, "name": "fe1135a3b2ad9af1f22869af0211715d", "lon": -77.00437716666667, "fusion_lat": 0.0, "is_disabled": 0, "is_reserved": 0, "rental_uris": {"ios": "https://dc.lft.to/lastmile_qr_scan", "android": "https://dc.lft.to/lastmile_qr_scan"}, "bike_id": "fe1135a3b2ad9af1f22869af0211715d", "lat": 38.8349355}, {"type": "electric_scooter", "fusion_lon": 0.0, "name": "0cad2482a6aa4656bb8f85e391f6c41a", "lon": -77.04640416666666, "fusion_lat": 0.0, "is_disabled": 0, "is_reserved": 0, "rental_uris": {"ios": "https://dc.lft.to/lastmile_qr_scan", "android": "https://dc.lft.to/lastmile_qr_scan"}, "bike_id": "0cad2482a6aa4656bb8f85e391f6c41a", "lat": 38.89224633333333}, {"type": "electric_bike", "fusion_lon": 0.0, "name": "0091e3e533f554280e65a5c28ed87aa0", "lon": -77.00745816666667, "fusion_lat": 0.0, "is_disabled": 0, "is_reserved": 0, "rental_uris": {"ios": "https://dc.lft.to/lastmile_qr_scan", "android": "https://dc.lft.to/lastmile_qr_scan"}, "bike_id": "0091e3e533f554280e65a5c28ed87aa0", "lat": 38.8780115}, {"type": "electric_scooter", "fusion_lon": 0.0, "name": "7434308023f237fda2b94849d9fc0244", "lon": -77.00713666666667, "fusion_lat": 0.0, "is_disabled": 0, "is_reserved": 0, "rental_uris": {"ios": "https://dc.lft.to/lastmile_qr_scan", "android": "https://dc.lft.to/lastmile_qr_scan"}, "bike_id": "7434308023f237fda2b94849d9fc0244", "lat": 38.87904733333333}, {"type": "electric_scooter", "fusion_lon": 0.0, "name": "29f073e0f48aaa03d318006b26a43caf", "lon": -77.04822333333334, "fusion_lat": 0.0, "is_disabled": 0, "is_reserved": 0, "rental_uris": {"ios": "https://dc.lft.to/lastmile_qr_scan", "android": "https://dc.lft.to/lastmile_qr_scan"}, "bike_id": "29f073e0f48aaa03d318006b26a43caf", "lat": 38.908627}, {"type": "electric_bike", "fusion_lon": 0.0, "name": "162093d517b4f39c158c2c22dfdbf6ac", "lon": -76.98661716666666, "fusion_lat": 0.0, "is_disabled": 0, "is_reserved": 0, "rental_uris": {"ios": "https://dc.lft.to/lastmile_qr_scan", "android": "https://dc.lft.to/lastmile_qr_scan"}, "bike_id": "162093d517b4f39c158c2c22dfdbf6ac", "lat": 38.97479083333333}, {"type": "electric_scooter", "fusion_lon": 0.0, "name": "d4426f72eaf2faed090bf37736be20aa", "lon": -76.99797116666667, "fusion_lat": 0.0, "is_disabled": 0, "is_reserved": 0, "rental_uris": {"ios": "https://dc.lft.to/lastmile_qr_scan", "android": "https://dc.lft.to/lastmile_qr_scan"}, "bike_id": "d4426f72eaf2faed090bf37736be20aa", "lat": 38.90854233333334}, {"type": "electric_scooter", "fusion_lon": 0.0, "name": "3e5d3115f1b3566c209e31956c23d277", "lon": -77.04498466666666, "fusion_lat": 0.0, "is_disabled": 0, "is_reserved": 0, "rental_uris": {"ios": "https://dc.lft.to/lastmile_qr_scan", "android": "https://dc.lft.to/lastmile_qr_scan"}, "bike_id": "3e5d3115f1b3566c209e31956c23d277", "lat": 38.89227016666667}, {"type": "electric_scooter", "fusion_lon": 0.0, "name": "372cbe2a22b72fba5d77735d8c5807e1", "lon": -77.04740016666666, "fusion_lat": 0.0, "is_disabled": 0, "is_reserved": 0, "rental_uris": {"ios": "https://dc.lft.to/lastmile_qr_scan", "android": "https://dc.lft.to/lastmile_qr_scan"}, "bike_id": "372cbe2a22b72fba5d77735d8c5807e1", "lat": 38.908521666666665}, {"type": "electric_scooter", "fusion_lon": 0.0, "name": "0da8ed55540952e4a2dc36ab77b5f904", "lon": -77.04251016666667, "fusion_lat": 0.0, "is_disabled": 0, "is_reserved": 0, "rental_uris": {"ios": "https://dc.lft.to/lastmile_qr_scan", "android": "https://dc.lft.to/lastmile_qr_scan"}, "bike_id": "0da8ed55540952e4a2dc36ab77b5f904", "lat": 38.922097}, {"type": "electric_bike", "fusion_lon": 0.0, "name": "dca0bf51f423203f680944ce13f59c9e", "lon": -76.97629683333334, "fusion_lat": 0.0, "is_disabled": 0, "is_reserved": 0, "rental_uris": {"ios": "https://dc.lft.to/lastmile_qr_scan", "android": "https://dc.lft.to/lastmile_qr_scan"}, "bike_id": "dca0bf51f423203f680944ce13f59c9e", "lat": 38.840314166666666}, {"type": "electric_scooter", "fusion_lon": 0.0, "name": "3e2d8876b9750242aad388f0323afebb", "lon": -77.03798266666666, "fusion_lat": 0.0, "is_disabled": 0, "is_reserved": 0, "rental_uris": {"ios": "https://dc.lft.to/lastmile_qr_scan", "android": "https://dc.lft.to/lastmile_qr_scan"}, "bike_id": "3e2d8876b9750242aad388f0323afebb", "lat": 38.92196116666667}, {"type": "electric_bike", "fusion_lon": 0.0, "name": "5676ae1a37ad3ef3ae29df645f0e9eb0", "lon": -77.01353866666666, "fusion_lat": 0.0, "is_disabled": 0, "is_reserved": 0, "rental_uris": {"ios": "https://dc.lft.to/lastmile_qr_scan", "android": "https://dc.lft.to/lastmile_qr_scan"}, "bike_id": "5676ae1a37ad3ef3ae29df645f0e9eb0", "lat": 39.02929483333333}, {"type": "electric_scooter", "fusion_lon": 0.0, "name": "07c2d19ccb8e757a461c9704ea5ecce2", "lon": -77.02951483333334, "fusion_lat": 0.0, "is_disabled": 0, "is_reserved": 0, "rental_uris": {"ios": "https://dc.lft.to/lastmile_qr_scan", "android": "https://dc.lft.to/lastmile_qr_scan"}, "bike_id": "07c2d19ccb8e757a461c9704ea5ecce2", "lat": 38.898288666666666}, {"type": "electric_scooter", "fusion_lon": 0.0, "name": "3d3802a419d7b886afc990aebc5918ce", "lon": -77.07294616666667, "fusion_lat": 0.0, "is_disabled": 0, "is_reserved": 0, "rental_uris": {"ios": "https://dc.lft.to/lastmile_qr_scan", "android": "https://dc.lft.to/lastmile_qr_scan"}, "bike_id": "3d3802a419d7b886afc990aebc5918ce", "lat": 38.935508166666665}, {"type": "electric_scooter", "fusion_lon": 0.0, "name": "0e586999aad4c90b1ea6f90a6b83dfa7", "lon": -77.03116933333334, "fusion_lat": 0.0, "is_disabled": 0, "is_reserved": 0, "rental_uris": {"ios": "https://dc.lft.to/lastmile_qr_scan", "android": "https://dc.lft.to/lastmile_qr_scan"}, "bike_id": "0e586999aad4c90b1ea6f90a6b83dfa7", "lat": 38.92388233333333}, {"type": "electric_scooter", "fusion_lon": 0.0, "name": "82ce1fd845ca207e93541641fb00edea", "lon": -77.018719, "fusion_lat": 0.0, "is_disabled": 0, "is_reserved": 0, "rental_uris": {"ios": "https://dc.lft.to/lastmile_qr_scan", "android": "https://dc.lft.to/lastmile_qr_scan"}, "bike_id": "82ce1fd845ca207e93541641fb00edea", "lat": 38.917816333333334}, {"type": "electric_scooter", "fusion_lon": 0.0, "name": "fa9c931e065b03eeb57f649a18072f19", "lon": -77.03281816666667, "fusion_lat": 0.0, "is_disabled": 0, "is_reserved": 0, "rental_uris": {"ios": "https://dc.lft.to/lastmile_qr_scan", "android": "https://dc.lft.to/lastmile_qr_scan"}, "bike_id": "fa9c931e065b03eeb57f649a18072f19", "lat": 38.92847716666667}, {"type": "electric_scooter", "fusion_lon": 0.0, "name": "58e0e0f0e063d5283be47f43c28d210d", "lon": -77.07520166666667, "fusion_lat": 0.0, "is_disabled": 0, "is_reserved": 0, "rental_uris": {"ios": "https://dc.lft.to/lastmile_qr_scan", "android": "https://dc.lft.to/lastmile_qr_scan"}, "bike_id": "58e0e0f0e063d5283be47f43c28d210d", "lat": 38.90659933333333}, {"type": "electric_scooter", "fusion_lon": 0.0, "name": "443bed6536d0fd145b8c7bc969a249c5", "lon": -77.02661216666667, "fusion_lat": 0.0, "is_disabled": 0, "is_reserved": 0, "rental_uris": {"ios": "https://dc.lft.to/lastmile_qr_scan", "android": "https://dc.lft.to/lastmile_qr_scan"}, "bike_id": "443bed6536d0fd145b8c7bc969a249c5", "lat": 38.975526333333335}, {"type": "electric_bike", "fusion_lon": 0.0, "name": "973ba34264892ca5ad516b268a88f319", "lon": -76.9451715, "fusion_lat": 0.0, "is_disabled": 0, "is_reserved": 0, "rental_uris": {"ios": "https://dc.lft.to/lastmile_qr_scan", "android": "https://dc.lft.to/lastmile_qr_scan"}, "bike_id": "973ba34264892ca5ad516b268a88f319", "lat": 38.8628325}, {"type": "electric_scooter", "fusion_lon": 0.0, "name": "cb6e7de8f9f9dd926319c71d6c61b716", "lon": -77.04171166666667, "fusion_lat": 0.0, "is_disabled": 0, "is_reserved": 0, "rental_uris": {"ios": "https://dc.lft.to/lastmile_qr_scan", "android": "https://dc.lft.to/lastmile_qr_scan"}, "bike_id": "cb6e7de8f9f9dd926319c71d6c61b716", "lat": 38.90001816666667}, {"type": "electric_scooter", "fusion_lon": 0.0, "name": "ce88c35797c71a284376c843beddc543", "lon": -77.04670866666666, "fusion_lat": 0.0, "is_disabled": 0, "is_reserved": 0, "rental_uris": {"ios": "https://dc.lft.to/lastmile_qr_scan", "android": "https://dc.lft.to/lastmile_qr_scan"}, "bike_id": "ce88c35797c71a284376c843beddc543", "lat": 38.9097075}, {"type": "electric_scooter", "fusion_lon": 0.0, "name": "1c7a3d61215cb51b481f3f54cbc075e0", "lon": -76.97939616666666, "fusion_lat": 0.0, "is_disabled": 0, "is_reserved": 0, "rental_uris": {"ios": "https://dc.lft.to/lastmile_qr_scan", "android": "https://dc.lft.to/lastmile_qr_scan"}, "bike_id": "1c7a3d61215cb51b481f3f54cbc075e0", "lat": 38.906576666666666}, {"type": "electric_scooter", "fusion_lon": 0.0, "name": "7b5819d3aff9ebef99a7f8c7dd9a54c4", "lon": -77.04190533333333, "fusion_lat": 0.0, "is_disabled": 0, "is_reserved": 0, "rental_uris": {"ios": "https://dc.lft.to/lastmile_qr_scan", "android": "https://dc.lft.to/lastmile_qr_scan"}, "bike_id": "7b5819d3aff9ebef99a7f8c7dd9a54c4", "lat": 38.92341583333334}, {"type": "electric_bike", "fusion_lon": 0.0, "name": "ed920b318d4a726c21110d8475621b27", "lon": -77.099017, "fusion_lat": 0.0, "is_disabled": 0, "is_reserved": 0, "rental_uris": {"ios": "https://dc.lft.to/lastmile_qr_scan", "android": "https://dc.lft.to/lastmile_qr_scan"}, "bike_id": "ed920b318d4a726c21110d8475621b27", "lat": 38.96188583333333}, {"type": "electric_scooter", "fusion_lon": 0.0, "name": "e4c001a3ae2d879bc7d36842aafeee15", "lon": -77.03675633333333, "fusion_lat": 0.0, "is_disabled": 0, "is_reserved": 0, "rental_uris": {"ios": "https://dc.lft.to/lastmile_qr_scan", "android": "https://dc.lft.to/lastmile_qr_scan"}, "bike_id": "e4c001a3ae2d879bc7d36842aafeee15", "lat": 38.915685833333335}, {"type": "electric_scooter", "fusion_lon": 0.0, "name": "9b32f60e215bcd17be8bacc5ef6fabef", "lon": -77.00956916666667, "fusion_lat": 0.0, "is_disabled": 0, "is_reserved": 0, "rental_uris": {"ios": "https://dc.lft.to/lastmile_qr_scan", "android": "https://dc.lft.to/lastmile_qr_scan"}, "bike_id": "9b32f60e215bcd17be8bacc5ef6fabef", "lat": 38.87660233333333}, {"type": "electric_scooter", "fusion_lon": 0.0, "name": "b0f7d767abdce08acfd7da08f785f0a8", "lon": -77.04065533333333, "fusion_lat": 0.0, "is_disabled": 0, "is_reserved": 0, "rental_uris": {"ios": "https://dc.lft.to/lastmile_qr_scan", "android": "https://dc.lft.to/lastmile_qr_scan"}, "bike_id": "b0f7d767abdce08acfd7da08f785f0a8", "lat": 38.90133983333333}, {"type": "electric_scooter", "fusion_lon": 0.0, "name": "b4777f3be6d9878f6e697073e87336e7", "lon": -77.02980516666666, "fusion_lat": 0.0, "is_disabled": 0, "is_reserved": 0, "rental_uris": {"ios": "https://dc.lft.to/lastmile_qr_scan", "android": "https://dc.lft.to/lastmile_qr_scan"}, "bike_id": "b4777f3be6d9878f6e697073e87336e7", "lat": 38.906014166666665}, {"type": "electric_scooter", "fusion_lon": 0.0, "name": "e73c87a924e29a0142440dde9a5b9094", "lon": -77.046885, "fusion_lat": 0.0, "is_disabled": 0, "is_reserved": 0, "rental_uris": {"ios": "https://dc.lft.to/lastmile_qr_scan", "android": "https://dc.lft.to/lastmile_qr_scan"}, "bike_id": "e73c87a924e29a0142440dde9a5b9094", "lat": 38.8922605}, {"type": "electric_scooter", "fusion_lon": 0.0, "name": "325c5e3583c9eb6dc48c82a6d74eecae", "lon": -77.02513883333333, "fusion_lat": 0.0, "is_disabled": 0, "is_reserved": 0, "rental_uris": {"ios": "https://dc.lft.to/lastmile_qr_scan", "android": "https://dc.lft.to/lastmile_qr_scan"}, "bike_id": "325c5e3583c9eb6dc48c82a6d74eecae", "lat": 38.901884}, {"type": "electric_bike", "fusion_lon": 0.0, "name": "caaa23877b9b53fb2fdf2fe24bfc29ba", "lon": -77.12888066666666, "fusion_lat": 0.0, "is_disabled": 0, "is_reserved": 0, "rental_uris": {"ios": "https://dc.lft.to/lastmile_qr_scan", "android": "https://dc.lft.to/lastmile_qr_scan"}, "bike_id": "caaa23877b9b53fb2fdf2fe24bfc29ba", "lat": 38.906141166666664}, {"type": "electric_scooter", "fusion_lon": 0.0, "name": "6079904bb51902f2284bb73e2f58a64b", "lon": -77.02793416666667, "fusion_lat": 0.0, "is_disabled": 0, "is_reserved": 0, "rental_uris": {"ios": "https://dc.lft.to/lastmile_qr_scan", "android": "https://dc.lft.to/lastmile_qr_scan"}, "bike_id": "6079904bb51902f2284bb73e2f58a64b", "lat": 38.90724783333334}, {"type": "electric_scooter", "fusion_lon": 0.0, "name": "a3db8b569c797c7b7a46d47d403b4bc9", "lon": -77.03164533333333, "fusion_lat": 0.0, "is_disabled": 0, "is_reserved": 0, "rental_uris": {"ios": "https://dc.lft.to/lastmile_qr_scan", "android": "https://dc.lft.to/lastmile_qr_scan"}, "bike_id": "a3db8b569c797c7b7a46d47d403b4bc9", "lat": 38.920279666666666}, {"type": "electric_scooter", "fusion_lon": 0.0, "name": "c730f4c03fa09c89e3213dd104c21e73", "lon": -77.00190816666667, "fusion_lat": 0.0, "is_disabled": 0, "is_reserved": 0, "rental_uris": {"ios": "https://dc.lft.to/lastmile_qr_scan", "android": "https://dc.lft.to/lastmile_qr_scan"}, "bike_id": "c730f4c03fa09c89e3213dd104c21e73", "lat": 38.88775866666667}, {"type": "electric_scooter", "fusion_lon": 0.0, "name": "21b33630fb9046ff4537467f0364d945", "lon": -77.02795833333333, "fusion_lat": 0.0, "is_disabled": 0, "is_reserved": 0, "rental_uris": {"ios": "https://dc.lft.to/lastmile_qr_scan", "android": "https://dc.lft.to/lastmile_qr_scan"}, "bike_id": "21b33630fb9046ff4537467f0364d945", "lat": 38.903412333333335}, {"type": "electric_scooter", "fusion_lon": 0.0, "name": "59ec3b7d0791617b79113932d07053b9", "lon": -77.02983733333333, "fusion_lat": 0.0, "is_disabled": 0, "is_reserved": 0, "rental_uris": {"ios": "https://dc.lft.to/lastmile_qr_scan", "android": "https://dc.lft.to/lastmile_qr_scan"}, "bike_id": "59ec3b7d0791617b79113932d07053b9", "lat": 38.934489}, {"type": "electric_scooter", "fusion_lon": 0.0, "name": "b0c420663ad7ff814f756c603f1e4915", "lon": -77.02415666666667, "fusion_lat": 0.0, "is_disabled": 0, "is_reserved": 0, "rental_uris": {"ios": "https://dc.lft.to/lastmile_qr_scan", "android": "https://dc.lft.to/lastmile_qr_scan"}, "bike_id": "b0c420663ad7ff814f756c603f1e4915", "lat": 38.892244}, {"type": "electric_scooter", "fusion_lon": 0.0, "name": "28bdb23d609e8e62970c21599d3f628c", "lon": -77.05149333333334, "fusion_lat": 0.0, "is_disabled": 0, "is_reserved": 0, "rental_uris": {"ios": "https://dc.lft.to/lastmile_qr_scan", "android": "https://dc.lft.to/lastmile_qr_scan"}, "bike_id": "28bdb23d609e8e62970c21599d3f628c", "lat": 38.905112}, {"type": "electric_scooter", "fusion_lon": 0.0, "name": "12120db2409b69467842d7a076583555", "lon": -77.03437416666667, "fusion_lat": 0.0, "is_disabled": 0, "is_reserved": 0, "rental_uris": {"ios": "https://dc.lft.to/lastmile_qr_scan", "android": "https://dc.lft.to/lastmile_qr_scan"}, "bike_id": "12120db2409b69467842d7a076583555", "lat": 38.91811516666667}, {"type": "electric_scooter", "fusion_lon": 0.0, "name": "9b080728790e5540e163bd30aae448d1", "lon": -77.01979366666667, "fusion_lat": 0.0, "is_disabled": 0, "is_reserved": 0, "rental_uris": {"ios": "https://dc.lft.to/lastmile_qr_scan", "android": "https://dc.lft.to/lastmile_qr_scan"}, "bike_id": "9b080728790e5540e163bd30aae448d1", "lat": 38.895224}, {"type": "electric_scooter", "fusion_lon": 0.0, "name": "9b24859b04abe5524452f5294f74b966", "lon": -77.00566333333333, "fusion_lat": 0.0, "is_disabled": 0, "is_reserved": 0, "rental_uris": {"ios": "https://dc.lft.to/lastmile_qr_scan", "android": "https://dc.lft.to/lastmile_qr_scan"}, "bike_id": "9b24859b04abe5524452f5294f74b966", "lat": 38.885041}, {"type": "electric_scooter", "fusion_lon": 0.0, "name": "aac93492d0f5fd31452eced19a16e27d", "lon": -77.04430066666667, "fusion_lat": 0.0, "is_disabled": 0, "is_reserved": 0, "rental_uris": {"ios": "https://dc.lft.to/lastmile_qr_scan", "android": "https://dc.lft.to/lastmile_qr_scan"}, "bike_id": "aac93492d0f5fd31452eced19a16e27d", "lat": 38.90125583333333}, {"type": "electric_scooter", "fusion_lon": 0.0, "name": "ddfc8767ae67416688dd42ad0db55318", "lon": -77.04873233333333, "fusion_lat": 0.0, "is_disabled": 0, "is_reserved": 0, "rental_uris": {"ios": "https://dc.lft.to/lastmile_qr_scan", "android": "https://dc.lft.to/lastmile_qr_scan"}, "bike_id": "ddfc8767ae67416688dd42ad0db55318", "lat": 38.9009175}, {"type": "electric_scooter", "fusion_lon": 0.0, "name": "983449281443c9dfb0fe092d1ea4d02d", "lon": -77.0247955, "fusion_lat": 0.0, "is_disabled": 0, "is_reserved": 0, "rental_uris": {"ios": "https://dc.lft.to/lastmile_qr_scan", "android": "https://dc.lft.to/lastmile_qr_scan"}, "bike_id": "983449281443c9dfb0fe092d1ea4d02d", "lat": 38.89202383333333}, {"type": "electric_scooter", "fusion_lon": 0.0, "name": "c208f155005020119fa841260b35685b", "lon": -77.08154616666667, "fusion_lat": 0.0, "is_disabled": 0, "is_reserved": 0, "rental_uris": {"ios": "https://dc.lft.to/lastmile_qr_scan", "android": "https://dc.lft.to/lastmile_qr_scan"}, "bike_id": "c208f155005020119fa841260b35685b", "lat": 38.953502}, {"type": "electric_scooter", "fusion_lon": 0.0, "name": "eb76ab5af27cb2bf3e930f062c8b31dd", "lon": -77.02398266666667, "fusion_lat": 0.0, "is_disabled": 0, "is_reserved": 0, "rental_uris": {"ios": "https://dc.lft.to/lastmile_qr_scan", "android": "https://dc.lft.to/lastmile_qr_scan"}, "bike_id": "eb76ab5af27cb2bf3e930f062c8b31dd", "lat": 38.896187833333336}, {"type": "electric_bike", "fusion_lon": 0.0, "name": "1ada3d2a2c0455dd96807ddf746ae037", "lon": -77.016585, "fusion_lat": 0.0, "is_disabled": 0, "is_reserved": 0, "rental_uris": {"ios": "https://dc.lft.to/lastmile_qr_scan", "android": "https://dc.lft.to/lastmile_qr_scan"}, "bike_id": "1ada3d2a2c0455dd96807ddf746ae037", "lat": 39.034811833333336}, {"type": "electric_scooter", "fusion_lon": 0.0, "name": "d969a09a450666343ccdb3d5cb57394d", "lon": -77.031967, "fusion_lat": 0.0, "is_disabled": 0, "is_reserved": 0, "rental_uris": {"ios": "https://dc.lft.to/lastmile_qr_scan", "android": "https://dc.lft.to/lastmile_qr_scan"}, "bike_id": "d969a09a450666343ccdb3d5cb57394d", "lat": 38.917704}, {"type": "electric_bike", "fusion_lon": 0.0, "name": "a56883b8dd3796c8fb51b32cb2e4a5b5", "lon": -76.95056383333333, "fusion_lat": 0.0, "is_disabled": 0, "is_reserved": 0, "rental_uris": {"ios": "https://dc.lft.to/lastmile_qr_scan", "android": "https://dc.lft.to/lastmile_qr_scan"}, "bike_id": "a56883b8dd3796c8fb51b32cb2e4a5b5", "lat": 39.084983666666666}, {"type": "electric_bike", "fusion_lon": 0.0, "name": "1ba4073a948296ec7cb50867df47d49d", "lon": -76.9874905, "fusion_lat": 0.0, "is_disabled": 0, "is_reserved": 0, "rental_uris": {"ios": "https://dc.lft.to/lastmile_qr_scan", "android": "https://dc.lft.to/lastmile_qr_scan"}, "bike_id": "1ba4073a948296ec7cb50867df47d49d", "lat": 38.85798616666667}, {"type": "electric_scooter", "fusion_lon": 0.0, "name": "b6bd2c6d9d666fb95d02577635c7d6c0", "lon": -77.0324995, "fusion_lat": 0.0, "is_disabled": 0, "is_reserved": 0, "rental_uris": {"ios": "https://dc.lft.to/lastmile_qr_scan", "android": "https://dc.lft.to/lastmile_qr_scan"}, "bike_id": "b6bd2c6d9d666fb95d02577635c7d6c0", "lat": 38.91996783333333}, {"type": "electric_bike", "fusion_lon": 0.0, "name": "92490a5dcfcd67c09fffe162f523775f", "lon": -77.03881433333333, "fusion_lat": 0.0, "is_disabled": 0, "is_reserved": 0, "rental_uris": {"ios": "https://dc.lft.to/lastmile_qr_scan", "android": "https://dc.lft.to/lastmile_qr_scan"}, "bike_id": "92490a5dcfcd67c09fffe162f523775f", "lat": 39.02627716666667}, {"type": "electric_scooter", "fusion_lon": 0.0, "name": "e6f8b9eeddf912359c22912cb2eb095b", "lon": -77.03275116666667, "fusion_lat": 0.0, "is_disabled": 0, "is_reserved": 0, "rental_uris": {"ios": "https://dc.lft.to/lastmile_qr_scan", "android": "https://dc.lft.to/lastmile_qr_scan"}, "bike_id": "e6f8b9eeddf912359c22912cb2eb095b", "lat": 38.929382833333335}, {"type": "electric_scooter", "fusion_lon": 0.0, "name": "d528dcd9231a0c2471c13d8994dc7879", "lon": -77.03913983333334, "fusion_lat": 0.0, "is_disabled": 0, "is_reserved": 0, "rental_uris": {"ios": "https://dc.lft.to/lastmile_qr_scan", "android": "https://dc.lft.to/lastmile_qr_scan"}, "bike_id": "d528dcd9231a0c2471c13d8994dc7879", "lat": 38.903647166666666}, {"type": "electric_scooter", "fusion_lon": 0.0, "name": "6d1e42781c0b03602d606a7280d0c62a", "lon": -77.03772016666667, "fusion_lat": 0.0, "is_disabled": 0, "is_reserved": 0, "rental_uris": {"ios": "https://dc.lft.to/lastmile_qr_scan", "android": "https://dc.lft.to/lastmile_qr_scan"}, "bike_id": "6d1e42781c0b03602d606a7280d0c62a", "lat": 38.91688383333333}, {"type": "electric_scooter", "fusion_lon": 0.0, "name": "6fffd09038e6ded59d5cc75927b83d25", "lon": -77.0392335, "fusion_lat": 0.0, "is_disabled": 0, "is_reserved": 0, "rental_uris": {"ios": "https://dc.lft.to/lastmile_qr_scan", "android": "https://dc.lft.to/lastmile_qr_scan"}, "bike_id": "6fffd09038e6ded59d5cc75927b83d25", "lat": 38.90134333333334}, {"type": "electric_scooter", "fusion_lon": 0.0, "name": "1e60cf77c2c8d41541caa784c4b7f6ef", "lon": -77.06294966666667, "fusion_lat": 0.0, "is_disabled": 0, "is_reserved": 0, "rental_uris": {"ios": "https://dc.lft.to/lastmile_qr_scan", "android": "https://dc.lft.to/lastmile_qr_scan"}, "bike_id": "1e60cf77c2c8d41541caa784c4b7f6ef", "lat": 38.90590066666667}, {"type": "electric_scooter", "fusion_lon": 0.0, "name": "309bb722f640deb234c3f96a97b3dc67", "lon": -77.03631416666667, "fusion_lat": 0.0, "is_disabled": 0, "is_reserved": 0, "rental_uris": {"ios": "https://dc.lft.to/lastmile_qr_scan", "android": "https://dc.lft.to/lastmile_qr_scan"}, "bike_id": "309bb722f640deb234c3f96a97b3dc67", "lat": 38.92750783333334}, {"type": "electric_scooter", "fusion_lon": 0.0, "name": "794862ff69e1bb73d30ce8438215b716", "lon": -77.056733, "fusion_lat": 0.0, "is_disabled": 0, "is_reserved": 0, "rental_uris": {"ios": "https://dc.lft.to/lastmile_qr_scan", "android": "https://dc.lft.to/lastmile_qr_scan"}, "bike_id": "794862ff69e1bb73d30ce8438215b716", "lat": 38.9234465}, {"type": "electric_scooter", "fusion_lon": 0.0, "name": "6ffafe19828ca6caf74282145325f04b", "lon": -77.05937683333333, "fusion_lat": 0.0, "is_disabled": 0, "is_reserved": 0, "rental_uris": {"ios": "https://dc.lft.to/lastmile_qr_scan", "android": "https://dc.lft.to/lastmile_qr_scan"}, "bike_id": "6ffafe19828ca6caf74282145325f04b", "lat": 38.9430565}, {"type": "electric_scooter", "fusion_lon": 0.0, "name": "ee4f7dc53e64feff222ba3d3ff02d0e9", "lon": -77.03442566666666, "fusion_lat": 0.0, "is_disabled": 0, "is_reserved": 0, "rental_uris": {"ios": "https://dc.lft.to/lastmile_qr_scan", "android": "https://dc.lft.to/lastmile_qr_scan"}, "bike_id": "ee4f7dc53e64feff222ba3d3ff02d0e9", "lat": 38.918114333333335}, {"type": "electric_bike", "fusion_lon": 0.0, "name": "b32bea8cc3df93105bc10e4b4c31eecd", "lon": -76.9885355, "fusion_lat": 0.0, "is_disabled": 0, "is_reserved": 0, "rental_uris": {"ios": "https://dc.lft.to/lastmile_qr_scan", "android": "https://dc.lft.to/lastmile_qr_scan"}, "bike_id": "b32bea8cc3df93105bc10e4b4c31eecd", "lat": 38.98367666666667}, {"type": "electric_scooter", "fusion_lon": 0.0, "name": "0656fffbed3a919bacd19474dbdab9b9", "lon": -76.99533366666667, "fusion_lat": 0.0, "is_disabled": 0, "is_reserved": 0, "rental_uris": {"ios": "https://dc.lft.to/lastmile_qr_scan", "android": "https://dc.lft.to/lastmile_qr_scan"}, "bike_id": "0656fffbed3a919bacd19474dbdab9b9", "lat": 38.84401233333333}, {"type": "electric_scooter", "fusion_lon": 0.0, "name": "37b4260d191327aeadb101d577bc8f60", "lon": -77.04747066666667, "fusion_lat": 0.0, "is_disabled": 0, "is_reserved": 0, "rental_uris": {"ios": "https://dc.lft.to/lastmile_qr_scan", "android": "https://dc.lft.to/lastmile_qr_scan"}, "bike_id": "37b4260d191327aeadb101d577bc8f60", "lat": 38.90545016666667}, {"type": "electric_bike", "fusion_lon": 0.0, "name": "94d81717bf93293efa128b77ddd4864d", "lon": -77.0633035, "fusion_lat": 0.0, "is_disabled": 0, "is_reserved": 0, "rental_uris": {"ios": "https://dc.lft.to/lastmile_qr_scan", "android": "https://dc.lft.to/lastmile_qr_scan"}, "bike_id": "94d81717bf93293efa128b77ddd4864d", "lat": 38.85564133333333}, {"type": "electric_scooter", "fusion_lon": 0.0, "name": "e34ed8e611e9a91e30395afa4439ac08", "lon": -77.0272125, "fusion_lat": 0.0, "is_disabled": 0, "is_reserved": 0, "rental_uris": {"ios": "https://dc.lft.to/lastmile_qr_scan", "android": "https://dc.lft.to/lastmile_qr_scan"}, "bike_id": "e34ed8e611e9a91e30395afa4439ac08", "lat": 38.8965845}, {"type": "electric_scooter", "fusion_lon": 0.0, "name": "acff07587f2efd9a5a910f346279b84f", "lon": -77.0272265, "fusion_lat": 0.0, "is_disabled": 0, "is_reserved": 0, "rental_uris": {"ios": "https://dc.lft.to/lastmile_qr_scan", "android": "https://dc.lft.to/lastmile_qr_scan"}, "bike_id": "acff07587f2efd9a5a910f346279b84f", "lat": 38.911071666666665}, {"type": "electric_scooter", "fusion_lon": 0.0, "name": "1b9e32d1f6f5ab0d7a0bf12d0765bcb3", "lon": -77.04869566666666, "fusion_lat": 0.0, "is_disabled": 0, "is_reserved": 0, "rental_uris": {"ios": "https://dc.lft.to/lastmile_qr_scan", "android": "https://dc.lft.to/lastmile_qr_scan"}, "bike_id": "1b9e32d1f6f5ab0d7a0bf12d0765bcb3", "lat": 38.91626566666667}, {"type": "electric_scooter", "fusion_lon": 0.0, "name": "011d205095473921115e82d5d8b9db84", "lon": -77.050055, "fusion_lat": 0.0, "is_disabled": 0, "is_reserved": 0, "rental_uris": {"ios": "https://dc.lft.to/lastmile_qr_scan", "android": "https://dc.lft.to/lastmile_qr_scan"}, "bike_id": "011d205095473921115e82d5d8b9db84", "lat": 38.89229233333333}, {"type": "electric_scooter", "fusion_lon": 0.0, "name": "8de725db3c45ebee11442f54c1ad4aea", "lon": -77.04155283333333, "fusion_lat": 0.0, "is_disabled": 0, "is_reserved": 0, "rental_uris": {"ios": "https://dc.lft.to/lastmile_qr_scan", "android": "https://dc.lft.to/lastmile_qr_scan"}, "bike_id": "8de725db3c45ebee11442f54c1ad4aea", "lat": 38.89486616666667}, {"type": "electric_bike", "fusion_lon": 0.0, "name": "ed46d3f0c3001d1dd404f8c6cf77a0e3", "lon": -76.97749683333333, "fusion_lat": 0.0, "is_disabled": 0, "is_reserved": 0, "rental_uris": {"ios": "https://dc.lft.to/lastmile_qr_scan", "android": "https://dc.lft.to/lastmile_qr_scan"}, "bike_id": "ed46d3f0c3001d1dd404f8c6cf77a0e3", "lat": 38.86487366666667}, {"type": "electric_scooter", "fusion_lon": 0.0, "name": "6b03eca57966abb8c651b9f91e409ad6", "lon": -77.02304416666666, "fusion_lat": 0.0, "is_disabled": 0, "is_reserved": 0, "rental_uris": {"ios": "https://dc.lft.to/lastmile_qr_scan", "android": "https://dc.lft.to/lastmile_qr_scan"}, "bike_id": "6b03eca57966abb8c651b9f91e409ad6", "lat": 38.910594}, {"type": "electric_scooter", "fusion_lon": 0.0, "name": "e4f75b24a34803361335385cc0fdaafe", "lon": -77.0095875, "fusion_lat": 0.0, "is_disabled": 0, "is_reserved": 0, "rental_uris": {"ios": "https://dc.lft.to/lastmile_qr_scan", "android": "https://dc.lft.to/lastmile_qr_scan"}, "bike_id": "e4f75b24a34803361335385cc0fdaafe", "lat": 38.876348166666666}, {"type": "electric_scooter", "fusion_lon": 0.0, "name": "0cc9847f0efaf450902e9f61c4ad71cd", "lon": -77.04656183333333, "fusion_lat": 0.0, "is_disabled": 0, "is_reserved": 0, "rental_uris": {"ios": "https://dc.lft.to/lastmile_qr_scan", "android": "https://dc.lft.to/lastmile_qr_scan"}, "bike_id": "0cc9847f0efaf450902e9f61c4ad71cd", "lat": 38.89396966666666}, {"type": "electric_scooter", "fusion_lon": 0.0, "name": "faeaef59d12bf33af3c1453dd43d44dc", "lon": -77.0389665, "fusion_lat": 0.0, "is_disabled": 0, "is_reserved": 0, "rental_uris": {"ios": "https://dc.lft.to/lastmile_qr_scan", "android": "https://dc.lft.to/lastmile_qr_scan"}, "bike_id": "faeaef59d12bf33af3c1453dd43d44dc", "lat": 38.902634}, {"type": "electric_scooter", "fusion_lon": 0.0, "name": "6ef335887f4e8136df9c57dbcee34a34", "lon": -77.01759916666667, "fusion_lat": 0.0, "is_disabled": 0, "is_reserved": 0, "rental_uris": {"ios": "https://dc.lft.to/lastmile_qr_scan", "android": "https://dc.lft.to/lastmile_qr_scan"}, "bike_id": "6ef335887f4e8136df9c57dbcee34a34", "lat": 38.876723166666665}, {"type": "electric_scooter", "fusion_lon": 0.0, "name": "c8235074575617cb7ca7ee31dcf418f1", "lon": -77.04653766666667, "fusion_lat": 0.0, "is_disabled": 0, "is_reserved": 0, "rental_uris": {"ios": "https://dc.lft.to/lastmile_qr_scan", "android": "https://dc.lft.to/lastmile_qr_scan"}, "bike_id": "c8235074575617cb7ca7ee31dcf418f1", "lat": 38.90307116666666}, {"type": "electric_scooter", "fusion_lon": 0.0, "name": "918a157c596f862c1528634b898eacb0", "lon": -77.0317525, "fusion_lat": 0.0, "is_disabled": 0, "is_reserved": 0, "rental_uris": {"ios": "https://dc.lft.to/lastmile_qr_scan", "android": "https://dc.lft.to/lastmile_qr_scan"}, "bike_id": "918a157c596f862c1528634b898eacb0", "lat": 38.903586833333335}, {"type": "electric_scooter", "fusion_lon": 0.0, "name": "2c0bbf753d3acdfac26d97b4f86c3284", "lon": -77.0316505, "fusion_lat": 0.0, "is_disabled": 0, "is_reserved": 0, "rental_uris": {"ios": "https://dc.lft.to/lastmile_qr_scan", "android": "https://dc.lft.to/lastmile_qr_scan"}, "bike_id": "2c0bbf753d3acdfac26d97b4f86c3284", "lat": 38.898199}, {"type": "electric_scooter", "fusion_lon": 0.0, "name": "e7ae5663816d2b22ee19bea6570ab079", "lon": -77.0224625, "fusion_lat": 0.0, "is_disabled": 0, "is_reserved": 0, "rental_uris": {"ios": "https://dc.lft.to/lastmile_qr_scan", "android": "https://dc.lft.to/lastmile_qr_scan"}, "bike_id": "e7ae5663816d2b22ee19bea6570ab079", "lat": 38.924549666666664}, {"type": "electric_scooter", "fusion_lon": 0.0, "name": "42e5b91626c9acabaa2849198a61a564", "lon": -77.00200533333333, "fusion_lat": 0.0, "is_disabled": 0, "is_reserved": 0, "rental_uris": {"ios": "https://dc.lft.to/lastmile_qr_scan", "android": "https://dc.lft.to/lastmile_qr_scan"}, "bike_id": "42e5b91626c9acabaa2849198a61a564", "lat": 38.9002995}, {"type": "electric_scooter", "fusion_lon": 0.0, "name": "9065ae6999fdf94ae2f6fa4b7d94f4f7", "lon": -77.00197133333333, "fusion_lat": 0.0, "is_disabled": 0, "is_reserved": 0, "rental_uris": {"ios": "https://dc.lft.to/lastmile_qr_scan", "android": "https://dc.lft.to/lastmile_qr_scan"}, "bike_id": "9065ae6999fdf94ae2f6fa4b7d94f4f7", "lat": 38.90245766666666}, {"type": "electric_scooter", "fusion_lon": 0.0, "name": "432a141596a7750e7528067940ac8ce7", "lon": -77.03991333333333, "fusion_lat": 0.0, "is_disabled": 0, "is_reserved": 0, "rental_uris": {"ios": "https://dc.lft.to/lastmile_qr_scan", "android": "https://dc.lft.to/lastmile_qr_scan"}, "bike_id": "432a141596a7750e7528067940ac8ce7", "lat": 38.90027083333333}, {"type": "electric_scooter", "fusion_lon": 0.0, "name": "53dba83875f0167ad59070df99232add", "lon": -77.046569, "fusion_lat": 0.0, "is_disabled": 0, "is_reserved": 0, "rental_uris": {"ios": "https://dc.lft.to/lastmile_qr_scan", "android": "https://dc.lft.to/lastmile_qr_scan"}, "bike_id": "53dba83875f0167ad59070df99232add", "lat": 38.9102205}, {"type": "electric_scooter", "fusion_lon": 0.0, "name": "27652e4193f6600d154eacd3fd54a53d", "lon": -77.05914083333333, "fusion_lat": 0.0, "is_disabled": 0, "is_reserved": 0, "rental_uris": {"ios": "https://dc.lft.to/lastmile_qr_scan", "android": "https://dc.lft.to/lastmile_qr_scan"}, "bike_id": "27652e4193f6600d154eacd3fd54a53d", "lat": 38.90189516666667}, {"type": "electric_scooter", "fusion_lon": 0.0, "name": "ab85cff3e14b40e7b8a1cd21fc4d820c", "lon": -77.01983333333334, "fusion_lat": 0.0, "is_disabled": 0, "is_reserved": 0, "rental_uris": {"ios": "https://dc.lft.to/lastmile_qr_scan", "android": "https://dc.lft.to/lastmile_qr_scan"}, "bike_id": "ab85cff3e14b40e7b8a1cd21fc4d820c", "lat": 38.943959}, {"type": "electric_scooter", "fusion_lon": 0.0, "name": "4c46a9416b68921e5fb4e1df7aa859ff", "lon": -77.01081133333334, "fusion_lat": 0.0, "is_disabled": 0, "is_reserved": 0, "rental_uris": {"ios": "https://dc.lft.to/lastmile_qr_scan", "android": "https://dc.lft.to/lastmile_qr_scan"}, "bike_id": "4c46a9416b68921e5fb4e1df7aa859ff", "lat": 38.91166316666666}, {"type": "electric_scooter", "fusion_lon": 0.0, "name": "8acad2c2a08d54b505d7a98844c6152e", "lon": -76.92715883333334, "fusion_lat": 0.0, "is_disabled": 0, "is_reserved": 0, "rental_uris": {"ios": "https://dc.lft.to/lastmile_qr_scan", "android": "https://dc.lft.to/lastmile_qr_scan"}, "bike_id": "8acad2c2a08d54b505d7a98844c6152e", "lat": 38.88043533333333}, {"type": "electric_bike", "fusion_lon": 0.0, "name": "aba7da4145b32dc93dca9c6aad716941", "lon": -77.09022183333333, "fusion_lat": 0.0, "is_disabled": 0, "is_reserved": 0, "rental_uris": {"ios": "https://dc.lft.to/lastmile_qr_scan", "android": "https://dc.lft.to/lastmile_qr_scan"}, "bike_id": "aba7da4145b32dc93dca9c6aad716941", "lat": 38.92654483333333}, {"type": "electric_scooter", "fusion_lon": 0.0, "name": "de0ae232070c5019e372b49143e6a6f5", "lon": -77.02232166666667, "fusion_lat": 0.0, "is_disabled": 0, "is_reserved": 0, "rental_uris": {"ios": "https://dc.lft.to/lastmile_qr_scan", "android": "https://dc.lft.to/lastmile_qr_scan"}, "bike_id": "de0ae232070c5019e372b49143e6a6f5", "lat": 38.901752333333334}, {"type": "electric_scooter", "fusion_lon": 0.0, "name": "e8aa8500a37733c88a82b6037bd36861", "lon": -76.93911483333333, "fusion_lat": 0.0, "is_disabled": 0, "is_reserved": 0, "rental_uris": {"ios": "https://dc.lft.to/lastmile_qr_scan", "android": "https://dc.lft.to/lastmile_qr_scan"}, "bike_id": "e8aa8500a37733c88a82b6037bd36861", "lat": 38.89714516666667}, {"type": "electric_bike", "fusion_lon": 0.0, "name": "e7ff3dd021eb5809520248ecff0042aa", "lon": -77.02984433333333, "fusion_lat": 0.0, "is_disabled": 0, "is_reserved": 0, "rental_uris": {"ios": "https://dc.lft.to/lastmile_qr_scan", "android": "https://dc.lft.to/lastmile_qr_scan"}, "bike_id": "e7ff3dd021eb5809520248ecff0042aa", "lat": 38.884194666666666}, {"type": "electric_scooter", "fusion_lon": 0.0, "name": "262e9da3277dd7177f3b0814b8af75da", "lon": -77.03118316666666, "fusion_lat": 0.0, "is_disabled": 0, "is_reserved": 0, "rental_uris": {"ios": "https://dc.lft.to/lastmile_qr_scan", "android": "https://dc.lft.to/lastmile_qr_scan"}, "bike_id": "262e9da3277dd7177f3b0814b8af75da", "lat": 38.92026283333333}, {"type": "electric_scooter", "fusion_lon": 0.0, "name": "17cada54681b8d9aa03cb2d8600ef83b", "lon": -77.0423285, "fusion_lat": 0.0, "is_disabled": 0, "is_reserved": 0, "rental_uris": {"ios": "https://dc.lft.to/lastmile_qr_scan", "android": "https://dc.lft.to/lastmile_qr_scan"}, "bike_id": "17cada54681b8d9aa03cb2d8600ef83b", "lat": 38.908018}, {"type": "electric_scooter", "fusion_lon": 0.0, "name": "761996e86d4b312671c05d2080416d59", "lon": -77.036638, "fusion_lat": 0.0, "is_disabled": 0, "is_reserved": 0, "rental_uris": {"ios": "https://dc.lft.to/lastmile_qr_scan", "android": "https://dc.lft.to/lastmile_qr_scan"}, "bike_id": "761996e86d4b312671c05d2080416d59", "lat": 38.9233555}, {"type": "electric_bike", "fusion_lon": 0.0, "name": "92c886b05548743cfba63b5ea2323d32", "lon": -76.98364716666667, "fusion_lat": 0.0, "is_disabled": 0, "is_reserved": 0, "rental_uris": {"ios": "https://dc.lft.to/lastmile_qr_scan", "android": "https://dc.lft.to/lastmile_qr_scan"}, "bike_id": "92c886b05548743cfba63b5ea2323d32", "lat": 38.971610166666665}, {"type": "electric_scooter", "fusion_lon": 0.0, "name": "93a4ee29bc81af0a6d0d40c12efaf26d", "lon": -77.038288, "fusion_lat": 0.0, "is_disabled": 0, "is_reserved": 0, "rental_uris": {"ios": "https://dc.lft.to/lastmile_qr_scan", "android": "https://dc.lft.to/lastmile_qr_scan"}, "bike_id": "93a4ee29bc81af0a6d0d40c12efaf26d", "lat": 38.926648666666665}, {"type": "electric_scooter", "fusion_lon": 0.0, "name": "966909c74b846c78e0813fe26dbca80a", "lon": -77.0212065, "fusion_lat": 0.0, "is_disabled": 0, "is_reserved": 0, "rental_uris": {"ios": "https://dc.lft.to/lastmile_qr_scan", "android": "https://dc.lft.to/lastmile_qr_scan"}, "bike_id": "966909c74b846c78e0813fe26dbca80a", "lat": 38.91755583333333}, {"type": "electric_scooter", "fusion_lon": 0.0, "name": "6594a47bfb0012886a9946b96aecd9a8", "lon": -77.01365716666666, "fusion_lat": 0.0, "is_disabled": 0, "is_reserved": 0, "rental_uris": {"ios": "https://dc.lft.to/lastmile_qr_scan", "android": "https://dc.lft.to/lastmile_qr_scan"}, "bike_id": "6594a47bfb0012886a9946b96aecd9a8", "lat": 38.88706533333333}, {"type": "electric_bike", "fusion_lon": 0.0, "name": "ca9b99ad72417a487a028022a927005e", "lon": -77.06381733333333, "fusion_lat": 0.0, "is_disabled": 0, "is_reserved": 0, "rental_uris": {"ios": "https://dc.lft.to/lastmile_qr_scan", "android": "https://dc.lft.to/lastmile_qr_scan"}, "bike_id": "ca9b99ad72417a487a028022a927005e", "lat": 38.842938}, {"type": "electric_bike", "fusion_lon": 0.0, "name": "470e3a564fc0fa8efe7457c92358a253", "lon": -77.02318716666667, "fusion_lat": 0.0, "is_disabled": 0, "is_reserved": 0, "rental_uris": {"ios": "https://dc.lft.to/lastmile_qr_scan", "android": "https://dc.lft.to/lastmile_qr_scan"}, "bike_id": "470e3a564fc0fa8efe7457c92358a253", "lat": 38.99412783333333}, {"type": "electric_scooter", "fusion_lon": 0.0, "name": "d6c774cf4feaf04c90ff302b08342a36", "lon": -77.03646816666667, "fusion_lat": 0.0, "is_disabled": 0, "is_reserved": 0, "rental_uris": {"ios": "https://dc.lft.to/lastmile_qr_scan", "android": "https://dc.lft.to/lastmile_qr_scan"}, "bike_id": "d6c774cf4feaf04c90ff302b08342a36", "lat": 38.902856166666666}, {"type": "electric_scooter", "fusion_lon": 0.0, "name": "4bf73140bb2c4291a7d6d551a6bac3ea", "lon": -76.982738, "fusion_lat": 0.0, "is_disabled": 0, "is_reserved": 0, "rental_uris": {"ios": "https://dc.lft.to/lastmile_qr_scan", "android": "https://dc.lft.to/lastmile_qr_scan"}, "bike_id": "4bf73140bb2c4291a7d6d551a6bac3ea", "lat": 38.903481666666664}, {"type": "electric_scooter", "fusion_lon": 0.0, "name": "01f20251f9012c72f85c67a6603aec1d", "lon": -77.02710283333333, "fusion_lat": 0.0, "is_disabled": 0, "is_reserved": 0, "rental_uris": {"ios": "https://dc.lft.to/lastmile_qr_scan", "android": "https://dc.lft.to/lastmile_qr_scan"}, "bike_id": "01f20251f9012c72f85c67a6603aec1d", "lat": 38.972403}, {"type": "electric_bike", "fusion_lon": 0.0, "name": "0b651b9c26001f4b10de6e5565ea0389", "lon": -77.01952033333333, "fusion_lat": 0.0, "is_disabled": 0, "is_reserved": 0, "rental_uris": {"ios": "https://dc.lft.to/lastmile_qr_scan", "android": "https://dc.lft.to/lastmile_qr_scan"}, "bike_id": "0b651b9c26001f4b10de6e5565ea0389", "lat": 38.8788415}, {"type": "electric_scooter", "fusion_lon": 0.0, "name": "e4fc0e354846e9707daa4bc365a6b5c6", "lon": -77.0154985, "fusion_lat": 0.0, "is_disabled": 0, "is_reserved": 0, "rental_uris": {"ios": "https://dc.lft.to/lastmile_qr_scan", "android": "https://dc.lft.to/lastmile_qr_scan"}, "bike_id": "e4fc0e354846e9707daa4bc365a6b5c6", "lat": 38.89175516666667}, {"type": "electric_scooter", "fusion_lon": 0.0, "name": "469b049ad1f9515e1675361c26ad41b4", "lon": -77.02711666666667, "fusion_lat": 0.0, "is_disabled": 0, "is_reserved": 0, "rental_uris": {"ios": "https://dc.lft.to/lastmile_qr_scan", "android": "https://dc.lft.to/lastmile_qr_scan"}, "bike_id": "469b049ad1f9515e1675361c26ad41b4", "lat": 38.8813785}, {"type": "electric_scooter", "fusion_lon": 0.0, "name": "89a1eca7ff9e4da01e842af94a95998c", "lon": -76.98376083333333, "fusion_lat": 0.0, "is_disabled": 0, "is_reserved": 0, "rental_uris": {"ios": "https://dc.lft.to/lastmile_qr_scan", "android": "https://dc.lft.to/lastmile_qr_scan"}, "bike_id": "89a1eca7ff9e4da01e842af94a95998c", "lat": 38.89539166666667}, {"type": "electric_scooter", "fusion_lon": 0.0, "name": "4f8d3a98a1ef642ba8c2fc529109f630", "lon": -77.03175066666667, "fusion_lat": 0.0, "is_disabled": 0, "is_reserved": 0, "rental_uris": {"ios": "https://dc.lft.to/lastmile_qr_scan", "android": "https://dc.lft.to/lastmile_qr_scan"}, "bike_id": "4f8d3a98a1ef642ba8c2fc529109f630", "lat": 38.914251}, {"type": "electric_scooter", "fusion_lon": 0.0, "name": "d61cc53f8f0122bf084b6f7ecdee967c", "lon": -77.023844, "fusion_lat": 0.0, "is_disabled": 0, "is_reserved": 0, "rental_uris": {"ios": "https://dc.lft.to/lastmile_qr_scan", "android": "https://dc.lft.to/lastmile_qr_scan"}, "bike_id": "d61cc53f8f0122bf084b6f7ecdee967c", "lat": 38.899118}, {"type": "electric_scooter", "fusion_lon": 0.0, "name": "6c24b0e73d812602c6041da586846d32", "lon": -77.02002333333333, "fusion_lat": 0.0, "is_disabled": 0, "is_reserved": 0, "rental_uris": {"ios": "https://dc.lft.to/lastmile_qr_scan", "android": "https://dc.lft.to/lastmile_qr_scan"}, "bike_id": "6c24b0e73d812602c6041da586846d32", "lat": 38.9158775}, {"type": "electric_scooter", "fusion_lon": 0.0, "name": "aea48b0c0f668787d128ff5dbf69894e", "lon": -76.993475, "fusion_lat": 0.0, "is_disabled": 0, "is_reserved": 0, "rental_uris": {"ios": "https://dc.lft.to/lastmile_qr_scan", "android": "https://dc.lft.to/lastmile_qr_scan"}, "bike_id": "aea48b0c0f668787d128ff5dbf69894e", "lat": 38.90022283333333}, {"type": "electric_bike", "fusion_lon": 0.0, "name": "27d5ca8ffd3ae67644c89d541cd93f59", "lon": -76.9106405, "fusion_lat": 0.0, "is_disabled": 0, "is_reserved": 0, "rental_uris": {"ios": "https://dc.lft.to/lastmile_qr_scan", "android": "https://dc.lft.to/lastmile_qr_scan"}, "bike_id": "27d5ca8ffd3ae67644c89d541cd93f59", "lat": 39.0107815}, {"type": "electric_scooter", "fusion_lon": 0.0, "name": "698cf84d93e604ddedd97cfaaad09c4b", "lon": -77.03065383333333, "fusion_lat": 0.0, "is_disabled": 0, "is_reserved": 0, "rental_uris": {"ios": "https://dc.lft.to/lastmile_qr_scan", "android": "https://dc.lft.to/lastmile_qr_scan"}, "bike_id": "698cf84d93e604ddedd97cfaaad09c4b", "lat": 38.92254666666667}, {"type": "electric_bike", "fusion_lon": 0.0, "name": "2370d259ad9a17b6b3e52b2f42052aff", "lon": -77.22907633333334, "fusion_lat": 0.0, "is_disabled": 0, "is_reserved": 0, "rental_uris": {"ios": "https://dc.lft.to/lastmile_qr_scan", "android": "https://dc.lft.to/lastmile_qr_scan"}, "bike_id": "2370d259ad9a17b6b3e52b2f42052aff", "lat": 38.870417833333335}, {"type": "electric_scooter", "fusion_lon": 0.0, "name": "cd9b66646e30fa519a4adc719fd5de5e", "lon": -77.0320535, "fusion_lat": 0.0, "is_disabled": 0, "is_reserved": 0, "rental_uris": {"ios": "https://dc.lft.to/lastmile_qr_scan", "android": "https://dc.lft.to/lastmile_qr_scan"}, "bike_id": "cd9b66646e30fa519a4adc719fd5de5e", "lat": 38.9162965}, {"type": "electric_scooter", "fusion_lon": 0.0, "name": "14bd4682301f6776b6cbdfb7fcb6aaef", "lon": -77.02771966666667, "fusion_lat": 0.0, "is_disabled": 0, "is_reserved": 0, "rental_uris": {"ios": "https://dc.lft.to/lastmile_qr_scan", "android": "https://dc.lft.to/lastmile_qr_scan"}, "bike_id": "14bd4682301f6776b6cbdfb7fcb6aaef", "lat": 38.89704833333333}, {"type": "electric_scooter", "fusion_lon": 0.0, "name": "02eea13e9134e5ab6e72c2e61b91b03a", "lon": -76.994894, "fusion_lat": 0.0, "is_disabled": 0, "is_reserved": 0, "rental_uris": {"ios": "https://dc.lft.to/lastmile_qr_scan", "android": "https://dc.lft.to/lastmile_qr_scan"}, "bike_id": "02eea13e9134e5ab6e72c2e61b91b03a", "lat": 38.8940695}, {"type": "electric_scooter", "fusion_lon": 0.0, "name": "acda656f9ccdcad84f28e46f7b8fbb6d", "lon": -77.02758866666667, "fusion_lat": 0.0, "is_disabled": 0, "is_reserved": 0, "rental_uris": {"ios": "https://dc.lft.to/lastmile_qr_scan", "android": "https://dc.lft.to/lastmile_qr_scan"}, "bike_id": "acda656f9ccdcad84f28e46f7b8fbb6d", "lat": 38.901416}, {"type": "electric_scooter", "fusion_lon": 0.0, "name": "3ae2e0029353abadf9f84021125eed94", "lon": -77.02163733333333, "fusion_lat": 0.0, "is_disabled": 0, "is_reserved": 0, "rental_uris": {"ios": "https://dc.lft.to/lastmile_qr_scan", "android": "https://dc.lft.to/lastmile_qr_scan"}, "bike_id": "3ae2e0029353abadf9f84021125eed94", "lat": 38.9261655}, {"type": "electric_scooter", "fusion_lon": 0.0, "name": "7a0ee4416d27edffc940a22e3ef1208d", "lon": -77.02220666666666, "fusion_lat": 0.0, "is_disabled": 0, "is_reserved": 0, "rental_uris": {"ios": "https://dc.lft.to/lastmile_qr_scan", "android": "https://dc.lft.to/lastmile_qr_scan"}, "bike_id": "7a0ee4416d27edffc940a22e3ef1208d", "lat": 38.896077166666664}, {"type": "electric_scooter", "fusion_lon": 0.0, "name": "2c3c9d2a2a034a594c545d1012de29bb", "lon": -77.00061683333334, "fusion_lat": 0.0, "is_disabled": 0, "is_reserved": 0, "rental_uris": {"ios": "https://dc.lft.to/lastmile_qr_scan", "android": "https://dc.lft.to/lastmile_qr_scan"}, "bike_id": "2c3c9d2a2a034a594c545d1012de29bb", "lat": 38.87685366666667}, {"type": "electric_scooter", "fusion_lon": 0.0, "name": "70871420561d9197e64487b873a3d4c2", "lon": -77.03209366666667, "fusion_lat": 0.0, "is_disabled": 0, "is_reserved": 0, "rental_uris": {"ios": "https://dc.lft.to/lastmile_qr_scan", "android": "https://dc.lft.to/lastmile_qr_scan"}, "bike_id": "70871420561d9197e64487b873a3d4c2", "lat": 38.925859}, {"type": "electric_scooter", "fusion_lon": 0.0, "name": "8e8c1888cc016772f4f38e077b4874f4", "lon": -76.976542, "fusion_lat": 0.0, "is_disabled": 0, "is_reserved": 0, "rental_uris": {"ios": "https://dc.lft.to/lastmile_qr_scan", "android": "https://dc.lft.to/lastmile_qr_scan"}, "bike_id": "8e8c1888cc016772f4f38e077b4874f4", "lat": 38.89855266666667}, {"type": "electric_scooter", "fusion_lon": 0.0, "name": "c48d4b6cea2bcd756c1a11a65ec1c87c", "lon": -77.00795616666667, "fusion_lat": 0.0, "is_disabled": 0, "is_reserved": 0, "rental_uris": {"ios": "https://dc.lft.to/lastmile_qr_scan", "android": "https://dc.lft.to/lastmile_qr_scan"}, "bike_id": "c48d4b6cea2bcd756c1a11a65ec1c87c", "lat": 38.897212333333336}, {"type": "electric_bike", "fusion_lon": 0.0, "name": "62a4d787608b70949970aa964d248ccb", "lon": -77.10706083333334, "fusion_lat": 0.0, "is_disabled": 0, "is_reserved": 0, "rental_uris": {"ios": "https://dc.lft.to/lastmile_qr_scan", "android": "https://dc.lft.to/lastmile_qr_scan"}, "bike_id": "62a4d787608b70949970aa964d248ccb", "lat": 38.852494}, {"type": "electric_scooter", "fusion_lon": 0.0, "name": "758adf46eddce3ea2dd456a7c05db03d", "lon": -77.051405, "fusion_lat": 0.0, "is_disabled": 0, "is_reserved": 0, "rental_uris": {"ios": "https://dc.lft.to/lastmile_qr_scan", "android": "https://dc.lft.to/lastmile_qr_scan"}, "bike_id": "758adf46eddce3ea2dd456a7c05db03d", "lat": 38.92726116666667}, {"type": "electric_bike", "fusion_lon": 0.0, "name": "437352e64388b204478cf29112fdb501", "lon": -76.97069233333333, "fusion_lat": 0.0, "is_disabled": 0, "is_reserved": 0, "rental_uris": {"ios": "https://dc.lft.to/lastmile_qr_scan", "android": "https://dc.lft.to/lastmile_qr_scan"}, "bike_id": "437352e64388b204478cf29112fdb501", "lat": 38.9206385}, {"type": "electric_scooter", "fusion_lon": 0.0, "name": "6f43219f795a66bbd50ecf8b259fc229", "lon": -77.01365766666666, "fusion_lat": 0.0, "is_disabled": 0, "is_reserved": 0, "rental_uris": {"ios": "https://dc.lft.to/lastmile_qr_scan", "android": "https://dc.lft.to/lastmile_qr_scan"}, "bike_id": "6f43219f795a66bbd50ecf8b259fc229", "lat": 38.863775}, {"type": "electric_scooter", "fusion_lon": 0.0, "name": "b8c7723a8cc3180c650a05348b72e8a1", "lon": -77.063507, "fusion_lat": 0.0, "is_disabled": 0, "is_reserved": 0, "rental_uris": {"ios": "https://dc.lft.to/lastmile_qr_scan", "android": "https://dc.lft.to/lastmile_qr_scan"}, "bike_id": "b8c7723a8cc3180c650a05348b72e8a1", "lat": 38.94441716666667}, {"type": "electric_scooter", "fusion_lon": 0.0, "name": "048f2ea5ecb84e27c930fbd34089a308", "lon": -77.03764516666666, "fusion_lat": 0.0, "is_disabled": 0, "is_reserved": 0, "rental_uris": {"ios": "https://dc.lft.to/lastmile_qr_scan", "android": "https://dc.lft.to/lastmile_qr_scan"}, "bike_id": "048f2ea5ecb84e27c930fbd34089a308", "lat": 38.91693033333333}, {"type": "electric_scooter", "fusion_lon": 0.0, "name": "09a35e089352abeaed076b3f737b28a6", "lon": -77.044754, "fusion_lat": 0.0, "is_disabled": 0, "is_reserved": 0, "rental_uris": {"ios": "https://dc.lft.to/lastmile_qr_scan", "android": "https://dc.lft.to/lastmile_qr_scan"}, "bike_id": "09a35e089352abeaed076b3f737b28a6", "lat": 38.904704333333335}, {"type": "electric_scooter", "fusion_lon": 0.0, "name": "cab4afdd9308ee6be9d91a5e641eff34", "lon": -77.046591, "fusion_lat": 0.0, "is_disabled": 0, "is_reserved": 0, "rental_uris": {"ios": "https://dc.lft.to/lastmile_qr_scan", "android": "https://dc.lft.to/lastmile_qr_scan"}, "bike_id": "cab4afdd9308ee6be9d91a5e641eff34", "lat": 38.89279033333333}, {"type": "electric_scooter", "fusion_lon": 0.0, "name": "c7430e2844ca3f60bd1f49490d952e2c", "lon": -77.0167165, "fusion_lat": 0.0, "is_disabled": 0, "is_reserved": 0, "rental_uris": {"ios": "https://dc.lft.to/lastmile_qr_scan", "android": "https://dc.lft.to/lastmile_qr_scan"}, "bike_id": "c7430e2844ca3f60bd1f49490d952e2c", "lat": 38.90025116666666}, {"type": "electric_bike", "fusion_lon": 0.0, "name": "5dd0be0af3404d452918fc8cb32398da", "lon": -76.92516016666667, "fusion_lat": 0.0, "is_disabled": 0, "is_reserved": 0, "rental_uris": {"ios": "https://dc.lft.to/lastmile_qr_scan", "android": "https://dc.lft.to/lastmile_qr_scan"}, "bike_id": "5dd0be0af3404d452918fc8cb32398da", "lat": 38.959325166666666}, {"type": "electric_scooter", "fusion_lon": 0.0, "name": "ffc701f7413d8934917bc6516e6ac2b1", "lon": -77.0448695, "fusion_lat": 0.0, "is_disabled": 0, "is_reserved": 0, "rental_uris": {"ios": "https://dc.lft.to/lastmile_qr_scan", "android": "https://dc.lft.to/lastmile_qr_scan"}, "bike_id": "ffc701f7413d8934917bc6516e6ac2b1", "lat": 38.90468116666667}, {"type": "electric_bike", "fusion_lon": 0.0, "name": "ff7c550b882e6570590995779d4113dc", "lon": -76.95467816666667, "fusion_lat": 0.0, "is_disabled": 0, "is_reserved": 0, "rental_uris": {"ios": "https://dc.lft.to/lastmile_qr_scan", "android": "https://dc.lft.to/lastmile_qr_scan"}, "bike_id": "ff7c550b882e6570590995779d4113dc", "lat": 38.89082883333333}, {"type": "electric_scooter", "fusion_lon": 0.0, "name": "51ec4141a50a063088a8d1b161c0187b", "lon": -77.03631216666666, "fusion_lat": 0.0, "is_disabled": 0, "is_reserved": 0, "rental_uris": {"ios": "https://dc.lft.to/lastmile_qr_scan", "android": "https://dc.lft.to/lastmile_qr_scan"}, "bike_id": "51ec4141a50a063088a8d1b161c0187b", "lat": 38.95643116666667}, {"type": "electric_scooter", "fusion_lon": 0.0, "name": "2baf1f7fdefa93cd9b667db037c892be", "lon": -77.018631, "fusion_lat": 0.0, "is_disabled": 0, "is_reserved": 0, "rental_uris": {"ios": "https://dc.lft.to/lastmile_qr_scan", "android": "https://dc.lft.to/lastmile_qr_scan"}, "bike_id": "2baf1f7fdefa93cd9b667db037c892be", "lat": 38.932051333333334}, {"type": "electric_scooter", "fusion_lon": 0.0, "name": "8559a12b15766573fc049d484a132016", "lon": -77.042439, "fusion_lat": 0.0, "is_disabled": 0, "is_reserved": 0, "rental_uris": {"ios": "https://dc.lft.to/lastmile_qr_scan", "android": "https://dc.lft.to/lastmile_qr_scan"}, "bike_id": "8559a12b15766573fc049d484a132016", "lat": 38.9224195}, {"type": "electric_scooter", "fusion_lon": 0.0, "name": "25ce89795d4d22e950652b6aabe27dc9", "lon": -77.02573066666666, "fusion_lat": 0.0, "is_disabled": 0, "is_reserved": 0, "rental_uris": {"ios": "https://dc.lft.to/lastmile_qr_scan", "android": "https://dc.lft.to/lastmile_qr_scan"}, "bike_id": "25ce89795d4d22e950652b6aabe27dc9", "lat": 38.88366833333333}, {"type": "electric_scooter", "fusion_lon": 0.0, "name": "b3d9dd170d22eb8a914fa592f6191c87", "lon": -77.00086283333333, "fusion_lat": 0.0, "is_disabled": 0, "is_reserved": 0, "rental_uris": {"ios": "https://dc.lft.to/lastmile_qr_scan", "android": "https://dc.lft.to/lastmile_qr_scan"}, "bike_id": "b3d9dd170d22eb8a914fa592f6191c87", "lat": 38.92138766666667}, {"type": "electric_scooter", "fusion_lon": 0.0, "name": "dd7036de9090199d5aaa51047eb6d8d1", "lon": -77.036266, "fusion_lat": 0.0, "is_disabled": 0, "is_reserved": 0, "rental_uris": {"ios": "https://dc.lft.to/lastmile_qr_scan", "android": "https://dc.lft.to/lastmile_qr_scan"}, "bike_id": "dd7036de9090199d5aaa51047eb6d8d1", "lat": 38.91272283333333}, {"type": "electric_scooter", "fusion_lon": 0.0, "name": "8fcb1d9e604cd899fcbca5624d995e5d", "lon": -77.0019975, "fusion_lat": 0.0, "is_disabled": 0, "is_reserved": 0, "rental_uris": {"ios": "https://dc.lft.to/lastmile_qr_scan", "android": "https://dc.lft.to/lastmile_qr_scan"}, "bike_id": "8fcb1d9e604cd899fcbca5624d995e5d", "lat": 38.886577333333335}, {"type": "electric_scooter", "fusion_lon": 0.0, "name": "3b8dde854c2b4d6a5de1dbc2086f4535", "lon": -76.99255116666667, "fusion_lat": 0.0, "is_disabled": 0, "is_reserved": 0, "rental_uris": {"ios": "https://dc.lft.to/lastmile_qr_scan", "android": "https://dc.lft.to/lastmile_qr_scan"}, "bike_id": "3b8dde854c2b4d6a5de1dbc2086f4535", "lat": 38.9197425}, {"type": "electric_scooter", "fusion_lon": 0.0, "name": "e8d3cd20a067de2a26a8d7d313c21540", "lon": -77.02218883333333, "fusion_lat": 0.0, "is_disabled": 0, "is_reserved": 0, "rental_uris": {"ios": "https://dc.lft.to/lastmile_qr_scan", "android": "https://dc.lft.to/lastmile_qr_scan"}, "bike_id": "e8d3cd20a067de2a26a8d7d313c21540", "lat": 38.92475233333333}, {"type": "electric_bike", "fusion_lon": 0.0, "name": "c8d146a3c8af987c23e987ba320ba91a", "lon": -77.02533966666667, "fusion_lat": 0.0, "is_disabled": 0, "is_reserved": 0, "rental_uris": {"ios": "https://dc.lft.to/lastmile_qr_scan", "android": "https://dc.lft.to/lastmile_qr_scan"}, "bike_id": "c8d146a3c8af987c23e987ba320ba91a", "lat": 38.88499516666667}, {"type": "electric_scooter", "fusion_lon": 0.0, "name": "0a3a1096883914d6714163032c823fc9", "lon": -76.9934085, "fusion_lat": 0.0, "is_disabled": 0, "is_reserved": 0, "rental_uris": {"ios": "https://dc.lft.to/lastmile_qr_scan", "android": "https://dc.lft.to/lastmile_qr_scan"}, "bike_id": "0a3a1096883914d6714163032c823fc9", "lat": 38.91034616666666}, {"type": "electric_scooter", "fusion_lon": 0.0, "name": "eec35c24f00533ec5db0a49642986a6d", "lon": -77.06719916666667, "fusion_lat": 0.0, "is_disabled": 0, "is_reserved": 0, "rental_uris": {"ios": "https://dc.lft.to/lastmile_qr_scan", "android": "https://dc.lft.to/lastmile_qr_scan"}, "bike_id": "eec35c24f00533ec5db0a49642986a6d", "lat": 38.90513283333333}, {"type": "electric_bike", "fusion_lon": 0.0, "name": "1270e3c267f43c2678488dcb56e6e739", "lon": -76.99739, "fusion_lat": 0.0, "is_disabled": 0, "is_reserved": 0, "rental_uris": {"ios": "https://dc.lft.to/lastmile_qr_scan", "android": "https://dc.lft.to/lastmile_qr_scan"}, "bike_id": "1270e3c267f43c2678488dcb56e6e739", "lat": 39.042378166666666}, {"type": "electric_scooter", "fusion_lon": 0.0, "name": "f55254ceafe5589f15d442f0b70b4e49", "lon": -76.9803735, "fusion_lat": 0.0, "is_disabled": 0, "is_reserved": 0, "rental_uris": {"ios": "https://dc.lft.to/lastmile_qr_scan", "android": "https://dc.lft.to/lastmile_qr_scan"}, "bike_id": "f55254ceafe5589f15d442f0b70b4e49", "lat": 38.87042983333333}, {"type": "electric_bike", "fusion_lon": 0.0, "name": "74099c1ebaaf8fad99703cd178729bdf", "lon": -76.99798866666667, "fusion_lat": 0.0, "is_disabled": 0, "is_reserved": 0, "rental_uris": {"ios": "https://dc.lft.to/lastmile_qr_scan", "android": "https://dc.lft.to/lastmile_qr_scan"}, "bike_id": "74099c1ebaaf8fad99703cd178729bdf", "lat": 38.950887}, {"type": "electric_scooter", "fusion_lon": 0.0, "name": "25b768300b1cafdd38ff6abc351dce49", "lon": -77.01706566666667, "fusion_lat": 0.0, "is_disabled": 0, "is_reserved": 0, "rental_uris": {"ios": "https://dc.lft.to/lastmile_qr_scan", "android": "https://dc.lft.to/lastmile_qr_scan"}, "bike_id": "25b768300b1cafdd38ff6abc351dce49", "lat": 38.914777666666666}, {"type": "electric_bike", "fusion_lon": 0.0, "name": "bdc58a385d0b0ce936cb68c8db37cb59", "lon": -77.00248083333334, "fusion_lat": 0.0, "is_disabled": 0, "is_reserved": 0, "rental_uris": {"ios": "https://dc.lft.to/lastmile_qr_scan", "android": "https://dc.lft.to/lastmile_qr_scan"}, "bike_id": "bdc58a385d0b0ce936cb68c8db37cb59", "lat": 38.9985375}, {"type": "electric_scooter", "fusion_lon": 0.0, "name": "544c61a9f1052f9be8b7d0a98627ee1d", "lon": -77.020869, "fusion_lat": 0.0, "is_disabled": 0, "is_reserved": 0, "rental_uris": {"ios": "https://dc.lft.to/lastmile_qr_scan", "android": "https://dc.lft.to/lastmile_qr_scan"}, "bike_id": "544c61a9f1052f9be8b7d0a98627ee1d", "lat": 38.899656666666665}, {"type": "electric_scooter", "fusion_lon": 0.0, "name": "70109d9ba2eb276f79a8f2540e4f56f4", "lon": -77.026821, "fusion_lat": 0.0, "is_disabled": 0, "is_reserved": 0, "rental_uris": {"ios": "https://dc.lft.to/lastmile_qr_scan", "android": "https://dc.lft.to/lastmile_qr_scan"}, "bike_id": "70109d9ba2eb276f79a8f2540e4f56f4", "lat": 38.89488166666667}, {"type": "electric_scooter", "fusion_lon": 0.0, "name": "95d6cd646c94d97d753a8a88838454f4", "lon": -77.03430716666666, "fusion_lat": 0.0, "is_disabled": 0, "is_reserved": 0, "rental_uris": {"ios": "https://dc.lft.to/lastmile_qr_scan", "android": "https://dc.lft.to/lastmile_qr_scan"}, "bike_id": "95d6cd646c94d97d753a8a88838454f4", "lat": 38.91925083333334}, {"type": "electric_scooter", "fusion_lon": 0.0, "name": "0c751953c6c9e7bef93eca1da880d380", "lon": -77.02691716666666, "fusion_lat": 0.0, "is_disabled": 0, "is_reserved": 0, "rental_uris": {"ios": "https://dc.lft.to/lastmile_qr_scan", "android": "https://dc.lft.to/lastmile_qr_scan"}, "bike_id": "0c751953c6c9e7bef93eca1da880d380", "lat": 38.913289166666665}, {"type": "electric_scooter", "fusion_lon": 0.0, "name": "b86ce291c79ac670fc4116d12f8df6d9", "lon": -77.00076683333333, "fusion_lat": 0.0, "is_disabled": 0, "is_reserved": 0, "rental_uris": {"ios": "https://dc.lft.to/lastmile_qr_scan", "android": "https://dc.lft.to/lastmile_qr_scan"}, "bike_id": "b86ce291c79ac670fc4116d12f8df6d9", "lat": 38.91565166666667}, {"type": "electric_bike", "fusion_lon": 0.0, "name": "2e4eb265b989c54d47ef9ba181ff4069", "lon": -76.9525565, "fusion_lat": 0.0, "is_disabled": 0, "is_reserved": 0, "rental_uris": {"ios": "https://dc.lft.to/lastmile_qr_scan", "android": "https://dc.lft.to/lastmile_qr_scan"}, "bike_id": "2e4eb265b989c54d47ef9ba181ff4069", "lat": 38.90696283333333}, {"type": "electric_bike", "fusion_lon": 0.0, "name": "e98bcc8208b2cb585ef24148590b534a", "lon": -76.97703083333333, "fusion_lat": 0.0, "is_disabled": 0, "is_reserved": 0, "rental_uris": {"ios": "https://dc.lft.to/lastmile_qr_scan", "android": "https://dc.lft.to/lastmile_qr_scan"}, "bike_id": "e98bcc8208b2cb585ef24148590b534a", "lat": 38.82211016666667}, {"type": "electric_scooter", "fusion_lon": 0.0, "name": "9a547ea226a94dd542908a78d4ef47e9", "lon": -77.04343033333333, "fusion_lat": 0.0, "is_disabled": 0, "is_reserved": 0, "rental_uris": {"ios": "https://dc.lft.to/lastmile_qr_scan", "android": "https://dc.lft.to/lastmile_qr_scan"}, "bike_id": "9a547ea226a94dd542908a78d4ef47e9", "lat": 38.8922805}, {"type": "electric_bike", "fusion_lon": 0.0, "name": "210697915fefc13f9c5bb7ed8cadd32b", "lon": -77.01018983333333, "fusion_lat": 0.0, "is_disabled": 0, "is_reserved": 0, "rental_uris": {"ios": "https://dc.lft.to/lastmile_qr_scan", "android": "https://dc.lft.to/lastmile_qr_scan"}, "bike_id": "210697915fefc13f9c5bb7ed8cadd32b", "lat": 38.95598566666666}, {"type": "electric_scooter", "fusion_lon": 0.0, "name": "2faada89901820152c61f8978d7bd9ae", "lon": -77.02957033333334, "fusion_lat": 0.0, "is_disabled": 0, "is_reserved": 0, "rental_uris": {"ios": "https://dc.lft.to/lastmile_qr_scan", "android": "https://dc.lft.to/lastmile_qr_scan"}, "bike_id": "2faada89901820152c61f8978d7bd9ae", "lat": 38.90496383333333}, {"type": "electric_scooter", "fusion_lon": 0.0, "name": "9e4641481a98ece34bce9cbd2a447870", "lon": -77.04403183333334, "fusion_lat": 0.0, "is_disabled": 0, "is_reserved": 0, "rental_uris": {"ios": "https://dc.lft.to/lastmile_qr_scan", "android": "https://dc.lft.to/lastmile_qr_scan"}, "bike_id": "9e4641481a98ece34bce9cbd2a447870", "lat": 38.92594966666667}, {"type": "electric_scooter", "fusion_lon": 0.0, "name": "15506e9636f0968f9863062bce70606f", "lon": -77.031757, "fusion_lat": 0.0, "is_disabled": 0, "is_reserved": 0, "rental_uris": {"ios": "https://dc.lft.to/lastmile_qr_scan", "android": "https://dc.lft.to/lastmile_qr_scan"}, "bike_id": "15506e9636f0968f9863062bce70606f", "lat": 38.91422466666667}, {"type": "electric_scooter", "fusion_lon": 0.0, "name": "92b3824ef3b8b48154bfda3c3ca203f3", "lon": -77.07709233333334, "fusion_lat": 0.0, "is_disabled": 0, "is_reserved": 0, "rental_uris": {"ios": "https://dc.lft.to/lastmile_qr_scan", "android": "https://dc.lft.to/lastmile_qr_scan"}, "bike_id": "92b3824ef3b8b48154bfda3c3ca203f3", "lat": 38.935558666666665}, {"type": "electric_scooter", "fusion_lon": 0.0, "name": "c1d005f26c7a4029aaafe42440969a64", "lon": -77.01189383333333, "fusion_lat": 0.0, "is_disabled": 0, "is_reserved": 0, "rental_uris": {"ios": "https://dc.lft.to/lastmile_qr_scan", "android": "https://dc.lft.to/lastmile_qr_scan"}, "bike_id": "c1d005f26c7a4029aaafe42440969a64", "lat": 38.900248500000004}, {"type": "electric_scooter", "fusion_lon": 0.0, "name": "2675ae99209d9c47e1a02bcb5bbb5ddd", "lon": -77.056795, "fusion_lat": 0.0, "is_disabled": 0, "is_reserved": 0, "rental_uris": {"ios": "https://dc.lft.to/lastmile_qr_scan", "android": "https://dc.lft.to/lastmile_qr_scan"}, "bike_id": "2675ae99209d9c47e1a02bcb5bbb5ddd", "lat": 38.92336533333334}, {"type": "electric_scooter", "fusion_lon": 0.0, "name": "e6502970c963b875c8d94c365b752083", "lon": -77.040506, "fusion_lat": 0.0, "is_disabled": 0, "is_reserved": 0, "rental_uris": {"ios": "https://dc.lft.to/lastmile_qr_scan", "android": "https://dc.lft.to/lastmile_qr_scan"}, "bike_id": "e6502970c963b875c8d94c365b752083", "lat": 38.898915}, {"type": "electric_scooter", "fusion_lon": 0.0, "name": "234afce0164a9cd798b9b0fa8335257f", "lon": -77.035302, "fusion_lat": 0.0, "is_disabled": 0, "is_reserved": 0, "rental_uris": {"ios": "https://dc.lft.to/lastmile_qr_scan", "android": "https://dc.lft.to/lastmile_qr_scan"}, "bike_id": "234afce0164a9cd798b9b0fa8335257f", "lat": 38.924762666666666}, {"type": "electric_scooter", "fusion_lon": 0.0, "name": "97239429f7d4b68c8da47068c0ff3f9b", "lon": -76.994381, "fusion_lat": 0.0, "is_disabled": 0, "is_reserved": 0, "rental_uris": {"ios": "https://dc.lft.to/lastmile_qr_scan", "android": "https://dc.lft.to/lastmile_qr_scan"}, "bike_id": "97239429f7d4b68c8da47068c0ff3f9b", "lat": 38.93861916666667}, {"type": "electric_scooter", "fusion_lon": 0.0, "name": "54133f4fb16deb375a54a71a8638c9b9", "lon": -77.03799616666667, "fusion_lat": 0.0, "is_disabled": 0, "is_reserved": 0, "rental_uris": {"ios": "https://dc.lft.to/lastmile_qr_scan", "android": "https://dc.lft.to/lastmile_qr_scan"}, "bike_id": "54133f4fb16deb375a54a71a8638c9b9", "lat": 38.91695266666667}, {"type": "electric_scooter", "fusion_lon": 0.0, "name": "1bb7bd1a6aee1e29afb399514ffe04d2", "lon": -77.02359966666667, "fusion_lat": 0.0, "is_disabled": 0, "is_reserved": 0, "rental_uris": {"ios": "https://dc.lft.to/lastmile_qr_scan", "android": "https://dc.lft.to/lastmile_qr_scan"}, "bike_id": "1bb7bd1a6aee1e29afb399514ffe04d2", "lat": 38.908701}, {"type": "electric_scooter", "fusion_lon": 0.0, "name": "0e2a534031dbb3dfed654388e4a8c52d", "lon": -77.00983483333333, "fusion_lat": 0.0, "is_disabled": 0, "is_reserved": 0, "rental_uris": {"ios": "https://dc.lft.to/lastmile_qr_scan", "android": "https://dc.lft.to/lastmile_qr_scan"}, "bike_id": "0e2a534031dbb3dfed654388e4a8c52d", "lat": 38.87219483333333}, {"type": "electric_scooter", "fusion_lon": 0.0, "name": "bcf38e85367718805ab399efab4fb40a", "lon": -77.03422866666666, "fusion_lat": 0.0, "is_disabled": 0, "is_reserved": 0, "rental_uris": {"ios": "https://dc.lft.to/lastmile_qr_scan", "android": "https://dc.lft.to/lastmile_qr_scan"}, "bike_id": "bcf38e85367718805ab399efab4fb40a", "lat": 38.902559333333336}, {"type": "electric_scooter", "fusion_lon": 0.0, "name": "609aafae9d1ac9512875227a27a5c470", "lon": -77.03388333333334, "fusion_lat": 0.0, "is_disabled": 0, "is_reserved": 0, "rental_uris": {"ios": "https://dc.lft.to/lastmile_qr_scan", "android": "https://dc.lft.to/lastmile_qr_scan"}, "bike_id": "609aafae9d1ac9512875227a27a5c470", "lat": 38.90984016666667}, {"type": "electric_scooter", "fusion_lon": 0.0, "name": "70c3f5ab6e5787caf800d9a5099b1313", "lon": -77.02796066666667, "fusion_lat": 0.0, "is_disabled": 0, "is_reserved": 0, "rental_uris": {"ios": "https://dc.lft.to/lastmile_qr_scan", "android": "https://dc.lft.to/lastmile_qr_scan"}, "bike_id": "70c3f5ab6e5787caf800d9a5099b1313", "lat": 38.89236966666667}, {"type": "electric_scooter", "fusion_lon": 0.0, "name": "828d8457571b43b6e8b367de182e4fbd", "lon": -77.053331, "fusion_lat": 0.0, "is_disabled": 0, "is_reserved": 0, "rental_uris": {"ios": "https://dc.lft.to/lastmile_qr_scan", "android": "https://dc.lft.to/lastmile_qr_scan"}, "bike_id": "828d8457571b43b6e8b367de182e4fbd", "lat": 38.904119}, {"type": "electric_scooter", "fusion_lon": 0.0, "name": "908895312330d5015ba76ca7da24e523", "lon": -77.03165683333333, "fusion_lat": 0.0, "is_disabled": 0, "is_reserved": 0, "rental_uris": {"ios": "https://dc.lft.to/lastmile_qr_scan", "android": "https://dc.lft.to/lastmile_qr_scan"}, "bike_id": "908895312330d5015ba76ca7da24e523", "lat": 38.8923065}, {"type": "electric_scooter", "fusion_lon": 0.0, "name": "346b9b76325bf92fe23dbcfb4d47b59a", "lon": -77.0433745, "fusion_lat": 0.0, "is_disabled": 0, "is_reserved": 0, "rental_uris": {"ios": "https://dc.lft.to/lastmile_qr_scan", "android": "https://dc.lft.to/lastmile_qr_scan"}, "bike_id": "346b9b76325bf92fe23dbcfb4d47b59a", "lat": 38.89225016666666}, {"type": "electric_scooter", "fusion_lon": 0.0, "name": "a0cf0928f6988437afd160bbe5ce875c", "lon": -77.0217445, "fusion_lat": 0.0, "is_disabled": 0, "is_reserved": 0, "rental_uris": {"ios": "https://dc.lft.to/lastmile_qr_scan", "android": "https://dc.lft.to/lastmile_qr_scan"}, "bike_id": "a0cf0928f6988437afd160bbe5ce875c", "lat": 38.9424875}, {"type": "electric_scooter", "fusion_lon": 0.0, "name": "04fbcc574eb1e80526163e1fdf3c53b9", "lon": -77.02712033333333, "fusion_lat": 0.0, "is_disabled": 0, "is_reserved": 0, "rental_uris": {"ios": "https://dc.lft.to/lastmile_qr_scan", "android": "https://dc.lft.to/lastmile_qr_scan"}, "bike_id": "04fbcc574eb1e80526163e1fdf3c53b9", "lat": 38.89711283333333}, {"type": "electric_scooter", "fusion_lon": 0.0, "name": "beff0b253a17cec5ae56669eced44bcf", "lon": -77.04528533333334, "fusion_lat": 0.0, "is_disabled": 0, "is_reserved": 0, "rental_uris": {"ios": "https://dc.lft.to/lastmile_qr_scan", "android": "https://dc.lft.to/lastmile_qr_scan"}, "bike_id": "beff0b253a17cec5ae56669eced44bcf", "lat": 38.9006735}, {"type": "electric_scooter", "fusion_lon": 0.0, "name": "9aea09ac917c06e034970806aad3f96a", "lon": -76.9792785, "fusion_lat": 0.0, "is_disabled": 0, "is_reserved": 0, "rental_uris": {"ios": "https://dc.lft.to/lastmile_qr_scan", "android": "https://dc.lft.to/lastmile_qr_scan"}, "bike_id": "9aea09ac917c06e034970806aad3f96a", "lat": 38.9068295}, {"type": "electric_scooter", "fusion_lon": 0.0, "name": "f1b6b545e6d850ccb78cf680f4a92183", "lon": -77.0308995, "fusion_lat": 0.0, "is_disabled": 0, "is_reserved": 0, "rental_uris": {"ios": "https://dc.lft.to/lastmile_qr_scan", "android": "https://dc.lft.to/lastmile_qr_scan"}, "bike_id": "f1b6b545e6d850ccb78cf680f4a92183", "lat": 38.959304333333336}, {"type": "electric_scooter", "fusion_lon": 0.0, "name": "81dac166b05c2644d89913802b8f4184", "lon": -77.03264433333334, "fusion_lat": 0.0, "is_disabled": 0, "is_reserved": 0, "rental_uris": {"ios": "https://dc.lft.to/lastmile_qr_scan", "android": "https://dc.lft.to/lastmile_qr_scan"}, "bike_id": "81dac166b05c2644d89913802b8f4184", "lat": 38.93526683333333}, {"type": "electric_scooter", "fusion_lon": 0.0, "name": "6c77ddfa8302ea9d71467967347e54a9", "lon": -77.00564333333334, "fusion_lat": 0.0, "is_disabled": 0, "is_reserved": 0, "rental_uris": {"ios": "https://dc.lft.to/lastmile_qr_scan", "android": "https://dc.lft.to/lastmile_qr_scan"}, "bike_id": "6c77ddfa8302ea9d71467967347e54a9", "lat": 38.885044}, {"type": "electric_scooter", "fusion_lon": 0.0, "name": "3e691a9ef109ece35a15f93440da9c35", "lon": -77.048293, "fusion_lat": 0.0, "is_disabled": 0, "is_reserved": 0, "rental_uris": {"ios": "https://dc.lft.to/lastmile_qr_scan", "android": "https://dc.lft.to/lastmile_qr_scan"}, "bike_id": "3e691a9ef109ece35a15f93440da9c35", "lat": 38.90069866666666}, {"type": "electric_scooter", "fusion_lon": 0.0, "name": "2410def911c76311fbd75cb9774a8569", "lon": -76.99004666666667, "fusion_lat": 0.0, "is_disabled": 0, "is_reserved": 0, "rental_uris": {"ios": "https://dc.lft.to/lastmile_qr_scan", "android": "https://dc.lft.to/lastmile_qr_scan"}, "bike_id": "2410def911c76311fbd75cb9774a8569", "lat": 38.903949}, {"type": "electric_scooter", "fusion_lon": 0.0, "name": "8fdc1aa58066fc2b1fa84ec767a0072e", "lon": -77.000669, "fusion_lat": 0.0, "is_disabled": 0, "is_reserved": 0, "rental_uris": {"ios": "https://dc.lft.to/lastmile_qr_scan", "android": "https://dc.lft.to/lastmile_qr_scan"}, "bike_id": "8fdc1aa58066fc2b1fa84ec767a0072e", "lat": 38.924019333333334}, {"type": "electric_scooter", "fusion_lon": 0.0, "name": "0e44165cbf20712aefd8dbd73574affb", "lon": -77.0188635, "fusion_lat": 0.0, "is_disabled": 0, "is_reserved": 0, "rental_uris": {"ios": "https://dc.lft.to/lastmile_qr_scan", "android": "https://dc.lft.to/lastmile_qr_scan"}, "bike_id": "0e44165cbf20712aefd8dbd73574affb", "lat": 38.8986115}, {"type": "electric_scooter", "fusion_lon": 0.0, "name": "e9c23202d5f8711fe904cddd29b83f63", "lon": -77.02641733333333, "fusion_lat": 0.0, "is_disabled": 0, "is_reserved": 0, "rental_uris": {"ios": "https://dc.lft.to/lastmile_qr_scan", "android": "https://dc.lft.to/lastmile_qr_scan"}, "bike_id": "e9c23202d5f8711fe904cddd29b83f63", "lat": 38.8961545}, {"type": "electric_scooter", "fusion_lon": 0.0, "name": "b5ba987f924f2e3eebf60ac860ff4eeb", "lon": -77.04820283333333, "fusion_lat": 0.0, "is_disabled": 0, "is_reserved": 0, "rental_uris": {"ios": "https://dc.lft.to/lastmile_qr_scan", "android": "https://dc.lft.to/lastmile_qr_scan"}, "bike_id": "b5ba987f924f2e3eebf60ac860ff4eeb", "lat": 38.91636183333333}, {"type": "electric_scooter", "fusion_lon": 0.0, "name": "5c869fa0a081339da903d643e09b690a", "lon": -76.98177833333334, "fusion_lat": 0.0, "is_disabled": 0, "is_reserved": 0, "rental_uris": {"ios": "https://dc.lft.to/lastmile_qr_scan", "android": "https://dc.lft.to/lastmile_qr_scan"}, "bike_id": "5c869fa0a081339da903d643e09b690a", "lat": 38.88978}, {"type": "electric_scooter", "fusion_lon": 0.0, "name": "d9716bc5e6146a94ac71268d646ff900", "lon": -77.031885, "fusion_lat": 0.0, "is_disabled": 0, "is_reserved": 0, "rental_uris": {"ios": "https://dc.lft.to/lastmile_qr_scan", "android": "https://dc.lft.to/lastmile_qr_scan"}, "bike_id": "d9716bc5e6146a94ac71268d646ff900", "lat": 38.92109633333333}, {"type": "electric_scooter", "fusion_lon": 0.0, "name": "7e42e9d9accfb2891180a9080a82e01b", "lon": -77.04147716666667, "fusion_lat": 0.0, "is_disabled": 0, "is_reserved": 0, "rental_uris": {"ios": "https://dc.lft.to/lastmile_qr_scan", "android": "https://dc.lft.to/lastmile_qr_scan"}, "bike_id": "7e42e9d9accfb2891180a9080a82e01b", "lat": 38.907509166666664}, {"type": "electric_scooter", "fusion_lon": 0.0, "name": "bb3ac667ad46430ad865534a37cc3524", "lon": -76.986793, "fusion_lat": 0.0, "is_disabled": 0, "is_reserved": 0, "rental_uris": {"ios": "https://dc.lft.to/lastmile_qr_scan", "android": "https://dc.lft.to/lastmile_qr_scan"}, "bike_id": "bb3ac667ad46430ad865534a37cc3524", "lat": 38.898878}, {"type": "electric_scooter", "fusion_lon": 0.0, "name": "d73c0ee9554646ebd71915fab1606380", "lon": -77.04447083333334, "fusion_lat": 0.0, "is_disabled": 0, "is_reserved": 0, "rental_uris": {"ios": "https://dc.lft.to/lastmile_qr_scan", "android": "https://dc.lft.to/lastmile_qr_scan"}, "bike_id": "d73c0ee9554646ebd71915fab1606380", "lat": 38.90553383333334}, {"type": "electric_scooter", "fusion_lon": 0.0, "name": "a69d6704f0788cc6bbc9907558b35946", "lon": -77.05030266666667, "fusion_lat": 0.0, "is_disabled": 0, "is_reserved": 0, "rental_uris": {"ios": "https://dc.lft.to/lastmile_qr_scan", "android": "https://dc.lft.to/lastmile_qr_scan"}, "bike_id": "a69d6704f0788cc6bbc9907558b35946", "lat": 38.923677166666664}, {"type": "electric_scooter", "fusion_lon": 0.0, "name": "58fa7561b69b8282ddc56ee4c6bb10c1", "lon": -77.037458, "fusion_lat": 0.0, "is_disabled": 0, "is_reserved": 0, "rental_uris": {"ios": "https://dc.lft.to/lastmile_qr_scan", "android": "https://dc.lft.to/lastmile_qr_scan"}, "bike_id": "58fa7561b69b8282ddc56ee4c6bb10c1", "lat": 38.9025915}, {"type": "electric_scooter", "fusion_lon": 0.0, "name": "d09a6e265880b0a1a6736794437a4ad4", "lon": -77.066728, "fusion_lat": 0.0, "is_disabled": 0, "is_reserved": 0, "rental_uris": {"ios": "https://dc.lft.to/lastmile_qr_scan", "android": "https://dc.lft.to/lastmile_qr_scan"}, "bike_id": "d09a6e265880b0a1a6736794437a4ad4", "lat": 38.94943633333333}, {"type": "electric_scooter", "fusion_lon": 0.0, "name": "f6d2e5d647612266b3b8434b9fdcd3ea", "lon": -77.03218133333333, "fusion_lat": 0.0, "is_disabled": 0, "is_reserved": 0, "rental_uris": {"ios": "https://dc.lft.to/lastmile_qr_scan", "android": "https://dc.lft.to/lastmile_qr_scan"}, "bike_id": "f6d2e5d647612266b3b8434b9fdcd3ea", "lat": 38.9166185}, {"type": "electric_scooter", "fusion_lon": 0.0, "name": "3c8698bc72ae7188f1ff2a6f94f190be", "lon": -76.92805916666667, "fusion_lat": 0.0, "is_disabled": 0, "is_reserved": 0, "rental_uris": {"ios": "https://dc.lft.to/lastmile_qr_scan", "android": "https://dc.lft.to/lastmile_qr_scan"}, "bike_id": "3c8698bc72ae7188f1ff2a6f94f190be", "lat": 38.896417166666666}, {"type": "electric_bike", "fusion_lon": 0.0, "name": "407e32470cc6dd901b222005d4605265", "lon": -77.05994483333333, "fusion_lat": 0.0, "is_disabled": 0, "is_reserved": 0, "rental_uris": {"ios": "https://dc.lft.to/lastmile_qr_scan", "android": "https://dc.lft.to/lastmile_qr_scan"}, "bike_id": "407e32470cc6dd901b222005d4605265", "lat": 38.927179}, {"type": "electric_scooter", "fusion_lon": 0.0, "name": "aac427cc50b68be8375ffa0aa2140056", "lon": -77.04896216666667, "fusion_lat": 0.0, "is_disabled": 0, "is_reserved": 0, "rental_uris": {"ios": "https://dc.lft.to/lastmile_qr_scan", "android": "https://dc.lft.to/lastmile_qr_scan"}, "bike_id": "aac427cc50b68be8375ffa0aa2140056", "lat": 38.89885183333333}, {"type": "electric_scooter", "fusion_lon": 0.0, "name": "15a2795acdb6a8dddd07049cb3ec8e7f", "lon": -77.00923066666667, "fusion_lat": 0.0, "is_disabled": 0, "is_reserved": 0, "rental_uris": {"ios": "https://dc.lft.to/lastmile_qr_scan", "android": "https://dc.lft.to/lastmile_qr_scan"}, "bike_id": "15a2795acdb6a8dddd07049cb3ec8e7f", "lat": 38.89730616666667}, {"type": "electric_scooter", "fusion_lon": 0.0, "name": "dbea8b49cf31918a012bc64de83550bb", "lon": -77.03162683333333, "fusion_lat": 0.0, "is_disabled": 0, "is_reserved": 0, "rental_uris": {"ios": "https://dc.lft.to/lastmile_qr_scan", "android": "https://dc.lft.to/lastmile_qr_scan"}, "bike_id": "dbea8b49cf31918a012bc64de83550bb", "lat": 38.918266}, {"type": "electric_scooter", "fusion_lon": 0.0, "name": "1a5a27eee749eadba23eb3d09ab4bca8", "lon": -77.00584566666667, "fusion_lat": 0.0, "is_disabled": 0, "is_reserved": 0, "rental_uris": {"ios": "https://dc.lft.to/lastmile_qr_scan", "android": "https://dc.lft.to/lastmile_qr_scan"}, "bike_id": "1a5a27eee749eadba23eb3d09ab4bca8", "lat": 38.90703333333333}, {"type": "electric_scooter", "fusion_lon": 0.0, "name": "d96a07215c6f900f61189e3c70d83615", "lon": -77.03897833333333, "fusion_lat": 0.0, "is_disabled": 0, "is_reserved": 0, "rental_uris": {"ios": "https://dc.lft.to/lastmile_qr_scan", "android": "https://dc.lft.to/lastmile_qr_scan"}, "bike_id": "d96a07215c6f900f61189e3c70d83615", "lat": 38.92225883333333}, {"type": "electric_bike", "fusion_lon": 0.0, "name": "b32dde506916295661cd26305a9412b8", "lon": -76.96976183333334, "fusion_lat": 0.0, "is_disabled": 0, "is_reserved": 0, "rental_uris": {"ios": "https://dc.lft.to/lastmile_qr_scan", "android": "https://dc.lft.to/lastmile_qr_scan"}, "bike_id": "b32dde506916295661cd26305a9412b8", "lat": 38.865002}, {"type": "electric_scooter", "fusion_lon": 0.0, "name": "c06605db0587a8773985e1992811025c", "lon": -77.02324833333333, "fusion_lat": 0.0, "is_disabled": 0, "is_reserved": 0, "rental_uris": {"ios": "https://dc.lft.to/lastmile_qr_scan", "android": "https://dc.lft.to/lastmile_qr_scan"}, "bike_id": "c06605db0587a8773985e1992811025c", "lat": 38.918009833333336}, {"type": "electric_bike", "fusion_lon": 0.0, "name": "3798f602251d77b9fc24c3453ecd064a", "lon": -77.06491116666666, "fusion_lat": 0.0, "is_disabled": 0, "is_reserved": 0, "rental_uris": {"ios": "https://dc.lft.to/lastmile_qr_scan", "android": "https://dc.lft.to/lastmile_qr_scan"}, "bike_id": "3798f602251d77b9fc24c3453ecd064a", "lat": 38.906869},