{"data": {"bikes": [{"rental_uris": {"ios": "https://dc.lft.to/lastmile_qr_scan", "android": "https://dc.lft.to/lastmile_qr_scan"}, "type": "electric_scooter", "name": "706f34210c1d06e70d73cc0f914af65d", "is_reserved": 0, "lon": -76.98084116666666, "is_disabled": 0, "fusion_lat": 0.0, "lat": 38.89437683333333, "bike_id": "706f34210c1d06e70d73cc0f914af65d", "fusion_lon": 0.0}, {"rental_uris": {"ios": "https://dc.lft.to/lastmile_qr_scan", "android": "https://dc.lft.to/lastmile_qr_scan"}, "type": "electric_scooter", "name": "1931b15ee1ac043d95506d34bad90695", "is_reserved": 0, "lon": -77.04120333333333, "is_disabled": 0, "fusion_lat": 0.0, "lat": 38.93099266666667, "bike_id": "1931b15ee1ac043d95506d34bad90695", "fusion_lon": 0.0}, {"rental_uris": {"ios": "https://dc.lft.to/lastmile_qr_scan", "android": "https://dc.lft.to/lastmile_qr_scan"}, "type": "electric_scooter", "name": "2cd80aa5df7ff0de5e5a6538e179aa2e", "is_reserved": 0, "lon": -77.0231245, "is_disabled": 0, "fusion_lat": 0.0, "lat": 38.91769733333334, "bike_id": "2cd80aa5df7ff0de5e5a6538e179aa2e", "fusion_lon": 0.0}, {"rental_uris": {"ios": "https://dc.lft.to/lastmile_qr_scan", "android": "https://dc.lft.to/lastmile_qr_scan"}, "type": "electric_scooter", "name": "5f5b77cb51b3cf98b491b8fc45bb54a0", "is_reserved": 0, "lon": -77.033491, "is_disabled": 0, "fusion_lat": 0.0, "lat": 38.89978133333334, "bike_id": "5f5b77cb51b3cf98b491b8fc45bb54a0", "fusion_lon": 0.0}, {"rental_uris": {"ios": "https://dc.lft.to/lastmile_qr_scan", "android": "https://dc.lft.to/lastmile_qr_scan"}, "type": "electric_scooter", "name": "bada3693fd513700f7266e7ee15c7b0f", "is_reserved": 0, "lon": -77.029709, "is_disabled": 0, "fusion_lat": 0.0, "lat": 38.907070833333336, "bike_id": "bada3693fd513700f7266e7ee15c7b0f", "fusion_lon": 0.0}, {"rental_uris": {"ios": "https://dc.lft.to/lastmile_qr_scan", "android": "https://dc.lft.to/lastmile_qr_scan"}, "type": "electric_scooter", "name": "1aab4a1b53aa31f184d6f3fbc9289bb1", "is_reserved": 0, "lon": -77.04324733333333, "is_disabled": 0, "fusion_lat": 0.0, "lat": 38.897299, "bike_id": "1aab4a1b53aa31f184d6f3fbc9289bb1", "fusion_lon": 0.0}, {"rental_uris": {"ios": "https://dc.lft.to/lastmile_qr_scan", "android": "https://dc.lft.to/lastmile_qr_scan"}, "type": "electric_scooter", "name": "1c83abe8bbb9f498b761b539cf4da62a", "is_reserved": 0, "lon": -77.0388365, "is_disabled": 0, "fusion_lat": 0.0, "lat": 38.916283, "bike_id": "1c83abe8bbb9f498b761b539cf4da62a", "fusion_lon": 0.0}, {"rental_uris": {"ios": "https://dc.lft.to/lastmile_qr_scan", "android": "https://dc.lft.to/lastmile_qr_scan"}, "type": "electric_scooter", "name": "9b6f8cd11fcd698fab8d4f7008b8ced6", "is_reserved": 0, "lon": -77.00045883333334, "is_disabled": 0, "fusion_lat": 0.0, "lat": 38.918923166666666, "bike_id": "9b6f8cd11fcd698fab8d4f7008b8ced6", "fusion_lon": 0.0}, {"rental_uris": {"ios": "https://dc.lft.to/lastmile_qr_scan", "android": "https://dc.lft.to/lastmile_qr_scan"}, "type": "electric_scooter", "name": "28b6803998533727db0328efee60dc9c", "is_reserved": 0, "lon": -76.9857935, "is_disabled": 0, "fusion_lat": 0.0, "lat": 38.85446916666667, "bike_id": "28b6803998533727db0328efee60dc9c", "fusion_lon": 0.0}, {"rental_uris": {"ios": "https://dc.lft.to/lastmile_qr_scan", "android": "https://dc.lft.to/lastmile_qr_scan"}, "type": "electric_scooter", "name": "3ccc1d00387210f0f1269626a98ed708", "is_reserved": 0, "lon": -77.03830083333334, "is_disabled": 0, "fusion_lat": 0.0, "lat": 38.91108933333334, "bike_id": "3ccc1d00387210f0f1269626a98ed708", "fusion_lon": 0.0}, {"rental_uris": {"ios": "https://dc.lft.to/lastmile_qr_scan", "android": "https://dc.lft.to/lastmile_qr_scan"}, "type": "electric_scooter", "name": "6d5793d60296bf032f1517c0626d7d48", "is_reserved": 0, "lon": -77.03072416666667, "is_disabled": 0, "fusion_lat": 0.0, "lat": 38.9387325, "bike_id": "6d5793d60296bf032f1517c0626d7d48", "fusion_lon": 0.0}, {"rental_uris": {"ios": "https://dc.lft.to/lastmile_qr_scan", "android": "https://dc.lft.to/lastmile_qr_scan"}, "type": "electric_scooter", "name": "389aeb1b0876b6f64cdc6b3f3c8f512c", "is_reserved": 0, "lon": -77.02384833333333, "is_disabled": 0, "fusion_lat": 0.0, "lat": 38.9170505, "bike_id": "389aeb1b0876b6f64cdc6b3f3c8f512c", "fusion_lon": 0.0}, {"rental_uris": {"ios": "https://dc.lft.to/lastmile_qr_scan", "android": "https://dc.lft.to/lastmile_qr_scan"}, "type": "electric_scooter", "name": "2c75cbbe3c7ff644f3d1a286e7f0b08a", "is_reserved": 0, "lon": -77.022352, "is_disabled": 0, "fusion_lat": 0.0, "lat": 38.9086325, "bike_id": "2c75cbbe3c7ff644f3d1a286e7f0b08a", "fusion_lon": 0.0}, {"rental_uris": {"ios": "https://dc.lft.to/lastmile_qr_scan", "android": "https://dc.lft.to/lastmile_qr_scan"}, "type": "electric_scooter", "name": "5b05f829eb88cbcc248f9de7b75c2062", "is_reserved": 0, "lon": -77.03669783333333, "is_disabled": 0, "fusion_lat": 0.0, "lat": 38.93923733333333, "bike_id": "5b05f829eb88cbcc248f9de7b75c2062", "fusion_lon": 0.0}, {"rental_uris": {"ios": "https://dc.lft.to/lastmile_qr_scan", "android": "https://dc.lft.to/lastmile_qr_scan"}, "type": "electric_scooter", "name": "c9cc92b2b8d033a43cacd02b2d2e4cd5", "is_reserved": 0, "lon": -77.02803183333333, "is_disabled": 0, "fusion_lat": 0.0, "lat": 38.9346465, "bike_id": "c9cc92b2b8d033a43cacd02b2d2e4cd5", "fusion_lon": 0.0}, {"rental_uris": {"ios": "https://dc.lft.to/lastmile_qr_scan", "android": "https://dc.lft.to/lastmile_qr_scan"}, "type": "electric_scooter", "name": "415f8f702ea05ad5f05ed75eb6acd869", "is_reserved": 0, "lon": -77.04316183333333, "is_disabled": 0, "fusion_lat": 0.0, "lat": 38.92208133333333, "bike_id": "415f8f702ea05ad5f05ed75eb6acd869", "fusion_lon": 0.0}, {"rental_uris": {"ios": "https://dc.lft.to/lastmile_qr_scan", "android": "https://dc.lft.to/lastmile_qr_scan"}, "type": "electric_scooter", "name": "f71f83aff48a56ee8a9509d31386b735", "is_reserved": 0, "lon": -77.03642383333333, "is_disabled": 0, "fusion_lat": 0.0, "lat": 38.9280365, "bike_id": "f71f83aff48a56ee8a9509d31386b735", "fusion_lon": 0.0}, {"rental_uris": {"ios": "https://dc.lft.to/lastmile_qr_scan", "android": "https://dc.lft.to/lastmile_qr_scan"}, "type": "electric_scooter", "name": "20e8f12edaea2bcf91d7eec4a7ed0002", "is_reserved": 0, "lon": -77.024994, "is_disabled": 0, "fusion_lat": 0.0, "lat": 38.920761666666664, "bike_id": "20e8f12edaea2bcf91d7eec4a7ed0002", "fusion_lon": 0.0}, {"rental_uris": {"ios": "https://dc.lft.to/lastmile_qr_scan", "android": "https://dc.lft.to/lastmile_qr_scan"}, "type": "electric_scooter", "name": "1e033dfe67b3abdeb867f0f9566faa25", "is_reserved": 0, "lon": -76.99791783333333, "is_disabled": 0, "fusion_lat": 0.0, "lat": 38.876290833333336, "bike_id": "1e033dfe67b3abdeb867f0f9566faa25", "fusion_lon": 0.0}, {"rental_uris": {"ios": "https://dc.lft.to/lastmile_qr_scan", "android": "https://dc.lft.to/lastmile_qr_scan"}, "type": "electric_scooter", "name": "1163b84f58cdeb1cb215a3a8b9211b01", "is_reserved": 0, "lon": -77.03221666666667, "is_disabled": 0, "fusion_lat": 0.0, "lat": 38.90863733333333, "bike_id": "1163b84f58cdeb1cb215a3a8b9211b01", "fusion_lon": 0.0}, {"rental_uris": {"ios": "https://dc.lft.to/lastmile_qr_scan", "android": "https://dc.lft.to/lastmile_qr_scan"}, "type": "electric_scooter", "name": "587b2636d7183faf2546644482cb3b09", "is_reserved": 0, "lon": -77.07763883333334, "is_disabled": 0, "fusion_lat": 0.0, "lat": 38.925542, "bike_id": "587b2636d7183faf2546644482cb3b09", "fusion_lon": 0.0}, {"rental_uris": {"ios": "https://dc.lft.to/lastmile_qr_scan", "android": "https://dc.lft.to/lastmile_qr_scan"}, "type": "electric_bike", "name": "d9c180b4f1de330418fc247dcc1f3507", "is_reserved": 0, "lon": -76.957939, "is_disabled": 0, "fusion_lat": 0.0, "lat": 38.980419833333336, "bike_id": "d9c180b4f1de330418fc247dcc1f3507", "fusion_lon": 0.0}, {"rental_uris": {"ios": "https://dc.lft.to/lastmile_qr_scan", "android": "https://dc.lft.to/lastmile_qr_scan"}, "type": "electric_scooter", "name": "0a561ed91fb8e35055abb7d186ee5a89", "is_reserved": 0, "lon": -77.02631916666667, "is_disabled": 0, "fusion_lat": 0.0, "lat": 38.9030255, "bike_id": "0a561ed91fb8e35055abb7d186ee5a89", "fusion_lon": 0.0}, {"rental_uris": {"ios": "https://dc.lft.to/lastmile_qr_scan", "android": "https://dc.lft.to/lastmile_qr_scan"}, "type": "electric_scooter", "name": "31c66c10eabf73483b9214ca8c7f5dbf", "is_reserved": 0, "lon": -77.04187366666666, "is_disabled": 0, "fusion_lat": 0.0, "lat": 38.920449, "bike_id": "31c66c10eabf73483b9214ca8c7f5dbf", "fusion_lon": 0.0}, {"rental_uris": {"ios": "https://dc.lft.to/lastmile_qr_scan", "android": "https://dc.lft.to/lastmile_qr_scan"}, "type": "electric_scooter", "name": "c62ecc56d27e51818d0ec35e395cf3e2", "is_reserved": 0, "lon": -76.975647, "is_disabled": 0, "fusion_lat": 0.0, "lat": 38.9441995, "bike_id": "c62ecc56d27e51818d0ec35e395cf3e2", "fusion_lon": 0.0}, {"rental_uris": {"ios": "https://dc.lft.to/lastmile_qr_scan", "android": "https://dc.lft.to/lastmile_qr_scan"}, "type": "electric_bike", "name": "936ff20a1330402dd3de85c5f94b20c4", "is_reserved": 0, "lon": -77.00135833333333, "is_disabled": 0, "fusion_lat": 0.0, "lat": 38.9949625, "bike_id": "936ff20a1330402dd3de85c5f94b20c4", "fusion_lon": 0.0}, {"rental_uris": {"ios": "https://dc.lft.to/lastmile_qr_scan", "android": "https://dc.lft.to/lastmile_qr_scan"}, "type": "electric_scooter", "name": "4d8162b6ba9c74efb6b3f8f0cc3fee5d", "is_reserved": 0, "lon": -77.01637933333333, "is_disabled": 0, "fusion_lat": 0.0, "lat": 38.90238266666667, "bike_id": "4d8162b6ba9c74efb6b3f8f0cc3fee5d", "fusion_lon": 0.0}, {"rental_uris": {"ios": "https://dc.lft.to/lastmile_qr_scan", "android": "https://dc.lft.to/lastmile_qr_scan"}, "type": "electric_scooter", "name": "31719cb91a3b9e880cd378a26644d101", "is_reserved": 0, "lon": -77.02814466666666, "is_disabled": 0, "fusion_lat": 0.0, "lat": 38.910961666666665, "bike_id": "31719cb91a3b9e880cd378a26644d101", "fusion_lon": 0.0}, {"rental_uris": {"ios": "https://dc.lft.to/lastmile_qr_scan", "android": "https://dc.lft.to/lastmile_qr_scan"}, "type": "electric_scooter", "name": "57095088c23551eb76d26678b2d48815", "is_reserved": 0, "lon": -77.0472025, "is_disabled": 0, "fusion_lat": 0.0, "lat": 38.90186766666667, "bike_id": "57095088c23551eb76d26678b2d48815", "fusion_lon": 0.0}, {"rental_uris": {"ios": "https://dc.lft.to/lastmile_qr_scan", "android": "https://dc.lft.to/lastmile_qr_scan"}, "type": "electric_scooter", "name": "3c67b981370bb9ad5f293f99020490b0", "is_reserved": 0, "lon": -76.94323516666667, "is_disabled": 0, "fusion_lat": 0.0, "lat": 38.87915183333333, "bike_id": "3c67b981370bb9ad5f293f99020490b0", "fusion_lon": 0.0}, {"rental_uris": {"ios": "https://dc.lft.to/lastmile_qr_scan", "android": "https://dc.lft.to/lastmile_qr_scan"}, "type": "electric_bike", "name": "83a07045e0f6577fc81ed115986f151a", "is_reserved": 0, "lon": -77.07241733333333, "is_disabled": 0, "fusion_lat": 0.0, "lat": 38.813614333333334, "bike_id": "83a07045e0f6577fc81ed115986f151a", "fusion_lon": 0.0}, {"rental_uris": {"ios": "https://dc.lft.to/lastmile_qr_scan", "android": "https://dc.lft.to/lastmile_qr_scan"}, "type": "electric_scooter", "name": "81ad58c23584f228ddcd9f5395de6ed3", "is_reserved": 0, "lon": -77.0275855, "is_disabled": 0, "fusion_lat": 0.0, "lat": 38.91338983333333, "bike_id": "81ad58c23584f228ddcd9f5395de6ed3", "fusion_lon": 0.0}, {"rental_uris": {"ios": "https://dc.lft.to/lastmile_qr_scan", "android": "https://dc.lft.to/lastmile_qr_scan"}, "type": "electric_scooter", "name": "0a85bb94d7f7bc5b3dc0b854c5d2804e", "is_reserved": 0, "lon": -77.020405, "is_disabled": 0, "fusion_lat": 0.0, "lat": 38.91106516666667, "bike_id": "0a85bb94d7f7bc5b3dc0b854c5d2804e", "fusion_lon": 0.0}, {"rental_uris": {"ios": "https://dc.lft.to/lastmile_qr_scan", "android": "https://dc.lft.to/lastmile_qr_scan"}, "type": "electric_scooter", "name": "06dd1fb921acf360e991279714e7ae3f", "is_reserved": 0, "lon": -76.985687, "is_disabled": 0, "fusion_lat": 0.0, "lat": 38.89618216666667, "bike_id": "06dd1fb921acf360e991279714e7ae3f", "fusion_lon": 0.0}, {"rental_uris": {"ios": "https://dc.lft.to/lastmile_qr_scan", "android": "https://dc.lft.to/lastmile_qr_scan"}, "type": "electric_scooter", "name": "f1219698176e306a995b7adc67ef42ae", "is_reserved": 0, "lon": -77.040492, "is_disabled": 0, "fusion_lat": 0.0, "lat": 38.92461816666667, "bike_id": "f1219698176e306a995b7adc67ef42ae", "fusion_lon": 0.0}, {"rental_uris": {"ios": "https://dc.lft.to/lastmile_qr_scan", "android": "https://dc.lft.to/lastmile_qr_scan"}, "type": "electric_scooter", "name": "982118a5b60e916661310aef2ccddb12", "is_reserved": 0, "lon": -77.04331433333333, "is_disabled": 0, "fusion_lat": 0.0, "lat": 38.90730966666667, "bike_id": "982118a5b60e916661310aef2ccddb12", "fusion_lon": 0.0}, {"rental_uris": {"ios": "https://dc.lft.to/lastmile_qr_scan", "android": "https://dc.lft.to/lastmile_qr_scan"}, "type": "electric_scooter", "name": "37326e705e83a65355c26f1b775ac261", "is_reserved": 0, "lon": -77.044033, "is_disabled": 0, "fusion_lat": 0.0, "lat": 38.925835, "bike_id": "37326e705e83a65355c26f1b775ac261", "fusion_lon": 0.0}, {"rental_uris": {"ios": "https://dc.lft.to/lastmile_qr_scan", "android": "https://dc.lft.to/lastmile_qr_scan"}, "type": "electric_scooter", "name": "322e67f6c09df348ca7545280a6b7db4", "is_reserved": 0, "lon": -77.04816483333333, "is_disabled": 0, "fusion_lat": 0.0, "lat": 38.90952133333333, "bike_id": "322e67f6c09df348ca7545280a6b7db4", "fusion_lon": 0.0}, {"rental_uris": {"ios": "https://dc.lft.to/lastmile_qr_scan", "android": "https://dc.lft.to/lastmile_qr_scan"}, "type": "electric_scooter", "name": "dd61743010469d88d29bc640cd6d1d07", "is_reserved": 0, "lon": -77.047762, "is_disabled": 0, "fusion_lat": 0.0, "lat": 38.9085965, "bike_id": "dd61743010469d88d29bc640cd6d1d07", "fusion_lon": 0.0}, {"rental_uris": {"ios": "https://dc.lft.to/lastmile_qr_scan", "android": "https://dc.lft.to/lastmile_qr_scan"}, "type": "electric_scooter", "name": "4fc3cb77206768553cabd42cf070a4e4", "is_reserved": 0, "lon": -77.00982116666667, "is_disabled": 0, "fusion_lat": 0.0, "lat": 38.92027616666667, "bike_id": "4fc3cb77206768553cabd42cf070a4e4", "fusion_lon": 0.0}, {"rental_uris": {"ios": "https://dc.lft.to/lastmile_qr_scan", "android": "https://dc.lft.to/lastmile_qr_scan"}, "type": "electric_scooter", "name": "314ea7dd35d1293404f20c43254aa25a", "is_reserved": 0, "lon": -77.0021935, "is_disabled": 0, "fusion_lat": 0.0, "lat": 38.8944725, "bike_id": "314ea7dd35d1293404f20c43254aa25a", "fusion_lon": 0.0}, {"rental_uris": {"ios": "https://dc.lft.to/lastmile_qr_scan", "android": "https://dc.lft.to/lastmile_qr_scan"}, "type": "electric_scooter", "name": "11f4e89459e47cca2fdcd29e137a94ae", "is_reserved": 0, "lon": -77.0092115, "is_disabled": 0, "fusion_lat": 0.0, "lat": 38.9076055, "bike_id": "11f4e89459e47cca2fdcd29e137a94ae", "fusion_lon": 0.0}, {"rental_uris": {"ios": "https://dc.lft.to/lastmile_qr_scan", "android": "https://dc.lft.to/lastmile_qr_scan"}, "type": "electric_scooter", "name": "b85ae4d1ca6f673c3bfa1d4698e25391", "is_reserved": 0, "lon": -77.04352233333333, "is_disabled": 0, "fusion_lat": 0.0, "lat": 38.92151766666667, "bike_id": "b85ae4d1ca6f673c3bfa1d4698e25391", "fusion_lon": 0.0}, {"rental_uris": {"ios": "https://dc.lft.to/lastmile_qr_scan", "android": "https://dc.lft.to/lastmile_qr_scan"}, "type": "electric_bike", "name": "fb8557b1b24e9e6cef23722a9d4d66f3", "is_reserved": 0, "lon": -77.05091083333333, "is_disabled": 0, "fusion_lat": 0.0, "lat": 38.813269166666664, "bike_id": "fb8557b1b24e9e6cef23722a9d4d66f3", "fusion_lon": 0.0}, {"rental_uris": {"ios": "https://dc.lft.to/lastmile_qr_scan", "android": "https://dc.lft.to/lastmile_qr_scan"}, "type": "electric_scooter", "name": "12f44ff41e9e48549c53421a33c2fbca", "is_reserved": 0, "lon": -77.014863, "is_disabled": 0, "fusion_lat": 0.0, "lat": 38.887419333333334, "bike_id": "12f44ff41e9e48549c53421a33c2fbca", "fusion_lon": 0.0}, {"rental_uris": {"ios": "https://dc.lft.to/lastmile_qr_scan", "android": "https://dc.lft.to/lastmile_qr_scan"}, "type": "electric_scooter", "name": "b4ea9ce3351e19833226e92d0fe2dae4", "is_reserved": 0, "lon": -77.03855366666667, "is_disabled": 0, "fusion_lat": 0.0, "lat": 38.91275733333333, "bike_id": "b4ea9ce3351e19833226e92d0fe2dae4", "fusion_lon": 0.0}, {"rental_uris": {"ios": "https://dc.lft.to/lastmile_qr_scan", "android": "https://dc.lft.to/lastmile_qr_scan"}, "type": "electric_scooter", "name": "cff93a777b1e5496b23ce9fc87601db4", "is_reserved": 0, "lon": -77.02486366666666, "is_disabled": 0, "fusion_lat": 0.0, "lat": 38.925946833333334, "bike_id": "cff93a777b1e5496b23ce9fc87601db4", "fusion_lon": 0.0}, {"rental_uris": {"ios": "https://dc.lft.to/lastmile_qr_scan", "android": "https://dc.lft.to/lastmile_qr_scan"}, "type": "electric_scooter", "name": "1d82604c7b8028c79950aa0a69f95fb9", "is_reserved": 0, "lon": -77.07278333333333, "is_disabled": 0, "fusion_lat": 0.0, "lat": 38.9354435, "bike_id": "1d82604c7b8028c79950aa0a69f95fb9", "fusion_lon": 0.0}, {"rental_uris": {"ios": "https://dc.lft.to/lastmile_qr_scan", "android": "https://dc.lft.to/lastmile_qr_scan"}, "type": "electric_scooter", "name": "57d1712ae47efe6dbad96015fa69902b", "is_reserved": 0, "lon": -77.020667, "is_disabled": 0, "fusion_lat": 0.0, "lat": 38.90846966666667, "bike_id": "57d1712ae47efe6dbad96015fa69902b", "fusion_lon": 0.0}, {"rental_uris": {"ios": "https://dc.lft.to/lastmile_qr_scan", "android": "https://dc.lft.to/lastmile_qr_scan"}, "type": "electric_bike", "name": "4bc32cbfe6329f818376360f6804f9cc", "is_reserved": 0, "lon": -76.9732135, "is_disabled": 0, "fusion_lat": 0.0, "lat": 38.865039833333334, "bike_id": "4bc32cbfe6329f818376360f6804f9cc", "fusion_lon": 0.0}, {"rental_uris": {"ios": "https://dc.lft.to/lastmile_qr_scan", "android": "https://dc.lft.to/lastmile_qr_scan"}, "type": "electric_scooter", "name": "3e0658ed5d00340e4c2809e563124ae7", "is_reserved": 0, "lon": -77.03175116666667, "is_disabled": 0, "fusion_lat": 0.0, "lat": 38.89222083333333, "bike_id": "3e0658ed5d00340e4c2809e563124ae7", "fusion_lon": 0.0}, {"rental_uris": {"ios": "https://dc.lft.to/lastmile_qr_scan", "android": "https://dc.lft.to/lastmile_qr_scan"}, "type": "electric_scooter", "name": "08c9c781ebd39c23bcdde91403ce79b0", "is_reserved": 0, "lon": -77.03440216666667, "is_disabled": 0, "fusion_lat": 0.0, "lat": 38.9097685, "bike_id": "08c9c781ebd39c23bcdde91403ce79b0", "fusion_lon": 0.0}, {"rental_uris": {"ios": "https://dc.lft.to/lastmile_qr_scan", "android": "https://dc.lft.to/lastmile_qr_scan"}, "type": "electric_scooter", "name": "80f853865d455bd419e649f478620e20", "is_reserved": 0, "lon": -77.01916016666667, "is_disabled": 0, "fusion_lat": 0.0, "lat": 38.917268166666666, "bike_id": "80f853865d455bd419e649f478620e20", "fusion_lon": 0.0}, {"rental_uris": {"ios": "https://dc.lft.to/lastmile_qr_scan", "android": "https://dc.lft.to/lastmile_qr_scan"}, "type": "electric_scooter", "name": "6603fc75b9cea1ccb9b442e2aa3fc212", "is_reserved": 0, "lon": -77.04691216666667, "is_disabled": 0, "fusion_lat": 0.0, "lat": 38.92100083333333, "bike_id": "6603fc75b9cea1ccb9b442e2aa3fc212", "fusion_lon": 0.0}, {"rental_uris": {"ios": "https://dc.lft.to/lastmile_qr_scan", "android": "https://dc.lft.to/lastmile_qr_scan"}, "type": "electric_scooter", "name": "f41f142f78c85b6044636c72b6c547eb", "is_reserved": 0, "lon": -77.02128166666667, "is_disabled": 0, "fusion_lat": 0.0, "lat": 38.92417416666667, "bike_id": "f41f142f78c85b6044636c72b6c547eb", "fusion_lon": 0.0}, {"rental_uris": {"ios": "https://dc.lft.to/lastmile_qr_scan", "android": "https://dc.lft.to/lastmile_qr_scan"}, "type": "electric_scooter", "name": "da64949dc3ee8b8c8a7df7b12a027765", "is_reserved": 0, "lon": -77.02119033333334, "is_disabled": 0, "fusion_lat": 0.0, "lat": 38.923511, "bike_id": "da64949dc3ee8b8c8a7df7b12a027765", "fusion_lon": 0.0}, {"rental_uris": {"ios": "https://dc.lft.to/lastmile_qr_scan", "android": "https://dc.lft.to/lastmile_qr_scan"}, "type": "electric_bike", "name": "e34cdaae6d3806397924fd0922ead8d0", "is_reserved": 0, "lon": -76.95820766666667, "is_disabled": 0, "fusion_lat": 0.0, "lat": 38.920027, "bike_id": "e34cdaae6d3806397924fd0922ead8d0", "fusion_lon": 0.0}, {"rental_uris": {"ios": "https://dc.lft.to/lastmile_qr_scan", "android": "https://dc.lft.to/lastmile_qr_scan"}, "type": "electric_scooter", "name": "e8f4b6d8d4f6196f43220ce61ac02b71", "is_reserved": 0, "lon": -76.94853366666666, "is_disabled": 0, "fusion_lat": 0.0, "lat": 38.8829895, "bike_id": "e8f4b6d8d4f6196f43220ce61ac02b71", "fusion_lon": 0.0}, {"rental_uris": {"ios": "https://dc.lft.to/lastmile_qr_scan", "android": "https://dc.lft.to/lastmile_qr_scan"}, "type": "electric_scooter", "name": "083d738586fd5202e61e257987a45b15", "is_reserved": 0, "lon": -76.98202066666667, "is_disabled": 0, "fusion_lat": 0.0, "lat": 38.90198483333333, "bike_id": "083d738586fd5202e61e257987a45b15", "fusion_lon": 0.0}, {"rental_uris": {"ios": "https://dc.lft.to/lastmile_qr_scan", "android": "https://dc.lft.to/lastmile_qr_scan"}, "type": "electric_scooter", "name": "e6509e2831cfa8d168cce21935c9f54a", "is_reserved": 0, "lon": -77.03419616666666, "is_disabled": 0, "fusion_lat": 0.0, "lat": 38.928590666666665, "bike_id": "e6509e2831cfa8d168cce21935c9f54a", "fusion_lon": 0.0}, {"rental_uris": {"ios": "https://dc.lft.to/lastmile_qr_scan", "android": "https://dc.lft.to/lastmile_qr_scan"}, "type": "electric_scooter", "name": "952a8f89b30d034a1b963c42e7ce100c", "is_reserved": 0, "lon": -77.00357, "is_disabled": 0, "fusion_lat": 0.0, "lat": 38.892656833333334, "bike_id": "952a8f89b30d034a1b963c42e7ce100c", "fusion_lon": 0.0}, {"rental_uris": {"ios": "https://dc.lft.to/lastmile_qr_scan", "android": "https://dc.lft.to/lastmile_qr_scan"}, "type": "electric_scooter", "name": "069133193c93ffbc15805af44953f3a7", "is_reserved": 0, "lon": -77.03185666666667, "is_disabled": 0, "fusion_lat": 0.0, "lat": 38.913445333333335, "bike_id": "069133193c93ffbc15805af44953f3a7", "fusion_lon": 0.0}, {"rental_uris": {"ios": "https://dc.lft.to/lastmile_qr_scan", "android": "https://dc.lft.to/lastmile_qr_scan"}, "type": "electric_scooter", "name": "ec9ab1966e2b4e40df01f795a590cad4", "is_reserved": 0, "lon": -77.01908533333334, "is_disabled": 0, "fusion_lat": 0.0, "lat": 38.894871333333334, "bike_id": "ec9ab1966e2b4e40df01f795a590cad4", "fusion_lon": 0.0}, {"rental_uris": {"ios": "https://dc.lft.to/lastmile_qr_scan", "android": "https://dc.lft.to/lastmile_qr_scan"}, "type": "electric_scooter", "name": "cf9deaf57210334713d6a98eee2dbbeb", "is_reserved": 0, "lon": -77.0269885, "is_disabled": 0, "fusion_lat": 0.0, "lat": 38.9357355, "bike_id": "cf9deaf57210334713d6a98eee2dbbeb", "fusion_lon": 0.0}, {"rental_uris": {"ios": "https://dc.lft.to/lastmile_qr_scan", "android": "https://dc.lft.to/lastmile_qr_scan"}, "type": "electric_scooter", "name": "9496d7f30661fafb9a81abed87ddefd2", "is_reserved": 0, "lon": -77.04566066666666, "is_disabled": 0, "fusion_lat": 0.0, "lat": 38.914027833333336, "bike_id": "9496d7f30661fafb9a81abed87ddefd2", "fusion_lon": 0.0}, {"rental_uris": {"ios": "https://dc.lft.to/lastmile_qr_scan", "android": "https://dc.lft.to/lastmile_qr_scan"}, "type": "electric_bike", "name": "784cc4027e557704eaf28203c566ef8f", "is_reserved": 0, "lon": -76.90741366666667, "is_disabled": 0, "fusion_lat": 0.0, "lat": 38.896156166666664, "bike_id": "784cc4027e557704eaf28203c566ef8f", "fusion_lon": 0.0}, {"rental_uris": {"ios": "https://dc.lft.to/lastmile_qr_scan", "android": "https://dc.lft.to/lastmile_qr_scan"}, "type": "electric_scooter", "name": "984111b9123d033dc3200417c53dbc2d", "is_reserved": 0, "lon": -77.02276416666666, "is_disabled": 0, "fusion_lat": 0.0, "lat": 38.924093666666664, "bike_id": "984111b9123d033dc3200417c53dbc2d", "fusion_lon": 0.0}, {"rental_uris": {"ios": "https://dc.lft.to/lastmile_qr_scan", "android": "https://dc.lft.to/lastmile_qr_scan"}, "type": "electric_scooter", "name": "9789de85188c6f6b118b0881a991d4f8", "is_reserved": 0, "lon": -77.016252, "is_disabled": 0, "fusion_lat": 0.0, "lat": 38.9065675, "bike_id": "9789de85188c6f6b118b0881a991d4f8", "fusion_lon": 0.0}, {"rental_uris": {"ios": "https://dc.lft.to/lastmile_qr_scan", "android": "https://dc.lft.to/lastmile_qr_scan"}, "type": "electric_scooter", "name": "4033eed85e3695e2af5456015e1544bd", "is_reserved": 0, "lon": -77.0433575, "is_disabled": 0, "fusion_lat": 0.0, "lat": 38.8922465, "bike_id": "4033eed85e3695e2af5456015e1544bd", "fusion_lon": 0.0}, {"rental_uris": {"ios": "https://dc.lft.to/lastmile_qr_scan", "android": "https://dc.lft.to/lastmile_qr_scan"}, "type": "electric_bike", "name": "ce4be635809ee87e5f80ec4cbc4d1059", "is_reserved": 0, "lon": -76.994949, "is_disabled": 0, "fusion_lat": 0.0, "lat": 38.8621525, "bike_id": "ce4be635809ee87e5f80ec4cbc4d1059", "fusion_lon": 0.0}, {"rental_uris": {"ios": "https://dc.lft.to/lastmile_qr_scan", "android": "https://dc.lft.to/lastmile_qr_scan"}, "type": "electric_scooter", "name": "343efe3225055476e9234173d3cd8196", "is_reserved": 0, "lon": -77.02427716666666, "is_disabled": 0, "fusion_lat": 0.0, "lat": 38.92324583333333, "bike_id": "343efe3225055476e9234173d3cd8196", "fusion_lon": 0.0}, {"rental_uris": {"ios": "https://dc.lft.to/lastmile_qr_scan", "android": "https://dc.lft.to/lastmile_qr_scan"}, "type": "electric_scooter", "name": "355a3c14f7369e442ab2fb17d85d6cae", "is_reserved": 0, "lon": -77.03181816666667, "is_disabled": 0, "fusion_lat": 0.0, "lat": 38.909433666666665, "bike_id": "355a3c14f7369e442ab2fb17d85d6cae", "fusion_lon": 0.0}, {"rental_uris": {"ios": "https://dc.lft.to/lastmile_qr_scan", "android": "https://dc.lft.to/lastmile_qr_scan"}, "type": "electric_scooter", "name": "57d3fd2e76522159d34b631660b3c693", "is_reserved": 0, "lon": -76.97981966666667, "is_disabled": 0, "fusion_lat": 0.0, "lat": 38.897308, "bike_id": "57d3fd2e76522159d34b631660b3c693", "fusion_lon": 0.0}, {"rental_uris": {"ios": "https://dc.lft.to/lastmile_qr_scan", "android": "https://dc.lft.to/lastmile_qr_scan"}, "type": "electric_scooter", "name": "1e97ebee9af72bc46b011e29012775fd", "is_reserved": 0, "lon": -77.032234, "is_disabled": 0, "fusion_lat": 0.0, "lat": 38.89934616666667, "bike_id": "1e97ebee9af72bc46b011e29012775fd", "fusion_lon": 0.0}, {"rental_uris": {"ios": "https://dc.lft.to/lastmile_qr_scan", "android": "https://dc.lft.to/lastmile_qr_scan"}, "type": "electric_scooter", "name": "708e87d5f6c73ab534d0db36de5d3f25", "is_reserved": 0, "lon": -77.057883, "is_disabled": 0, "fusion_lat": 0.0, "lat": 38.934774, "bike_id": "708e87d5f6c73ab534d0db36de5d3f25", "fusion_lon": 0.0}, {"rental_uris": {"ios": "https://dc.lft.to/lastmile_qr_scan", "android": "https://dc.lft.to/lastmile_qr_scan"}, "type": "electric_scooter", "name": "d393245f901676e44637e64e503ef36b", "is_reserved": 0, "lon": -77.04096566666666, "is_disabled": 0, "fusion_lat": 0.0, "lat": 38.900136333333336, "bike_id": "d393245f901676e44637e64e503ef36b", "fusion_lon": 0.0}, {"rental_uris": {"ios": "https://dc.lft.to/lastmile_qr_scan", "android": "https://dc.lft.to/lastmile_qr_scan"}, "type": "electric_bike", "name": "172b18ea484cf6925ed38fd36fd0a471", "is_reserved": 0, "lon": -76.98840883333334, "is_disabled": 0, "fusion_lat": 0.0, "lat": 38.84273233333333, "bike_id": "172b18ea484cf6925ed38fd36fd0a471", "fusion_lon": 0.0}, {"rental_uris": {"ios": "https://dc.lft.to/lastmile_qr_scan", "android": "https://dc.lft.to/lastmile_qr_scan"}, "type": "electric_scooter", "name": "1c71aa9d7f29efca7a80a120bd07fe7a", "is_reserved": 0, "lon": -77.04003983333334, "is_disabled": 0, "fusion_lat": 0.0, "lat": 38.9118445, "bike_id": "1c71aa9d7f29efca7a80a120bd07fe7a", "fusion_lon": 0.0}, {"rental_uris": {"ios": "https://dc.lft.to/lastmile_qr_scan", "android": "https://dc.lft.to/lastmile_qr_scan"}, "type": "electric_scooter", "name": "9c172eec71de711d11700cf4c5d853ab", "is_reserved": 0, "lon": -77.02723833333333, "is_disabled": 0, "fusion_lat": 0.0, "lat": 38.897309, "bike_id": "9c172eec71de711d11700cf4c5d853ab", "fusion_lon": 0.0}, {"rental_uris": {"ios": "https://dc.lft.to/lastmile_qr_scan", "android": "https://dc.lft.to/lastmile_qr_scan"}, "type": "electric_scooter", "name": "5c5aa5651c759129008ac62153bdb257", "is_reserved": 0, "lon": -77.0212995, "is_disabled": 0, "fusion_lat": 0.0, "lat": 38.92693583333333, "bike_id": "5c5aa5651c759129008ac62153bdb257", "fusion_lon": 0.0}, {"rental_uris": {"ios": "https://dc.lft.to/lastmile_qr_scan", "android": "https://dc.lft.to/lastmile_qr_scan"}, "type": "electric_scooter", "name": "faf648588227050be18aa6fd6533395d", "is_reserved": 0, "lon": -77.02373733333333, "is_disabled": 0, "fusion_lat": 0.0, "lat": 38.90952033333333, "bike_id": "faf648588227050be18aa6fd6533395d", "fusion_lon": 0.0}, {"rental_uris": {"ios": "https://dc.lft.to/lastmile_qr_scan", "android": "https://dc.lft.to/lastmile_qr_scan"}, "type": "electric_scooter", "name": "e28f31a62bb08a4f0bb19a39a9aad4ef", "is_reserved": 0, "lon": -77.03260766666666, "is_disabled": 0, "fusion_lat": 0.0, "lat": 38.927383166666665, "bike_id": "e28f31a62bb08a4f0bb19a39a9aad4ef", "fusion_lon": 0.0}, {"rental_uris": {"ios": "https://dc.lft.to/lastmile_qr_scan", "android": "https://dc.lft.to/lastmile_qr_scan"}, "type": "electric_scooter", "name": "16bf5573729287850ca6b14bd44457da", "is_reserved": 0, "lon": -77.02397116666667, "is_disabled": 0, "fusion_lat": 0.0, "lat": 38.91965916666667, "bike_id": "16bf5573729287850ca6b14bd44457da", "fusion_lon": 0.0}, {"rental_uris": {"ios": "https://dc.lft.to/lastmile_qr_scan", "android": "https://dc.lft.to/lastmile_qr_scan"}, "type": "electric_scooter", "name": "4b6f136ac14f58d16d0e5067ce987753", "is_reserved": 0, "lon": -77.0324015, "is_disabled": 0, "fusion_lat": 0.0, "lat": 38.9068845, "bike_id": "4b6f136ac14f58d16d0e5067ce987753", "fusion_lon": 0.0}, {"rental_uris": {"ios": "https://dc.lft.to/lastmile_qr_scan", "android": "https://dc.lft.to/lastmile_qr_scan"}, "type": "electric_scooter", "name": "9ec436ff660408631871c8c0aa76da39", "is_reserved": 0, "lon": -77.02449883333334, "is_disabled": 0, "fusion_lat": 0.0, "lat": 38.89997533333333, "bike_id": "9ec436ff660408631871c8c0aa76da39", "fusion_lon": 0.0}, {"rental_uris": {"ios": "https://dc.lft.to/lastmile_qr_scan", "android": "https://dc.lft.to/lastmile_qr_scan"}, "type": "electric_scooter", "name": "cbb1cd32453ede1be64f4e2ee85319de", "is_reserved": 0, "lon": -77.03467616666667, "is_disabled": 0, "fusion_lat": 0.0, "lat": 38.90874866666667, "bike_id": "cbb1cd32453ede1be64f4e2ee85319de", "fusion_lon": 0.0}, {"rental_uris": {"ios": "https://dc.lft.to/lastmile_qr_scan", "android": "https://dc.lft.to/lastmile_qr_scan"}, "type": "electric_scooter", "name": "a1a49383bdb743d46bad069f016b19dc", "is_reserved": 0, "lon": -77.07402766666667, "is_disabled": 0, "fusion_lat": 0.0, "lat": 38.897252333333334, "bike_id": "a1a49383bdb743d46bad069f016b19dc", "fusion_lon": 0.0}, {"rental_uris": {"ios": "https://dc.lft.to/lastmile_qr_scan", "android": "https://dc.lft.to/lastmile_qr_scan"}, "type": "electric_bike", "name": "101c9b368dad24f2076bd7bdf3a47bb6", "is_reserved": 0, "lon": -77.07644483333333, "is_disabled": 0, "fusion_lat": 0.0, "lat": 38.845354, "bike_id": "101c9b368dad24f2076bd7bdf3a47bb6", "fusion_lon": 0.0}, {"rental_uris": {"ios": "https://dc.lft.to/lastmile_qr_scan", "android": "https://dc.lft.to/lastmile_qr_scan"}, "type": "electric_scooter", "name": "bb417718ca45b2dd26b4e14460209a97", "is_reserved": 0, "lon": -76.98864933333333, "is_disabled": 0, "fusion_lat": 0.0, "lat": 38.90024066666667, "bike_id": "bb417718ca45b2dd26b4e14460209a97", "fusion_lon": 0.0}, {"rental_uris": {"ios": "https://dc.lft.to/lastmile_qr_scan", "android": "https://dc.lft.to/lastmile_qr_scan"}, "type": "electric_scooter", "name": "c11fcc465ba02710055be50b9a88e4b3", "is_reserved": 0, "lon": -77.0349505, "is_disabled": 0, "fusion_lat": 0.0, "lat": 38.932722, "bike_id": "c11fcc465ba02710055be50b9a88e4b3", "fusion_lon": 0.0}, {"rental_uris": {"ios": "https://dc.lft.to/lastmile_qr_scan", "android": "https://dc.lft.to/lastmile_qr_scan"}, "type": "electric_bike", "name": "9ba7b55246c8b3ef5be961ea2c621f51", "is_reserved": 0, "lon": -77.073864, "is_disabled": 0, "fusion_lat": 0.0, "lat": 38.91437716666667, "bike_id": "9ba7b55246c8b3ef5be961ea2c621f51", "fusion_lon": 0.0}, {"rental_uris": {"ios": "https://dc.lft.to/lastmile_qr_scan", "android": "https://dc.lft.to/lastmile_qr_scan"}, "type": "electric_scooter", "name": "95acf69cc592e1e419e4db98f878a9e6", "is_reserved": 0, "lon": -77.02500583333334, "is_disabled": 0, "fusion_lat": 0.0, "lat": 38.904223333333334, "bike_id": "95acf69cc592e1e419e4db98f878a9e6", "fusion_lon": 0.0}, {"rental_uris": {"ios": "https://dc.lft.to/lastmile_qr_scan", "android": "https://dc.lft.to/lastmile_qr_scan"}, "type": "electric_scooter", "name": "7a5a877317a2a5b804d41cc0f331bad4", "is_reserved": 0, "lon": -77.04754266666667, "is_disabled": 0, "fusion_lat": 0.0, "lat": 38.900902, "bike_id": "7a5a877317a2a5b804d41cc0f331bad4", "fusion_lon": 0.0}, {"rental_uris": {"ios": "https://dc.lft.to/lastmile_qr_scan", "android": "https://dc.lft.to/lastmile_qr_scan"}, "type": "electric_scooter", "name": "88f17c1616b4bdd02a46dd5f7712a75a", "is_reserved": 0, "lon": -77.015048, "is_disabled": 0, "fusion_lat": 0.0, "lat": 38.926670333333334, "bike_id": "88f17c1616b4bdd02a46dd5f7712a75a", "fusion_lon": 0.0}, {"rental_uris": {"ios": "https://dc.lft.to/lastmile_qr_scan", "android": "https://dc.lft.to/lastmile_qr_scan"}, "type": "electric_scooter", "name": "f328b910f0afd43ff2417afeb1b4b976", "is_reserved": 0, "lon": -76.986461, "is_disabled": 0, "fusion_lat": 0.0, "lat": 38.905364166666665, "bike_id": "f328b910f0afd43ff2417afeb1b4b976", "fusion_lon": 0.0}, {"rental_uris": {"ios": "https://dc.lft.to/lastmile_qr_scan", "android": "https://dc.lft.to/lastmile_qr_scan"}, "type": "electric_bike", "name": "8cb34e068cc5b522f192dfb8f24a35d5", "is_reserved": 0, "lon": -77.10624816666666, "is_disabled": 0, "fusion_lat": 0.0, "lat": 38.873269, "bike_id": "8cb34e068cc5b522f192dfb8f24a35d5", "fusion_lon": 0.0}, {"rental_uris": {"ios": "https://dc.lft.to/lastmile_qr_scan", "android": "https://dc.lft.to/lastmile_qr_scan"}, "type": "electric_scooter", "name": "bbe08307a0fdb07cae54de217accca7e", "is_reserved": 0, "lon": -77.02195333333333, "is_disabled": 0, "fusion_lat": 0.0, "lat": 38.91129983333333, "bike_id": "bbe08307a0fdb07cae54de217accca7e", "fusion_lon": 0.0}, {"rental_uris": {"ios": "https://dc.lft.to/lastmile_qr_scan", "android": "https://dc.lft.to/lastmile_qr_scan"}, "type": "electric_scooter", "name": "13e083b57ca7ba435317325c1de020dd", "is_reserved": 0, "lon": -77.03838633333334, "is_disabled": 0, "fusion_lat": 0.0, "lat": 38.91030116666667, "bike_id": "13e083b57ca7ba435317325c1de020dd", "fusion_lon": 0.0}, {"rental_uris": {"ios": "https://dc.lft.to/lastmile_qr_scan", "android": "https://dc.lft.to/lastmile_qr_scan"}, "type": "electric_scooter", "name": "4c59f5a2d2f45dcfb2975ca5b14b5a06", "is_reserved": 0, "lon": -76.923057, "is_disabled": 0, "fusion_lat": 0.0, "lat": 38.893831666666664, "bike_id": "4c59f5a2d2f45dcfb2975ca5b14b5a06", "fusion_lon": 0.0}, {"rental_uris": {"ios": "https://dc.lft.to/lastmile_qr_scan", "android": "https://dc.lft.to/lastmile_qr_scan"}, "type": "electric_scooter", "name": "ea661495cdad617c5a520a266acb0764", "is_reserved": 0, "lon": -77.00404383333333, "is_disabled": 0, "fusion_lat": 0.0, "lat": 38.879329, "bike_id": "ea661495cdad617c5a520a266acb0764", "fusion_lon": 0.0}, {"rental_uris": {"ios": "https://dc.lft.to/lastmile_qr_scan", "android": "https://dc.lft.to/lastmile_qr_scan"}, "type": "electric_scooter", "name": "0b4a1edb02ca642e8c48e63a36e82b64", "is_reserved": 0, "lon": -77.02711966666666, "is_disabled": 0, "fusion_lat": 0.0, "lat": 38.905206166666666, "bike_id": "0b4a1edb02ca642e8c48e63a36e82b64", "fusion_lon": 0.0}, {"rental_uris": {"ios": "https://dc.lft.to/lastmile_qr_scan", "android": "https://dc.lft.to/lastmile_qr_scan"}, "type": "electric_scooter", "name": "771a165a46e1ae82047a461bb8297e2b", "is_reserved": 0, "lon": -77.02466783333334, "is_disabled": 0, "fusion_lat": 0.0, "lat": 38.95775533333333, "bike_id": "771a165a46e1ae82047a461bb8297e2b", "fusion_lon": 0.0}, {"rental_uris": {"ios": "https://dc.lft.to/lastmile_qr_scan", "android": "https://dc.lft.to/lastmile_qr_scan"}, "type": "electric_scooter", "name": "27d82780a33b6d73a5011662004dd53c", "is_reserved": 0, "lon": -77.024474, "is_disabled": 0, "fusion_lat": 0.0, "lat": 38.949770666666666, "bike_id": "27d82780a33b6d73a5011662004dd53c", "fusion_lon": 0.0}, {"rental_uris": {"ios": "https://dc.lft.to/lastmile_qr_scan", "android": "https://dc.lft.to/lastmile_qr_scan"}, "type": "electric_scooter", "name": "4131c5654c7a7a52189f885e1aaa0393", "is_reserved": 0, "lon": -77.02032116666666, "is_disabled": 0, "fusion_lat": 0.0, "lat": 38.924403, "bike_id": "4131c5654c7a7a52189f885e1aaa0393", "fusion_lon": 0.0}, {"rental_uris": {"ios": "https://dc.lft.to/lastmile_qr_scan", "android": "https://dc.lft.to/lastmile_qr_scan"}, "type": "electric_scooter", "name": "a788b2a21211dd83ab5582a6ae3ffbbf", "is_reserved": 0, "lon": -76.99011683333333, "is_disabled": 0, "fusion_lat": 0.0, "lat": 38.8988215, "bike_id": "a788b2a21211dd83ab5582a6ae3ffbbf", "fusion_lon": 0.0}, {"rental_uris": {"ios": "https://dc.lft.to/lastmile_qr_scan", "android": "https://dc.lft.to/lastmile_qr_scan"}, "type": "electric_scooter", "name": "085b1cc43715f9621041f5e85c92e4d8", "is_reserved": 0, "lon": -76.983145, "is_disabled": 0, "fusion_lat": 0.0, "lat": 38.925880666666664, "bike_id": "085b1cc43715f9621041f5e85c92e4d8", "fusion_lon": 0.0}, {"rental_uris": {"ios": "https://dc.lft.to/lastmile_qr_scan", "android": "https://dc.lft.to/lastmile_qr_scan"}, "type": "electric_bike", "name": "1d38ae89737893c1fbae6ac6a5871bfa", "is_reserved": 0, "lon": -77.00726766666666, "is_disabled": 0, "fusion_lat": 0.0, "lat": 38.83239416666667, "bike_id": "1d38ae89737893c1fbae6ac6a5871bfa", "fusion_lon": 0.0}, {"rental_uris": {"ios": "https://dc.lft.to/lastmile_qr_scan", "android": "https://dc.lft.to/lastmile_qr_scan"}, "type": "electric_scooter", "name": "bce0e9280ffba78cd6c584a3213ac0bc", "is_reserved": 0, "lon": -77.023095, "is_disabled": 0, "fusion_lat": 0.0, "lat": 38.917695, "bike_id": "bce0e9280ffba78cd6c584a3213ac0bc", "fusion_lon": 0.0}, {"rental_uris": {"ios": "https://dc.lft.to/lastmile_qr_scan", "android": "https://dc.lft.to/lastmile_qr_scan"}, "type": "electric_scooter", "name": "429b51a88d6620d47a87ac75f195948e", "is_reserved": 0, "lon": -77.0366055, "is_disabled": 0, "fusion_lat": 0.0, "lat": 38.9171805, "bike_id": "429b51a88d6620d47a87ac75f195948e", "fusion_lon": 0.0}, {"rental_uris": {"ios": "https://dc.lft.to/lastmile_qr_scan", "android": "https://dc.lft.to/lastmile_qr_scan"}, "type": "electric_scooter", "name": "a7efa6c988e0722a03db7991afa0bffc", "is_reserved": 0, "lon": -77.026119, "is_disabled": 0, "fusion_lat": 0.0, "lat": 38.9518365, "bike_id": "a7efa6c988e0722a03db7991afa0bffc", "fusion_lon": 0.0}, {"rental_uris": {"ios": "https://dc.lft.to/lastmile_qr_scan", "android": "https://dc.lft.to/lastmile_qr_scan"}, "type": "electric_scooter", "name": "589e8ce9cdd385743df7d821e4fe9272", "is_reserved": 0, "lon": -77.02571533333334, "is_disabled": 0, "fusion_lat": 0.0, "lat": 38.887398166666664, "bike_id": "589e8ce9cdd385743df7d821e4fe9272", "fusion_lon": 0.0}, {"rental_uris": {"ios": "https://dc.lft.to/lastmile_qr_scan", "android": "https://dc.lft.to/lastmile_qr_scan"}, "type": "electric_scooter", "name": "914709e4c702fb40463a82cd85ec20aa", "is_reserved": 0, "lon": -77.0250255, "is_disabled": 0, "fusion_lat": 0.0, "lat": 38.9421035, "bike_id": "914709e4c702fb40463a82cd85ec20aa", "fusion_lon": 0.0}, {"rental_uris": {"ios": "https://dc.lft.to/lastmile_qr_scan", "android": "https://dc.lft.to/lastmile_qr_scan"}, "type": "electric_bike", "name": "ad7b2a1eb5105495e25f847ca4b3b7e0", "is_reserved": 0, "lon": -77.05512816666666, "is_disabled": 0, "fusion_lat": 0.0, "lat": 38.944076833333334, "bike_id": "ad7b2a1eb5105495e25f847ca4b3b7e0", "fusion_lon": 0.0}, {"rental_uris": {"ios": "https://dc.lft.to/lastmile_qr_scan", "android": "https://dc.lft.to/lastmile_qr_scan"}, "type": "electric_bike", "name": "d2b1d30cdcf74a11a7deede8a9a83b2b", "is_reserved": 0, "lon": -76.99918766666667, "is_disabled": 0, "fusion_lat": 0.0, "lat": 38.99469033333333, "bike_id": "d2b1d30cdcf74a11a7deede8a9a83b2b", "fusion_lon": 0.0}, {"rental_uris": {"ios": "https://dc.lft.to/lastmile_qr_scan", "android": "https://dc.lft.to/lastmile_qr_scan"}, "type": "electric_scooter", "name": "5f9ac54f4c2912f0f155c8fb2957a25b", "is_reserved": 0, "lon": -77.0277955, "is_disabled": 0, "fusion_lat": 0.0, "lat": 38.96236616666667, "bike_id": "5f9ac54f4c2912f0f155c8fb2957a25b", "fusion_lon": 0.0}, {"rental_uris": {"ios": "https://dc.lft.to/lastmile_qr_scan", "android": "https://dc.lft.to/lastmile_qr_scan"}, "type": "electric_scooter", "name": "699b17740b9352a272ddee552c3001f3", "is_reserved": 0, "lon": -77.0511945, "is_disabled": 0, "fusion_lat": 0.0, "lat": 38.92535383333333, "bike_id": "699b17740b9352a272ddee552c3001f3", "fusion_lon": 0.0}, {"rental_uris": {"ios": "https://dc.lft.to/lastmile_qr_scan", "android": "https://dc.lft.to/lastmile_qr_scan"}, "type": "electric_scooter", "name": "d6dd49d300b7dd36fa52e97e45c0c15d", "is_reserved": 0, "lon": -77.04682133333333, "is_disabled": 0, "fusion_lat": 0.0, "lat": 38.892215, "bike_id": "d6dd49d300b7dd36fa52e97e45c0c15d", "fusion_lon": 0.0}, {"rental_uris": {"ios": "https://dc.lft.to/lastmile_qr_scan", "android": "https://dc.lft.to/lastmile_qr_scan"}, "type": "electric_scooter", "name": "7e575cad6458e1d496f83d0d7e41d78c", "is_reserved": 0, "lon": -77.046764, "is_disabled": 0, "fusion_lat": 0.0, "lat": 38.892755666666666, "bike_id": "7e575cad6458e1d496f83d0d7e41d78c", "fusion_lon": 0.0}, {"rental_uris": {"ios": "https://dc.lft.to/lastmile_qr_scan", "android": "https://dc.lft.to/lastmile_qr_scan"}, "type": "electric_scooter", "name": "85c2d995667155e1e079da8618fe3d7c", "is_reserved": 0, "lon": -77.03957983333333, "is_disabled": 0, "fusion_lat": 0.0, "lat": 38.89241533333333, "bike_id": "85c2d995667155e1e079da8618fe3d7c", "fusion_lon": 0.0}, {"rental_uris": {"ios": "https://dc.lft.to/lastmile_qr_scan", "android": "https://dc.lft.to/lastmile_qr_scan"}, "type": "electric_scooter", "name": "ea3815417ce15ed4a04dcf59769be67a", "is_reserved": 0, "lon": -77.003776, "is_disabled": 0, "fusion_lat": 0.0, "lat": 38.940632666666666, "bike_id": "ea3815417ce15ed4a04dcf59769be67a", "fusion_lon": 0.0}, {"rental_uris": {"ios": "https://dc.lft.to/lastmile_qr_scan", "android": "https://dc.lft.to/lastmile_qr_scan"}, "type": "electric_scooter", "name": "0c93584c187dc39f8825a1a9493e419b", "is_reserved": 0, "lon": -77.034435, "is_disabled": 0, "fusion_lat": 0.0, "lat": 38.917941666666664, "bike_id": "0c93584c187dc39f8825a1a9493e419b", "fusion_lon": 0.0}, {"rental_uris": {"ios": "https://dc.lft.to/lastmile_qr_scan", "android": "https://dc.lft.to/lastmile_qr_scan"}, "type": "electric_scooter", "name": "1e68959419c2ea7e51b39783eff99913", "is_reserved": 0, "lon": -77.02939866666667, "is_disabled": 0, "fusion_lat": 0.0, "lat": 38.907058, "bike_id": "1e68959419c2ea7e51b39783eff99913", "fusion_lon": 0.0}, {"rental_uris": {"ios": "https://dc.lft.to/lastmile_qr_scan", "android": "https://dc.lft.to/lastmile_qr_scan"}, "type": "electric_scooter", "name": "a64cfb0e14e5ee2fff03a4dffae4de0d", "is_reserved": 0, "lon": -77.0467615, "is_disabled": 0, "fusion_lat": 0.0, "lat": 38.905465666666665, "bike_id": "a64cfb0e14e5ee2fff03a4dffae4de0d", "fusion_lon": 0.0}, {"rental_uris": {"ios": "https://dc.lft.to/lastmile_qr_scan", "android": "https://dc.lft.to/lastmile_qr_scan"}, "type": "electric_scooter", "name": "e3886f7825e859d984f90e5f8be807e4", "is_reserved": 0, "lon": -77.0447055, "is_disabled": 0, "fusion_lat": 0.0, "lat": 38.92285016666666, "bike_id": "e3886f7825e859d984f90e5f8be807e4", "fusion_lon": 0.0}, {"rental_uris": {"ios": "https://dc.lft.to/lastmile_qr_scan", "android": "https://dc.lft.to/lastmile_qr_scan"}, "type": "electric_scooter", "name": "cee1ae4b0d6d20cce9f2619267f3f6b0", "is_reserved": 0, "lon": -77.066044, "is_disabled": 0, "fusion_lat": 0.0, "lat": 38.911005, "bike_id": "cee1ae4b0d6d20cce9f2619267f3f6b0", "fusion_lon": 0.0}, {"rental_uris": {"ios": "https://dc.lft.to/lastmile_qr_scan", "android": "https://dc.lft.to/lastmile_qr_scan"}, "type": "electric_scooter", "name": "a803ce268685ecfecb57023a39995595", "is_reserved": 0, "lon": -77.019208, "is_disabled": 0, "fusion_lat": 0.0, "lat": 38.899792166666664, "bike_id": "a803ce268685ecfecb57023a39995595", "fusion_lon": 0.0}, {"rental_uris": {"ios": "https://dc.lft.to/lastmile_qr_scan", "android": "https://dc.lft.to/lastmile_qr_scan"}, "type": "electric_scooter", "name": "a8d94b4e15c88c873aa09973fe5fae39", "is_reserved": 0, "lon": -76.99032633333333, "is_disabled": 0, "fusion_lat": 0.0, "lat": 38.898508166666666, "bike_id": "a8d94b4e15c88c873aa09973fe5fae39", "fusion_lon": 0.0}, {"rental_uris": {"ios": "https://dc.lft.to/lastmile_qr_scan", "android": "https://dc.lft.to/lastmile_qr_scan"}, "type": "electric_scooter", "name": "1c3752deaaf44cc4b4ad0ed3fe35a08d", "is_reserved": 0, "lon": -77.01768916666667, "is_disabled": 0, "fusion_lat": 0.0, "lat": 38.887259, "bike_id": "1c3752deaaf44cc4b4ad0ed3fe35a08d", "fusion_lon": 0.0}, {"rental_uris": {"ios": "https://dc.lft.to/lastmile_qr_scan", "android": "https://dc.lft.to/lastmile_qr_scan"}, "type": "electric_scooter", "name": "a9a65f930bae8bae0fc1349855856c1f", "is_reserved": 0, "lon": -77.048308, "is_disabled": 0, "fusion_lat": 0.0, "lat": 38.92110483333333, "bike_id": "a9a65f930bae8bae0fc1349855856c1f", "fusion_lon": 0.0}, {"rental_uris": {"ios": "https://dc.lft.to/lastmile_qr_scan", "android": "https://dc.lft.to/lastmile_qr_scan"}, "type": "electric_scooter", "name": "e03569f128bd5cf02e14067c3862878f", "is_reserved": 0, "lon": -77.03260433333334, "is_disabled": 0, "fusion_lat": 0.0, "lat": 38.939785, "bike_id": "e03569f128bd5cf02e14067c3862878f", "fusion_lon": 0.0}, {"rental_uris": {"ios": "https://dc.lft.to/lastmile_qr_scan", "android": "https://dc.lft.to/lastmile_qr_scan"}, "type": "electric_scooter", "name": "0beadcc8ac65be00be6eb05e68615aae", "is_reserved": 0, "lon": -77.02720733333334, "is_disabled": 0, "fusion_lat": 0.0, "lat": 38.9247885, "bike_id": "0beadcc8ac65be00be6eb05e68615aae", "fusion_lon": 0.0}, {"rental_uris": {"ios": "https://dc.lft.to/lastmile_qr_scan", "android": "https://dc.lft.to/lastmile_qr_scan"}, "type": "electric_scooter", "name": "96b02ea846db53aed8d5776dc4d67706", "is_reserved": 0, "lon": -77.04852683333333, "is_disabled": 0, "fusion_lat": 0.0, "lat": 38.904422, "bike_id": "96b02ea846db53aed8d5776dc4d67706", "fusion_lon": 0.0}, {"rental_uris": {"ios": "https://dc.lft.to/lastmile_qr_scan", "android": "https://dc.lft.to/lastmile_qr_scan"}, "type": "electric_bike", "name": "28d4e08522bb6bf1bafc1a6f29306a21", "is_reserved": 0, "lon": -76.94975183333334, "is_disabled": 0, "fusion_lat": 0.0, "lat": 38.882962166666665, "bike_id": "28d4e08522bb6bf1bafc1a6f29306a21", "fusion_lon": 0.0}, {"rental_uris": {"ios": "https://dc.lft.to/lastmile_qr_scan", "android": "https://dc.lft.to/lastmile_qr_scan"}, "type": "electric_scooter", "name": "bb5dbfed83e3d69a243669f902c2dedf", "is_reserved": 0, "lon": -77.00502333333333, "is_disabled": 0, "fusion_lat": 0.0, "lat": 38.94404633333333, "bike_id": "bb5dbfed83e3d69a243669f902c2dedf", "fusion_lon": 0.0}, {"rental_uris": {"ios": "https://dc.lft.to/lastmile_qr_scan", "android": "https://dc.lft.to/lastmile_qr_scan"}, "type": "electric_scooter", "name": "1f0de8787a0aefd1805f5339b278886f", "is_reserved": 0, "lon": -77.02145733333333, "is_disabled": 0, "fusion_lat": 0.0, "lat": 38.91911233333333, "bike_id": "1f0de8787a0aefd1805f5339b278886f", "fusion_lon": 0.0}, {"rental_uris": {"ios": "https://dc.lft.to/lastmile_qr_scan", "android": "https://dc.lft.to/lastmile_qr_scan"}, "type": "electric_scooter", "name": "20882c6b8133cf8907a1f2dfba557ab9", "is_reserved": 0, "lon": -77.03866083333334, "is_disabled": 0, "fusion_lat": 0.0, "lat": 38.932475, "bike_id": "20882c6b8133cf8907a1f2dfba557ab9", "fusion_lon": 0.0}, {"rental_uris": {"ios": "https://dc.lft.to/lastmile_qr_scan", "android": "https://dc.lft.to/lastmile_qr_scan"}, "type": "electric_scooter", "name": "27dcb02c7ea332c9665bb173dc6b3d30", "is_reserved": 0, "lon": -77.00408616666667, "is_disabled": 0, "fusion_lat": 0.0, "lat": 38.905698666666666, "bike_id": "27dcb02c7ea332c9665bb173dc6b3d30", "fusion_lon": 0.0}, {"rental_uris": {"ios": "https://dc.lft.to/lastmile_qr_scan", "android": "https://dc.lft.to/lastmile_qr_scan"}, "type": "electric_scooter", "name": "35fef4aa67e303eaceef5c5f5445b50a", "is_reserved": 0, "lon": -77.02695966666667, "is_disabled": 0, "fusion_lat": 0.0, "lat": 38.923282, "bike_id": "35fef4aa67e303eaceef5c5f5445b50a", "fusion_lon": 0.0}, {"rental_uris": {"ios": "https://dc.lft.to/lastmile_qr_scan", "android": "https://dc.lft.to/lastmile_qr_scan"}, "type": "electric_scooter", "name": "6ddf77e0a021124e1cfa4d8109ecb1ab", "is_reserved": 0, "lon": -77.05059266666666, "is_disabled": 0, "fusion_lat": 0.0, "lat": 38.900886666666665, "bike_id": "6ddf77e0a021124e1cfa4d8109ecb1ab", "fusion_lon": 0.0}, {"rental_uris": {"ios": "https://dc.lft.to/lastmile_qr_scan", "android": "https://dc.lft.to/lastmile_qr_scan"}, "type": "electric_scooter", "name": "4d45d59d6aaf34dc99a8f82ef30ad5f4", "is_reserved": 0, "lon": -77.04738316666666, "is_disabled": 0, "fusion_lat": 0.0, "lat": 38.90853633333333, "bike_id": "4d45d59d6aaf34dc99a8f82ef30ad5f4", "fusion_lon": 0.0}, {"rental_uris": {"ios": "https://dc.lft.to/lastmile_qr_scan", "android": "https://dc.lft.to/lastmile_qr_scan"}, "type": "electric_scooter", "name": "1372330ce020b5031fdc16bc5dcf9a5c", "is_reserved": 0, "lon": -76.97938083333334, "is_disabled": 0, "fusion_lat": 0.0, "lat": 38.90656633333333, "bike_id": "1372330ce020b5031fdc16bc5dcf9a5c", "fusion_lon": 0.0}, {"rental_uris": {"ios": "https://dc.lft.to/lastmile_qr_scan", "android": "https://dc.lft.to/lastmile_qr_scan"}, "type": "electric_scooter", "name": "381f2e7962bb03724165caa49098a9df", "is_reserved": 0, "lon": -77.02697583333334, "is_disabled": 0, "fusion_lat": 0.0, "lat": 38.917954333333334, "bike_id": "381f2e7962bb03724165caa49098a9df", "fusion_lon": 0.0}, {"rental_uris": {"ios": "https://dc.lft.to/lastmile_qr_scan", "android": "https://dc.lft.to/lastmile_qr_scan"}, "type": "electric_scooter", "name": "de57ab558162c038a7d7e2939d6cce13", "is_reserved": 0, "lon": -77.03657433333333, "is_disabled": 0, "fusion_lat": 0.0, "lat": 38.9228375, "bike_id": "de57ab558162c038a7d7e2939d6cce13", "fusion_lon": 0.0}, {"rental_uris": {"ios": "https://dc.lft.to/lastmile_qr_scan", "android": "https://dc.lft.to/lastmile_qr_scan"}, "type": "electric_scooter", "name": "1a30e2cd4e2a6ae772a40ffa8803b207", "is_reserved": 0, "lon": -77.02206583333333, "is_disabled": 0, "fusion_lat": 0.0, "lat": 38.89503933333334, "bike_id": "1a30e2cd4e2a6ae772a40ffa8803b207", "fusion_lon": 0.0}, {"rental_uris": {"ios": "https://dc.lft.to/lastmile_qr_scan", "android": "https://dc.lft.to/lastmile_qr_scan"}, "type": "electric_bike", "name": "4c3eebc4c251814a588eaed32cdc2c25", "is_reserved": 0, "lon": -77.00137366666667, "is_disabled": 0, "fusion_lat": 0.0, "lat": 38.995028833333336, "bike_id": "4c3eebc4c251814a588eaed32cdc2c25", "fusion_lon": 0.0}, {"rental_uris": {"ios": "https://dc.lft.to/lastmile_qr_scan", "android": "https://dc.lft.to/lastmile_qr_scan"}, "type": "electric_scooter", "name": "4f3f53a42afb53b15df531267eef7def", "is_reserved": 0, "lon": -77.052134, "is_disabled": 0, "fusion_lat": 0.0, "lat": 38.90011116666667, "bike_id": "4f3f53a42afb53b15df531267eef7def", "fusion_lon": 0.0}, {"rental_uris": {"ios": "https://dc.lft.to/lastmile_qr_scan", "android": "https://dc.lft.to/lastmile_qr_scan"}, "type": "electric_scooter", "name": "7e72efdd8f389a69ecd31c93b0111329", "is_reserved": 0, "lon": -77.009239, "is_disabled": 0, "fusion_lat": 0.0, "lat": 38.89893216666667, "bike_id": "7e72efdd8f389a69ecd31c93b0111329", "fusion_lon": 0.0}, {"rental_uris": {"ios": "https://dc.lft.to/lastmile_qr_scan", "android": "https://dc.lft.to/lastmile_qr_scan"}, "type": "electric_scooter", "name": "b6a54ed5659a159a7c5b528e3738172c", "is_reserved": 0, "lon": -77.0075695, "is_disabled": 0, "fusion_lat": 0.0, "lat": 38.925233666666664, "bike_id": "b6a54ed5659a159a7c5b528e3738172c", "fusion_lon": 0.0}, {"rental_uris": {"ios": "https://dc.lft.to/lastmile_qr_scan", "android": "https://dc.lft.to/lastmile_qr_scan"}, "type": "electric_scooter", "name": "bee1fde31224ef8712c7a262b627c82b", "is_reserved": 0, "lon": -77.0647675, "is_disabled": 0, "fusion_lat": 0.0, "lat": 38.91028283333333, "bike_id": "bee1fde31224ef8712c7a262b627c82b", "fusion_lon": 0.0}, {"rental_uris": {"ios": "https://dc.lft.to/lastmile_qr_scan", "android": "https://dc.lft.to/lastmile_qr_scan"}, "type": "electric_scooter", "name": "9d5cdbf1df9f2648690eb5f526435788", "is_reserved": 0, "lon": -77.03942383333333, "is_disabled": 0, "fusion_lat": 0.0, "lat": 38.90812366666667, "bike_id": "9d5cdbf1df9f2648690eb5f526435788", "fusion_lon": 0.0}, {"rental_uris": {"ios": "https://dc.lft.to/lastmile_qr_scan", "android": "https://dc.lft.to/lastmile_qr_scan"}, "type": "electric_scooter", "name": "8b292c675cedc2bf97498300a2eb46df", "is_reserved": 0, "lon": -77.04505483333334, "is_disabled": 0, "fusion_lat": 0.0, "lat": 38.91411683333333, "bike_id": "8b292c675cedc2bf97498300a2eb46df", "fusion_lon": 0.0}, {"rental_uris": {"ios": "https://dc.lft.to/lastmile_qr_scan", "android": "https://dc.lft.to/lastmile_qr_scan"}, "type": "electric_scooter", "name": "93f557fde1241d4b18c32dec3b924740", "is_reserved": 0, "lon": -76.92988016666666, "is_disabled": 0, "fusion_lat": 0.0, "lat": 38.89291766666667, "bike_id": "93f557fde1241d4b18c32dec3b924740", "fusion_lon": 0.0}, {"rental_uris": {"ios": "https://dc.lft.to/lastmile_qr_scan", "android": "https://dc.lft.to/lastmile_qr_scan"}, "type": "electric_scooter", "name": "56ada742ef61ac88aa29d6bda062af54", "is_reserved": 0, "lon": -77.00679966666667, "is_disabled": 0, "fusion_lat": 0.0, "lat": 38.90018666666667, "bike_id": "56ada742ef61ac88aa29d6bda062af54", "fusion_lon": 0.0}, {"rental_uris": {"ios": "https://dc.lft.to/lastmile_qr_scan", "android": "https://dc.lft.to/lastmile_qr_scan"}, "type": "electric_scooter", "name": "1fb79f5f7f899820aaaff0b78186ad82", "is_reserved": 0, "lon": -77.05054933333334, "is_disabled": 0, "fusion_lat": 0.0, "lat": 38.925831, "bike_id": "1fb79f5f7f899820aaaff0b78186ad82", "fusion_lon": 0.0}, {"rental_uris": {"ios": "https://dc.lft.to/lastmile_qr_scan", "android": "https://dc.lft.to/lastmile_qr_scan"}, "type": "electric_scooter", "name": "8e29fb87298d0e50d01fac5736b4eee2", "is_reserved": 0, "lon": -77.02215966666667, "is_disabled": 0, "fusion_lat": 0.0, "lat": 38.924721166666664, "bike_id": "8e29fb87298d0e50d01fac5736b4eee2", "fusion_lon": 0.0}, {"rental_uris": {"ios": "https://dc.lft.to/lastmile_qr_scan", "android": "https://dc.lft.to/lastmile_qr_scan"}, "type": "electric_scooter", "name": "7c0ae8a3f8aa57880fa31e033d38c5bc", "is_reserved": 0, "lon": -77.036366, "is_disabled": 0, "fusion_lat": 0.0, "lat": 38.9243725, "bike_id": "7c0ae8a3f8aa57880fa31e033d38c5bc", "fusion_lon": 0.0}, {"rental_uris": {"ios": "https://dc.lft.to/lastmile_qr_scan", "android": "https://dc.lft.to/lastmile_qr_scan"}, "type": "electric_scooter", "name": "6f2dbb69fc7b219128a3af6bc992db2d", "is_reserved": 0, "lon": -76.97409333333333, "is_disabled": 0, "fusion_lat": 0.0, "lat": 38.9013835, "bike_id": "6f2dbb69fc7b219128a3af6bc992db2d", "fusion_lon": 0.0}, {"rental_uris": {"ios": "https://dc.lft.to/lastmile_qr_scan", "android": "https://dc.lft.to/lastmile_qr_scan"}, "type": "electric_scooter", "name": "bddf247a287012c5efa77c4adab64f80", "is_reserved": 0, "lon": -77.00946266666666, "is_disabled": 0, "fusion_lat": 0.0, "lat": 38.894928166666666, "bike_id": "bddf247a287012c5efa77c4adab64f80", "fusion_lon": 0.0}, {"rental_uris": {"ios": "https://dc.lft.to/lastmile_qr_scan", "android": "https://dc.lft.to/lastmile_qr_scan"}, "type": "electric_scooter", "name": "572262429bc2ddc6f1111db7c057438f", "is_reserved": 0, "lon": -77.0385, "is_disabled": 0, "fusion_lat": 0.0, "lat": 38.93126733333333, "bike_id": "572262429bc2ddc6f1111db7c057438f", "fusion_lon": 0.0}, {"rental_uris": {"ios": "https://dc.lft.to/lastmile_qr_scan", "android": "https://dc.lft.to/lastmile_qr_scan"}, "type": "electric_scooter", "name": "39ec5f82c4b19a491e573710cef0ded8", "is_reserved": 0, "lon": -77.02735766666666, "is_disabled": 0, "fusion_lat": 0.0, "lat": 38.905645, "bike_id": "39ec5f82c4b19a491e573710cef0ded8", "fusion_lon": 0.0}, {"rental_uris": {"ios": "https://dc.lft.to/lastmile_qr_scan", "android": "https://dc.lft.to/lastmile_qr_scan"}, "type": "electric_scooter", "name": "aafdf3c38cfc91b517b9d1758c41c1a0", "is_reserved": 0, "lon": -77.0226035, "is_disabled": 0, "fusion_lat": 0.0, "lat": 38.92822533333333, "bike_id": "aafdf3c38cfc91b517b9d1758c41c1a0", "fusion_lon": 0.0}, {"rental_uris": {"ios": "https://dc.lft.to/lastmile_qr_scan", "android": "https://dc.lft.to/lastmile_qr_scan"}, "type": "electric_scooter", "name": "d62d4a62c8fc300f7ee26f1a74f765d9", "is_reserved": 0, "lon": -77.027001, "is_disabled": 0, "fusion_lat": 0.0, "lat": 38.918000166666666, "bike_id": "d62d4a62c8fc300f7ee26f1a74f765d9", "fusion_lon": 0.0}, {"rental_uris": {"ios": "https://dc.lft.to/lastmile_qr_scan", "android": "https://dc.lft.to/lastmile_qr_scan"}, "type": "electric_scooter", "name": "297301350b10024075aa9d570b4055bb", "is_reserved": 0, "lon": -77.05022216666667, "is_disabled": 0, "fusion_lat": 0.0, "lat": 38.92354733333333, "bike_id": "297301350b10024075aa9d570b4055bb", "fusion_lon": 0.0}, {"rental_uris": {"ios": "https://dc.lft.to/lastmile_qr_scan", "android": "https://dc.lft.to/lastmile_qr_scan"}, "type": "electric_scooter", "name": "c16b1425be18436850eaae908d638134", "is_reserved": 0, "lon": -77.05477233333333, "is_disabled": 0, "fusion_lat": 0.0, "lat": 38.897261, "bike_id": "c16b1425be18436850eaae908d638134", "fusion_lon": 0.0}, {"rental_uris": {"ios": "https://dc.lft.to/lastmile_qr_scan", "android": "https://dc.lft.to/lastmile_qr_scan"}, "type": "electric_scooter", "name": "82ec7a19bae185a0391b8a13941d5019", "is_reserved": 0, "lon": -77.0112755, "is_disabled": 0, "fusion_lat": 0.0, "lat": 38.916177166666664, "bike_id": "82ec7a19bae185a0391b8a13941d5019", "fusion_lon": 0.0}, {"rental_uris": {"ios": "https://dc.lft.to/lastmile_qr_scan", "android": "https://dc.lft.to/lastmile_qr_scan"}, "type": "electric_scooter", "name": "f7055afe84bd2d15ff8601bb6e35382e", "is_reserved": 0, "lon": -77.049856, "is_disabled": 0, "fusion_lat": 0.0, "lat": 38.901171, "bike_id": "f7055afe84bd2d15ff8601bb6e35382e", "fusion_lon": 0.0}, {"rental_uris": {"ios": "https://dc.lft.to/lastmile_qr_scan", "android": "https://dc.lft.to/lastmile_qr_scan"}, "type": "electric_scooter", "name": "43ca43d3f24fb5fb9186822c8c8e9807", "is_reserved": 0, "lon": -77.02307333333333, "is_disabled": 0, "fusion_lat": 0.0, "lat": 38.96126433333333, "bike_id": "43ca43d3f24fb5fb9186822c8c8e9807", "fusion_lon": 0.0}, {"rental_uris": {"ios": "https://dc.lft.to/lastmile_qr_scan", "android": "https://dc.lft.to/lastmile_qr_scan"}, "type": "electric_scooter", "name": "e0f6149043a16b34ea268d9b706f6013", "is_reserved": 0, "lon": -77.0316715, "is_disabled": 0, "fusion_lat": 0.0, "lat": 38.92001833333333, "bike_id": "e0f6149043a16b34ea268d9b706f6013", "fusion_lon": 0.0}, {"rental_uris": {"ios": "https://dc.lft.to/lastmile_qr_scan", "android": "https://dc.lft.to/lastmile_qr_scan"}, "type": "electric_bike", "name": "f18f4477a84e70a40ef24a54680a86ac", "is_reserved": 0, "lon": -77.028162, "is_disabled": 0, "fusion_lat": 0.0, "lat": 38.9652885, "bike_id": "f18f4477a84e70a40ef24a54680a86ac", "fusion_lon": 0.0}, {"rental_uris": {"ios": "https://dc.lft.to/lastmile_qr_scan", "android": "https://dc.lft.to/lastmile_qr_scan"}, "type": "electric_scooter", "name": "cd28a3a3d8c7dc30bc31154f85bcfc60", "is_reserved": 0, "lon": -77.02503066666667, "is_disabled": 0, "fusion_lat": 0.0, "lat": 38.92071033333333, "bike_id": "cd28a3a3d8c7dc30bc31154f85bcfc60", "fusion_lon": 0.0}, {"rental_uris": {"ios": "https://dc.lft.to/lastmile_qr_scan", "android": "https://dc.lft.to/lastmile_qr_scan"}, "type": "electric_scooter", "name": "79569fd50eb41989b3f1b4b94d50843a", "is_reserved": 0, "lon": -77.00699166666666, "is_disabled": 0, "fusion_lat": 0.0, "lat": 38.90564633333334, "bike_id": "79569fd50eb41989b3f1b4b94d50843a", "fusion_lon": 0.0}, {"rental_uris": {"ios": "https://dc.lft.to/lastmile_qr_scan", "android": "https://dc.lft.to/lastmile_qr_scan"}, "type": "electric_scooter", "name": "7f156206038df7b4bd901dc4d78129d8", "is_reserved": 0, "lon": -77.02284483333334, "is_disabled": 0, "fusion_lat": 0.0, "lat": 38.907902666666665, "bike_id": "7f156206038df7b4bd901dc4d78129d8", "fusion_lon": 0.0}, {"rental_uris": {"ios": "https://dc.lft.to/lastmile_qr_scan", "android": "https://dc.lft.to/lastmile_qr_scan"}, "type": "electric_scooter", "name": "515e488e827d3ae1285230c0421308c4", "is_reserved": 0, "lon": -77.021967, "is_disabled": 0, "fusion_lat": 0.0, "lat": 38.9112595, "bike_id": "515e488e827d3ae1285230c0421308c4", "fusion_lon": 0.0}, {"rental_uris": {"ios": "https://dc.lft.to/lastmile_qr_scan", "android": "https://dc.lft.to/lastmile_qr_scan"}, "type": "electric_scooter", "name": "13dced9ae64876d8adef7b00cdbae42f", "is_reserved": 0, "lon": -77.0271895, "is_disabled": 0, "fusion_lat": 0.0, "lat": 38.91214333333333, "bike_id": "13dced9ae64876d8adef7b00cdbae42f", "fusion_lon": 0.0}, {"rental_uris": {"ios": "https://dc.lft.to/lastmile_qr_scan", "android": "https://dc.lft.to/lastmile_qr_scan"}, "type": "electric_scooter", "name": "18c12309d270355c764d8f30447e0df7", "is_reserved": 0, "lon": -77.04134483333333, "is_disabled": 0, "fusion_lat": 0.0, "lat": 38.93462383333333, "bike_id": "18c12309d270355c764d8f30447e0df7", "fusion_lon": 0.0}, {"rental_uris": {"ios": "https://dc.lft.to/lastmile_qr_scan", "android": "https://dc.lft.to/lastmile_qr_scan"}, "type": "electric_scooter", "name": "8f3e3174f15825a52f5fb2d3b13723e9", "is_reserved": 0, "lon": -77.0340435, "is_disabled": 0, "fusion_lat": 0.0, "lat": 38.91973216666667, "bike_id": "8f3e3174f15825a52f5fb2d3b13723e9", "fusion_lon": 0.0}, {"rental_uris": {"ios": "https://dc.lft.to/lastmile_qr_scan", "android": "https://dc.lft.to/lastmile_qr_scan"}, "type": "electric_scooter", "name": "901015c3f172c96505086f1764fb7b95", "is_reserved": 0, "lon": -77.0531785, "is_disabled": 0, "fusion_lat": 0.0, "lat": 38.90266466666667, "bike_id": "901015c3f172c96505086f1764fb7b95", "fusion_lon": 0.0}, {"rental_uris": {"ios": "https://dc.lft.to/lastmile_qr_scan", "android": "https://dc.lft.to/lastmile_qr_scan"}, "type": "electric_bike", "name": "8284a75fb670a86194e44e0d96435bb1", "is_reserved": 0, "lon": -77.0442405, "is_disabled": 0, "fusion_lat": 0.0, "lat": 39.01564, "bike_id": "8284a75fb670a86194e44e0d96435bb1", "fusion_lon": 0.0}, {"rental_uris": {"ios": "https://dc.lft.to/lastmile_qr_scan", "android": "https://dc.lft.to/lastmile_qr_scan"}, "type": "electric_bike", "name": "4edb565eb9744fa81136658d62af5fb5", "is_reserved": 0, "lon": -77.12739483333333, "is_disabled": 0, "fusion_lat": 0.0, "lat": 38.89565266666666, "bike_id": "4edb565eb9744fa81136658d62af5fb5", "fusion_lon": 0.0}, {"rental_uris": {"ios": "https://dc.lft.to/lastmile_qr_scan", "android": "https://dc.lft.to/lastmile_qr_scan"}, "type": "electric_scooter", "name": "f27962d6fbd25400fd6b58a50a0c761b", "is_reserved": 0, "lon": -76.99628033333333, "is_disabled": 0, "fusion_lat": 0.0, "lat": 38.89181933333333, "bike_id": "f27962d6fbd25400fd6b58a50a0c761b", "fusion_lon": 0.0}, {"rental_uris": {"ios": "https://dc.lft.to/lastmile_qr_scan", "android": "https://dc.lft.to/lastmile_qr_scan"}, "type": "electric_bike", "name": "6434ed3867ee36bd92f05cbe3a797e6a", "is_reserved": 0, "lon": -77.09623316666666, "is_disabled": 0, "fusion_lat": 0.0, "lat": 38.9524615, "bike_id": "6434ed3867ee36bd92f05cbe3a797e6a", "fusion_lon": 0.0}, {"rental_uris": {"ios": "https://dc.lft.to/lastmile_qr_scan", "android": "https://dc.lft.to/lastmile_qr_scan"}, "type": "electric_scooter", "name": "fb423b710eec9f1d51e312ad8955b31b", "is_reserved": 0, "lon": -77.02290766666667, "is_disabled": 0, "fusion_lat": 0.0, "lat": 38.90745883333334, "bike_id": "fb423b710eec9f1d51e312ad8955b31b", "fusion_lon": 0.0}, {"rental_uris": {"ios": "https://dc.lft.to/lastmile_qr_scan", "android": "https://dc.lft.to/lastmile_qr_scan"}, "type": "electric_scooter", "name": "f7733c7f358a0ec442cecd5f390315c7", "is_reserved": 0, "lon": -77.00995816666666, "is_disabled": 0, "fusion_lat": 0.0, "lat": 38.91119833333333, "bike_id": "f7733c7f358a0ec442cecd5f390315c7", "fusion_lon": 0.0}, {"rental_uris": {"ios": "https://dc.lft.to/lastmile_qr_scan", "android": "https://dc.lft.to/lastmile_qr_scan"}, "type": "electric_scooter", "name": "aac3de2057a488c56933f03ae5ed0bc6", "is_reserved": 0, "lon": -77.03709266666667, "is_disabled": 0, "fusion_lat": 0.0, "lat": 38.92650016666666, "bike_id": "aac3de2057a488c56933f03ae5ed0bc6", "fusion_lon": 0.0}, {"rental_uris": {"ios": "https://dc.lft.to/lastmile_qr_scan", "android": "https://dc.lft.to/lastmile_qr_scan"}, "type": "electric_scooter", "name": "6b2d9a6208af21b1bd59d014a4d0867a", "is_reserved": 0, "lon": -77.03335383333334, "is_disabled": 0, "fusion_lat": 0.0, "lat": 38.89218916666667, "bike_id": "6b2d9a6208af21b1bd59d014a4d0867a", "fusion_lon": 0.0}, {"rental_uris": {"ios": "https://dc.lft.to/lastmile_qr_scan", "android": "https://dc.lft.to/lastmile_qr_scan"}, "type": "electric_scooter", "name": "a5d64843f6645de1a1558b775d6768ca", "is_reserved": 0, "lon": -77.00053516666667, "is_disabled": 0, "fusion_lat": 0.0, "lat": 38.92329383333333, "bike_id": "a5d64843f6645de1a1558b775d6768ca", "fusion_lon": 0.0}, {"rental_uris": {"ios": "https://dc.lft.to/lastmile_qr_scan", "android": "https://dc.lft.to/lastmile_qr_scan"}, "type": "electric_scooter", "name": "cab68041968e0f44cbbb57bd82d6c80f", "is_reserved": 0, "lon": -77.02691566666667, "is_disabled": 0, "fusion_lat": 0.0, "lat": 38.949788166666664, "bike_id": "cab68041968e0f44cbbb57bd82d6c80f", "fusion_lon": 0.0}, {"rental_uris": {"ios": "https://dc.lft.to/lastmile_qr_scan", "android": "https://dc.lft.to/lastmile_qr_scan"}, "type": "electric_scooter", "name": "866e22ea62854bb3c548e77e91186c16", "is_reserved": 0, "lon": -77.01999866666667, "is_disabled": 0, "fusion_lat": 0.0, "lat": 38.901453833333335, "bike_id": "866e22ea62854bb3c548e77e91186c16", "fusion_lon": 0.0}, {"rental_uris": {"ios": "https://dc.lft.to/lastmile_qr_scan", "android": "https://dc.lft.to/lastmile_qr_scan"}, "type": "electric_scooter", "name": "7b7963e1d3fb51c7e5d0ca74c4e3c295", "is_reserved": 0, "lon": -77.0259115, "is_disabled": 0, "fusion_lat": 0.0, "lat": 38.92035966666667, "bike_id": "7b7963e1d3fb51c7e5d0ca74c4e3c295", "fusion_lon": 0.0}, {"rental_uris": {"ios": "https://dc.lft.to/lastmile_qr_scan", "android": "https://dc.lft.to/lastmile_qr_scan"}, "type": "electric_scooter", "name": "314478ddd358c13975ab86f553f4234c", "is_reserved": 0, "lon": -77.06548633333334, "is_disabled": 0, "fusion_lat": 0.0, "lat": 38.905167166666665, "bike_id": "314478ddd358c13975ab86f553f4234c", "fusion_lon": 0.0}, {"rental_uris": {"ios": "https://dc.lft.to/lastmile_qr_scan", "android": "https://dc.lft.to/lastmile_qr_scan"}, "type": "electric_scooter", "name": "81fda362c2158464de6e72dee549fbd9", "is_reserved": 0, "lon": -77.05022016666666, "is_disabled": 0, "fusion_lat": 0.0, "lat": 38.910478499999996, "bike_id": "81fda362c2158464de6e72dee549fbd9", "fusion_lon": 0.0}, {"rental_uris": {"ios": "https://dc.lft.to/lastmile_qr_scan", "android": "https://dc.lft.to/lastmile_qr_scan"}, "type": "electric_scooter", "name": "cb4239f3cdd3c6d5065da2f86996dfb7", "is_reserved": 0, "lon": -77.01752, "is_disabled": 0, "fusion_lat": 0.0, "lat": 38.883197, "bike_id": "cb4239f3cdd3c6d5065da2f86996dfb7", "fusion_lon": 0.0}, {"rental_uris": {"ios": "https://dc.lft.to/lastmile_qr_scan", "android": "https://dc.lft.to/lastmile_qr_scan"}, "type": "electric_scooter", "name": "68494304fe62d29bbf181c74cc031c05", "is_reserved": 0, "lon": -76.92649116666666, "is_disabled": 0, "fusion_lat": 0.0, "lat": 38.883741, "bike_id": "68494304fe62d29bbf181c74cc031c05", "fusion_lon": 0.0}, {"rental_uris": {"ios": "https://dc.lft.to/lastmile_qr_scan", "android": "https://dc.lft.to/lastmile_qr_scan"}, "type": "electric_scooter", "name": "9c3c1b31927f7c48708939b9272bc349", "is_reserved": 0, "lon": -77.01980066666667, "is_disabled": 0, "fusion_lat": 0.0, "lat": 38.9520895, "bike_id": "9c3c1b31927f7c48708939b9272bc349", "fusion_lon": 0.0}, {"rental_uris": {"ios": "https://dc.lft.to/lastmile_qr_scan", "android": "https://dc.lft.to/lastmile_qr_scan"}, "type": "electric_scooter", "name": "fbca2822584719ba65290390190f6ad6", "is_reserved": 0, "lon": -77.04674483333334, "is_disabled": 0, "fusion_lat": 0.0, "lat": 38.8923145, "bike_id": "fbca2822584719ba65290390190f6ad6", "fusion_lon": 0.0}, {"rental_uris": {"ios": "https://dc.lft.to/lastmile_qr_scan", "android": "https://dc.lft.to/lastmile_qr_scan"}, "type": "electric_scooter", "name": "52f938aefcdad5cbfcfa28a56020bc52", "is_reserved": 0, "lon": -77.02477116666667, "is_disabled": 0, "fusion_lat": 0.0, "lat": 38.91815016666666, "bike_id": "52f938aefcdad5cbfcfa28a56020bc52", "fusion_lon": 0.0}, {"rental_uris": {"ios": "https://dc.lft.to/lastmile_qr_scan", "android": "https://dc.lft.to/lastmile_qr_scan"}, "type": "electric_scooter", "name": "c468f3a3c914e4663b876ddc84ea0763", "is_reserved": 0, "lon": -77.04410066666667, "is_disabled": 0, "fusion_lat": 0.0, "lat": 38.901376, "bike_id": "c468f3a3c914e4663b876ddc84ea0763", "fusion_lon": 0.0}, {"rental_uris": {"ios": "https://dc.lft.to/lastmile_qr_scan", "android": "https://dc.lft.to/lastmile_qr_scan"}, "type": "electric_scooter", "name": "3286703e1d49ccc6dc29b82ac3c2a3d2", "is_reserved": 0, "lon": -76.98209116666666, "is_disabled": 0, "fusion_lat": 0.0, "lat": 38.8866065, "bike_id": "3286703e1d49ccc6dc29b82ac3c2a3d2", "fusion_lon": 0.0}, {"rental_uris": {"ios": "https://dc.lft.to/lastmile_qr_scan", "android": "https://dc.lft.to/lastmile_qr_scan"}, "type": "electric_scooter", "name": "7804ec0434335f42c6591d71be9c345d", "is_reserved": 0, "lon": -77.01766633333334, "is_disabled": 0, "fusion_lat": 0.0, "lat": 38.921247, "bike_id": "7804ec0434335f42c6591d71be9c345d", "fusion_lon": 0.0}, {"rental_uris": {"ios": "https://dc.lft.to/lastmile_qr_scan", "android": "https://dc.lft.to/lastmile_qr_scan"}, "type": "electric_scooter", "name": "1e12fa59b7d556b9f835320817a23266", "is_reserved": 0, "lon": -77.02967616666666, "is_disabled": 0, "fusion_lat": 0.0, "lat": 38.904692833333335, "bike_id": "1e12fa59b7d556b9f835320817a23266", "fusion_lon": 0.0}, {"rental_uris": {"ios": "https://dc.lft.to/lastmile_qr_scan", "android": "https://dc.lft.to/lastmile_qr_scan"}, "type": "electric_scooter", "name": "8667e1c5a0b6d364ed9d28490b3dc51a", "is_reserved": 0, "lon": -77.06750016666666, "is_disabled": 0, "fusion_lat": 0.0, "lat": 38.905164666666664, "bike_id": "8667e1c5a0b6d364ed9d28490b3dc51a", "fusion_lon": 0.0}, {"rental_uris": {"ios": "https://dc.lft.to/lastmile_qr_scan", "android": "https://dc.lft.to/lastmile_qr_scan"}, "type": "electric_scooter", "name": "b163074c91698a1f5d28eff6e08ea7e5", "is_reserved": 0, "lon": -77.01361966666667, "is_disabled": 0, "fusion_lat": 0.0, "lat": 38.91925083333334, "bike_id": "b163074c91698a1f5d28eff6e08ea7e5", "fusion_lon": 0.0}, {"rental_uris": {"ios": "https://dc.lft.to/lastmile_qr_scan", "android": "https://dc.lft.to/lastmile_qr_scan"}, "type": "electric_scooter", "name": "91d5d1f9b2a03a303c9330f8921de53b", "is_reserved": 0, "lon": -77.01754733333334, "is_disabled": 0, "fusion_lat": 0.0, "lat": 38.87702783333334, "bike_id": "91d5d1f9b2a03a303c9330f8921de53b", "fusion_lon": 0.0}, {"rental_uris": {"ios": "https://dc.lft.to/lastmile_qr_scan", "android": "https://dc.lft.to/lastmile_qr_scan"}, "type": "electric_scooter", "name": "18f73f834785b1b47a14a10803168fe6", "is_reserved": 0, "lon": -77.03444316666666, "is_disabled": 0, "fusion_lat": 0.0, "lat": 38.917987333333336, "bike_id": "18f73f834785b1b47a14a10803168fe6", "fusion_lon": 0.0}, {"rental_uris": {"ios": "https://dc.lft.to/lastmile_qr_scan", "android": "https://dc.lft.to/lastmile_qr_scan"}, "type": "electric_scooter", "name": "9a4f155b3a20ec028f1866f48b623ee4", "is_reserved": 0, "lon": -77.03782883333334, "is_disabled": 0, "fusion_lat": 0.0, "lat": 38.92324833333333, "bike_id": "9a4f155b3a20ec028f1866f48b623ee4", "fusion_lon": 0.0}, {"rental_uris": {"ios": "https://dc.lft.to/lastmile_qr_scan", "android": "https://dc.lft.to/lastmile_qr_scan"}, "type": "electric_scooter", "name": "9d76e5f15c46c17ea36356a04b029482", "is_reserved": 0, "lon": -77.04497133333334, "is_disabled": 0, "fusion_lat": 0.0, "lat": 38.919269666666665, "bike_id": "9d76e5f15c46c17ea36356a04b029482", "fusion_lon": 0.0}, {"rental_uris": {"ios": "https://dc.lft.to/lastmile_qr_scan", "android": "https://dc.lft.to/lastmile_qr_scan"}, "type": "electric_scooter", "name": "e65e950e6a533c4a704221922223dbb2", "is_reserved": 0, "lon": -77.022106, "is_disabled": 0, "fusion_lat": 0.0, "lat": 38.920528166666664, "bike_id": "e65e950e6a533c4a704221922223dbb2", "fusion_lon": 0.0}, {"rental_uris": {"ios": "https://dc.lft.to/lastmile_qr_scan", "android": "https://dc.lft.to/lastmile_qr_scan"}, "type": "electric_scooter", "name": "16f6469d84871da1818c49e45e14ce4f", "is_reserved": 0, "lon": -76.98435716666667, "is_disabled": 0, "fusion_lat": 0.0, "lat": 38.914790333333336, "bike_id": "16f6469d84871da1818c49e45e14ce4f", "fusion_lon": 0.0}, {"rental_uris": {"ios": "https://dc.lft.to/lastmile_qr_scan", "android": "https://dc.lft.to/lastmile_qr_scan"}, "type": "electric_scooter", "name": "65af7cfebe3d04fcf6549fc6270b277f", "is_reserved": 0, "lon": -77.038585, "is_disabled": 0, "fusion_lat": 0.0, "lat": 38.91714266666666, "bike_id": "65af7cfebe3d04fcf6549fc6270b277f", "fusion_lon": 0.0}, {"rental_uris": {"ios": "https://dc.lft.to/lastmile_qr_scan", "android": "https://dc.lft.to/lastmile_qr_scan"}, "type": "electric_scooter", "name": "41b0035346dd53ebbba719a49056f57a", "is_reserved": 0, "lon": -77.02676733333334, "is_disabled": 0, "fusion_lat": 0.0, "lat": 38.924754166666666, "bike_id": "41b0035346dd53ebbba719a49056f57a", "fusion_lon": 0.0}, {"rental_uris": {"ios": "https://dc.lft.to/lastmile_qr_scan", "android": "https://dc.lft.to/lastmile_qr_scan"}, "type": "electric_scooter", "name": "0fede1268f2e15c65c74108fafd79df4", "is_reserved": 0, "lon": -77.03295183333333, "is_disabled": 0, "fusion_lat": 0.0, "lat": 38.91119283333333, "bike_id": "0fede1268f2e15c65c74108fafd79df4", "fusion_lon": 0.0}, {"rental_uris": {"ios": "https://dc.lft.to/lastmile_qr_scan", "android": "https://dc.lft.to/lastmile_qr_scan"}, "type": "electric_scooter", "name": "7d4b113030b82ae7d9dc452e3758cb89", "is_reserved": 0, "lon": -77.05170533333333, "is_disabled": 0, "fusion_lat": 0.0, "lat": 38.924053, "bike_id": "7d4b113030b82ae7d9dc452e3758cb89", "fusion_lon": 0.0}, {"rental_uris": {"ios": "https://dc.lft.to/lastmile_qr_scan", "android": "https://dc.lft.to/lastmile_qr_scan"}, "type": "electric_scooter", "name": "a0d7387e2ae81f496c1b24ebc9131c4c", "is_reserved": 0, "lon": -77.043183, "is_disabled": 0, "fusion_lat": 0.0, "lat": 38.92061666666667, "bike_id": "a0d7387e2ae81f496c1b24ebc9131c4c", "fusion_lon": 0.0}, {"rental_uris": {"ios": "https://dc.lft.to/lastmile_qr_scan", "android": "https://dc.lft.to/lastmile_qr_scan"}, "type": "electric_scooter", "name": "f69423a0aea0cc3c94818ec99c5934b5", "is_reserved": 0, "lon": -77.01729483333334, "is_disabled": 0, "fusion_lat": 0.0, "lat": 38.90715683333333, "bike_id": "f69423a0aea0cc3c94818ec99c5934b5", "fusion_lon": 0.0}, {"rental_uris": {"ios": "https://dc.lft.to/lastmile_qr_scan", "android": "https://dc.lft.to/lastmile_qr_scan"}, "type": "electric_bike", "name": "70661ff1d58043dd69791bdfbb48d4e4", "is_reserved": 0, "lon": -76.96153216666667, "is_disabled": 0, "fusion_lat": 0.0, "lat": 38.85615466666667, "bike_id": "70661ff1d58043dd69791bdfbb48d4e4", "fusion_lon": 0.0}, {"rental_uris": {"ios": "https://dc.lft.to/lastmile_qr_scan", "android": "https://dc.lft.to/lastmile_qr_scan"}, "type": "electric_scooter", "name": "8618c8168948ced7e12399f974441d7c", "is_reserved": 0, "lon": -77.03949766666666, "is_disabled": 0, "fusion_lat": 0.0, "lat": 38.90109566666667, "bike_id": "8618c8168948ced7e12399f974441d7c", "fusion_lon": 0.0}, {"rental_uris": {"ios": "https://dc.lft.to/lastmile_qr_scan", "android": "https://dc.lft.to/lastmile_qr_scan"}, "type": "electric_scooter", "name": "84852f28b4512d731bded4559151aa7b", "is_reserved": 0, "lon": -77.05000483333333, "is_disabled": 0, "fusion_lat": 0.0, "lat": 38.89672233333334, "bike_id": "84852f28b4512d731bded4559151aa7b", "fusion_lon": 0.0}, {"rental_uris": {"ios": "https://dc.lft.to/lastmile_qr_scan", "android": "https://dc.lft.to/lastmile_qr_scan"}, "type": "electric_scooter", "name": "f099157c76bb8f6b46394855a3180acb", "is_reserved": 0, "lon": -77.04276383333334, "is_disabled": 0, "fusion_lat": 0.0, "lat": 38.90647383333334, "bike_id": "f099157c76bb8f6b46394855a3180acb", "fusion_lon": 0.0}, {"rental_uris": {"ios": "https://dc.lft.to/lastmile_qr_scan", "android": "https://dc.lft.to/lastmile_qr_scan"}, "type": "electric_scooter", "name": "8ad7d24b5bb088331adfe4940fab2c76", "is_reserved": 0, "lon": -77.0271355, "is_disabled": 0, "fusion_lat": 0.0, "lat": 38.92223716666667, "bike_id": "8ad7d24b5bb088331adfe4940fab2c76", "fusion_lon": 0.0}, {"rental_uris": {"ios": "https://dc.lft.to/lastmile_qr_scan", "android": "https://dc.lft.to/lastmile_qr_scan"}, "type": "electric_scooter", "name": "6d7d258cc3ee150ba8b4537b8f29094c", "is_reserved": 0, "lon": -77.00570016666667, "is_disabled": 0, "fusion_lat": 0.0, "lat": 38.907005833333336, "bike_id": "6d7d258cc3ee150ba8b4537b8f29094c", "fusion_lon": 0.0}, {"rental_uris": {"ios": "https://dc.lft.to/lastmile_qr_scan", "android": "https://dc.lft.to/lastmile_qr_scan"}, "type": "electric_scooter", "name": "6a18fc0f7e76d9a1c94e027532c89809", "is_reserved": 0, "lon": -77.02651266666666, "is_disabled": 0, "fusion_lat": 0.0, "lat": 38.881148833333334, "bike_id": "6a18fc0f7e76d9a1c94e027532c89809", "fusion_lon": 0.0}, {"rental_uris": {"ios": "https://dc.lft.to/lastmile_qr_scan", "android": "https://dc.lft.to/lastmile_qr_scan"}, "type": "electric_scooter", "name": "3292b6ecccf4a12cbae103e3595c8c40", "is_reserved": 0, "lon": -77.0177035, "is_disabled": 0, "fusion_lat": 0.0, "lat": 38.887266833333335, "bike_id": "3292b6ecccf4a12cbae103e3595c8c40", "fusion_lon": 0.0}, {"rental_uris": {"ios": "https://dc.lft.to/lastmile_qr_scan", "android": "https://dc.lft.to/lastmile_qr_scan"}, "type": "electric_scooter", "name": "73e0a3c87294f63ae0848d826f38504a", "is_reserved": 0, "lon": -76.93388133333333, "is_disabled": 0, "fusion_lat": 0.0, "lat": 38.899045666666666, "bike_id": "73e0a3c87294f63ae0848d826f38504a", "fusion_lon": 0.0}, {"rental_uris": {"ios": "https://dc.lft.to/lastmile_qr_scan", "android": "https://dc.lft.to/lastmile_qr_scan"}, "type": "electric_scooter", "name": "444713b7b5126791d198221e71e4c62c", "is_reserved": 0, "lon": -77.0218385, "is_disabled": 0, "fusion_lat": 0.0, "lat": 38.919787666666664, "bike_id": "444713b7b5126791d198221e71e4c62c", "fusion_lon": 0.0}, {"rental_uris": {"ios": "https://dc.lft.to/lastmile_qr_scan", "android": "https://dc.lft.to/lastmile_qr_scan"}, "type": "electric_scooter", "name": "133bf24e45d29e856253c7416f3424f0", "is_reserved": 0, "lon": -77.00794333333333, "is_disabled": 0, "fusion_lat": 0.0, "lat": 38.8971725, "bike_id": "133bf24e45d29e856253c7416f3424f0", "fusion_lon": 0.0}, {"rental_uris": {"ios": "https://dc.lft.to/lastmile_qr_scan", "android": "https://dc.lft.to/lastmile_qr_scan"}, "type": "electric_scooter", "name": "6dc841b61619655327370b00bb4828cf", "is_reserved": 0, "lon": -77.04672016666666, "is_disabled": 0, "fusion_lat": 0.0, "lat": 38.921153333333336, "bike_id": "6dc841b61619655327370b00bb4828cf", "fusion_lon": 0.0}, {"rental_uris": {"ios": "https://dc.lft.to/lastmile_qr_scan", "android": "https://dc.lft.to/lastmile_qr_scan"}, "type": "electric_scooter", "name": "31305685e5bde54f000d9bb9b0636437", "is_reserved": 0, "lon": -76.98319333333333, "is_disabled": 0, "fusion_lat": 0.0, "lat": 38.87827733333334, "bike_id": "31305685e5bde54f000d9bb9b0636437", "fusion_lon": 0.0}, {"rental_uris": {"ios": "https://dc.lft.to/lastmile_qr_scan", "android": "https://dc.lft.to/lastmile_qr_scan"}, "type": "electric_scooter", "name": "6f6d461de01c54ee021afba810b13317", "is_reserved": 0, "lon": -77.00120883333334, "is_disabled": 0, "fusion_lat": 0.0, "lat": 38.877932666666666, "bike_id": "6f6d461de01c54ee021afba810b13317", "fusion_lon": 0.0}, {"rental_uris": {"ios": "https://dc.lft.to/lastmile_qr_scan", "android": "https://dc.lft.to/lastmile_qr_scan"}, "type": "electric_scooter", "name": "936ca01feb0f66784d14c1dbea73dfaa", "is_reserved": 0, "lon": -76.98702133333333, "is_disabled": 0, "fusion_lat": 0.0, "lat": 38.859603166666666, "bike_id": "936ca01feb0f66784d14c1dbea73dfaa", "fusion_lon": 0.0}, {"rental_uris": {"ios": "https://dc.lft.to/lastmile_qr_scan", "android": "https://dc.lft.to/lastmile_qr_scan"}, "type": "electric_scooter", "name": "3aa25b8ac91546bf92392a24aa647e9d", "is_reserved": 0, "lon": -77.014738, "is_disabled": 0, "fusion_lat": 0.0, "lat": 38.943257833333334, "bike_id": "3aa25b8ac91546bf92392a24aa647e9d", "fusion_lon": 0.0}, {"rental_uris": {"ios": "https://dc.lft.to/lastmile_qr_scan", "android": "https://dc.lft.to/lastmile_qr_scan"}, "type": "electric_scooter", "name": "3066c21c7c9a60ad0605e3302b37c7f2", "is_reserved": 0, "lon": -76.973558, "is_disabled": 0, "fusion_lat": 0.0, "lat": 38.849970166666665, "bike_id": "3066c21c7c9a60ad0605e3302b37c7f2", "fusion_lon": 0.0}, {"rental_uris": {"ios": "https://dc.lft.to/lastmile_qr_scan", "android": "https://dc.lft.to/lastmile_qr_scan"}, "type": "electric_scooter", "name": "11b0b9d9be54780767be03877985682a", "is_reserved": 0, "lon": -77.04140833333334, "is_disabled": 0, "fusion_lat": 0.0, "lat": 38.930410333333334, "bike_id": "11b0b9d9be54780767be03877985682a", "fusion_lon": 0.0}, {"rental_uris": {"ios": "https://dc.lft.to/lastmile_qr_scan", "android": "https://dc.lft.to/lastmile_qr_scan"}, "type": "electric_bike", "name": "733e68d94af147a800c0d230ca344493", "is_reserved": 0, "lon": -76.95243566666667, "is_disabled": 0, "fusion_lat": 0.0, "lat": 38.884637833333336, "bike_id": "733e68d94af147a800c0d230ca344493", "fusion_lon": 0.0}, {"rental_uris": {"ios": "https://dc.lft.to/lastmile_qr_scan", "android": "https://dc.lft.to/lastmile_qr_scan"}, "type": "electric_scooter", "name": "61f7420e5b80ba8189cbc53b1b84acbb", "is_reserved": 0, "lon": -76.99709783333333, "is_disabled": 0, "fusion_lat": 0.0, "lat": 38.91111816666667, "bike_id": "61f7420e5b80ba8189cbc53b1b84acbb", "fusion_lon": 0.0}, {"rental_uris": {"ios": "https://dc.lft.to/lastmile_qr_scan", "android": "https://dc.lft.to/lastmile_qr_scan"}, "type": "electric_scooter", "name": "f3cad7cc657f8fce6b7984c10a99d62f", "is_reserved": 0, "lon": -77.014444, "is_disabled": 0, "fusion_lat": 0.0, "lat": 38.9110405, "bike_id": "f3cad7cc657f8fce6b7984c10a99d62f", "fusion_lon": 0.0}, {"rental_uris": {"ios": "https://dc.lft.to/lastmile_qr_scan", "android": "https://dc.lft.to/lastmile_qr_scan"}, "type": "electric_scooter", "name": "c013086b9e09d896f39fbbffd9f517d7", "is_reserved": 0, "lon": -77.08400866666666, "is_disabled": 0, "fusion_lat": 0.0, "lat": 38.90800483333334, "bike_id": "c013086b9e09d896f39fbbffd9f517d7", "fusion_lon": 0.0}, {"rental_uris": {"ios": "https://dc.lft.to/lastmile_qr_scan", "android": "https://dc.lft.to/lastmile_qr_scan"}, "type": "electric_bike", "name": "8fb18ad45596ce68b60b94777450511e", "is_reserved": 0, "lon": -77.07912116666667, "is_disabled": 0, "fusion_lat": 0.0, "lat": 38.838293666666665, "bike_id": "8fb18ad45596ce68b60b94777450511e", "fusion_lon": 0.0}, {"rental_uris": {"ios": "https://dc.lft.to/lastmile_qr_scan", "android": "https://dc.lft.to/lastmile_qr_scan"}, "type": "electric_scooter", "name": "e9ed05dc23fb447604e8df108ad11b01", "is_reserved": 0, "lon": -77.0437465, "is_disabled": 0, "fusion_lat": 0.0, "lat": 38.93490883333333, "bike_id": "e9ed05dc23fb447604e8df108ad11b01", "fusion_lon": 0.0}, {"rental_uris": {"ios": "https://dc.lft.to/lastmile_qr_scan", "android": "https://dc.lft.to/lastmile_qr_scan"}, "type": "electric_scooter", "name": "8dfad82d668d4ed1562f73736a89f33c", "is_reserved": 0, "lon": -77.07359733333334, "is_disabled": 0, "fusion_lat": 0.0, "lat": 38.937353, "bike_id": "8dfad82d668d4ed1562f73736a89f33c", "fusion_lon": 0.0}, {"rental_uris": {"ios": "https://dc.lft.to/lastmile_qr_scan", "android": "https://dc.lft.to/lastmile_qr_scan"}, "type": "electric_scooter", "name": "11f235b9bf51cf83fca1d282c3e0bcaf", "is_reserved": 0, "lon": -77.0531905, "is_disabled": 0, "fusion_lat": 0.0, "lat": 38.90265016666667, "bike_id": "11f235b9bf51cf83fca1d282c3e0bcaf", "fusion_lon": 0.0}, {"rental_uris": {"ios": "https://dc.lft.to/lastmile_qr_scan", "android": "https://dc.lft.to/lastmile_qr_scan"}, "type": "electric_scooter", "name": "541f8f5dfbbe53c4f4c7d1bad4e89f5e", "is_reserved": 0, "lon": -77.0670365, "is_disabled": 0, "fusion_lat": 0.0, "lat": 38.94797416666667, "bike_id": "541f8f5dfbbe53c4f4c7d1bad4e89f5e", "fusion_lon": 0.0}, {"rental_uris": {"ios": "https://dc.lft.to/lastmile_qr_scan", "android": "https://dc.lft.to/lastmile_qr_scan"}, "type": "electric_bike", "name": "9ed468429c15e6679391cc0a9f7052c4", "is_reserved": 0, "lon": -77.040703, "is_disabled": 0, "fusion_lat": 0.0, "lat": 38.993803166666666, "bike_id": "9ed468429c15e6679391cc0a9f7052c4", "fusion_lon": 0.0}, {"rental_uris": {"ios": "https://dc.lft.to/lastmile_qr_scan", "android": "https://dc.lft.to/lastmile_qr_scan"}, "type": "electric_scooter", "name": "69dfe10c2ec24d4aa898342ad71ba2da", "is_reserved": 0, "lon": -77.03787033333333, "is_disabled": 0, "fusion_lat": 0.0, "lat": 38.93111066666667, "bike_id": "69dfe10c2ec24d4aa898342ad71ba2da", "fusion_lon": 0.0}, {"rental_uris": {"ios": "https://dc.lft.to/lastmile_qr_scan", "android": "https://dc.lft.to/lastmile_qr_scan"}, "type": "electric_bike", "name": "3fef0b28fe6517ce80c183f719376924", "is_reserved": 0, "lon": -76.9454635, "is_disabled": 0, "fusion_lat": 0.0, "lat": 38.98305716666667, "bike_id": "3fef0b28fe6517ce80c183f719376924", "fusion_lon": 0.0}, {"rental_uris": {"ios": "https://dc.lft.to/lastmile_qr_scan", "android": "https://dc.lft.to/lastmile_qr_scan"}, "type": "electric_scooter", "name": "10189bfe18f0e034de72de91bc60b283", "is_reserved": 0, "lon": -77.042318, "is_disabled": 0, "fusion_lat": 0.0, "lat": 38.9057935, "bike_id": "10189bfe18f0e034de72de91bc60b283", "fusion_lon": 0.0}, {"rental_uris": {"ios": "https://dc.lft.to/lastmile_qr_scan", "android": "https://dc.lft.to/lastmile_qr_scan"}, "type": "electric_scooter", "name": "7b4dab1f9e6d43fd40d6368ddb1679e4", "is_reserved": 0, "lon": -77.01041383333333, "is_disabled": 0, "fusion_lat": 0.0, "lat": 38.91104816666667, "bike_id": "7b4dab1f9e6d43fd40d6368ddb1679e4", "fusion_lon": 0.0}, {"rental_uris": {"ios": "https://dc.lft.to/lastmile_qr_scan", "android": "https://dc.lft.to/lastmile_qr_scan"}, "type": "electric_scooter", "name": "71fb2778c552c66fe265fb67a4fddf11", "is_reserved": 0, "lon": -77.00200183333334, "is_disabled": 0, "fusion_lat": 0.0, "lat": 38.892921333333334, "bike_id": "71fb2778c552c66fe265fb67a4fddf11", "fusion_lon": 0.0}, {"rental_uris": {"ios": "https://dc.lft.to/lastmile_qr_scan", "android": "https://dc.lft.to/lastmile_qr_scan"}, "type": "electric_bike", "name": "baf915dc14f750b3463a4b8f4af7df63", "is_reserved": 0, "lon": -77.00761983333334, "is_disabled": 0, "fusion_lat": 0.0, "lat": 38.99778516666667, "bike_id": "baf915dc14f750b3463a4b8f4af7df63", "fusion_lon": 0.0}, {"rental_uris": {"ios": "https://dc.lft.to/lastmile_qr_scan", "android": "https://dc.lft.to/lastmile_qr_scan"}, "type": "electric_bike", "name": "164a216b5967228f51098ae5e413a477", "is_reserved": 0, "lon": -77.03284633333334, "is_disabled": 0, "fusion_lat": 0.0, "lat": 38.9356805, "bike_id": "164a216b5967228f51098ae5e413a477", "fusion_lon": 0.0}, {"rental_uris": {"ios": "https://dc.lft.to/lastmile_qr_scan", "android": "https://dc.lft.to/lastmile_qr_scan"}, "type": "electric_scooter", "name": "ab7b1e7fdaf4634d5e8e71fa551fe0fb", "is_reserved": 0, "lon": -76.93428616666667, "is_disabled": 0, "fusion_lat": 0.0, "lat": 38.899173, "bike_id": "ab7b1e7fdaf4634d5e8e71fa551fe0fb", "fusion_lon": 0.0}, {"rental_uris": {"ios": "https://dc.lft.to/lastmile_qr_scan", "android": "https://dc.lft.to/lastmile_qr_scan"}, "type": "electric_scooter", "name": "15aaf4a8593ff9e1e96d5974641952c1", "is_reserved": 0, "lon": -76.99568133333334, "is_disabled": 0, "fusion_lat": 0.0, "lat": 38.9202235, "bike_id": "15aaf4a8593ff9e1e96d5974641952c1", "fusion_lon": 0.0}, {"rental_uris": {"ios": "https://dc.lft.to/lastmile_qr_scan", "android": "https://dc.lft.to/lastmile_qr_scan"}, "type": "electric_scooter", "name": "81b196c4b48cebcfdd7a64f344841986", "is_reserved": 0, "lon": -76.9949445, "is_disabled": 0, "fusion_lat": 0.0, "lat": 38.862160833333334, "bike_id": "81b196c4b48cebcfdd7a64f344841986", "fusion_lon": 0.0}, {"rental_uris": {"ios": "https://dc.lft.to/lastmile_qr_scan", "android": "https://dc.lft.to/lastmile_qr_scan"}, "type": "electric_scooter", "name": "0f294738498a429600b05ef255d4d7e1", "is_reserved": 0, "lon": -77.028916, "is_disabled": 0, "fusion_lat": 0.0, "lat": 38.916783333333335, "bike_id": "0f294738498a429600b05ef255d4d7e1", "fusion_lon": 0.0}, {"rental_uris": {"ios": "https://dc.lft.to/lastmile_qr_scan", "android": "https://dc.lft.to/lastmile_qr_scan"}, "type": "electric_scooter", "name": "df757bcb26877c7363998c481e090462", "is_reserved": 0, "lon": -77.01859133333333, "is_disabled": 0, "fusion_lat": 0.0, "lat": 38.8946165, "bike_id": "df757bcb26877c7363998c481e090462", "fusion_lon": 0.0}, {"rental_uris": {"ios": "https://dc.lft.to/lastmile_qr_scan", "android": "https://dc.lft.to/lastmile_qr_scan"}, "type": "electric_scooter", "name": "5918f17ecf3eed7b7d2c00516084659a", "is_reserved": 0, "lon": -76.99908416666666, "is_disabled": 0, "fusion_lat": 0.0, "lat": 38.92454216666667, "bike_id": "5918f17ecf3eed7b7d2c00516084659a", "fusion_lon": 0.0}, {"rental_uris": {"ios": "https://dc.lft.to/lastmile_qr_scan", "android": "https://dc.lft.to/lastmile_qr_scan"}, "type": "electric_scooter", "name": "e86916ba080d792836d064792caf9ee0", "is_reserved": 0, "lon": -77.04362083333334, "is_disabled": 0, "fusion_lat": 0.0, "lat": 38.89214966666667, "bike_id": "e86916ba080d792836d064792caf9ee0", "fusion_lon": 0.0}, {"rental_uris": {"ios": "https://dc.lft.to/lastmile_qr_scan", "android": "https://dc.lft.to/lastmile_qr_scan"}, "type": "electric_scooter", "name": "3e866f7628a4532c65d6c8f381c97375", "is_reserved": 0, "lon": -77.03183683333333, "is_disabled": 0, "fusion_lat": 0.0, "lat": 38.9135025, "bike_id": "3e866f7628a4532c65d6c8f381c97375", "fusion_lon": 0.0}, {"rental_uris": {"ios": "https://dc.lft.to/lastmile_qr_scan", "android": "https://dc.lft.to/lastmile_qr_scan"}, "type": "electric_scooter", "name": "326d5c96c442fede8dfb44123cf2b4fc", "is_reserved": 0, "lon": -76.99480566666666, "is_disabled": 0, "fusion_lat": 0.0, "lat": 38.905386166666666, "bike_id": "326d5c96c442fede8dfb44123cf2b4fc", "fusion_lon": 0.0}, {"rental_uris": {"ios": "https://dc.lft.to/lastmile_qr_scan", "android": "https://dc.lft.to/lastmile_qr_scan"}, "type": "electric_scooter", "name": "e9d1017f5070a71f439d7a48bcc4b4e7", "is_reserved": 0, "lon": -77.003992, "is_disabled": 0, "fusion_lat": 0.0, "lat": 38.9055405, "bike_id": "e9d1017f5070a71f439d7a48bcc4b4e7", "fusion_lon": 0.0}, {"rental_uris": {"ios": "https://dc.lft.to/lastmile_qr_scan", "android": "https://dc.lft.to/lastmile_qr_scan"}, "type": "electric_scooter", "name": "b7d74a9c6afec25da99227e1eecf4e98", "is_reserved": 0, "lon": -77.0237325, "is_disabled": 0, "fusion_lat": 0.0, "lat": 38.91685983333333, "bike_id": "b7d74a9c6afec25da99227e1eecf4e98", "fusion_lon": 0.0}, {"rental_uris": {"ios": "https://dc.lft.to/lastmile_qr_scan", "android": "https://dc.lft.to/lastmile_qr_scan"}, "type": "electric_scooter", "name": "5616fb6d5c64022e6221b4c653a71692", "is_reserved": 0, "lon": -76.94199016666667, "is_disabled": 0, "fusion_lat": 0.0, "lat": 38.90222133333333, "bike_id": "5616fb6d5c64022e6221b4c653a71692", "fusion_lon": 0.0}, {"rental_uris": {"ios": "https://dc.lft.to/lastmile_qr_scan", "android": "https://dc.lft.to/lastmile_qr_scan"}, "type": "electric_scooter", "name": "3fbb536d1bcdffa97be558ee4c77b92b", "is_reserved": 0, "lon": -77.07555133333334, "is_disabled": 0, "fusion_lat": 0.0, "lat": 38.92088566666666, "bike_id": "3fbb536d1bcdffa97be558ee4c77b92b", "fusion_lon": 0.0}, {"rental_uris": {"ios": "https://dc.lft.to/lastmile_qr_scan", "android": "https://dc.lft.to/lastmile_qr_scan"}, "type": "electric_scooter", "name": "06104dcd02f6c0533a7832c09a2ceefd", "is_reserved": 0, "lon": -77.0230335, "is_disabled": 0, "fusion_lat": 0.0, "lat": 38.92861583333333, "bike_id": "06104dcd02f6c0533a7832c09a2ceefd", "fusion_lon": 0.0}, {"rental_uris": {"ios": "https://dc.lft.to/lastmile_qr_scan", "android": "https://dc.lft.to/lastmile_qr_scan"}, "type": "electric_scooter", "name": "566774d70096f4c7460bf064ab8cb2aa", "is_reserved": 0, "lon": -77.0176045, "is_disabled": 0, "fusion_lat": 0.0, "lat": 38.90098183333333, "bike_id": "566774d70096f4c7460bf064ab8cb2aa", "fusion_lon": 0.0}, {"rental_uris": {"ios": "https://dc.lft.to/lastmile_qr_scan", "android": "https://dc.lft.to/lastmile_qr_scan"}, "type": "electric_scooter", "name": "dec398f784ebe2257851650056490bee", "is_reserved": 0, "lon": -77.037465, "is_disabled": 0, "fusion_lat": 0.0, "lat": 38.931949333333336, "bike_id": "dec398f784ebe2257851650056490bee", "fusion_lon": 0.0}, {"rental_uris": {"ios": "https://dc.lft.to/lastmile_qr_scan", "android": "https://dc.lft.to/lastmile_qr_scan"}, "type": "electric_scooter", "name": "39efe4a59dd07b865667d6f51e55318a", "is_reserved": 0, "lon": -77.022108, "is_disabled": 0, "fusion_lat": 0.0, "lat": 38.920515333333334, "bike_id": "39efe4a59dd07b865667d6f51e55318a", "fusion_lon": 0.0}, {"rental_uris": {"ios": "https://dc.lft.to/lastmile_qr_scan", "android": "https://dc.lft.to/lastmile_qr_scan"}, "type": "electric_scooter", "name": "85a2b511641dcce32ac674dacd9a00ea", "is_reserved": 0, "lon": -77.03851683333333, "is_disabled": 0, "fusion_lat": 0.0, "lat": 38.9163585, "bike_id": "85a2b511641dcce32ac674dacd9a00ea", "fusion_lon": 0.0}, {"rental_uris": {"ios": "https://dc.lft.to/lastmile_qr_scan", "android": "https://dc.lft.to/lastmile_qr_scan"}, "type": "electric_scooter", "name": "c3cd3daf4c92a87e0ce9477aaf3bab7f", "is_reserved": 0, "lon": -77.06115966666667, "is_disabled": 0, "fusion_lat": 0.0, "lat": 38.905033, "bike_id": "c3cd3daf4c92a87e0ce9477aaf3bab7f", "fusion_lon": 0.0}, {"rental_uris": {"ios": "https://dc.lft.to/lastmile_qr_scan", "android": "https://dc.lft.to/lastmile_qr_scan"}, "type": "electric_scooter", "name": "0e187c57cfcabf2fe4182c2ae522631f", "is_reserved": 0, "lon": -77.03806683333333, "is_disabled": 0, "fusion_lat": 0.0, "lat": 38.911893166666665, "bike_id": "0e187c57cfcabf2fe4182c2ae522631f", "fusion_lon": 0.0}, {"rental_uris": {"ios": "https://dc.lft.to/lastmile_qr_scan", "android": "https://dc.lft.to/lastmile_qr_scan"}, "type": "electric_scooter", "name": "1000a666d178a76fc53946ce559716fb", "is_reserved": 0, "lon": -77.02473583333334, "is_disabled": 0, "fusion_lat": 0.0, "lat": 38.91811033333333, "bike_id": "1000a666d178a76fc53946ce559716fb", "fusion_lon": 0.0}, {"rental_uris": {"ios": "https://dc.lft.to/lastmile_qr_scan", "android": "https://dc.lft.to/lastmile_qr_scan"}, "type": "electric_scooter", "name": "ac6ef83839294e6409a9ada1a6f8db4e", "is_reserved": 0, "lon": -77.020963, "is_disabled": 0, "fusion_lat": 0.0, "lat": 38.929997666666665, "bike_id": "ac6ef83839294e6409a9ada1a6f8db4e", "fusion_lon": 0.0}, {"rental_uris": {"ios": "https://dc.lft.to/lastmile_qr_scan", "android": "https://dc.lft.to/lastmile_qr_scan"}, "type": "electric_scooter", "name": "da1fa0b11c7426823a4fdfa9b60551d4", "is_reserved": 0, "lon": -77.0297085, "is_disabled": 0, "fusion_lat": 0.0, "lat": 38.904907333333334, "bike_id": "da1fa0b11c7426823a4fdfa9b60551d4", "fusion_lon": 0.0}, {"rental_uris": {"ios": "https://dc.lft.to/lastmile_qr_scan", "android": "https://dc.lft.to/lastmile_qr_scan"}, "type": "electric_scooter", "name": "87ed31cbb9dd0a3b32b21b1ee19ef017", "is_reserved": 0, "lon": -77.041883, "is_disabled": 0, "fusion_lat": 0.0, "lat": 38.9205535, "bike_id": "87ed31cbb9dd0a3b32b21b1ee19ef017", "fusion_lon": 0.0}, {"rental_uris": {"ios": "https://dc.lft.to/lastmile_qr_scan", "android": "https://dc.lft.to/lastmile_qr_scan"}, "type": "electric_scooter", "name": "4782443290d5ef4ad0355a03f66ab2d5", "is_reserved": 0, "lon": -77.0480095, "is_disabled": 0, "fusion_lat": 0.0, "lat": 38.911061, "bike_id": "4782443290d5ef4ad0355a03f66ab2d5", "fusion_lon": 0.0}, {"rental_uris": {"ios": "https://dc.lft.to/lastmile_qr_scan", "android": "https://dc.lft.to/lastmile_qr_scan"}, "type": "electric_scooter", "name": "39e84b17cd981c39ccb3a5ee9a5acbda", "is_reserved": 0, "lon": -77.02134566666666, "is_disabled": 0, "fusion_lat": 0.0, "lat": 38.905567, "bike_id": "39e84b17cd981c39ccb3a5ee9a5acbda", "fusion_lon": 0.0}, {"rental_uris": {"ios": "https://dc.lft.to/lastmile_qr_scan", "android": "https://dc.lft.to/lastmile_qr_scan"}, "type": "electric_scooter", "name": "d85bef33283fe8bcc586415a9296cc23", "is_reserved": 0, "lon": -77.0388075, "is_disabled": 0, "fusion_lat": 0.0, "lat": 38.903507833333336, "bike_id": "d85bef33283fe8bcc586415a9296cc23", "fusion_lon": 0.0}, {"rental_uris": {"ios": "https://dc.lft.to/lastmile_qr_scan", "android": "https://dc.lft.to/lastmile_qr_scan"}, "type": "electric_scooter", "name": "d7ef2eda86c6ac8c51a02837c608a06a", "is_reserved": 0, "lon": -77.02581766666667, "is_disabled": 0, "fusion_lat": 0.0, "lat": 38.88436983333333, "bike_id": "d7ef2eda86c6ac8c51a02837c608a06a", "fusion_lon": 0.0}, {"rental_uris": {"ios": "https://dc.lft.to/lastmile_qr_scan", "android": "https://dc.lft.to/lastmile_qr_scan"}, "type": "electric_scooter", "name": "c68dc6d17ffcebd0bb2868112101e4e7", "is_reserved": 0, "lon": -77.04028016666666, "is_disabled": 0, "fusion_lat": 0.0, "lat": 38.92164266666666, "bike_id": "c68dc6d17ffcebd0bb2868112101e4e7", "fusion_lon": 0.0}, {"rental_uris": {"ios": "https://dc.lft.to/lastmile_qr_scan", "android": "https://dc.lft.to/lastmile_qr_scan"}, "type": "electric_scooter", "name": "35f73af6748e9e0eeb02b578618a5cb1", "is_reserved": 0, "lon": -77.02088066666667, "is_disabled": 0, "fusion_lat": 0.0, "lat": 38.927119, "bike_id": "35f73af6748e9e0eeb02b578618a5cb1", "fusion_lon": 0.0}, {"rental_uris": {"ios": "https://dc.lft.to/lastmile_qr_scan", "android": "https://dc.lft.to/lastmile_qr_scan"}, "type": "electric_scooter", "name": "a907fbe08e6f3dedd797eee867236019", "is_reserved": 0, "lon": -77.043708, "is_disabled": 0, "fusion_lat": 0.0, "lat": 38.897245833333336, "bike_id": "a907fbe08e6f3dedd797eee867236019", "fusion_lon": 0.0}, {"rental_uris": {"ios": "https://dc.lft.to/lastmile_qr_scan", "android": "https://dc.lft.to/lastmile_qr_scan"}, "type": "electric_scooter", "name": "8d3c9db3b1fd3938b27c72d64351acfe", "is_reserved": 0, "lon": -77.03410916666667, "is_disabled": 0, "fusion_lat": 0.0, "lat": 38.92395233333333, "bike_id": "8d3c9db3b1fd3938b27c72d64351acfe", "fusion_lon": 0.0}, {"rental_uris": {"ios": "https://dc.lft.to/lastmile_qr_scan", "android": "https://dc.lft.to/lastmile_qr_scan"}, "type": "electric_scooter", "name": "e75b087dd24df142d30455e4e38f4ac0", "is_reserved": 0, "lon": -77.04082633333333, "is_disabled": 0, "fusion_lat": 0.0, "lat": 38.94787983333333, "bike_id": "e75b087dd24df142d30455e4e38f4ac0", "fusion_lon": 0.0}, {"rental_uris": {"ios": "https://dc.lft.to/lastmile_qr_scan", "android": "https://dc.lft.to/lastmile_qr_scan"},