{"data": {"bikes": [{"is_disabled": 0, "fusion_lon": 0.0, "fusion_lat": 0.0, "lat": 38.914076, "type": "electric_scooter", "lon": -77.02177983333333, "bike_id": "788430672733e2194258b647beeb00b1", "rental_uris": {"android": "https://dc.lft.to/lastmile_qr_scan", "ios": "https://dc.lft.to/lastmile_qr_scan"}, "name": "788430672733e2194258b647beeb00b1", "is_reserved": 0}, {"is_disabled": 0, "fusion_lon": 0.0, "fusion_lat": 0.0, "lat": 38.89787833333333, "type": "electric_scooter", "lon": -77.011891, "bike_id": "36974c6a4d0f7b3a3dfd66fb63f800cc", "rental_uris": {"android": "https://dc.lft.to/lastmile_qr_scan", "ios": "https://dc.lft.to/lastmile_qr_scan"}, "name": "36974c6a4d0f7b3a3dfd66fb63f800cc", "is_reserved": 0}, {"is_disabled": 0, "fusion_lon": 0.0, "fusion_lat": 0.0, "lat": 38.912494333333335, "type": "electric_scooter", "lon": -77.04163, "bike_id": "8188e8c2966b8396e3eb36f8b8f06230", "rental_uris": {"android": "https://dc.lft.to/lastmile_qr_scan", "ios": "https://dc.lft.to/lastmile_qr_scan"}, "name": "8188e8c2966b8396e3eb36f8b8f06230", "is_reserved": 0}, {"is_disabled": 0, "fusion_lon": 0.0, "fusion_lat": 0.0, "lat": 38.89475, "type": "electric_scooter", "lon": -76.94964766666666, "bike_id": "90b573ddbbb37c62691d248947f4540b", "rental_uris": {"android": "https://dc.lft.to/lastmile_qr_scan", "ios": "https://dc.lft.to/lastmile_qr_scan"}, "name": "90b573ddbbb37c62691d248947f4540b", "is_reserved": 0}, {"is_disabled": 0, "fusion_lon": 0.0, "fusion_lat": 0.0, "lat": 38.920426166666665, "type": "electric_scooter", "lon": -77.0417865, "bike_id": "27b457af4bca498b8f776fe53ed2ec69", "rental_uris": {"android": "https://dc.lft.to/lastmile_qr_scan", "ios": "https://dc.lft.to/lastmile_qr_scan"}, "name": "27b457af4bca498b8f776fe53ed2ec69", "is_reserved": 0}, {"is_disabled": 0, "fusion_lon": 0.0, "fusion_lat": 0.0, "lat": 38.88510516666667, "type": "electric_scooter", "lon": -76.99841133333334, "bike_id": "4b6049f805fa360c76f62d951b51ccda", "rental_uris": {"android": "https://dc.lft.to/lastmile_qr_scan", "ios": "https://dc.lft.to/lastmile_qr_scan"}, "name": "4b6049f805fa360c76f62d951b51ccda", "is_reserved": 0}, {"is_disabled": 0, "fusion_lon": 0.0, "fusion_lat": 0.0, "lat": 38.93964916666667, "type": "electric_scooter", "lon": -77.0328275, "bike_id": "37efc234a5e022ca2a02948c4ae8c0c6", "rental_uris": {"android": "https://dc.lft.to/lastmile_qr_scan", "ios": "https://dc.lft.to/lastmile_qr_scan"}, "name": "37efc234a5e022ca2a02948c4ae8c0c6", "is_reserved": 0}, {"is_disabled": 0, "fusion_lon": 0.0, "fusion_lat": 0.0, "lat": 38.92316116666667, "type": "electric_scooter", "lon": -77.04377733333334, "bike_id": "53a7e538d7efae42550217d1471833d0", "rental_uris": {"android": "https://dc.lft.to/lastmile_qr_scan", "ios": "https://dc.lft.to/lastmile_qr_scan"}, "name": "53a7e538d7efae42550217d1471833d0", "is_reserved": 0}, {"is_disabled": 0, "fusion_lon": 0.0, "fusion_lat": 0.0, "lat": 38.93271, "type": "electric_scooter", "lon": -77.03481183333334, "bike_id": "e7824df5274d51b77ccead8db7637547", "rental_uris": {"android": "https://dc.lft.to/lastmile_qr_scan", "ios": "https://dc.lft.to/lastmile_qr_scan"}, "name": "e7824df5274d51b77ccead8db7637547", "is_reserved": 0}, {"is_disabled": 0, "fusion_lon": 0.0, "fusion_lat": 0.0, "lat": 38.900407666666666, "type": "electric_scooter", "lon": -77.00196233333334, "bike_id": "61cc4d45ba858bd6b3f2dcbfa04d3a86", "rental_uris": {"android": "https://dc.lft.to/lastmile_qr_scan", "ios": "https://dc.lft.to/lastmile_qr_scan"}, "name": "61cc4d45ba858bd6b3f2dcbfa04d3a86", "is_reserved": 0}, {"is_disabled": 0, "fusion_lon": 0.0, "fusion_lat": 0.0, "lat": 38.91845816666667, "type": "electric_bike", "lon": -76.96089383333333, "bike_id": "1815df99d00657a3753f0dfa378a47e2", "rental_uris": {"android": "https://dc.lft.to/lastmile_qr_scan", "ios": "https://dc.lft.to/lastmile_qr_scan"}, "name": "1815df99d00657a3753f0dfa378a47e2", "is_reserved": 0}, {"is_disabled": 0, "fusion_lon": 0.0, "fusion_lat": 0.0, "lat": 38.90419883333333, "type": "electric_scooter", "lon": -76.98552116666667, "bike_id": "5e4c42057764ee47103354275d0c7fb6", "rental_uris": {"android": "https://dc.lft.to/lastmile_qr_scan", "ios": "https://dc.lft.to/lastmile_qr_scan"}, "name": "5e4c42057764ee47103354275d0c7fb6", "is_reserved": 0}, {"is_disabled": 0, "fusion_lon": 0.0, "fusion_lat": 0.0, "lat": 38.879287166666664, "type": "electric_scooter", "lon": -77.00524983333334, "bike_id": "a707809ac958ad3b0c307aedfdada30a", "rental_uris": {"android": "https://dc.lft.to/lastmile_qr_scan", "ios": "https://dc.lft.to/lastmile_qr_scan"}, "name": "a707809ac958ad3b0c307aedfdada30a", "is_reserved": 0}, {"is_disabled": 0, "fusion_lon": 0.0, "fusion_lat": 0.0, "lat": 39.06064033333333, "type": "electric_bike", "lon": -77.06468416666667, "bike_id": "367c92d7b59b56317baae5f3d6101be0", "rental_uris": {"android": "https://dc.lft.to/lastmile_qr_scan", "ios": "https://dc.lft.to/lastmile_qr_scan"}, "name": "367c92d7b59b56317baae5f3d6101be0", "is_reserved": 0}, {"is_disabled": 0, "fusion_lon": 0.0, "fusion_lat": 0.0, "lat": 38.83812616666667, "type": "electric_scooter", "lon": -77.00437116666667, "bike_id": "23769bd78d9b28c32e306f3be327cdaa", "rental_uris": {"android": "https://dc.lft.to/lastmile_qr_scan", "ios": "https://dc.lft.to/lastmile_qr_scan"}, "name": "23769bd78d9b28c32e306f3be327cdaa", "is_reserved": 0}, {"is_disabled": 0, "fusion_lon": 0.0, "fusion_lat": 0.0, "lat": 38.954019, "type": "electric_scooter", "lon": -77.02751883333333, "bike_id": "fdb3f98ce8f8aa23656b8afcf9863a93", "rental_uris": {"android": "https://dc.lft.to/lastmile_qr_scan", "ios": "https://dc.lft.to/lastmile_qr_scan"}, "name": "fdb3f98ce8f8aa23656b8afcf9863a93", "is_reserved": 0}, {"is_disabled": 0, "fusion_lon": 0.0, "fusion_lat": 0.0, "lat": 38.895970166666665, "type": "electric_scooter", "lon": -77.02577416666666, "bike_id": "b5ff428e13d642ccdb3e26810460963c", "rental_uris": {"android": "https://dc.lft.to/lastmile_qr_scan", "ios": "https://dc.lft.to/lastmile_qr_scan"}, "name": "b5ff428e13d642ccdb3e26810460963c", "is_reserved": 0}, {"is_disabled": 0, "fusion_lon": 0.0, "fusion_lat": 0.0, "lat": 38.89910066666667, "type": "electric_scooter", "lon": -76.93392433333334, "bike_id": "95aa354df84394229eb3cac2b62c2fbc", "rental_uris": {"android": "https://dc.lft.to/lastmile_qr_scan", "ios": "https://dc.lft.to/lastmile_qr_scan"}, "name": "95aa354df84394229eb3cac2b62c2fbc", "is_reserved": 0}, {"is_disabled": 0, "fusion_lon": 0.0, "fusion_lat": 0.0, "lat": 38.862989166666665, "type": "electric_scooter", "lon": -76.982756, "bike_id": "bde6f6f4944b3adfd8b82eacec726b9c", "rental_uris": {"android": "https://dc.lft.to/lastmile_qr_scan", "ios": "https://dc.lft.to/lastmile_qr_scan"}, "name": "bde6f6f4944b3adfd8b82eacec726b9c", "is_reserved": 0}, {"is_disabled": 0, "fusion_lon": 0.0, "fusion_lat": 0.0, "lat": 38.9026855, "type": "electric_scooter", "lon": -77.00328266666666, "bike_id": "675a0f7537e5d94a605bea73209e707c", "rental_uris": {"android": "https://dc.lft.to/lastmile_qr_scan", "ios": "https://dc.lft.to/lastmile_qr_scan"}, "name": "675a0f7537e5d94a605bea73209e707c", "is_reserved": 0}, {"is_disabled": 0, "fusion_lon": 0.0, "fusion_lat": 0.0, "lat": 38.845944333333335, "type": "electric_bike", "lon": -76.9688245, "bike_id": "dac6819011f80e5e15330ba3f8a5f0ec", "rental_uris": {"android": "https://dc.lft.to/lastmile_qr_scan", "ios": "https://dc.lft.to/lastmile_qr_scan"}, "name": "dac6819011f80e5e15330ba3f8a5f0ec", "is_reserved": 0}, {"is_disabled": 0, "fusion_lon": 0.0, "fusion_lat": 0.0, "lat": 38.9223085, "type": "electric_scooter", "lon": -77.04350283333333, "bike_id": "a552dd71f072bafc213387f168faa814", "rental_uris": {"android": "https://dc.lft.to/lastmile_qr_scan", "ios": "https://dc.lft.to/lastmile_qr_scan"}, "name": "a552dd71f072bafc213387f168faa814", "is_reserved": 0}, {"is_disabled": 0, "fusion_lon": 0.0, "fusion_lat": 0.0, "lat": 38.959637666666666, "type": "electric_scooter", "lon": -77.021128, "bike_id": "d4f1d0b55ce370b202d3002d524143d5", "rental_uris": {"android": "https://dc.lft.to/lastmile_qr_scan", "ios": "https://dc.lft.to/lastmile_qr_scan"}, "name": "d4f1d0b55ce370b202d3002d524143d5", "is_reserved": 0}, {"is_disabled": 0, "fusion_lon": 0.0, "fusion_lat": 0.0, "lat": 38.90405883333333, "type": "electric_scooter", "lon": -77.054028, "bike_id": "3b55da57b2c3931a49ab0491bdd845db", "rental_uris": {"android": "https://dc.lft.to/lastmile_qr_scan", "ios": "https://dc.lft.to/lastmile_qr_scan"}, "name": "3b55da57b2c3931a49ab0491bdd845db", "is_reserved": 0}, {"is_disabled": 0, "fusion_lon": 0.0, "fusion_lat": 0.0, "lat": 38.894932833333336, "type": "electric_scooter", "lon": -77.02278616666666, "bike_id": "8091e50c7d842a0fbef8d8af069089f6", "rental_uris": {"android": "https://dc.lft.to/lastmile_qr_scan", "ios": "https://dc.lft.to/lastmile_qr_scan"}, "name": "8091e50c7d842a0fbef8d8af069089f6", "is_reserved": 0}, {"is_disabled": 0, "fusion_lon": 0.0, "fusion_lat": 0.0, "lat": 38.9171885, "type": "electric_scooter", "lon": -77.03199766666667, "bike_id": "346c6dcb01e73933174cdb75686cc787", "rental_uris": {"android": "https://dc.lft.to/lastmile_qr_scan", "ios": "https://dc.lft.to/lastmile_qr_scan"}, "name": "346c6dcb01e73933174cdb75686cc787", "is_reserved": 0}, {"is_disabled": 0, "fusion_lon": 0.0, "fusion_lat": 0.0, "lat": 38.91150716666667, "type": "electric_scooter", "lon": -77.08793033333333, "bike_id": "297bae9f3d26e28ad13b07230a6b914d", "rental_uris": {"android": "https://dc.lft.to/lastmile_qr_scan", "ios": "https://dc.lft.to/lastmile_qr_scan"}, "name": "297bae9f3d26e28ad13b07230a6b914d", "is_reserved": 0}, {"is_disabled": 0, "fusion_lon": 0.0, "fusion_lat": 0.0, "lat": 38.91081783333333, "type": "electric_scooter", "lon": -77.02193016666666, "bike_id": "d627f86ef98f9f1ca90368ff2db2f0d4", "rental_uris": {"android": "https://dc.lft.to/lastmile_qr_scan", "ios": "https://dc.lft.to/lastmile_qr_scan"}, "name": "d627f86ef98f9f1ca90368ff2db2f0d4", "is_reserved": 0}, {"is_disabled": 0, "fusion_lon": 0.0, "fusion_lat": 0.0, "lat": 38.904773666666664, "type": "electric_scooter", "lon": -77.027159, "bike_id": "c83e5c037c97af2624e2aa337bd12cc2", "rental_uris": {"android": "https://dc.lft.to/lastmile_qr_scan", "ios": "https://dc.lft.to/lastmile_qr_scan"}, "name": "c83e5c037c97af2624e2aa337bd12cc2", "is_reserved": 0}, {"is_disabled": 0, "fusion_lon": 0.0, "fusion_lat": 0.0, "lat": 38.9626795, "type": "electric_scooter", "lon": -77.03349416666667, "bike_id": "eb0c6db1021634937951b701914a1836", "rental_uris": {"android": "https://dc.lft.to/lastmile_qr_scan", "ios": "https://dc.lft.to/lastmile_qr_scan"}, "name": "eb0c6db1021634937951b701914a1836", "is_reserved": 0}, {"is_disabled": 0, "fusion_lon": 0.0, "fusion_lat": 0.0, "lat": 38.933264333333334, "type": "electric_scooter", "lon": -77.081866, "bike_id": "03d46e838e0b47601291a337b27cd9cd", "rental_uris": {"android": "https://dc.lft.to/lastmile_qr_scan", "ios": "https://dc.lft.to/lastmile_qr_scan"}, "name": "03d46e838e0b47601291a337b27cd9cd", "is_reserved": 0}, {"is_disabled": 0, "fusion_lon": 0.0, "fusion_lat": 0.0, "lat": 38.9045775, "type": "electric_scooter", "lon": -77.02888266666666, "bike_id": "af5d5d44c088778ffc50364a897b05a1", "rental_uris": {"android": "https://dc.lft.to/lastmile_qr_scan", "ios": "https://dc.lft.to/lastmile_qr_scan"}, "name": "af5d5d44c088778ffc50364a897b05a1", "is_reserved": 0}, {"is_disabled": 0, "fusion_lon": 0.0, "fusion_lat": 0.0, "lat": 38.96644883333333, "type": "electric_bike", "lon": -76.93024816666667, "bike_id": "b6ae60ace7b19f5433e11b97b8e81f02", "rental_uris": {"android": "https://dc.lft.to/lastmile_qr_scan", "ios": "https://dc.lft.to/lastmile_qr_scan"}, "name": "b6ae60ace7b19f5433e11b97b8e81f02", "is_reserved": 0}, {"is_disabled": 0, "fusion_lon": 0.0, "fusion_lat": 0.0, "lat": 38.9041405, "type": "electric_scooter", "lon": -77.04363783333334, "bike_id": "c79dd748c73169a73023beb7195ab60f", "rental_uris": {"android": "https://dc.lft.to/lastmile_qr_scan", "ios": "https://dc.lft.to/lastmile_qr_scan"}, "name": "c79dd748c73169a73023beb7195ab60f", "is_reserved": 0}, {"is_disabled": 0, "fusion_lon": 0.0, "fusion_lat": 0.0, "lat": 38.85801033333333, "type": "electric_bike", "lon": -76.98759233333334, "bike_id": "86b7c9d17680d59ea1e201c2824d4372", "rental_uris": {"android": "https://dc.lft.to/lastmile_qr_scan", "ios": "https://dc.lft.to/lastmile_qr_scan"}, "name": "86b7c9d17680d59ea1e201c2824d4372", "is_reserved": 0}, {"is_disabled": 0, "fusion_lon": 0.0, "fusion_lat": 0.0, "lat": 38.89350916666667, "type": "electric_scooter", "lon": -77.02216316666667, "bike_id": "1525c0b4c5899aefbce1f785ffbc7614", "rental_uris": {"android": "https://dc.lft.to/lastmile_qr_scan", "ios": "https://dc.lft.to/lastmile_qr_scan"}, "name": "1525c0b4c5899aefbce1f785ffbc7614", "is_reserved": 0}, {"is_disabled": 0, "fusion_lon": 0.0, "fusion_lat": 0.0, "lat": 38.905695333333334, "type": "electric_scooter", "lon": -77.0057165, "bike_id": "17072b63db9aa79fb5c8e55b8293f4b3", "rental_uris": {"android": "https://dc.lft.to/lastmile_qr_scan", "ios": "https://dc.lft.to/lastmile_qr_scan"}, "name": "17072b63db9aa79fb5c8e55b8293f4b3", "is_reserved": 0}, {"is_disabled": 0, "fusion_lon": 0.0, "fusion_lat": 0.0, "lat": 38.9203795, "type": "electric_scooter", "lon": -77.04187, "bike_id": "578daaf4f4309b0da475fde40c714ec5", "rental_uris": {"android": "https://dc.lft.to/lastmile_qr_scan", "ios": "https://dc.lft.to/lastmile_qr_scan"}, "name": "578daaf4f4309b0da475fde40c714ec5", "is_reserved": 0}, {"is_disabled": 0, "fusion_lon": 0.0, "fusion_lat": 0.0, "lat": 38.87981766666667, "type": "electric_bike", "lon": -76.916011, "bike_id": "20f3b32b479c7cc11eaa0fc18610b82a", "rental_uris": {"android": "https://dc.lft.to/lastmile_qr_scan", "ios": "https://dc.lft.to/lastmile_qr_scan"}, "name": "20f3b32b479c7cc11eaa0fc18610b82a", "is_reserved": 0}, {"is_disabled": 0, "fusion_lon": 0.0, "fusion_lat": 0.0, "lat": 38.8960735, "type": "electric_scooter", "lon": -77.02949983333333, "bike_id": "acbee8c5fe7556077bd14b19c87e693e", "rental_uris": {"android": "https://dc.lft.to/lastmile_qr_scan", "ios": "https://dc.lft.to/lastmile_qr_scan"}, "name": "acbee8c5fe7556077bd14b19c87e693e", "is_reserved": 0}, {"is_disabled": 0, "fusion_lon": 0.0, "fusion_lat": 0.0, "lat": 38.91669183333333, "type": "electric_scooter", "lon": -77.0296715, "bike_id": "ebb2631987ceee45ae02b1170a5f3e93", "rental_uris": {"android": "https://dc.lft.to/lastmile_qr_scan", "ios": "https://dc.lft.to/lastmile_qr_scan"}, "name": "ebb2631987ceee45ae02b1170a5f3e93", "is_reserved": 0}, {"is_disabled": 0, "fusion_lon": 0.0, "fusion_lat": 0.0, "lat": 38.922771166666664, "type": "electric_scooter", "lon": -77.036561, "bike_id": "51697b13f5db1cc5cebc0a4c12a5f7b9", "rental_uris": {"android": "https://dc.lft.to/lastmile_qr_scan", "ios": "https://dc.lft.to/lastmile_qr_scan"}, "name": "51697b13f5db1cc5cebc0a4c12a5f7b9", "is_reserved": 0}, {"is_disabled": 0, "fusion_lon": 0.0, "fusion_lat": 0.0, "lat": 38.922445833333335, "type": "electric_scooter", "lon": -77.02240816666666, "bike_id": "4d4a1e4f09491ffa26a11ec0e923f80e", "rental_uris": {"android": "https://dc.lft.to/lastmile_qr_scan", "ios": "https://dc.lft.to/lastmile_qr_scan"}, "name": "4d4a1e4f09491ffa26a11ec0e923f80e", "is_reserved": 0}, {"is_disabled": 0, "fusion_lon": 0.0, "fusion_lat": 0.0, "lat": 38.901380333333336, "type": "electric_scooter", "lon": -77.0406845, "bike_id": "46342454dfc811b2a4296fc1589fff69", "rental_uris": {"android": "https://dc.lft.to/lastmile_qr_scan", "ios": "https://dc.lft.to/lastmile_qr_scan"}, "name": "46342454dfc811b2a4296fc1589fff69", "is_reserved": 0}, {"is_disabled": 0, "fusion_lon": 0.0, "fusion_lat": 0.0, "lat": 38.95042616666667, "type": "electric_scooter", "lon": -77.02294233333333, "bike_id": "1b91c9da25707c5b2bc76edd6785c495", "rental_uris": {"android": "https://dc.lft.to/lastmile_qr_scan", "ios": "https://dc.lft.to/lastmile_qr_scan"}, "name": "1b91c9da25707c5b2bc76edd6785c495", "is_reserved": 0}, {"is_disabled": 0, "fusion_lon": 0.0, "fusion_lat": 0.0, "lat": 38.9074525, "type": "electric_scooter", "lon": -77.04673266666667, "bike_id": "d8b58627697b087dc2843977b82f23e5", "rental_uris": {"android": "https://dc.lft.to/lastmile_qr_scan", "ios": "https://dc.lft.to/lastmile_qr_scan"}, "name": "d8b58627697b087dc2843977b82f23e5", "is_reserved": 0}, {"is_disabled": 0, "fusion_lon": 0.0, "fusion_lat": 0.0, "lat": 38.904152833333335, "type": "electric_scooter", "lon": -77.05127916666666, "bike_id": "8f68b0edc7ec9d6f6fc76bf920b221bd", "rental_uris": {"android": "https://dc.lft.to/lastmile_qr_scan", "ios": "https://dc.lft.to/lastmile_qr_scan"}, "name": "8f68b0edc7ec9d6f6fc76bf920b221bd", "is_reserved": 0}, {"is_disabled": 0, "fusion_lon": 0.0, "fusion_lat": 0.0, "lat": 38.92151616666666, "type": "electric_scooter", "lon": -77.03473166666667, "bike_id": "8621798a937f645fa048ee40818ae5d3", "rental_uris": {"android": "https://dc.lft.to/lastmile_qr_scan", "ios": "https://dc.lft.to/lastmile_qr_scan"}, "name": "8621798a937f645fa048ee40818ae5d3", "is_reserved": 0}, {"is_disabled": 0, "fusion_lon": 0.0, "fusion_lat": 0.0, "lat": 38.8835155, "type": "electric_scooter", "lon": -76.927875, "bike_id": "4fee24a33c257388232e9ad0cf83c33c", "rental_uris": {"android": "https://dc.lft.to/lastmile_qr_scan", "ios": "https://dc.lft.to/lastmile_qr_scan"}, "name": "4fee24a33c257388232e9ad0cf83c33c", "is_reserved": 0}, {"is_disabled": 0, "fusion_lon": 0.0, "fusion_lat": 0.0, "lat": 38.927085, "type": "electric_scooter", "lon": -76.97212266666666, "bike_id": "2f3676f61c87ce8a78cb71ffa5e15eaf", "rental_uris": {"android": "https://dc.lft.to/lastmile_qr_scan", "ios": "https://dc.lft.to/lastmile_qr_scan"}, "name": "2f3676f61c87ce8a78cb71ffa5e15eaf", "is_reserved": 0}, {"is_disabled": 0, "fusion_lon": 0.0, "fusion_lat": 0.0, "lat": 38.91381616666666, "type": "electric_scooter", "lon": -77.02976466666667, "bike_id": "343ffd5e799e4af4c8070af32b722a5e", "rental_uris": {"android": "https://dc.lft.to/lastmile_qr_scan", "ios": "https://dc.lft.to/lastmile_qr_scan"}, "name": "343ffd5e799e4af4c8070af32b722a5e", "is_reserved": 0}, {"is_disabled": 0, "fusion_lon": 0.0, "fusion_lat": 0.0, "lat": 38.90068433333333, "type": "electric_scooter", "lon": -77.05233383333334, "bike_id": "e162e18a2d5633257f3612189444ae24", "rental_uris": {"android": "https://dc.lft.to/lastmile_qr_scan", "ios": "https://dc.lft.to/lastmile_qr_scan"}, "name": "e162e18a2d5633257f3612189444ae24", "is_reserved": 0}, {"is_disabled": 0, "fusion_lon": 0.0, "fusion_lat": 0.0, "lat": 38.906552166666664, "type": "electric_scooter", "lon": -77.02520383333334, "bike_id": "b81bae2bcbc7e958515b3f526bafdce8", "rental_uris": {"android": "https://dc.lft.to/lastmile_qr_scan", "ios": "https://dc.lft.to/lastmile_qr_scan"}, "name": "b81bae2bcbc7e958515b3f526bafdce8", "is_reserved": 0}, {"is_disabled": 0, "fusion_lon": 0.0, "fusion_lat": 0.0, "lat": 38.89259033333333, "type": "electric_scooter", "lon": -76.94157316666667, "bike_id": "74824fb9fac86abdbe4b016092c9f1f0", "rental_uris": {"android": "https://dc.lft.to/lastmile_qr_scan", "ios": "https://dc.lft.to/lastmile_qr_scan"}, "name": "74824fb9fac86abdbe4b016092c9f1f0", "is_reserved": 0}, {"is_disabled": 0, "fusion_lon": 0.0, "fusion_lat": 0.0, "lat": 38.918756, "type": "electric_scooter", "lon": -77.04314916666667, "bike_id": "279707b4db181dae0b186663ce730e31", "rental_uris": {"android": "https://dc.lft.to/lastmile_qr_scan", "ios": "https://dc.lft.to/lastmile_qr_scan"}, "name": "279707b4db181dae0b186663ce730e31", "is_reserved": 0}, {"is_disabled": 0, "fusion_lon": 0.0, "fusion_lat": 0.0, "lat": 38.91484366666667, "type": "electric_scooter", "lon": -77.02174616666667, "bike_id": "1c1b85f9393564f2dc98c71cf8b1fe45", "rental_uris": {"android": "https://dc.lft.to/lastmile_qr_scan", "ios": "https://dc.lft.to/lastmile_qr_scan"}, "name": "1c1b85f9393564f2dc98c71cf8b1fe45", "is_reserved": 0}, {"is_disabled": 0, "fusion_lon": 0.0, "fusion_lat": 0.0, "lat": 38.922842333333335, "type": "electric_scooter", "lon": -77.07296266666667, "bike_id": "f386f0607ded93c7169ed55316d11174", "rental_uris": {"android": "https://dc.lft.to/lastmile_qr_scan", "ios": "https://dc.lft.to/lastmile_qr_scan"}, "name": "f386f0607ded93c7169ed55316d11174", "is_reserved": 0}, {"is_disabled": 0, "fusion_lon": 0.0, "fusion_lat": 0.0, "lat": 38.890116, "type": "electric_scooter", "lon": -76.937353, "bike_id": "61e82fc67d082b3c0ba6c0a2890bd0bc", "rental_uris": {"android": "https://dc.lft.to/lastmile_qr_scan", "ios": "https://dc.lft.to/lastmile_qr_scan"}, "name": "61e82fc67d082b3c0ba6c0a2890bd0bc", "is_reserved": 0}, {"is_disabled": 0, "fusion_lon": 0.0, "fusion_lat": 0.0, "lat": 38.918780166666664, "type": "electric_scooter", "lon": -77.044677, "bike_id": "c2ad23a671ef28a5c7ee40d67ce9ddc0", "rental_uris": {"android": "https://dc.lft.to/lastmile_qr_scan", "ios": "https://dc.lft.to/lastmile_qr_scan"}, "name": "c2ad23a671ef28a5c7ee40d67ce9ddc0", "is_reserved": 0}, {"is_disabled": 0, "fusion_lon": 0.0, "fusion_lat": 0.0, "lat": 38.874583333333334, "type": "electric_scooter", "lon": -77.01584433333333, "bike_id": "628caadbb8f9a44c72a51a95534cc4fd", "rental_uris": {"android": "https://dc.lft.to/lastmile_qr_scan", "ios": "https://dc.lft.to/lastmile_qr_scan"}, "name": "628caadbb8f9a44c72a51a95534cc4fd", "is_reserved": 0}, {"is_disabled": 0, "fusion_lon": 0.0, "fusion_lat": 0.0, "lat": 38.926901, "type": "electric_bike", "lon": -77.06124466666667, "bike_id": "ee5c7a2ac2c56ea4221e0da05b041bfc", "rental_uris": {"android": "https://dc.lft.to/lastmile_qr_scan", "ios": "https://dc.lft.to/lastmile_qr_scan"}, "name": "ee5c7a2ac2c56ea4221e0da05b041bfc", "is_reserved": 0}, {"is_disabled": 0, "fusion_lon": 0.0, "fusion_lat": 0.0, "lat": 38.91922483333333, "type": "electric_scooter", "lon": -77.0316705, "bike_id": "5fa282f412f42b895fda39b0b4de46f2", "rental_uris": {"android": "https://dc.lft.to/lastmile_qr_scan", "ios": "https://dc.lft.to/lastmile_qr_scan"}, "name": "5fa282f412f42b895fda39b0b4de46f2", "is_reserved": 0}, {"is_disabled": 0, "fusion_lon": 0.0, "fusion_lat": 0.0, "lat": 38.9449415, "type": "electric_bike", "lon": -76.9866315, "bike_id": "35a2219bdf3161217dbd8f9c9f822ba1", "rental_uris": {"android": "https://dc.lft.to/lastmile_qr_scan", "ios": "https://dc.lft.to/lastmile_qr_scan"}, "name": "35a2219bdf3161217dbd8f9c9f822ba1", "is_reserved": 0}, {"is_disabled": 0, "fusion_lon": 0.0, "fusion_lat": 0.0, "lat": 38.909535166666664, "type": "electric_scooter", "lon": -77.0249515, "bike_id": "13b0331aa5254488c859f118599b625d", "rental_uris": {"android": "https://dc.lft.to/lastmile_qr_scan", "ios": "https://dc.lft.to/lastmile_qr_scan"}, "name": "13b0331aa5254488c859f118599b625d", "is_reserved": 0}, {"is_disabled": 0, "fusion_lon": 0.0, "fusion_lat": 0.0, "lat": 38.92340683333333, "type": "electric_scooter", "lon": -77.05050983333334, "bike_id": "c7fe844e9460d17f594293de06e34ddb", "rental_uris": {"android": "https://dc.lft.to/lastmile_qr_scan", "ios": "https://dc.lft.to/lastmile_qr_scan"}, "name": "c7fe844e9460d17f594293de06e34ddb", "is_reserved": 0}, {"is_disabled": 0, "fusion_lon": 0.0, "fusion_lat": 0.0, "lat": 38.920933833333336, "type": "electric_scooter", "lon": -77.02595383333333, "bike_id": "62a92872dd90f7fe877e5216a3c5d822", "rental_uris": {"android": "https://dc.lft.to/lastmile_qr_scan", "ios": "https://dc.lft.to/lastmile_qr_scan"}, "name": "62a92872dd90f7fe877e5216a3c5d822", "is_reserved": 0}, {"is_disabled": 0, "fusion_lon": 0.0, "fusion_lat": 0.0, "lat": 38.887475, "type": "electric_scooter", "lon": -76.97894066666667, "bike_id": "ec5e3331e3dee2c30b5860890f09035b", "rental_uris": {"android": "https://dc.lft.to/lastmile_qr_scan", "ios": "https://dc.lft.to/lastmile_qr_scan"}, "name": "ec5e3331e3dee2c30b5860890f09035b", "is_reserved": 0}, {"is_disabled": 0, "fusion_lon": 0.0, "fusion_lat": 0.0, "lat": 38.92649766666667, "type": "electric_scooter", "lon": -77.04329683333333, "bike_id": "129d71a8e50869bd7db995cccbcf9fbb", "rental_uris": {"android": "https://dc.lft.to/lastmile_qr_scan", "ios": "https://dc.lft.to/lastmile_qr_scan"}, "name": "129d71a8e50869bd7db995cccbcf9fbb", "is_reserved": 0}, {"is_disabled": 0, "fusion_lon": 0.0, "fusion_lat": 0.0, "lat": 38.91574716666667, "type": "electric_scooter", "lon": -77.03088583333333, "bike_id": "2b1f6b01f29c3e31a5917fa2504d6c95", "rental_uris": {"android": "https://dc.lft.to/lastmile_qr_scan", "ios": "https://dc.lft.to/lastmile_qr_scan"}, "name": "2b1f6b01f29c3e31a5917fa2504d6c95", "is_reserved": 0}, {"is_disabled": 0, "fusion_lon": 0.0, "fusion_lat": 0.0, "lat": 38.905635333333336, "type": "electric_scooter", "lon": -77.01888, "bike_id": "4852f27be71a0d220185e3aa8aa36758", "rental_uris": {"android": "https://dc.lft.to/lastmile_qr_scan", "ios": "https://dc.lft.to/lastmile_qr_scan"}, "name": "4852f27be71a0d220185e3aa8aa36758", "is_reserved": 0}, {"is_disabled": 0, "fusion_lon": 0.0, "fusion_lat": 0.0, "lat": 38.890173833333336, "type": "electric_scooter", "lon": -76.93736016666666, "bike_id": "b19106baeca312b59fed95dda69ae1f9", "rental_uris": {"android": "https://dc.lft.to/lastmile_qr_scan", "ios": "https://dc.lft.to/lastmile_qr_scan"}, "name": "b19106baeca312b59fed95dda69ae1f9", "is_reserved": 0}, {"is_disabled": 0, "fusion_lon": 0.0, "fusion_lat": 0.0, "lat": 38.84434266666667, "type": "electric_scooter", "lon": -76.99784416666667, "bike_id": "2c7757e0232a3b02c9666a45092bfd64", "rental_uris": {"android": "https://dc.lft.to/lastmile_qr_scan", "ios": "https://dc.lft.to/lastmile_qr_scan"}, "name": "2c7757e0232a3b02c9666a45092bfd64", "is_reserved": 0}, {"is_disabled": 0, "fusion_lon": 0.0, "fusion_lat": 0.0, "lat": 38.921379333333334, "type": "electric_scooter", "lon": -77.0441745, "bike_id": "70e37a25c733d970d4972de324fdd6a4", "rental_uris": {"android": "https://dc.lft.to/lastmile_qr_scan", "ios": "https://dc.lft.to/lastmile_qr_scan"}, "name": "70e37a25c733d970d4972de324fdd6a4", "is_reserved": 0}, {"is_disabled": 0, "fusion_lon": 0.0, "fusion_lat": 0.0, "lat": 38.909643, "type": "electric_scooter", "lon": -77.03839283333333, "bike_id": "018db0bc3ddb08afb279dd2c506dc5e5", "rental_uris": {"android": "https://dc.lft.to/lastmile_qr_scan", "ios": "https://dc.lft.to/lastmile_qr_scan"}, "name": "018db0bc3ddb08afb279dd2c506dc5e5", "is_reserved": 0}, {"is_disabled": 0, "fusion_lon": 0.0, "fusion_lat": 0.0, "lat": 38.95557066666667, "type": "electric_scooter", "lon": -77.06994, "bike_id": "3bcca7e652c46a0a79538bd610b798e6", "rental_uris": {"android": "https://dc.lft.to/lastmile_qr_scan", "ios": "https://dc.lft.to/lastmile_qr_scan"}, "name": "3bcca7e652c46a0a79538bd610b798e6", "is_reserved": 0}, {"is_disabled": 0, "fusion_lon": 0.0, "fusion_lat": 0.0, "lat": 38.8052565, "type": "electric_bike", "lon": -77.04995133333334, "bike_id": "d359722d8c92fbfc32fe96c32e9e259f", "rental_uris": {"android": "https://dc.lft.to/lastmile_qr_scan", "ios": "https://dc.lft.to/lastmile_qr_scan"}, "name": "d359722d8c92fbfc32fe96c32e9e259f", "is_reserved": 0}, {"is_disabled": 0, "fusion_lon": 0.0, "fusion_lat": 0.0, "lat": 38.912609333333336, "type": "electric_scooter", "lon": -77.03913033333333, "bike_id": "b44fc5e4fd122fcf21322c517883f29b", "rental_uris": {"android": "https://dc.lft.to/lastmile_qr_scan", "ios": "https://dc.lft.to/lastmile_qr_scan"}, "name": "b44fc5e4fd122fcf21322c517883f29b", "is_reserved": 0}, {"is_disabled": 0, "fusion_lon": 0.0, "fusion_lat": 0.0, "lat": 38.912388, "type": "electric_scooter", "lon": -77.01225866666667, "bike_id": "bf5c14ea8ef1306976710f48d4593a25", "rental_uris": {"android": "https://dc.lft.to/lastmile_qr_scan", "ios": "https://dc.lft.to/lastmile_qr_scan"}, "name": "bf5c14ea8ef1306976710f48d4593a25", "is_reserved": 0}, {"is_disabled": 0, "fusion_lon": 0.0, "fusion_lat": 0.0, "lat": 38.88431416666667, "type": "electric_scooter", "lon": -76.99807033333333, "bike_id": "21d354eb4ad55ab749f232db225adf1b", "rental_uris": {"android": "https://dc.lft.to/lastmile_qr_scan", "ios": "https://dc.lft.to/lastmile_qr_scan"}, "name": "21d354eb4ad55ab749f232db225adf1b", "is_reserved": 0}, {"is_disabled": 0, "fusion_lon": 0.0, "fusion_lat": 0.0, "lat": 38.89222866666667, "type": "electric_scooter", "lon": -77.0480735, "bike_id": "36f329d8ccea74352bd87dc163a76f00", "rental_uris": {"android": "https://dc.lft.to/lastmile_qr_scan", "ios": "https://dc.lft.to/lastmile_qr_scan"}, "name": "36f329d8ccea74352bd87dc163a76f00", "is_reserved": 0}, {"is_disabled": 0, "fusion_lon": 0.0, "fusion_lat": 0.0, "lat": 38.8765765, "type": "electric_scooter", "lon": -77.00904433333334, "bike_id": "742c470840419eb4e8183c01f1d94950", "rental_uris": {"android": "https://dc.lft.to/lastmile_qr_scan", "ios": "https://dc.lft.to/lastmile_qr_scan"}, "name": "742c470840419eb4e8183c01f1d94950", "is_reserved": 0}, {"is_disabled": 0, "fusion_lon": 0.0, "fusion_lat": 0.0, "lat": 39.088443166666664, "type": "electric_bike", "lon": -77.17801733333333, "bike_id": "b32b6bcd44fd3c1b4e76bb9fa8d51038", "rental_uris": {"android": "https://dc.lft.to/lastmile_qr_scan", "ios": "https://dc.lft.to/lastmile_qr_scan"}, "name": "b32b6bcd44fd3c1b4e76bb9fa8d51038", "is_reserved": 0}, {"is_disabled": 0, "fusion_lon": 0.0, "fusion_lat": 0.0, "lat": 38.884041333333336, "type": "electric_scooter", "lon": -76.954111, "bike_id": "8fe5ebbc82dcedf7478dbf46568a0a4c", "rental_uris": {"android": "https://dc.lft.to/lastmile_qr_scan", "ios": "https://dc.lft.to/lastmile_qr_scan"}, "name": "8fe5ebbc82dcedf7478dbf46568a0a4c", "is_reserved": 0}, {"is_disabled": 0, "fusion_lon": 0.0, "fusion_lat": 0.0, "lat": 38.906302333333336, "type": "electric_scooter", "lon": -77.0060425, "bike_id": "64023ff76ae753946c3f4e6a7bed462e", "rental_uris": {"android": "https://dc.lft.to/lastmile_qr_scan", "ios": "https://dc.lft.to/lastmile_qr_scan"}, "name": "64023ff76ae753946c3f4e6a7bed462e", "is_reserved": 0}, {"is_disabled": 0, "fusion_lon": 0.0, "fusion_lat": 0.0, "lat": 38.877689, "type": "electric_scooter", "lon": -77.0067845, "bike_id": "f1fc0304eae55d249e58231799cc6b66", "rental_uris": {"android": "https://dc.lft.to/lastmile_qr_scan", "ios": "https://dc.lft.to/lastmile_qr_scan"}, "name": "f1fc0304eae55d249e58231799cc6b66", "is_reserved": 0}, {"is_disabled": 0, "fusion_lon": 0.0, "fusion_lat": 0.0, "lat": 38.88215233333333, "type": "electric_scooter", "lon": -76.927031, "bike_id": "2b11a0bc7c0a1bba893f6ece0eb1489a", "rental_uris": {"android": "https://dc.lft.to/lastmile_qr_scan", "ios": "https://dc.lft.to/lastmile_qr_scan"}, "name": "2b11a0bc7c0a1bba893f6ece0eb1489a", "is_reserved": 0}, {"is_disabled": 0, "fusion_lon": 0.0, "fusion_lat": 0.0, "lat": 38.901615166666666, "type": "electric_scooter", "lon": -77.02011366666666, "bike_id": "414f40be01cbef058284994d05e4ac62", "rental_uris": {"android": "https://dc.lft.to/lastmile_qr_scan", "ios": "https://dc.lft.to/lastmile_qr_scan"}, "name": "414f40be01cbef058284994d05e4ac62", "is_reserved": 0}, {"is_disabled": 0, "fusion_lon": 0.0, "fusion_lat": 0.0, "lat": 38.903401833333334, "type": "electric_scooter", "lon": -76.97576266666667, "bike_id": "aa87c163a8db9b740f18d544d40218aa", "rental_uris": {"android": "https://dc.lft.to/lastmile_qr_scan", "ios": "https://dc.lft.to/lastmile_qr_scan"}, "name": "aa87c163a8db9b740f18d544d40218aa", "is_reserved": 0}, {"is_disabled": 0, "fusion_lon": 0.0, "fusion_lat": 0.0, "lat": 38.91404633333333, "type": "electric_scooter", "lon": -77.02173916666666, "bike_id": "8ee2b3ea009a071bc3217894927bba71", "rental_uris": {"android": "https://dc.lft.to/lastmile_qr_scan", "ios": "https://dc.lft.to/lastmile_qr_scan"}, "name": "8ee2b3ea009a071bc3217894927bba71", "is_reserved": 0}, {"is_disabled": 0, "fusion_lon": 0.0, "fusion_lat": 0.0, "lat": 38.925901, "type": "electric_bike", "lon": -76.88906616666667, "bike_id": "22548db4b2cc42e25e8028ffb3fef0e7", "rental_uris": {"android": "https://dc.lft.to/lastmile_qr_scan", "ios": "https://dc.lft.to/lastmile_qr_scan"}, "name": "22548db4b2cc42e25e8028ffb3fef0e7", "is_reserved": 0}, {"is_disabled": 0, "fusion_lon": 0.0, "fusion_lat": 0.0, "lat": 38.91286066666667, "type": "electric_scooter", "lon": -77.03191316666667, "bike_id": "df072eac20d1e2a6295e4e2752ef1ba7", "rental_uris": {"android": "https://dc.lft.to/lastmile_qr_scan", "ios": "https://dc.lft.to/lastmile_qr_scan"}, "name": "df072eac20d1e2a6295e4e2752ef1ba7", "is_reserved": 0}, {"is_disabled": 0, "fusion_lon": 0.0, "fusion_lat": 0.0, "lat": 38.8923645, "type": "electric_bike", "lon": -76.95226, "bike_id": "1dcccff8e955d06542edbd32bcf758e5", "rental_uris": {"android": "https://dc.lft.to/lastmile_qr_scan", "ios": "https://dc.lft.to/lastmile_qr_scan"}, "name": "1dcccff8e955d06542edbd32bcf758e5", "is_reserved": 0}, {"is_disabled": 0, "fusion_lon": 0.0, "fusion_lat": 0.0, "lat": 38.908527666666664, "type": "electric_scooter", "lon": -77.0715435, "bike_id": "963016c6a71a8bf40ad7ad5fce55904d", "rental_uris": {"android": "https://dc.lft.to/lastmile_qr_scan", "ios": "https://dc.lft.to/lastmile_qr_scan"}, "name": "963016c6a71a8bf40ad7ad5fce55904d", "is_reserved": 0}, {"is_disabled": 0, "fusion_lon": 0.0, "fusion_lat": 0.0, "lat": 38.8952865, "type": "electric_scooter", "lon": -77.03349616666667, "bike_id": "fc60e2204d45c75315e3f36f4c05800d", "rental_uris": {"android": "https://dc.lft.to/lastmile_qr_scan", "ios": "https://dc.lft.to/lastmile_qr_scan"}, "name": "fc60e2204d45c75315e3f36f4c05800d", "is_reserved": 0}, {"is_disabled": 0, "fusion_lon": 0.0, "fusion_lat": 0.0, "lat": 38.8246175, "type": "electric_bike", "lon": -77.070835, "bike_id": "336ed48854a9836ef487b4e854f96d1e", "rental_uris": {"android": "https://dc.lft.to/lastmile_qr_scan", "ios": "https://dc.lft.to/lastmile_qr_scan"}, "name": "336ed48854a9836ef487b4e854f96d1e", "is_reserved": 0}, {"is_disabled": 0, "fusion_lon": 0.0, "fusion_lat": 0.0, "lat": 38.8818945, "type": "electric_scooter", "lon": -77.003512, "bike_id": "bbccadbb4bb414c68487285f1a4d5bde", "rental_uris": {"android": "https://dc.lft.to/lastmile_qr_scan", "ios": "https://dc.lft.to/lastmile_qr_scan"}, "name": "bbccadbb4bb414c68487285f1a4d5bde", "is_reserved": 0}, {"is_disabled": 0, "fusion_lon": 0.0, "fusion_lat": 0.0, "lat": 38.920584833333336, "type": "electric_scooter", "lon": -77.042704, "bike_id": "7b0d69427ec74aaa1b2fe6909d19398c", "rental_uris": {"android": "https://dc.lft.to/lastmile_qr_scan", "ios": "https://dc.lft.to/lastmile_qr_scan"}, "name": "7b0d69427ec74aaa1b2fe6909d19398c", "is_reserved": 0}, {"is_disabled": 0, "fusion_lon": 0.0, "fusion_lat": 0.0, "lat": 38.914108666666664, "type": "electric_scooter", "lon": -77.03097383333333, "bike_id": "35605885163810ab171412a61561697b", "rental_uris": {"android": "https://dc.lft.to/lastmile_qr_scan", "ios": "https://dc.lft.to/lastmile_qr_scan"}, "name": "35605885163810ab171412a61561697b", "is_reserved": 0}, {"is_disabled": 0, "fusion_lon": 0.0, "fusion_lat": 0.0, "lat": 38.93860333333333, "type": "electric_scooter", "lon": -77.02650483333333, "bike_id": "cf2d1a28c51db5170805b0553b0bc662", "rental_uris": {"android": "https://dc.lft.to/lastmile_qr_scan", "ios": "https://dc.lft.to/lastmile_qr_scan"}, "name": "cf2d1a28c51db5170805b0553b0bc662", "is_reserved": 0}, {"is_disabled": 0, "fusion_lon": 0.0, "fusion_lat": 0.0, "lat": 38.905581166666664, "type": "electric_scooter", "lon": -77.04086866666667, "bike_id": "7fa1cb96aa8a3408e379a7ec1de4f4ac", "rental_uris": {"android": "https://dc.lft.to/lastmile_qr_scan", "ios": "https://dc.lft.to/lastmile_qr_scan"}, "name": "7fa1cb96aa8a3408e379a7ec1de4f4ac", "is_reserved": 0}, {"is_disabled": 0, "fusion_lon": 0.0, "fusion_lat": 0.0, "lat": 38.9128665, "type": "electric_scooter", "lon": -76.98693283333333, "bike_id": "ced987dc98b899bc00834901e92885d7", "rental_uris": {"android": "https://dc.lft.to/lastmile_qr_scan", "ios": "https://dc.lft.to/lastmile_qr_scan"}, "name": "ced987dc98b899bc00834901e92885d7", "is_reserved": 0}, {"is_disabled": 0, "fusion_lon": 0.0, "fusion_lat": 0.0, "lat": 38.918161, "type": "electric_scooter", "lon": -77.02478683333334, "bike_id": "e905e1c07de73f6fd3c3541c89112e19", "rental_uris": {"android": "https://dc.lft.to/lastmile_qr_scan", "ios": "https://dc.lft.to/lastmile_qr_scan"}, "name": "e905e1c07de73f6fd3c3541c89112e19", "is_reserved": 0}, {"is_disabled": 0, "fusion_lon": 0.0, "fusion_lat": 0.0, "lat": 38.899083833333336, "type": "electric_scooter", "lon": -76.93393716666667, "bike_id": "31eca2254dedc836933d84680c957f56", "rental_uris": {"android": "https://dc.lft.to/lastmile_qr_scan", "ios": "https://dc.lft.to/lastmile_qr_scan"}, "name": "31eca2254dedc836933d84680c957f56", "is_reserved": 0}, {"is_disabled": 0, "fusion_lon": 0.0, "fusion_lat": 0.0, "lat": 38.901499666666666, "type": "electric_scooter", "lon": -77.05915816666666, "bike_id": "d0d1dba5ffc243bc2af4b9d079501861", "rental_uris": {"android": "https://dc.lft.to/lastmile_qr_scan", "ios": "https://dc.lft.to/lastmile_qr_scan"}, "name": "d0d1dba5ffc243bc2af4b9d079501861", "is_reserved": 0}, {"is_disabled": 0, "fusion_lon": 0.0, "fusion_lat": 0.0, "lat": 38.90312616666667, "type": "electric_scooter", "lon": -77.02368033333333, "bike_id": "cd372031ba0b215265ddaa3690b6c8e6", "rental_uris": {"android": "https://dc.lft.to/lastmile_qr_scan", "ios": "https://dc.lft.to/lastmile_qr_scan"}, "name": "cd372031ba0b215265ddaa3690b6c8e6", "is_reserved": 0}, {"is_disabled": 0, "fusion_lon": 0.0, "fusion_lat": 0.0, "lat": 38.9055125, "type": "electric_scooter", "lon": -77.04649883333333, "bike_id": "909bfeb34738d856bd08d6ab2b1c1d5e", "rental_uris": {"android": "https://dc.lft.to/lastmile_qr_scan", "ios": "https://dc.lft.to/lastmile_qr_scan"}, "name": "909bfeb34738d856bd08d6ab2b1c1d5e", "is_reserved": 0}, {"is_disabled": 0, "fusion_lon": 0.0, "fusion_lat": 0.0, "lat": 38.90247016666667, "type": "electric_scooter", "lon": -77.03634983333333, "bike_id": "b41951e27ad5a018e5f51c376ae417d5", "rental_uris": {"android": "https://dc.lft.to/lastmile_qr_scan", "ios": "https://dc.lft.to/lastmile_qr_scan"}, "name": "b41951e27ad5a018e5f51c376ae417d5", "is_reserved": 0}, {"is_disabled": 0, "fusion_lon": 0.0, "fusion_lat": 0.0, "lat": 38.920123, "type": "electric_scooter", "lon": -77.03155066666666, "bike_id": "b940e663d704de886da8ef55203dd056", "rental_uris": {"android": "https://dc.lft.to/lastmile_qr_scan", "ios": "https://dc.lft.to/lastmile_qr_scan"}, "name": "b940e663d704de886da8ef55203dd056", "is_reserved": 0}, {"is_disabled": 0, "fusion_lon": 0.0, "fusion_lat": 0.0, "lat": 38.84272716666667, "type": "electric_bike", "lon": -76.98844566666666, "bike_id": "69f8400730fd9ec7c99ca4432f97ed1d", "rental_uris": {"android": "https://dc.lft.to/lastmile_qr_scan", "ios": "https://dc.lft.to/lastmile_qr_scan"}, "name": "69f8400730fd9ec7c99ca4432f97ed1d", "is_reserved": 0}, {"is_disabled": 0, "fusion_lon": 0.0, "fusion_lat": 0.0, "lat": 38.906274833333335, "type": "electric_scooter", "lon": -77.00608816666667, "bike_id": "fe9377eb01bd4dd9469590aa6ce1fb7a", "rental_uris": {"android": "https://dc.lft.to/lastmile_qr_scan", "ios": "https://dc.lft.to/lastmile_qr_scan"}, "name": "fe9377eb01bd4dd9469590aa6ce1fb7a", "is_reserved": 0}, {"is_disabled": 0, "fusion_lon": 0.0, "fusion_lat": 0.0, "lat": 38.902702, "type": "electric_scooter", "lon": -77.03437583333333, "bike_id": "dae41d35e9698c6c589c3338cac89b9a", "rental_uris": {"android": "https://dc.lft.to/lastmile_qr_scan", "ios": "https://dc.lft.to/lastmile_qr_scan"}, "name": "dae41d35e9698c6c589c3338cac89b9a", "is_reserved": 0}, {"is_disabled": 0, "fusion_lon": 0.0, "fusion_lat": 0.0, "lat": 38.897156833333334, "type": "electric_scooter", "lon": -77.024391, "bike_id": "1fc821aead74686741b86605dc8e7c59", "rental_uris": {"android": "https://dc.lft.to/lastmile_qr_scan", "ios": "https://dc.lft.to/lastmile_qr_scan"}, "name": "1fc821aead74686741b86605dc8e7c59", "is_reserved": 0}, {"is_disabled": 0, "fusion_lon": 0.0, "fusion_lat": 0.0, "lat": 38.92715033333333, "type": "electric_scooter", "lon": -77.05368583333333, "bike_id": "a4151d9c52dced1377df4ade393e5030", "rental_uris": {"android": "https://dc.lft.to/lastmile_qr_scan", "ios": "https://dc.lft.to/lastmile_qr_scan"}, "name": "a4151d9c52dced1377df4ade393e5030", "is_reserved": 0}, {"is_disabled": 0, "fusion_lon": 0.0, "fusion_lat": 0.0, "lat": 38.89974466666666, "type": "electric_scooter", "lon": -77.0316745, "bike_id": "48f8bc8153eb72991eb2dfe56f771b90", "rental_uris": {"android": "https://dc.lft.to/lastmile_qr_scan", "ios": "https://dc.lft.to/lastmile_qr_scan"}, "name": "48f8bc8153eb72991eb2dfe56f771b90", "is_reserved": 0}, {"is_disabled": 0, "fusion_lon": 0.0, "fusion_lat": 0.0, "lat": 38.93493616666667, "type": "electric_scooter", "lon": -77.02400116666666, "bike_id": "46f7347ce9d2f1778b69fd0c824edfb4", "rental_uris": {"android": "https://dc.lft.to/lastmile_qr_scan", "ios": "https://dc.lft.to/lastmile_qr_scan"}, "name": "46f7347ce9d2f1778b69fd0c824edfb4", "is_reserved": 0}, {"is_disabled": 0, "fusion_lon": 0.0, "fusion_lat": 0.0, "lat": 38.9578445, "type": "electric_scooter", "lon": -77.02471983333334, "bike_id": "4e4403e71773a861a8b6fed3e5b52a40", "rental_uris": {"android": "https://dc.lft.to/lastmile_qr_scan", "ios": "https://dc.lft.to/lastmile_qr_scan"}, "name": "4e4403e71773a861a8b6fed3e5b52a40", "is_reserved": 0}, {"is_disabled": 0, "fusion_lon": 0.0, "fusion_lat": 0.0, "lat": 38.93087766666667, "type": "electric_scooter", "lon": -77.03764433333333, "bike_id": "bd07ed519ea3e17648eee2abd701b299", "rental_uris": {"android": "https://dc.lft.to/lastmile_qr_scan", "ios": "https://dc.lft.to/lastmile_qr_scan"}, "name": "bd07ed519ea3e17648eee2abd701b299", "is_reserved": 0}, {"is_disabled": 0, "fusion_lon": 0.0, "fusion_lat": 0.0, "lat": 38.967609833333334, "type": "electric_bike", "lon": -77.09161, "bike_id": "f5c3e7cdb040530e7939a37443edd910", "rental_uris": {"android": "https://dc.lft.to/lastmile_qr_scan", "ios": "https://dc.lft.to/lastmile_qr_scan"}, "name": "f5c3e7cdb040530e7939a37443edd910", "is_reserved": 0}, {"is_disabled": 0, "fusion_lon": 0.0, "fusion_lat": 0.0, "lat": 38.863176833333334, "type": "electric_scooter", "lon": -76.99063183333334, "bike_id": "b009b58739bd9bffbd9ab406ff0fcf37", "rental_uris": {"android": "https://dc.lft.to/lastmile_qr_scan", "ios": "https://dc.lft.to/lastmile_qr_scan"}, "name": "b009b58739bd9bffbd9ab406ff0fcf37", "is_reserved": 0}, {"is_disabled": 0, "fusion_lon": 0.0, "fusion_lat": 0.0, "lat": 38.8360115, "type": "electric_scooter", "lon": -77.00364183333333, "bike_id": "b8173923eb9c4a194d5fdfdf4b92df19", "rental_uris": {"android": "https://dc.lft.to/lastmile_qr_scan", "ios": "https://dc.lft.to/lastmile_qr_scan"}, "name": "b8173923eb9c4a194d5fdfdf4b92df19", "is_reserved": 0}, {"is_disabled": 0, "fusion_lon": 0.0, "fusion_lat": 0.0, "lat": 38.857859, "type": "electric_bike", "lon": -77.09964883333333, "bike_id": "7ae17771287af91394b94345f7f59738", "rental_uris": {"android": "https://dc.lft.to/lastmile_qr_scan", "ios": "https://dc.lft.to/lastmile_qr_scan"}, "name": "7ae17771287af91394b94345f7f59738", "is_reserved": 0}, {"is_disabled": 0, "fusion_lon": 0.0, "fusion_lat": 0.0, "lat": 38.928664, "type": "electric_scooter", "lon": -77.0141285, "bike_id": "2c20edba2c86868628144b101449909d", "rental_uris": {"android": "https://dc.lft.to/lastmile_qr_scan", "ios": "https://dc.lft.to/lastmile_qr_scan"}, "name": "2c20edba2c86868628144b101449909d", "is_reserved": 0}, {"is_disabled": 0, "fusion_lon": 0.0, "fusion_lat": 0.0, "lat": 38.907348, "type": "electric_scooter", "lon": -77.03445966666666, "bike_id": "abae43a01c93f889b587b1f6b687c1f2", "rental_uris": {"android": "https://dc.lft.to/lastmile_qr_scan", "ios": "https://dc.lft.to/lastmile_qr_scan"}, "name": "abae43a01c93f889b587b1f6b687c1f2", "is_reserved": 0}, {"is_disabled": 0, "fusion_lon": 0.0, "fusion_lat": 0.0, "lat": 38.916344, "type": "electric_scooter", "lon": -77.0337155, "bike_id": "1c63788d0af330e6945189123d766d05", "rental_uris": {"android": "https://dc.lft.to/lastmile_qr_scan", "ios": "https://dc.lft.to/lastmile_qr_scan"}, "name": "1c63788d0af330e6945189123d766d05", "is_reserved": 0}, {"is_disabled": 0, "fusion_lon": 0.0, "fusion_lat": 0.0, "lat": 38.887416, "type": "electric_scooter", "lon": -77.02164866666666, "bike_id": "a0cda5c14cf57a61d8bffd0c5e8ac950", "rental_uris": {"android": "https://dc.lft.to/lastmile_qr_scan", "ios": "https://dc.lft.to/lastmile_qr_scan"}, "name": "a0cda5c14cf57a61d8bffd0c5e8ac950", "is_reserved": 0}, {"is_disabled": 0, "fusion_lon": 0.0, "fusion_lat": 0.0, "lat": 38.9146785, "type": "electric_scooter", "lon": -76.98357383333334, "bike_id": "eb8bee7c693b630dd3b3da7f91d72c02", "rental_uris": {"android": "https://dc.lft.to/lastmile_qr_scan", "ios": "https://dc.lft.to/lastmile_qr_scan"}, "name": "eb8bee7c693b630dd3b3da7f91d72c02", "is_reserved": 0}, {"is_disabled": 0, "fusion_lon": 0.0, "fusion_lat": 0.0, "lat": 38.935905, "type": "electric_scooter", "lon": -77.03730416666667, "bike_id": "7dfc942e9efe1d397547a6165c2087b4", "rental_uris": {"android": "https://dc.lft.to/lastmile_qr_scan", "ios": "https://dc.lft.to/lastmile_qr_scan"}, "name": "7dfc942e9efe1d397547a6165c2087b4", "is_reserved": 0}, {"is_disabled": 0, "fusion_lon": 0.0, "fusion_lat": 0.0, "lat": 38.858056, "type": "electric_scooter", "lon": -76.986576, "bike_id": "b3d3ea0ba42bf3260e9e2ff0f51f34e7", "rental_uris": {"android": "https://dc.lft.to/lastmile_qr_scan", "ios": "https://dc.lft.to/lastmile_qr_scan"}, "name": "b3d3ea0ba42bf3260e9e2ff0f51f34e7", "is_reserved": 0}, {"is_disabled": 0, "fusion_lon": 0.0, "fusion_lat": 0.0, "lat": 38.90012566666667, "type": "electric_scooter", "lon": -77.04675633333333, "bike_id": "34647eb91b7c4a3baa31c1f27b2d57b5", "rental_uris": {"android": "https://dc.lft.to/lastmile_qr_scan", "ios": "https://dc.lft.to/lastmile_qr_scan"}, "name": "34647eb91b7c4a3baa31c1f27b2d57b5", "is_reserved": 0}, {"is_disabled": 0, "fusion_lon": 0.0, "fusion_lat": 0.0, "lat": 38.914712333333334, "type": "electric_scooter", "lon": -76.98360433333333, "bike_id": "5f58e4bc909c7dde1ea5b2fde3e82078", "rental_uris": {"android": "https://dc.lft.to/lastmile_qr_scan", "ios": "https://dc.lft.to/lastmile_qr_scan"}, "name": "5f58e4bc909c7dde1ea5b2fde3e82078", "is_reserved": 0}, {"is_disabled": 0, "fusion_lon": 0.0, "fusion_lat": 0.0, "lat": 38.8950125, "type": "electric_scooter", "lon": -76.948784, "bike_id": "37f355f9658f5d502c75084c96a40ad6", "rental_uris": {"android": "https://dc.lft.to/lastmile_qr_scan", "ios": "https://dc.lft.to/lastmile_qr_scan"}, "name": "37f355f9658f5d502c75084c96a40ad6", "is_reserved": 0}, {"is_disabled": 0, "fusion_lon": 0.0, "fusion_lat": 0.0, "lat": 38.90139033333333, "type": "electric_scooter", "lon": -76.99356983333334, "bike_id": "41ae922bd25f173b74468cfca3bcc521", "rental_uris": {"android": "https://dc.lft.to/lastmile_qr_scan", "ios": "https://dc.lft.to/lastmile_qr_scan"}, "name": "41ae922bd25f173b74468cfca3bcc521", "is_reserved": 0}, {"is_disabled": 0, "fusion_lon": 0.0, "fusion_lat": 0.0, "lat": 38.944135833333334, "type": "electric_scooter", "lon": -77.02625116666667, "bike_id": "874bcf47d1895cc9ca06525661db1d0c", "rental_uris": {"android": "https://dc.lft.to/lastmile_qr_scan", "ios": "https://dc.lft.to/lastmile_qr_scan"}, "name": "874bcf47d1895cc9ca06525661db1d0c", "is_reserved": 0}, {"is_disabled": 0, "fusion_lon": 0.0, "fusion_lat": 0.0, "lat": 38.931223333333335, "type": "electric_scooter", "lon": -77.05710933333333, "bike_id": "56b268549ad23ed5264c55887328c956", "rental_uris": {"android": "https://dc.lft.to/lastmile_qr_scan", "ios": "https://dc.lft.to/lastmile_qr_scan"}, "name": "56b268549ad23ed5264c55887328c956", "is_reserved": 0}, {"is_disabled": 0, "fusion_lon": 0.0, "fusion_lat": 0.0, "lat": 38.9396215, "type": "electric_scooter", "lon": -77.02793983333333, "bike_id": "b8e3e48586c609dd3a2cb995ae5a4664", "rental_uris": {"android": "https://dc.lft.to/lastmile_qr_scan", "ios": "https://dc.lft.to/lastmile_qr_scan"}, "name": "b8e3e48586c609dd3a2cb995ae5a4664", "is_reserved": 0}, {"is_disabled": 0, "fusion_lon": 0.0, "fusion_lat": 0.0, "lat": 38.899626, "type": "electric_scooter", "lon": -76.98313966666667, "bike_id": "449453ee10d45a50fe6b5972abe85263", "rental_uris": {"android": "https://dc.lft.to/lastmile_qr_scan", "ios": "https://dc.lft.to/lastmile_qr_scan"}, "name": "449453ee10d45a50fe6b5972abe85263", "is_reserved": 0}, {"is_disabled": 0, "fusion_lon": 0.0, "fusion_lat": 0.0, "lat": 38.8999135, "type": "electric_scooter", "lon": -77.029493, "bike_id": "f95a2d2953a8e919a5dd85e2e9df5ecd", "rental_uris": {"android": "https://dc.lft.to/lastmile_qr_scan", "ios": "https://dc.lft.to/lastmile_qr_scan"}, "name": "f95a2d2953a8e919a5dd85e2e9df5ecd", "is_reserved": 0}, {"is_disabled": 0, "fusion_lon": 0.0, "fusion_lat": 0.0, "lat": 38.97823366666667, "type": "electric_bike", "lon": -76.92891266666666, "bike_id": "641d628ddedda1b414699e616f23923a", "rental_uris": {"android": "https://dc.lft.to/lastmile_qr_scan", "ios": "https://dc.lft.to/lastmile_qr_scan"}, "name": "641d628ddedda1b414699e616f23923a", "is_reserved": 0}, {"is_disabled": 0, "fusion_lon": 0.0, "fusion_lat": 0.0, "lat": 38.827260833333334, "type": "electric_bike", "lon": -77.00861983333333, "bike_id": "c3601d3acf8251e7971c43d6be3663be", "rental_uris": {"android": "https://dc.lft.to/lastmile_qr_scan", "ios": "https://dc.lft.to/lastmile_qr_scan"}, "name": "c3601d3acf8251e7971c43d6be3663be", "is_reserved": 0}, {"is_disabled": 0, "fusion_lon": 0.0, "fusion_lat": 0.0, "lat": 38.935307, "type": "electric_scooter", "lon": -77.023818, "bike_id": "61025a4284925e721b4e9d84349a3f4b", "rental_uris": {"android": "https://dc.lft.to/lastmile_qr_scan", "ios": "https://dc.lft.to/lastmile_qr_scan"}, "name": "61025a4284925e721b4e9d84349a3f4b", "is_reserved": 0}, {"is_disabled": 0, "fusion_lon": 0.0, "fusion_lat": 0.0, "lat": 38.89245916666667, "type": "electric_scooter", "lon": -77.03195366666667, "bike_id": "531a8f6dd167630db7103fc209f1d0ff", "rental_uris": {"android": "https://dc.lft.to/lastmile_qr_scan", "ios": "https://dc.lft.to/lastmile_qr_scan"}, "name": "531a8f6dd167630db7103fc209f1d0ff", "is_reserved": 0}, {"is_disabled": 0, "fusion_lon": 0.0, "fusion_lat": 0.0, "lat": 38.907135333333336, "type": "electric_scooter", "lon": -77.0244455, "bike_id": "e97e5e83d8ca76cdc4743cd6ea46339d", "rental_uris": {"android": "https://dc.lft.to/lastmile_qr_scan", "ios": "https://dc.lft.to/lastmile_qr_scan"}, "name": "e97e5e83d8ca76cdc4743cd6ea46339d", "is_reserved": 0}, {"is_disabled": 0, "fusion_lon": 0.0, "fusion_lat": 0.0, "lat": 38.89364716666667, "type": "electric_scooter", "lon": -77.02275383333334, "bike_id": "d4cddab8afb2d0a93389825fdc6feea1", "rental_uris": {"android": "https://dc.lft.to/lastmile_qr_scan", "ios": "https://dc.lft.to/lastmile_qr_scan"}, "name": "d4cddab8afb2d0a93389825fdc6feea1", "is_reserved": 0}, {"is_disabled": 0, "fusion_lon": 0.0, "fusion_lat": 0.0, "lat": 38.900388666666665, "type": "electric_scooter", "lon": -77.00194616666667, "bike_id": "dd47901b673f35daa7854bbfd236c0fe", "rental_uris": {"android": "https://dc.lft.to/lastmile_qr_scan", "ios": "https://dc.lft.to/lastmile_qr_scan"}, "name": "dd47901b673f35daa7854bbfd236c0fe", "is_reserved": 0}, {"is_disabled": 0, "fusion_lon": 0.0, "fusion_lat": 0.0, "lat": 38.82446233333334, "type": "electric_bike", "lon": -77.07044716666667, "bike_id": "d880b2cf4535adbfe325eb2944f222a8", "rental_uris": {"android": "https://dc.lft.to/lastmile_qr_scan", "ios": "https://dc.lft.to/lastmile_qr_scan"}, "name": "d880b2cf4535adbfe325eb2944f222a8", "is_reserved": 0}, {"is_disabled": 0, "fusion_lon": 0.0, "fusion_lat": 0.0, "lat": 38.961945166666666, "type": "electric_scooter", "lon": -77.0278485, "bike_id": "7ca68d64a23f005126b2c457c717c483", "rental_uris": {"android": "https://dc.lft.to/lastmile_qr_scan", "ios": "https://dc.lft.to/lastmile_qr_scan"}, "name": "7ca68d64a23f005126b2c457c717c483", "is_reserved": 0}, {"is_disabled": 0, "fusion_lon": 0.0, "fusion_lat": 0.0, "lat": 38.827828333333336, "type": "electric_bike", "lon": -77.110853, "bike_id": "49a7c6437609ce77dfb1e5845f507e9a", "rental_uris": {"android": "https://dc.lft.to/lastmile_qr_scan", "ios": "https://dc.lft.to/lastmile_qr_scan"}, "name": "49a7c6437609ce77dfb1e5845f507e9a", "is_reserved": 0}, {"is_disabled": 0, "fusion_lon": 0.0, "fusion_lat": 0.0, "lat": 38.9396225, "type": "electric_scooter", "lon": -77.03280166666667, "bike_id": "acd0b1836290afc9f0d399220334925e", "rental_uris": {"android": "https://dc.lft.to/lastmile_qr_scan", "ios": "https://dc.lft.to/lastmile_qr_scan"}, "name": "acd0b1836290afc9f0d399220334925e", "is_reserved": 0}, {"is_disabled": 0, "fusion_lon": 0.0, "fusion_lat": 0.0, "lat": 38.9023355, "type": "electric_bike", "lon": -77.04836583333334, "bike_id": "fc553d4f7c6e6fd8ef3536f529ea1058", "rental_uris": {"android": "https://dc.lft.to/lastmile_qr_scan", "ios": "https://dc.lft.to/lastmile_qr_scan"}, "name": "fc553d4f7c6e6fd8ef3536f529ea1058", "is_reserved": 0}, {"is_disabled": 0, "fusion_lon": 0.0, "fusion_lat": 0.0, "lat": 38.89830583333333, "type": "electric_scooter", "lon": -76.946359, "bike_id": "8a1b596075cd36b85f8184b118e77c3a", "rental_uris": {"android": "https://dc.lft.to/lastmile_qr_scan", "ios": "https://dc.lft.to/lastmile_qr_scan"}, "name": "8a1b596075cd36b85f8184b118e77c3a", "is_reserved": 0}, {"is_disabled": 0, "fusion_lon": 0.0, "fusion_lat": 0.0, "lat": 38.8653565, "type": "electric_bike", "lon": -77.12822883333334, "bike_id": "76188a45eec738a195f39b00e719af5b", "rental_uris": {"android": "https://dc.lft.to/lastmile_qr_scan", "ios": "https://dc.lft.to/lastmile_qr_scan"}, "name": "76188a45eec738a195f39b00e719af5b", "is_reserved": 0}, {"is_disabled": 0, "fusion_lon": 0.0, "fusion_lat": 0.0, "lat": 38.93027416666666, "type": "electric_scooter", "lon": -77.0345085, "bike_id": "009ff65f43ebaef342edf0872d14c22a", "rental_uris": {"android": "https://dc.lft.to/lastmile_qr_scan", "ios": "https://dc.lft.to/lastmile_qr_scan"}, "name": "009ff65f43ebaef342edf0872d14c22a", "is_reserved": 0}, {"is_disabled": 0, "fusion_lon": 0.0, "fusion_lat": 0.0, "lat": 38.9103415, "type": "electric_scooter", "lon": -77.03371533333333, "bike_id": "e81ff87dc303044ec83afd6b930ffb8e", "rental_uris": {"android": "https://dc.lft.to/lastmile_qr_scan", "ios": "https://dc.lft.to/lastmile_qr_scan"}, "name": "e81ff87dc303044ec83afd6b930ffb8e", "is_reserved": 0}, {"is_disabled": 0, "fusion_lon": 0.0, "fusion_lat": 0.0, "lat": 38.91581566666667, "type": "electric_scooter", "lon": -76.98113233333333, "bike_id": "86c27350e44bc0e790e301d0d80c08fe", "rental_uris": {"android": "https://dc.lft.to/lastmile_qr_scan", "ios": "https://dc.lft.to/lastmile_qr_scan"}, "name": "86c27350e44bc0e790e301d0d80c08fe", "is_reserved": 0}, {"is_disabled": 0, "fusion_lon": 0.0, "fusion_lat": 0.0, "lat": 38.90629783333333, "type": "electric_scooter", "lon": -77.03135466666667, "bike_id": "9805696c0e8153f4c282537d36036aba", "rental_uris": {"android": "https://dc.lft.to/lastmile_qr_scan", "ios": "https://dc.lft.to/lastmile_qr_scan"}, "name": "9805696c0e8153f4c282537d36036aba", "is_reserved": 0}, {"is_disabled": 0, "fusion_lon": 0.0, "fusion_lat": 0.0, "lat": 38.85916566666667, "type": "electric_scooter", "lon": -76.98783333333333, "bike_id": "2d99829f6ea9af6497c9f00652644768", "rental_uris": {"android": "https://dc.lft.to/lastmile_qr_scan", "ios": "https://dc.lft.to/lastmile_qr_scan"}, "name": "2d99829f6ea9af6497c9f00652644768", "is_reserved": 0}, {"is_disabled": 0, "fusion_lon": 0.0, "fusion_lat": 0.0, "lat": 38.9246045, "type": "electric_scooter", "lon": -77.05088266666667, "bike_id": "0e49778a99281b3caf0c8b331ab9762b", "rental_uris": {"android": "https://dc.lft.to/lastmile_qr_scan", "ios": "https://dc.lft.to/lastmile_qr_scan"}, "name": "0e49778a99281b3caf0c8b331ab9762b", "is_reserved": 0}, {"is_disabled": 0, "fusion_lon": 0.0, "fusion_lat": 0.0, "lat": 38.8763365, "type": "electric_scooter", "lon": -77.01632183333334, "bike_id": "14b1445ef594392678da437189ccf934", "rental_uris": {"android": "https://dc.lft.to/lastmile_qr_scan", "ios": "https://dc.lft.to/lastmile_qr_scan"}, "name": "14b1445ef594392678da437189ccf934", "is_reserved": 0}, {"is_disabled": 0, "fusion_lon": 0.0, "fusion_lat": 0.0, "lat": 38.926048, "type": "electric_scooter", "lon": -77.02156316666667, "bike_id": "9df914bd737c25eb7f583a2c54b85434", "rental_uris": {"android": "https://dc.lft.to/lastmile_qr_scan", "ios": "https://dc.lft.to/lastmile_qr_scan"}, "name": "9df914bd737c25eb7f583a2c54b85434", "is_reserved": 0}, {"is_disabled": 0, "fusion_lon": 0.0, "fusion_lat": 0.0, "lat": 38.872375, "type": "electric_scooter", "lon": -77.0057615, "bike_id": "4401140b784845b68d6f7b2eea31d290", "rental_uris": {"android": "https://dc.lft.to/lastmile_qr_scan", "ios": "https://dc.lft.to/lastmile_qr_scan"}, "name": "4401140b784845b68d6f7b2eea31d290", "is_reserved": 0}, {"is_disabled": 0, "fusion_lon": 0.0, "fusion_lat": 0.0, "lat": 38.9529725, "type": "electric_scooter", "lon": -77.03586933333334, "bike_id": "01f45ea2750873bdf9c34ad30a1f8948", "rental_uris": {"android": "https://dc.lft.to/lastmile_qr_scan", "ios": "https://dc.lft.to/lastmile_qr_scan"}, "name": "01f45ea2750873bdf9c34ad30a1f8948", "is_reserved": 0}, {"is_disabled": 0, "fusion_lon": 0.0, "fusion_lat": 0.0, "lat": 38.86054016666667, "type": "electric_bike", "lon": -77.0943175, "bike_id": "337af35c9e3e35d67f5e8f570f0c2561", "rental_uris": {"android": "https://dc.lft.to/lastmile_qr_scan", "ios": "https://dc.lft.to/lastmile_qr_scan"}, "name": "337af35c9e3e35d67f5e8f570f0c2561", "is_reserved": 0}, {"is_disabled": 0, "fusion_lon": 0.0, "fusion_lat": 0.0, "lat": 38.89353083333334, "type": "electric_scooter", "lon": -77.02215083333333, "bike_id": "d43f98a88ba97f6e01ecb53d8caaa22e", "rental_uris": {"android": "https://dc.lft.to/lastmile_qr_scan", "ios": "https://dc.lft.to/lastmile_qr_scan"}, "name": "d43f98a88ba97f6e01ecb53d8caaa22e", "is_reserved": 0}, {"is_disabled": 0, "fusion_lon": 0.0, "fusion_lat": 0.0, "lat": 38.911198166666665, "type": "electric_scooter", "lon": -77.04719733333333, "bike_id": "c7e12f23da70418cee0e4faf9d8e2191", "rental_uris": {"android": "https://dc.lft.to/lastmile_qr_scan", "ios": "https://dc.lft.to/lastmile_qr_scan"}, "name": "c7e12f23da70418cee0e4faf9d8e2191", "is_reserved": 0}, {"is_disabled": 0, "fusion_lon": 0.0, "fusion_lat": 0.0, "lat": 38.920585, "type": "electric_scooter", "lon": -77.02871033333334, "bike_id": "ffe294ddd9083507edfbc0874f9e2c91", "rental_uris": {"android": "https://dc.lft.to/lastmile_qr_scan", "ios": "https://dc.lft.to/lastmile_qr_scan"}, "name": "ffe294ddd9083507edfbc0874f9e2c91", "is_reserved": 0}, {"is_disabled": 0, "fusion_lon": 0.0, "fusion_lat": 0.0, "lat": 38.91490366666667, "type": "electric_scooter", "lon": -77.01860683333334, "bike_id": "881432b96e04a9b71f8805ec68f698c4", "rental_uris": {"android": "https://dc.lft.to/lastmile_qr_scan", "ios": "https://dc.lft.to/lastmile_qr_scan"}, "name": "881432b96e04a9b71f8805ec68f698c4", "is_reserved": 0}, {"is_disabled": 0, "fusion_lon": 0.0, "fusion_lat": 0.0, "lat": 38.928254333333335, "type": "electric_scooter", "lon": -77.01410366666667, "bike_id": "5fadf0d0c826d750c9b5b2cf0dbcde5f", "rental_uris": {"android": "https://dc.lft.to/lastmile_qr_scan", "ios": "https://dc.lft.to/lastmile_qr_scan"}, "name": "5fadf0d0c826d750c9b5b2cf0dbcde5f", "is_reserved": 0}, {"is_disabled": 0, "fusion_lon": 0.0, "fusion_lat": 0.0, "lat": 38.929734333333336, "type": "electric_scooter", "lon": -77.03471316666666, "bike_id": "5ea593e331aaae28b232b903f13561fa", "rental_uris": {"android": "https://dc.lft.to/lastmile_qr_scan", "ios": "https://dc.lft.to/lastmile_qr_scan"}, "name": "5ea593e331aaae28b232b903f13561fa", "is_reserved": 0}, {"is_disabled": 0, "fusion_lon": 0.0, "fusion_lat": 0.0, "lat": 38.908814666666665, "type": "electric_scooter", "lon": -77.04327, "bike_id": "b9fe17e8f65ddce87f7d307d9feb943f", "rental_uris": {"android": "https://dc.lft.to/lastmile_qr_scan", "ios": "https://dc.lft.to/lastmile_qr_scan"}, "name": "b9fe17e8f65ddce87f7d307d9feb943f", "is_reserved": 0}, {"is_disabled": 0, "fusion_lon": 0.0, "fusion_lat": 0.0, "lat": 38.8937035, "type": "electric_scooter", "lon": -77.022761, "bike_id": "24b36bd8717616ca25727d8698028ea8", "rental_uris": {"android": "https://dc.lft.to/lastmile_qr_scan", "ios": "https://dc.lft.to/lastmile_qr_scan"}, "name": "24b36bd8717616ca25727d8698028ea8", "is_reserved": 0}, {"is_disabled": 0, "fusion_lon": 0.0, "fusion_lat": 0.0, "lat": 38.92824616666667, "type": "electric_scooter", "lon": -77.05438183333334, "bike_id": "5ff2d54ef87d712d92f0dcec170627e7", "rental_uris": {"android": "https://dc.lft.to/lastmile_qr_scan", "ios": "https://dc.lft.to/lastmile_qr_scan"}, "name": "5ff2d54ef87d712d92f0dcec170627e7", "is_reserved": 0}, {"is_disabled": 0, "fusion_lon": 0.0, "fusion_lat": 0.0, "lat": 38.9429685, "type": "electric_scooter", "lon": -77.02765266666667, "bike_id": "e1e3f5c84f0173d235d0ea116e30aa51", "rental_uris": {"android": "https://dc.lft.to/lastmile_qr_scan", "ios": "https://dc.lft.to/lastmile_qr_scan"}, "name": "e1e3f5c84f0173d235d0ea116e30aa51", "is_reserved": 0}, {"is_disabled": 0, "fusion_lon": 0.0, "fusion_lat": 0.0, "lat": 38.911354, "type": "electric_scooter", "lon": -77.06542966666666, "bike_id": "18925b13ccd791e5fb6cfde42a02eb18", "rental_uris": {"android": "https://dc.lft.to/lastmile_qr_scan", "ios": "https://dc.lft.to/lastmile_qr_scan"}, "name": "18925b13ccd791e5fb6cfde42a02eb18", "is_reserved": 0}, {"is_disabled": 0, "fusion_lon": 0.0, "fusion_lat": 0.0, "lat": 38.9282635, "type": "electric_scooter", "lon": -77.05439533333333, "bike_id": "79865d517749686efa85372fdcae4f7a", "rental_uris": {"android": "https://dc.lft.to/lastmile_qr_scan", "ios": "https://dc.lft.to/lastmile_qr_scan"}, "name": "79865d517749686efa85372fdcae4f7a", "is_reserved": 0}, {"is_disabled": 0, "fusion_lon": 0.0, "fusion_lat": 0.0, "lat": 38.897388, "type": "electric_scooter", "lon": -77.00374766666667, "bike_id": "9a9727b35b7f6e1f3340e6b39d6df12d", "rental_uris": {"android": "https://dc.lft.to/lastmile_qr_scan", "ios": "https://dc.lft.to/lastmile_qr_scan"}, "name": "9a9727b35b7f6e1f3340e6b39d6df12d", "is_reserved": 0}, {"is_disabled": 0, "fusion_lon": 0.0, "fusion_lat": 0.0, "lat": 38.907041666666665, "type": "electric_scooter", "lon": -77.032432, "bike_id": "329b3dcd8e819bd1c396883ea4c3a019", "rental_uris": {"android": "https://dc.lft.to/lastmile_qr_scan", "ios": "https://dc.lft.to/lastmile_qr_scan"}, "name": "329b3dcd8e819bd1c396883ea4c3a019", "is_reserved": 0}, {"is_disabled": 0, "fusion_lon": 0.0, "fusion_lat": 0.0, "lat": 38.918950333333335, "type": "electric_scooter", "lon": -77.07116816666667, "bike_id": "d25a01e50ed4d74f5d6be23cd7c7b7f4", "rental_uris": {"android": "https://dc.lft.to/lastmile_qr_scan", "ios": "https://dc.lft.to/lastmile_qr_scan"}, "name": "d25a01e50ed4d74f5d6be23cd7c7b7f4", "is_reserved": 0}, {"is_disabled": 0, "fusion_lon": 0.0, "fusion_lat": 0.0, "lat": 38.919385166666665, "type": "electric_bike", "lon": -76.97504433333333, "bike_id": "ca11b5c463419718e61c2372644b4ad7", "rental_uris": {"android": "https://dc.lft.to/lastmile_qr_scan", "ios": "https://dc.lft.to/lastmile_qr_scan"}, "name": "ca11b5c463419718e61c2372644b4ad7", "is_reserved": 0}, {"is_disabled": 0, "fusion_lon": 0.0, "fusion_lat": 0.0, "lat": 38.92068583333333, "type": "electric_scooter", "lon": -77.04357633333333, "bike_id": "465abb2a536215e6461e03ee74ccff03", "rental_uris": {"android": "https://dc.lft.to/lastmile_qr_scan", "ios": "https://dc.lft.to/lastmile_qr_scan"}, "name": "465abb2a536215e6461e03ee74ccff03", "is_reserved": 0}, {"is_disabled": 0, "fusion_lon": 0.0, "fusion_lat": 0.0, "lat": 38.86958583333333, "type": "electric_scooter", "lon": -76.96033116666666, "bike_id": "091f8f5e45cd4b85413f076af9bd94a4", "rental_uris": {"android": "https://dc.lft.to/lastmile_qr_scan", "ios": "https://dc.lft.to/lastmile_qr_scan"}, "name": "091f8f5e45cd4b85413f076af9bd94a4", "is_reserved": 0}, {"is_disabled": 0, "fusion_lon": 0.0, "fusion_lat": 0.0, "lat": 38.89371283333333, "type": "electric_scooter", "lon": -76.94996766666667, "bike_id": "34af7c4bd2b0b3bb43215245c16a6b99", "rental_uris": {"android": "https://dc.lft.to/lastmile_qr_scan", "ios": "https://dc.lft.to/lastmile_qr_scan"}, "name": "34af7c4bd2b0b3bb43215245c16a6b99", "is_reserved": 0}, {"is_disabled": 0, "fusion_lon": 0.0, "fusion_lat": 0.0, "lat": 38.939149, "type": "electric_scooter", "lon": -77.024786, "bike_id": "9a782b564904cac86e14145babf774c8", "rental_uris": {"android": "https://dc.lft.to/lastmile_qr_scan", "ios": "https://dc.lft.to/lastmile_qr_scan"}, "name": "9a782b564904cac86e14145babf774c8", "is_reserved": 0}, {"is_disabled": 0, "fusion_lon": 0.0, "fusion_lat": 0.0, "lat": 38.926061, "type": "electric_scooter", "lon": -77.057032, "bike_id": "ec62c5ec1e3dad62b0c9a5050fb8470a", "rental_uris": {"android": "https://dc.lft.to/lastmile_qr_scan", "ios": "https://dc.lft.to/lastmile_qr_scan"}, "name": "ec62c5ec1e3dad62b0c9a5050fb8470a", "is_reserved": 0}, {"is_disabled": 0, "fusion_lon": 0.0, "fusion_lat": 0.0, "lat": 38.90682566666667, "type": "electric_scooter", "lon": -76.97999916666667, "bike_id": "00be4f65faa35714ac2b3166ed7f4ed6", "rental_uris": {"android": "https://dc.lft.to/lastmile_qr_scan", "ios": "https://dc.lft.to/lastmile_qr_scan"}, "name": "00be4f65faa35714ac2b3166ed7f4ed6", "is_reserved": 0}, {"is_disabled": 0, "fusion_lon": 0.0, "fusion_lat": 0.0, "lat": 38.95079233333333, "type": "electric_bike", "lon": -77.012518, "bike_id": "8fac1895fbf961865a64494900bb5f90", "rental_uris": {"android": "https://dc.lft.to/lastmile_qr_scan", "ios": "https://dc.lft.to/lastmile_qr_scan"}, "name": "8fac1895fbf961865a64494900bb5f90", "is_reserved": 0}, {"is_disabled": 0, "fusion_lon": 0.0, "fusion_lat": 0.0, "lat": 38.927468, "type": "electric_scooter", "lon": -77.03359416666666, "bike_id": "18e0a0a8f02dd2a7a40ee1a152363be1", "rental_uris": {"android": "https://dc.lft.to/lastmile_qr_scan", "ios": "https://dc.lft.to/lastmile_qr_scan"}, "name": "18e0a0a8f02dd2a7a40ee1a152363be1", "is_reserved": 0}, {"is_disabled": 0, "fusion_lon": 0.0, "fusion_lat": 0.0, "lat": 38.911766666666665, "type": "electric_scooter", "lon": -77.03503433333333, "bike_id": "966dfe3beeb551499e7f400227faa9b7", "rental_uris": {"android": "https://dc.lft.to/lastmile_qr_scan", "ios": "https://dc.lft.to/lastmile_qr_scan"}, "name": "966dfe3beeb551499e7f400227faa9b7", "is_reserved": 0}, {"is_disabled": 0, "fusion_lon": 0.0, "fusion_lat": 0.0, "lat": 38.90345633333333, "type": "electric_scooter", "lon": -77.03850033333333, "bike_id": "05befad25f2ebd90c172d21f55b510a3", "rental_uris": {"android": "https://dc.lft.to/lastmile_qr_scan", "ios": "https://dc.lft.to/lastmile_qr_scan"}, "name": "05befad25f2ebd90c172d21f55b510a3", "is_reserved": 0}, {"is_disabled": 0, "fusion_lon": 0.0, "fusion_lat": 0.0, "lat": 38.907382, "type": "electric_scooter", "lon": -76.99910733333333, "bike_id": "46d6bcea50b10a42f6a4d8839376d96d", "rental_uris": {"android": "https://dc.lft.to/lastmile_qr_scan", "ios": "https://dc.lft.to/lastmile_qr_scan"}, "name": "46d6bcea50b10a42f6a4d8839376d96d", "is_reserved": 0}, {"is_disabled": 0, "fusion_lon": 0.0, "fusion_lat": 0.0, "lat": 38.90860283333333, "type": "electric_scooter", "lon": -77.03545033333333, "bike_id": "d5420b3ae4fa04342dfe4454de842a13", "rental_uris": {"android": "https://dc.lft.to/lastmile_qr_scan", "ios": "https://dc.lft.to/lastmile_qr_scan"}, "name": "d5420b3ae4fa04342dfe4454de842a13", "is_reserved": 0}, {"is_disabled": 0, "fusion_lon": 0.0, "fusion_lat": 0.0, "lat": 38.903627166666666, "type": "electric_scooter", "lon": -77.00347966666666, "bike_id": "f675eb9159c16caa0bfb61433435354c", "rental_uris": {"android": "https://dc.lft.to/lastmile_qr_scan", "ios": "https://dc.lft.to/lastmile_qr_scan"}, "name": "f675eb9159c16caa0bfb61433435354c", "is_reserved": 0}, {"is_disabled": 0, "fusion_lon": 0.0, "fusion_lat": 0.0, "lat": 38.86508633333333, "type": "electric_scooter", "lon": -76.98966733333333, "bike_id": "df06ffc0d56d56af7dfbac4f0d41966c", "rental_uris": {"android": "https://dc.lft.to/lastmile_qr_scan", "ios": "https://dc.lft.to/lastmile_qr_scan"}, "name": "df06ffc0d56d56af7dfbac4f0d41966c", "is_reserved": 0}, {"is_disabled": 0, "fusion_lon": 0.0, "fusion_lat": 0.0, "lat": 38.947151833333336, "type": "electric_scooter", "lon": -77.03326316666667, "bike_id": "df3f58186f6f0832a5eab775b7fb31c3", "rental_uris": {"android": "https://dc.lft.to/lastmile_qr_scan", "ios": "https://dc.lft.to/lastmile_qr_scan"}, "name": "df3f58186f6f0832a5eab775b7fb31c3", "is_reserved": 0}, {"is_disabled": 0, "fusion_lon": 0.0, "fusion_lat": 0.0, "lat": 38.906701, "type": "electric_scooter", "lon": -77.02716283333334, "bike_id": "cda379b0ef6bd9964a3be5f9ecaa80c2", "rental_uris": {"android": "https://dc.lft.to/lastmile_qr_scan", "ios": "https://dc.lft.to/lastmile_qr_scan"}, "name": "cda379b0ef6bd9964a3be5f9ecaa80c2", "is_reserved": 0}, {"is_disabled": 0, "fusion_lon": 0.0, "fusion_lat": 0.0, "lat": 38.878187, "type": "electric_scooter", "lon": -77.01966433333334, "bike_id": "c8c3d6810e8682c33e1990af0e98eaa5", "rental_uris": {"android": "https://dc.lft.to/lastmile_qr_scan", "ios": "https://dc.lft.to/lastmile_qr_scan"}, "name": "c8c3d6810e8682c33e1990af0e98eaa5", "is_reserved": 0}, {"is_disabled": 0, "fusion_lon": 0.0, "fusion_lat": 0.0, "lat": 38.94185366666667, "type": "electric_scooter", "lon": -77.02491666666667, "bike_id": "64a6f7b9c7509efbcc0447d7e703f49d", "rental_uris": {"android": "https://dc.lft.to/lastmile_qr_scan", "ios": "https://dc.lft.to/lastmile_qr_scan"}, "name": "64a6f7b9c7509efbcc0447d7e703f49d", "is_reserved": 0}, {"is_disabled": 0, "fusion_lon": 0.0, "fusion_lat": 0.0, "lat": 38.879192833333335, "type": "electric_scooter", "lon": -77.00524583333333, "bike_id": "4de82f156ef5be96b7a526f142c07034", "rental_uris": {"android": "https://dc.lft.to/lastmile_qr_scan", "ios": "https://dc.lft.to/lastmile_qr_scan"}, "name": "4de82f156ef5be96b7a526f142c07034", "is_reserved": 0}, {"is_disabled": 0, "fusion_lon": 0.0, "fusion_lat": 0.0, "lat": 38.87693633333333, "type": "electric_scooter", "lon": -77.00064966666666, "bike_id": "11ae7686a182eb61b1defbd969cb4636", "rental_uris": {"android": "https://dc.lft.to/lastmile_qr_scan", "ios": "https://dc.lft.to/lastmile_qr_scan"}, "name": "11ae7686a182eb61b1defbd969cb4636", "is_reserved": 0}, {"is_disabled": 0, "fusion_lon": 0.0, "fusion_lat": 0.0, "lat": 38.91607283333333, "type": "electric_scooter", "lon": -77.03125033333333, "bike_id": "87c2dec34c45b38297034062430e92e8", "rental_uris": {"android": "https://dc.lft.to/lastmile_qr_scan", "ios": "https://dc.lft.to/lastmile_qr_scan"}, "name": "87c2dec34c45b38297034062430e92e8", "is_reserved": 0}, {"is_disabled": 0, "fusion_lon": 0.0, "fusion_lat": 0.0, "lat": 38.94203516666666, "type": "electric_scooter", "lon": -77.02593083333333, "bike_id": "c6f0cbc78ba057b7536ff101a48e1598", "rental_uris": {"android": "https://dc.lft.to/lastmile_qr_scan", "ios": "https://dc.lft.to/lastmile_qr_scan"}, "name": "c6f0cbc78ba057b7536ff101a48e1598", "is_reserved": 0}, {"is_disabled": 0, "fusion_lon": 0.0, "fusion_lat": 0.0, "lat": 38.858047666666664, "type": "electric_scooter", "lon": -76.98657383333334, "bike_id": "156ccca1f3315ac1a331debe610ad6d6", "rental_uris": {"android": "https://dc.lft.to/lastmile_qr_scan", "ios": "https://dc.lft.to/lastmile_qr_scan"}, "name": "156ccca1f3315ac1a331debe610ad6d6", "is_reserved": 0}, {"is_disabled": 0, "fusion_lon": 0.0, "fusion_lat": 0.0, "lat": 38.9118415, "type": "electric_scooter", "lon": -77.041693, "bike_id": "9d391a078a7b61c6236a604fb941d09d", "rental_uris": {"android": "https://dc.lft.to/lastmile_qr_scan", "ios": "https://dc.lft.to/lastmile_qr_scan"}, "name": "9d391a078a7b61c6236a604fb941d09d", "is_reserved": 0}, {"is_disabled": 0, "fusion_lon": 0.0, "fusion_lat": 0.0, "lat": 38.94887966666667, "type": "electric_bike", "lon": -76.96371316666666, "bike_id": "3745f4a9d8a053d7aee7f6946db9436d", "rental_uris": {"android": "https://dc.lft.to/lastmile_qr_scan", "ios": "https://dc.lft.to/lastmile_qr_scan"}, "name": "3745f4a9d8a053d7aee7f6946db9436d", "is_reserved": 0}, {"is_disabled": 0, "fusion_lon": 0.0, "fusion_lat": 0.0, "lat": 38.919192833333334, "type": "electric_scooter", "lon": -77.03395216666667, "bike_id": "267dcc0307fdbb14da0b81d3bc62be7c", "rental_uris": {"android": "https://dc.lft.to/lastmile_qr_scan", "ios": "https://dc.lft.to/lastmile_qr_scan"}, "name": "267dcc0307fdbb14da0b81d3bc62be7c", "is_reserved": 0}, {"is_disabled": 0, "fusion_lon": 0.0, "fusion_lat": 0.0, "lat": 39.089022166666666, "type": "electric_bike", "lon": -77.17845816666667, "bike_id": "0281771e156e11d8cdeae5c7ed16e1ba", "rental_uris": {"android": "https://dc.lft.to/lastmile_qr_scan", "ios": "https://dc.lft.to/lastmile_qr_scan"}, "name": "0281771e156e11d8cdeae5c7ed16e1ba", "is_reserved": 0}, {"is_disabled": 0, "fusion_lon": 0.0, "fusion_lat": 0.0, "lat": 39.05260416666667, "type": "electric_bike", "lon": -77.04385483333333, "bike_id": "0455fa8ce9c4e9968912d57b213c695e", "rental_uris": {"android": "https://dc.lft.to/lastmile_qr_scan", "ios": "https://dc.lft.to/lastmile_qr_scan"}, "name": "0455fa8ce9c4e9968912d57b213c695e", "is_reserved": 0}, {"is_disabled": 0, "fusion_lon": 0.0, "fusion_lat": 0.0, "lat": 38.90970433333333, "type": "electric_scooter", "lon": -77.0319075, "bike_id": "c758d435e86679ae0118c48056dbb0b0", "rental_uris": {"android": "https://dc.lft.to/lastmile_qr_scan", "ios": "https://dc.lft.to/lastmile_qr_scan"}, "name": "c758d435e86679ae0118c48056dbb0b0", "is_reserved": 0}, {"is_disabled": 0, "fusion_lon": 0.0, "fusion_lat": 0.0, "lat": 38.88453483333333, "type": "electric_bike", "lon": -76.9163755, "bike_id": "c3e6c0182457dca13d89d89c08d45b37", "rental_uris": {"android": "https://dc.lft.to/lastmile_qr_scan", "ios": "https://dc.lft.to/lastmile_qr_scan"}, "name": "c3e6c0182457dca13d89d89c08d45b37", "is_reserved": 0}, {"is_disabled": 0, "fusion_lon": 0.0, "fusion_lat": 0.0, "lat": 38.996342166666665, "type": "electric_bike", "lon": -77.028047, "bike_id": "66303786ccb59286a5dff8a300cc21fe", "rental_uris": {"android": "https://dc.lft.to/lastmile_qr_scan", "ios": "https://dc.lft.to/lastmile_qr_scan"}, "name": "66303786ccb59286a5dff8a300cc21fe", "is_reserved": 0}, {"is_disabled": 0, "fusion_lon": 0.0, "fusion_lat": 0.0, "lat": 38.917808, "type": "electric_scooter", "lon": -77.0177875, "bike_id": "fa2085cb7f8d6d85273ffac7af8c9184", "rental_uris": {"android": "https://dc.lft.to/lastmile_qr_scan", "ios": "https://dc.lft.to/lastmile_qr_scan"}, "name": "fa2085cb7f8d6d85273ffac7af8c9184", "is_reserved": 0}, {"is_disabled": 0, "fusion_lon": 0.0, "fusion_lat": 0.0, "lat": 38.900343166666666, "type": "electric_scooter", "lon": -77.0118685, "bike_id": "4bc3df2afa244e67283714ac586dcf20", "rental_uris": {"android": "https://dc.lft.to/lastmile_qr_scan", "ios": "https://dc.lft.to/lastmile_qr_scan"}, "name": "4bc3df2afa244e67283714ac586dcf20", "is_reserved": 0}, {"is_disabled": 0, "fusion_lon": 0.0, "fusion_lat": 0.0, "lat": 38.921541833333336, "type": "electric_scooter", "lon": -77.03384866666667, "bike_id": "f2bfd3af6e940f6977d6dfc40e0ba3ea", "rental_uris": {"android": "https://dc.lft.to/lastmile_qr_scan", "ios": "https://dc.lft.to/lastmile_qr_scan"}, "name": "f2bfd3af6e940f6977d6dfc40e0ba3ea", "is_reserved": 0}, {"is_disabled": 0, "fusion_lon": 0.0, "fusion_lat": 0.0, "lat": 38.91378133333333, "type": "electric_scooter", "lon": -77.02967183333334, "bike_id": "49edaa011852a8beef5197486896650c", "rental_uris": {"android": "https://dc.lft.to/lastmile_qr_scan", "ios": "https://dc.lft.to/lastmile_qr_scan"}, "name": "49edaa011852a8beef5197486896650c", "is_reserved": 0}, {"is_disabled": 0, "fusion_lon": 0.0, "fusion_lat": 0.0, "lat": 38.89334366666667, "type": "electric_bike", "lon": -77.1240275, "bike_id": "691bf6b3029f337a2cf20f33bb265527", "rental_uris": {"android": "https://dc.lft.to/lastmile_qr_scan", "ios": "https://dc.lft.to/lastmile_qr_scan"}, "name": "691bf6b3029f337a2cf20f33bb265527", "is_reserved": 0}, {"is_disabled": 0, "fusion_lon": 0.0, "fusion_lat": 0.0, "lat": 38.95204666666667, "type": "electric_scooter", "lon": -77.02728416666666, "bike_id": "a97145a687e46618547876eb1a999900", "rental_uris": {"android": "https://dc.lft.to/lastmile_qr_scan", "ios": "https://dc.lft.to/lastmile_qr_scan"}, "name": "a97145a687e46618547876eb1a999900", "is_reserved": 0}, {"is_disabled": 0, "fusion_lon": 0.0, "fusion_lat": 0.0, "lat": 38.88752683333333, "type": "electric_scooter", "lon": -77.0022555, "bike_id": "63fe9198fa1bf62d7256909de9912b8d", "rental_uris": {"android": "https://dc.lft.to/lastmile_qr_scan", "ios": "https://dc.lft.to/lastmile_qr_scan"}, "name": "63fe9198fa1bf62d7256909de9912b8d", "is_reserved": 0}, {"is_disabled": 0, "fusion_lon": 0.0, "fusion_lat": 0.0, "lat": 38.92455916666667, "type": "electric_scooter", "lon": -77.02696233333333, "bike_id": "1072bc8d76fc22ca8777474fafdbd38c", "rental_uris": {"android": "https://dc.lft.to/lastmile_qr_scan", "ios": "https://dc.lft.to/lastmile_qr_scan"}, "name": "1072bc8d76fc22ca8777474fafdbd38c", "is_reserved": 0}, {"is_disabled": 0, "fusion_lon": 0.0, "fusion_lat": 0.0, "lat": 38.898785, "type": "electric_scooter", "lon": -76.93161866666667, "bike_id": "062d6255ea1c6ae6909db8f50f958e23", "rental_uris": {"android": "https://dc.lft.to/lastmile_qr_scan", "ios": "https://dc.lft.to/lastmile_qr_scan"}, "name": "062d6255ea1c6ae6909db8f50f958e23", "is_reserved": 0}, {"is_disabled": 0, "fusion_lon": 0.0, "fusion_lat": 0.0, "lat": 38.95229116666667, "type": "electric_scooter", "lon": -77.027594, "bike_id": "08bb080bad00be298e8284ac3d42c415", "rental_uris": {"android": "https://dc.lft.to/lastmile_qr_scan", "ios": "https://dc.lft.to/lastmile_qr_scan"}, "name": "08bb080bad00be298e8284ac3d42c415", "is_reserved": 0}, {"is_disabled": 0, "fusion_lon": 0.0, "fusion_lat": 0.0, "lat": 38.917976, "type": "electric_scooter", "lon": -77.03551183333333, "bike_id": "734221595cc3c82dc2ff77052c165a31", "rental_uris": {"android": "https://dc.lft.to/lastmile_qr_scan", "ios": "https://dc.lft.to/lastmile_qr_scan"}, "name": "734221595cc3c82dc2ff77052c165a31", "is_reserved": 0}, {"is_disabled": 0, "fusion_lon": 0.0, "fusion_lat": 0.0, "lat": 38.905280833333336, "type": "electric_scooter", "lon": -77.05765833333334, "bike_id": "c2fc6e731546c00658291e001cd8af04", "rental_uris": {"android": "https://dc.lft.to/lastmile_qr_scan", "ios": "https://dc.lft.to/lastmile_qr_scan"}, "name": "c2fc6e731546c00658291e001cd8af04", "is_reserved": 0}, {"is_disabled": 0, "fusion_lon": 0.0, "fusion_lat": 0.0, "lat": 38.91720183333334, "type": "electric_scooter", "lon": -77.03662966666667, "bike_id": "0f8dfc309237523b7587d122a111437d", "rental_uris": {"android": "https://dc.lft.to/lastmile_qr_scan", "ios": "https://dc.lft.to/lastmile_qr_scan"}, "name": "0f8dfc309237523b7587d122a111437d", "is_reserved": 0}, {"is_disabled": 0, "fusion_lon": 0.0, "fusion_lat": 0.0, "lat": 38.86054466666667, "type": "electric_scooter", "lon": -76.98513266666667, "bike_id": "a4af6b38ff1b28fe72ad0d9036999878", "rental_uris": {"android": "https://dc.lft.to/lastmile_qr_scan", "ios": "https://dc.lft.to/lastmile_qr_scan"}, "name": "a4af6b38ff1b28fe72ad0d9036999878", "is_reserved": 0}, {"is_disabled": 0, "fusion_lon": 0.0, "fusion_lat": 0.0, "lat": 38.911102166666666, "type": "electric_scooter", "lon": -77.038323, "bike_id": "1c7a2c73e2fab87a193e1788d1b400c7", "rental_uris": {"android": "https://dc.lft.to/lastmile_qr_scan", "ios": "https://dc.lft.to/lastmile_qr_scan"}, "name": "1c7a2c73e2fab87a193e1788d1b400c7", "is_reserved": 0}, {"is_disabled": 0, "fusion_lon": 0.0, "fusion_lat": 0.0, "lat": 38.92879833333333, "type": "electric_scooter", "lon": -77.041271, "bike_id": "6ccb48699415673e8fbfa2e7cb09bd2f", "rental_uris": {"android": "https://dc.lft.to/lastmile_qr_scan", "ios": "https://dc.lft.to/lastmile_qr_scan"}, "name": "6ccb48699415673e8fbfa2e7cb09bd2f", "is_reserved": 0}, {"is_disabled": 0, "fusion_lon": 0.0, "fusion_lat": 0.0, "lat": 38.9237425, "type": "electric_scooter", "lon": -77.0503605, "bike_id": "c3510f502f953a331b8651dc1aa823ce", "rental_uris": {"android": "https://dc.lft.to/lastmile_qr_scan", "ios": "https://dc.lft.to/lastmile_qr_scan"}, "name": "c3510f502f953a331b8651dc1aa823ce", "is_reserved": 0}, {"is_disabled": 0, "fusion_lon": 0.0, "fusion_lat": 0.0, "lat": 38.901596166666664, "type": "electric_bike", "lon": -76.9863745, "bike_id": "b40a02eafbf375219cda09e0bcc73b5f", "rental_uris": {"android": "https://dc.lft.to/lastmile_qr_scan", "ios": "https://dc.lft.to/lastmile_qr_scan"}, "name": "b40a02eafbf375219cda09e0bcc73b5f", "is_reserved": 0}, {"is_disabled": 0, "fusion_lon": 0.0, "fusion_lat": 0.0, "lat": 38.927024333333335, "type": "electric_scooter", "lon": -77.02308066666667, "bike_id": "7920be3eeff42ed727c6f2bd79a3c11a", "rental_uris": {"android": "https://dc.lft.to/lastmile_qr_scan", "ios": "https://dc.lft.to/lastmile_qr_scan"}, "name": "7920be3eeff42ed727c6f2bd79a3c11a", "is_reserved": 0}, {"is_disabled": 0, "fusion_lon": 0.0, "fusion_lat": 0.0, "lat": 38.92796, "type": "electric_scooter", "lon": -77.03151733333333, "bike_id": "1f350c4f93100942e2e69e08d1d3d9f1", "rental_uris": {"android": "https://dc.lft.to/lastmile_qr_scan", "ios": "https://dc.lft.to/lastmile_qr_scan"}, "name": "1f350c4f93100942e2e69e08d1d3d9f1", "is_reserved": 0}, {"is_disabled": 0, "fusion_lon": 0.0, "fusion_lat": 0.0, "lat": 38.89733116666667, "type": "electric_scooter", "lon": -77.02171083333333, "bike_id": "bd854793f5f203be825b371f0f81624b", "rental_uris": {"android": "https://dc.lft.to/lastmile_qr_scan", "ios": "https://dc.lft.to/lastmile_qr_scan"}, "name": "bd854793f5f203be825b371f0f81624b", "is_reserved": 0}, {"is_disabled": 0, "fusion_lon": 0.0, "fusion_lat": 0.0, "lat": 38.85205466666667, "type": "electric_bike", "lon": -77.10130283333334, "bike_id": "fff795cba5d59afc44b76b1a0ac36608", "rental_uris": {"android": "https://dc.lft.to/lastmile_qr_scan", "ios": "https://dc.lft.to/lastmile_qr_scan"}, "name": "fff795cba5d59afc44b76b1a0ac36608", "is_reserved": 0}, {"is_disabled": 0, "fusion_lon": 0.0, "fusion_lat": 0.0, "lat": 38.92755, "type": "electric_scooter", "lon": -77.00599016666666, "bike_id": "e891078992ce0403123f78926afbc240", "rental_uris": {"android": "https://dc.lft.to/lastmile_qr_scan", "ios": "https://dc.lft.to/lastmile_qr_scan"}, "name": "e891078992ce0403123f78926afbc240", "is_reserved": 0}, {"is_disabled": 0, "fusion_lon": 0.0, "fusion_lat": 0.0, "lat": 38.9463905, "type": "electric_scooter", "lon": -77.0193235, "bike_id": "15adaf825a25aacec3b6ce6b3f7bec61", "rental_uris": {"android": "https://dc.lft.to/lastmile_qr_scan", "ios": "https://dc.lft.to/lastmile_qr_scan"}, "name": "15adaf825a25aacec3b6ce6b3f7bec61", "is_reserved": 0}, {"is_disabled": 0, "fusion_lon": 0.0, "fusion_lat": 0.0, "lat": 38.87695933333333, "type": "electric_scooter", "lon": -77.00061216666667, "bike_id": "b3fe3e6c3a7e94efb457cdd3075613d9", "rental_uris": {"android": "https://dc.lft.to/lastmile_qr_scan", "ios": "https://dc.lft.to/lastmile_qr_scan"}, "name": "b3fe3e6c3a7e94efb457cdd3075613d9", "is_reserved": 0}, {"is_disabled": 0, "fusion_lon": 0.0, "fusion_lat": 0.0, "lat": 38.917461833333334, "type": "electric_scooter", "lon": -77.04762783333334, "bike_id": "f589f09c35423f4774f74da17a8b0906", "rental_uris": {"android": "https://dc.lft.to/lastmile_qr_scan", "ios": "https://dc.lft.to/lastmile_qr_scan"}, "name": "f589f09c35423f4774f74da17a8b0906", "is_reserved": 0}, {"is_disabled": 0, "fusion_lon": 0.0, "fusion_lat": 0.0, "lat": 38.92807783333333, "type": "electric_scooter", "lon": -77.03621516666666, "bike_id": "165bd6523767c707935cb15a8e6e8bb3", "rental_uris": {"android": "https://dc.lft.to/lastmile_qr_scan", "ios": "https://dc.lft.to/lastmile_qr_scan"}, "name": "165bd6523767c707935cb15a8e6e8bb3", "is_reserved": 0}, {"is_disabled": 0, "fusion_lon": 0.0, "fusion_lat": 0.0, "lat": 38.857186166666665, "type": "electric_scooter", "lon": -76.98090016666667, "bike_id": "4814097d89cb6c294ec8ca10230786cf", "rental_uris": {"android": "https://dc.lft.to/lastmile_qr_scan", "ios": "https://dc.lft.to/lastmile_qr_scan"}, "name": "4814097d89cb6c294ec8ca10230786cf", "is_reserved": 0}, {"is_disabled": 0, "fusion_lon": 0.0, "fusion_lat": 0.0, "lat": 38.907693333333334, "type": "electric_scooter", "lon": -77.03859633333333, "bike_id": "b4abdd79b7afa7dfc12873d872748fb1", "rental_uris": {"android": "https://dc.lft.to/lastmile_qr_scan", "ios": "https://dc.lft.to/lastmile_qr_scan"}, "name": "b4abdd79b7afa7dfc12873d872748fb1", "is_reserved": 0}, {"is_disabled": 0, "fusion_lon": 0.0, "fusion_lat": 0.0, "lat": 38.88912933333334, "type": "electric_scooter", "lon": -76.98007233333334, "bike_id": "a21e970e222533b0626f0eef3ac8c428", "rental_uris": {"android": "https://dc.lft.to/lastmile_qr_scan", "ios": "https://dc.lft.to/lastmile_qr_scan"}, "name": "a21e970e222533b0626f0eef3ac8c428", "is_reserved": 0}, {"is_disabled": 0, "fusion_lon": 0.0, "fusion_lat": 0.0, "lat": 38.899830333333334, "type": "electric_scooter", "lon": -77.05095216666666, "bike_id": "f82f9f22ec5f891e6ad6bfdfa9a1f206", "rental_uris": {"android": "https://dc.lft.to/lastmile_qr_scan", "ios": "https://dc.lft.to/lastmile_qr_scan"}, "name": "f82f9f22ec5f891e6ad6bfdfa9a1f206", "is_reserved": 0}, {"is_disabled": 0, "fusion_lon": 0.0, "fusion_lat": 0.0, "lat": 38.85716466666667, "type": "electric_scooter", "lon": -76.9808895, "bike_id": "ca23bd3fe772bdf6fb2a704f07b40c0a", "rental_uris": {"android": "https://dc.lft.to/lastmile_qr_scan", "ios": "https://dc.lft.to/lastmile_qr_scan"}, "name": "ca23bd3fe772bdf6fb2a704f07b40c0a", "is_reserved": 0}, {"is_disabled": 0, "fusion_lon": 0.0, "fusion_lat": 0.0, "lat": 38.90589816666667, "type": "electric_scooter", "lon": -77.069162, "bike_id": "7a3aa0abd2cd7b231e49b8533f86a9c4", "rental_uris": {"android": "https://dc.lft.to/lastmile_qr_scan", "ios": "https://dc.lft.to/lastmile_qr_scan"}, "name": "7a3aa0abd2cd7b231e49b8533f86a9c4", "is_reserved": 0}, {"is_disabled": 0, "fusion_lon": 0.0, "fusion_lat": 0.0, "lat": 38.961915, "type": "electric_scooter", "lon": -77.0278395, "bike_id": "64958370de3ffc5df533fdf18e0aaf05", "rental_uris": {"android": "https://dc.lft.to/lastmile_qr_scan", "ios": "https://dc.lft.to/lastmile_qr_scan"}, "name": "64958370de3ffc5df533fdf18e0aaf05", "is_reserved": 0}, {"is_disabled": 0, "fusion_lon": 0.0, "fusion_lat": 0.0, "lat": 38.9090885, "type": "electric_scooter", "lon": -77.02806716666667, "bike_id": "d52b86ec3fd8823ae153d53891227893", "rental_uris": {"android": "https://dc.lft.to/lastmile_qr_scan", "ios": "https://dc.lft.to/lastmile_qr_scan"}, "name": "d52b86ec3fd8823ae153d53891227893", "is_reserved": 0}, {"is_disabled": 0, "fusion_lon": 0.0, "fusion_lat": 0.0, "lat": 38.875437166666664, "type": "electric_scooter", "lon": -77.0053895, "bike_id": "4c78c2ecb05f3553825189bc88b4b989", "rental_uris": {"android": "https://dc.lft.to/lastmile_qr_scan", "ios": "https://dc.lft.to/lastmile_qr_scan"}, "name": "4c78c2ecb05f3553825189bc88b4b989", "is_reserved": 0}, {"is_disabled": 0, "fusion_lon": 0.0, "fusion_lat": 0.0, "lat": 38.91803683333333, "type": "electric_scooter", "lon": -77.04017233333333, "bike_id": "d32c8b199782e671e36c1b9b0979a9c9", "rental_uris": {"android": "https://dc.lft.to/lastmile_qr_scan", "ios": "https://dc.lft.to/lastmile_qr_scan"}, "name": "d32c8b199782e671e36c1b9b0979a9c9", "is_reserved": 0}, {"is_disabled": 0, "fusion_lon": 0.0, "fusion_lat": 0.0, "lat": 38.893494833333335, "type": "electric_scooter", "lon": -77.02217566666667, "bike_id": "00ef892e18b68269fdd71d13afaa2bbf", "rental_uris": {"android": "https://dc.lft.to/lastmile_qr_scan", "ios": "https://dc.lft.to/lastmile_qr_scan"}, "name": "00ef892e18b68269fdd71d13afaa2bbf", "is_reserved": 0}, {"is_disabled": 0, "fusion_lon": 0.0, "fusion_lat": 0.0, "lat": 38.924359333333335, "type": "electric_bike", "lon": -76.907607, "bike_id": "7909d2692778e7dfab069026481dc7ad", "rental_uris": {"android": "https://dc.lft.to/lastmile_qr_scan", "ios": "https://dc.lft.to/lastmile_qr_scan"}, "name": "7909d2692778e7dfab069026481dc7ad", "is_reserved": 0}, {"is_disabled": 0, "fusion_lon": 0.0, "fusion_lat": 0.0, "lat": 38.90091233333333, "type": "electric_scooter", "lon": -77.02717416666667, "bike_id": "c58c4a6c3930b6d37421d0d0239a81f2", "rental_uris": {"android": "https://dc.lft.to/lastmile_qr_scan", "ios": "https://dc.lft.to/lastmile_qr_scan"}, "name": "c58c4a6c3930b6d37421d0d0239a81f2", "is_reserved": 0}, {"is_disabled": 0, "fusion_lon": 0.0, "fusion_lat": 0.0, "lat": 38.908154333333336, "type": "electric_scooter", "lon": -77.00144816666666, "bike_id": "f973b6e2092d02a4e3eab68be5e178cc", "rental_uris": {"android": "https://dc.lft.to/lastmile_qr_scan", "ios": "https://dc.lft.to/lastmile_qr_scan"}, "name": "f973b6e2092d02a4e3eab68be5e178cc", "is_reserved": 0}, {"is_disabled": 0, "fusion_lon": 0.0, "fusion_lat": 0.0, "lat": 38.895313, "type": "electric_scooter", "lon": -77.0335055, "bike_id": "5d85fc934d5b862ecca055734d26286d", "rental_uris": {"android": "https://dc.lft.to/lastmile_qr_scan", "ios": "https://dc.lft.to/lastmile_qr_scan"}, "name": "5d85fc934d5b862ecca055734d26286d", "is_reserved": 0}, {"is_disabled": 0, "fusion_lon": 0.0, "fusion_lat": 0.0, "lat": 38.92648533333333, "type": "electric_scooter", "lon": -77.0370545, "bike_id": "fe93c6dcfc36a61e6d5900912a32b2c4", "rental_uris": {"android": "https://dc.lft.to/lastmile_qr_scan", "ios": "https://dc.lft.to/lastmile_qr_scan"}, "name": "fe93c6dcfc36a61e6d5900912a32b2c4", "is_reserved": 0}, {"is_disabled": 0, "fusion_lon": 0.0, "fusion_lat": 0.0, "lat": 38.91625583333333, "type": "electric_scooter", "lon": -77.03202216666666, "bike_id": "ade81c5aaff6f5f9c50584ea7c40278d", "rental_uris": {"android": "https://dc.lft.to/lastmile_qr_scan", "ios": "https://dc.lft.to/lastmile_qr_scan"}, "name": "ade81c5aaff6f5f9c50584ea7c40278d", "is_reserved": 0}, {"is_disabled": 0, "fusion_lon": 0.0, "fusion_lat": 0.0, "lat": 38.947933166666665, "type": "electric_scooter", "lon": -77.03285116666666, "bike_id": "2f619538df352f2bd602a177e8097f2e", "rental_uris": {"android": "https://dc.lft.to/lastmile_qr_scan", "ios": "https://dc.lft.to/lastmile_qr_scan"}, "name": "2f619538df352f2bd602a177e8097f2e", "is_reserved": 0}, {"is_disabled": 0, "fusion_lon": 0.0, "fusion_lat": 0.0, "lat": 38.911127666666665, "type": "electric_scooter", "lon": -77.05041233333333, "bike_id": "8a5595e895621a34a54b867d398676e3", "rental_uris": {"android": "https://dc.lft.to/lastmile_qr_scan", "ios": "https://dc.lft.to/lastmile_qr_scan"}, "name": "8a5595e895621a34a54b867d398676e3", "is_reserved": 0}, {"is_disabled": 0, "fusion_lon": 0.0, "fusion_lat": 0.0, "lat": 38.917098, "type": "electric_scooter", "lon": -77.02789833333334, "bike_id": "0e2fada19d99923008315cc79157670a", "rental_uris": {"android": "https://dc.lft.to/lastmile_qr_scan", "ios": "https://dc.lft.to/lastmile_qr_scan"}, "name": "0e2fada19d99923008315cc79157670a", "is_reserved": 0}, {"is_disabled": 0, "fusion_lon": 0.0, "fusion_lat": 0.0, "lat": 39.041309, "type": "electric_bike", "lon": -76.989134, "bike_id": "32d4d61dccf7334932fd947bb190a467", "rental_uris": {"android": "https://dc.lft.to/lastmile_qr_scan", "ios": "https://dc.lft.to/lastmile_qr_scan"}, "name": "32d4d61dccf7334932fd947bb190a467", "is_reserved": 0}, {"is_disabled": 0, "fusion_lon": 0.0, "fusion_lat": 0.0, "lat": 38.90740916666667, "type": "electric_scooter", "lon": -77.02185483333334, "bike_id": "0205e1a3f94d4303087660212feb5ce0", "rental_uris": {"android": "https://dc.lft.to/lastmile_qr_scan", "ios": "https://dc.lft.to/lastmile_qr_scan"}, "name": "0205e1a3f94d4303087660212feb5ce0", "is_reserved": 0}, {"is_disabled": 0, "fusion_lon": 0.0, "fusion_lat": 0.0, "lat": 38.92368283333333, "type": "electric_scooter", "lon": -77.05034466666666, "bike_id": "5f188b2844f6db951432910c59ad33af", "rental_uris": {"android": "https://dc.lft.to/lastmile_qr_scan", "ios": "https://dc.lft.to/lastmile_qr_scan"}, "name": "5f188b2844f6db951432910c59ad33af", "is_reserved": 0}, {"is_disabled": 0, "fusion_lon": 0.0, "fusion_lat": 0.0, "lat": 38.911357333333335, "type": "electric_bike", "lon": -76.98814416666667, "bike_id": "6aaa730990ef3916058c3f21cf6ba46a", "rental_uris": {"android": "https://dc.lft.to/lastmile_qr_scan", "ios": "https://dc.lft.to/lastmile_qr_scan"}, "name": "6aaa730990ef3916058c3f21cf6ba46a", "is_reserved": 0}, {"is_disabled": 0, "fusion_lon": 0.0, "fusion_lat": 0.0, "lat": 38.901433833333336, "type": "electric_scooter", "lon": -77.0317665, "bike_id": "66aca93f711b8c3438368744b99707ba", "rental_uris": {"android": "https://dc.lft.to/lastmile_qr_scan", "ios": "https://dc.lft.to/lastmile_qr_scan"}, "name": "66aca93f711b8c3438368744b99707ba", "is_reserved": 0}, {"is_disabled": 0, "fusion_lon": 0.0, "fusion_lat": 0.0, "lat": 38.92408283333333, "type": "electric_bike", "lon": -77.05047566666667, "bike_id": "7889e11c9a52895b0c8e7f32fa2396a8", "rental_uris": {"android": "https://dc.lft.to/lastmile_qr_scan", "ios": "https://dc.lft.to/lastmile_qr_scan"}, "name": "7889e11c9a52895b0c8e7f32fa2396a8", "is_reserved": 0}, {"is_disabled": 0, "fusion_lon": 0.0, "fusion_lat": 0.0, "lat": 38.899860833333335, "type": "electric_scooter", "lon": -77.02321766666667, "bike_id": "8211036760a9281c1fc74d035ed3d2d9", "rental_uris": {"android": "https://dc.lft.to/lastmile_qr_scan", "ios": "https://dc.lft.to/lastmile_qr_scan"}, "name": "8211036760a9281c1fc74d035ed3d2d9", "is_reserved": 0}, {"is_disabled": 0, "fusion_lon": 0.0, "fusion_lat": 0.0, "lat": 38.906983, "type": "electric_scooter", "lon": -77.023959, "bike_id": "acba211dc675ed66f47bb466d523db0c", "rental_uris": {"android": "https://dc.lft.to/lastmile_qr_scan", "ios": "https://dc.lft.to/lastmile_qr_scan"}, "name": "acba211dc675ed66f47bb466d523db0c", "is_reserved": 0}, {"is_disabled": 0, "fusion_lon": 0.0, "fusion_lat": 0.0, "lat": 38.921139833333335, "type": "electric_scooter", "lon": -77.03003416666667, "bike_id": "d19c2ea887f68c18d3b11e6ce731235f", "rental_uris": {"android": "https://dc.lft.to/lastmile_qr_scan", "ios": "https://dc.lft.to/lastmile_qr_scan"}, "name": "d19c2ea887f68c18d3b11e6ce731235f", "is_reserved": 0}, {"is_disabled": 0, "fusion_lon": 0.0, "fusion_lat": 0.0, "lat": 38.905659666666665, "type": "electric_scooter", "lon": -77.00558016666666, "bike_id": "c5a504ef4af363ce5d60372d460b9cac", "rental_uris": {"android": "https://dc.lft.to/lastmile_qr_scan", "ios": "https://dc.lft.to/lastmile_qr_scan"}, "name": "c5a504ef4af363ce5d60372d460b9cac", "is_reserved": 0}, {"is_disabled": 0, "fusion_lon": 0.0, "fusion_lat": 0.0, "lat": 38.92745466666667, "type": "electric_scooter", "lon": -77.03272766666667, "bike_id": "55dd71b1b7ee84cef22bb0f5cc817fd8", "rental_uris": {"android": "https://dc.lft.to/lastmile_qr_scan", "ios": "https://dc.lft.to/lastmile_qr_scan"}, "name": "55dd71b1b7ee84cef22bb0f5cc817fd8", "is_reserved": 0}, {"is_disabled": 0, "fusion_lon": 0.0, "fusion_lat": 0.0, "lat": 38.925951833333336, "type": "electric_scooter", "lon": -77.02156433333333, "bike_id": "018e25afe45139a76cca304909c5416e", "rental_uris": {"android": "https://dc.lft.to/lastmile_qr_scan", "ios": "https://dc.lft.to/lastmile_qr_scan"}, "name": "018e25afe45139a76cca304909c5416e", "is_reserved": 0}, {"is_disabled": 0, "fusion_lon": 0.0, "fusion_lat": 0.0, "lat": 38.92229183333333, "type": "electric_scooter", "lon": -77.03452983333334, "bike_id": "26ca1af2ef234cb90d2b22ac17192661", "rental_uris": {"android": "https://dc.lft.to/lastmile_qr_scan", "ios": "https://dc.lft.to/lastmile_qr_scan"}, "name": "26ca1af2ef234cb90d2b22ac17192661", "is_reserved": 0}, {"is_disabled": 0, "fusion_lon": 0.0, "fusion_lat": 0.0, "lat": 38.90337133333333, "type": "electric_scooter", "lon": -77.03852783333333, "bike_id": "9ae737d10054828200a3a01c97ee6116", "rental_uris": {"android": "https://dc.lft.to/lastmile_qr_scan", "ios": "https://dc.lft.to/lastmile_qr_scan"}, "name": "9ae737d10054828200a3a01c97ee6116", "is_reserved": 0}, {"is_disabled": 0, "fusion_lon": 0.0, "fusion_lat": 0.0, "lat": 38.90870533333333, "type": "electric_scooter", "lon": -77.04361716666666, "bike_id": "0e239f416fbe69a57a7cc3cd594ae4f0", "rental_uris": {"android": "https://dc.lft.to/lastmile_qr_scan", "ios": "https://dc.lft.to/lastmile_qr_scan"}, "name": "0e239f416fbe69a57a7cc3cd594ae4f0", "is_reserved": 0}, {"is_disabled": 0, "fusion_lon": 0.0, "fusion_lat": 0.0, "lat": 38.91913566666667, "type": "electric_scooter", "lon": -77.03624566666667, "bike_id": "1a7306ab636f894399a0473a00730ade", "rental_uris": {"android": "https://dc.lft.to/lastmile_qr_scan", "ios": "https://dc.lft.to/lastmile_qr_scan"}, "name": "1a7306ab636f894399a0473a00730ade", "is_reserved": 0}, {"is_disabled": 0, "fusion_lon": 0.0, "fusion_lat": 0.0, "lat": 38.8974905, "type": "electric_scooter", "lon": -77.00981266666666, "bike_id": "b73ecfc7c9c48041f16fc5e1485e046e", "rental_uris": {"android": "https://dc.lft.to/lastmile_qr_scan", "ios": "https://dc.lft.to/lastmile_qr_scan"}, "name": "b73ecfc7c9c48041f16fc5e1485e046e", "is_reserved": 0}, {"is_disabled": 0, "fusion_lon": 0.0, "fusion_lat": 0.0, "lat": 38.887433, "type": "electric_scooter", "lon": -77.02162816666667, "bike_id": "7411806b4b5631f864c03db294673873", "rental_uris": {"android": "https://dc.lft.to/lastmile_qr_scan", "ios": "https://dc.lft.to/lastmile_qr_scan"}, "name": "7411806b4b5631f864c03db294673873", "is_reserved": 0}, {"is_disabled": 0, "fusion_lon": 0.0, "fusion_lat": 0.0, "lat": 38.942172666666664, "type": "electric_scooter", "lon": -77.02504383333333, "bike_id": "24d9f5e8949f537ccafd9e23ba78794e", "rental_uris": {"android": "https://dc.lft.to/lastmile_qr_scan", "ios": "https://dc.lft.to/lastmile_qr_scan"}, "name": "24d9f5e8949f537ccafd9e23ba78794e", "is_reserved": 0}, {"is_disabled": 0, "fusion_lon": 0.0, "fusion_lat": 0.0, "lat": 38.876695833333336, "type": "electric_scooter", "lon": -77.0036495, "bike_id": "50e61dab596c2d8b5947a3b784b494fa", "rental_uris": {"android": "https://dc.lft.to/lastmile_qr_scan", "ios": "https://dc.lft.to/lastmile_qr_scan"}, "name": "50e61dab596c2d8b5947a3b784b494fa", "is_reserved": 0}, {"is_disabled": 0, "fusion_lon": 0.0, "fusion_lat": 0.0, "lat": 38.92752933333333, "type": "electric_scooter", "lon": -77.005971, "bike_id": "b1f4a9ef385ab6b9497d3c8304457c04", "rental_uris": {"android": "https://dc.lft.to/lastmile_qr_scan", "ios": "https://dc.lft.to/lastmile_qr_scan"}, "name": "b1f4a9ef385ab6b9497d3c8304457c04", "is_reserved": 0}, {"is_disabled": 0, "fusion_lon": 0.0, "fusion_lat": 0.0, "lat": 38.90389533333333, "type": "electric_scooter", "lon": -76.99006833333334, "bike_id": "728b150a011a3e09395b964a42546542", "rental_uris": {"android": "https://dc.lft.to/lastmile_qr_scan", "ios": "https://dc.lft.to/lastmile_qr_scan"}, "name": "728b150a011a3e09395b964a42546542", "is_reserved": 0}, {"is_disabled": 0, "fusion_lon": 0.0, "fusion_lat": 0.0, "lat": 38.939622, "type": "electric_scooter", "lon": -77.03282016666667, "bike_id": "f5ba7d1f333c94975c6e656aceed8596", "rental_uris": {"android": "https://dc.lft.to/lastmile_qr_scan", "ios": "https://dc.lft.to/lastmile_qr_scan"}, "name": "f5ba7d1f333c94975c6e656aceed8596", "is_reserved": 0}, {"is_disabled": 0, "fusion_lon": 0.0, "fusion_lat": 0.0, "lat": 38.90784516666667, "type": "electric_scooter", "lon": -77.00967633333333, "bike_id": "92c20ed6fbae6b5abd35a40bb4c3d355", "rental_uris": {"android": "https://dc.lft.to/lastmile_qr_scan", "ios": "https://dc.lft.to/lastmile_qr_scan"}, "name": "92c20ed6fbae6b5abd35a40bb4c3d355", "is_reserved": 0}, {"is_disabled": 0, "fusion_lon": 0.0, "fusion_lat": 0.0, "lat": 38.9022795, "type": "electric_scooter", "lon": -77.05129133333334, "bike_id": "f350a980592f0e02b957d6b2d4b6b87d", "rental_uris": {"android": "https://dc.lft.to/lastmile_qr_scan", "ios": "https://dc.lft.to/lastmile_qr_scan"}, "name": "f350a980592f0e02b957d6b2d4b6b87d", "is_reserved": 0}, {"is_disabled": 0, "fusion_lon": 0.0, "fusion_lat": 0.0, "lat": 38.9171575, "type": "electric_scooter", "lon": -77.09809633333333, "bike_id": "4526e138cb791cf491d717fcff50b127", "rental_uris": {"android": "https://dc.lft.to/lastmile_qr_scan", "ios": "https://dc.lft.to/lastmile_qr_scan"}, "name": "4526e138cb791cf491d717fcff50b127", "is_reserved": 0},