{"data": {"bikes": [{"bike_id": "92dd345127de145378a7ffb534122c67", "is_reserved": 0, "fusion_lon": 0.0, "lat": 38.91729683333333, "is_disabled": 0, "name": "92dd345127de145378a7ffb534122c67", "fusion_lat": 0.0, "rental_uris": {"ios": "https://dc.lft.to/lastmile_qr_scan", "android": "https://dc.lft.to/lastmile_qr_scan"}, "lon": -77.03661883333334, "type": "electric_scooter"}, {"bike_id": "66b47fadfd07a03556b86afc7db3b0f9", "is_reserved": 0, "fusion_lon": 0.0, "lat": 38.953588, "is_disabled": 0, "name": "66b47fadfd07a03556b86afc7db3b0f9", "fusion_lat": 0.0, "rental_uris": {"ios": "https://dc.lft.to/lastmile_qr_scan", "android": "https://dc.lft.to/lastmile_qr_scan"}, "lon": -76.98098, "type": "electric_bike"}, {"bike_id": "75d0d183f21ead2c27da4941cfd6f3ea", "is_reserved": 0, "fusion_lon": 0.0, "lat": 39.058149, "is_disabled": 0, "name": "75d0d183f21ead2c27da4941cfd6f3ea", "fusion_lat": 0.0, "rental_uris": {"ios": "https://dc.lft.to/lastmile_qr_scan", "android": "https://dc.lft.to/lastmile_qr_scan"}, "lon": -77.12630466666667, "type": "electric_bike"}, {"bike_id": "7118124efdea3fcb4722a75606775c8b", "is_reserved": 0, "fusion_lon": 0.0, "lat": 38.9092145, "is_disabled": 0, "name": "7118124efdea3fcb4722a75606775c8b", "fusion_lat": 0.0, "rental_uris": {"ios": "https://dc.lft.to/lastmile_qr_scan", "android": "https://dc.lft.to/lastmile_qr_scan"}, "lon": -76.99967316666667, "type": "electric_scooter"}, {"bike_id": "b0bc4af329877fec53264ee4306a00c4", "is_reserved": 0, "fusion_lon": 0.0, "lat": 38.925054833333334, "is_disabled": 0, "name": "b0bc4af329877fec53264ee4306a00c4", "fusion_lat": 0.0, "rental_uris": {"ios": "https://dc.lft.to/lastmile_qr_scan", "android": "https://dc.lft.to/lastmile_qr_scan"}, "lon": -77.02179966666667, "type": "electric_scooter"}, {"bike_id": "09afa241ee54bf1b40c0d5c8578f9347", "is_reserved": 0, "fusion_lon": 0.0, "lat": 38.846099833333334, "is_disabled": 0, "name": "09afa241ee54bf1b40c0d5c8578f9347", "fusion_lat": 0.0, "rental_uris": {"ios": "https://dc.lft.to/lastmile_qr_scan", "android": "https://dc.lft.to/lastmile_qr_scan"}, "lon": -76.96903416666666, "type": "electric_bike"}, {"bike_id": "17436468812b53a88552e87b74d2f02c", "is_reserved": 0, "fusion_lon": 0.0, "lat": 38.90994233333333, "is_disabled": 0, "name": "17436468812b53a88552e87b74d2f02c", "fusion_lat": 0.0, "rental_uris": {"ios": "https://dc.lft.to/lastmile_qr_scan", "android": "https://dc.lft.to/lastmile_qr_scan"}, "lon": -77.0092835, "type": "electric_scooter"}, {"bike_id": "168801fb77f422159cdfc2f2269d5e7c", "is_reserved": 0, "fusion_lon": 0.0, "lat": 38.89620766666667, "is_disabled": 0, "name": "168801fb77f422159cdfc2f2269d5e7c", "fusion_lat": 0.0, "rental_uris": {"ios": "https://dc.lft.to/lastmile_qr_scan", "android": "https://dc.lft.to/lastmile_qr_scan"}, "lon": -77.04051416666667, "type": "electric_scooter"}, {"bike_id": "514ea780c6c5693486781af712a01742", "is_reserved": 0, "fusion_lon": 0.0, "lat": 38.895571333333336, "is_disabled": 0, "name": "514ea780c6c5693486781af712a01742", "fusion_lat": 0.0, "rental_uris": {"ios": "https://dc.lft.to/lastmile_qr_scan", "android": "https://dc.lft.to/lastmile_qr_scan"}, "lon": -76.93043616666667, "type": "electric_scooter"}, {"bike_id": "2396df722de05c43a0d78d536dc818ff", "is_reserved": 0, "fusion_lon": 0.0, "lat": 38.84617, "is_disabled": 0, "name": "2396df722de05c43a0d78d536dc818ff", "fusion_lat": 0.0, "rental_uris": {"ios": "https://dc.lft.to/lastmile_qr_scan", "android": "https://dc.lft.to/lastmile_qr_scan"}, "lon": -76.978213, "type": "electric_bike"}, {"bike_id": "964ccbde0fceff59e01071041fce67e9", "is_reserved": 0, "fusion_lon": 0.0, "lat": 38.91492433333333, "is_disabled": 0, "name": "964ccbde0fceff59e01071041fce67e9", "fusion_lat": 0.0, "rental_uris": {"ios": "https://dc.lft.to/lastmile_qr_scan", "android": "https://dc.lft.to/lastmile_qr_scan"}, "lon": -76.98581366666667, "type": "electric_scooter"}, {"bike_id": "186e85ab622434731715403b59a31ce0", "is_reserved": 0, "fusion_lon": 0.0, "lat": 38.9104885, "is_disabled": 0, "name": "186e85ab622434731715403b59a31ce0", "fusion_lat": 0.0, "rental_uris": {"ios": "https://dc.lft.to/lastmile_qr_scan", "android": "https://dc.lft.to/lastmile_qr_scan"}, "lon": -77.01512533333333, "type": "electric_scooter"}, {"bike_id": "05889f93b6eb3cb69e937651fd62bbc8", "is_reserved": 0, "fusion_lon": 0.0, "lat": 38.89616183333333, "is_disabled": 0, "name": "05889f93b6eb3cb69e937651fd62bbc8", "fusion_lat": 0.0, "rental_uris": {"ios": "https://dc.lft.to/lastmile_qr_scan", "android": "https://dc.lft.to/lastmile_qr_scan"}, "lon": -77.01134266666666, "type": "electric_scooter"}, {"bike_id": "aaf7f18c09ee4b7071cec5f30f5374b7", "is_reserved": 0, "fusion_lon": 0.0, "lat": 38.90199416666667, "is_disabled": 0, "name": "aaf7f18c09ee4b7071cec5f30f5374b7", "fusion_lat": 0.0, "rental_uris": {"ios": "https://dc.lft.to/lastmile_qr_scan", "android": "https://dc.lft.to/lastmile_qr_scan"}, "lon": -77.06115816666667, "type": "electric_scooter"}, {"bike_id": "1858a7c1232e08ca32525c9ad6834c0a", "is_reserved": 0, "fusion_lon": 0.0, "lat": 38.97325133333333, "is_disabled": 0, "name": "1858a7c1232e08ca32525c9ad6834c0a", "fusion_lat": 0.0, "rental_uris": {"ios": "https://dc.lft.to/lastmile_qr_scan", "android": "https://dc.lft.to/lastmile_qr_scan"}, "lon": -77.0214825, "type": "electric_bike"}, {"bike_id": "5ec9706d1998fc51c6b3f410522fc15b", "is_reserved": 0, "fusion_lon": 0.0, "lat": 38.907435666666665, "is_disabled": 0, "name": "5ec9706d1998fc51c6b3f410522fc15b", "fusion_lat": 0.0, "rental_uris": {"ios": "https://dc.lft.to/lastmile_qr_scan", "android": "https://dc.lft.to/lastmile_qr_scan"}, "lon": -77.03465883333334, "type": "electric_scooter"}, {"bike_id": "4b9b2657c05e58ee4fc5de98d256df6b", "is_reserved": 0, "fusion_lon": 0.0, "lat": 38.944403333333334, "is_disabled": 0, "name": "4b9b2657c05e58ee4fc5de98d256df6b", "fusion_lat": 0.0, "rental_uris": {"ios": "https://dc.lft.to/lastmile_qr_scan", "android": "https://dc.lft.to/lastmile_qr_scan"}, "lon": -77.06410483333333, "type": "electric_scooter"}, {"bike_id": "b0e9a42c38cf66f5fcefd398034fadce", "is_reserved": 0, "fusion_lon": 0.0, "lat": 38.90016166666667, "is_disabled": 0, "name": "b0e9a42c38cf66f5fcefd398034fadce", "fusion_lat": 0.0, "rental_uris": {"ios": "https://dc.lft.to/lastmile_qr_scan", "android": "https://dc.lft.to/lastmile_qr_scan"}, "lon": -77.04651266666667, "type": "electric_scooter"}, {"bike_id": "d48b7ff4625c80cb78d12ceee4f4b707", "is_reserved": 0, "fusion_lon": 0.0, "lat": 38.898340166666664, "is_disabled": 0, "name": "d48b7ff4625c80cb78d12ceee4f4b707", "fusion_lat": 0.0, "rental_uris": {"ios": "https://dc.lft.to/lastmile_qr_scan", "android": "https://dc.lft.to/lastmile_qr_scan"}, "lon": -76.9463395, "type": "electric_scooter"}, {"bike_id": "d38bdc7650c1169c3a14b44e6aff6931", "is_reserved": 0, "fusion_lon": 0.0, "lat": 38.84428233333333, "is_disabled": 0, "name": "d38bdc7650c1169c3a14b44e6aff6931", "fusion_lat": 0.0, "rental_uris": {"ios": "https://dc.lft.to/lastmile_qr_scan", "android": "https://dc.lft.to/lastmile_qr_scan"}, "lon": -76.99775833333334, "type": "electric_scooter"}, {"bike_id": "ce32c6f0067bbfd0a9787e2553a35db5", "is_reserved": 0, "fusion_lon": 0.0, "lat": 38.902412, "is_disabled": 0, "name": "ce32c6f0067bbfd0a9787e2553a35db5", "fusion_lat": 0.0, "rental_uris": {"ios": "https://dc.lft.to/lastmile_qr_scan", "android": "https://dc.lft.to/lastmile_qr_scan"}, "lon": -77.002027, "type": "electric_scooter"}, {"bike_id": "db8c9ddbe9628dec76fe84aa44691120", "is_reserved": 0, "fusion_lon": 0.0, "lat": 38.945555666666664, "is_disabled": 0, "name": "db8c9ddbe9628dec76fe84aa44691120", "fusion_lat": 0.0, "rental_uris": {"ios": "https://dc.lft.to/lastmile_qr_scan", "android": "https://dc.lft.to/lastmile_qr_scan"}, "lon": -76.89539716666667, "type": "electric_bike"}, {"bike_id": "5e6ec94364287182a735ce9a1f1f0818", "is_reserved": 0, "fusion_lon": 0.0, "lat": 38.882366166666664, "is_disabled": 0, "name": "5e6ec94364287182a735ce9a1f1f0818", "fusion_lat": 0.0, "rental_uris": {"ios": "https://dc.lft.to/lastmile_qr_scan", "android": "https://dc.lft.to/lastmile_qr_scan"}, "lon": -76.990085, "type": "electric_scooter"}, {"bike_id": "44dcc784a7a7e2aee7a5939207835eec", "is_reserved": 0, "fusion_lon": 0.0, "lat": 38.892235666666664, "is_disabled": 0, "name": "44dcc784a7a7e2aee7a5939207835eec", "fusion_lat": 0.0, "rental_uris": {"ios": "https://dc.lft.to/lastmile_qr_scan", "android": "https://dc.lft.to/lastmile_qr_scan"}, "lon": -77.043661, "type": "electric_scooter"}, {"bike_id": "c4d0c8ffc183487ad35ac155a81def4a", "is_reserved": 0, "fusion_lon": 0.0, "lat": 38.865661, "is_disabled": 0, "name": "c4d0c8ffc183487ad35ac155a81def4a", "fusion_lat": 0.0, "rental_uris": {"ios": "https://dc.lft.to/lastmile_qr_scan", "android": "https://dc.lft.to/lastmile_qr_scan"}, "lon": -76.98950633333334, "type": "electric_scooter"}, {"bike_id": "49b4a2076bd131602066f3c342a04cc3", "is_reserved": 0, "fusion_lon": 0.0, "lat": 38.91388633333333, "is_disabled": 0, "name": "49b4a2076bd131602066f3c342a04cc3", "fusion_lat": 0.0, "rental_uris": {"ios": "https://dc.lft.to/lastmile_qr_scan", "android": "https://dc.lft.to/lastmile_qr_scan"}, "lon": -77.01700333333334, "type": "electric_scooter"}, {"bike_id": "08d77d03df94feb1ebb288f87bd29b2b", "is_reserved": 0, "fusion_lon": 0.0, "lat": 38.9060385, "is_disabled": 0, "name": "08d77d03df94feb1ebb288f87bd29b2b", "fusion_lat": 0.0, "rental_uris": {"ios": "https://dc.lft.to/lastmile_qr_scan", "android": "https://dc.lft.to/lastmile_qr_scan"}, "lon": -77.06300366666666, "type": "electric_scooter"}, {"bike_id": "6402c59ec76a636d8edd7b22abe3f503", "is_reserved": 0, "fusion_lon": 0.0, "lat": 38.86175883333333, "is_disabled": 0, "name": "6402c59ec76a636d8edd7b22abe3f503", "fusion_lat": 0.0, "rental_uris": {"ios": "https://dc.lft.to/lastmile_qr_scan", "android": "https://dc.lft.to/lastmile_qr_scan"}, "lon": -76.96911516666667, "type": "electric_scooter"}, {"bike_id": "d293c475019cf86dcee4e8971e0acaf8", "is_reserved": 0, "fusion_lon": 0.0, "lat": 38.89827983333333, "is_disabled": 0, "name": "d293c475019cf86dcee4e8971e0acaf8", "fusion_lat": 0.0, "rental_uris": {"ios": "https://dc.lft.to/lastmile_qr_scan", "android": "https://dc.lft.to/lastmile_qr_scan"}, "lon": -77.0334555, "type": "electric_scooter"}, {"bike_id": "84a80b2d279e87e1b15c79bee3555ce5", "is_reserved": 0, "fusion_lon": 0.0, "lat": 38.916939166666666, "is_disabled": 0, "name": "84a80b2d279e87e1b15c79bee3555ce5", "fusion_lat": 0.0, "rental_uris": {"ios": "https://dc.lft.to/lastmile_qr_scan", "android": "https://dc.lft.to/lastmile_qr_scan"}, "lon": -77.022253, "type": "electric_scooter"}, {"bike_id": "e5ace84a7033b1e53fdf63dc5bf1ead7", "is_reserved": 0, "fusion_lon": 0.0, "lat": 38.9203855, "is_disabled": 0, "name": "e5ace84a7033b1e53fdf63dc5bf1ead7", "fusion_lat": 0.0, "rental_uris": {"ios": "https://dc.lft.to/lastmile_qr_scan", "android": "https://dc.lft.to/lastmile_qr_scan"}, "lon": -77.025901, "type": "electric_scooter"}, {"bike_id": "aa10ed4bc83ac95e5ce9e177eff719d4", "is_reserved": 0, "fusion_lon": 0.0, "lat": 38.92959783333333, "is_disabled": 0, "name": "aa10ed4bc83ac95e5ce9e177eff719d4", "fusion_lat": 0.0, "rental_uris": {"ios": "https://dc.lft.to/lastmile_qr_scan", "android": "https://dc.lft.to/lastmile_qr_scan"}, "lon": -77.2257285, "type": "electric_bike"}, {"bike_id": "39fdc4721ca58b8b967e438f7813c661", "is_reserved": 0, "fusion_lon": 0.0, "lat": 38.917207833333336, "is_disabled": 0, "name": "39fdc4721ca58b8b967e438f7813c661", "fusion_lat": 0.0, "rental_uris": {"ios": "https://dc.lft.to/lastmile_qr_scan", "android": "https://dc.lft.to/lastmile_qr_scan"}, "lon": -77.02404483333333, "type": "electric_scooter"}, {"bike_id": "76c46392b426375be2068abb31da8ce7", "is_reserved": 0, "fusion_lon": 0.0, "lat": 38.955293, "is_disabled": 0, "name": "76c46392b426375be2068abb31da8ce7", "fusion_lat": 0.0, "rental_uris": {"ios": "https://dc.lft.to/lastmile_qr_scan", "android": "https://dc.lft.to/lastmile_qr_scan"}, "lon": -77.02416583333333, "type": "electric_bike"}, {"bike_id": "8627b3e9ae7534a32ced11e90baf1e4a", "is_reserved": 0, "fusion_lon": 0.0, "lat": 38.91581566666667, "is_disabled": 0, "name": "8627b3e9ae7534a32ced11e90baf1e4a", "fusion_lat": 0.0, "rental_uris": {"ios": "https://dc.lft.to/lastmile_qr_scan", "android": "https://dc.lft.to/lastmile_qr_scan"}, "lon": -77.04677766666667, "type": "electric_scooter"}, {"bike_id": "276a1b83241560a7a29ecf19ca5e929d", "is_reserved": 0, "fusion_lon": 0.0, "lat": 38.9021165, "is_disabled": 0, "name": "276a1b83241560a7a29ecf19ca5e929d", "fusion_lat": 0.0, "rental_uris": {"ios": "https://dc.lft.to/lastmile_qr_scan", "android": "https://dc.lft.to/lastmile_qr_scan"}, "lon": -76.94584766666667, "type": "electric_scooter"}, {"bike_id": "87bb88716b9aa066d3da9b509109f425", "is_reserved": 0, "fusion_lon": 0.0, "lat": 38.900896833333334, "is_disabled": 0, "name": "87bb88716b9aa066d3da9b509109f425", "fusion_lat": 0.0, "rental_uris": {"ios": "https://dc.lft.to/lastmile_qr_scan", "android": "https://dc.lft.to/lastmile_qr_scan"}, "lon": -77.04507183333334, "type": "electric_scooter"}, {"bike_id": "87a0a8dc706e20cfef1f620b56cd975b", "is_reserved": 0, "fusion_lon": 0.0, "lat": 38.921358166666664, "is_disabled": 0, "name": "87a0a8dc706e20cfef1f620b56cd975b", "fusion_lat": 0.0, "rental_uris": {"ios": "https://dc.lft.to/lastmile_qr_scan", "android": "https://dc.lft.to/lastmile_qr_scan"}, "lon": -77.040069, "type": "electric_bike"}, {"bike_id": "e893c30572a630ed2dcfb39354238859", "is_reserved": 0, "fusion_lon": 0.0, "lat": 38.896283, "is_disabled": 0, "name": "e893c30572a630ed2dcfb39354238859", "fusion_lat": 0.0, "rental_uris": {"ios": "https://dc.lft.to/lastmile_qr_scan", "android": "https://dc.lft.to/lastmile_qr_scan"}, "lon": -77.00920966666666, "type": "electric_scooter"}, {"bike_id": "6926b0bc5aaa01e93a766eedef90f0f8", "is_reserved": 0, "fusion_lon": 0.0, "lat": 38.90595616666667, "is_disabled": 0, "name": "6926b0bc5aaa01e93a766eedef90f0f8", "fusion_lat": 0.0, "rental_uris": {"ios": "https://dc.lft.to/lastmile_qr_scan", "android": "https://dc.lft.to/lastmile_qr_scan"}, "lon": -77.0468645, "type": "electric_scooter"}, {"bike_id": "0b4cef7c389485713f02d09720ef985d", "is_reserved": 0, "fusion_lon": 0.0, "lat": 38.94944866666667, "is_disabled": 0, "name": "0b4cef7c389485713f02d09720ef985d", "fusion_lat": 0.0, "rental_uris": {"ios": "https://dc.lft.to/lastmile_qr_scan", "android": "https://dc.lft.to/lastmile_qr_scan"}, "lon": -77.01623533333333, "type": "electric_scooter"}, {"bike_id": "42adb9152cb2f057bd7e324bf13c2ff5", "is_reserved": 0, "fusion_lon": 0.0, "lat": 38.919569833333334, "is_disabled": 0, "name": "42adb9152cb2f057bd7e324bf13c2ff5", "fusion_lat": 0.0, "rental_uris": {"ios": "https://dc.lft.to/lastmile_qr_scan", "android": "https://dc.lft.to/lastmile_qr_scan"}, "lon": -76.97271733333334, "type": "electric_bike"}, {"bike_id": "6a4404db9726177222e58d198c803ac5", "is_reserved": 0, "fusion_lon": 0.0, "lat": 38.8619715, "is_disabled": 0, "name": "6a4404db9726177222e58d198c803ac5", "fusion_lat": 0.0, "rental_uris": {"ios": "https://dc.lft.to/lastmile_qr_scan", "android": "https://dc.lft.to/lastmile_qr_scan"}, "lon": -76.9946345, "type": "electric_scooter"}, {"bike_id": "4e03cf3d86a2669a8062162b28b0cda1", "is_reserved": 0, "fusion_lon": 0.0, "lat": 38.991749666666664, "is_disabled": 0, "name": "4e03cf3d86a2669a8062162b28b0cda1", "fusion_lat": 0.0, "rental_uris": {"ios": "https://dc.lft.to/lastmile_qr_scan", "android": "https://dc.lft.to/lastmile_qr_scan"}, "lon": -77.0258515, "type": "electric_bike"}, {"bike_id": "f455e21faef0f4412bbdcb122d85ffc4", "is_reserved": 0, "fusion_lon": 0.0, "lat": 38.9275295, "is_disabled": 0, "name": "f455e21faef0f4412bbdcb122d85ffc4", "fusion_lat": 0.0, "rental_uris": {"ios": "https://dc.lft.to/lastmile_qr_scan", "android": "https://dc.lft.to/lastmile_qr_scan"}, "lon": -77.0327715, "type": "electric_scooter"}, {"bike_id": "9dab450e8a45477750ef5087db004cea", "is_reserved": 0, "fusion_lon": 0.0, "lat": 38.964915, "is_disabled": 0, "name": "9dab450e8a45477750ef5087db004cea", "fusion_lat": 0.0, "rental_uris": {"ios": "https://dc.lft.to/lastmile_qr_scan", "android": "https://dc.lft.to/lastmile_qr_scan"}, "lon": -77.08768266666667, "type": "electric_bike"}, {"bike_id": "b11b10c78d9487524c8fca6e07425e16", "is_reserved": 0, "fusion_lon": 0.0, "lat": 38.90066083333333, "is_disabled": 0, "name": "b11b10c78d9487524c8fca6e07425e16", "fusion_lat": 0.0, "rental_uris": {"ios": "https://dc.lft.to/lastmile_qr_scan", "android": "https://dc.lft.to/lastmile_qr_scan"}, "lon": -77.00742833333334, "type": "electric_scooter"}, {"bike_id": "ffa6daa8ad4482cf0b280b87bef5f58a", "is_reserved": 0, "fusion_lon": 0.0, "lat": 38.9565245, "is_disabled": 0, "name": "ffa6daa8ad4482cf0b280b87bef5f58a", "fusion_lat": 0.0, "rental_uris": {"ios": "https://dc.lft.to/lastmile_qr_scan", "android": "https://dc.lft.to/lastmile_qr_scan"}, "lon": -77.03288866666666, "type": "electric_scooter"}, {"bike_id": "2bd16d47ee6ba5b1ca1dac04fb047c48", "is_reserved": 0, "fusion_lon": 0.0, "lat": 38.892233166666664, "is_disabled": 0, "name": "2bd16d47ee6ba5b1ca1dac04fb047c48", "fusion_lat": 0.0, "rental_uris": {"ios": "https://dc.lft.to/lastmile_qr_scan", "android": "https://dc.lft.to/lastmile_qr_scan"}, "lon": -77.03165016666667, "type": "electric_scooter"}, {"bike_id": "36c3f55e6bdead793a690af761f23877", "is_reserved": 0, "fusion_lon": 0.0, "lat": 38.89197433333333, "is_disabled": 0, "name": "36c3f55e6bdead793a690af761f23877", "fusion_lat": 0.0, "rental_uris": {"ios": "https://dc.lft.to/lastmile_qr_scan", "android": "https://dc.lft.to/lastmile_qr_scan"}, "lon": -77.02836533333333, "type": "electric_scooter"}, {"bike_id": "2d9b743bf634bc2a3e57a09ac38c9225", "is_reserved": 0, "fusion_lon": 0.0, "lat": 38.8279245, "is_disabled": 0, "name": "2d9b743bf634bc2a3e57a09ac38c9225", "fusion_lat": 0.0, "rental_uris": {"ios": "https://dc.lft.to/lastmile_qr_scan", "android": "https://dc.lft.to/lastmile_qr_scan"}, "lon": -77.009187, "type": "electric_bike"}, {"bike_id": "5659ac878479932a5d65af003d12250e", "is_reserved": 0, "fusion_lon": 0.0, "lat": 38.89911083333333, "is_disabled": 0, "name": "5659ac878479932a5d65af003d12250e", "fusion_lat": 0.0, "rental_uris": {"ios": "https://dc.lft.to/lastmile_qr_scan", "android": "https://dc.lft.to/lastmile_qr_scan"}, "lon": -77.03292533333334, "type": "electric_scooter"}, {"bike_id": "1948228acdbc7e001ada120ded6c1385", "is_reserved": 0, "fusion_lon": 0.0, "lat": 38.90107916666667, "is_disabled": 0, "name": "1948228acdbc7e001ada120ded6c1385", "fusion_lat": 0.0, "rental_uris": {"ios": "https://dc.lft.to/lastmile_qr_scan", "android": "https://dc.lft.to/lastmile_qr_scan"}, "lon": -77.048276, "type": "electric_scooter"}, {"bike_id": "87011bbc4e892776d07b3c545cf190d4", "is_reserved": 0, "fusion_lon": 0.0, "lat": 39.00143966666667, "is_disabled": 0, "name": "87011bbc4e892776d07b3c545cf190d4", "fusion_lat": 0.0, "rental_uris": {"ios": "https://dc.lft.to/lastmile_qr_scan", "android": "https://dc.lft.to/lastmile_qr_scan"}, "lon": -77.0569275, "type": "electric_bike"}, {"bike_id": "0bb93221ca3f7618894f4860c6e69f4d", "is_reserved": 0, "fusion_lon": 0.0, "lat": 38.98432016666667, "is_disabled": 0, "name": "0bb93221ca3f7618894f4860c6e69f4d", "fusion_lat": 0.0, "rental_uris": {"ios": "https://dc.lft.to/lastmile_qr_scan", "android": "https://dc.lft.to/lastmile_qr_scan"}, "lon": -77.02674183333333, "type": "electric_scooter"}, {"bike_id": "73604d292494ee15fc3c21442d69c4eb", "is_reserved": 0, "fusion_lon": 0.0, "lat": 38.884888333333336, "is_disabled": 0, "name": "73604d292494ee15fc3c21442d69c4eb", "fusion_lat": 0.0, "rental_uris": {"ios": "https://dc.lft.to/lastmile_qr_scan", "android": "https://dc.lft.to/lastmile_qr_scan"}, "lon": -77.00726533333334, "type": "electric_scooter"}, {"bike_id": "39e6ce0e650907fcb47f1eaa935d091b", "is_reserved": 0, "fusion_lon": 0.0, "lat": 38.90451616666667, "is_disabled": 0, "name": "39e6ce0e650907fcb47f1eaa935d091b", "fusion_lat": 0.0, "rental_uris": {"ios": "https://dc.lft.to/lastmile_qr_scan", "android": "https://dc.lft.to/lastmile_qr_scan"}, "lon": -77.05920766666667, "type": "electric_scooter"}, {"bike_id": "049f73c17f5372b042c2afe64737abb9", "is_reserved": 0, "fusion_lon": 0.0, "lat": 38.9024225, "is_disabled": 0, "name": "049f73c17f5372b042c2afe64737abb9", "fusion_lat": 0.0, "rental_uris": {"ios": "https://dc.lft.to/lastmile_qr_scan", "android": "https://dc.lft.to/lastmile_qr_scan"}, "lon": -77.00202116666667, "type": "electric_scooter"}, {"bike_id": "e9ed6915b63afc5ddaa694f82402150f", "is_reserved": 0, "fusion_lon": 0.0, "lat": 38.9332555, "is_disabled": 0, "name": "e9ed6915b63afc5ddaa694f82402150f", "fusion_lat": 0.0, "rental_uris": {"ios": "https://dc.lft.to/lastmile_qr_scan", "android": "https://dc.lft.to/lastmile_qr_scan"}, "lon": -77.03270016666667, "type": "electric_scooter"}, {"bike_id": "c0d34aadf9d32d1b0620a313f091082e", "is_reserved": 0, "fusion_lon": 0.0, "lat": 38.90163783333333, "is_disabled": 0, "name": "c0d34aadf9d32d1b0620a313f091082e", "fusion_lat": 0.0, "rental_uris": {"ios": "https://dc.lft.to/lastmile_qr_scan", "android": "https://dc.lft.to/lastmile_qr_scan"}, "lon": -77.00018333333334, "type": "electric_scooter"}, {"bike_id": "b658d6123836bad2c20eaadd3e5b1bb5", "is_reserved": 0, "fusion_lon": 0.0, "lat": 38.9041885, "is_disabled": 0, "name": "b658d6123836bad2c20eaadd3e5b1bb5", "fusion_lat": 0.0, "rental_uris": {"ios": "https://dc.lft.to/lastmile_qr_scan", "android": "https://dc.lft.to/lastmile_qr_scan"}, "lon": -77.04333166666666, "type": "electric_scooter"}, {"bike_id": "56e57929b9bb0326b02ae8480d81e09d", "is_reserved": 0, "fusion_lon": 0.0, "lat": 38.86420016666667, "is_disabled": 0, "name": "56e57929b9bb0326b02ae8480d81e09d", "fusion_lat": 0.0, "rental_uris": {"ios": "https://dc.lft.to/lastmile_qr_scan", "android": "https://dc.lft.to/lastmile_qr_scan"}, "lon": -77.01351066666666, "type": "electric_scooter"}, {"bike_id": "42c8b3880fc616e48b576f140dd94b3e", "is_reserved": 0, "fusion_lon": 0.0, "lat": 38.908659, "is_disabled": 0, "name": "42c8b3880fc616e48b576f140dd94b3e", "fusion_lat": 0.0, "rental_uris": {"ios": "https://dc.lft.to/lastmile_qr_scan", "android": "https://dc.lft.to/lastmile_qr_scan"}, "lon": -77.00357966666667, "type": "electric_scooter"}, {"bike_id": "67a4ebc5ef747cb946df314909fd5c14", "is_reserved": 0, "fusion_lon": 0.0, "lat": 38.8922025, "is_disabled": 0, "name": "67a4ebc5ef747cb946df314909fd5c14", "fusion_lat": 0.0, "rental_uris": {"ios": "https://dc.lft.to/lastmile_qr_scan", "android": "https://dc.lft.to/lastmile_qr_scan"}, "lon": -77.04651016666666, "type": "electric_scooter"}, {"bike_id": "87444b0e14662c0b53c52cbad625e826", "is_reserved": 0, "fusion_lon": 0.0, "lat": 38.9179315, "is_disabled": 0, "name": "87444b0e14662c0b53c52cbad625e826", "fusion_lat": 0.0, "rental_uris": {"ios": "https://dc.lft.to/lastmile_qr_scan", "android": "https://dc.lft.to/lastmile_qr_scan"}, "lon": -77.04160766666666, "type": "electric_scooter"}, {"bike_id": "5d4e12c45cbc6b05451abded1f1e885b", "is_reserved": 0, "fusion_lon": 0.0, "lat": 38.90566716666667, "is_disabled": 0, "name": "5d4e12c45cbc6b05451abded1f1e885b", "fusion_lat": 0.0, "rental_uris": {"ios": "https://dc.lft.to/lastmile_qr_scan", "android": "https://dc.lft.to/lastmile_qr_scan"}, "lon": -77.03842383333334, "type": "electric_scooter"}, {"bike_id": "0552be9bd986484fd31ded2abbe642ee", "is_reserved": 0, "fusion_lon": 0.0, "lat": 38.89353116666667, "is_disabled": 0, "name": "0552be9bd986484fd31ded2abbe642ee", "fusion_lat": 0.0, "rental_uris": {"ios": "https://dc.lft.to/lastmile_qr_scan", "android": "https://dc.lft.to/lastmile_qr_scan"}, "lon": -77.003359, "type": "electric_scooter"}, {"bike_id": "6c9f19cf3f706a1c384f550dd20d5c92", "is_reserved": 0, "fusion_lon": 0.0, "lat": 38.9096235, "is_disabled": 0, "name": "6c9f19cf3f706a1c384f550dd20d5c92", "fusion_lat": 0.0, "rental_uris": {"ios": "https://dc.lft.to/lastmile_qr_scan", "android": "https://dc.lft.to/lastmile_qr_scan"}, "lon": -77.0227705, "type": "electric_scooter"}, {"bike_id": "f439dcdaf49bc0e0fc7e824ae463e768", "is_reserved": 0, "fusion_lon": 0.0, "lat": 38.88463683333333, "is_disabled": 0, "name": "f439dcdaf49bc0e0fc7e824ae463e768", "fusion_lat": 0.0, "rental_uris": {"ios": "https://dc.lft.to/lastmile_qr_scan", "android": "https://dc.lft.to/lastmile_qr_scan"}, "lon": -77.00583366666666, "type": "electric_scooter"}, {"bike_id": "1deee335fe93ea6360e8d94d0b18e245", "is_reserved": 0, "fusion_lon": 0.0, "lat": 38.9050455, "is_disabled": 0, "name": "1deee335fe93ea6360e8d94d0b18e245", "fusion_lat": 0.0, "rental_uris": {"ios": "https://dc.lft.to/lastmile_qr_scan", "android": "https://dc.lft.to/lastmile_qr_scan"}, "lon": -76.9807525, "type": "electric_bike"}, {"bike_id": "c48ef3ff7799233a833c0c58fb1762ab", "is_reserved": 0, "fusion_lon": 0.0, "lat": 38.88997166666667, "is_disabled": 0, "name": "c48ef3ff7799233a833c0c58fb1762ab", "fusion_lat": 0.0, "rental_uris": {"ios": "https://dc.lft.to/lastmile_qr_scan", "android": "https://dc.lft.to/lastmile_qr_scan"}, "lon": -77.00348616666666, "type": "electric_scooter"}, {"bike_id": "37c0581ffcb3977b7daa9e671a8be671", "is_reserved": 0, "fusion_lon": 0.0, "lat": 38.9721325, "is_disabled": 0, "name": "37c0581ffcb3977b7daa9e671a8be671", "fusion_lat": 0.0, "rental_uris": {"ios": "https://dc.lft.to/lastmile_qr_scan", "android": "https://dc.lft.to/lastmile_qr_scan"}, "lon": -76.95533683333333, "type": "electric_bike"}, {"bike_id": "4b1282b717fceb2bcadd75456367f01f", "is_reserved": 0, "fusion_lon": 0.0, "lat": 38.903893, "is_disabled": 0, "name": "4b1282b717fceb2bcadd75456367f01f", "fusion_lat": 0.0, "rental_uris": {"ios": "https://dc.lft.to/lastmile_qr_scan", "android": "https://dc.lft.to/lastmile_qr_scan"}, "lon": -77.0387065, "type": "electric_scooter"}, {"bike_id": "714cb5fdd2aedf32c932bdeabb69303b", "is_reserved": 0, "fusion_lon": 0.0, "lat": 38.90251466666667, "is_disabled": 0, "name": "714cb5fdd2aedf32c932bdeabb69303b", "fusion_lat": 0.0, "rental_uris": {"ios": "https://dc.lft.to/lastmile_qr_scan", "android": "https://dc.lft.to/lastmile_qr_scan"}, "lon": -77.03924516666666, "type": "electric_scooter"}, {"bike_id": "b18d7a89df94b1c9a17418eb1f764dd8", "is_reserved": 0, "fusion_lon": 0.0, "lat": 38.892494, "is_disabled": 0, "name": "b18d7a89df94b1c9a17418eb1f764dd8", "fusion_lat": 0.0, "rental_uris": {"ios": "https://dc.lft.to/lastmile_qr_scan", "android": "https://dc.lft.to/lastmile_qr_scan"}, "lon": -76.94332116666666, "type": "electric_scooter"}, {"bike_id": "1ebfe00498f2c1c07ff74ee8627500fd", "is_reserved": 0, "fusion_lon": 0.0, "lat": 38.8714555, "is_disabled": 0, "name": "1ebfe00498f2c1c07ff74ee8627500fd", "fusion_lat": 0.0, "rental_uris": {"ios": "https://dc.lft.to/lastmile_qr_scan", "android": "https://dc.lft.to/lastmile_qr_scan"}, "lon": -76.93667533333333, "type": "electric_bike"}, {"bike_id": "6b821b4f109a208d9e8b86e5e9833a18", "is_reserved": 0, "fusion_lon": 0.0, "lat": 38.89196866666666, "is_disabled": 0, "name": "6b821b4f109a208d9e8b86e5e9833a18", "fusion_lat": 0.0, "rental_uris": {"ios": "https://dc.lft.to/lastmile_qr_scan", "android": "https://dc.lft.to/lastmile_qr_scan"}, "lon": -77.028358, "type": "electric_scooter"}, {"bike_id": "8ab9e094c514ba2ac9bec961f3a07035", "is_reserved": 0, "fusion_lon": 0.0, "lat": 38.89751433333333, "is_disabled": 0, "name": "8ab9e094c514ba2ac9bec961f3a07035", "fusion_lat": 0.0, "rental_uris": {"ios": "https://dc.lft.to/lastmile_qr_scan", "android": "https://dc.lft.to/lastmile_qr_scan"}, "lon": -77.03387266666667, "type": "electric_scooter"}, {"bike_id": "9ca46fa95ad9b2d880bc5f779ac0d5a5", "is_reserved": 0, "fusion_lon": 0.0, "lat": 38.89220783333333, "is_disabled": 0, "name": "9ca46fa95ad9b2d880bc5f779ac0d5a5", "fusion_lat": 0.0, "rental_uris": {"ios": "https://dc.lft.to/lastmile_qr_scan", "android": "https://dc.lft.to/lastmile_qr_scan"}, "lon": -77.026256, "type": "electric_scooter"}, {"bike_id": "e45b34ca006decfca41cc373c742531a", "is_reserved": 0, "fusion_lon": 0.0, "lat": 38.92478966666667, "is_disabled": 0, "name": "e45b34ca006decfca41cc373c742531a", "fusion_lat": 0.0, "rental_uris": {"ios": "https://dc.lft.to/lastmile_qr_scan", "android": "https://dc.lft.to/lastmile_qr_scan"}, "lon": -77.0275215, "type": "electric_scooter"}, {"bike_id": "f11885a6ae7fc2fd47674330e19e170e", "is_reserved": 0, "fusion_lon": 0.0, "lat": 38.95359333333333, "is_disabled": 0, "name": "f11885a6ae7fc2fd47674330e19e170e", "fusion_lat": 0.0, "rental_uris": {"ios": "https://dc.lft.to/lastmile_qr_scan", "android": "https://dc.lft.to/lastmile_qr_scan"}, "lon": -76.98097066666666, "type": "electric_bike"}, {"bike_id": "3832b919d0afd127a5ce63c9a99f5d54", "is_reserved": 0, "fusion_lon": 0.0, "lat": 38.907520833333336, "is_disabled": 0, "name": "3832b919d0afd127a5ce63c9a99f5d54", "fusion_lat": 0.0, "rental_uris": {"ios": "https://dc.lft.to/lastmile_qr_scan", "android": "https://dc.lft.to/lastmile_qr_scan"}, "lon": -77.00758883333333, "type": "electric_scooter"}, {"bike_id": "421c1bc56b86411eb8eb9259ce4f0387", "is_reserved": 0, "fusion_lon": 0.0, "lat": 38.87660733333333, "is_disabled": 0, "name": "421c1bc56b86411eb8eb9259ce4f0387", "fusion_lat": 0.0, "rental_uris": {"ios": "https://dc.lft.to/lastmile_qr_scan", "android": "https://dc.lft.to/lastmile_qr_scan"}, "lon": -77.0006725, "type": "electric_scooter"}, {"bike_id": "beaf8f08f1dcbd6d5e2a42ea9f701203", "is_reserved": 0, "fusion_lon": 0.0, "lat": 38.904508166666666, "is_disabled": 0, "name": "beaf8f08f1dcbd6d5e2a42ea9f701203", "fusion_lat": 0.0, "rental_uris": {"ios": "https://dc.lft.to/lastmile_qr_scan", "android": "https://dc.lft.to/lastmile_qr_scan"}, "lon": -77.03461083333333, "type": "electric_scooter"}, {"bike_id": "6bbadf9128ee452d8b0646266df19545", "is_reserved": 0, "fusion_lon": 0.0, "lat": 38.883147666666666, "is_disabled": 0, "name": "6bbadf9128ee452d8b0646266df19545", "fusion_lat": 0.0, "rental_uris": {"ios": "https://dc.lft.to/lastmile_qr_scan", "android": "https://dc.lft.to/lastmile_qr_scan"}, "lon": -77.00935383333334, "type": "electric_scooter"}, {"bike_id": "6ccd940575d5d4ef2f572d242a9c3f27", "is_reserved": 0, "fusion_lon": 0.0, "lat": 38.9489675, "is_disabled": 0, "name": "6ccd940575d5d4ef2f572d242a9c3f27", "fusion_lat": 0.0, "rental_uris": {"ios": "https://dc.lft.to/lastmile_qr_scan", "android": "https://dc.lft.to/lastmile_qr_scan"}, "lon": -76.96367816666667, "type": "electric_bike"}, {"bike_id": "5fd26e748b68ac442f1bdebf2949d321", "is_reserved": 0, "fusion_lon": 0.0, "lat": 38.89894666666667, "is_disabled": 0, "name": "5fd26e748b68ac442f1bdebf2949d321", "fusion_lat": 0.0, "rental_uris": {"ios": "https://dc.lft.to/lastmile_qr_scan", "android": "https://dc.lft.to/lastmile_qr_scan"}, "lon": -77.03279916666666, "type": "electric_scooter"}, {"bike_id": "81fd34bda9bf4860a8b8e13809af0e2e", "is_reserved": 0, "fusion_lon": 0.0, "lat": 38.894715, "is_disabled": 0, "name": "81fd34bda9bf4860a8b8e13809af0e2e", "fusion_lat": 0.0, "rental_uris": {"ios": "https://dc.lft.to/lastmile_qr_scan", "android": "https://dc.lft.to/lastmile_qr_scan"}, "lon": -77.0175225, "type": "electric_scooter"}, {"bike_id": "e864135508f2d7ad27f5dfc02612e8dc", "is_reserved": 0, "fusion_lon": 0.0, "lat": 38.938674166666665, "is_disabled": 0, "name": "e864135508f2d7ad27f5dfc02612e8dc", "fusion_lat": 0.0, "rental_uris": {"ios": "https://dc.lft.to/lastmile_qr_scan", "android": "https://dc.lft.to/lastmile_qr_scan"}, "lon": -77.0265475, "type": "electric_scooter"}, {"bike_id": "99f617863df570369ba87aa3697a5db3", "is_reserved": 0, "fusion_lon": 0.0, "lat": 38.90368083333333, "is_disabled": 0, "name": "99f617863df570369ba87aa3697a5db3", "fusion_lat": 0.0, "rental_uris": {"ios": "https://dc.lft.to/lastmile_qr_scan", "android": "https://dc.lft.to/lastmile_qr_scan"}, "lon": -77.04002133333333, "type": "electric_scooter"}, {"bike_id": "2e828e2e37fad4440a966315e50f5e42", "is_reserved": 0, "fusion_lon": 0.0, "lat": 38.907456333333336, "is_disabled": 0, "name": "2e828e2e37fad4440a966315e50f5e42", "fusion_lat": 0.0, "rental_uris": {"ios": "https://dc.lft.to/lastmile_qr_scan", "android": "https://dc.lft.to/lastmile_qr_scan"}, "lon": -76.98642883333333, "type": "electric_scooter"}, {"bike_id": "67fe1722e663c4b76fe5258b343a62b6", "is_reserved": 0, "fusion_lon": 0.0, "lat": 38.930788166666666, "is_disabled": 0, "name": "67fe1722e663c4b76fe5258b343a62b6", "fusion_lat": 0.0, "rental_uris": {"ios": "https://dc.lft.to/lastmile_qr_scan", "android": "https://dc.lft.to/lastmile_qr_scan"}, "lon": -77.03420966666667, "type": "electric_scooter"}, {"bike_id": "40feeef4a7861f8c13d4444e2abb6def", "is_reserved": 0, "fusion_lon": 0.0, "lat": 38.89728916666667, "is_disabled": 0, "name": "40feeef4a7861f8c13d4444e2abb6def", "fusion_lat": 0.0, "rental_uris": {"ios": "https://dc.lft.to/lastmile_qr_scan", "android": "https://dc.lft.to/lastmile_qr_scan"}, "lon": -77.041526, "type": "electric_scooter"}, {"bike_id": "1c6125bb46a6b98808d578df18dfd735", "is_reserved": 0, "fusion_lon": 0.0, "lat": 38.822657, "is_disabled": 0, "name": "1c6125bb46a6b98808d578df18dfd735", "fusion_lat": 0.0, "rental_uris": {"ios": "https://dc.lft.to/lastmile_qr_scan", "android": "https://dc.lft.to/lastmile_qr_scan"}, "lon": -77.00558266666667, "type": "electric_bike"}, {"bike_id": "4afb796697be3e44cbe189b994a8ecdc", "is_reserved": 0, "fusion_lon": 0.0, "lat": 38.933583, "is_disabled": 0, "name": "4afb796697be3e44cbe189b994a8ecdc", "fusion_lat": 0.0, "rental_uris": {"ios": "https://dc.lft.to/lastmile_qr_scan", "android": "https://dc.lft.to/lastmile_qr_scan"}, "lon": -77.05731533333334, "type": "electric_scooter"}, {"bike_id": "6225b83456f55f8c8aed85b3868c1c99", "is_reserved": 0, "fusion_lon": 0.0, "lat": 38.926261833333335, "is_disabled": 0, "name": "6225b83456f55f8c8aed85b3868c1c99", "fusion_lat": 0.0, "rental_uris": {"ios": "https://dc.lft.to/lastmile_qr_scan", "android": "https://dc.lft.to/lastmile_qr_scan"}, "lon": -77.03789016666667, "type": "electric_scooter"}, {"bike_id": "9b98ce817bf9f1a8c2878dd3b7aa2ca3", "is_reserved": 0, "fusion_lon": 0.0, "lat": 38.89780233333333, "is_disabled": 0, "name": "9b98ce817bf9f1a8c2878dd3b7aa2ca3", "fusion_lat": 0.0, "rental_uris": {"ios": "https://dc.lft.to/lastmile_qr_scan", "android": "https://dc.lft.to/lastmile_qr_scan"}, "lon": -77.03167266666667, "type": "electric_scooter"}, {"bike_id": "25dcc90dd1f6e4a3e42381f330e610b4", "is_reserved": 0, "fusion_lon": 0.0, "lat": 38.92180333333334, "is_disabled": 0, "name": "25dcc90dd1f6e4a3e42381f330e610b4", "fusion_lat": 0.0, "rental_uris": {"ios": "https://dc.lft.to/lastmile_qr_scan", "android": "https://dc.lft.to/lastmile_qr_scan"}, "lon": -76.997921, "type": "electric_scooter"}, {"bike_id": "092cd10b46c83bf4c236f5c9219e3162", "is_reserved": 0, "fusion_lon": 0.0, "lat": 38.892598666666665, "is_disabled": 0, "name": "092cd10b46c83bf4c236f5c9219e3162", "fusion_lat": 0.0, "rental_uris": {"ios": "https://dc.lft.to/lastmile_qr_scan", "android": "https://dc.lft.to/lastmile_qr_scan"}, "lon": -76.94153383333334, "type": "electric_scooter"}, {"bike_id": "f078b86677c0bee75718e072b9a28776", "is_reserved": 0, "fusion_lon": 0.0, "lat": 38.90595916666667, "is_disabled": 0, "name": "f078b86677c0bee75718e072b9a28776", "fusion_lat": 0.0, "rental_uris": {"ios": "https://dc.lft.to/lastmile_qr_scan", "android": "https://dc.lft.to/lastmile_qr_scan"}, "lon": -77.04040683333334, "type": "electric_scooter"}, {"bike_id": "30e390316d2f82b6e34a6805ed08df70", "is_reserved": 0, "fusion_lon": 0.0, "lat": 38.86203116666667, "is_disabled": 0, "name": "30e390316d2f82b6e34a6805ed08df70", "fusion_lat": 0.0, "rental_uris": {"ios": "https://dc.lft.to/lastmile_qr_scan", "android": "https://dc.lft.to/lastmile_qr_scan"}, "lon": -76.994629, "type": "electric_scooter"}, {"bike_id": "1649c21cc56ba10c0c816e5312410bc1", "is_reserved": 0, "fusion_lon": 0.0, "lat": 38.894548666666665, "is_disabled": 0, "name": "1649c21cc56ba10c0c816e5312410bc1", "fusion_lat": 0.0, "rental_uris": {"ios": "https://dc.lft.to/lastmile_qr_scan", "android": "https://dc.lft.to/lastmile_qr_scan"}, "lon": -76.97036733333333, "type": "electric_bike"}, {"bike_id": "7e79fb3cacd3c824da432cd3844d5915", "is_reserved": 0, "fusion_lon": 0.0, "lat": 38.885986833333334, "is_disabled": 0, "name": "7e79fb3cacd3c824da432cd3844d5915", "fusion_lat": 0.0, "rental_uris": {"ios": "https://dc.lft.to/lastmile_qr_scan", "android": "https://dc.lft.to/lastmile_qr_scan"}, "lon": -77.01764733333333, "type": "electric_scooter"}, {"bike_id": "18b41d8f2e2edac4272a2fedec30f916", "is_reserved": 0, "fusion_lon": 0.0, "lat": 38.892167, "is_disabled": 0, "name": "18b41d8f2e2edac4272a2fedec30f916", "fusion_lat": 0.0, "rental_uris": {"ios": "https://dc.lft.to/lastmile_qr_scan", "android": "https://dc.lft.to/lastmile_qr_scan"}, "lon": -77.02648683333334, "type": "electric_scooter"}, {"bike_id": "322816a50cedd8312d82723e7fdee2a0", "is_reserved": 0, "fusion_lon": 0.0, "lat": 38.885118, "is_disabled": 0, "name": "322816a50cedd8312d82723e7fdee2a0", "fusion_lat": 0.0, "rental_uris": {"ios": "https://dc.lft.to/lastmile_qr_scan", "android": "https://dc.lft.to/lastmile_qr_scan"}, "lon": -77.00572133333333, "type": "electric_scooter"}, {"bike_id": "c57ce99281167a2d1895030490f449d3", "is_reserved": 0, "fusion_lon": 0.0, "lat": 38.896222, "is_disabled": 0, "name": "c57ce99281167a2d1895030490f449d3", "fusion_lat": 0.0, "rental_uris": {"ios": "https://dc.lft.to/lastmile_qr_scan", "android": "https://dc.lft.to/lastmile_qr_scan"}, "lon": -76.99850033333334, "type": "electric_scooter"}, {"bike_id": "bba794cd6e1913f106b480b3a5fb7c2c", "is_reserved": 0, "fusion_lon": 0.0, "lat": 38.91708583333333, "is_disabled": 0, "name": "bba794cd6e1913f106b480b3a5fb7c2c", "fusion_lat": 0.0, "rental_uris": {"ios": "https://dc.lft.to/lastmile_qr_scan", "android": "https://dc.lft.to/lastmile_qr_scan"}, "lon": -77.03224233333333, "type": "electric_scooter"}, {"bike_id": "402dc1237efbc3505c5832b19c04f142", "is_reserved": 0, "fusion_lon": 0.0, "lat": 38.883999, "is_disabled": 0, "name": "402dc1237efbc3505c5832b19c04f142", "fusion_lat": 0.0, "rental_uris": {"ios": "https://dc.lft.to/lastmile_qr_scan", "android": "https://dc.lft.to/lastmile_qr_scan"}, "lon": -77.02624166666666, "type": "electric_scooter"}, {"bike_id": "67eef43055851562dc4bcd520f0deae3", "is_reserved": 0, "fusion_lon": 0.0, "lat": 38.94537166666667, "is_disabled": 0, "name": "67eef43055851562dc4bcd520f0deae3", "fusion_lat": 0.0, "rental_uris": {"ios": "https://dc.lft.to/lastmile_qr_scan", "android": "https://dc.lft.to/lastmile_qr_scan"}, "lon": -77.02216883333334, "type": "electric_scooter"}, {"bike_id": "88b57a4f3733accebf41d08a74a0cc71", "is_reserved": 0, "fusion_lon": 0.0, "lat": 38.90637566666667, "is_disabled": 0, "name": "88b57a4f3733accebf41d08a74a0cc71", "fusion_lat": 0.0, "rental_uris": {"ios": "https://dc.lft.to/lastmile_qr_scan", "android": "https://dc.lft.to/lastmile_qr_scan"}, "lon": -77.011328, "type": "electric_scooter"}, {"bike_id": "504c1abb9a65e5ce10934e1df5217bbf", "is_reserved": 0, "fusion_lon": 0.0, "lat": 39.056369333333336, "is_disabled": 0, "name": "504c1abb9a65e5ce10934e1df5217bbf", "fusion_lat": 0.0, "rental_uris": {"ios": "https://dc.lft.to/lastmile_qr_scan", "android": "https://dc.lft.to/lastmile_qr_scan"}, "lon": -77.12527716666666, "type": "electric_bike"}, {"bike_id": "0622b61c4e84dee30b912aecce911011", "is_reserved": 0, "fusion_lon": 0.0, "lat": 38.906477833333334, "is_disabled": 0, "name": "0622b61c4e84dee30b912aecce911011", "fusion_lat": 0.0, "rental_uris": {"ios": "https://dc.lft.to/lastmile_qr_scan", "android": "https://dc.lft.to/lastmile_qr_scan"}, "lon": -77.04646683333333, "type": "electric_scooter"}, {"bike_id": "bdd2f825c4313fc33aec21ccbd48c89c", "is_reserved": 0, "fusion_lon": 0.0, "lat": 38.9237475, "is_disabled": 0, "name": "bdd2f825c4313fc33aec21ccbd48c89c", "fusion_lat": 0.0, "rental_uris": {"ios": "https://dc.lft.to/lastmile_qr_scan", "android": "https://dc.lft.to/lastmile_qr_scan"}, "lon": -77.0413665, "type": "electric_scooter"}, {"bike_id": "a24352d9dce08cd636486bd995609057", "is_reserved": 0, "fusion_lon": 0.0, "lat": 38.89531566666667, "is_disabled": 0, "name": "a24352d9dce08cd636486bd995609057", "fusion_lat": 0.0, "rental_uris": {"ios": "https://dc.lft.to/lastmile_qr_scan", "android": "https://dc.lft.to/lastmile_qr_scan"}, "lon": -77.03351166666667, "type": "electric_scooter"}, {"bike_id": "58a02a2343256e7538600cfff2279c87", "is_reserved": 0, "fusion_lon": 0.0, "lat": 38.892298, "is_disabled": 0, "name": "58a02a2343256e7538600cfff2279c87", "fusion_lat": 0.0, "rental_uris": {"ios": "https://dc.lft.to/lastmile_qr_scan", "android": "https://dc.lft.to/lastmile_qr_scan"}, "lon": -77.02178016666667, "type": "electric_scooter"}, {"bike_id": "e52ff88eb78258c001bb51ee58f53d4d", "is_reserved": 0, "fusion_lon": 0.0, "lat": 38.9176185, "is_disabled": 0, "name": "e52ff88eb78258c001bb51ee58f53d4d", "fusion_lat": 0.0, "rental_uris": {"ios": "https://dc.lft.to/lastmile_qr_scan", "android": "https://dc.lft.to/lastmile_qr_scan"}, "lon": -77.0220035, "type": "electric_scooter"}, {"bike_id": "2c214f97b5d95248d7a5897e3e726bb5", "is_reserved": 0, "fusion_lon": 0.0, "lat": 38.903268833333335, "is_disabled": 0, "name": "2c214f97b5d95248d7a5897e3e726bb5", "fusion_lat": 0.0, "rental_uris": {"ios": "https://dc.lft.to/lastmile_qr_scan", "android": "https://dc.lft.to/lastmile_qr_scan"}, "lon": -77.04364566666666, "type": "electric_scooter"}, {"bike_id": "b194357d5792982ee01d8b0deb7fadc8", "is_reserved": 0, "fusion_lon": 0.0, "lat": 38.918000166666666, "is_disabled": 0, "name": "b194357d5792982ee01d8b0deb7fadc8", "fusion_lat": 0.0, "rental_uris": {"ios": "https://dc.lft.to/lastmile_qr_scan", "android": "https://dc.lft.to/lastmile_qr_scan"}, "lon": -77.04159083333333, "type": "electric_scooter"}, {"bike_id": "ac77a836db68995b13f5ecb929e4edaf", "is_reserved": 0, "fusion_lon": 0.0, "lat": 38.905375166666666, "is_disabled": 0, "name": "ac77a836db68995b13f5ecb929e4edaf", "fusion_lat": 0.0, "rental_uris": {"ios": "https://dc.lft.to/lastmile_qr_scan", "android": "https://dc.lft.to/lastmile_qr_scan"}, "lon": -77.03991766666667, "type": "electric_scooter"}, {"bike_id": "5551e511dba41bae09dd663d15336c91", "is_reserved": 0, "fusion_lon": 0.0, "lat": 38.9008635, "is_disabled": 0, "name": "5551e511dba41bae09dd663d15336c91", "fusion_lat": 0.0, "rental_uris": {"ios": "https://dc.lft.to/lastmile_qr_scan", "android": "https://dc.lft.to/lastmile_qr_scan"}, "lon": -77.0486005, "type": "electric_scooter"}, {"bike_id": "2d38b67e8ac776552207960ec924bcfa", "is_reserved": 0, "fusion_lon": 0.0, "lat": 38.90735566666667, "is_disabled": 0, "name": "2d38b67e8ac776552207960ec924bcfa", "fusion_lat": 0.0, "rental_uris": {"ios": "https://dc.lft.to/lastmile_qr_scan", "android": "https://dc.lft.to/lastmile_qr_scan"}, "lon": -77.00370933333333, "type": "electric_scooter"}, {"bike_id": "d1f433c6a00ff9b8e0ea6bb5e91285e9", "is_reserved": 0, "fusion_lon": 0.0, "lat": 38.89211066666667, "is_disabled": 0, "name": "d1f433c6a00ff9b8e0ea6bb5e91285e9", "fusion_lat": 0.0, "rental_uris": {"ios": "https://dc.lft.to/lastmile_qr_scan", "android": "https://dc.lft.to/lastmile_qr_scan"}, "lon": -77.02629533333334, "type": "electric_scooter"}, {"bike_id": "d2bd9eb66820b40e08a517b5ccb7707b", "is_reserved": 0, "fusion_lon": 0.0, "lat": 38.90978633333334, "is_disabled": 0, "name": "d2bd9eb66820b40e08a517b5ccb7707b", "fusion_lat": 0.0, "rental_uris": {"ios": "https://dc.lft.to/lastmile_qr_scan", "android": "https://dc.lft.to/lastmile_qr_scan"}, "lon": -77.04058333333333, "type": "electric_scooter"}, {"bike_id": "e7e702d35a09a27770fc5a169f2f2b24", "is_reserved": 0, "fusion_lon": 0.0, "lat": 38.8840385, "is_disabled": 0, "name": "e7e702d35a09a27770fc5a169f2f2b24", "fusion_lat": 0.0, "rental_uris": {"ios": "https://dc.lft.to/lastmile_qr_scan", "android": "https://dc.lft.to/lastmile_qr_scan"}, "lon": -77.01541883333333, "type": "electric_scooter"}, {"bike_id": "76399066d3f8ef9ba3083a2cf9506d8d", "is_reserved": 0, "fusion_lon": 0.0, "lat": 38.828705, "is_disabled": 0, "name": "76399066d3f8ef9ba3083a2cf9506d8d", "fusion_lat": 0.0, "rental_uris": {"ios": "https://dc.lft.to/lastmile_qr_scan", "android": "https://dc.lft.to/lastmile_qr_scan"}, "lon": -77.112222, "type": "electric_bike"}, {"bike_id": "44d286401cdd40937348b90ac4860be7", "is_reserved": 0, "fusion_lon": 0.0, "lat": 38.93607883333333, "is_disabled": 0, "name": "44d286401cdd40937348b90ac4860be7", "fusion_lat": 0.0, "rental_uris": {"ios": "https://dc.lft.to/lastmile_qr_scan", "android": "https://dc.lft.to/lastmile_qr_scan"}, "lon": -77.05858766666667, "type": "electric_scooter"}, {"bike_id": "f1e4ef390328e358ee826eae1c6819ce", "is_reserved": 0, "fusion_lon": 0.0, "lat": 38.99072066666667, "is_disabled": 0, "name": "f1e4ef390328e358ee826eae1c6819ce", "fusion_lat": 0.0, "rental_uris": {"ios": "https://dc.lft.to/lastmile_qr_scan", "android": "https://dc.lft.to/lastmile_qr_scan"}, "lon": -76.87469133333333, "type": "electric_bike"}, {"bike_id": "395de11eddb7c6081f57e4f6722816c2", "is_reserved": 0, "fusion_lon": 0.0, "lat": 38.90265316666667, "is_disabled": 0, "name": "395de11eddb7c6081f57e4f6722816c2", "fusion_lat": 0.0, "rental_uris": {"ios": "https://dc.lft.to/lastmile_qr_scan", "android": "https://dc.lft.to/lastmile_qr_scan"}, "lon": -77.0264145, "type": "electric_scooter"}, {"bike_id": "9f122a96948e7d5609ac8df57a5393ff", "is_reserved": 0, "fusion_lon": 0.0, "lat": 38.903816166666665, "is_disabled": 0, "name": "9f122a96948e7d5609ac8df57a5393ff", "fusion_lat": 0.0, "rental_uris": {"ios": "https://dc.lft.to/lastmile_qr_scan", "android": "https://dc.lft.to/lastmile_qr_scan"}, "lon": -77.03023966666667, "type": "electric_scooter"}, {"bike_id": "5fc61cb17a95237b996910db561d942a", "is_reserved": 0, "fusion_lon": 0.0, "lat": 38.905784833333335, "is_disabled": 0, "name": "5fc61cb17a95237b996910db561d942a", "fusion_lat": 0.0, "rental_uris": {"ios": "https://dc.lft.to/lastmile_qr_scan", "android": "https://dc.lft.to/lastmile_qr_scan"}, "lon": -77.04356833333334, "type": "electric_scooter"}, {"bike_id": "bf10a7d6abe45c16e883cad84e67257e", "is_reserved": 0, "fusion_lon": 0.0, "lat": 38.84425383333333, "is_disabled": 0, "name": "bf10a7d6abe45c16e883cad84e67257e", "fusion_lat": 0.0, "rental_uris": {"ios": "https://dc.lft.to/lastmile_qr_scan", "android": "https://dc.lft.to/lastmile_qr_scan"}, "lon": -76.99778066666667, "type": "electric_scooter"}, {"bike_id": "0db1f9b7a1a479772e9b4c9a7352d4fd", "is_reserved": 0, "fusion_lon": 0.0, "lat": 38.90966, "is_disabled": 0, "name": "0db1f9b7a1a479772e9b4c9a7352d4fd", "fusion_lat": 0.0, "rental_uris": {"ios": "https://dc.lft.to/lastmile_qr_scan", "android": "https://dc.lft.to/lastmile_qr_scan"}, "lon": -77.03269516666667, "type": "electric_scooter"}, {"bike_id": "28c3dbf3290bc9c49d26dfeddef8f39c", "is_reserved": 0, "fusion_lon": 0.0, "lat": 38.872013833333334, "is_disabled": 0, "name": "28c3dbf3290bc9c49d26dfeddef8f39c", "fusion_lat": 0.0, "rental_uris": {"ios": "https://dc.lft.to/lastmile_qr_scan", "android": "https://dc.lft.to/lastmile_qr_scan"}, "lon": -77.00580916666667, "type": "electric_scooter"}, {"bike_id": "251c501137b787185d9dc090cf310b32", "is_reserved": 0, "fusion_lon": 0.0, "lat": 38.89482866666667, "is_disabled": 0, "name": "251c501137b787185d9dc090cf310b32", "fusion_lat": 0.0, "rental_uris": {"ios": "https://dc.lft.to/lastmile_qr_scan", "android": "https://dc.lft.to/lastmile_qr_scan"}, "lon": -77.00226683333334, "type": "electric_scooter"}, {"bike_id": "f333dd806d025c4c1a36eda5265c83a2", "is_reserved": 0, "fusion_lon": 0.0, "lat": 38.86657683333333, "is_disabled": 0, "name": "f333dd806d025c4c1a36eda5265c83a2", "fusion_lat": 0.0, "rental_uris": {"ios": "https://dc.lft.to/lastmile_qr_scan", "android": "https://dc.lft.to/lastmile_qr_scan"}, "lon": -76.98881583333333, "type": "electric_scooter"}, {"bike_id": "5f3c634a67526eea27ade65ff4fc3335", "is_reserved": 0, "fusion_lon": 0.0, "lat": 38.88504416666667, "is_disabled": 0, "name": "5f3c634a67526eea27ade65ff4fc3335", "fusion_lat": 0.0, "rental_uris": {"ios": "https://dc.lft.to/lastmile_qr_scan", "android": "https://dc.lft.to/lastmile_qr_scan"}, "lon": -77.005633, "type": "electric_scooter"}, {"bike_id": "f5ba7ad785bf55de11cecf47633eb1d3", "is_reserved": 0, "fusion_lon": 0.0, "lat": 38.903522833333334, "is_disabled": 0, "name": "f5ba7ad785bf55de11cecf47633eb1d3", "fusion_lat": 0.0, "rental_uris": {"ios": "https://dc.lft.to/lastmile_qr_scan", "android": "https://dc.lft.to/lastmile_qr_scan"}, "lon": -77.04340433333333, "type": "electric_scooter"}, {"bike_id": "69acab74216e9435b6d3158e7de97ab2", "is_reserved": 0, "fusion_lon": 0.0, "lat": 38.8691925, "is_disabled": 0, "name": "69acab74216e9435b6d3158e7de97ab2", "fusion_lat": 0.0, "rental_uris": {"ios": "https://dc.lft.to/lastmile_qr_scan", "android": "https://dc.lft.to/lastmile_qr_scan"}, "lon": -76.98301716666667, "type": "electric_scooter"}, {"bike_id": "94bdb248dbdae7faef550d01029b98d5", "is_reserved": 0, "fusion_lon": 0.0, "lat": 38.920429, "is_disabled": 0, "name": "94bdb248dbdae7faef550d01029b98d5", "fusion_lat": 0.0, "rental_uris": {"ios": "https://dc.lft.to/lastmile_qr_scan", "android": "https://dc.lft.to/lastmile_qr_scan"}, "lon": -77.03711283333334, "type": "electric_bike"}, {"bike_id": "30baafd62779bea275dd1d082a3ff74a", "is_reserved": 0, "fusion_lon": 0.0, "lat": 38.9238625, "is_disabled": 0, "name": "30baafd62779bea275dd1d082a3ff74a", "fusion_lat": 0.0, "rental_uris": {"ios": "https://dc.lft.to/lastmile_qr_scan", "android": "https://dc.lft.to/lastmile_qr_scan"}, "lon": -77.03544466666666, "type": "electric_scooter"}, {"bike_id": "7eac06e602908004dd8eabe37d2c9ec4", "is_reserved": 0, "fusion_lon": 0.0, "lat": 38.9212055, "is_disabled": 0, "name": "7eac06e602908004dd8eabe37d2c9ec4", "fusion_lat": 0.0, "rental_uris": {"ios": "https://dc.lft.to/lastmile_qr_scan", "android": "https://dc.lft.to/lastmile_qr_scan"}, "lon": -77.04584916666667, "type": "electric_scooter"}, {"bike_id": "67e74aa18bee862e82430570899ce9e7", "is_reserved": 0, "fusion_lon": 0.0, "lat": 38.901132, "is_disabled": 0, "name": "67e74aa18bee862e82430570899ce9e7", "fusion_lat": 0.0, "rental_uris": {"ios": "https://dc.lft.to/lastmile_qr_scan", "android": "https://dc.lft.to/lastmile_qr_scan"}, "lon": -77.0316765, "type": "electric_scooter"}, {"bike_id": "6c37ac3dd6b371ac6e2fe023dca8c212", "is_reserved": 0, "fusion_lon": 0.0, "lat": 38.902025333333334, "is_disabled": 0, "name": "6c37ac3dd6b371ac6e2fe023dca8c212", "fusion_lat": 0.0, "rental_uris": {"ios": "https://dc.lft.to/lastmile_qr_scan", "android": "https://dc.lft.to/lastmile_qr_scan"}, "lon": -77.00555966666667, "type": "electric_scooter"}, {"bike_id": "cf36188cddcb0c21f463a1caf73f52b9", "is_reserved": 0, "fusion_lon": 0.0, "lat": 38.9508595, "is_disabled": 0, "name": "cf36188cddcb0c21f463a1caf73f52b9", "fusion_lat": 0.0, "rental_uris": {"ios": "https://dc.lft.to/lastmile_qr_scan", "android": "https://dc.lft.to/lastmile_qr_scan"}, "lon": -77.02830266666666, "type": "electric_scooter"}, {"bike_id": "9c5b702171bda700b11c27e8c0aff7a8", "is_reserved": 0, "fusion_lon": 0.0, "lat": 38.91828666666667, "is_disabled": 0, "name": "9c5b702171bda700b11c27e8c0aff7a8", "fusion_lat": 0.0, "rental_uris": {"ios": "https://dc.lft.to/lastmile_qr_scan", "android": "https://dc.lft.to/lastmile_qr_scan"}, "lon": -77.03525166666667, "type": "electric_scooter"}, {"bike_id": "df5e035dd29bdf67f0c9236a1788aea0", "is_reserved": 0, "fusion_lon": 0.0, "lat": 38.898423666666666, "is_disabled": 0, "name": "df5e035dd29bdf67f0c9236a1788aea0", "fusion_lat": 0.0, "rental_uris": {"ios": "https://dc.lft.to/lastmile_qr_scan", "android": "https://dc.lft.to/lastmile_qr_scan"}, "lon": -77.03348233333334, "type": "electric_scooter"}, {"bike_id": "6c2211a13ce91c3c3c7d74037c82b651", "is_reserved": 0, "fusion_lon": 0.0, "lat": 38.9219535, "is_disabled": 0, "name": "6c2211a13ce91c3c3c7d74037c82b651", "fusion_lat": 0.0, "rental_uris": {"ios": "https://dc.lft.to/lastmile_qr_scan", "android": "https://dc.lft.to/lastmile_qr_scan"}, "lon": -77.0425845, "type": "electric_scooter"}, {"bike_id": "1630dfb36c4620be993a5f9cf995ee99", "is_reserved": 0, "fusion_lon": 0.0, "lat": 38.82095616666667, "is_disabled": 0, "name": "1630dfb36c4620be993a5f9cf995ee99", "fusion_lat": 0.0, "rental_uris": {"ios": "https://dc.lft.to/lastmile_qr_scan", "android": "https://dc.lft.to/lastmile_qr_scan"}, "lon": -77.0536555, "type": "electric_bike"}, {"bike_id": "42197550cf588d3c5e08a56c195533aa", "is_reserved": 0, "fusion_lon": 0.0, "lat": 38.90242, "is_disabled": 0, "name": "42197550cf588d3c5e08a56c195533aa", "fusion_lat": 0.0, "rental_uris": {"ios": "https://dc.lft.to/lastmile_qr_scan", "android": "https://dc.lft.to/lastmile_qr_scan"}, "lon": -77.02692933333333, "type": "electric_scooter"}, {"bike_id": "3c4a845f2c9203286ec373a0af6b5af0", "is_reserved": 0, "fusion_lon": 0.0, "lat": 38.935352333333334, "is_disabled": 0, "name": "3c4a845f2c9203286ec373a0af6b5af0", "fusion_lat": 0.0, "rental_uris": {"ios": "https://dc.lft.to/lastmile_qr_scan", "android": "https://dc.lft.to/lastmile_qr_scan"}, "lon": -77.02355783333333, "type": "electric_scooter"}, {"bike_id": "4e49579937e37831ee445c714f8736b8", "is_reserved": 0, "fusion_lon": 0.0, "lat": 38.909099166666664, "is_disabled": 0, "name": "4e49579937e37831ee445c714f8736b8", "fusion_lat": 0.0, "rental_uris": {"ios": "https://dc.lft.to/lastmile_qr_scan", "android": "https://dc.lft.to/lastmile_qr_scan"}, "lon": -77.03136866666667, "type": "electric_scooter"}, {"bike_id": "8ff333d0d450b9fafb3fd851c879573f", "is_reserved": 0, "fusion_lon": 0.0, "lat": 38.89636566666667, "is_disabled": 0, "name": "8ff333d0d450b9fafb3fd851c879573f", "fusion_lat": 0.0, "rental_uris": {"ios": "https://dc.lft.to/lastmile_qr_scan", "android": "https://dc.lft.to/lastmile_qr_scan"}, "lon": -77.04317833333333, "type": "electric_scooter"}, {"bike_id": "ea3095a98822c9ca6cc21df9d606336f", "is_reserved": 0, "fusion_lon": 0.0, "lat": 38.921845166666664, "is_disabled": 0, "name": "ea3095a98822c9ca6cc21df9d606336f", "fusion_lat": 0.0, "rental_uris": {"ios": "https://dc.lft.to/lastmile_qr_scan", "android": "https://dc.lft.to/lastmile_qr_scan"}, "lon": -77.04285083333333, "type": "electric_scooter"}, {"bike_id": "014dbaf2966e92ab3e0ade7ef70a2e18", "is_reserved": 0, "fusion_lon": 0.0, "lat": 38.9013375, "is_disabled": 0, "name": "014dbaf2966e92ab3e0ade7ef70a2e18", "fusion_lat": 0.0, "rental_uris": {"ios": "https://dc.lft.to/lastmile_qr_scan", "android": "https://dc.lft.to/lastmile_qr_scan"}, "lon": -77.04335833333333, "type": "electric_scooter"}, {"bike_id": "bb25821dfd40c9e6d148c72125673e4e", "is_reserved": 0, "fusion_lon": 0.0, "lat": 38.9037865, "is_disabled": 0, "name": "bb25821dfd40c9e6d148c72125673e4e", "fusion_lat": 0.0, "rental_uris": {"ios": "https://dc.lft.to/lastmile_qr_scan", "android": "https://dc.lft.to/lastmile_qr_scan"}, "lon": -77.02015166666666, "type": "electric_scooter"}, {"bike_id": "c7f3b76884a6996e3da249c39c438d69", "is_reserved": 0, "fusion_lon": 0.0, "lat": 38.94088833333333, "is_disabled": 0, "name": "c7f3b76884a6996e3da249c39c438d69", "fusion_lat": 0.0, "rental_uris": {"ios": "https://dc.lft.to/lastmile_qr_scan", "android": "https://dc.lft.to/lastmile_qr_scan"}, "lon": -77.02723016666667, "type": "electric_scooter"}, {"bike_id": "7b3898ad15f8e2349d436a68d9ad6c44", "is_reserved": 0, "fusion_lon": 0.0, "lat": 38.9682395, "is_disabled": 0, "name": "7b3898ad15f8e2349d436a68d9ad6c44", "fusion_lat": 0.0, "rental_uris": {"ios": "https://dc.lft.to/lastmile_qr_scan", "android": "https://dc.lft.to/lastmile_qr_scan"}, "lon": -77.017872, "type": "electric_scooter"}, {"bike_id": "8fffa4b7d29052e3dd544af87f5d9605", "is_reserved": 0, "fusion_lon": 0.0, "lat": 38.8696115, "is_disabled": 0, "name": "8fffa4b7d29052e3dd544af87f5d9605", "fusion_lat": 0.0, "rental_uris": {"ios": "https://dc.lft.to/lastmile_qr_scan", "android": "https://dc.lft.to/lastmile_qr_scan"}, "lon": -77.01376316666666, "type": "electric_scooter"}, {"bike_id": "878afd2ad0906fa9f0c284d6bdd3dfb5", "is_reserved": 0, "fusion_lon": 0.0, "lat": 38.926113666666666, "is_disabled": 0, "name": "878afd2ad0906fa9f0c284d6bdd3dfb5", "fusion_lat": 0.0, "rental_uris": {"ios": "https://dc.lft.to/lastmile_qr_scan", "android": "https://dc.lft.to/lastmile_qr_scan"}, "lon": -77.03960366666666, "type": "electric_scooter"}, {"bike_id": "2b845be2b253e365a4a1388c9b0646a5", "is_reserved": 0, "fusion_lon": 0.0, "lat": 38.925310833333334, "is_disabled": 0, "name": "2b845be2b253e365a4a1388c9b0646a5", "fusion_lat": 0.0, "rental_uris": {"ios": "https://dc.lft.to/lastmile_qr_scan", "android": "https://dc.lft.to/lastmile_qr_scan"}, "lon": -77.00287883333333, "type": "electric_scooter"}, {"bike_id": "d1ae2e6f21dd7cb9d3fd4f34c36a5495", "is_reserved": 0, "fusion_lon": 0.0, "lat": 38.904628, "is_disabled": 0, "name": "d1ae2e6f21dd7cb9d3fd4f34c36a5495", "fusion_lat": 0.0, "rental_uris": {"ios": "https://dc.lft.to/lastmile_qr_scan", "android": "https://dc.lft.to/lastmile_qr_scan"}, "lon": -76.995074, "type": "electric_scooter"}, {"bike_id": "660ead2633a60c3ac706d3e979f10adb", "is_reserved": 0, "fusion_lon": 0.0, "lat": 38.90497216666667, "is_disabled": 0, "name": "660ead2633a60c3ac706d3e979f10adb", "fusion_lat": 0.0, "rental_uris": {"ios": "https://dc.lft.to/lastmile_qr_scan", "android": "https://dc.lft.to/lastmile_qr_scan"}, "lon": -77.06010783333333, "type": "electric_bike"}, {"bike_id": "db4e800af6d2802f84286c6b178edf29", "is_reserved": 0, "fusion_lon": 0.0, "lat": 38.8745515, "is_disabled": 0, "name": "db4e800af6d2802f84286c6b178edf29", "fusion_lat": 0.0, "rental_uris": {"ios": "https://dc.lft.to/lastmile_qr_scan", "android": "https://dc.lft.to/lastmile_qr_scan"}, "lon": -77.00309633333333, "type": "electric_scooter"}, {"bike_id": "e91ae06dcf05c6668236ac7daeb9fc27", "is_reserved": 0, "fusion_lon": 0.0, "lat": 38.905348000000004, "is_disabled": 0, "name": "e91ae06dcf05c6668236ac7daeb9fc27", "fusion_lat": 0.0, "rental_uris": {"ios": "https://dc.lft.to/lastmile_qr_scan", "android": "https://dc.lft.to/lastmile_qr_scan"}, "lon": -77.050444, "type": "electric_scooter"}, {"bike_id": "4d042254bc50f6d3d7606adc440f4050", "is_reserved": 0, "fusion_lon": 0.0, "lat": 38.92799133333333, "is_disabled": 0, "name": "4d042254bc50f6d3d7606adc440f4050", "fusion_lat": 0.0, "rental_uris": {"ios": "https://dc.lft.to/lastmile_qr_scan", "android": "https://dc.lft.to/lastmile_qr_scan"}, "lon": -77.043604, "type": "electric_scooter"}, {"bike_id": "03a67d0aea6d6749f4cbc5e030ef2b72", "is_reserved": 0, "fusion_lon": 0.0, "lat": 38.89793783333333, "is_disabled": 0, "name": "03a67d0aea6d6749f4cbc5e030ef2b72", "fusion_lat": 0.0, "rental_uris": {"ios": "https://dc.lft.to/lastmile_qr_scan", "android": "https://dc.lft.to/lastmile_qr_scan"}, "lon": -76.94691283333333, "type": "electric_scooter"}, {"bike_id": "f9ffebb1af28dc176850a1d15c80ff18", "is_reserved": 0, "fusion_lon": 0.0, "lat": 38.896282666666664, "is_disabled": 0, "name": "f9ffebb1af28dc176850a1d15c80ff18", "fusion_lat": 0.0, "rental_uris": {"ios": "https://dc.lft.to/lastmile_qr_scan", "android": "https://dc.lft.to/lastmile_qr_scan"}, "lon": -76.95649733333333, "type": "electric_scooter"}, {"bike_id": "326889e9ec611239025986b76fc0a428", "is_reserved": 0, "fusion_lon": 0.0, "lat": 38.900281666666665, "is_disabled": 0, "name": "326889e9ec611239025986b76fc0a428", "fusion_lat": 0.0, "rental_uris": {"ios": "https://dc.lft.to/lastmile_qr_scan", "android": "https://dc.lft.to/lastmile_qr_scan"}, "lon": -77.04673533333333, "type": "electric_scooter"}, {"bike_id": "71f1b2c661736a5f76a18fcf149d5bfa", "is_reserved": 0, "fusion_lon": 0.0, "lat": 38.9315815, "is_disabled": 0, "name": "71f1b2c661736a5f76a18fcf149d5bfa", "fusion_lat": 0.0, "rental_uris": {"ios": "https://dc.lft.to/lastmile_qr_scan", "android": "https://dc.lft.to/lastmile_qr_scan"}, "lon": -77.05635083333334, "type": "electric_scooter"}, {"bike_id": "c92dec25bbbca9cd3670c50bcbf2aa70", "is_reserved": 0, "fusion_lon": 0.0, "lat": 38.921000666666664, "is_disabled": 0, "name": "c92dec25bbbca9cd3670c50bcbf2aa70", "fusion_lat": 0.0, "rental_uris": {"ios": "https://dc.lft.to/lastmile_qr_scan", "android": "https://dc.lft.to/lastmile_qr_scan"}, "lon": -77.04392983333334, "type": "electric_scooter"}, {"bike_id": "8e2362bb0d8fe61190defb812d13ff62", "is_reserved": 0, "fusion_lon": 0.0, "lat": 38.879124833333336, "is_disabled": 0, "name": "8e2362bb0d8fe61190defb812d13ff62", "fusion_lat": 0.0, "rental_uris": {"ios": "https://dc.lft.to/lastmile_qr_scan", "android": "https://dc.lft.to/lastmile_qr_scan"}, "lon": -77.00579383333333, "type": "electric_scooter"}, {"bike_id": "cf1d974f6cf9317f81c4a65874cf84ed", "is_reserved": 0, "fusion_lon": 0.0, "lat": 38.890989166666664, "is_disabled": 0, "name": "cf1d974f6cf9317f81c4a65874cf84ed", "fusion_lat": 0.0, "rental_uris": {"ios": "https://dc.lft.to/lastmile_qr_scan", "android": "https://dc.lft.to/lastmile_qr_scan"}, "lon": -76.94394566666666, "type": "electric_scooter"}, {"bike_id": "20e7198ab46a14233329c08d49003f0c", "is_reserved": 0, "fusion_lon": 0.0, "lat": 38.901653333333336, "is_disabled": 0, "name": "20e7198ab46a14233329c08d49003f0c", "fusion_lat": 0.0, "rental_uris": {"ios": "https://dc.lft.to/lastmile_qr_scan", "android": "https://dc.lft.to/lastmile_qr_scan"}, "lon": -77.05086616666667, "type": "electric_scooter"}, {"bike_id": "a4aba1559d722906f97b491cf162ac4c", "is_reserved": 0, "fusion_lon": 0.0, "lat": 38.900261, "is_disabled": 0, "name": "a4aba1559d722906f97b491cf162ac4c", "fusion_lat": 0.0, "rental_uris": {"ios": "https://dc.lft.to/lastmile_qr_scan", "android": "https://dc.lft.to/lastmile_qr_scan"}, "lon": -77.01183216666666, "type": "electric_bike"}, {"bike_id": "061d060ea9b49228c20f5b60524cf5dd", "is_reserved": 0, "fusion_lon": 0.0, "lat": 38.898995, "is_disabled": 0, "name": "061d060ea9b49228c20f5b60524cf5dd", "fusion_lat": 0.0, "rental_uris": {"ios": "https://dc.lft.to/lastmile_qr_scan", "android": "https://dc.lft.to/lastmile_qr_scan"}, "lon": -77.0298315, "type": "electric_scooter"}, {"bike_id": "a5f72c08870f531912c07937cb1af142", "is_reserved": 0, "fusion_lon": 0.0, "lat": 38.89843333333334, "is_disabled": 0, "name": "a5f72c08870f531912c07937cb1af142", "fusion_lat": 0.0, "rental_uris": {"ios": "https://dc.lft.to/lastmile_qr_scan", "android": "https://dc.lft.to/lastmile_qr_scan"}, "lon": -76.99503, "type": "electric_scooter"}, {"bike_id": "c0684651659876685509898eb949f515", "is_reserved": 0, "fusion_lon": 0.0, "lat": 38.898975666666665, "is_disabled": 0, "name": "c0684651659876685509898eb949f515", "fusion_lat": 0.0, "rental_uris": {"ios": "https://dc.lft.to/lastmile_qr_scan", "android": "https://dc.lft.to/lastmile_qr_scan"}, "lon": -77.03967383333334, "type": "electric_scooter"}, {"bike_id": "d32ed9bee8974fa6737334ec92e2f743", "is_reserved": 0, "fusion_lon": 0.0, "lat": 38.90260383333333, "is_disabled": 0, "name": "d32ed9bee8974fa6737334ec92e2f743", "fusion_lat": 0.0, "rental_uris": {"ios": "https://dc.lft.to/lastmile_qr_scan", "android": "https://dc.lft.to/lastmile_qr_scan"}, "lon": -77.0382655, "type": "electric_scooter"}, {"bike_id": "77172c03efa137bc79021e131d1de5bd", "is_reserved": 0, "fusion_lon": 0.0, "lat": 38.895576166666665, "is_disabled": 0, "name": "77172c03efa137bc79021e131d1de5bd", "fusion_lat": 0.0, "rental_uris": {"ios": "https://dc.lft.to/lastmile_qr_scan", "android": "https://dc.lft.to/lastmile_qr_scan"}, "lon": -77.021767, "type": "electric_scooter"}, {"bike_id": "dc5ea94c217033fe64830f6b76c55aaf", "is_reserved": 0, "fusion_lon": 0.0, "lat": 38.92369866666667, "is_disabled": 0, "name": "dc5ea94c217033fe64830f6b76c55aaf", "fusion_lat": 0.0, "rental_uris": {"ios": "https://dc.lft.to/lastmile_qr_scan", "android": "https://dc.lft.to/lastmile_qr_scan"}, "lon": -77.0192, "type": "electric_scooter"}, {"bike_id": "eb6501d9b1b70b04d2bcd049e0601426", "is_reserved": 0, "fusion_lon": 0.0, "lat": 38.9247075, "is_disabled": 0, "name": "eb6501d9b1b70b04d2bcd049e0601426", "fusion_lat": 0.0, "rental_uris": {"ios": "https://dc.lft.to/lastmile_qr_scan", "android": "https://dc.lft.to/lastmile_qr_scan"}, "lon": -77.0521575, "type": "electric_scooter"}, {"bike_id": "182bade1c19bca9f88dc81ebdc4b44bb", "is_reserved": 0, "fusion_lon": 0.0, "lat": 38.88772633333333, "is_disabled": 0, "name": "182bade1c19bca9f88dc81ebdc4b44bb", "fusion_lat": 0.0, "rental_uris": {"ios": "https://dc.lft.to/lastmile_qr_scan", "android": "https://dc.lft.to/lastmile_qr_scan"}, "lon": -76.93261616666666, "type": "electric_scooter"}, {"bike_id": "c32ca5463e5727141557bf001fdabd3e", "is_reserved": 0, "fusion_lon": 0.0, "lat": 38.89242266666667, "is_disabled": 0, "name": "c32ca5463e5727141557bf001fdabd3e", "fusion_lat": 0.0, "rental_uris": {"ios": "https://dc.lft.to/lastmile_qr_scan", "android": "https://dc.lft.to/lastmile_qr_scan"}, "lon": -77.028039, "type": "electric_scooter"}, {"bike_id": "fee7ccc1c93a68f4e96a723ca089b2f3", "is_reserved": 0, "fusion_lon": 0.0, "lat": 38.91790266666667, "is_disabled": 0, "name": "fee7ccc1c93a68f4e96a723ca089b2f3", "fusion_lat": 0.0, "rental_uris": {"ios": "https://dc.lft.to/lastmile_qr_scan", "android": "https://dc.lft.to/lastmile_qr_scan"}, "lon": -77.023139, "type": "electric_scooter"}, {"bike_id": "7fcc8f8c218a53317b0cd34be21e5cff", "is_reserved": 0, "fusion_lon": 0.0, "lat": 38.92750483333333, "is_disabled": 0, "name": "7fcc8f8c218a53317b0cd34be21e5cff", "fusion_lat": 0.0, "rental_uris": {"ios": "https://dc.lft.to/lastmile_qr_scan", "android": "https://dc.lft.to/lastmile_qr_scan"}, "lon": -77.0253565, "type": "electric_scooter"}, {"bike_id": "720fa612da5e09dc92395220d807cc3b", "is_reserved": 0, "fusion_lon": 0.0, "lat": 38.88935633333333, "is_disabled": 0, "name": "720fa612da5e09dc92395220d807cc3b", "fusion_lat": 0.0, "rental_uris": {"ios": "https://dc.lft.to/lastmile_qr_scan", "android": "https://dc.lft.to/lastmile_qr_scan"}, "lon": -76.93621466666667, "type": "electric_scooter"}, {"bike_id": "edf7b1fa3f2251461a3658f604bd788f", "is_reserved": 0, "fusion_lon": 0.0, "lat": 38.91718316666667, "is_disabled": 0, "name": "edf7b1fa3f2251461a3658f604bd788f", "fusion_lat": 0.0, "rental_uris": {"ios": "https://dc.lft.to/lastmile_qr_scan", "android": "https://dc.lft.to/lastmile_qr_scan"}, "lon": -77.034619, "type": "electric_scooter"}, {"bike_id": "c9f0b8d560d6ef1ebb4ec65d1af7b1ec", "is_reserved": 0, "fusion_lon": 0.0, "lat": 38.898782833333335, "is_disabled": 0, "name": "c9f0b8d560d6ef1ebb4ec65d1af7b1ec", "fusion_lat": 0.0, "rental_uris": {"ios": "https://dc.lft.to/lastmile_qr_scan", "android": "https://dc.lft.to/lastmile_qr_scan"}, "lon": -76.93186333333334, "type": "electric_scooter"}, {"bike_id": "f55db9fd7e819682fbc1b7aeaa3b72cf", "is_reserved": 0, "fusion_lon": 0.0, "lat": 38.92065433333333, "is_disabled": 0, "name": "f55db9fd7e819682fbc1b7aeaa3b72cf", "fusion_lat": 0.0, "rental_uris": {"ios": "https://dc.lft.to/lastmile_qr_scan", "android": "https://dc.lft.to/lastmile_qr_scan"}, "lon": -77.0419165, "type": "electric_scooter"}, {"bike_id": "bcaf3dc894471271b469ac50f203e7b1", "is_reserved": 0, "fusion_lon": 0.0, "lat": 38.93385, "is_disabled": 0, "name": "bcaf3dc894471271b469ac50f203e7b1", "fusion_lat": 0.0, "rental_uris": {"ios": "https://dc.lft.to/lastmile_qr_scan", "android": "https://dc.lft.to/lastmile_qr_scan"}, "lon": -77.02902216666666, "type": "electric_scooter"}, {"bike_id": "666126a1b98db052fc72fdd8a39ccc75", "is_reserved": 0, "fusion_lon": 0.0, "lat": 38.90848966666667, "is_disabled": 0, "name": "666126a1b98db052fc72fdd8a39ccc75", "fusion_lat": 0.0, "rental_uris": {"ios": "https://dc.lft.to/lastmile_qr_scan", "android": "https://dc.lft.to/lastmile_qr_scan"}, "lon": -77.08529316666667, "type": "electric_scooter"}, {"bike_id": "c72e7c0406ad2f2c40b3d34e34ddd7e4", "is_reserved": 0, "fusion_lon": 0.0, "lat": 38.87073016666667, "is_disabled": 0, "name": "c72e7c0406ad2f2c40b3d34e34ddd7e4", "fusion_lat": 0.0, "rental_uris": {"ios": "https://dc.lft.to/lastmile_qr_scan", "android": "https://dc.lft.to/lastmile_qr_scan"}, "lon": -76.98237333333333, "type": "electric_scooter"}, {"bike_id": "485b174ddbcd343b62f70d6959d5d4d5", "is_reserved": 0, "fusion_lon": 0.0, "lat": 38.892337833333336, "is_disabled": 0, "name": "485b174ddbcd343b62f70d6959d5d4d5", "fusion_lat": 0.0, "rental_uris": {"ios": "https://dc.lft.to/lastmile_qr_scan", "android": "https://dc.lft.to/lastmile_qr_scan"}, "lon": -77.05001883333334, "type": "electric_scooter"}, {"bike_id": "654ff68fcab39fc0ff147eb8f138cf97", "is_reserved": 0, "fusion_lon": 0.0, "lat": 38.924709166666666, "is_disabled": 0, "name": "654ff68fcab39fc0ff147eb8f138cf97", "fusion_lat": 0.0, "rental_uris": {"ios": "https://dc.lft.to/lastmile_qr_scan", "android": "https://dc.lft.to/lastmile_qr_scan"}, "lon": -77.02266466666667, "type": "electric_scooter"}, {"bike_id": "842e76f33541db8829482c4a46f37fc2", "is_reserved": 0, "fusion_lon": 0.0, "lat": 38.88362516666667, "is_disabled": 0, "name": "842e76f33541db8829482c4a46f37fc2", "fusion_lat": 0.0, "rental_uris": {"ios": "https://dc.lft.to/lastmile_qr_scan", "android": "https://dc.lft.to/lastmile_qr_scan"}, "lon": -77.03174633333333, "type": "electric_scooter"}, {"bike_id": "76c0d28f9cad6456e324e033c7dde2bc", "is_reserved": 0, "fusion_lon": 0.0, "lat": 38.90048066666667, "is_disabled": 0, "name": "76c0d28f9cad6456e324e033c7dde2bc", "fusion_lat": 0.0, "rental_uris": {"ios": "https://dc.lft.to/lastmile_qr_scan", "android": "https://dc.lft.to/lastmile_qr_scan"}, "lon": -76.9247695, "type": "electric_scooter"}, {"bike_id": "8e44cb8d9da7cdba034a3ca04a86dbaf", "is_reserved": 0, "fusion_lon": 0.0, "lat": 38.92067383333333, "is_disabled": 0, "name": "8e44cb8d9da7cdba034a3ca04a86dbaf", "fusion_lat": 0.0, "rental_uris": {"ios": "https://dc.lft.to/lastmile_qr_scan", "android": "https://dc.lft.to/lastmile_qr_scan"}, "lon": -77.0425295, "type": "electric_scooter"}, {"bike_id": "a437af3f441d2d26ec43bf78ff8fba2c", "is_reserved": 0, "fusion_lon": 0.0, "lat": 38.90018966666667, "is_disabled": 0, "name": "a437af3f441d2d26ec43bf78ff8fba2c", "fusion_lat": 0.0, "rental_uris": {"ios": "https://dc.lft.to/lastmile_qr_scan", "android": "https://dc.lft.to/lastmile_qr_scan"}, "lon": -77.0405635, "type": "electric_scooter"}, {"bike_id": "9ef0773fa7b3671a945bd566b7b54a09", "is_reserved": 0, "fusion_lon": 0.0, "lat": 38.91677, "is_disabled": 0, "name": "9ef0773fa7b3671a945bd566b7b54a09", "fusion_lat": 0.0, "rental_uris": {"ios": "https://dc.lft.to/lastmile_qr_scan", "android": "https://dc.lft.to/lastmile_qr_scan"}, "lon": -77.03207733333333, "type": "electric_scooter"}, {"bike_id": "c223fa0d08badeec7d7352f7e6309d71", "is_reserved": 0, "fusion_lon": 0.0, "lat": 38.90351583333333, "is_disabled": 0, "name": "c223fa0d08badeec7d7352f7e6309d71", "fusion_lat": 0.0, "rental_uris": {"ios": "https://dc.lft.to/lastmile_qr_scan", "android": "https://dc.lft.to/lastmile_qr_scan"}, "lon": -77.0398795, "type": "electric_scooter"}, {"bike_id": "bf1ad4f0d27eb0a7df8b74a3f8b7a29b", "is_reserved": 0, "fusion_lon": 0.0, "lat": 38.954805, "is_disabled": 0, "name": "bf1ad4f0d27eb0a7df8b74a3f8b7a29b", "fusion_lat": 0.0, "rental_uris": {"ios": "https://dc.lft.to/lastmile_qr_scan", "android": "https://dc.lft.to/lastmile_qr_scan"}, "lon": -77.08243316666666, "type": "electric_bike"}, {"bike_id": "4cc61b884ab679bf5c45987493694dd2", "is_reserved": 0, "fusion_lon": 0.0, "lat": 38.8873915, "is_disabled": 0, "name": "4cc61b884ab679bf5c45987493694dd2", "fusion_lat": 0.0, "rental_uris": {"ios": "https://dc.lft.to/lastmile_qr_scan", "android": "https://dc.lft.to/lastmile_qr_scan"}, "lon": -77.02579666666666, "type": "electric_scooter"}, {"bike_id": "be6a7a9897855d52d85d48f2513398f7", "is_reserved": 0, "fusion_lon": 0.0, "lat": 38.90455266666667, "is_disabled": 0, "name": "be6a7a9897855d52d85d48f2513398f7", "fusion_lat": 0.0, "rental_uris": {"ios": "https://dc.lft.to/lastmile_qr_scan", "android": "https://dc.lft.to/lastmile_qr_scan"}, "lon": -77.04890733333333, "type": "electric_scooter"}, {"bike_id": "b893ea59894047b9c5657efdfbbe3120", "is_reserved": 0, "fusion_lon": 0.0, "lat": 38.884278, "is_disabled": 0, "name": "b893ea59894047b9c5657efdfbbe3120", "fusion_lat": 0.0, "rental_uris": {"ios": "https://dc.lft.to/lastmile_qr_scan", "android": "https://dc.lft.to/lastmile_qr_scan"}, "lon": -76.95758916666666, "type": "electric_scooter"}, {"bike_id": "e213d0664abbf6db46c09ecd4b142421", "is_reserved": 0, "fusion_lon": 0.0, "lat": 38.897588, "is_disabled": 0, "name": "e213d0664abbf6db46c09ecd4b142421", "fusion_lat": 0.0, "rental_uris": {"ios": "https://dc.lft.to/lastmile_qr_scan", "android": "https://dc.lft.to/lastmile_qr_scan"}, "lon": -76.94185116666667, "type": "electric_scooter"}, {"bike_id": "63bf53a3efd81b34438545da8002f016", "is_reserved": 0, "fusion_lon": 0.0, "lat": 38.910460666666665, "is_disabled": 0, "name": "63bf53a3efd81b34438545da8002f016", "fusion_lat": 0.0, "rental_uris": {"ios": "https://dc.lft.to/lastmile_qr_scan", "android": "https://dc.lft.to/lastmile_qr_scan"}, "lon": -77.04835733333333, "type": "electric_scooter"}, {"bike_id": "ac2d5ec32695f392ec6d32c3655902fc", "is_reserved": 0, "fusion_lon": 0.0, "lat": 38.903748666666665, "is_disabled": 0, "name": "ac2d5ec32695f392ec6d32c3655902fc", "fusion_lat": 0.0, "rental_uris": {"ios": "https://dc.lft.to/lastmile_qr_scan", "android": "https://dc.lft.to/lastmile_qr_scan"}, "lon": -77.04494433333333, "type": "electric_scooter"}, {"bike_id": "8f866c4d37a5855156eaab0618b150ed", "is_reserved": 0, "fusion_lon": 0.0, "lat": 38.9168295, "is_disabled": 0, "name": "8f866c4d37a5855156eaab0618b150ed", "fusion_lat": 0.0, "rental_uris": {"ios": "https://dc.lft.to/lastmile_qr_scan", "android": "https://dc.lft.to/lastmile_qr_scan"}, "lon": -77.03686016666667, "type": "electric_scooter"}, {"bike_id": "2f54312101300b87d8608ed66ca4a08d", "is_reserved": 0, "fusion_lon": 0.0, "lat": 38.9398305, "is_disabled": 0, "name": "2f54312101300b87d8608ed66ca4a08d", "fusion_lat": 0.0, "rental_uris": {"ios": "https://dc.lft.to/lastmile_qr_scan", "android": "https://dc.lft.to/lastmile_qr_scan"}, "lon": -77.02891616666666, "type": "electric_scooter"}, {"bike_id": "ab7e48175a14697a74001770b8683bdb", "is_reserved": 0, "fusion_lon": 0.0, "lat": 38.92174333333333, "is_disabled": 0, "name": "ab7e48175a14697a74001770b8683bdb", "fusion_lat": 0.0, "rental_uris": {"ios": "https://dc.lft.to/lastmile_qr_scan", "android": "https://dc.lft.to/lastmile_qr_scan"}, "lon": -77.025352, "type": "electric_scooter"}, {"bike_id": "68368408b1586bfcf6052e9c57159105", "is_reserved": 0, "fusion_lon": 0.0, "lat": 38.907801166666665, "is_disabled": 0, "name": "68368408b1586bfcf6052e9c57159105", "fusion_lat": 0.0, "rental_uris": {"ios": "https://dc.lft.to/lastmile_qr_scan", "android": "https://dc.lft.to/lastmile_qr_scan"}, "lon": -77.04251366666666, "type": "electric_scooter"}, {"bike_id": "e45cfd5f3e4cedb298532dc0d1f3a098", "is_reserved": 0, "fusion_lon": 0.0, "lat": 38.892259333333335, "is_disabled": 0, "name": "e45cfd5f3e4cedb298532dc0d1f3a098", "fusion_lat": 0.0, "rental_uris": {"ios": "https://dc.lft.to/lastmile_qr_scan", "android": "https://dc.lft.to/lastmile_qr_scan"}, "lon": -77.025765, "type": "electric_scooter"}, {"bike_id": "3e4ef0a2c4fef5d93811d07a40377930", "is_reserved": 0, "fusion_lon": 0.0, "lat": 38.9132425, "is_disabled": 0, "name": "3e4ef0a2c4fef5d93811d07a40377930", "fusion_lat": 0.0, "rental_uris": {"ios": "https://dc.lft.to/lastmile_qr_scan", "android": "https://dc.lft.to/lastmile_qr_scan"}, "lon": -77.03267816666667, "type": "electric_scooter"}, {"bike_id": "e9a6a98c49d366eb4b46bb6c31aac64f", "is_reserved": 0, "fusion_lon": 0.0, "lat": 38.919078999999996, "is_disabled": 0, "name": "e9a6a98c49d366eb4b46bb6c31aac64f", "fusion_lat": 0.0, "rental_uris": {"ios": "https://dc.lft.to/lastmile_qr_scan", "android": "https://dc.lft.to/lastmile_qr_scan"}, "lon": -77.0244605, "type": "electric_scooter"}, {"bike_id": "137577981f26b8cfcd42636cf6e7605f", "is_reserved": 0, "fusion_lon": 0.0, "lat": 38.9370105, "is_disabled": 0, "name": "137577981f26b8cfcd42636cf6e7605f", "fusion_lat": 0.0, "rental_uris": {"ios": "https://dc.lft.to/lastmile_qr_scan", "android": "https://dc.lft.to/lastmile_qr_scan"}, "lon": -77.05950516666667, "type": "electric_scooter"}, {"bike_id": "5fb5f65c6ba306d4ad994237332ae6a6", "is_reserved": 0, "fusion_lon": 0.0, "lat": 38.87714233333333, "is_disabled": 0, "name": "5fb5f65c6ba306d4ad994237332ae6a6", "fusion_lat": 0.0, "rental_uris": {"ios": "https://dc.lft.to/lastmile_qr_scan", "android": "https://dc.lft.to/lastmile_qr_scan"}, "lon": -77.01730733333333, "type": "electric_scooter"}, {"bike_id": "e3991a7b3345d9df3cd85c7fecb4f2a1", "is_reserved": 0, "fusion_lon": 0.0, "lat": 38.8595595, "is_disabled": 0, "name": "e3991a7b3345d9df3cd85c7fecb4f2a1", "fusion_lat": 0.0, "rental_uris": {"ios": "https://dc.lft.to/lastmile_qr_scan", "android": "https://dc.lft.to/lastmile_qr_scan"}, "lon": -76.9910555, "type": "electric_scooter"}, {"bike_id": "6bf6cd8e3cfd72e2299f6ef6f41f0d07", "is_reserved": 0, "fusion_lon": 0.0, "lat": 38.90561816666667, "is_disabled": 0, "name": "6bf6cd8e3cfd72e2299f6ef6f41f0d07", "fusion_lat": 0.0, "rental_uris": {"ios": "https://dc.lft.to/lastmile_qr_scan", "android": "https://dc.lft.to/lastmile_qr_scan"}, "lon": -77.03826316666667, "type": "electric_scooter"}, {"bike_id": "f7f790afef263d05f222df2377243e85", "is_reserved": 0, "fusion_lon": 0.0, "lat": 38.928527833333334, "is_disabled": 0, "name": "f7f790afef263d05f222df2377243e85", "fusion_lat": 0.0, "rental_uris": {"ios": "https://dc.lft.to/lastmile_qr_scan", "android": "https://dc.lft.to/lastmile_qr_scan"}, "lon": -77.0543015, "type": "electric_scooter"}, {"bike_id": "e7c9c1674ca231b3e9fa9a0d968fac0e", "is_reserved": 0, "fusion_lon": 0.0, "lat": 38.927947833333334, "is_disabled": 0, "name": "e7c9c1674ca231b3e9fa9a0d968fac0e", "fusion_lat": 0.0, "rental_uris": {"ios": "https://dc.lft.to/lastmile_qr_scan", "android": "https://dc.lft.to/lastmile_qr_scan"}, "lon": -77.032045, "type": "electric_scooter"}, {"bike_id": "abfcca0e9ca2edb60ff20a83fab23124", "is_reserved": 0, "fusion_lon": 0.0, "lat": 38.910578, "is_disabled": 0, "name": "abfcca0e9ca2edb60ff20a83fab23124", "fusion_lat": 0.0, "rental_uris": {"ios": "https://dc.lft.to/lastmile_qr_scan", "android": "https://dc.lft.to/lastmile_qr_scan"}, "lon": -77.05403183333334, "type": "electric_scooter"}, {"bike_id": "bb4ba180d52a570a6d317d6dcd7a15d4", "is_reserved": 0, "fusion_lon": 0.0, "lat": 38.909160166666666, "is_disabled": 0, "name": "bb4ba180d52a570a6d317d6dcd7a15d4", "fusion_lat": 0.0, "rental_uris": {"ios": "https://dc.lft.to/lastmile_qr_scan", "android": "https://dc.lft.to/lastmile_qr_scan"}, "lon": -77.02307816666666, "type": "electric_scooter"}, {"bike_id": "7e0ba96e59df08eba22cee5db6c879b3", "is_reserved": 0, "fusion_lon": 0.0, "lat": 38.902822666666665, "is_disabled": 0, "name": "7e0ba96e59df08eba22cee5db6c879b3", "fusion_lat": 0.0, "rental_uris": {"ios": "https://dc.lft.to/lastmile_qr_scan", "android": "https://dc.lft.to/lastmile_qr_scan"}, "lon": -77.05923666666666, "type": "electric_scooter"}, {"bike_id": "d774d18104453dfa0b3ceb59f8482bc4", "is_reserved": 0, "fusion_lon": 0.0, "lat": 38.919158833333334, "is_disabled": 0, "name": "d774d18104453dfa0b3ceb59f8482bc4", "fusion_lat": 0.0, "rental_uris": {"ios": "https://dc.lft.to/lastmile_qr_scan", "android": "https://dc.lft.to/lastmile_qr_scan"}, "lon": -77.03358083333333, "type": "electric_scooter"}, {"bike_id": "11a4048e1af0bbda27c080e756c8911f", "is_reserved": 0, "fusion_lon": 0.0, "lat": 38.928961, "is_disabled": 0, "name": "11a4048e1af0bbda27c080e756c8911f", "fusion_lat": 0.0, "rental_uris": {"ios": "https://dc.lft.to/lastmile_qr_scan", "android": "https://dc.lft.to/lastmile_qr_scan"}, "lon": -77.03181066666667, "type": "electric_scooter"}, {"bike_id": "cd0ae5661e38bf1aa43a0de15fbed749", "is_reserved": 0, "fusion_lon": 0.0, "lat": 38.89562516666667, "is_disabled": 0, "name": "cd0ae5661e38bf1aa43a0de15fbed749", "fusion_lat": 0.0, "rental_uris": {"ios": "https://dc.lft.to/lastmile_qr_scan", "android": "https://dc.lft.to/lastmile_qr_scan"}, "lon": -77.046789, "type": "electric_scooter"}, {"bike_id": "c8e8517b35686b384e3ecd9d38a6132d", "is_reserved": 0, "fusion_lon": 0.0, "lat": 38.892224666666664, "is_disabled": 0, "name": "c8e8517b35686b384e3ecd9d38a6132d", "fusion_lat": 0.0, "rental_uris": {"ios": "https://dc.lft.to/lastmile_qr_scan", "android": "https://dc.lft.to/lastmile_qr_scan"}, "lon": -77.04191333333333, "type": "electric_scooter"}, {"bike_id": "023216bb3bbc8dd1038d9653f4654cee", "is_reserved": 0, "fusion_lon": 0.0, "lat": 38.8984685, "is_disabled": 0, "name": "023216bb3bbc8dd1038d9653f4654cee", "fusion_lat": 0.0, "rental_uris": {"ios": "https://dc.lft.to/lastmile_qr_scan", "android": "https://dc.lft.to/lastmile_qr_scan"}, "lon": -77.03342433333333, "type": "electric_scooter"}, {"bike_id": "c905aa477fdd56154b331832c2cc8730", "is_reserved": 0, "fusion_lon": 0.0, "lat": 38.93429016666666, "is_disabled": 0, "name": "c905aa477fdd56154b331832c2cc8730", "fusion_lat": 0.0, "rental_uris": {"ios": "https://dc.lft.to/lastmile_qr_scan", "android": "https://dc.lft.to/lastmile_qr_scan"}, "lon": -77.043166, "type": "electric_scooter"}, {"bike_id": "8f5952bc39e6ecbbe8b2cf962cc56e73", "is_reserved": 0, "fusion_lon": 0.0, "lat": 38.89620633333333, "is_disabled": 0, "name": "8f5952bc39e6ecbbe8b2cf962cc56e73", "fusion_lat": 0.0, "rental_uris": {"ios": "https://dc.lft.to/lastmile_qr_scan", "android": "https://dc.lft.to/lastmile_qr_scan"}, "lon": -76.99849083333334, "type": "electric_scooter"}, {"bike_id": "b602f64af9bba3f9a144d72a2693f087", "is_reserved": 0, "fusion_lon": 0.0, "lat": 38.8937565, "is_disabled": 0, "name": "b602f64af9bba3f9a144d72a2693f087", "fusion_lat": 0.0, "rental_uris": {"ios": "https://dc.lft.to/lastmile_qr_scan", "android": "https://dc.lft.to/lastmile_qr_scan"}, "lon": -76.94960616666667, "type": "electric_scooter"}, {"bike_id": "2fcd494c1fcb40bd6efa80640aab011c", "is_reserved": 0, "fusion_lon": 0.0, "lat": 38.91840666666667, "is_disabled": 0, "name": "2fcd494c1fcb40bd6efa80640aab011c", "fusion_lat": 0.0, "rental_uris": {"ios": "https://dc.lft.to/lastmile_qr_scan", "android": "https://dc.lft.to/lastmile_qr_scan"}, "lon": -77.04178766666666, "type": "electric_scooter"}, {"bike_id": "ac38215a50d4ab6bff92452434e61cfe", "is_reserved": 0, "fusion_lon": 0.0, "lat": 38.919000833333335, "is_disabled": 0, "name": "ac38215a50d4ab6bff92452434e61cfe", "fusion_lat": 0.0, "rental_uris": {"ios": "https://dc.lft.to/lastmile_qr_scan", "android": "https://dc.lft.to/lastmile_qr_scan"}, "lon": -77.01961183333333, "type": "electric_scooter"}, {"bike_id": "911039e3013e46e430f1606d205cb480", "is_reserved": 0, "fusion_lon": 0.0, "lat": 38.891926833333336, "is_disabled": 0, "name": "911039e3013e46e430f1606d205cb480", "fusion_lat": 0.0, "rental_uris": {"ios": "https://dc.lft.to/lastmile_qr_scan", "android": "https://dc.lft.to/lastmile_qr_scan"}, "lon": -77.0298255, "type": "electric_scooter"}, {"bike_id": "26f1a9a83406d29cadf13e2407b35802", "is_reserved": 0, "fusion_lon": 0.0, "lat": 38.894681166666665, "is_disabled": 0, "name": "26f1a9a83406d29cadf13e2407b35802", "fusion_lat": 0.0, "rental_uris": {"ios": "https://dc.lft.to/lastmile_qr_scan", "android": "https://dc.lft.to/lastmile_qr_scan"}, "lon": -77.02253033333334, "type": "electric_scooter"}, {"bike_id": "8bcd2fc0e785eacd81185fca590c915d", "is_reserved": 0, "fusion_lon": 0.0, "lat": 38.89224216666667, "is_disabled": 0, "name": "8bcd2fc0e785eacd81185fca590c915d", "fusion_lat": 0.0, "rental_uris": {"ios": "https://dc.lft.to/lastmile_qr_scan", "android": "https://dc.lft.to/lastmile_qr_scan"}, "lon": -77.04371333333333, "type": "electric_scooter"}, {"bike_id": "7a2c0e511f4ee9fbb6dc7a4c13a8cb79", "is_reserved": 0, "fusion_lon": 0.0, "lat": 38.8690495, "is_disabled": 0, "name": "7a2c0e511f4ee9fbb6dc7a4c13a8cb79", "fusion_lat": 0.0, "rental_uris": {"ios": "https://dc.lft.to/lastmile_qr_scan", "android": "https://dc.lft.to/lastmile_qr_scan"}, "lon": -77.13178466666666, "type": "electric_bike"}, {"bike_id": "ada134c690be842b878fc3ad3c477f89", "is_reserved": 0, "fusion_lon": 0.0, "lat": 38.89951116666667, "is_disabled": 0, "name": "ada134c690be842b878fc3ad3c477f89", "fusion_lat": 0.0, "rental_uris": {"ios": "https://dc.lft.to/lastmile_qr_scan", "android": "https://dc.lft.to/lastmile_qr_scan"}, "lon": -77.0333755, "type": "electric_scooter"}, {"bike_id": "8546c982cd8f2d68387be0df33b24c2e", "is_reserved": 0, "fusion_lon": 0.0, "lat": 38.905337833333334, "is_disabled": 0, "name": "8546c982cd8f2d68387be0df33b24c2e", "fusion_lat": 0.0, "rental_uris": {"ios": "https://dc.lft.to/lastmile_qr_scan", "android": "https://dc.lft.to/lastmile_qr_scan"}, "lon": -77.04367166666667, "type": "electric_scooter"}, {"bike_id": "c046d3e8e8d43ab3daccab0221c70df7", "is_reserved": 0, "fusion_lon": 0.0, "lat": 38.944375, "is_disabled": 0, "name": "c046d3e8e8d43ab3daccab0221c70df7", "fusion_lat": 0.0, "rental_uris": {"ios": "https://dc.lft.to/lastmile_qr_scan", "android": "https://dc.lft.to/lastmile_qr_scan"}, "lon": -77.06349983333334, "type": "electric_scooter"}, {"bike_id": "2d15b7451d63937bbbe05a379b0c0f15", "is_reserved": 0, "fusion_lon": 0.0, "lat": 38.898786333333334, "is_disabled": 0, "name": "2d15b7451d63937bbbe05a379b0c0f15", "fusion_lat": 0.0, "rental_uris": {"ios": "https://dc.lft.to/lastmile_qr_scan", "android": "https://dc.lft.to/lastmile_qr_scan"}, "lon": -76.93160633333333, "type": "electric_scooter"}, {"bike_id": "9e60936c2587d06a8be6490be13faff0", "is_reserved": 0, "fusion_lon": 0.0, "lat": 38.925006333333336, "is_disabled": 0, "name": "9e60936c2587d06a8be6490be13faff0", "fusion_lat": 0.0, "rental_uris": {"ios": "https://dc.lft.to/lastmile_qr_scan", "android": "https://dc.lft.to/lastmile_qr_scan"}, "lon": -77.0089145, "type": "electric_scooter"}, {"bike_id": "4c8e9dd51f40bc6239089aa84adbb526", "is_reserved": 0, "fusion_lon": 0.0, "lat": 38.900321166666664, "is_disabled": 0, "name": "4c8e9dd51f40bc6239089aa84adbb526", "fusion_lat": 0.0, "rental_uris": {"ios": "https://dc.lft.to/lastmile_qr_scan", "android": "https://dc.lft.to/lastmile_qr_scan"}, "lon": -76.99876083333334, "type": "electric_scooter"}, {"bike_id": "5b4ac33a5b30fb1bbf99e9f676f2feaf", "is_reserved": 0, "fusion_lon": 0.0, "lat": 38.96176616666666, "is_disabled": 0, "name": "5b4ac33a5b30fb1bbf99e9f676f2feaf", "fusion_lat": 0.0, "rental_uris": {"ios": "https://dc.lft.to/lastmile_qr_scan", "android": "https://dc.lft.to/lastmile_qr_scan"}, "lon": -76.995919, "type": "electric_bike"}, {"bike_id": "e9de8d58b9f6151e068d91a0557b442c", "is_reserved": 0, "fusion_lon": 0.0, "lat": 38.934302833333334, "is_disabled": 0, "name": "e9de8d58b9f6151e068d91a0557b442c", "fusion_lat": 0.0, "rental_uris": {"ios": "https://dc.lft.to/lastmile_qr_scan", "android": "https://dc.lft.to/lastmile_qr_scan"}, "lon": -77.034407, "type": "electric_scooter"}, {"bike_id": "2c2004d0691030dc76fc9abd1f4690e1", "is_reserved": 0, "fusion_lon": 0.0, "lat": 38.89536616666667, "is_disabled": 0, "name": "2c2004d0691030dc76fc9abd1f4690e1", "fusion_lat": 0.0, "rental_uris": {"ios": "https://dc.lft.to/lastmile_qr_scan", "android": "https://dc.lft.to/lastmile_qr_scan"}, "lon": -76.948905, "type": "electric_scooter"}, {"bike_id": "1d1aedd32a419b4de8aa230adc0ca273", "is_reserved": 0, "fusion_lon": 0.0, "lat": 38.905344166666666, "is_disabled": 0, "name": "1d1aedd32a419b4de8aa230adc0ca273", "fusion_lat": 0.0, "rental_uris": {"ios": "https://dc.lft.to/lastmile_qr_scan", "android": "https://dc.lft.to/lastmile_qr_scan"}, "lon": -76.99803633333333, "type": "electric_bike"}, {"bike_id": "82053071dd0e6496e21d776bca9ffe40", "is_reserved": 0, "fusion_lon": 0.0, "lat": 38.903657, "is_disabled": 0, "name": "82053071dd0e6496e21d776bca9ffe40", "fusion_lat": 0.0, "rental_uris": {"ios": "https://dc.lft.to/lastmile_qr_scan", "android": "https://dc.lft.to/lastmile_qr_scan"}, "lon": -77.0330765, "type": "electric_scooter"}, {"bike_id": "2ceab91a4fa12abf877cfb7874844d84", "is_reserved": 0, "fusion_lon": 0.0, "lat": 38.904378, "is_disabled": 0, "name": "2ceab91a4fa12abf877cfb7874844d84", "fusion_lat": 0.0, "rental_uris": {"ios": "https://dc.lft.to/lastmile_qr_scan", "android": "https://dc.lft.to/lastmile_qr_scan"}, "lon": -77.05152, "type": "electric_scooter"}, {"bike_id": "d1a74b4ad886d09ab6982d876bc548fd", "is_reserved": 0, "fusion_lon": 0.0, "lat": 38.90061583333333, "is_disabled": 0, "name": "d1a74b4ad886d09ab6982d876bc548fd", "fusion_lat": 0.0, "rental_uris": {"ios": "https://dc.lft.to/lastmile_qr_scan", "android": "https://dc.lft.to/lastmile_qr_scan"}, "lon": -76.93387733333333, "type": "electric_scooter"}, {"bike_id": "2a27140901c661fa9dfcd569e8d5750c", "is_reserved": 0, "fusion_lon": 0.0, "lat": 38.867014166666664, "is_disabled": 0, "name": "2a27140901c661fa9dfcd569e8d5750c", "fusion_lat": 0.0, "rental_uris": {"ios": "https://dc.lft.to/lastmile_qr_scan", "android": "https://dc.lft.to/lastmile_qr_scan"}, "lon": -76.987136, "type": "electric_scooter"}, {"bike_id": "f66566a2b3df5cbda27251ad95128ad9", "is_reserved": 0, "fusion_lon": 0.0, "lat": 38.93110816666667, "is_disabled": 0, "name": "f66566a2b3df5cbda27251ad95128ad9", "fusion_lat": 0.0, "rental_uris": {"ios": "https://dc.lft.to/lastmile_qr_scan", "android": "https://dc.lft.to/lastmile_qr_scan"}, "lon": -77.018504, "type": "electric_scooter"}, {"bike_id": "c4ccfe8a31040534a9216347dd1fa915", "is_reserved": 0, "fusion_lon": 0.0, "lat": 38.922927666666666, "is_disabled": 0, "name": "c4ccfe8a31040534a9216347dd1fa915", "fusion_lat": 0.0, "rental_uris": {"ios": "https://dc.lft.to/lastmile_qr_scan", "android": "https://dc.lft.to/lastmile_qr_scan"}, "lon": -77.02070966666666, "type": "electric_scooter"}, {"bike_id": "b6af2a1f2c954cf06ce77debd72b1501", "is_reserved": 0, "fusion_lon": 0.0, "lat": 38.91119883333333, "is_disabled": 0, "name": "b6af2a1f2c954cf06ce77debd72b1501", "fusion_lat": 0.0, "rental_uris": {"ios": "https://dc.lft.to/lastmile_qr_scan", "android": "https://dc.lft.to/lastmile_qr_scan"}, "lon": -77.04369683333333, "type": "electric_scooter"}, {"bike_id": "23af62752fc113f9890aaaf62a77bf17", "is_reserved": 0, "fusion_lon": 0.0, "lat": 38.8876915, "is_disabled": 0, "name": "23af62752fc113f9890aaaf62a77bf17", "fusion_lat": 0.0, "rental_uris": {"ios": "https://dc.lft.to/lastmile_qr_scan", "android": "https://dc.lft.to/lastmile_qr_scan"}, "lon": -77.02230366666667, "type": "electric_scooter"}, {"bike_id": "cbbb47ddbc37bcda61fc5d0a14ca54f5", "is_reserved": 0, "fusion_lon": 0.0, "lat": 38.9907975, "is_disabled": 0, "name": "cbbb47ddbc37bcda61fc5d0a14ca54f5", "fusion_lat": 0.0, "rental_uris": {"ios": "https://dc.lft.to/lastmile_qr_scan", "android": "https://dc.lft.to/lastmile_qr_scan"}, "lon": -76.87471483333333, "type": "electric_bike"}, {"bike_id": "7b8754c30edf9cbdf09202d680004b2a", "is_reserved": 0, "fusion_lon": 0.0, "lat": 38.89754833333333, "is_disabled": 0, "name": "7b8754c30edf9cbdf09202d680004b2a", "fusion_lat": 0.0, "rental_uris": {"ios": "https://dc.lft.to/lastmile_qr_scan", "android": "https://dc.lft.to/lastmile_qr_scan"}, "lon": -77.050208, "type": "electric_scooter"}, {"bike_id": "b6a7cfca11dcbfcb374c537ec181d2f0", "is_reserved": 0, "fusion_lon": 0.0, "lat": 38.907505666666665, "is_disabled": 0, "name": "b6a7cfca11dcbfcb374c537ec181d2f0", "fusion_lat": 0.0, "rental_uris": {"ios": "https://dc.lft.to/lastmile_qr_scan", "android": "https://dc.lft.to/lastmile_qr_scan"}, "lon": -77.03464566666666, "type": "electric_scooter"}, {"bike_id": "087faec6dcffb12c91fb083d263b54f2", "is_reserved": 0, "fusion_lon": 0.0, "lat": 38.88429166666667, "is_disabled": 0, "name": "087faec6dcffb12c91fb083d263b54f2", "fusion_lat": 0.0, "rental_uris": {"ios": "https://dc.lft.to/lastmile_qr_scan", "android": "https://dc.lft.to/lastmile_qr_scan"}, "lon": -76.957524, "type": "electric_scooter"}, {"bike_id": "218a0c8184438ce5aa0756591a0a9230", "is_reserved": 0, "fusion_lon": 0.0, "lat": 38.921952166666664, "is_disabled": 0, "name": "218a0c8184438ce5aa0756591a0a9230", "fusion_lat": 0.0, "rental_uris": {"ios": "https://dc.lft.to/lastmile_qr_scan", "android": "https://dc.lft.to/lastmile_qr_scan"}, "lon": -77.02411, "type": "electric_scooter"}, {"bike_id": "fb48ee032e5ed9f4953e7500504d46ec", "is_reserved": 0, "fusion_lon": 0.0, "lat": 38.919448, "is_disabled": 0, "name": "fb48ee032e5ed9f4953e7500504d46ec", "fusion_lat": 0.0, "rental_uris": {"ios": "https://dc.lft.to/lastmile_qr_scan", "android": "https://dc.lft.to/lastmile_qr_scan"}, "lon": -77.0449145, "type": "electric_scooter"}, {"bike_id": "7218838520f9dca6db3320ffc32c66fe", "is_reserved": 0, "fusion_lon": 0.0, "lat": 38.90003033333333, "is_disabled": 0, "name": "7218838520f9dca6db3320ffc32c66fe", "fusion_lat": 0.0, "rental_uris": {"ios": "https://dc.lft.to/lastmile_qr_scan", "android": "https://dc.lft.to/lastmile_qr_scan"}, "lon": -77.02724066666667, "type": "electric_scooter"}, {"bike_id": "f05b9865d26721c0bf88fa2a38fd7f7b", "is_reserved": 0, "fusion_lon": 0.0, "lat": 38.923260666666664, "is_disabled": 0, "name": "f05b9865d26721c0bf88fa2a38fd7f7b", "fusion_lat": 0.0, "rental_uris": {"ios": "https://dc.lft.to/lastmile_qr_scan", "android": "https://dc.lft.to/lastmile_qr_scan"}, "lon": -77.03630733333334, "type": "electric_scooter"}, {"bike_id": "a283bbeeda3121d9057f3414aecfa2f7", "is_reserved": 0, "fusion_lon": 0.0, "lat": 38.900077, "is_disabled": 0, "name": "a283bbeeda3121d9057f3414aecfa2f7", "fusion_lat": 0.0, "rental_uris": {"ios": "https://dc.lft.to/lastmile_qr_scan", "android": "https://dc.lft.to/lastmile_qr_scan"}, "lon": -77.04036, "type": "electric_scooter"}, {"bike_id": "74943e48e768223ef393ac84030afaaf", "is_reserved": 0, "fusion_lon": 0.0, "lat": 38.902791666666666, "is_disabled": 0, "name": "74943e48e768223ef393ac84030afaaf", "fusion_lat": 0.0, "rental_uris": {"ios": "https://dc.lft.to/lastmile_qr_scan", "android": "https://dc.lft.to/lastmile_qr_scan"}, "lon": -77.0403195, "type": "electric_scooter"}, {"bike_id": "b48edb3a6ee8f1fe65e90c97c81e0ba1", "is_reserved": 0, "fusion_lon": 0.0, "lat": 38.90962966666667, "is_disabled": 0, "name": "b48edb3a6ee8f1fe65e90c97c81e0ba1", "fusion_lat": 0.0, "rental_uris": {"ios": "https://dc.lft.to/lastmile_qr_scan", "android": "https://dc.lft.to/lastmile_qr_scan"}, "lon": -77.03426633333333, "type": "electric_scooter"}, {"bike_id": "7c796be746914cbf107bd1df7496eb93", "is_reserved": 0, "fusion_lon": 0.0, "lat": 38.8442715, "is_disabled": 0, "name": "7c796be746914cbf107bd1df7496eb93", "fusion_lat": 0.0, "rental_uris": {"ios": "https://dc.lft.to/lastmile_qr_scan", "android": "https://dc.lft.to/lastmile_qr_scan"}, "lon": -76.99782483333334, "type": "electric_scooter"}, {"bike_id": "5e1af8c7774b996792b89380eea47ab9", "is_reserved": 0, "fusion_lon": 0.0, "lat": 38.92084833333333, "is_disabled": 0, "name": "5e1af8c7774b996792b89380eea47ab9", "fusion_lat": 0.0, "rental_uris": {"ios": "https://dc.lft.to/lastmile_qr_scan", "android": "https://dc.lft.to/lastmile_qr_scan"}, "lon": -77.01783883333333, "type": "electric_scooter"}, {"bike_id": "e7ee012dd66a8df433f3c4c52a47353f", "is_reserved": 0, "fusion_lon": 0.0, "lat": 38.902414, "is_disabled": 0, "name": "e7ee012dd66a8df433f3c4c52a47353f", "fusion_lat": 0.0, "rental_uris": {"ios": "https://dc.lft.to/lastmile_qr_scan", "android": "https://dc.lft.to/lastmile_qr_scan"}, "lon": -77.02691416666667, "type": "electric_scooter"}, {"bike_id": "b7a4e8c1d7dc440dde7c7327075ccee8", "is_reserved": 0, "fusion_lon": 0.0, "lat": 38.92866, "is_disabled": 0, "name": "b7a4e8c1d7dc440dde7c7327075ccee8", "fusion_lat": 0.0, "rental_uris": {"ios": "https://dc.lft.to/lastmile_qr_scan", "android": "https://dc.lft.to/lastmile_qr_scan"}, "lon": -77.01382583333333, "type": "electric_scooter"}, {"bike_id": "f7b920965255bd161fa146a0d034f81b", "is_reserved": 0, "fusion_lon": 0.0, "lat": 38.91177016666666, "is_disabled": 0, "name": "f7b920965255bd161fa146a0d034f81b", "fusion_lat": 0.0, "rental_uris": {"ios": "https://dc.lft.to/lastmile_qr_scan", "android": "https://dc.lft.to/lastmile_qr_scan"}, "lon": -77.02969733333333, "type": "electric_scooter"}, {"bike_id": "cf02c97a2d7001d97ea2a4cd07f5d549", "is_reserved": 0, "fusion_lon": 0.0, "lat": 38.89369716666667, "is_disabled": 0, "name": "cf02c97a2d7001d97ea2a4cd07f5d549", "fusion_lat": 0.0, "rental_uris": {"ios": "https://dc.lft.to/lastmile_qr_scan", "android": "https://dc.lft.to/lastmile_qr_scan"}, "lon": -76.9496405, "type": "electric_scooter"}, {"bike_id": "f9c97524d44bcafe7dbbc55c1e6c0f7e", "is_reserved": 0, "fusion_lon": 0.0, "lat": 38.89687083333333, "is_disabled": 0, "name": "f9c97524d44bcafe7dbbc55c1e6c0f7e", "fusion_lat": 0.0, "rental_uris": {"ios": "https://dc.lft.to/lastmile_qr_scan", "android": "https://dc.lft.to/lastmile_qr_scan"}, "lon": -76.996304, "type": "electric_scooter"}, {"bike_id": "d8be0d9c8fd2a3c1f9808b1f4df526e9", "is_reserved": 0, "fusion_lon": 0.0, "lat": 38.870856833333335, "is_disabled": 0, "name": "d8be0d9c8fd2a3c1f9808b1f4df526e9", "fusion_lat": 0.0, "rental_uris": {"ios": "https://dc.lft.to/lastmile_qr_scan", "android": "https://dc.lft.to/lastmile_qr_scan"}, "lon": -77.0121505, "type": "electric_bike"}, {"bike_id": "6932ae1ec94bfc08fdcb34c8340886dd", "is_reserved": 0, "fusion_lon": 0.0, "lat": 38.90265983333333, "is_disabled": 0, "name": "6932ae1ec94bfc08fdcb34c8340886dd", "fusion_lat": 0.0, "rental_uris": {"ios": "https://dc.lft.to/lastmile_qr_scan", "android": "https://dc.lft.to/lastmile_qr_scan"}, "lon": -77.04367683333334, "type": "electric_scooter"}, {"bike_id": "1d2d2ecfe2dadf8fb57af5e90a48007c", "is_reserved": 0, "fusion_lon": 0.0, "lat": 38.9052795, "is_disabled": 0, "name": "1d2d2ecfe2dadf8fb57af5e90a48007c", "fusion_lat": 0.0, "rental_uris": {"ios": "https://dc.lft.to/lastmile_qr_scan", "android": "https://dc.lft.to/lastmile_qr_scan"}, "lon": -77.04327683333334, "type": "electric_scooter"}, {"bike_id": "22efb453eef4ce7def86bae96d112c90", "is_reserved": 0, "fusion_lon": 0.0, "lat": 38.8791995, "is_disabled": 0, "name": "22efb453eef4ce7def86bae96d112c90", "fusion_lat": 0.0, "rental_uris": {"ios": "https://dc.lft.to/lastmile_qr_scan", "android": "https://dc.lft.to/lastmile_qr_scan"}, "lon": -76.9950915, "type": "electric_scooter"}, {"bike_id": "44125eb8f524fd772743a5d6a3d9cd67", "is_reserved": 0, "fusion_lon": 0.0, "lat": 38.892245333333335, "is_disabled": 0, "name": "44125eb8f524fd772743a5d6a3d9cd67", "fusion_lat": 0.0, "rental_uris": {"ios": "https://dc.lft.to/lastmile_qr_scan", "android": "https://dc.lft.to/lastmile_qr_scan"}, "lon": -77.04194483333333, "type": "electric_scooter"}, {"bike_id": "67be5e32c82c61471e752660b0af4004", "is_reserved": 0, "fusion_lon": 0.0, "lat": 38.891051, "is_disabled": 0, "name": "67be5e32c82c61471e752660b0af4004", "fusion_lat": 0.0, "rental_uris": {"ios": "https://dc.lft.to/lastmile_qr_scan", "android": "https://dc.lft.to/lastmile_qr_scan"}, "lon": -76.98708783333333, "type": "electric_scooter"}, {"bike_id": "08c0d1270635484b4837b1a0abcfc2a9", "is_reserved": 0, "fusion_lon": 0.0, "lat": 38.895329, "is_disabled": 0, "name": "08c0d1270635484b4837b1a0abcfc2a9", "fusion_lat": 0.0, "rental_uris": {"ios": "https://dc.lft.to/lastmile_qr_scan", "android": "https://dc.lft.to/lastmile_qr_scan"}, "lon": -77.01902183333333, "type": "electric_scooter"}, {"bike_id": "6acc6a2171756a6ca484056087a339f6", "is_reserved": 0, "fusion_lon": 0.0, "lat": 38.902915, "is_disabled": 0, "name": "6acc6a2171756a6ca484056087a339f6", "fusion_lat": 0.0, "rental_uris": {"ios": "https://dc.lft.to/lastmile_qr_scan", "android": "https://dc.lft.to/lastmile_qr_scan"}, "lon": -76.99038966666667, "type": "electric_scooter"}, {"bike_id": "77ea8b4860178cbb352ccfadb875f531", "is_reserved": 0, "fusion_lon": 0.0, "lat": 38.9007515, "is_disabled": 0, "name": "77ea8b4860178cbb352ccfadb875f531", "fusion_lat": 0.0, "rental_uris": {"ios": "https://dc.lft.to/lastmile_qr_scan", "android": "https://dc.lft.to/lastmile_qr_scan"}, "lon": -76.93873433333333, "type": "electric_scooter"},