{"data": {"bikes": [{"fusion_lat": 0.0, "name": "03ab0fa9375cccf55bf6adb2c79be0ab", "is_disabled": 0, "rental_uris": {"android": "https://dc.lft.to/lastmile_qr_scan", "ios": "https://dc.lft.to/lastmile_qr_scan"}, "fusion_lon": 0.0, "lat": 38.8968545, "bike_id": "03ab0fa9375cccf55bf6adb2c79be0ab", "type": "electric_scooter", "is_reserved": 0, "lon": -77.02131216666666}, {"fusion_lat": 0.0, "name": "9cb7f03991700ba0e89b10e776a0b684", "is_disabled": 0, "rental_uris": {"android": "https://dc.lft.to/lastmile_qr_scan", "ios": "https://dc.lft.to/lastmile_qr_scan"}, "fusion_lon": 0.0, "lat": 38.98063283333333, "bike_id": "9cb7f03991700ba0e89b10e776a0b684", "type": "electric_bike", "is_reserved": 0, "lon": -77.0263965}, {"fusion_lat": 0.0, "name": "9ca215d83b67724b24417fa0c0000b61", "is_disabled": 0, "rental_uris": {"android": "https://dc.lft.to/lastmile_qr_scan", "ios": "https://dc.lft.to/lastmile_qr_scan"}, "fusion_lon": 0.0, "lat": 38.88373083333333, "bike_id": "9ca215d83b67724b24417fa0c0000b61", "type": "electric_scooter", "is_reserved": 0, "lon": -76.93044533333334}, {"fusion_lat": 0.0, "name": "7c4ea05565554aec5ecec494e6e3a326", "is_disabled": 0, "rental_uris": {"android": "https://dc.lft.to/lastmile_qr_scan", "ios": "https://dc.lft.to/lastmile_qr_scan"}, "fusion_lon": 0.0, "lat": 38.911186666666666, "bike_id": "7c4ea05565554aec5ecec494e6e3a326", "type": "electric_scooter", "is_reserved": 0, "lon": -77.04220233333334}, {"fusion_lat": 0.0, "name": "267ac859ec9dda00f0be9e11f5c0ca74", "is_disabled": 0, "rental_uris": {"android": "https://dc.lft.to/lastmile_qr_scan", "ios": "https://dc.lft.to/lastmile_qr_scan"}, "fusion_lon": 0.0, "lat": 38.90985366666666, "bike_id": "267ac859ec9dda00f0be9e11f5c0ca74", "type": "electric_scooter", "is_reserved": 0, "lon": -77.054849}, {"fusion_lat": 0.0, "name": "64111fe758b45c3cd7a7f6921cbadfe1", "is_disabled": 0, "rental_uris": {"android": "https://dc.lft.to/lastmile_qr_scan", "ios": "https://dc.lft.to/lastmile_qr_scan"}, "fusion_lon": 0.0, "lat": 38.903845833333335, "bike_id": "64111fe758b45c3cd7a7f6921cbadfe1", "type": "electric_scooter", "is_reserved": 0, "lon": -77.06721666666667}, {"fusion_lat": 0.0, "name": "5d329b3a1827276e857b6105353ee58e", "is_disabled": 0, "rental_uris": {"android": "https://dc.lft.to/lastmile_qr_scan", "ios": "https://dc.lft.to/lastmile_qr_scan"}, "fusion_lon": 0.0, "lat": 38.9031435, "bike_id": "5d329b3a1827276e857b6105353ee58e", "type": "electric_scooter", "is_reserved": 0, "lon": -77.05341133333333}, {"fusion_lat": 0.0, "name": "dfb558ea87a83b33f7359a078ee9363a", "is_disabled": 0, "rental_uris": {"android": "https://dc.lft.to/lastmile_qr_scan", "ios": "https://dc.lft.to/lastmile_qr_scan"}, "fusion_lon": 0.0, "lat": 38.88285116666667, "bike_id": "dfb558ea87a83b33f7359a078ee9363a", "type": "electric_scooter", "is_reserved": 0, "lon": -77.0136535}, {"fusion_lat": 0.0, "name": "1abddd95796bcf2543e322ca67210c98", "is_disabled": 0, "rental_uris": {"android": "https://dc.lft.to/lastmile_qr_scan", "ios": "https://dc.lft.to/lastmile_qr_scan"}, "fusion_lon": 0.0, "lat": 38.92218316666667, "bike_id": "1abddd95796bcf2543e322ca67210c98", "type": "electric_scooter", "is_reserved": 0, "lon": -77.03513483333333}, {"fusion_lat": 0.0, "name": "14b8b5048a626240e3e38de8309b8629", "is_disabled": 0, "rental_uris": {"android": "https://dc.lft.to/lastmile_qr_scan", "ios": "https://dc.lft.to/lastmile_qr_scan"}, "fusion_lon": 0.0, "lat": 38.9082585, "bike_id": "14b8b5048a626240e3e38de8309b8629", "type": "electric_scooter", "is_reserved": 0, "lon": -77.043323}, {"fusion_lat": 0.0, "name": "77ab50705ba438c6a755c776b12d1031", "is_disabled": 0, "rental_uris": {"android": "https://dc.lft.to/lastmile_qr_scan", "ios": "https://dc.lft.to/lastmile_qr_scan"}, "fusion_lon": 0.0, "lat": 38.880361, "bike_id": "77ab50705ba438c6a755c776b12d1031", "type": "electric_bike", "is_reserved": 0, "lon": -77.02513083333334}, {"fusion_lat": 0.0, "name": "44ce07ec5d687edda668c5fb49933aca", "is_disabled": 0, "rental_uris": {"android": "https://dc.lft.to/lastmile_qr_scan", "ios": "https://dc.lft.to/lastmile_qr_scan"}, "fusion_lon": 0.0, "lat": 38.94160633333333, "bike_id": "44ce07ec5d687edda668c5fb49933aca", "type": "electric_scooter", "is_reserved": 0, "lon": -77.02510333333333}, {"fusion_lat": 0.0, "name": "95c467649458d2fe5265e21711c19fdf", "is_disabled": 0, "rental_uris": {"android": "https://dc.lft.to/lastmile_qr_scan", "ios": "https://dc.lft.to/lastmile_qr_scan"}, "fusion_lon": 0.0, "lat": 38.902975166666664, "bike_id": "95c467649458d2fe5265e21711c19fdf", "type": "electric_scooter", "is_reserved": 0, "lon": -76.992552}, {"fusion_lat": 0.0, "name": "8538685c716c17f274c3c823c7a023d3", "is_disabled": 0, "rental_uris": {"android": "https://dc.lft.to/lastmile_qr_scan", "ios": "https://dc.lft.to/lastmile_qr_scan"}, "fusion_lon": 0.0, "lat": 38.899428666666665, "bike_id": "8538685c716c17f274c3c823c7a023d3", "type": "electric_scooter", "is_reserved": 0, "lon": -77.05355316666666}, {"fusion_lat": 0.0, "name": "9fb8c246d08c70a0e7e471cf44b29473", "is_disabled": 0, "rental_uris": {"android": "https://dc.lft.to/lastmile_qr_scan", "ios": "https://dc.lft.to/lastmile_qr_scan"}, "fusion_lon": 0.0, "lat": 38.88811033333333, "bike_id": "9fb8c246d08c70a0e7e471cf44b29473", "type": "electric_scooter", "is_reserved": 0, "lon": -76.9835685}, {"fusion_lat": 0.0, "name": "8d9537ca181e18b7e179bebb25e41360", "is_disabled": 0, "rental_uris": {"android": "https://dc.lft.to/lastmile_qr_scan", "ios": "https://dc.lft.to/lastmile_qr_scan"}, "fusion_lon": 0.0, "lat": 38.88745733333333, "bike_id": "8d9537ca181e18b7e179bebb25e41360", "type": "electric_scooter", "is_reserved": 0, "lon": -76.98360683333334}, {"fusion_lat": 0.0, "name": "d3e19ab854ed0833e90cc37165f5dd08", "is_disabled": 0, "rental_uris": {"android": "https://dc.lft.to/lastmile_qr_scan", "ios": "https://dc.lft.to/lastmile_qr_scan"}, "fusion_lon": 0.0, "lat": 38.9269, "bike_id": "d3e19ab854ed0833e90cc37165f5dd08", "type": "electric_scooter", "is_reserved": 0, "lon": -77.0314525}, {"fusion_lat": 0.0, "name": "2ec5a5814f4811f5b24f1eb9b5e0ac4c", "is_disabled": 0, "rental_uris": {"android": "https://dc.lft.to/lastmile_qr_scan", "ios": "https://dc.lft.to/lastmile_qr_scan"}, "fusion_lon": 0.0, "lat": 38.9197355, "bike_id": "2ec5a5814f4811f5b24f1eb9b5e0ac4c", "type": "electric_scooter", "is_reserved": 0, "lon": -77.02399783333334}, {"fusion_lat": 0.0, "name": "08a552be0376183053b98d6219adc33d", "is_disabled": 0, "rental_uris": {"android": "https://dc.lft.to/lastmile_qr_scan", "ios": "https://dc.lft.to/lastmile_qr_scan"}, "fusion_lon": 0.0, "lat": 38.903745666666666, "bike_id": "08a552be0376183053b98d6219adc33d", "type": "electric_scooter", "is_reserved": 0, "lon": -77.04506433333333}, {"fusion_lat": 0.0, "name": "7676eba5b051ec2e60aec7850cff92f1", "is_disabled": 0, "rental_uris": {"android": "https://dc.lft.to/lastmile_qr_scan", "ios": "https://dc.lft.to/lastmile_qr_scan"}, "fusion_lon": 0.0, "lat": 38.913446666666665, "bike_id": "7676eba5b051ec2e60aec7850cff92f1", "type": "electric_bike", "is_reserved": 0, "lon": -76.989002}, {"fusion_lat": 0.0, "name": "21db3678ad48027761cd465622560c86", "is_disabled": 0, "rental_uris": {"android": "https://dc.lft.to/lastmile_qr_scan", "ios": "https://dc.lft.to/lastmile_qr_scan"}, "fusion_lon": 0.0, "lat": 38.882212, "bike_id": "21db3678ad48027761cd465622560c86", "type": "electric_scooter", "is_reserved": 0, "lon": -77.029388}, {"fusion_lat": 0.0, "name": "c8818ab451999adbdf41eb5a46eacfca", "is_disabled": 0, "rental_uris": {"android": "https://dc.lft.to/lastmile_qr_scan", "ios": "https://dc.lft.to/lastmile_qr_scan"}, "fusion_lon": 0.0, "lat": 38.948539333333336, "bike_id": "c8818ab451999adbdf41eb5a46eacfca", "type": "electric_scooter", "is_reserved": 0, "lon": -77.025729}, {"fusion_lat": 0.0, "name": "22c8b8e3889e5b142e1a33c24a4fdf5d", "is_disabled": 0, "rental_uris": {"android": "https://dc.lft.to/lastmile_qr_scan", "ios": "https://dc.lft.to/lastmile_qr_scan"}, "fusion_lon": 0.0, "lat": 38.91992466666667, "bike_id": "22c8b8e3889e5b142e1a33c24a4fdf5d", "type": "electric_scooter", "is_reserved": 0, "lon": -77.071858}, {"fusion_lat": 0.0, "name": "a3461b7e4b0bbac378d6f35507db1836", "is_disabled": 0, "rental_uris": {"android": "https://dc.lft.to/lastmile_qr_scan", "ios": "https://dc.lft.to/lastmile_qr_scan"}, "fusion_lon": 0.0, "lat": 38.882983833333334, "bike_id": "a3461b7e4b0bbac378d6f35507db1836", "type": "electric_scooter", "is_reserved": 0, "lon": -76.9485895}, {"fusion_lat": 0.0, "name": "7cade90cbc77c453b005335d5954bc9b", "is_disabled": 0, "rental_uris": {"android": "https://dc.lft.to/lastmile_qr_scan", "ios": "https://dc.lft.to/lastmile_qr_scan"}, "fusion_lon": 0.0, "lat": 38.906660333333335, "bike_id": "7cade90cbc77c453b005335d5954bc9b", "type": "electric_scooter", "is_reserved": 0, "lon": -77.02696733333333}, {"fusion_lat": 0.0, "name": "3eddb1abaf11388d980f85a56f7ec9fa", "is_disabled": 0, "rental_uris": {"android": "https://dc.lft.to/lastmile_qr_scan", "ios": "https://dc.lft.to/lastmile_qr_scan"}, "fusion_lon": 0.0, "lat": 38.924231, "bike_id": "3eddb1abaf11388d980f85a56f7ec9fa", "type": "electric_scooter", "is_reserved": 0, "lon": -77.02544666666667}, {"fusion_lat": 0.0, "name": "8c8d6201185ca101dd686b0df2654bf5", "is_disabled": 0, "rental_uris": {"android": "https://dc.lft.to/lastmile_qr_scan", "ios": "https://dc.lft.to/lastmile_qr_scan"}, "fusion_lon": 0.0, "lat": 38.952208666666664, "bike_id": "8c8d6201185ca101dd686b0df2654bf5", "type": "electric_scooter", "is_reserved": 0, "lon": -77.08219016666666}, {"fusion_lat": 0.0, "name": "ee096b4305c271222c7d82b76415d47a", "is_disabled": 0, "rental_uris": {"android": "https://dc.lft.to/lastmile_qr_scan", "ios": "https://dc.lft.to/lastmile_qr_scan"}, "fusion_lon": 0.0, "lat": 38.935795, "bike_id": "ee096b4305c271222c7d82b76415d47a", "type": "electric_scooter", "is_reserved": 0, "lon": -77.02846833333334}, {"fusion_lat": 0.0, "name": "2c0fcc3a1ce8874ae9a91c0eaedfb4d7", "is_disabled": 0, "rental_uris": {"android": "https://dc.lft.to/lastmile_qr_scan", "ios": "https://dc.lft.to/lastmile_qr_scan"}, "fusion_lon": 0.0, "lat": 38.931564333333334, "bike_id": "2c0fcc3a1ce8874ae9a91c0eaedfb4d7", "type": "electric_scooter", "is_reserved": 0, "lon": -77.0395825}, {"fusion_lat": 0.0, "name": "5b1f391973747d43b43af2dc4b54edcc", "is_disabled": 0, "rental_uris": {"android": "https://dc.lft.to/lastmile_qr_scan", "ios": "https://dc.lft.to/lastmile_qr_scan"}, "fusion_lon": 0.0, "lat": 38.85416, "bike_id": "5b1f391973747d43b43af2dc4b54edcc", "type": "electric_bike", "is_reserved": 0, "lon": -77.12074683333333}, {"fusion_lat": 0.0, "name": "70698664566b5780cd700dd04b518229", "is_disabled": 0, "rental_uris": {"android": "https://dc.lft.to/lastmile_qr_scan", "ios": "https://dc.lft.to/lastmile_qr_scan"}, "fusion_lon": 0.0, "lat": 38.89724233333333, "bike_id": "70698664566b5780cd700dd04b518229", "type": "electric_scooter", "is_reserved": 0, "lon": -76.995101}, {"fusion_lat": 0.0, "name": "7f0ce6c2cda08b6f3370ea29fea1ad44", "is_disabled": 0, "rental_uris": {"android": "https://dc.lft.to/lastmile_qr_scan", "ios": "https://dc.lft.to/lastmile_qr_scan"}, "fusion_lon": 0.0, "lat": 38.92049733333333, "bike_id": "7f0ce6c2cda08b6f3370ea29fea1ad44", "type": "electric_scooter", "is_reserved": 0, "lon": -77.01756866666666}, {"fusion_lat": 0.0, "name": "06ec08a4cfc728e10047e4c75ab56a1c", "is_disabled": 0, "rental_uris": {"android": "https://dc.lft.to/lastmile_qr_scan", "ios": "https://dc.lft.to/lastmile_qr_scan"}, "fusion_lon": 0.0, "lat": 38.92613683333333, "bike_id": "06ec08a4cfc728e10047e4c75ab56a1c", "type": "electric_scooter", "is_reserved": 0, "lon": -77.02159333333333}, {"fusion_lat": 0.0, "name": "70f4ef0996dd2c456cb8d7dac570eec6", "is_disabled": 0, "rental_uris": {"android": "https://dc.lft.to/lastmile_qr_scan", "ios": "https://dc.lft.to/lastmile_qr_scan"}, "fusion_lon": 0.0, "lat": 38.925814, "bike_id": "70f4ef0996dd2c456cb8d7dac570eec6", "type": "electric_scooter", "is_reserved": 0, "lon": -77.02757466666667}, {"fusion_lat": 0.0, "name": "b220bd5cc20637d5bb9a0749fd1a1e79", "is_disabled": 0, "rental_uris": {"android": "https://dc.lft.to/lastmile_qr_scan", "ios": "https://dc.lft.to/lastmile_qr_scan"}, "fusion_lon": 0.0, "lat": 38.922611833333335, "bike_id": "b220bd5cc20637d5bb9a0749fd1a1e79", "type": "electric_scooter", "is_reserved": 0, "lon": -77.03518666666666}, {"fusion_lat": 0.0, "name": "1fbcd27f9b08999b4aae035505e0dba6", "is_disabled": 0, "rental_uris": {"android": "https://dc.lft.to/lastmile_qr_scan", "ios": "https://dc.lft.to/lastmile_qr_scan"}, "fusion_lon": 0.0, "lat": 38.87813166666667, "bike_id": "1fbcd27f9b08999b4aae035505e0dba6", "type": "electric_scooter", "is_reserved": 0, "lon": -77.01317216666666}, {"fusion_lat": 0.0, "name": "68fa790ea6e453a8fbf82ec03922dd1b", "is_disabled": 0, "rental_uris": {"android": "https://dc.lft.to/lastmile_qr_scan", "ios": "https://dc.lft.to/lastmile_qr_scan"}, "fusion_lon": 0.0, "lat": 38.88442883333333, "bike_id": "68fa790ea6e453a8fbf82ec03922dd1b", "type": "electric_scooter", "is_reserved": 0, "lon": -76.98586166666666}, {"fusion_lat": 0.0, "name": "ae0e3dc1a19aa31759f4ee5fbff3c77e", "is_disabled": 0, "rental_uris": {"android": "https://dc.lft.to/lastmile_qr_scan", "ios": "https://dc.lft.to/lastmile_qr_scan"}, "fusion_lon": 0.0, "lat": 38.8987475, "bike_id": "ae0e3dc1a19aa31759f4ee5fbff3c77e", "type": "electric_scooter", "is_reserved": 0, "lon": -76.93186183333333}, {"fusion_lat": 0.0, "name": "3d85dc1c9f8626dc5e8916c0c54d5471", "is_disabled": 0, "rental_uris": {"android": "https://dc.lft.to/lastmile_qr_scan", "ios": "https://dc.lft.to/lastmile_qr_scan"}, "fusion_lon": 0.0, "lat": 38.9622325, "bike_id": "3d85dc1c9f8626dc5e8916c0c54d5471", "type": "electric_bike", "is_reserved": 0, "lon": -77.02629666666667}, {"fusion_lat": 0.0, "name": "87994047e16bf0b3450845a42660a285", "is_disabled": 0, "rental_uris": {"android": "https://dc.lft.to/lastmile_qr_scan", "ios": "https://dc.lft.to/lastmile_qr_scan"}, "fusion_lon": 0.0, "lat": 38.93353033333333, "bike_id": "87994047e16bf0b3450845a42660a285", "type": "electric_scooter", "is_reserved": 0, "lon": -77.02441583333334}, {"fusion_lat": 0.0, "name": "22051f5831fb6458bcf673e03c321f1c", "is_disabled": 0, "rental_uris": {"android": "https://dc.lft.to/lastmile_qr_scan", "ios": "https://dc.lft.to/lastmile_qr_scan"}, "fusion_lon": 0.0, "lat": 38.8823205, "bike_id": "22051f5831fb6458bcf673e03c321f1c", "type": "electric_scooter", "is_reserved": 0, "lon": -77.026167}, {"fusion_lat": 0.0, "name": "446e027d041857e4ee6fcc78f07e68b7", "is_disabled": 0, "rental_uris": {"android": "https://dc.lft.to/lastmile_qr_scan", "ios": "https://dc.lft.to/lastmile_qr_scan"}, "fusion_lon": 0.0, "lat": 38.93295783333333, "bike_id": "446e027d041857e4ee6fcc78f07e68b7", "type": "electric_scooter", "is_reserved": 0, "lon": -77.02798166666666}, {"fusion_lat": 0.0, "name": "6883b1ca4eb66c58c070111621a8b839", "is_disabled": 0, "rental_uris": {"android": "https://dc.lft.to/lastmile_qr_scan", "ios": "https://dc.lft.to/lastmile_qr_scan"}, "fusion_lon": 0.0, "lat": 38.91705266666666, "bike_id": "6883b1ca4eb66c58c070111621a8b839", "type": "electric_scooter", "is_reserved": 0, "lon": -77.03861116666667}, {"fusion_lat": 0.0, "name": "cbfa32b5aeefef0edaa85ab5c8574207", "is_disabled": 0, "rental_uris": {"android": "https://dc.lft.to/lastmile_qr_scan", "ios": "https://dc.lft.to/lastmile_qr_scan"}, "fusion_lon": 0.0, "lat": 38.929191333333335, "bike_id": "cbfa32b5aeefef0edaa85ab5c8574207", "type": "electric_scooter", "is_reserved": 0, "lon": -77.03752916666667}, {"fusion_lat": 0.0, "name": "cae1b3cba94c28e68cc865fdbf5633a8", "is_disabled": 0, "rental_uris": {"android": "https://dc.lft.to/lastmile_qr_scan", "ios": "https://dc.lft.to/lastmile_qr_scan"}, "fusion_lon": 0.0, "lat": 38.88325283333333, "bike_id": "cae1b3cba94c28e68cc865fdbf5633a8", "type": "electric_bike", "is_reserved": 0, "lon": -76.96056183333333}, {"fusion_lat": 0.0, "name": "12f6b8ddca156f71597edf4573465b2c", "is_disabled": 0, "rental_uris": {"android": "https://dc.lft.to/lastmile_qr_scan", "ios": "https://dc.lft.to/lastmile_qr_scan"}, "fusion_lon": 0.0, "lat": 38.89706416666667, "bike_id": "12f6b8ddca156f71597edf4573465b2c", "type": "electric_scooter", "is_reserved": 0, "lon": -77.02288783333333}, {"fusion_lat": 0.0, "name": "645f90c68d00003be3c5b27ce5da625f", "is_disabled": 0, "rental_uris": {"android": "https://dc.lft.to/lastmile_qr_scan", "ios": "https://dc.lft.to/lastmile_qr_scan"}, "fusion_lon": 0.0, "lat": 38.928190666666666, "bike_id": "645f90c68d00003be3c5b27ce5da625f", "type": "electric_scooter", "is_reserved": 0, "lon": -77.02257616666667}, {"fusion_lat": 0.0, "name": "7ab1108ba27b0947ef1679562a8a7097", "is_disabled": 0, "rental_uris": {"android": "https://dc.lft.to/lastmile_qr_scan", "ios": "https://dc.lft.to/lastmile_qr_scan"}, "fusion_lon": 0.0, "lat": 38.922234333333336, "bike_id": "7ab1108ba27b0947ef1679562a8a7097", "type": "electric_scooter", "is_reserved": 0, "lon": -77.02367233333334}, {"fusion_lat": 0.0, "name": "b94b4b11ccf00fbf1c573edc3fade765", "is_disabled": 0, "rental_uris": {"android": "https://dc.lft.to/lastmile_qr_scan", "ios": "https://dc.lft.to/lastmile_qr_scan"}, "fusion_lon": 0.0, "lat": 38.827883666666665, "bike_id": "b94b4b11ccf00fbf1c573edc3fade765", "type": "electric_bike", "is_reserved": 0, "lon": -77.124871}, {"fusion_lat": 0.0, "name": "45f81407cf15495e4f58086ecbc3b6fd", "is_disabled": 0, "rental_uris": {"android": "https://dc.lft.to/lastmile_qr_scan", "ios": "https://dc.lft.to/lastmile_qr_scan"}, "fusion_lon": 0.0, "lat": 38.797593666666664, "bike_id": "45f81407cf15495e4f58086ecbc3b6fd", "type": "electric_bike", "is_reserved": 0, "lon": -77.04750316666667}, {"fusion_lat": 0.0, "name": "6d69b1ec37e0b511c8eb99221b4462ba", "is_disabled": 0, "rental_uris": {"android": "https://dc.lft.to/lastmile_qr_scan", "ios": "https://dc.lft.to/lastmile_qr_scan"}, "fusion_lon": 0.0, "lat": 38.90236316666667, "bike_id": "6d69b1ec37e0b511c8eb99221b4462ba", "type": "electric_scooter", "is_reserved": 0, "lon": -77.03470416666667}, {"fusion_lat": 0.0, "name": "28c07e643dc35a819fedda7b8140fbde", "is_disabled": 0, "rental_uris": {"android": "https://dc.lft.to/lastmile_qr_scan", "ios": "https://dc.lft.to/lastmile_qr_scan"}, "fusion_lon": 0.0, "lat": 38.892304833333334, "bike_id": "28c07e643dc35a819fedda7b8140fbde", "type": "electric_scooter", "is_reserved": 0, "lon": -77.00288666666667}, {"fusion_lat": 0.0, "name": "46ec39309b05a123f42baa931651a9cd", "is_disabled": 0, "rental_uris": {"android": "https://dc.lft.to/lastmile_qr_scan", "ios": "https://dc.lft.to/lastmile_qr_scan"}, "fusion_lon": 0.0, "lat": 38.9163395, "bike_id": "46ec39309b05a123f42baa931651a9cd", "type": "electric_scooter", "is_reserved": 0, "lon": -77.00101366666667}, {"fusion_lat": 0.0, "name": "77533c9a4882acb13591c125fab018b6", "is_disabled": 0, "rental_uris": {"android": "https://dc.lft.to/lastmile_qr_scan", "ios": "https://dc.lft.to/lastmile_qr_scan"}, "fusion_lon": 0.0, "lat": 38.93073366666667, "bike_id": "77533c9a4882acb13591c125fab018b6", "type": "electric_scooter", "is_reserved": 0, "lon": -77.0218115}, {"fusion_lat": 0.0, "name": "34ac9ee0257d8466cb48f97550279505", "is_disabled": 0, "rental_uris": {"android": "https://dc.lft.to/lastmile_qr_scan", "ios": "https://dc.lft.to/lastmile_qr_scan"}, "fusion_lon": 0.0, "lat": 38.9076555, "bike_id": "34ac9ee0257d8466cb48f97550279505", "type": "electric_scooter", "is_reserved": 0, "lon": -77.0565115}, {"fusion_lat": 0.0, "name": "9f809fb3c803b20dd96cad58d5f45448", "is_disabled": 0, "rental_uris": {"android": "https://dc.lft.to/lastmile_qr_scan", "ios": "https://dc.lft.to/lastmile_qr_scan"}, "fusion_lon": 0.0, "lat": 38.89720633333334, "bike_id": "9f809fb3c803b20dd96cad58d5f45448", "type": "electric_scooter", "is_reserved": 0, "lon": -77.04633533333333}, {"fusion_lat": 0.0, "name": "c6439e5d0866c630c5a208a3123d3e0a", "is_disabled": 0, "rental_uris": {"android": "https://dc.lft.to/lastmile_qr_scan", "ios": "https://dc.lft.to/lastmile_qr_scan"}, "fusion_lon": 0.0, "lat": 38.939694833333334, "bike_id": "c6439e5d0866c630c5a208a3123d3e0a", "type": "electric_scooter", "is_reserved": 0, "lon": -77.03280816666667}, {"fusion_lat": 0.0, "name": "c404fc03b4127758cd7816ecf6525731", "is_disabled": 0, "rental_uris": {"android": "https://dc.lft.to/lastmile_qr_scan", "ios": "https://dc.lft.to/lastmile_qr_scan"}, "fusion_lon": 0.0, "lat": 38.91113216666667, "bike_id": "c404fc03b4127758cd7816ecf6525731", "type": "electric_scooter", "is_reserved": 0, "lon": -77.08134983333333}, {"fusion_lat": 0.0, "name": "cc49144cf2d823b44401c3009fac1416", "is_disabled": 0, "rental_uris": {"android": "https://dc.lft.to/lastmile_qr_scan", "ios": "https://dc.lft.to/lastmile_qr_scan"}, "fusion_lon": 0.0, "lat": 38.921588166666666, "bike_id": "cc49144cf2d823b44401c3009fac1416", "type": "electric_scooter", "is_reserved": 0, "lon": -77.03362866666667}, {"fusion_lat": 0.0, "name": "47232ddae8649f0f7e5b7d3046f7f766", "is_disabled": 0, "rental_uris": {"android": "https://dc.lft.to/lastmile_qr_scan", "ios": "https://dc.lft.to/lastmile_qr_scan"}, "fusion_lon": 0.0, "lat": 38.91485633333333, "bike_id": "47232ddae8649f0f7e5b7d3046f7f766", "type": "electric_scooter", "is_reserved": 0, "lon": -77.0402145}, {"fusion_lat": 0.0, "name": "7d5002c37d95707931afc83d6a88d759", "is_disabled": 0, "rental_uris": {"android": "https://dc.lft.to/lastmile_qr_scan", "ios": "https://dc.lft.to/lastmile_qr_scan"}, "fusion_lon": 0.0, "lat": 38.93773733333333, "bike_id": "7d5002c37d95707931afc83d6a88d759", "type": "electric_scooter", "is_reserved": 0, "lon": -77.0326325}, {"fusion_lat": 0.0, "name": "bb5852b6d40b07ab1609e87435436cd8", "is_disabled": 0, "rental_uris": {"android": "https://dc.lft.to/lastmile_qr_scan", "ios": "https://dc.lft.to/lastmile_qr_scan"}, "fusion_lon": 0.0, "lat": 38.9026835, "bike_id": "bb5852b6d40b07ab1609e87435436cd8", "type": "electric_scooter", "is_reserved": 0, "lon": -77.04367616666667}, {"fusion_lat": 0.0, "name": "78dd4ed13d480bcb57ad74f58fc75dee", "is_disabled": 0, "rental_uris": {"android": "https://dc.lft.to/lastmile_qr_scan", "ios": "https://dc.lft.to/lastmile_qr_scan"}, "fusion_lon": 0.0, "lat": 38.9168315, "bike_id": "78dd4ed13d480bcb57ad74f58fc75dee", "type": "electric_scooter", "is_reserved": 0, "lon": -77.02808816666666}, {"fusion_lat": 0.0, "name": "469337c24790380faf177ee296d0a72f", "is_disabled": 0, "rental_uris": {"android": "https://dc.lft.to/lastmile_qr_scan", "ios": "https://dc.lft.to/lastmile_qr_scan"}, "fusion_lon": 0.0, "lat": 38.931322, "bike_id": "469337c24790380faf177ee296d0a72f", "type": "electric_scooter", "is_reserved": 0, "lon": -77.07842283333333}, {"fusion_lat": 0.0, "name": "f52070bd1d0a11f298364947500ffcbc", "is_disabled": 0, "rental_uris": {"android": "https://dc.lft.to/lastmile_qr_scan", "ios": "https://dc.lft.to/lastmile_qr_scan"}, "fusion_lon": 0.0, "lat": 38.92321166666667, "bike_id": "f52070bd1d0a11f298364947500ffcbc", "type": "electric_scooter", "is_reserved": 0, "lon": -77.02072266666667}, {"fusion_lat": 0.0, "name": "cfb4540dc0a1ab61ef8aebd1c0fe3a45", "is_disabled": 0, "rental_uris": {"android": "https://dc.lft.to/lastmile_qr_scan", "ios": "https://dc.lft.to/lastmile_qr_scan"}, "fusion_lon": 0.0, "lat": 38.90714833333333, "bike_id": "cfb4540dc0a1ab61ef8aebd1c0fe3a45", "type": "electric_scooter", "is_reserved": 0, "lon": -77.0481085}, {"fusion_lat": 0.0, "name": "a854a3d412b5fb9546c1edc21f9e17b1", "is_disabled": 0, "rental_uris": {"android": "https://dc.lft.to/lastmile_qr_scan", "ios": "https://dc.lft.to/lastmile_qr_scan"}, "fusion_lon": 0.0, "lat": 38.907797333333335, "bike_id": "a854a3d412b5fb9546c1edc21f9e17b1", "type": "electric_scooter", "is_reserved": 0, "lon": -77.04341266666667}, {"fusion_lat": 0.0, "name": "1fb6b64a15b5b4a979f72aaecd4b14b0", "is_disabled": 0, "rental_uris": {"android": "https://dc.lft.to/lastmile_qr_scan", "ios": "https://dc.lft.to/lastmile_qr_scan"}, "fusion_lon": 0.0, "lat": 38.924235, "bike_id": "1fb6b64a15b5b4a979f72aaecd4b14b0", "type": "electric_scooter", "is_reserved": 0, "lon": -77.0201035}, {"fusion_lat": 0.0, "name": "7c5ff7e00f3a58d55e5f8e8b39dd4fd1", "is_disabled": 0, "rental_uris": {"android": "https://dc.lft.to/lastmile_qr_scan", "ios": "https://dc.lft.to/lastmile_qr_scan"}, "fusion_lon": 0.0, "lat": 38.8918155, "bike_id": "7c5ff7e00f3a58d55e5f8e8b39dd4fd1", "type": "electric_scooter", "is_reserved": 0, "lon": -76.99944266666667}, {"fusion_lat": 0.0, "name": "75c6923784317002ee55818261534131", "is_disabled": 0, "rental_uris": {"android": "https://dc.lft.to/lastmile_qr_scan", "ios": "https://dc.lft.to/lastmile_qr_scan"}, "fusion_lon": 0.0, "lat": 38.90157516666667, "bike_id": "75c6923784317002ee55818261534131", "type": "electric_scooter", "is_reserved": 0, "lon": -77.025686}, {"fusion_lat": 0.0, "name": "9072152804657e916f4e3acaf8b65566", "is_disabled": 0, "rental_uris": {"android": "https://dc.lft.to/lastmile_qr_scan", "ios": "https://dc.lft.to/lastmile_qr_scan"}, "fusion_lon": 0.0, "lat": 38.92143733333333, "bike_id": "9072152804657e916f4e3acaf8b65566", "type": "electric_scooter", "is_reserved": 0, "lon": -77.01804983333334}, {"fusion_lat": 0.0, "name": "a75b9d2246912c3f5e7f883ff8cc4043", "is_disabled": 0, "rental_uris": {"android": "https://dc.lft.to/lastmile_qr_scan", "ios": "https://dc.lft.to/lastmile_qr_scan"}, "fusion_lon": 0.0, "lat": 38.9165575, "bike_id": "a75b9d2246912c3f5e7f883ff8cc4043", "type": "electric_scooter", "is_reserved": 0, "lon": -77.02819883333333}, {"fusion_lat": 0.0, "name": "192ad915d9888afdfee18c9e3fa859ad", "is_disabled": 0, "rental_uris": {"android": "https://dc.lft.to/lastmile_qr_scan", "ios": "https://dc.lft.to/lastmile_qr_scan"}, "fusion_lon": 0.0, "lat": 38.93698333333333, "bike_id": "192ad915d9888afdfee18c9e3fa859ad", "type": "electric_scooter", "is_reserved": 0, "lon": -77.02399}, {"fusion_lat": 0.0, "name": "b04771414c4f0c8e93dfcd4bf772c9d0", "is_disabled": 0, "rental_uris": {"android": "https://dc.lft.to/lastmile_qr_scan", "ios": "https://dc.lft.to/lastmile_qr_scan"}, "fusion_lon": 0.0, "lat": 38.8876535, "bike_id": "b04771414c4f0c8e93dfcd4bf772c9d0", "type": "electric_scooter", "is_reserved": 0, "lon": -76.99464733333333}, {"fusion_lat": 0.0, "name": "de5b5f3127ef2d1e20e662ba4da3b160", "is_disabled": 0, "rental_uris": {"android": "https://dc.lft.to/lastmile_qr_scan", "ios": "https://dc.lft.to/lastmile_qr_scan"}, "fusion_lon": 0.0, "lat": 38.92654066666667, "bike_id": "de5b5f3127ef2d1e20e662ba4da3b160", "type": "electric_scooter", "is_reserved": 0, "lon": -77.0371225}, {"fusion_lat": 0.0, "name": "4bd23d0835acb2d796d8679edf74c2aa", "is_disabled": 0, "rental_uris": {"android": "https://dc.lft.to/lastmile_qr_scan", "ios": "https://dc.lft.to/lastmile_qr_scan"}, "fusion_lon": 0.0, "lat": 38.91848533333334, "bike_id": "4bd23d0835acb2d796d8679edf74c2aa", "type": "electric_scooter", "is_reserved": 0, "lon": -76.96546016666667}, {"fusion_lat": 0.0, "name": "665afc685931b1eec51e1f19d617dd5a", "is_disabled": 0, "rental_uris": {"android": "https://dc.lft.to/lastmile_qr_scan", "ios": "https://dc.lft.to/lastmile_qr_scan"}, "fusion_lon": 0.0, "lat": 38.92169283333333, "bike_id": "665afc685931b1eec51e1f19d617dd5a", "type": "electric_scooter", "is_reserved": 0, "lon": -77.03652533333333}, {"fusion_lat": 0.0, "name": "5182ecec152ffb8ddfef01cce6a49fe9", "is_disabled": 0, "rental_uris": {"android": "https://dc.lft.to/lastmile_qr_scan", "ios": "https://dc.lft.to/lastmile_qr_scan"}, "fusion_lon": 0.0, "lat": 38.90259916666667, "bike_id": "5182ecec152ffb8ddfef01cce6a49fe9", "type": "electric_scooter", "is_reserved": 0, "lon": -77.01863116666667}, {"fusion_lat": 0.0, "name": "63bfad06e82bec4b7801b79c07132264", "is_disabled": 0, "rental_uris": {"android": "https://dc.lft.to/lastmile_qr_scan", "ios": "https://dc.lft.to/lastmile_qr_scan"}, "fusion_lon": 0.0, "lat": 38.90103383333334, "bike_id": "63bfad06e82bec4b7801b79c07132264", "type": "electric_scooter", "is_reserved": 0, "lon": -77.02482766666667}, {"fusion_lat": 0.0, "name": "3fe8193afcfab4ddcf2b3b26c8fd69d9", "is_disabled": 0, "rental_uris": {"android": "https://dc.lft.to/lastmile_qr_scan", "ios": "https://dc.lft.to/lastmile_qr_scan"}, "fusion_lon": 0.0, "lat": 38.924795833333334, "bike_id": "3fe8193afcfab4ddcf2b3b26c8fd69d9", "type": "electric_scooter", "is_reserved": 0, "lon": -77.02832933333333}, {"fusion_lat": 0.0, "name": "e1b72088d20bb27816de7a434fbcc5cf", "is_disabled": 0, "rental_uris": {"android": "https://dc.lft.to/lastmile_qr_scan", "ios": "https://dc.lft.to/lastmile_qr_scan"}, "fusion_lon": 0.0, "lat": 38.90133316666667, "bike_id": "e1b72088d20bb27816de7a434fbcc5cf", "type": "electric_scooter", "is_reserved": 0, "lon": -77.0028605}, {"fusion_lat": 0.0, "name": "b5ef9aee4c31b58e9eb6063682ddfa53", "is_disabled": 0, "rental_uris": {"android": "https://dc.lft.to/lastmile_qr_scan", "ios": "https://dc.lft.to/lastmile_qr_scan"}, "fusion_lon": 0.0, "lat": 38.90005283333333, "bike_id": "b5ef9aee4c31b58e9eb6063682ddfa53", "type": "electric_scooter", "is_reserved": 0, "lon": -76.997671}, {"fusion_lat": 0.0, "name": "b7f06475b862edb8d1644629e539aa62", "is_disabled": 0, "rental_uris": {"android": "https://dc.lft.to/lastmile_qr_scan", "ios": "https://dc.lft.to/lastmile_qr_scan"}, "fusion_lon": 0.0, "lat": 38.91357883333333, "bike_id": "b7f06475b862edb8d1644629e539aa62", "type": "electric_scooter", "is_reserved": 0, "lon": -77.0333135}, {"fusion_lat": 0.0, "name": "8ae37b62fd03875a8fed68004065ccdc", "is_disabled": 0, "rental_uris": {"android": "https://dc.lft.to/lastmile_qr_scan", "ios": "https://dc.lft.to/lastmile_qr_scan"}, "fusion_lon": 0.0, "lat": 38.9847785, "bike_id": "8ae37b62fd03875a8fed68004065ccdc", "type": "electric_scooter", "is_reserved": 0, "lon": -77.026413}, {"fusion_lat": 0.0, "name": "4412f7c7d0b1baef8f03810790b4cecb", "is_disabled": 0, "rental_uris": {"android": "https://dc.lft.to/lastmile_qr_scan", "ios": "https://dc.lft.to/lastmile_qr_scan"}, "fusion_lon": 0.0, "lat": 38.84755766666667, "bike_id": "4412f7c7d0b1baef8f03810790b4cecb", "type": "electric_scooter", "is_reserved": 0, "lon": -76.99498033333333}, {"fusion_lat": 0.0, "name": "0de5fb8949e2467b7c1e6f2050d29ff2", "is_disabled": 0, "rental_uris": {"android": "https://dc.lft.to/lastmile_qr_scan", "ios": "https://dc.lft.to/lastmile_qr_scan"}, "fusion_lon": 0.0, "lat": 39.052523666666666, "bike_id": "0de5fb8949e2467b7c1e6f2050d29ff2", "type": "electric_bike", "is_reserved": 0, "lon": -77.08066416666666}, {"fusion_lat": 0.0, "name": "cda89e7b8c6c759b9e4cd37709b748a2", "is_disabled": 0, "rental_uris": {"android": "https://dc.lft.to/lastmile_qr_scan", "ios": "https://dc.lft.to/lastmile_qr_scan"}, "fusion_lon": 0.0, "lat": 38.8987465, "bike_id": "cda89e7b8c6c759b9e4cd37709b748a2", "type": "electric_scooter", "is_reserved": 0, "lon": -76.93186116666666}, {"fusion_lat": 0.0, "name": "e0f1558f0a39ac5a676ead89a34be754", "is_disabled": 0, "rental_uris": {"android": "https://dc.lft.to/lastmile_qr_scan", "ios": "https://dc.lft.to/lastmile_qr_scan"}, "fusion_lon": 0.0, "lat": 38.902444, "bike_id": "e0f1558f0a39ac5a676ead89a34be754", "type": "electric_scooter", "is_reserved": 0, "lon": -77.00772316666666}, {"fusion_lat": 0.0, "name": "b9dd9d3e4746209496080bef8af7c2d8", "is_disabled": 0, "rental_uris": {"android": "https://dc.lft.to/lastmile_qr_scan", "ios": "https://dc.lft.to/lastmile_qr_scan"}, "fusion_lon": 0.0, "lat": 38.93354683333333, "bike_id": "b9dd9d3e4746209496080bef8af7c2d8", "type": "electric_scooter", "is_reserved": 0, "lon": -77.024198}, {"fusion_lat": 0.0, "name": "8f816aae4dac424d57d644031d6f012b", "is_disabled": 0, "rental_uris": {"android": "https://dc.lft.to/lastmile_qr_scan", "ios": "https://dc.lft.to/lastmile_qr_scan"}, "fusion_lon": 0.0, "lat": 38.90811516666667, "bike_id": "8f816aae4dac424d57d644031d6f012b", "type": "electric_scooter", "is_reserved": 0, "lon": -77.03435216666666}, {"fusion_lat": 0.0, "name": "822d2fc0d947cb67d5cfe5a57f4e50e1", "is_disabled": 0, "rental_uris": {"android": "https://dc.lft.to/lastmile_qr_scan", "ios": "https://dc.lft.to/lastmile_qr_scan"}, "fusion_lon": 0.0, "lat": 38.8971435, "bike_id": "822d2fc0d947cb67d5cfe5a57f4e50e1", "type": "electric_scooter", "is_reserved": 0, "lon": -77.02714816666666}, {"fusion_lat": 0.0, "name": "5ef54b0731aa29205a2d0d96166248ea", "is_disabled": 0, "rental_uris": {"android": "https://dc.lft.to/lastmile_qr_scan", "ios": "https://dc.lft.to/lastmile_qr_scan"}, "fusion_lon": 0.0, "lat": 38.89225833333333, "bike_id": "5ef54b0731aa29205a2d0d96166248ea", "type": "electric_scooter", "is_reserved": 0, "lon": -77.027782}, {"fusion_lat": 0.0, "name": "f9df6cc7da403278b2e3690eb6e15fb3", "is_disabled": 0, "rental_uris": {"android": "https://dc.lft.to/lastmile_qr_scan", "ios": "https://dc.lft.to/lastmile_qr_scan"}, "fusion_lon": 0.0, "lat": 38.935218666666664, "bike_id": "f9df6cc7da403278b2e3690eb6e15fb3", "type": "electric_scooter", "is_reserved": 0, "lon": -77.07260383333333}, {"fusion_lat": 0.0, "name": "5ff10ccc78c80f4f76210348ddb6de3d", "is_disabled": 0, "rental_uris": {"android": "https://dc.lft.to/lastmile_qr_scan", "ios": "https://dc.lft.to/lastmile_qr_scan"}, "fusion_lon": 0.0, "lat": 38.91570466666667, "bike_id": "5ff10ccc78c80f4f76210348ddb6de3d", "type": "electric_scooter", "is_reserved": 0, "lon": -77.03853783333334}, {"fusion_lat": 0.0, "name": "e5fd2b5cab02043c274065db04483230", "is_disabled": 0, "rental_uris": {"android": "https://dc.lft.to/lastmile_qr_scan", "ios": "https://dc.lft.to/lastmile_qr_scan"}, "fusion_lon": 0.0, "lat": 38.89440483333333, "bike_id": "e5fd2b5cab02043c274065db04483230", "type": "electric_scooter", "is_reserved": 0, "lon": -76.93676366666666}, {"fusion_lat": 0.0, "name": "7ad03db3487273f17b0cbed264291d1f", "is_disabled": 0, "rental_uris": {"android": "https://dc.lft.to/lastmile_qr_scan", "ios": "https://dc.lft.to/lastmile_qr_scan"}, "fusion_lon": 0.0, "lat": 38.898517, "bike_id": "7ad03db3487273f17b0cbed264291d1f", "type": "electric_scooter", "is_reserved": 0, "lon": -76.99035333333333}, {"fusion_lat": 0.0, "name": "dbcb31150410411a2814bc0af3754f9e", "is_disabled": 0, "rental_uris": {"android": "https://dc.lft.to/lastmile_qr_scan", "ios": "https://dc.lft.to/lastmile_qr_scan"}, "fusion_lon": 0.0, "lat": 38.91365233333333, "bike_id": "dbcb31150410411a2814bc0af3754f9e", "type": "electric_scooter", "is_reserved": 0, "lon": -77.045488}, {"fusion_lat": 0.0, "name": "23c5a24234414cb0516eb0f669800187", "is_disabled": 0, "rental_uris": {"android": "https://dc.lft.to/lastmile_qr_scan", "ios": "https://dc.lft.to/lastmile_qr_scan"}, "fusion_lon": 0.0, "lat": 38.887497, "bike_id": "23c5a24234414cb0516eb0f669800187", "type": "electric_scooter", "is_reserved": 0, "lon": -77.03163183333334}, {"fusion_lat": 0.0, "name": "732b52c96cb9e1a8b1d2963040ea99b8", "is_disabled": 0, "rental_uris": {"android": "https://dc.lft.to/lastmile_qr_scan", "ios": "https://dc.lft.to/lastmile_qr_scan"}, "fusion_lon": 0.0, "lat": 38.93188883333333, "bike_id": "732b52c96cb9e1a8b1d2963040ea99b8", "type": "electric_scooter", "is_reserved": 0, "lon": -77.042971}, {"fusion_lat": 0.0, "name": "9542056f2df5d44e69e9a0bf5001ae49", "is_disabled": 0, "rental_uris": {"android": "https://dc.lft.to/lastmile_qr_scan", "ios": "https://dc.lft.to/lastmile_qr_scan"}, "fusion_lon": 0.0, "lat": 38.905718, "bike_id": "9542056f2df5d44e69e9a0bf5001ae49", "type": "electric_scooter", "is_reserved": 0, "lon": -77.06255183333333}, {"fusion_lat": 0.0, "name": "c76299e23a7d56ce8677790441f13378", "is_disabled": 0, "rental_uris": {"android": "https://dc.lft.to/lastmile_qr_scan", "ios": "https://dc.lft.to/lastmile_qr_scan"}, "fusion_lon": 0.0, "lat": 38.90554683333333, "bike_id": "c76299e23a7d56ce8677790441f13378", "type": "electric_scooter", "is_reserved": 0, "lon": -77.04655183333334}, {"fusion_lat": 0.0, "name": "448cbde8b6e4c56756d5e8725c08317b", "is_disabled": 0, "rental_uris": {"android": "https://dc.lft.to/lastmile_qr_scan", "ios": "https://dc.lft.to/lastmile_qr_scan"}, "fusion_lon": 0.0, "lat": 38.841337333333335, "bike_id": "448cbde8b6e4c56756d5e8725c08317b", "type": "electric_bike", "is_reserved": 0, "lon": -76.9476}, {"fusion_lat": 0.0, "name": "7988b3f7e172da42d20c14ca1b936364", "is_disabled": 0, "rental_uris": {"android": "https://dc.lft.to/lastmile_qr_scan", "ios": "https://dc.lft.to/lastmile_qr_scan"}, "fusion_lon": 0.0, "lat": 38.8844675, "bike_id": "7988b3f7e172da42d20c14ca1b936364", "type": "electric_scooter", "is_reserved": 0, "lon": -77.02513283333333}, {"fusion_lat": 0.0, "name": "848b6271e73a2136729bff5dc78624f4", "is_disabled": 0, "rental_uris": {"android": "https://dc.lft.to/lastmile_qr_scan", "ios": "https://dc.lft.to/lastmile_qr_scan"}, "fusion_lon": 0.0, "lat": 38.8872585, "bike_id": "848b6271e73a2136729bff5dc78624f4", "type": "electric_scooter", "is_reserved": 0, "lon": -76.98353133333333}, {"fusion_lat": 0.0, "name": "618f94cddeec0c297bfe28ee7960ea19", "is_disabled": 0, "rental_uris": {"android": "https://dc.lft.to/lastmile_qr_scan", "ios": "https://dc.lft.to/lastmile_qr_scan"}, "fusion_lon": 0.0, "lat": 38.925408166666664, "bike_id": "618f94cddeec0c297bfe28ee7960ea19", "type": "electric_scooter", "is_reserved": 0, "lon": -77.05119916666666}, {"fusion_lat": 0.0, "name": "f236db0f2f905312c19e91979ed3ae81", "is_disabled": 0, "rental_uris": {"android": "https://dc.lft.to/lastmile_qr_scan", "ios": "https://dc.lft.to/lastmile_qr_scan"}, "fusion_lon": 0.0, "lat": 38.922552, "bike_id": "f236db0f2f905312c19e91979ed3ae81", "type": "electric_scooter", "is_reserved": 0, "lon": -77.05082366666667}, {"fusion_lat": 0.0, "name": "d2dd21512448fd11ffb719981c88e61a", "is_disabled": 0, "rental_uris": {"android": "https://dc.lft.to/lastmile_qr_scan", "ios": "https://dc.lft.to/lastmile_qr_scan"}, "fusion_lon": 0.0, "lat": 38.92901666666667, "bike_id": "d2dd21512448fd11ffb719981c88e61a", "type": "electric_scooter", "is_reserved": 0, "lon": -77.05454433333334}, {"fusion_lat": 0.0, "name": "8c3f8c3a231f42c7f962c3b3755ee4ff", "is_disabled": 0, "rental_uris": {"android": "https://dc.lft.to/lastmile_qr_scan", "ios": "https://dc.lft.to/lastmile_qr_scan"}, "fusion_lon": 0.0, "lat": 38.917058833333336, "bike_id": "8c3f8c3a231f42c7f962c3b3755ee4ff", "type": "electric_scooter", "is_reserved": 0, "lon": -77.02897916666667}, {"fusion_lat": 0.0, "name": "fec033bc132f6d519d0ef8a9ff9192c9", "is_disabled": 0, "rental_uris": {"android": "https://dc.lft.to/lastmile_qr_scan", "ios": "https://dc.lft.to/lastmile_qr_scan"}, "fusion_lon": 0.0, "lat": 38.887538, "bike_id": "fec033bc132f6d519d0ef8a9ff9192c9", "type": "electric_scooter", "is_reserved": 0, "lon": -77.00258216666667}, {"fusion_lat": 0.0, "name": "510068691bb24bffbbaf2a1633d301fc", "is_disabled": 0, "rental_uris": {"android": "https://dc.lft.to/lastmile_qr_scan", "ios": "https://dc.lft.to/lastmile_qr_scan"}, "fusion_lon": 0.0, "lat": 38.876345, "bike_id": "510068691bb24bffbbaf2a1633d301fc", "type": "electric_scooter", "is_reserved": 0, "lon": -77.0164855}, {"fusion_lat": 0.0, "name": "53d077777dc440edb0d5691fddcfe3b2", "is_disabled": 0, "rental_uris": {"android": "https://dc.lft.to/lastmile_qr_scan", "ios": "https://dc.lft.to/lastmile_qr_scan"}, "fusion_lon": 0.0, "lat": 38.8839025, "bike_id": "53d077777dc440edb0d5691fddcfe3b2", "type": "electric_scooter", "is_reserved": 0, "lon": -76.93046866666667}, {"fusion_lat": 0.0, "name": "006df659bef8c8f2275fb156935f6438", "is_disabled": 0, "rental_uris": {"android": "https://dc.lft.to/lastmile_qr_scan", "ios": "https://dc.lft.to/lastmile_qr_scan"}, "fusion_lon": 0.0, "lat": 38.90771216666667, "bike_id": "006df659bef8c8f2275fb156935f6438", "type": "electric_scooter", "is_reserved": 0, "lon": -77.032117}, {"fusion_lat": 0.0, "name": "57e7a5d404bfb8b26382782a18112b07", "is_disabled": 0, "rental_uris": {"android": "https://dc.lft.to/lastmile_qr_scan", "ios": "https://dc.lft.to/lastmile_qr_scan"}, "fusion_lon": 0.0, "lat": 38.909517, "bike_id": "57e7a5d404bfb8b26382782a18112b07", "type": "electric_scooter", "is_reserved": 0, "lon": -77.0271425}, {"fusion_lat": 0.0, "name": "0dcfa825f95d4e9f49d0cadf65312fbd", "is_disabled": 0, "rental_uris": {"android": "https://dc.lft.to/lastmile_qr_scan", "ios": "https://dc.lft.to/lastmile_qr_scan"}, "fusion_lon": 0.0, "lat": 38.9056265, "bike_id": "0dcfa825f95d4e9f49d0cadf65312fbd", "type": "electric_scooter", "is_reserved": 0, "lon": -77.0308135}, {"fusion_lat": 0.0, "name": "e5d5d1f2e5a753ed4de75ba1f1d98219", "is_disabled": 0, "rental_uris": {"android": "https://dc.lft.to/lastmile_qr_scan", "ios": "https://dc.lft.to/lastmile_qr_scan"}, "fusion_lon": 0.0, "lat": 38.89826266666667, "bike_id": "e5d5d1f2e5a753ed4de75ba1f1d98219", "type": "electric_scooter", "is_reserved": 0, "lon": -77.02707466666666}, {"fusion_lat": 0.0, "name": "29c7341d1eb77e19a9e8929c7cd74cca", "is_disabled": 0, "rental_uris": {"android": "https://dc.lft.to/lastmile_qr_scan", "ios": "https://dc.lft.to/lastmile_qr_scan"}, "fusion_lon": 0.0, "lat": 38.85770316666667, "bike_id": "29c7341d1eb77e19a9e8929c7cd74cca", "type": "electric_bike", "is_reserved": 0, "lon": -76.98766316666666}, {"fusion_lat": 0.0, "name": "65f50b0e859089f7daa07969e8ee6109", "is_disabled": 0, "rental_uris": {"android": "https://dc.lft.to/lastmile_qr_scan", "ios": "https://dc.lft.to/lastmile_qr_scan"}, "fusion_lon": 0.0, "lat": 38.94734583333333, "bike_id": "65f50b0e859089f7daa07969e8ee6109", "type": "electric_scooter", "is_reserved": 0, "lon": -77.06529266666666}, {"fusion_lat": 0.0, "name": "28af4587bd5ff561a3f8fdfe62732fc8", "is_disabled": 0, "rental_uris": {"android": "https://dc.lft.to/lastmile_qr_scan", "ios": "https://dc.lft.to/lastmile_qr_scan"}, "fusion_lon": 0.0, "lat": 38.91068683333334, "bike_id": "28af4587bd5ff561a3f8fdfe62732fc8", "type": "electric_scooter", "is_reserved": 0, "lon": -77.02214366666666}, {"fusion_lat": 0.0, "name": "a8e77b9c0fc1e34e0b069c76c3ca83f4", "is_disabled": 0, "rental_uris": {"android": "https://dc.lft.to/lastmile_qr_scan", "ios": "https://dc.lft.to/lastmile_qr_scan"}, "fusion_lon": 0.0, "lat": 38.90417516666667, "bike_id": "a8e77b9c0fc1e34e0b069c76c3ca83f4", "type": "electric_scooter", "is_reserved": 0, "lon": -77.02559916666667}, {"fusion_lat": 0.0, "name": "b8a036ec3ce60f50571c33198d3db014", "is_disabled": 0, "rental_uris": {"android": "https://dc.lft.to/lastmile_qr_scan", "ios": "https://dc.lft.to/lastmile_qr_scan"}, "fusion_lon": 0.0, "lat": 38.908918, "bike_id": "b8a036ec3ce60f50571c33198d3db014", "type": "electric_scooter", "is_reserved": 0, "lon": -77.044031}, {"fusion_lat": 0.0, "name": "083cf5b535bd5b3a09df5b843c37a278", "is_disabled": 0, "rental_uris": {"android": "https://dc.lft.to/lastmile_qr_scan", "ios": "https://dc.lft.to/lastmile_qr_scan"}, "fusion_lon": 0.0, "lat": 38.916096, "bike_id": "083cf5b535bd5b3a09df5b843c37a278", "type": "electric_scooter", "is_reserved": 0, "lon": -77.0173085}, {"fusion_lat": 0.0, "name": "3607aea67c2f7a7c7f19e0d4bbfa093a", "is_disabled": 0, "rental_uris": {"android": "https://dc.lft.to/lastmile_qr_scan", "ios": "https://dc.lft.to/lastmile_qr_scan"}, "fusion_lon": 0.0, "lat": 38.905271, "bike_id": "3607aea67c2f7a7c7f19e0d4bbfa093a", "type": "electric_scooter", "is_reserved": 0, "lon": -77.06382966666666}, {"fusion_lat": 0.0, "name": "ea1c009b2d997dbe81c539f9a123d078", "is_disabled": 0, "rental_uris": {"android": "https://dc.lft.to/lastmile_qr_scan", "ios": "https://dc.lft.to/lastmile_qr_scan"}, "fusion_lon": 0.0, "lat": 38.895472833333336, "bike_id": "ea1c009b2d997dbe81c539f9a123d078", "type": "electric_scooter", "is_reserved": 0, "lon": -77.01112266666667}, {"fusion_lat": 0.0, "name": "3e6ca9d3492aad762778dbb04206ace2", "is_disabled": 0, "rental_uris": {"android": "https://dc.lft.to/lastmile_qr_scan", "ios": "https://dc.lft.to/lastmile_qr_scan"}, "fusion_lon": 0.0, "lat": 38.940872666666664, "bike_id": "3e6ca9d3492aad762778dbb04206ace2", "type": "electric_scooter", "is_reserved": 0, "lon": -77.06183266666666}, {"fusion_lat": 0.0, "name": "30317c37f47d439de3d3db41a1afcbbb", "is_disabled": 0, "rental_uris": {"android": "https://dc.lft.to/lastmile_qr_scan", "ios": "https://dc.lft.to/lastmile_qr_scan"}, "fusion_lon": 0.0, "lat": 38.94186766666667, "bike_id": "30317c37f47d439de3d3db41a1afcbbb", "type": "electric_scooter", "is_reserved": 0, "lon": -77.02318383333333}, {"fusion_lat": 0.0, "name": "9dfdd7e7d195456a10ef308c2d3abe6e", "is_disabled": 0, "rental_uris": {"android": "https://dc.lft.to/lastmile_qr_scan", "ios": "https://dc.lft.to/lastmile_qr_scan"}, "fusion_lon": 0.0, "lat": 38.916346, "bike_id": "9dfdd7e7d195456a10ef308c2d3abe6e", "type": "electric_bike", "is_reserved": 0, "lon": -77.042547}, {"fusion_lat": 0.0, "name": "0ddd725bb2e6d9541bc1a1a52f5d6626", "is_disabled": 0, "rental_uris": {"android": "https://dc.lft.to/lastmile_qr_scan", "ios": "https://dc.lft.to/lastmile_qr_scan"}, "fusion_lon": 0.0, "lat": 38.916896666666666, "bike_id": "0ddd725bb2e6d9541bc1a1a52f5d6626", "type": "electric_scooter", "is_reserved": 0, "lon": -77.02882016666666}, {"fusion_lat": 0.0, "name": "974f8f7487f729978fad5428f68aab2d", "is_disabled": 0, "rental_uris": {"android": "https://dc.lft.to/lastmile_qr_scan", "ios": "https://dc.lft.to/lastmile_qr_scan"}, "fusion_lon": 0.0, "lat": 38.915888833333334, "bike_id": "974f8f7487f729978fad5428f68aab2d", "type": "electric_scooter", "is_reserved": 0, "lon": -77.04346216666667}, {"fusion_lat": 0.0, "name": "f0daea5713fcb1c3b238be51cb448499", "is_disabled": 0, "rental_uris": {"android": "https://dc.lft.to/lastmile_qr_scan", "ios": "https://dc.lft.to/lastmile_qr_scan"}, "fusion_lon": 0.0, "lat": 38.88744783333333, "bike_id": "f0daea5713fcb1c3b238be51cb448499", "type": "electric_scooter", "is_reserved": 0, "lon": -77.02576366666666}, {"fusion_lat": 0.0, "name": "49252828b6fa82439cb0c2a08d2db79e", "is_disabled": 0, "rental_uris": {"android": "https://dc.lft.to/lastmile_qr_scan", "ios": "https://dc.lft.to/lastmile_qr_scan"}, "fusion_lon": 0.0, "lat": 38.90665583333333, "bike_id": "49252828b6fa82439cb0c2a08d2db79e", "type": "electric_scooter", "is_reserved": 0, "lon": -77.009725}, {"fusion_lat": 0.0, "name": "1f9cd9b9023df1d2b2d40d55c6f5ea8e", "is_disabled": 0, "rental_uris": {"android": "https://dc.lft.to/lastmile_qr_scan", "ios": "https://dc.lft.to/lastmile_qr_scan"}, "fusion_lon": 0.0, "lat": 38.921506, "bike_id": "1f9cd9b9023df1d2b2d40d55c6f5ea8e", "type": "electric_scooter", "is_reserved": 0, "lon": -77.04367633333334}, {"fusion_lat": 0.0, "name": "0b002e752034efc62a03d8f4329afbba", "is_disabled": 0, "rental_uris": {"android": "https://dc.lft.to/lastmile_qr_scan", "ios": "https://dc.lft.to/lastmile_qr_scan"}, "fusion_lon": 0.0, "lat": 38.895457666666665, "bike_id": "0b002e752034efc62a03d8f4329afbba", "type": "electric_scooter", "is_reserved": 0, "lon": -77.011138}, {"fusion_lat": 0.0, "name": "68e12dc6315701571a288d0959d42f74", "is_disabled": 0, "rental_uris": {"android": "https://dc.lft.to/lastmile_qr_scan", "ios": "https://dc.lft.to/lastmile_qr_scan"}, "fusion_lon": 0.0, "lat": 38.919627, "bike_id": "68e12dc6315701571a288d0959d42f74", "type": "electric_scooter", "is_reserved": 0, "lon": -76.95683433333333}, {"fusion_lat": 0.0, "name": "ea99ec2fc5c2f86370ba4e51b2a4c50e", "is_disabled": 0, "rental_uris": {"android": "https://dc.lft.to/lastmile_qr_scan", "ios": "https://dc.lft.to/lastmile_qr_scan"}, "fusion_lon": 0.0, "lat": 38.90303733333333, "bike_id": "ea99ec2fc5c2f86370ba4e51b2a4c50e", "type": "electric_scooter", "is_reserved": 0, "lon": -77.0221915}, {"fusion_lat": 0.0, "name": "ba73e26890ea0d22a0b651b1746386bd", "is_disabled": 0, "rental_uris": {"android": "https://dc.lft.to/lastmile_qr_scan", "ios": "https://dc.lft.to/lastmile_qr_scan"}, "fusion_lon": 0.0, "lat": 38.81334066666667, "bike_id": "ba73e26890ea0d22a0b651b1746386bd", "type": "electric_bike", "is_reserved": 0, "lon": -77.05097033333334}, {"fusion_lat": 0.0, "name": "a51e13826ed67fa8fd264c7f824ea0b2", "is_disabled": 0, "rental_uris": {"android": "https://dc.lft.to/lastmile_qr_scan", "ios": "https://dc.lft.to/lastmile_qr_scan"}, "fusion_lon": 0.0, "lat": 38.902619, "bike_id": "a51e13826ed67fa8fd264c7f824ea0b2", "type": "electric_scooter", "is_reserved": 0, "lon": -77.038393}, {"fusion_lat": 0.0, "name": "e9d61db0a64e4b8b47871c6bde2ff16f", "is_disabled": 0, "rental_uris": {"android": "https://dc.lft.to/lastmile_qr_scan", "ios": "https://dc.lft.to/lastmile_qr_scan"}, "fusion_lon": 0.0, "lat": 38.9104595, "bike_id": "e9d61db0a64e4b8b47871c6bde2ff16f", "type": "electric_scooter", "is_reserved": 0, "lon": -77.01287283333333}, {"fusion_lat": 0.0, "name": "90326b2e067c233c2af5efdb8e40ea5d", "is_disabled": 0, "rental_uris": {"android": "https://dc.lft.to/lastmile_qr_scan", "ios": "https://dc.lft.to/lastmile_qr_scan"}, "fusion_lon": 0.0, "lat": 38.89988966666667, "bike_id": "90326b2e067c233c2af5efdb8e40ea5d", "type": "electric_scooter", "is_reserved": 0, "lon": -77.02925633333334}, {"fusion_lat": 0.0, "name": "5ecef923e9297991c34b8892a8cbbe4b", "is_disabled": 0, "rental_uris": {"android": "https://dc.lft.to/lastmile_qr_scan", "ios": "https://dc.lft.to/lastmile_qr_scan"}, "fusion_lon": 0.0, "lat": 38.956343833333335, "bike_id": "5ecef923e9297991c34b8892a8cbbe4b", "type": "electric_scooter", "is_reserved": 0, "lon": -77.0330385}, {"fusion_lat": 0.0, "name": "bd566341ed084feb1fc5afb54e34c3f7", "is_disabled": 0, "rental_uris": {"android": "https://dc.lft.to/lastmile_qr_scan", "ios": "https://dc.lft.to/lastmile_qr_scan"}, "fusion_lon": 0.0, "lat": 38.92341066666667, "bike_id": "bd566341ed084feb1fc5afb54e34c3f7", "type": "electric_scooter", "is_reserved": 0, "lon": -77.035364}, {"fusion_lat": 0.0, "name": "dbe9974c18e597f04d5456294def7c18", "is_disabled": 0, "rental_uris": {"android": "https://dc.lft.to/lastmile_qr_scan", "ios": "https://dc.lft.to/lastmile_qr_scan"}, "fusion_lon": 0.0, "lat": 38.906270166666665, "bike_id": "dbe9974c18e597f04d5456294def7c18", "type": "electric_scooter", "is_reserved": 0, "lon": -77.02977033333333}, {"fusion_lat": 0.0, "name": "121da7f9f03a5293f49ebe7020762d0d", "is_disabled": 0, "rental_uris": {"android": "https://dc.lft.to/lastmile_qr_scan", "ios": "https://dc.lft.to/lastmile_qr_scan"}, "fusion_lon": 0.0, "lat": 38.914876, "bike_id": "121da7f9f03a5293f49ebe7020762d0d", "type": "electric_bike", "is_reserved": 0, "lon": -77.01779083333334}, {"fusion_lat": 0.0, "name": "76dba58c96095400a4eddee42c34e7e3", "is_disabled": 0, "rental_uris": {"android": "https://dc.lft.to/lastmile_qr_scan", "ios": "https://dc.lft.to/lastmile_qr_scan"}, "fusion_lon": 0.0, "lat": 38.920786, "bike_id": "76dba58c96095400a4eddee42c34e7e3", "type": "electric_scooter", "is_reserved": 0, "lon": -77.023023}, {"fusion_lat": 0.0, "name": "4e8a711eeac1d4bc06ce964a07288fcf", "is_disabled": 0, "rental_uris": {"android": "https://dc.lft.to/lastmile_qr_scan", "ios": "https://dc.lft.to/lastmile_qr_scan"}, "fusion_lon": 0.0, "lat": 38.9587655, "bike_id": "4e8a711eeac1d4bc06ce964a07288fcf", "type": "electric_bike", "is_reserved": 0, "lon": -76.970582}, {"fusion_lat": 0.0, "name": "ec137ab19e59adfe08091826c732da62", "is_disabled": 0, "rental_uris": {"android": "https://dc.lft.to/lastmile_qr_scan", "ios": "https://dc.lft.to/lastmile_qr_scan"}, "fusion_lon": 0.0, "lat": 38.8995735, "bike_id": "ec137ab19e59adfe08091826c732da62", "type": "electric_scooter", "is_reserved": 0, "lon": -77.01512183333334}, {"fusion_lat": 0.0, "name": "66ae542e14a0e8d5c6119b477e1143b5", "is_disabled": 0, "rental_uris": {"android": "https://dc.lft.to/lastmile_qr_scan", "ios": "https://dc.lft.to/lastmile_qr_scan"}, "fusion_lon": 0.0, "lat": 38.90786816666667, "bike_id": "66ae542e14a0e8d5c6119b477e1143b5", "type": "electric_scooter", "is_reserved": 0, "lon": -77.0385655}, {"fusion_lat": 0.0, "name": "594b5240061a98ea36f45ba82de5e333", "is_disabled": 0, "rental_uris": {"android": "https://dc.lft.to/lastmile_qr_scan", "ios": "https://dc.lft.to/lastmile_qr_scan"}, "fusion_lon": 0.0, "lat": 38.95211166666667, "bike_id": "594b5240061a98ea36f45ba82de5e333", "type": "electric_bike", "is_reserved": 0, "lon": -77.0026595}, {"fusion_lat": 0.0, "name": "a3d792304cb5c9d8a90e00cbfef4f83c", "is_disabled": 0, "rental_uris": {"android": "https://dc.lft.to/lastmile_qr_scan", "ios": "https://dc.lft.to/lastmile_qr_scan"}, "fusion_lon": 0.0, "lat": 38.936070666666666, "bike_id": "a3d792304cb5c9d8a90e00cbfef4f83c", "type": "electric_scooter", "is_reserved": 0, "lon": -77.02293916666666}, {"fusion_lat": 0.0, "name": "0aae192c704246423182896400024d2c", "is_disabled": 0, "rental_uris": {"android": "https://dc.lft.to/lastmile_qr_scan", "ios": "https://dc.lft.to/lastmile_qr_scan"}, "fusion_lon": 0.0, "lat": 38.919843666666665, "bike_id": "0aae192c704246423182896400024d2c", "type": "electric_scooter", "is_reserved": 0, "lon": -77.03326616666666}, {"fusion_lat": 0.0, "name": "aa2437aefe2eeb1a710fe26b6c1556a9", "is_disabled": 0, "rental_uris": {"android": "https://dc.lft.to/lastmile_qr_scan", "ios": "https://dc.lft.to/lastmile_qr_scan"}, "fusion_lon": 0.0, "lat": 38.924711333333335, "bike_id": "aa2437aefe2eeb1a710fe26b6c1556a9", "type": "electric_scooter", "is_reserved": 0, "lon": -77.02074166666667}, {"fusion_lat": 0.0, "name": "2d7b2ade44fb1e26c2ea379c68f3bfa1", "is_disabled": 0, "rental_uris": {"android": "https://dc.lft.to/lastmile_qr_scan", "ios": "https://dc.lft.to/lastmile_qr_scan"}, "fusion_lon": 0.0, "lat": 38.892148666666664, "bike_id": "2d7b2ade44fb1e26c2ea379c68f3bfa1", "type": "electric_scooter", "is_reserved": 0, "lon": -77.03214083333333}, {"fusion_lat": 0.0, "name": "6f62fa9379f4dec2b88826dff0d9376c", "is_disabled": 0, "rental_uris": {"android": "https://dc.lft.to/lastmile_qr_scan", "ios": "https://dc.lft.to/lastmile_qr_scan"}, "fusion_lon": 0.0, "lat": 38.89874866666667, "bike_id": "6f62fa9379f4dec2b88826dff0d9376c", "type": "electric_scooter", "is_reserved": 0, "lon": -76.93183366666666}, {"fusion_lat": 0.0, "name": "bb90f2fedaee944a204d0ec8eb8c7101", "is_disabled": 0, "rental_uris": {"android": "https://dc.lft.to/lastmile_qr_scan", "ios": "https://dc.lft.to/lastmile_qr_scan"}, "fusion_lon": 0.0, "lat": 38.906731, "bike_id": "bb90f2fedaee944a204d0ec8eb8c7101", "type": "electric_scooter", "is_reserved": 0, "lon": -77.0218895}, {"fusion_lat": 0.0, "name": "2c7a36bb137b88d2a73e37f5311d3470", "is_disabled": 0, "rental_uris": {"android": "https://dc.lft.to/lastmile_qr_scan", "ios": "https://dc.lft.to/lastmile_qr_scan"}, "fusion_lon": 0.0, "lat": 38.9353045, "bike_id": "2c7a36bb137b88d2a73e37f5311d3470", "type": "electric_scooter", "is_reserved": 0, "lon": -77.02850533333333}, {"fusion_lat": 0.0, "name": "fcb56a1e19028b15cc412b246e8a1e7c", "is_disabled": 0, "rental_uris": {"android": "https://dc.lft.to/lastmile_qr_scan", "ios": "https://dc.lft.to/lastmile_qr_scan"}, "fusion_lon": 0.0, "lat": 38.90723366666667, "bike_id": "fcb56a1e19028b15cc412b246e8a1e7c", "type": "electric_scooter", "is_reserved": 0, "lon": -77.0475745}, {"fusion_lat": 0.0, "name": "d3039a9f5b205db03210b84104f929c6", "is_disabled": 0, "rental_uris": {"android": "https://dc.lft.to/lastmile_qr_scan", "ios": "https://dc.lft.to/lastmile_qr_scan"}, "fusion_lon": 0.0, "lat": 38.89193133333333, "bike_id": "d3039a9f5b205db03210b84104f929c6", "type": "electric_scooter", "is_reserved": 0, "lon": -77.022303}, {"fusion_lat": 0.0, "name": "e1cb207b1d69ad8aee49de3713aa8824", "is_disabled": 0, "rental_uris": {"android": "https://dc.lft.to/lastmile_qr_scan", "ios": "https://dc.lft.to/lastmile_qr_scan"}, "fusion_lon": 0.0, "lat": 38.93897316666666, "bike_id": "e1cb207b1d69ad8aee49de3713aa8824", "type": "electric_scooter", "is_reserved": 0, "lon": -77.0326215}, {"fusion_lat": 0.0, "name": "215401470ee386efd78d085e04f4dca0", "is_disabled": 0, "rental_uris": {"android": "https://dc.lft.to/lastmile_qr_scan", "ios": "https://dc.lft.to/lastmile_qr_scan"}, "fusion_lon": 0.0, "lat": 38.92602016666667, "bike_id": "215401470ee386efd78d085e04f4dca0", "type": "electric_scooter", "is_reserved": 0, "lon": -77.0215685}, {"fusion_lat": 0.0, "name": "c63894a6c4c81aa14f28db22baa64f00", "is_disabled": 0, "rental_uris": {"android": "https://dc.lft.to/lastmile_qr_scan", "ios": "https://dc.lft.to/lastmile_qr_scan"}, "fusion_lon": 0.0, "lat": 38.928707, "bike_id": "c63894a6c4c81aa14f28db22baa64f00", "type": "electric_scooter", "is_reserved": 0, "lon": -77.03499133333334}, {"fusion_lat": 0.0, "name": "b6898475487f14c187bcd548e20e668c", "is_disabled": 0, "rental_uris": {"android": "https://dc.lft.to/lastmile_qr_scan", "ios": "https://dc.lft.to/lastmile_qr_scan"}, "fusion_lon": 0.0, "lat": 38.905475333333335, "bike_id": "b6898475487f14c187bcd548e20e668c", "type": "electric_scooter", "is_reserved": 0, "lon": -77.00482383333333}, {"fusion_lat": 0.0, "name": "2bf21fd0e06e15601ad4ada5199401d7", "is_disabled": 0, "rental_uris": {"android": "https://dc.lft.to/lastmile_qr_scan", "ios": "https://dc.lft.to/lastmile_qr_scan"}, "fusion_lon": 0.0, "lat": 38.90086933333333, "bike_id": "2bf21fd0e06e15601ad4ada5199401d7", "type": "electric_scooter", "is_reserved": 0, "lon": -77.049551}, {"fusion_lat": 0.0, "name": "9abf4f9d7d37efb68dd5ca2c577b97da", "is_disabled": 0, "rental_uris": {"android": "https://dc.lft.to/lastmile_qr_scan", "ios": "https://dc.lft.to/lastmile_qr_scan"}, "fusion_lon": 0.0, "lat": 38.932554333333336, "bike_id": "9abf4f9d7d37efb68dd5ca2c577b97da", "type": "electric_scooter", "is_reserved": 0, "lon": -77.04005933333333}, {"fusion_lat": 0.0, "name": "fc3c0ca7ccae88b8dae7aa521f8f72cd", "is_disabled": 0, "rental_uris": {"android": "https://dc.lft.to/lastmile_qr_scan", "ios": "https://dc.lft.to/lastmile_qr_scan"}, "fusion_lon": 0.0, "lat": 38.90358416666667, "bike_id": "fc3c0ca7ccae88b8dae7aa521f8f72cd", "type": "electric_scooter", "is_reserved": 0, "lon": -77.03514516666667}, {"fusion_lat": 0.0, "name": "73f8bc22c661d748d5a2ba61fe298e7a", "is_disabled": 0, "rental_uris": {"android": "https://dc.lft.to/lastmile_qr_scan", "ios": "https://dc.lft.to/lastmile_qr_scan"}, "fusion_lon": 0.0, "lat": 38.942718, "bike_id": "73f8bc22c661d748d5a2ba61fe298e7a", "type": "electric_bike", "is_reserved": 0, "lon": -76.99459133333333}, {"fusion_lat": 0.0, "name": "8a7e1cb71e895e7bcd8afeb6145c5b10", "is_disabled": 0, "rental_uris": {"android": "https://dc.lft.to/lastmile_qr_scan", "ios": "https://dc.lft.to/lastmile_qr_scan"}, "fusion_lon": 0.0, "lat": 38.91412016666666, "bike_id": "8a7e1cb71e895e7bcd8afeb6145c5b10", "type": "electric_scooter", "is_reserved": 0, "lon": -77.04567766666666}, {"fusion_lat": 0.0, "name": "e486f59b6ac3705769519c9c8d775a46", "is_disabled": 0, "rental_uris": {"android": "https://dc.lft.to/lastmile_qr_scan", "ios": "https://dc.lft.to/lastmile_qr_scan"}, "fusion_lon": 0.0, "lat": 38.92255466666667, "bike_id": "e486f59b6ac3705769519c9c8d775a46", "type": "electric_scooter", "is_reserved": 0, "lon": -77.07480183333334}, {"fusion_lat": 0.0, "name": "ac2ea0d873ec2dcaa6fb2f2b9d0b14c5", "is_disabled": 0, "rental_uris": {"android": "https://dc.lft.to/lastmile_qr_scan", "ios": "https://dc.lft.to/lastmile_qr_scan"}, "fusion_lon": 0.0, "lat": 38.91195333333334, "bike_id": "ac2ea0d873ec2dcaa6fb2f2b9d0b14c5", "type": "electric_scooter", "is_reserved": 0, "lon": -77.04539}, {"fusion_lat": 0.0, "name": "8fc610c2168975f4285c1ea6212d2f3d", "is_disabled": 0, "rental_uris": {"android": "https://dc.lft.to/lastmile_qr_scan", "ios": "https://dc.lft.to/lastmile_qr_scan"}, "fusion_lon": 0.0, "lat": 38.86623866666667, "bike_id": "8fc610c2168975f4285c1ea6212d2f3d", "type": "electric_bike", "is_reserved": 0, "lon": -76.94573216666667}, {"fusion_lat": 0.0, "name": "f79ec418a7c7391aff1bbbdc19ded030", "is_disabled": 0, "rental_uris": {"android": "https://dc.lft.to/lastmile_qr_scan", "ios": "https://dc.lft.to/lastmile_qr_scan"}, "fusion_lon": 0.0, "lat": 38.898913666666665, "bike_id": "f79ec418a7c7391aff1bbbdc19ded030", "type": "electric_scooter", "is_reserved": 0, "lon": -77.01514716666667}, {"fusion_lat": 0.0, "name": "c682de3b507147c4d79f52cf3fcce27d", "is_disabled": 0, "rental_uris": {"android": "https://dc.lft.to/lastmile_qr_scan", "ios": "https://dc.lft.to/lastmile_qr_scan"}, "fusion_lon": 0.0, "lat": 38.961301, "bike_id": "c682de3b507147c4d79f52cf3fcce27d", "type": "electric_bike", "is_reserved": 0, "lon": -77.0850475}, {"fusion_lat": 0.0, "name": "cab1b5c37857304c182469688500bb4b", "is_disabled": 0, "rental_uris": {"android": "https://dc.lft.to/lastmile_qr_scan", "ios": "https://dc.lft.to/lastmile_qr_scan"}, "fusion_lon": 0.0, "lat": 38.919401666666666, "bike_id": "cab1b5c37857304c182469688500bb4b", "type": "electric_scooter", "is_reserved": 0, "lon": -77.02507833333334}, {"fusion_lat": 0.0, "name": "5e84ce5e08e8af1185655fc4d0f4cbb3", "is_disabled": 0, "rental_uris": {"android": "https://dc.lft.to/lastmile_qr_scan", "ios": "https://dc.lft.to/lastmile_qr_scan"}, "fusion_lon": 0.0, "lat": 38.9036965, "bike_id": "5e84ce5e08e8af1185655fc4d0f4cbb3", "type": "electric_scooter", "is_reserved": 0, "lon": -77.045166}, {"fusion_lat": 0.0, "name": "f6e02a0c75e1547a04ec6398b1d7c74f", "is_disabled": 0, "rental_uris": {"android": "https://dc.lft.to/lastmile_qr_scan", "ios": "https://dc.lft.to/lastmile_qr_scan"}, "fusion_lon": 0.0, "lat": 38.917047333333336, "bike_id": "f6e02a0c75e1547a04ec6398b1d7c74f", "type": "electric_scooter", "is_reserved": 0, "lon": -77.02412666666666}, {"fusion_lat": 0.0, "name": "03c70bbe7e8a5f5e8291de34929ceb5f", "is_disabled": 0, "rental_uris": {"android": "https://dc.lft.to/lastmile_qr_scan", "ios": "https://dc.lft.to/lastmile_qr_scan"}, "fusion_lon": 0.0, "lat": 38.933209833333336, "bike_id": "03c70bbe7e8a5f5e8291de34929ceb5f", "type": "electric_scooter", "is_reserved": 0, "lon": -77.02751516666666}, {"fusion_lat": 0.0, "name": "f008f32dbbce274575c39fd6fd78fd6a", "is_disabled": 0, "rental_uris": {"android": "https://dc.lft.to/lastmile_qr_scan", "ios": "https://dc.lft.to/lastmile_qr_scan"}, "fusion_lon": 0.0, "lat": 38.90196366666667, "bike_id": "f008f32dbbce274575c39fd6fd78fd6a", "type": "electric_scooter", "is_reserved": 0, "lon": -76.97860016666667}, {"fusion_lat": 0.0, "name": "8f44b1985a962074ea365817d4aa8477", "is_disabled": 0, "rental_uris": {"android": "https://dc.lft.to/lastmile_qr_scan", "ios": "https://dc.lft.to/lastmile_qr_scan"}, "fusion_lon": 0.0, "lat": 38.88609266666667, "bike_id": "8f44b1985a962074ea365817d4aa8477", "type": "electric_scooter", "is_reserved": 0, "lon": -77.01248033333333}, {"fusion_lat": 0.0, "name": "0d6606c84df037fb066aabe8add581f0", "is_disabled": 0, "rental_uris": {"android": "https://dc.lft.to/lastmile_qr_scan", "ios": "https://dc.lft.to/lastmile_qr_scan"}, "fusion_lon": 0.0, "lat": 38.89228216666667, "bike_id": "0d6606c84df037fb066aabe8add581f0", "type": "electric_scooter", "is_reserved": 0, "lon": -77.04653366666666}, {"fusion_lat": 0.0, "name": "7f41496b7105850528f7d9b680cc257d", "is_disabled": 0, "rental_uris": {"android": "https://dc.lft.to/lastmile_qr_scan", "ios": "https://dc.lft.to/lastmile_qr_scan"}, "fusion_lon": 0.0, "lat": 38.935007666666664, "bike_id": "7f41496b7105850528f7d9b680cc257d", "type": "electric_scooter", "is_reserved": 0, "lon": -77.036169}, {"fusion_lat": 0.0, "name": "d327c120cf20838ef12e8df78599881c", "is_disabled": 0, "rental_uris": {"android": "https://dc.lft.to/lastmile_qr_scan", "ios": "https://dc.lft.to/lastmile_qr_scan"}, "fusion_lon": 0.0, "lat": 38.91662783333334, "bike_id": "d327c120cf20838ef12e8df78599881c", "type": "electric_scooter", "is_reserved": 0, "lon": -77.0281425}, {"fusion_lat": 0.0, "name": "69d464218d59eafb572bf255e10bad9c", "is_disabled": 0, "rental_uris": {"android": "https://dc.lft.to/lastmile_qr_scan", "ios": "https://dc.lft.to/lastmile_qr_scan"}, "fusion_lon": 0.0, "lat": 38.92868516666667, "bike_id": "69d464218d59eafb572bf255e10bad9c", "type": "electric_scooter", "is_reserved": 0, "lon": -77.01355983333333}, {"fusion_lat": 0.0, "name": "9bfa37b0b54ae77a4a82dc5ebfe33b35", "is_disabled": 0, "rental_uris": {"android": "https://dc.lft.to/lastmile_qr_scan", "ios": "https://dc.lft.to/lastmile_qr_scan"}, "fusion_lon": 0.0, "lat": 38.913254333333335, "bike_id": "9bfa37b0b54ae77a4a82dc5ebfe33b35", "type": "electric_scooter", "is_reserved": 0, "lon": -77.04536816666666}, {"fusion_lat": 0.0, "name": "16ef224aea06b649f4b2560ff8627b0c", "is_disabled": 0, "rental_uris": {"android": "https://dc.lft.to/lastmile_qr_scan", "ios": "https://dc.lft.to/lastmile_qr_scan"}, "fusion_lon": 0.0, "lat": 38.905153166666665, "bike_id": "16ef224aea06b649f4b2560ff8627b0c", "type": "electric_scooter", "is_reserved": 0, "lon": -77.05150366666666}, {"fusion_lat": 0.0, "name": "5692b1817f7f671928d35fa0636c92fa", "is_disabled": 0, "rental_uris": {"android": "https://dc.lft.to/lastmile_qr_scan", "ios": "https://dc.lft.to/lastmile_qr_scan"}, "fusion_lon": 0.0, "lat": 38.902162, "bike_id": "5692b1817f7f671928d35fa0636c92fa", "type": "electric_scooter", "is_reserved": 0, "lon": -77.02273516666666}, {"fusion_lat": 0.0, "name": "55a9be8f31c70b6a88f7a4c3073d7cf1", "is_disabled": 0, "rental_uris": {"android": "https://dc.lft.to/lastmile_qr_scan", "ios": "https://dc.lft.to/lastmile_qr_scan"}, "fusion_lon": 0.0, "lat": 38.916186333333336, "bike_id": "55a9be8f31c70b6a88f7a4c3073d7cf1", "type": "electric_scooter", "is_reserved": 0, "lon": -77.03148233333333}, {"fusion_lat": 0.0, "name": "b459ec18d3108263d9268eee6cf63ddc", "is_disabled": 0, "rental_uris": {"android": "https://dc.lft.to/lastmile_qr_scan", "ios": "https://dc.lft.to/lastmile_qr_scan"}, "fusion_lon": 0.0, "lat": 38.8864105, "bike_id": "b459ec18d3108263d9268eee6cf63ddc", "type": "electric_scooter", "is_reserved": 0, "lon": -77.01948683333333}, {"fusion_lat": 0.0, "name": "9e7f8e0e18be225f170ab53771b8b5b0", "is_disabled": 0, "rental_uris": {"android": "https://dc.lft.to/lastmile_qr_scan", "ios": "https://dc.lft.to/lastmile_qr_scan"}, "fusion_lon": 0.0, "lat": 38.92077916666667, "bike_id": "9e7f8e0e18be225f170ab53771b8b5b0", "type": "electric_scooter", "is_reserved": 0, "lon": -77.01479833333333}, {"fusion_lat": 0.0, "name": "c5a7de9ebeaaa9692002314f6081fa90", "is_disabled": 0, "rental_uris": {"android": "https://dc.lft.to/lastmile_qr_scan", "ios": "https://dc.lft.to/lastmile_qr_scan"}, "fusion_lon": 0.0, "lat": 38.91547533333333, "bike_id": "c5a7de9ebeaaa9692002314f6081fa90", "type": "electric_scooter", "is_reserved": 0, "lon": -77.03069083333334}, {"fusion_lat": 0.0, "name": "8b66e3a95bc8a4043b6a20978cc1440e", "is_disabled": 0, "rental_uris": {"android": "https://dc.lft.to/lastmile_qr_scan", "ios": "https://dc.lft.to/lastmile_qr_scan"}, "fusion_lon": 0.0, "lat": 38.907900166666664, "bike_id": "8b66e3a95bc8a4043b6a20978cc1440e", "type": "electric_scooter", "is_reserved": 0, "lon": -77.0096935}, {"fusion_lat": 0.0, "name": "c7ffe6afac96615d94b6be734c6b603a", "is_disabled": 0, "rental_uris": {"android": "https://dc.lft.to/lastmile_qr_scan", "ios": "https://dc.lft.to/lastmile_qr_scan"}, "fusion_lon": 0.0, "lat": 38.94633916666667, "bike_id": "c7ffe6afac96615d94b6be734c6b603a", "type": "electric_scooter", "is_reserved": 0, "lon": -77.09538216666667}, {"fusion_lat": 0.0, "name": "6431a4cc36f403d9e5bcde7f4398b993", "is_disabled": 0, "rental_uris": {"android": "https://dc.lft.to/lastmile_qr_scan", "ios": "https://dc.lft.to/lastmile_qr_scan"}, "fusion_lon": 0.0, "lat": 38.90179883333333, "bike_id": "6431a4cc36f403d9e5bcde7f4398b993", "type": "electric_scooter", "is_reserved": 0, "lon": -77.02000116666666}, {"fusion_lat": 0.0, "name": "0da7b7636fd636eb919fa3ab671df46b", "is_disabled": 0, "rental_uris": {"android": "https://dc.lft.to/lastmile_qr_scan", "ios": "https://dc.lft.to/lastmile_qr_scan"}, "fusion_lon": 0.0, "lat": 38.902614, "bike_id": "0da7b7636fd636eb919fa3ab671df46b", "type": "electric_scooter", "is_reserved": 0, "lon": -77.02952466666666}, {"fusion_lat": 0.0, "name": "ab98750eeda0fb41b61b64fff10cdb62", "is_disabled": 0, "rental_uris": {"android": "https://dc.lft.to/lastmile_qr_scan", "ios": "https://dc.lft.to/lastmile_qr_scan"}, "fusion_lon": 0.0, "lat": 38.956129, "bike_id": "ab98750eeda0fb41b61b64fff10cdb62", "type": "electric_scooter", "is_reserved": 0, "lon": -77.02761216666667}, {"fusion_lat": 0.0, "name": "e627ffb6998222f36704291a0d2624a4", "is_disabled": 0, "rental_uris": {"android": "https://dc.lft.to/lastmile_qr_scan", "ios": "https://dc.lft.to/lastmile_qr_scan"}, "fusion_lon": 0.0, "lat": 38.89704366666667, "bike_id": "e627ffb6998222f36704291a0d2624a4", "type": "electric_scooter", "is_reserved": 0, "lon": -77.033541}, {"fusion_lat": 0.0, "name": "b1d996ac98f7d0578a948c4c40e37270", "is_disabled": 0, "rental_uris": {"android": "https://dc.lft.to/lastmile_qr_scan", "ios": "https://dc.lft.to/lastmile_qr_scan"}, "fusion_lon": 0.0, "lat": 38.913424666666664, "bike_id": "b1d996ac98f7d0578a948c4c40e37270", "type": "electric_scooter", "is_reserved": 0, "lon": -77.04277016666667}, {"fusion_lat": 0.0, "name": "9dfce3ed1e84329f28aca93fdbeab559", "is_disabled": 0, "rental_uris": {"android": "https://dc.lft.to/lastmile_qr_scan", "ios": "https://dc.lft.to/lastmile_qr_scan"}, "fusion_lon": 0.0, "lat": 38.907255666666664, "bike_id": "9dfce3ed1e84329f28aca93fdbeab559", "type": "electric_scooter", "is_reserved": 0, "lon": -77.0254555}, {"fusion_lat": 0.0, "name": "c8f0e588005bc9dfc8b52f2d4d12a046", "is_disabled": 0, "rental_uris": {"android": "https://dc.lft.to/lastmile_qr_scan", "ios": "https://dc.lft.to/lastmile_qr_scan"}, "fusion_lon": 0.0, "lat": 38.90556616666667, "bike_id": "c8f0e588005bc9dfc8b52f2d4d12a046", "type": "electric_scooter", "is_reserved": 0, "lon": -77.00592233333333}, {"fusion_lat": 0.0, "name": "283e892aba7601b8e2cb42b54539723e", "is_disabled": 0, "rental_uris": {"android": "https://dc.lft.to/lastmile_qr_scan", "ios": "https://dc.lft.to/lastmile_qr_scan"}, "fusion_lon": 0.0, "lat": 38.931502, "bike_id": "283e892aba7601b8e2cb42b54539723e", "type": "electric_scooter", "is_reserved": 0, "lon": -77.0397235}, {"fusion_lat": 0.0, "name": "4a289a103539951bc72bf63522523aeb", "is_disabled": 0, "rental_uris": {"android": "https://dc.lft.to/lastmile_qr_scan", "ios": "https://dc.lft.to/lastmile_qr_scan"}, "fusion_lon": 0.0, "lat": 38.95264866666667, "bike_id": "4a289a103539951bc72bf63522523aeb", "type": "electric_bike", "is_reserved": 0, "lon": -76.9995885}, {"fusion_lat": 0.0, "name": "39a0a362502fe2bc71ecc6217f403331", "is_disabled": 0, "rental_uris": {"android": "https://dc.lft.to/lastmile_qr_scan", "ios": "https://dc.lft.to/lastmile_qr_scan"}, "fusion_lon": 0.0, "lat": 38.952868333333335, "bike_id": "39a0a362502fe2bc71ecc6217f403331", "type": "electric_scooter", "is_reserved": 0, "lon": -77.03649316666667}, {"fusion_lat": 0.0, "name": "400c346da60a3e94d309632a0f31c886", "is_disabled": 0, "rental_uris": {"android": "https://dc.lft.to/lastmile_qr_scan", "ios": "https://dc.lft.to/lastmile_qr_scan"}, "fusion_lon": 0.0, "lat": 38.84127866666667, "bike_id": "400c346da60a3e94d309632a0f31c886", "type": "electric_bike", "is_reserved": 0, "lon": -77.06308916666667}, {"fusion_lat": 0.0, "name": "446f9e48f0cc3978866aa7fa2e63db4d", "is_disabled": 0, "rental_uris": {"android": "https://dc.lft.to/lastmile_qr_scan", "ios": "https://dc.lft.to/lastmile_qr_scan"}, "fusion_lon": 0.0, "lat": 38.894687, "bike_id": "446f9e48f0cc3978866aa7fa2e63db4d", "type": "electric_scooter", "is_reserved": 0, "lon": -77.0216965}, {"fusion_lat": 0.0, "name": "1bbca0575be8b86bd19df4a9d78002ef", "is_disabled": 0, "rental_uris": {"android": "https://dc.lft.to/lastmile_qr_scan", "ios": "https://dc.lft.to/lastmile_qr_scan"}, "fusion_lon": 0.0, "lat": 38.917098, "bike_id": "1bbca0575be8b86bd19df4a9d78002ef", "type": "electric_scooter", "is_reserved": 0, "lon": -77.03864116666666}, {"fusion_lat": 0.0, "name": "9890eb86650af8eefe815e45b471edab", "is_disabled": 0, "rental_uris": {"android": "https://dc.lft.to/lastmile_qr_scan", "ios": "https://dc.lft.to/lastmile_qr_scan"}, "fusion_lon": 0.0, "lat": 38.81938916666667, "bike_id": "9890eb86650af8eefe815e45b471edab", "type": "electric_bike", "is_reserved": 0, "lon": -77.00202183333333}, {"fusion_lat": 0.0, "name": "6c5e54e6d7b6f3b9a7be6458d68d9937", "is_disabled": 0, "rental_uris": {"android": "https://dc.lft.to/lastmile_qr_scan", "ios": "https://dc.lft.to/lastmile_qr_scan"}, "fusion_lon": 0.0, "lat": 38.906599666666665, "bike_id": "6c5e54e6d7b6f3b9a7be6458d68d9937", "type": "electric_scooter", "is_reserved": 0, "lon": -77.01089566666667}, {"fusion_lat": 0.0, "name": "baf7de1fe97f30f52a8eafe7c6ab05f7", "is_disabled": 0, "rental_uris": {"android": "https://dc.lft.to/lastmile_qr_scan", "ios": "https://dc.lft.to/lastmile_qr_scan"}, "fusion_lon": 0.0, "lat": 38.90464566666667, "bike_id": "baf7de1fe97f30f52a8eafe7c6ab05f7", "type": "electric_scooter", "is_reserved": 0, "lon": -77.02952933333333}, {"fusion_lat": 0.0, "name": "85692c635890cdf9f3a904c514fbdc4a", "is_disabled": 0, "rental_uris": {"android": "https://dc.lft.to/lastmile_qr_scan", "ios": "https://dc.lft.to/lastmile_qr_scan"}, "fusion_lon": 0.0, "lat": 38.903619666666664, "bike_id": "85692c635890cdf9f3a904c514fbdc4a", "type": "electric_scooter", "is_reserved": 0, "lon": -76.97243733333333}, {"fusion_lat": 0.0, "name": "7f610cb626ade859461ee6a419171e49", "is_disabled": 0, "rental_uris": {"android": "https://dc.lft.to/lastmile_qr_scan", "ios": "https://dc.lft.to/lastmile_qr_scan"}, "fusion_lon": 0.0, "lat": 38.909731666666666, "bike_id": "7f610cb626ade859461ee6a419171e49", "type": "electric_scooter", "is_reserved": 0, "lon": -77.008982}, {"fusion_lat": 0.0, "name": "ebaff48e38717482f744b999393acd22", "is_disabled": 0, "rental_uris": {"android": "https://dc.lft.to/lastmile_qr_scan", "ios": "https://dc.lft.to/lastmile_qr_scan"}, "fusion_lon": 0.0, "lat": 38.901102333333334, "bike_id": "ebaff48e38717482f744b999393acd22", "type": "electric_scooter", "is_reserved": 0, "lon": -77.0516185}, {"fusion_lat": 0.0, "name": "0b49c4b0b165de1ba1d29e305f932869", "is_disabled": 0, "rental_uris": {"android": "https://dc.lft.to/lastmile_qr_scan", "ios": "https://dc.lft.to/lastmile_qr_scan"}, "fusion_lon": 0.0, "lat": 38.90577866666667, "bike_id": "0b49c4b0b165de1ba1d29e305f932869", "type": "electric_scooter", "is_reserved": 0, "lon": -77.022034}, {"fusion_lat": 0.0, "name": "88afacdbfa7b63c946efa7c980ce1c25", "is_disabled": 0, "rental_uris": {"android": "https://dc.lft.to/lastmile_qr_scan", "ios": "https://dc.lft.to/lastmile_qr_scan"}, "fusion_lon": 0.0, "lat": 38.83936383333333, "bike_id": "88afacdbfa7b63c946efa7c980ce1c25", "type": "electric_bike", "is_reserved": 0, "lon": -77.079009}, {"fusion_lat": 0.0, "name": "a5b50a303c99966f0915b14bb3699b66", "is_disabled": 0, "rental_uris": {"android": "https://dc.lft.to/lastmile_qr_scan", "ios": "https://dc.lft.to/lastmile_qr_scan"}, "fusion_lon": 0.0, "lat": 38.933672666666666, "bike_id": "a5b50a303c99966f0915b14bb3699b66", "type": "electric_scooter", "is_reserved": 0, "lon": -77.03885266666667}, {"fusion_lat": 0.0, "name": "756eb7911a5148bce332de13b42fba1e", "is_disabled": 0, "rental_uris": {"android": "https://dc.lft.to/lastmile_qr_scan", "ios": "https://dc.lft.to/lastmile_qr_scan"}, "fusion_lon": 0.0, "lat": 38.897248833333336, "bike_id": "756eb7911a5148bce332de13b42fba1e", "type": "electric_scooter", "is_reserved": 0, "lon": -77.03212416666666}, {"fusion_lat": 0.0, "name": "23d65ddf13dd1fc3208b38096dc4cdab", "is_disabled": 0, "rental_uris": {"android": "https://dc.lft.to/lastmile_qr_scan", "ios": "https://dc.lft.to/lastmile_qr_scan"}, "fusion_lon": 0.0, "lat": 38.94133033333333, "bike_id": "23d65ddf13dd1fc3208b38096dc4cdab", "type": "electric_scooter", "is_reserved": 0, "lon": -77.00608433333333}, {"fusion_lat": 0.0, "name": "4fc665306eb967c7743f239e6621f3de", "is_disabled": 0, "rental_uris": {"android": "https://dc.lft.to/lastmile_qr_scan", "ios": "https://dc.lft.to/lastmile_qr_scan"}, "fusion_lon": 0.0, "lat": 38.92693116666667, "bike_id": "4fc665306eb967c7743f239e6621f3de", "type": "electric_scooter", "is_reserved": 0, "lon": -77.02782233333333}, {"fusion_lat": 0.0, "name": "77b835ff0d3b51a6ceb6ae4097ccf76a", "is_disabled": 0, "rental_uris": {"android": "https://dc.lft.to/lastmile_qr_scan", "ios": "https://dc.lft.to/lastmile_qr_scan"}, "fusion_lon": 0.0, "lat": 38.927848833333336, "bike_id": "77b835ff0d3b51a6ceb6ae4097ccf76a", "type": "electric_scooter", "is_reserved": 0, "lon": -77.03145483333333}, {"fusion_lat": 0.0, "name": "43a3dbf1b883264dcf90022792d62885", "is_disabled": 0, "rental_uris": {"android": "https://dc.lft.to/lastmile_qr_scan", "ios": "https://dc.lft.to/lastmile_qr_scan"}, "fusion_lon": 0.0, "lat": 38.892234333333334, "bike_id": "43a3dbf1b883264dcf90022792d62885", "type": "electric_scooter", "is_reserved": 0, "lon": -77.0468355}, {"fusion_lat": 0.0, "name": "e11bd12b7371838915a8f422e33eb070", "is_disabled": 0, "rental_uris": {"android": "https://dc.lft.to/lastmile_qr_scan", "ios": "https://dc.lft.to/lastmile_qr_scan"}, "fusion_lon": 0.0, "lat": 38.8899305, "bike_id": "e11bd12b7371838915a8f422e33eb070", "type": "electric_scooter", "is_reserved": 0, "lon": -76.98224716666667}, {"fusion_lat": 0.0, "name": "75b8a8b794ac7735078ca51b2683b72a", "is_disabled": 0, "rental_uris": {"android": "https://dc.lft.to/lastmile_qr_scan", "ios": "https://dc.lft.to/lastmile_qr_scan"}, "fusion_lon": 0.0, "lat": 38.933629333333336, "bike_id": "75b8a8b794ac7735078ca51b2683b72a", "type": "electric_scooter", "is_reserved": 0, "lon": -77.024276}, {"fusion_lat": 0.0, "name": "04a7fb69e8ed879e697c7da9302bf33c", "is_disabled": 0, "rental_uris": {"android": "https://dc.lft.to/lastmile_qr_scan", "ios": "https://dc.lft.to/lastmile_qr_scan"}, "fusion_lon": 0.0, "lat": 38.915646833333334, "bike_id": "04a7fb69e8ed879e697c7da9302bf33c", "type": "electric_scooter", "is_reserved": 0, "lon": -77.04157216666667}, {"fusion_lat": 0.0, "name": "f1188dd8297c7c39cf6c8be46b59b132", "is_disabled": 0, "rental_uris": {"android": "https://dc.lft.to/lastmile_qr_scan", "ios": "https://dc.lft.to/lastmile_qr_scan"}, "fusion_lon": 0.0, "lat": 38.9170585, "bike_id": "f1188dd8297c7c39cf6c8be46b59b132", "type": "electric_scooter", "is_reserved": 0, "lon": -77.03227016666666}, {"fusion_lat": 0.0, "name": "0f61bda4b265559b3adc2791c99ef398", "is_disabled": 0, "rental_uris": {"android": "https://dc.lft.to/lastmile_qr_scan", "ios": "https://dc.lft.to/lastmile_qr_scan"}, "fusion_lon": 0.0, "lat": 38.93895166666667, "bike_id": "0f61bda4b265559b3adc2791c99ef398", "type": "electric_scooter", "is_reserved": 0, "lon": -77.03338683333334}, {"fusion_lat": 0.0, "name": "37726d7e55fe9607605735afbde433ff", "is_disabled": 0, "rental_uris": {"android": "https://dc.lft.to/lastmile_qr_scan", "ios": "https://dc.lft.to/lastmile_qr_scan"}, "fusion_lon": 0.0, "lat": 38.90728033333333, "bike_id": "37726d7e55fe9607605735afbde433ff", "type": "electric_scooter", "is_reserved": 0, "lon": -77.034529}, {"fusion_lat": 0.0, "name": "27bfefdbe67b79cff1bdef18357259c8", "is_disabled": 0, "rental_uris": {"android": "https://dc.lft.to/lastmile_qr_scan", "ios": "https://dc.lft.to/lastmile_qr_scan"}, "fusion_lon": 0.0, "lat": 38.9712365, "bike_id": "27bfefdbe67b79cff1bdef18357259c8", "type": "electric_bike", "is_reserved": 0, "lon": -77.020903}, {"fusion_lat": 0.0, "name": "574cf0daead8fe2a3339586b9033e522", "is_disabled": 0, "rental_uris": {"android": "https://dc.lft.to/lastmile_qr_scan", "ios": "https://dc.lft.to/lastmile_qr_scan"}, "fusion_lon": 0.0, "lat": 38.92315216666667, "bike_id": "574cf0daead8fe2a3339586b9033e522", "type": "electric_scooter", "is_reserved": 0, "lon": -77.02796616666667}, {"fusion_lat": 0.0, "name": "f394937c490284586c4fd157351034da", "is_disabled": 0, "rental_uris": {"android": "https://dc.lft.to/lastmile_qr_scan", "ios": "https://dc.lft.to/lastmile_qr_scan"}, "fusion_lon": 0.0, "lat": 38.93535683333333, "bike_id": "f394937c490284586c4fd157351034da", "type": "electric_scooter", "is_reserved": 0, "lon": -77.02360633333333}, {"fusion_lat": 0.0, "name": "302f6537c21aa76a0314a7ef6504be41", "is_disabled": 0, "rental_uris": {"android": "https://dc.lft.to/lastmile_qr_scan", "ios": "https://dc.lft.to/lastmile_qr_scan"}, "fusion_lon": 0.0, "lat": 38.8989735, "bike_id": "302f6537c21aa76a0314a7ef6504be41", "type": "electric_scooter", "is_reserved": 0, "lon": -77.01509783333333}, {"fusion_lat": 0.0, "name": "70a8f172f93f8cdebe2ca1608885c88d", "is_disabled": 0, "rental_uris": {"android": "https://dc.lft.to/lastmile_qr_scan", "ios": "https://dc.lft.to/lastmile_qr_scan"}, "fusion_lon": 0.0, "lat": 38.933837833333335, "bike_id": "70a8f172f93f8cdebe2ca1608885c88d", "type": "electric_scooter", "is_reserved": 0, "lon": -77.0242235}, {"fusion_lat": 0.0, "name": "fc9d94e892e750ec5fc2a20e60f210a0", "is_disabled": 0, "rental_uris": {"android": "https://dc.lft.to/lastmile_qr_scan", "ios": "https://dc.lft.to/lastmile_qr_scan"}, "fusion_lon": 0.0, "lat": 38.89761883333333, "bike_id": "fc9d94e892e750ec5fc2a20e60f210a0", "type": "electric_scooter", "is_reserved": 0, "lon": -77.0250675}, {"fusion_lat": 0.0, "name": "14abe2122a7f886be03828f6e789365b", "is_disabled": 0, "rental_uris": {"android": "https://dc.lft.to/lastmile_qr_scan", "ios": "https://dc.lft.to/lastmile_qr_scan"}, "fusion_lon": 0.0, "lat": 38.901519666666665, "bike_id": "14abe2122a7f886be03828f6e789365b", "type": "electric_scooter", "is_reserved": 0, "lon": -76.9306875}, {"fusion_lat": 0.0, "name": "0d0f2b099190738b7c225570e64b7358", "is_disabled": 0, "rental_uris": {"android": "https://dc.lft.to/lastmile_qr_scan", "ios": "https://dc.lft.to/lastmile_qr_scan"}, "fusion_lon": 0.0, "lat": 38.91245683333333, "bike_id": "0d0f2b099190738b7c225570e64b7358", "type": "electric_scooter", "is_reserved": 0, "lon": -77.006494}, {"fusion_lat": 0.0, "name": "23695ec4085cc940f104d39acd88cb79", "is_disabled": 0, "rental_uris": {"android": "https://dc.lft.to/lastmile_qr_scan", "ios": "https://dc.lft.to/lastmile_qr_scan"}, "fusion_lon": 0.0, "lat": 38.91707066666667, "bike_id": "23695ec4085cc940f104d39acd88cb79", "type": "electric_scooter", "is_reserved": 0, "lon": -77.0248305}, {"fusion_lat": 0.0, "name": "90668a1b8b69c279328da397413e2997", "is_disabled": 0, "rental_uris": {"android": "https://dc.lft.to/lastmile_qr_scan", "ios": "https://dc.lft.to/lastmile_qr_scan"}, "fusion_lon": 0.0, "lat": 38.887465666666664, "bike_id": "90668a1b8b69c279328da397413e2997", "type": "electric_scooter", "is_reserved": 0, "lon": -77.0315965}, {"fusion_lat": 0.0, "name": "d6954b40e02f5c3cea35d4360f257a5c", "is_disabled": 0, "rental_uris": {"android": "https://dc.lft.to/lastmile_qr_scan", "ios": "https://dc.lft.to/lastmile_qr_scan"}, "fusion_lon": 0.0, "lat": 38.905721666666665, "bike_id": "d6954b40e02f5c3cea35d4360f257a5c", "type": "electric_scooter", "is_reserved": 0, "lon": -77.021057}, {"fusion_lat": 0.0, "name": "42fed69cf52fb46216a6382767aaeab2", "is_disabled": 0, "rental_uris": {"android": "https://dc.lft.to/lastmile_qr_scan", "ios": "https://dc.lft.to/lastmile_qr_scan"}, "fusion_lon": 0.0, "lat": 38.909332166666665, "bike_id": "42fed69cf52fb46216a6382767aaeab2", "type": "electric_scooter", "is_reserved": 0, "lon": -77.01843583333333}, {"fusion_lat": 0.0, "name": "d081e0f3ce51ed94902d3d19b25ccba6", "is_disabled": 0, "rental_uris": {"android": "https://dc.lft.to/lastmile_qr_scan", "ios": "https://dc.lft.to/lastmile_qr_scan"}, "fusion_lon": 0.0, "lat": 38.9314565, "bike_id": "d081e0f3ce51ed94902d3d19b25ccba6", "type": "electric_bike", "is_reserved": 0, "lon": -77.03832916666667}, {"fusion_lat": 0.0, "name": "45847333c2ed712e38c994af704fdc2f", "is_disabled": 0, "rental_uris": {"android": "https://dc.lft.to/lastmile_qr_scan", "ios": "https://dc.lft.to/lastmile_qr_scan"}, "fusion_lon": 0.0, "lat": 38.9068355, "bike_id": "45847333c2ed712e38c994af704fdc2f", "type": "electric_bike", "is_reserved": 0, "lon": -76.94493233333333}, {"fusion_lat": 0.0, "name": "b405ac4a30524461f3c2d59f2db15869", "is_disabled": 0, "rental_uris": {"android": "https://dc.lft.to/lastmile_qr_scan", "ios": "https://dc.lft.to/lastmile_qr_scan"}, "fusion_lon": 0.0, "lat": 38.869078, "bike_id": "b405ac4a30524461f3c2d59f2db15869", "type": "electric_bike", "is_reserved": 0, "lon": -76.9750325}, {"fusion_lat": 0.0, "name": "5e9b488c7b646739ed95843a7ddf8912", "is_disabled": 0, "rental_uris": {"android": "https://dc.lft.to/lastmile_qr_scan", "ios": "https://dc.lft.to/lastmile_qr_scan"}, "fusion_lon": 0.0, "lat": 38.9057515, "bike_id": "5e9b488c7b646739ed95843a7ddf8912", "type": "electric_scooter", "is_reserved": 0, "lon": -77.0292855}, {"fusion_lat": 0.0, "name": "c1f9583993a1f2fd8afdf1526c64a7d9", "is_disabled": 0, "rental_uris": {"android": "https://dc.lft.to/lastmile_qr_scan", "ios": "https://dc.lft.to/lastmile_qr_scan"}, "fusion_lon": 0.0, "lat": 38.887694333333336, "bike_id": "c1f9583993a1f2fd8afdf1526c64a7d9", "type": "electric_scooter", "is_reserved": 0, "lon": -76.97744516666667}, {"fusion_lat": 0.0, "name": "249a99e377ad998b2abe64528f26918a", "is_disabled": 0, "rental_uris": {"android": "https://dc.lft.to/lastmile_qr_scan", "ios": "https://dc.lft.to/lastmile_qr_scan"}, "fusion_lon": 0.0, "lat": 38.918390333333335, "bike_id": "249a99e377ad998b2abe64528f26918a", "type": "electric_scooter", "is_reserved": 0, "lon": -77.0317425}, {"fusion_lat": 0.0, "name": "01f7a767b8d8b59f224d175efed09d6a", "is_disabled": 0, "rental_uris": {"android": "https://dc.lft.to/lastmile_qr_scan", "ios": "https://dc.lft.to/lastmile_qr_scan"}, "fusion_lon": 0.0, "lat": 38.937686166666666, "bike_id": "01f7a767b8d8b59f224d175efed09d6a", "type": "electric_scooter", "is_reserved": 0, "lon": -77.03281516666667}, {"fusion_lat": 0.0, "name": "5b31028e8db0a575e4afe37882accecb", "is_disabled": 0, "rental_uris": {"android": "https://dc.lft.to/lastmile_qr_scan", "ios": "https://dc.lft.to/lastmile_qr_scan"}, "fusion_lon": 0.0, "lat": 38.87388116666666, "bike_id": "5b31028e8db0a575e4afe37882accecb", "type": "electric_scooter", "is_reserved": 0, "lon": -77.00130816666666}, {"fusion_lat": 0.0, "name": "bff47827fecc21f4df25ef5020638df6", "is_disabled": 0, "rental_uris": {"android": "https://dc.lft.to/lastmile_qr_scan", "ios": "https://dc.lft.to/lastmile_qr_scan"}, "fusion_lon": 0.0, "lat": 38.867602166666664, "bike_id": "bff47827fecc21f4df25ef5020638df6", "type": "electric_scooter", "is_reserved": 0, "lon": -76.98269316666666}, {"fusion_lat": 0.0, "name": "44ecc045c0186f3115af17b019bbfc51", "is_disabled": 0, "rental_uris": {"android": "https://dc.lft.to/lastmile_qr_scan", "ios": "https://dc.lft.to/lastmile_qr_scan"}, "fusion_lon": 0.0, "lat": 38.8921775, "bike_id": "44ecc045c0186f3115af17b019bbfc51", "type": "electric_scooter", "is_reserved": 0, "lon": -77.04367066666667}, {"fusion_lat": 0.0, "name": "a1e58cd8b13aff0ba00e22d4e854bdea", "is_disabled": 0, "rental_uris": {"android": "https://dc.lft.to/lastmile_qr_scan", "ios": "https://dc.lft.to/lastmile_qr_scan"}, "fusion_lon": 0.0, "lat": 38.91487166666667, "bike_id": "a1e58cd8b13aff0ba00e22d4e854bdea", "type": "electric_scooter", "is_reserved": 0, "lon": -77.01416666666667}, {"fusion_lat": 0.0, "name": "0f8709dd4aa0b5695e60495e9c9d4207", "is_disabled": 0, "rental_uris": {"android": "https://dc.lft.to/lastmile_qr_scan", "ios": "https://dc.lft.to/lastmile_qr_scan"}, "fusion_lon": 0.0, "lat": 38.902047, "bike_id": "0f8709dd4aa0b5695e60495e9c9d4207", "type": "electric_scooter", "is_reserved": 0, "lon": -77.0220985}, {"fusion_lat": 0.0, "name": "69a866ff1fbac84e89c75981cf2ed018", "is_disabled": 0, "rental_uris": {"android": "https://dc.lft.to/lastmile_qr_scan", "ios": "https://dc.lft.to/lastmile_qr_scan"}, "fusion_lon": 0.0, "lat": 38.8962825, "bike_id": "69a866ff1fbac84e89c75981cf2ed018", "type": "electric_scooter", "is_reserved": 0, "lon": -77.02654783333334}, {"fusion_lat": 0.0, "name": "91f032c0c6c5b7b94c634ef457963a25", "is_disabled": 0, "rental_uris": {"android": "https://dc.lft.to/lastmile_qr_scan", "ios": "https://dc.lft.to/lastmile_qr_scan"}, "fusion_lon": 0.0, "lat": 38.92666116666667, "bike_id": "91f032c0c6c5b7b94c634ef457963a25", "type": "electric_scooter", "is_reserved": 0, "lon": -77.05154016666667}, {"fusion_lat": 0.0, "name": "c384b26e3f8a229b570d0bf0b1eb2ed2", "is_disabled": 0, "rental_uris": {"android": "https://dc.lft.to/lastmile_qr_scan", "ios": "https://dc.lft.to/lastmile_qr_scan"}, "fusion_lon": 0.0, "lat": 38.92405333333333, "bike_id": "c384b26e3f8a229b570d0bf0b1eb2ed2", "type": "electric_scooter", "is_reserved": 0, "lon": -77.02546316666667}, {"fusion_lat": 0.0, "name": "6147d08f940b153930456cfd5ae8fd23", "is_disabled": 0, "rental_uris": {"android": "https://dc.lft.to/lastmile_qr_scan", "ios": "https://dc.lft.to/lastmile_qr_scan"}, "fusion_lon": 0.0, "lat": 38.91153683333334, "bike_id": "6147d08f940b153930456cfd5ae8fd23", "type": "electric_scooter", "is_reserved": 0, "lon": -76.98724583333333}, {"fusion_lat": 0.0, "name": "5ede1a173ba54709d20289a7d59a556e", "is_disabled": 0, "rental_uris": {"android": "https://dc.lft.to/lastmile_qr_scan", "ios": "https://dc.lft.to/lastmile_qr_scan"}, "fusion_lon": 0.0, "lat": 38.9181155, "bike_id": "5ede1a173ba54709d20289a7d59a556e", "type": "electric_scooter", "is_reserved": 0, "lon": -77.02816216666666}, {"fusion_lat": 0.0, "name": "ce801b01b12b234b1dac9f3700923212", "is_disabled": 0, "rental_uris": {"android": "https://dc.lft.to/lastmile_qr_scan", "ios": "https://dc.lft.to/lastmile_qr_scan"}, "fusion_lon": 0.0, "lat": 38.89852466666667, "bike_id": "ce801b01b12b234b1dac9f3700923212", "type": "electric_scooter", "is_reserved": 0, "lon": -76.9927215}, {"fusion_lat": 0.0, "name": "255b60a409b8756831e1df49e7510f25", "is_disabled": 0, "rental_uris": {"android": "https://dc.lft.to/lastmile_qr_scan", "ios": "https://dc.lft.to/lastmile_qr_scan"}, "fusion_lon": 0.0, "lat": 38.89223616666666, "bike_id": "255b60a409b8756831e1df49e7510f25", "type": "electric_scooter", "is_reserved": 0, "lon": -77.03142316666667}, {"fusion_lat": 0.0, "name": "e44b9777b439de8698a662b2667af9c6", "is_disabled": 0, "rental_uris": {"android": "https://dc.lft.to/lastmile_qr_scan", "ios": "https://dc.lft.to/lastmile_qr_scan"}, "fusion_lon": 0.0, "lat": 38.925047666666664, "bike_id": "e44b9777b439de8698a662b2667af9c6", "type": "electric_scooter", "is_reserved": 0, "lon": -77.0377845}, {"fusion_lat": 0.0, "name": "198173546a13a754e477d5bc7619a4cf", "is_disabled": 0, "rental_uris": {"android": "https://dc.lft.to/lastmile_qr_scan", "ios": "https://dc.lft.to/lastmile_qr_scan"}, "fusion_lon": 0.0, "lat": 38.905343333333334, "bike_id": "198173546a13a754e477d5bc7619a4cf", "type": "electric_scooter", "is_reserved": 0, "lon": -77.051547}, {"fusion_lat": 0.0, "name": "2af272b40e2be7f592a2c49da8f796cb", "is_disabled": 0, "rental_uris": {"android": "https://dc.lft.to/lastmile_qr_scan", "ios": "https://dc.lft.to/lastmile_qr_scan"}, "fusion_lon": 0.0, "lat": 38.935424, "bike_id": "2af272b40e2be7f592a2c49da8f796cb", "type": "electric_scooter", "is_reserved": 0, "lon": -77.03100183333333}, {"fusion_lat": 0.0, "name": "9551892d683f0fc5066e5257941dce78", "is_disabled": 0, "rental_uris": {"android": "https://dc.lft.to/lastmile_qr_scan", "ios": "https://dc.lft.to/lastmile_qr_scan"}, "fusion_lon": 0.0, "lat": 38.89751566666666, "bike_id": "9551892d683f0fc5066e5257941dce78", "type": "electric_scooter", "is_reserved": 0, "lon": -77.02718983333334}, {"fusion_lat": 0.0, "name": "f300465151838b686f02149df491f3cf", "is_disabled": 0, "rental_uris": {"android": "https://dc.lft.to/lastmile_qr_scan", "ios": "https://dc.lft.to/lastmile_qr_scan"}, "fusion_lon": 0.0, "lat": 38.88895766666667, "bike_id": "f300465151838b686f02149df491f3cf", "type": "electric_bike", "is_reserved": 0, "lon": -77.11524533333333}, {"fusion_lat": 0.0, "name": "8ce761748fc6b7a9f34445625bb31d72", "is_disabled": 0, "rental_uris": {"android": "https://dc.lft.to/lastmile_qr_scan", "ios": "https://dc.lft.to/lastmile_qr_scan"}, "fusion_lon": 0.0, "lat": 38.96440533333333, "bike_id": "8ce761748fc6b7a9f34445625bb31d72", "type": "electric_scooter", "is_reserved": 0, "lon": -77.02067483333333}, {"fusion_lat": 0.0, "name": "8b371436234931a718d5833d6dc77eb8", "is_disabled": 0, "rental_uris": {"android": "https://dc.lft.to/lastmile_qr_scan", "ios": "https://dc.lft.to/lastmile_qr_scan"}, "fusion_lon": 0.0, "lat": 38.9219335, "bike_id": "8b371436234931a718d5833d6dc77eb8", "type": "electric_scooter", "is_reserved": 0, "lon": -77.03519166666666}, {"fusion_lat": 0.0, "name": "c90e0e1931c60e0685484a2044c068bc", "is_disabled": 0, "rental_uris": {"android": "https://dc.lft.to/lastmile_qr_scan", "ios": "https://dc.lft.to/lastmile_qr_scan"}, "fusion_lon": 0.0, "lat": 38.921813666666665, "bike_id": "c90e0e1931c60e0685484a2044c068bc", "type": "electric_scooter", "is_reserved": 0, "lon": -77.04234333333333}, {"fusion_lat": 0.0, "name": "6a38a0ba55bd8b424214bab5627215f2", "is_disabled": 0, "rental_uris": {"android": "https://dc.lft.to/lastmile_qr_scan", "ios": "https://dc.lft.to/lastmile_qr_scan"}, "fusion_lon": 0.0, "lat": 38.900993, "bike_id": "6a38a0ba55bd8b424214bab5627215f2", "type": "electric_scooter", "is_reserved": 0, "lon": -77.03379583333333}, {"fusion_lat": 0.0, "name": "2525d701b00d7b0b425c5944f39f33cf", "is_disabled": 0, "rental_uris": {"android": "https://dc.lft.to/lastmile_qr_scan", "ios": "https://dc.lft.to/lastmile_qr_scan"}, "fusion_lon": 0.0, "lat": 38.92261883333333, "bike_id": "2525d701b00d7b0b425c5944f39f33cf", "type": "electric_scooter", "is_reserved": 0, "lon": -77.0366355}, {"fusion_lat": 0.0, "name": "ac38ec58d7a445a6a08c625e21d6b767", "is_disabled": 0, "rental_uris": {"android": "https://dc.lft.to/lastmile_qr_scan", "ios": "https://dc.lft.to/lastmile_qr_scan"}, "fusion_lon": 0.0, "lat": 38.8921865, "bike_id": "ac38ec58d7a445a6a08c625e21d6b767", "type": "electric_scooter", "is_reserved": 0, "lon": -77.02775733333333}, {"fusion_lat": 0.0, "name": "d511bae057eac4c1ceb63192ec8c982d", "is_disabled": 0, "rental_uris": {"android": "https://dc.lft.to/lastmile_qr_scan", "ios": "https://dc.lft.to/lastmile_qr_scan"}, "fusion_lon": 0.0, "lat": 38.909719333333335, "bike_id": "d511bae057eac4c1ceb63192ec8c982d", "type": "electric_scooter", "is_reserved": 0, "lon": -77.03434416666667}, {"fusion_lat": 0.0, "name": "10c727b9f1872da9c1bb8e25a0c08da1", "is_disabled": 0, "rental_uris": {"android": "https://dc.lft.to/lastmile_qr_scan", "ios": "https://dc.lft.to/lastmile_qr_scan"}, "fusion_lon": 0.0, "lat": 38.905518666666666, "bike_id": "10c727b9f1872da9c1bb8e25a0c08da1", "type": "electric_scooter", "is_reserved": 0, "lon": -77.04664183333334}, {"fusion_lat": 0.0, "name": "2b992637523e270eddda0a8c30d073b3", "is_disabled": 0, "rental_uris": {"android": "https://dc.lft.to/lastmile_qr_scan", "ios": "https://dc.lft.to/lastmile_qr_scan"}, "fusion_lon": 0.0, "lat": 38.91800883333333, "bike_id": "2b992637523e270eddda0a8c30d073b3", "type": "electric_scooter", "is_reserved": 0, "lon": -77.03436716666667}, {"fusion_lat": 0.0, "name": "f011ad7d514403c3d6956f43fe87d3bd", "is_disabled": 0, "rental_uris": {"android": "https://dc.lft.to/lastmile_qr_scan", "ios": "https://dc.lft.to/lastmile_qr_scan"}, "fusion_lon": 0.0, "lat": 38.915626333333336, "bike_id": "f011ad7d514403c3d6956f43fe87d3bd", "type": "electric_scooter", "is_reserved": 0, "lon": -77.04169083333333}, {"fusion_lat": 0.0, "name": "9cc827df1c48642eee046aaf8f0f12b9", "is_disabled": 0, "rental_uris": {"android": "https://dc.lft.to/lastmile_qr_scan", "ios": "https://dc.lft.to/lastmile_qr_scan"}, "fusion_lon": 0.0, "lat": 38.902827, "bike_id": "9cc827df1c48642eee046aaf8f0f12b9", "type": "electric_scooter", "is_reserved": 0, "lon": -77.02848066666667}, {"fusion_lat": 0.0, "name": "27cf9697d9d49e77fb39fa5c97877bcd", "is_disabled": 0, "rental_uris": {"android": "https://dc.lft.to/lastmile_qr_scan", "ios": "https://dc.lft.to/lastmile_qr_scan"}, "fusion_lon": 0.0, "lat": 38.9180535, "bike_id": "27cf9697d9d49e77fb39fa5c97877bcd", "type": "electric_scooter", "is_reserved": 0, "lon": -77.02713483333333}, {"fusion_lat": 0.0, "name": "b261d5f5b5fc329dd8d06fdbdccbd794", "is_disabled": 0, "rental_uris": {"android": "https://dc.lft.to/lastmile_qr_scan", "ios": "https://dc.lft.to/lastmile_qr_scan"}, "fusion_lon": 0.0, "lat": 38.880372333333334, "bike_id": "b261d5f5b5fc329dd8d06fdbdccbd794", "type": "electric_scooter", "is_reserved": 0, "lon": -77.01329983333333}, {"fusion_lat": 0.0, "name": "a723f06cb75d116e46769e7c0a36c919", "is_disabled": 0, "rental_uris": {"android": "https://dc.lft.to/lastmile_qr_scan", "ios": "https://dc.lft.to/lastmile_qr_scan"}, "fusion_lon": 0.0, "lat": 38.928967666666665, "bike_id": "a723f06cb75d116e46769e7c0a36c919", "type": "electric_scooter", "is_reserved": 0, "lon": -77.03256316666666}, {"fusion_lat": 0.0, "name": "529d975df7529bade45b65920504b6fc", "is_disabled": 0, "rental_uris": {"android": "https://dc.lft.to/lastmile_qr_scan", "ios": "https://dc.lft.to/lastmile_qr_scan"}, "fusion_lon": 0.0, "lat": 38.87664516666667, "bike_id": "529d975df7529bade45b65920504b6fc", "type": "electric_bike", "is_reserved": 0, "lon": -77.02089066666667}, {"fusion_lat": 0.0, "name": "a4bd9d67fc7914b81605ccdb133ab8e4", "is_disabled": 0, "rental_uris": {"android": "https://dc.lft.to/lastmile_qr_scan", "ios": "https://dc.lft.to/lastmile_qr_scan"}, "fusion_lon": 0.0, "lat": 38.91254633333333, "bike_id": "a4bd9d67fc7914b81605ccdb133ab8e4", "type": "electric_scooter", "is_reserved": 0, "lon": -77.03866916666666}, {"fusion_lat": 0.0, "name": "7bf307e783ebdd1071df34ab2491212e", "is_disabled": 0, "rental_uris": {"android": "https://dc.lft.to/lastmile_qr_scan", "ios": "https://dc.lft.to/lastmile_qr_scan"}, "fusion_lon": 0.0, "lat": 38.92480233333333, "bike_id": "7bf307e783ebdd1071df34ab2491212e", "type": "electric_bike", "is_reserved": 0, "lon": -77.23348066666667}, {"fusion_lat": 0.0, "name": "9cecd15d102fb61958ade9e416929dc8", "is_disabled": 0, "rental_uris": {"android": "https://dc.lft.to/lastmile_qr_scan", "ios": "https://dc.lft.to/lastmile_qr_scan"}, "fusion_lon": 0.0, "lat": 38.93261916666667, "bike_id": "9cecd15d102fb61958ade9e416929dc8", "type": "electric_scooter", "is_reserved": 0, "lon": -77.019154}, {"fusion_lat": 0.0, "name": "bc07ae33bcfdf181c31b20ad715a5d17", "is_disabled": 0, "rental_uris": {"android": "https://dc.lft.to/lastmile_qr_scan", "ios": "https://dc.lft.to/lastmile_qr_scan"}, "fusion_lon": 0.0, "lat": 38.9152045, "bike_id": "bc07ae33bcfdf181c31b20ad715a5d17", "type": "electric_scooter", "is_reserved": 0, "lon": -77.07276666666667}, {"fusion_lat": 0.0, "name": "d55c4e0c471951a4cf42691222e15dab", "is_disabled": 0, "rental_uris": {"android": "https://dc.lft.to/lastmile_qr_scan", "ios": "https://dc.lft.to/lastmile_qr_scan"}, "fusion_lon": 0.0, "lat": 38.9042325, "bike_id": "d55c4e0c471951a4cf42691222e15dab", "type": "electric_scooter", "is_reserved": 0, "lon": -77.0502255}, {"fusion_lat": 0.0, "name": "7ae719b9815620ba7b47007eb91c4cd1", "is_disabled": 0, "rental_uris": {"android": "https://dc.lft.to/lastmile_qr_scan", "ios": "https://dc.lft.to/lastmile_qr_scan"}, "fusion_lon": 0.0, "lat": 38.939668166666664, "bike_id": "7ae719b9815620ba7b47007eb91c4cd1", "type": "electric_scooter", "is_reserved": 0, "lon": -77.032874}, {"fusion_lat": 0.0, "name": "8bf6ac7046d39dfd43cda2b1fcf0d0ac", "is_disabled": 0, "rental_uris": {"android": "https://dc.lft.to/lastmile_qr_scan", "ios": "https://dc.lft.to/lastmile_qr_scan"}, "fusion_lon": 0.0, "lat": 38.90807683333333, "bike_id": "8bf6ac7046d39dfd43cda2b1fcf0d0ac", "type": "electric_scooter", "is_reserved": 0, "lon": -77.03430133333333}, {"fusion_lat": 0.0, "name": "d8c733f33b51254fefe5aab81af61b61", "is_disabled": 0, "rental_uris": {"android": "https://dc.lft.to/lastmile_qr_scan", "ios": "https://dc.lft.to/lastmile_qr_scan"}, "fusion_lon": 0.0, "lat": 38.93488966666666, "bike_id": "d8c733f33b51254fefe5aab81af61b61", "type": "electric_scooter", "is_reserved": 0, "lon": -77.0454155}, {"fusion_lat": 0.0, "name": "b2c0aaa0fbb5388f1f8fbeecafdc09cd", "is_disabled": 0, "rental_uris": {"android": "https://dc.lft.to/lastmile_qr_scan", "ios": "https://dc.lft.to/lastmile_qr_scan"}, "fusion_lon": 0.0, "lat": 38.920761666666664, "bike_id": "b2c0aaa0fbb5388f1f8fbeecafdc09cd", "type": "electric_scooter", "is_reserved": 0, "lon": -77.023165},