{"data": {"bikes": [{"name": "9ee0365b53abd56da4d97ce582dccd47", "type": "electric_scooter", "lat": 38.902382333333335, "is_reserved": 0, "lon": -77.02693016666667, "fusion_lon": 0.0, "is_disabled": 0, "fusion_lat": 0.0, "bike_id": "9ee0365b53abd56da4d97ce582dccd47", "rental_uris": {"ios": "https://dc.lft.to/lastmile_qr_scan", "android": "https://dc.lft.to/lastmile_qr_scan"}}, {"name": "9415ab99c8484c2fb23aab193e5f9005", "type": "electric_scooter", "lat": 38.922898333333336, "is_reserved": 0, "lon": -77.04250166666667, "fusion_lon": 0.0, "is_disabled": 0, "fusion_lat": 0.0, "bike_id": "9415ab99c8484c2fb23aab193e5f9005", "rental_uris": {"ios": "https://dc.lft.to/lastmile_qr_scan", "android": "https://dc.lft.to/lastmile_qr_scan"}}, {"name": "e5c8600504c6d04e4f31cc324e3063f7", "type": "electric_scooter", "lat": 38.90436416666667, "is_reserved": 0, "lon": -77.03445766666667, "fusion_lon": 0.0, "is_disabled": 0, "fusion_lat": 0.0, "bike_id": "e5c8600504c6d04e4f31cc324e3063f7", "rental_uris": {"ios": "https://dc.lft.to/lastmile_qr_scan", "android": "https://dc.lft.to/lastmile_qr_scan"}}, {"name": "7ae768cf679969a6ac73ff30da611208", "type": "electric_scooter", "lat": 38.898827833333335, "is_reserved": 0, "lon": -77.03304533333333, "fusion_lon": 0.0, "is_disabled": 0, "fusion_lat": 0.0, "bike_id": "7ae768cf679969a6ac73ff30da611208", "rental_uris": {"ios": "https://dc.lft.to/lastmile_qr_scan", "android": "https://dc.lft.to/lastmile_qr_scan"}}, {"name": "674147d2fdaa2f906c7cf521cc5133e3", "type": "electric_scooter", "lat": 38.900366166666664, "is_reserved": 0, "lon": -76.988225, "fusion_lon": 0.0, "is_disabled": 0, "fusion_lat": 0.0, "bike_id": "674147d2fdaa2f906c7cf521cc5133e3", "rental_uris": {"ios": "https://dc.lft.to/lastmile_qr_scan", "android": "https://dc.lft.to/lastmile_qr_scan"}}, {"name": "f3a149ba5f6cb5735318f3026fa0953d", "type": "electric_scooter", "lat": 38.878548333333335, "is_reserved": 0, "lon": -77.01760166666666, "fusion_lon": 0.0, "is_disabled": 0, "fusion_lat": 0.0, "bike_id": "f3a149ba5f6cb5735318f3026fa0953d", "rental_uris": {"ios": "https://dc.lft.to/lastmile_qr_scan", "android": "https://dc.lft.to/lastmile_qr_scan"}}, {"name": "53170a1774561a7f47e137e852c9ffff", "type": "electric_scooter", "lat": 38.893478333333334, "is_reserved": 0, "lon": -76.99149066666666, "fusion_lon": 0.0, "is_disabled": 0, "fusion_lat": 0.0, "bike_id": "53170a1774561a7f47e137e852c9ffff", "rental_uris": {"ios": "https://dc.lft.to/lastmile_qr_scan", "android": "https://dc.lft.to/lastmile_qr_scan"}}, {"name": "58eb6ee67d074498ec88ab8908afad17", "type": "electric_scooter", "lat": 38.9105265, "is_reserved": 0, "lon": -77.04177583333333, "fusion_lon": 0.0, "is_disabled": 0, "fusion_lat": 0.0, "bike_id": "58eb6ee67d074498ec88ab8908afad17", "rental_uris": {"ios": "https://dc.lft.to/lastmile_qr_scan", "android": "https://dc.lft.to/lastmile_qr_scan"}}, {"name": "04078b9c9d8781e97a13f5f4456f1d5d", "type": "electric_scooter", "lat": 38.912111333333335, "is_reserved": 0, "lon": -77.03640283333333, "fusion_lon": 0.0, "is_disabled": 0, "fusion_lat": 0.0, "bike_id": "04078b9c9d8781e97a13f5f4456f1d5d", "rental_uris": {"ios": "https://dc.lft.to/lastmile_qr_scan", "android": "https://dc.lft.to/lastmile_qr_scan"}}, {"name": "b897d2d85220320c20d734b9ed0fe1ab", "type": "electric_scooter", "lat": 38.903800833333335, "is_reserved": 0, "lon": -77.03122983333333, "fusion_lon": 0.0, "is_disabled": 0, "fusion_lat": 0.0, "bike_id": "b897d2d85220320c20d734b9ed0fe1ab", "rental_uris": {"ios": "https://dc.lft.to/lastmile_qr_scan", "android": "https://dc.lft.to/lastmile_qr_scan"}}, {"name": "fb97d319dcd91d6b5a2b1fd947d94aa1", "type": "electric_scooter", "lat": 38.902498666666666, "is_reserved": 0, "lon": -77.0541485, "fusion_lon": 0.0, "is_disabled": 0, "fusion_lat": 0.0, "bike_id": "fb97d319dcd91d6b5a2b1fd947d94aa1", "rental_uris": {"ios": "https://dc.lft.to/lastmile_qr_scan", "android": "https://dc.lft.to/lastmile_qr_scan"}}, {"name": "7c20318bb143bfb1e20477e81ce71e20", "type": "electric_scooter", "lat": 38.90003316666667, "is_reserved": 0, "lon": -77.040384, "fusion_lon": 0.0, "is_disabled": 0, "fusion_lat": 0.0, "bike_id": "7c20318bb143bfb1e20477e81ce71e20", "rental_uris": {"ios": "https://dc.lft.to/lastmile_qr_scan", "android": "https://dc.lft.to/lastmile_qr_scan"}}, {"name": "42e81f5585bcae960bc75b6ca53ce5c3", "type": "electric_scooter", "lat": 38.90363083333333, "is_reserved": 0, "lon": -77.0386845, "fusion_lon": 0.0, "is_disabled": 0, "fusion_lat": 0.0, "bike_id": "42e81f5585bcae960bc75b6ca53ce5c3", "rental_uris": {"ios": "https://dc.lft.to/lastmile_qr_scan", "android": "https://dc.lft.to/lastmile_qr_scan"}}, {"name": "96a2c9796a004e4847bbb057d6855645", "type": "electric_scooter", "lat": 38.878626, "is_reserved": 0, "lon": -76.96527683333333, "fusion_lon": 0.0, "is_disabled": 0, "fusion_lat": 0.0, "bike_id": "96a2c9796a004e4847bbb057d6855645", "rental_uris": {"ios": "https://dc.lft.to/lastmile_qr_scan", "android": "https://dc.lft.to/lastmile_qr_scan"}}, {"name": "97ab3c6195d47e13241c248f66a441b6", "type": "electric_scooter", "lat": 38.8962565, "is_reserved": 0, "lon": -77.03233666666667, "fusion_lon": 0.0, "is_disabled": 0, "fusion_lat": 0.0, "bike_id": "97ab3c6195d47e13241c248f66a441b6", "rental_uris": {"ios": "https://dc.lft.to/lastmile_qr_scan", "android": "https://dc.lft.to/lastmile_qr_scan"}}, {"name": "5709fd52645af6acb7357b0d3320c6c8", "type": "electric_scooter", "lat": 38.90395, "is_reserved": 0, "lon": -77.03194133333334, "fusion_lon": 0.0, "is_disabled": 0, "fusion_lat": 0.0, "bike_id": "5709fd52645af6acb7357b0d3320c6c8", "rental_uris": {"ios": "https://dc.lft.to/lastmile_qr_scan", "android": "https://dc.lft.to/lastmile_qr_scan"}}, {"name": "bd226ef9cd5d1d51f639a0aee1f947ad", "type": "electric_scooter", "lat": 38.88383433333333, "is_reserved": 0, "lon": -76.93052966666667, "fusion_lon": 0.0, "is_disabled": 0, "fusion_lat": 0.0, "bike_id": "bd226ef9cd5d1d51f639a0aee1f947ad", "rental_uris": {"ios": "https://dc.lft.to/lastmile_qr_scan", "android": "https://dc.lft.to/lastmile_qr_scan"}}, {"name": "571f44ccc9e0d95f223675a617b3d6a5", "type": "electric_scooter", "lat": 38.903797833333336, "is_reserved": 0, "lon": -77.03187383333334, "fusion_lon": 0.0, "is_disabled": 0, "fusion_lat": 0.0, "bike_id": "571f44ccc9e0d95f223675a617b3d6a5", "rental_uris": {"ios": "https://dc.lft.to/lastmile_qr_scan", "android": "https://dc.lft.to/lastmile_qr_scan"}}, {"name": "94560fea0aa671fe2c786495c29dfc87", "type": "electric_scooter", "lat": 38.938888, "is_reserved": 0, "lon": -77.02470416666667, "fusion_lon": 0.0, "is_disabled": 0, "fusion_lat": 0.0, "bike_id": "94560fea0aa671fe2c786495c29dfc87", "rental_uris": {"ios": "https://dc.lft.to/lastmile_qr_scan", "android": "https://dc.lft.to/lastmile_qr_scan"}}, {"name": "c09f6d50f0c2495e341445b229f25532", "type": "electric_scooter", "lat": 38.89491433333333, "is_reserved": 0, "lon": -77.010115, "fusion_lon": 0.0, "is_disabled": 0, "fusion_lat": 0.0, "bike_id": "c09f6d50f0c2495e341445b229f25532", "rental_uris": {"ios": "https://dc.lft.to/lastmile_qr_scan", "android": "https://dc.lft.to/lastmile_qr_scan"}}, {"name": "cfdd0b95cdb07acd5e1b6dad90c71d68", "type": "electric_bike", "lat": 38.886152, "is_reserved": 0, "lon": -77.1075585, "fusion_lon": 0.0, "is_disabled": 0, "fusion_lat": 0.0, "bike_id": "cfdd0b95cdb07acd5e1b6dad90c71d68", "rental_uris": {"ios": "https://dc.lft.to/lastmile_qr_scan", "android": "https://dc.lft.to/lastmile_qr_scan"}}, {"name": "5178ac536c6176bf7f92d43d7ab28b7b", "type": "electric_scooter", "lat": 38.90308916666667, "is_reserved": 0, "lon": -77.04986166666667, "fusion_lon": 0.0, "is_disabled": 0, "fusion_lat": 0.0, "bike_id": "5178ac536c6176bf7f92d43d7ab28b7b", "rental_uris": {"ios": "https://dc.lft.to/lastmile_qr_scan", "android": "https://dc.lft.to/lastmile_qr_scan"}}, {"name": "284a1f73485979c098ab7a36ce845bfd", "type": "electric_scooter", "lat": 38.909645833333336, "is_reserved": 0, "lon": -77.03296116666667, "fusion_lon": 0.0, "is_disabled": 0, "fusion_lat": 0.0, "bike_id": "284a1f73485979c098ab7a36ce845bfd", "rental_uris": {"ios": "https://dc.lft.to/lastmile_qr_scan", "android": "https://dc.lft.to/lastmile_qr_scan"}}, {"name": "032b4d5a0460b457cea3e120d572ebc7", "type": "electric_bike", "lat": 38.922087833333336, "is_reserved": 0, "lon": -76.98799616666666, "fusion_lon": 0.0, "is_disabled": 0, "fusion_lat": 0.0, "bike_id": "032b4d5a0460b457cea3e120d572ebc7", "rental_uris": {"ios": "https://dc.lft.to/lastmile_qr_scan", "android": "https://dc.lft.to/lastmile_qr_scan"}}, {"name": "2c7f6bc1339fdd7d8046afe72c0418c5", "type": "electric_scooter", "lat": 38.8875135, "is_reserved": 0, "lon": -76.97982766666667, "fusion_lon": 0.0, "is_disabled": 0, "fusion_lat": 0.0, "bike_id": "2c7f6bc1339fdd7d8046afe72c0418c5", "rental_uris": {"ios": "https://dc.lft.to/lastmile_qr_scan", "android": "https://dc.lft.to/lastmile_qr_scan"}}, {"name": "2268f27cf91c3c8282297a8483885891", "type": "electric_scooter", "lat": 38.902701, "is_reserved": 0, "lon": -77.038319, "fusion_lon": 0.0, "is_disabled": 0, "fusion_lat": 0.0, "bike_id": "2268f27cf91c3c8282297a8483885891", "rental_uris": {"ios": "https://dc.lft.to/lastmile_qr_scan", "android": "https://dc.lft.to/lastmile_qr_scan"}}, {"name": "552c68540d45054c99bb93841137c65b", "type": "electric_scooter", "lat": 38.91929233333333, "is_reserved": 0, "lon": -77.03392466666666, "fusion_lon": 0.0, "is_disabled": 0, "fusion_lat": 0.0, "bike_id": "552c68540d45054c99bb93841137c65b", "rental_uris": {"ios": "https://dc.lft.to/lastmile_qr_scan", "android": "https://dc.lft.to/lastmile_qr_scan"}}, {"name": "9424bfeb1b2b950dd1a49c96f4203ab9", "type": "electric_scooter", "lat": 38.90480133333333, "is_reserved": 0, "lon": -77.0415575, "fusion_lon": 0.0, "is_disabled": 0, "fusion_lat": 0.0, "bike_id": "9424bfeb1b2b950dd1a49c96f4203ab9", "rental_uris": {"ios": "https://dc.lft.to/lastmile_qr_scan", "android": "https://dc.lft.to/lastmile_qr_scan"}}, {"name": "33350f75c8e845a491b6c46e6149e397", "type": "electric_scooter", "lat": 38.90955, "is_reserved": 0, "lon": -77.04547583333333, "fusion_lon": 0.0, "is_disabled": 0, "fusion_lat": 0.0, "bike_id": "33350f75c8e845a491b6c46e6149e397", "rental_uris": {"ios": "https://dc.lft.to/lastmile_qr_scan", "android": "https://dc.lft.to/lastmile_qr_scan"}}, {"name": "8589a060474b4bd2c666b0559a05e570", "type": "electric_scooter", "lat": 38.8965785, "is_reserved": 0, "lon": -77.04923516666666, "fusion_lon": 0.0, "is_disabled": 0, "fusion_lat": 0.0, "bike_id": "8589a060474b4bd2c666b0559a05e570", "rental_uris": {"ios": "https://dc.lft.to/lastmile_qr_scan", "android": "https://dc.lft.to/lastmile_qr_scan"}}, {"name": "e0a27255930e78891560551f9abcca15", "type": "electric_scooter", "lat": 38.92418766666667, "is_reserved": 0, "lon": -77.01946133333334, "fusion_lon": 0.0, "is_disabled": 0, "fusion_lat": 0.0, "bike_id": "e0a27255930e78891560551f9abcca15", "rental_uris": {"ios": "https://dc.lft.to/lastmile_qr_scan", "android": "https://dc.lft.to/lastmile_qr_scan"}}, {"name": "6ad80969ea6ea0939af5f3f5e2c49cb2", "type": "electric_scooter", "lat": 38.892232666666665, "is_reserved": 0, "lon": -77.04335183333333, "fusion_lon": 0.0, "is_disabled": 0, "fusion_lat": 0.0, "bike_id": "6ad80969ea6ea0939af5f3f5e2c49cb2", "rental_uris": {"ios": "https://dc.lft.to/lastmile_qr_scan", "android": "https://dc.lft.to/lastmile_qr_scan"}}, {"name": "1d401078723b95e530cb1dd6eece6daf", "type": "electric_scooter", "lat": 38.92875516666667, "is_reserved": 0, "lon": -77.04129466666667, "fusion_lon": 0.0, "is_disabled": 0, "fusion_lat": 0.0, "bike_id": "1d401078723b95e530cb1dd6eece6daf", "rental_uris": {"ios": "https://dc.lft.to/lastmile_qr_scan", "android": "https://dc.lft.to/lastmile_qr_scan"}}, {"name": "91c87a56f65a7e3d3afd4db9025d91ee", "type": "electric_scooter", "lat": 38.895521, "is_reserved": 0, "lon": -77.0468665, "fusion_lon": 0.0, "is_disabled": 0, "fusion_lat": 0.0, "bike_id": "91c87a56f65a7e3d3afd4db9025d91ee", "rental_uris": {"ios": "https://dc.lft.to/lastmile_qr_scan", "android": "https://dc.lft.to/lastmile_qr_scan"}}, {"name": "f37ca1ab3d726e245eba225731783ef7", "type": "electric_scooter", "lat": 38.919167333333334, "is_reserved": 0, "lon": -77.0240265, "fusion_lon": 0.0, "is_disabled": 0, "fusion_lat": 0.0, "bike_id": "f37ca1ab3d726e245eba225731783ef7", "rental_uris": {"ios": "https://dc.lft.to/lastmile_qr_scan", "android": "https://dc.lft.to/lastmile_qr_scan"}}, {"name": "b9925b591f1356c8c8d1075cda161e00", "type": "electric_bike", "lat": 38.95479666666667, "is_reserved": 0, "lon": -77.08243366666666, "fusion_lon": 0.0, "is_disabled": 0, "fusion_lat": 0.0, "bike_id": "b9925b591f1356c8c8d1075cda161e00", "rental_uris": {"ios": "https://dc.lft.to/lastmile_qr_scan", "android": "https://dc.lft.to/lastmile_qr_scan"}}, {"name": "0b0bb9c3b86aca07d9c965411a060231", "type": "electric_scooter", "lat": 38.91480766666667, "is_reserved": 0, "lon": -77.0097745, "fusion_lon": 0.0, "is_disabled": 0, "fusion_lat": 0.0, "bike_id": "0b0bb9c3b86aca07d9c965411a060231", "rental_uris": {"ios": "https://dc.lft.to/lastmile_qr_scan", "android": "https://dc.lft.to/lastmile_qr_scan"}}, {"name": "eff475f97933ae95fc8d1a8871d715fd", "type": "electric_scooter", "lat": 38.93358466666667, "is_reserved": 0, "lon": -77.05745533333334, "fusion_lon": 0.0, "is_disabled": 0, "fusion_lat": 0.0, "bike_id": "eff475f97933ae95fc8d1a8871d715fd", "rental_uris": {"ios": "https://dc.lft.to/lastmile_qr_scan", "android": "https://dc.lft.to/lastmile_qr_scan"}}, {"name": "849f3f16411bb354207d187ab12f7d29", "type": "electric_scooter", "lat": 38.90108333333333, "is_reserved": 0, "lon": -77.030489, "fusion_lon": 0.0, "is_disabled": 0, "fusion_lat": 0.0, "bike_id": "849f3f16411bb354207d187ab12f7d29", "rental_uris": {"ios": "https://dc.lft.to/lastmile_qr_scan", "android": "https://dc.lft.to/lastmile_qr_scan"}}, {"name": "01960e1c11b711eccdf45782bc004990", "type": "electric_scooter", "lat": 38.92590216666667, "is_reserved": 0, "lon": -77.029615, "fusion_lon": 0.0, "is_disabled": 0, "fusion_lat": 0.0, "bike_id": "01960e1c11b711eccdf45782bc004990", "rental_uris": {"ios": "https://dc.lft.to/lastmile_qr_scan", "android": "https://dc.lft.to/lastmile_qr_scan"}}, {"name": "a59f55ebaab8d21aab7c797999f1eeee", "type": "electric_bike", "lat": 38.9367185, "is_reserved": 0, "lon": -76.95207066666667, "fusion_lon": 0.0, "is_disabled": 0, "fusion_lat": 0.0, "bike_id": "a59f55ebaab8d21aab7c797999f1eeee", "rental_uris": {"ios": "https://dc.lft.to/lastmile_qr_scan", "android": "https://dc.lft.to/lastmile_qr_scan"}}, {"name": "e24dff4eced0393e288b0c09e05d01dd", "type": "electric_scooter", "lat": 38.899436666666666, "is_reserved": 0, "lon": -77.021602, "fusion_lon": 0.0, "is_disabled": 0, "fusion_lat": 0.0, "bike_id": "e24dff4eced0393e288b0c09e05d01dd", "rental_uris": {"ios": "https://dc.lft.to/lastmile_qr_scan", "android": "https://dc.lft.to/lastmile_qr_scan"}}, {"name": "eed4d498a095edd531abdf395bdd6e13", "type": "electric_scooter", "lat": 38.876335, "is_reserved": 0, "lon": -77.006497, "fusion_lon": 0.0, "is_disabled": 0, "fusion_lat": 0.0, "bike_id": "eed4d498a095edd531abdf395bdd6e13", "rental_uris": {"ios": "https://dc.lft.to/lastmile_qr_scan", "android": "https://dc.lft.to/lastmile_qr_scan"}}, {"name": "620368cedeb7c6c23a3288353120ac33", "type": "electric_scooter", "lat": 38.91108333333333, "is_reserved": 0, "lon": -77.03148183333333, "fusion_lon": 0.0, "is_disabled": 0, "fusion_lat": 0.0, "bike_id": "620368cedeb7c6c23a3288353120ac33", "rental_uris": {"ios": "https://dc.lft.to/lastmile_qr_scan", "android": "https://dc.lft.to/lastmile_qr_scan"}}, {"name": "d7e622a77b494b461eafd23bfb339189", "type": "electric_scooter", "lat": 38.9034825, "is_reserved": 0, "lon": -76.97567883333333, "fusion_lon": 0.0, "is_disabled": 0, "fusion_lat": 0.0, "bike_id": "d7e622a77b494b461eafd23bfb339189", "rental_uris": {"ios": "https://dc.lft.to/lastmile_qr_scan", "android": "https://dc.lft.to/lastmile_qr_scan"}}, {"name": "e11d861650800460e3420ccb098e20fb", "type": "electric_scooter", "lat": 38.920123833333335, "is_reserved": 0, "lon": -77.03867516666666, "fusion_lon": 0.0, "is_disabled": 0, "fusion_lat": 0.0, "bike_id": "e11d861650800460e3420ccb098e20fb", "rental_uris": {"ios": "https://dc.lft.to/lastmile_qr_scan", "android": "https://dc.lft.to/lastmile_qr_scan"}}, {"name": "4f0be1cd923493e175a674869a4c3fda", "type": "electric_scooter", "lat": 38.8799835, "is_reserved": 0, "lon": -76.985449, "fusion_lon": 0.0, "is_disabled": 0, "fusion_lat": 0.0, "bike_id": "4f0be1cd923493e175a674869a4c3fda", "rental_uris": {"ios": "https://dc.lft.to/lastmile_qr_scan", "android": "https://dc.lft.to/lastmile_qr_scan"}}, {"name": "e747cf80d5aef290d8da8ab5db828552", "type": "electric_scooter", "lat": 38.92153866666666, "is_reserved": 0, "lon": -77.0422755, "fusion_lon": 0.0, "is_disabled": 0, "fusion_lat": 0.0, "bike_id": "e747cf80d5aef290d8da8ab5db828552", "rental_uris": {"ios": "https://dc.lft.to/lastmile_qr_scan", "android": "https://dc.lft.to/lastmile_qr_scan"}}, {"name": "cc51d04a2fdae0f9c5e492001d3caeb8", "type": "electric_scooter", "lat": 38.9178055, "is_reserved": 0, "lon": -77.02305033333333, "fusion_lon": 0.0, "is_disabled": 0, "fusion_lat": 0.0, "bike_id": "cc51d04a2fdae0f9c5e492001d3caeb8", "rental_uris": {"ios": "https://dc.lft.to/lastmile_qr_scan", "android": "https://dc.lft.to/lastmile_qr_scan"}}, {"name": "b02f95a8bd5c54a9f127801075a74d4e", "type": "electric_scooter", "lat": 38.905233, "is_reserved": 0, "lon": -77.05230883333333, "fusion_lon": 0.0, "is_disabled": 0, "fusion_lat": 0.0, "bike_id": "b02f95a8bd5c54a9f127801075a74d4e", "rental_uris": {"ios": "https://dc.lft.to/lastmile_qr_scan", "android": "https://dc.lft.to/lastmile_qr_scan"}}, {"name": "be86a7ad50221718047b83f8390babbc", "type": "electric_scooter", "lat": 38.90650566666667, "is_reserved": 0, "lon": -77.04307433333334, "fusion_lon": 0.0, "is_disabled": 0, "fusion_lat": 0.0, "bike_id": "be86a7ad50221718047b83f8390babbc", "rental_uris": {"ios": "https://dc.lft.to/lastmile_qr_scan", "android": "https://dc.lft.to/lastmile_qr_scan"}}, {"name": "25b542145812a33f2dd249f39b24891b", "type": "electric_scooter", "lat": 38.88516, "is_reserved": 0, "lon": -77.03349633333333, "fusion_lon": 0.0, "is_disabled": 0, "fusion_lat": 0.0, "bike_id": "25b542145812a33f2dd249f39b24891b", "rental_uris": {"ios": "https://dc.lft.to/lastmile_qr_scan", "android": "https://dc.lft.to/lastmile_qr_scan"}}, {"name": "35f15fb14076192f2c24f494ee8d69be", "type": "electric_scooter", "lat": 38.9191085, "is_reserved": 0, "lon": -77.02132433333334, "fusion_lon": 0.0, "is_disabled": 0, "fusion_lat": 0.0, "bike_id": "35f15fb14076192f2c24f494ee8d69be", "rental_uris": {"ios": "https://dc.lft.to/lastmile_qr_scan", "android": "https://dc.lft.to/lastmile_qr_scan"}}, {"name": "317bd5173788fe8135add765c655d12f", "type": "electric_scooter", "lat": 38.94447133333333, "is_reserved": 0, "lon": -77.0635555, "fusion_lon": 0.0, "is_disabled": 0, "fusion_lat": 0.0, "bike_id": "317bd5173788fe8135add765c655d12f", "rental_uris": {"ios": "https://dc.lft.to/lastmile_qr_scan", "android": "https://dc.lft.to/lastmile_qr_scan"}}, {"name": "37b1bbb3a381f7c4aec57db5b4939b48", "type": "electric_scooter", "lat": 38.90130466666667, "is_reserved": 0, "lon": -77.04437533333333, "fusion_lon": 0.0, "is_disabled": 0, "fusion_lat": 0.0, "bike_id": "37b1bbb3a381f7c4aec57db5b4939b48", "rental_uris": {"ios": "https://dc.lft.to/lastmile_qr_scan", "android": "https://dc.lft.to/lastmile_qr_scan"}}, {"name": "07874195f6c71fd40e5025db409cd4c2", "type": "electric_scooter", "lat": 38.842969, "is_reserved": 0, "lon": -76.99954216666667, "fusion_lon": 0.0, "is_disabled": 0, "fusion_lat": 0.0, "bike_id": "07874195f6c71fd40e5025db409cd4c2", "rental_uris": {"ios": "https://dc.lft.to/lastmile_qr_scan", "android": "https://dc.lft.to/lastmile_qr_scan"}}, {"name": "042120ec50d9ce2a5b0a19ce860457d0", "type": "electric_scooter", "lat": 38.894709666666664, "is_reserved": 0, "lon": -77.0092855, "fusion_lon": 0.0, "is_disabled": 0, "fusion_lat": 0.0, "bike_id": "042120ec50d9ce2a5b0a19ce860457d0", "rental_uris": {"ios": "https://dc.lft.to/lastmile_qr_scan", "android": "https://dc.lft.to/lastmile_qr_scan"}}, {"name": "23d768ef484eb3a2ade83e2816ad16d1", "type": "electric_scooter", "lat": 38.92030533333333, "is_reserved": 0, "lon": -77.01119, "fusion_lon": 0.0, "is_disabled": 0, "fusion_lat": 0.0, "bike_id": "23d768ef484eb3a2ade83e2816ad16d1", "rental_uris": {"ios": "https://dc.lft.to/lastmile_qr_scan", "android": "https://dc.lft.to/lastmile_qr_scan"}}, {"name": "77ade79af89faf9934a6f587953b91be", "type": "electric_scooter", "lat": 38.897372, "is_reserved": 0, "lon": -76.94724366666667, "fusion_lon": 0.0, "is_disabled": 0, "fusion_lat": 0.0, "bike_id": "77ade79af89faf9934a6f587953b91be", "rental_uris": {"ios": "https://dc.lft.to/lastmile_qr_scan", "android": "https://dc.lft.to/lastmile_qr_scan"}}, {"name": "35f123f14011bb94c17afbb6ef998168", "type": "electric_scooter", "lat": 38.9749685, "is_reserved": 0, "lon": -77.0168845, "fusion_lon": 0.0, "is_disabled": 0, "fusion_lat": 0.0, "bike_id": "35f123f14011bb94c17afbb6ef998168", "rental_uris": {"ios": "https://dc.lft.to/lastmile_qr_scan", "android": "https://dc.lft.to/lastmile_qr_scan"}}, {"name": "b34c1a748817b5f5582a827586930503", "type": "electric_scooter", "lat": 38.90527683333333, "is_reserved": 0, "lon": -77.050431, "fusion_lon": 0.0, "is_disabled": 0, "fusion_lat": 0.0, "bike_id": "b34c1a748817b5f5582a827586930503", "rental_uris": {"ios": "https://dc.lft.to/lastmile_qr_scan", "android": "https://dc.lft.to/lastmile_qr_scan"}}, {"name": "cf7f6f11519542ca4cb52d72b2dceb98", "type": "electric_scooter", "lat": 38.90251116666666, "is_reserved": 0, "lon": -77.03167616666667, "fusion_lon": 0.0, "is_disabled": 0, "fusion_lat": 0.0, "bike_id": "cf7f6f11519542ca4cb52d72b2dceb98", "rental_uris": {"ios": "https://dc.lft.to/lastmile_qr_scan", "android": "https://dc.lft.to/lastmile_qr_scan"}}, {"name": "bdcc19bf3ff64f7ac6a1519b9451a9e3", "type": "electric_scooter", "lat": 38.921480833333334, "is_reserved": 0, "lon": -77.03508566666666, "fusion_lon": 0.0, "is_disabled": 0, "fusion_lat": 0.0, "bike_id": "bdcc19bf3ff64f7ac6a1519b9451a9e3", "rental_uris": {"ios": "https://dc.lft.to/lastmile_qr_scan", "android": "https://dc.lft.to/lastmile_qr_scan"}}, {"name": "6537bccb17b3f253dacefe89714296a2", "type": "electric_scooter", "lat": 38.91217133333333, "is_reserved": 0, "lon": -77.076017, "fusion_lon": 0.0, "is_disabled": 0, "fusion_lat": 0.0, "bike_id": "6537bccb17b3f253dacefe89714296a2", "rental_uris": {"ios": "https://dc.lft.to/lastmile_qr_scan", "android": "https://dc.lft.to/lastmile_qr_scan"}}, {"name": "97d302461ee78cc79b0bfa262f7b3489", "type": "electric_scooter", "lat": 38.905682666666664, "is_reserved": 0, "lon": -77.0571045, "fusion_lon": 0.0, "is_disabled": 0, "fusion_lat": 0.0, "bike_id": "97d302461ee78cc79b0bfa262f7b3489", "rental_uris": {"ios": "https://dc.lft.to/lastmile_qr_scan", "android": "https://dc.lft.to/lastmile_qr_scan"}}, {"name": "f2f9dad136455d5f9133f520789235f7", "type": "electric_scooter", "lat": 38.9057125, "is_reserved": 0, "lon": -77.02223916666667, "fusion_lon": 0.0, "is_disabled": 0, "fusion_lat": 0.0, "bike_id": "f2f9dad136455d5f9133f520789235f7", "rental_uris": {"ios": "https://dc.lft.to/lastmile_qr_scan", "android": "https://dc.lft.to/lastmile_qr_scan"}}, {"name": "ef8228733f18b39edf24f84ca2c56883", "type": "electric_scooter", "lat": 38.934602166666664, "is_reserved": 0, "lon": -77.08635666666666, "fusion_lon": 0.0, "is_disabled": 0, "fusion_lat": 0.0, "bike_id": "ef8228733f18b39edf24f84ca2c56883", "rental_uris": {"ios": "https://dc.lft.to/lastmile_qr_scan", "android": "https://dc.lft.to/lastmile_qr_scan"}}, {"name": "ec0aaf821bdf217048ff9f2cde02489d", "type": "electric_scooter", "lat": 38.8995125, "is_reserved": 0, "lon": -77.052754, "fusion_lon": 0.0, "is_disabled": 0, "fusion_lat": 0.0, "bike_id": "ec0aaf821bdf217048ff9f2cde02489d", "rental_uris": {"ios": "https://dc.lft.to/lastmile_qr_scan", "android": "https://dc.lft.to/lastmile_qr_scan"}}, {"name": "dde990a1bd9fb2af27f5d2f62c0eb346", "type": "electric_scooter", "lat": 38.90324566666666, "is_reserved": 0, "lon": -77.052449, "fusion_lon": 0.0, "is_disabled": 0, "fusion_lat": 0.0, "bike_id": "dde990a1bd9fb2af27f5d2f62c0eb346", "rental_uris": {"ios": "https://dc.lft.to/lastmile_qr_scan", "android": "https://dc.lft.to/lastmile_qr_scan"}}, {"name": "8012a33e809a0a0238539380e4e042b9", "type": "electric_scooter", "lat": 38.90116733333333, "is_reserved": 0, "lon": -77.03321966666667, "fusion_lon": 0.0, "is_disabled": 0, "fusion_lat": 0.0, "bike_id": "8012a33e809a0a0238539380e4e042b9", "rental_uris": {"ios": "https://dc.lft.to/lastmile_qr_scan", "android": "https://dc.lft.to/lastmile_qr_scan"}}, {"name": "c1e396fdcb6c77575f741e327a78f50e", "type": "electric_scooter", "lat": 38.92727683333333, "is_reserved": 0, "lon": -77.03975683333333, "fusion_lon": 0.0, "is_disabled": 0, "fusion_lat": 0.0, "bike_id": "c1e396fdcb6c77575f741e327a78f50e", "rental_uris": {"ios": "https://dc.lft.to/lastmile_qr_scan", "android": "https://dc.lft.to/lastmile_qr_scan"}}, {"name": "fc52be71968891c5613673074597b602", "type": "electric_bike", "lat": 38.94321166666667, "is_reserved": 0, "lon": -76.96177116666667, "fusion_lon": 0.0, "is_disabled": 0, "fusion_lat": 0.0, "bike_id": "fc52be71968891c5613673074597b602", "rental_uris": {"ios": "https://dc.lft.to/lastmile_qr_scan", "android": "https://dc.lft.to/lastmile_qr_scan"}}, {"name": "4145d45671d4009fb12100c5118bafa9", "type": "electric_scooter", "lat": 38.936082166666665, "is_reserved": 0, "lon": -77.0558445, "fusion_lon": 0.0, "is_disabled": 0, "fusion_lat": 0.0, "bike_id": "4145d45671d4009fb12100c5118bafa9", "rental_uris": {"ios": "https://dc.lft.to/lastmile_qr_scan", "android": "https://dc.lft.to/lastmile_qr_scan"}}, {"name": "a9cfbd762d3bb531cf906246823468d3", "type": "electric_scooter", "lat": 38.91115416666667, "is_reserved": 0, "lon": -77.0434545, "fusion_lon": 0.0, "is_disabled": 0, "fusion_lat": 0.0, "bike_id": "a9cfbd762d3bb531cf906246823468d3", "rental_uris": {"ios": "https://dc.lft.to/lastmile_qr_scan", "android": "https://dc.lft.to/lastmile_qr_scan"}}, {"name": "0dfb6cdd22e02210cd3867e2027ec22f", "type": "electric_scooter", "lat": 38.89609866666667, "is_reserved": 0, "lon": -76.99971366666666, "fusion_lon": 0.0, "is_disabled": 0, "fusion_lat": 0.0, "bike_id": "0dfb6cdd22e02210cd3867e2027ec22f", "rental_uris": {"ios": "https://dc.lft.to/lastmile_qr_scan", "android": "https://dc.lft.to/lastmile_qr_scan"}}, {"name": "10c5ed010ff3988d5e32e84dae311c3f", "type": "electric_scooter", "lat": 38.88709933333333, "is_reserved": 0, "lon": -77.02821016666667, "fusion_lon": 0.0, "is_disabled": 0, "fusion_lat": 0.0, "bike_id": "10c5ed010ff3988d5e32e84dae311c3f", "rental_uris": {"ios": "https://dc.lft.to/lastmile_qr_scan", "android": "https://dc.lft.to/lastmile_qr_scan"}}, {"name": "8bb89883da7fa97aa976c9a9b75d90b7", "type": "electric_scooter", "lat": 38.942076666666665, "is_reserved": 0, "lon": -77.0251535, "fusion_lon": 0.0, "is_disabled": 0, "fusion_lat": 0.0, "bike_id": "8bb89883da7fa97aa976c9a9b75d90b7", "rental_uris": {"ios": "https://dc.lft.to/lastmile_qr_scan", "android": "https://dc.lft.to/lastmile_qr_scan"}}, {"name": "de486528bb4287fd22657c366f1cb827", "type": "electric_scooter", "lat": 38.87456533333334, "is_reserved": 0, "lon": -77.00760783333334, "fusion_lon": 0.0, "is_disabled": 0, "fusion_lat": 0.0, "bike_id": "de486528bb4287fd22657c366f1cb827", "rental_uris": {"ios": "https://dc.lft.to/lastmile_qr_scan", "android": "https://dc.lft.to/lastmile_qr_scan"}}, {"name": "6ef767f12a8729e0fb9cd51537e7f317", "type": "electric_scooter", "lat": 38.90029033333333, "is_reserved": 0, "lon": -76.998694, "fusion_lon": 0.0, "is_disabled": 0, "fusion_lat": 0.0, "bike_id": "6ef767f12a8729e0fb9cd51537e7f317", "rental_uris": {"ios": "https://dc.lft.to/lastmile_qr_scan", "android": "https://dc.lft.to/lastmile_qr_scan"}}, {"name": "14f990e54521e35a399381dbaec5b2e3", "type": "electric_bike", "lat": 38.945856, "is_reserved": 0, "lon": -77.0027085, "fusion_lon": 0.0, "is_disabled": 0, "fusion_lat": 0.0, "bike_id": "14f990e54521e35a399381dbaec5b2e3", "rental_uris": {"ios": "https://dc.lft.to/lastmile_qr_scan", "android": "https://dc.lft.to/lastmile_qr_scan"}}, {"name": "8980a70456eb381597a1b8956fa331e1", "type": "electric_scooter", "lat": 38.8935435, "is_reserved": 0, "lon": -77.003377, "fusion_lon": 0.0, "is_disabled": 0, "fusion_lat": 0.0, "bike_id": "8980a70456eb381597a1b8956fa331e1", "rental_uris": {"ios": "https://dc.lft.to/lastmile_qr_scan", "android": "https://dc.lft.to/lastmile_qr_scan"}}, {"name": "a1942080990234ac2121cc41499b2774", "type": "electric_scooter", "lat": 38.92796666666667, "is_reserved": 0, "lon": -77.04358316666666, "fusion_lon": 0.0, "is_disabled": 0, "fusion_lat": 0.0, "bike_id": "a1942080990234ac2121cc41499b2774", "rental_uris": {"ios": "https://dc.lft.to/lastmile_qr_scan", "android": "https://dc.lft.to/lastmile_qr_scan"}}, {"name": "7c90406ad3a1928b4da19a5f67d8c117", "type": "electric_scooter", "lat": 38.9110065, "is_reserved": 0, "lon": -77.04670933333334, "fusion_lon": 0.0, "is_disabled": 0, "fusion_lat": 0.0, "bike_id": "7c90406ad3a1928b4da19a5f67d8c117", "rental_uris": {"ios": "https://dc.lft.to/lastmile_qr_scan", "android": "https://dc.lft.to/lastmile_qr_scan"}}, {"name": "d0650d6ddf229859be67ac677943a831", "type": "electric_bike", "lat": 38.87500766666667, "is_reserved": 0, "lon": -77.00029966666666, "fusion_lon": 0.0, "is_disabled": 0, "fusion_lat": 0.0, "bike_id": "d0650d6ddf229859be67ac677943a831", "rental_uris": {"ios": "https://dc.lft.to/lastmile_qr_scan", "android": "https://dc.lft.to/lastmile_qr_scan"}}, {"name": "cddb258608386621377962638b4ce854", "type": "electric_scooter", "lat": 38.94289783333333, "is_reserved": 0, "lon": -77.02788783333334, "fusion_lon": 0.0, "is_disabled": 0, "fusion_lat": 0.0, "bike_id": "cddb258608386621377962638b4ce854", "rental_uris": {"ios": "https://dc.lft.to/lastmile_qr_scan", "android": "https://dc.lft.to/lastmile_qr_scan"}}, {"name": "5b06e21106492e3c79abbed8c8e8b3aa", "type": "electric_scooter", "lat": 38.906710833333335, "is_reserved": 0, "lon": -77.0375875, "fusion_lon": 0.0, "is_disabled": 0, "fusion_lat": 0.0, "bike_id": "5b06e21106492e3c79abbed8c8e8b3aa", "rental_uris": {"ios": "https://dc.lft.to/lastmile_qr_scan", "android": "https://dc.lft.to/lastmile_qr_scan"}}, {"name": "37850c011015ad64054b0fcd5654cf1d", "type": "electric_scooter", "lat": 38.90328866666667, "is_reserved": 0, "lon": -77.0383385, "fusion_lon": 0.0, "is_disabled": 0, "fusion_lat": 0.0, "bike_id": "37850c011015ad64054b0fcd5654cf1d", "rental_uris": {"ios": "https://dc.lft.to/lastmile_qr_scan", "android": "https://dc.lft.to/lastmile_qr_scan"}}, {"name": "e945edb6730fb44e730b612c671bd3ea", "type": "electric_scooter", "lat": 38.90640916666667, "is_reserved": 0, "lon": -77.03860466666667, "fusion_lon": 0.0, "is_disabled": 0, "fusion_lat": 0.0, "bike_id": "e945edb6730fb44e730b612c671bd3ea", "rental_uris": {"ios": "https://dc.lft.to/lastmile_qr_scan", "android": "https://dc.lft.to/lastmile_qr_scan"}}, {"name": "3033e418f652cc55347a4f0856ee4685", "type": "electric_scooter", "lat": 38.9141225, "is_reserved": 0, "lon": -77.03995583333334, "fusion_lon": 0.0, "is_disabled": 0, "fusion_lat": 0.0, "bike_id": "3033e418f652cc55347a4f0856ee4685", "rental_uris": {"ios": "https://dc.lft.to/lastmile_qr_scan", "android": "https://dc.lft.to/lastmile_qr_scan"}}, {"name": "510584da5a5f1b1062c2a563bb6d6170", "type": "electric_bike", "lat": 38.990893, "is_reserved": 0, "lon": -76.87498566666666, "fusion_lon": 0.0, "is_disabled": 0, "fusion_lat": 0.0, "bike_id": "510584da5a5f1b1062c2a563bb6d6170", "rental_uris": {"ios": "https://dc.lft.to/lastmile_qr_scan", "android": "https://dc.lft.to/lastmile_qr_scan"}}, {"name": "1d894faa6b9f3b0fc7c834e179bd8c2e", "type": "electric_scooter", "lat": 38.884070666666666, "is_reserved": 0, "lon": -77.01503783333334, "fusion_lon": 0.0, "is_disabled": 0, "fusion_lat": 0.0, "bike_id": "1d894faa6b9f3b0fc7c834e179bd8c2e", "rental_uris": {"ios": "https://dc.lft.to/lastmile_qr_scan", "android": "https://dc.lft.to/lastmile_qr_scan"}}, {"name": "415ece6c03d2a8ba82215b3180c300a0", "type": "electric_scooter", "lat": 38.8666995, "is_reserved": 0, "lon": -76.98440833333333, "fusion_lon": 0.0, "is_disabled": 0, "fusion_lat": 0.0, "bike_id": "415ece6c03d2a8ba82215b3180c300a0", "rental_uris": {"ios": "https://dc.lft.to/lastmile_qr_scan", "android": "https://dc.lft.to/lastmile_qr_scan"}}, {"name": "15c6ac3b42a3197a536987712b500ca3", "type": "electric_scooter", "lat": 38.892217333333335, "is_reserved": 0, "lon": -77.01964516666666, "fusion_lon": 0.0, "is_disabled": 0, "fusion_lat": 0.0, "bike_id": "15c6ac3b42a3197a536987712b500ca3", "rental_uris": {"ios": "https://dc.lft.to/lastmile_qr_scan", "android": "https://dc.lft.to/lastmile_qr_scan"}}, {"name": "67474f3b168d6e348132ead5689146ac", "type": "electric_scooter", "lat": 38.924436166666666, "is_reserved": 0, "lon": -77.03352433333333, "fusion_lon": 0.0, "is_disabled": 0, "fusion_lat": 0.0, "bike_id": "67474f3b168d6e348132ead5689146ac", "rental_uris": {"ios": "https://dc.lft.to/lastmile_qr_scan", "android": "https://dc.lft.to/lastmile_qr_scan"}}, {"name": "f9cc75823ce71947e9d7bf8305638eab", "type": "electric_scooter", "lat": 38.87674066666666, "is_reserved": 0, "lon": -77.01781616666666, "fusion_lon": 0.0, "is_disabled": 0, "fusion_lat": 0.0, "bike_id": "f9cc75823ce71947e9d7bf8305638eab", "rental_uris": {"ios": "https://dc.lft.to/lastmile_qr_scan", "android": "https://dc.lft.to/lastmile_qr_scan"}}, {"name": "9f156b62ba5843fc20752cb93f76d13b", "type": "electric_scooter", "lat": 38.89970866666667, "is_reserved": 0, "lon": -77.05706983333333, "fusion_lon": 0.0, "is_disabled": 0, "fusion_lat": 0.0, "bike_id": "9f156b62ba5843fc20752cb93f76d13b", "rental_uris": {"ios": "https://dc.lft.to/lastmile_qr_scan", "android": "https://dc.lft.to/lastmile_qr_scan"}}, {"name": "d5863e8a39b4201a55139d9c33777b5f", "type": "electric_scooter", "lat": 38.9360255, "is_reserved": 0, "lon": -77.05862783333333, "fusion_lon": 0.0, "is_disabled": 0, "fusion_lat": 0.0, "bike_id": "d5863e8a39b4201a55139d9c33777b5f", "rental_uris": {"ios": "https://dc.lft.to/lastmile_qr_scan", "android": "https://dc.lft.to/lastmile_qr_scan"}}, {"name": "3325cac0aa86708eb9027b1f45480aa7", "type": "electric_bike", "lat": 38.82866883333333, "is_reserved": 0, "lon": -77.11226866666667, "fusion_lon": 0.0, "is_disabled": 0, "fusion_lat": 0.0, "bike_id": "3325cac0aa86708eb9027b1f45480aa7", "rental_uris": {"ios": "https://dc.lft.to/lastmile_qr_scan", "android": "https://dc.lft.to/lastmile_qr_scan"}}, {"name": "06419d47273cfe797e5a6ea2d8d77ecf", "type": "electric_scooter", "lat": 38.9064085, "is_reserved": 0, "lon": -77.03853433333333, "fusion_lon": 0.0, "is_disabled": 0, "fusion_lat": 0.0, "bike_id": "06419d47273cfe797e5a6ea2d8d77ecf", "rental_uris": {"ios": "https://dc.lft.to/lastmile_qr_scan", "android": "https://dc.lft.to/lastmile_qr_scan"}}, {"name": "6628896d1de18bedb917a19e4e7e4057", "type": "electric_scooter", "lat": 38.95380866666667, "is_reserved": 0, "lon": -76.99917133333334, "fusion_lon": 0.0, "is_disabled": 0, "fusion_lat": 0.0, "bike_id": "6628896d1de18bedb917a19e4e7e4057", "rental_uris": {"ios": "https://dc.lft.to/lastmile_qr_scan", "android": "https://dc.lft.to/lastmile_qr_scan"}}, {"name": "a80e9be4ba5f83d3aa3d106d25588fae", "type": "electric_scooter", "lat": 38.91858783333333, "is_reserved": 0, "lon": -77.0417885, "fusion_lon": 0.0, "is_disabled": 0, "fusion_lat": 0.0, "bike_id": "a80e9be4ba5f83d3aa3d106d25588fae", "rental_uris": {"ios": "https://dc.lft.to/lastmile_qr_scan", "android": "https://dc.lft.to/lastmile_qr_scan"}}, {"name": "8ebe89b17e47def5b3c3cae797326ede", "type": "electric_bike", "lat": 39.038817, "is_reserved": 0, "lon": -76.9904565, "fusion_lon": 0.0, "is_disabled": 0, "fusion_lat": 0.0, "bike_id": "8ebe89b17e47def5b3c3cae797326ede", "rental_uris": {"ios": "https://dc.lft.to/lastmile_qr_scan", "android": "https://dc.lft.to/lastmile_qr_scan"}}, {"name": "3b4a68e053cdd1317edda6b877e99d84", "type": "electric_scooter", "lat": 38.901391833333335, "is_reserved": 0, "lon": -77.04166683333334, "fusion_lon": 0.0, "is_disabled": 0, "fusion_lat": 0.0, "bike_id": "3b4a68e053cdd1317edda6b877e99d84", "rental_uris": {"ios": "https://dc.lft.to/lastmile_qr_scan", "android": "https://dc.lft.to/lastmile_qr_scan"}}, {"name": "bef5fba1fd20994c3ea2536246afdb64", "type": "electric_scooter", "lat": 38.915567333333335, "is_reserved": 0, "lon": -77.045227, "fusion_lon": 0.0, "is_disabled": 0, "fusion_lat": 0.0, "bike_id": "bef5fba1fd20994c3ea2536246afdb64", "rental_uris": {"ios": "https://dc.lft.to/lastmile_qr_scan", "android": "https://dc.lft.to/lastmile_qr_scan"}}, {"name": "ef1c17a17474139a919f350c79637a64", "type": "electric_scooter", "lat": 38.90357683333333, "is_reserved": 0, "lon": -77.05375416666666, "fusion_lon": 0.0, "is_disabled": 0, "fusion_lat": 0.0, "bike_id": "ef1c17a17474139a919f350c79637a64", "rental_uris": {"ios": "https://dc.lft.to/lastmile_qr_scan", "android": "https://dc.lft.to/lastmile_qr_scan"}}, {"name": "920ca7477f9104cfd650e81260932a77", "type": "electric_scooter", "lat": 38.943112666666664, "is_reserved": 0, "lon": -77.05934416666666, "fusion_lon": 0.0, "is_disabled": 0, "fusion_lat": 0.0, "bike_id": "920ca7477f9104cfd650e81260932a77", "rental_uris": {"ios": "https://dc.lft.to/lastmile_qr_scan", "android": "https://dc.lft.to/lastmile_qr_scan"}}, {"name": "aac5a7b6980c75d3bb1c386bebc9e1f8", "type": "electric_scooter", "lat": 38.93428483333334, "is_reserved": 0, "lon": -77.04005083333334, "fusion_lon": 0.0, "is_disabled": 0, "fusion_lat": 0.0, "bike_id": "aac5a7b6980c75d3bb1c386bebc9e1f8", "rental_uris": {"ios": "https://dc.lft.to/lastmile_qr_scan", "android": "https://dc.lft.to/lastmile_qr_scan"}}, {"name": "44075fb707b521687dbc5e1f2e204ad1", "type": "electric_scooter", "lat": 38.904799, "is_reserved": 0, "lon": -77.03824033333333, "fusion_lon": 0.0, "is_disabled": 0, "fusion_lat": 0.0, "bike_id": "44075fb707b521687dbc5e1f2e204ad1", "rental_uris": {"ios": "https://dc.lft.to/lastmile_qr_scan", "android": "https://dc.lft.to/lastmile_qr_scan"}}, {"name": "9cab1e0a4a8a19d5d5bd3fc54afd989d", "type": "electric_scooter", "lat": 38.88504783333333, "is_reserved": 0, "lon": -77.03066516666667, "fusion_lon": 0.0, "is_disabled": 0, "fusion_lat": 0.0, "bike_id": "9cab1e0a4a8a19d5d5bd3fc54afd989d", "rental_uris": {"ios": "https://dc.lft.to/lastmile_qr_scan", "android": "https://dc.lft.to/lastmile_qr_scan"}}, {"name": "87d019eeca740be197e5241c10c4f418", "type": "electric_scooter", "lat": 38.90609333333333, "is_reserved": 0, "lon": -77.0321305, "fusion_lon": 0.0, "is_disabled": 0, "fusion_lat": 0.0, "bike_id": "87d019eeca740be197e5241c10c4f418", "rental_uris": {"ios": "https://dc.lft.to/lastmile_qr_scan", "android": "https://dc.lft.to/lastmile_qr_scan"}}, {"name": "e4ed23eaa03d749e138f7797bc3127b3", "type": "electric_scooter", "lat": 38.88325066666667, "is_reserved": 0, "lon": -77.017666, "fusion_lon": 0.0, "is_disabled": 0, "fusion_lat": 0.0, "bike_id": "e4ed23eaa03d749e138f7797bc3127b3", "rental_uris": {"ios": "https://dc.lft.to/lastmile_qr_scan", "android": "https://dc.lft.to/lastmile_qr_scan"}}, {"name": "528a2b5af6f9b02fde7d7ba7f83e6826", "type": "electric_scooter", "lat": 38.90507933333333, "is_reserved": 0, "lon": -77.05217483333334, "fusion_lon": 0.0, "is_disabled": 0, "fusion_lat": 0.0, "bike_id": "528a2b5af6f9b02fde7d7ba7f83e6826", "rental_uris": {"ios": "https://dc.lft.to/lastmile_qr_scan", "android": "https://dc.lft.to/lastmile_qr_scan"}}, {"name": "76f2a29a4311e29b0abe5fdd1f955e18", "type": "electric_scooter", "lat": 38.931130333333336, "is_reserved": 0, "lon": -77.03823633333333, "fusion_lon": 0.0, "is_disabled": 0, "fusion_lat": 0.0, "bike_id": "76f2a29a4311e29b0abe5fdd1f955e18", "rental_uris": {"ios": "https://dc.lft.to/lastmile_qr_scan", "android": "https://dc.lft.to/lastmile_qr_scan"}}, {"name": "10c41b7a6b11be8c1aad4f17ce7df07c", "type": "electric_scooter", "lat": 38.90983, "is_reserved": 0, "lon": -77.04873116666667, "fusion_lon": 0.0, "is_disabled": 0, "fusion_lat": 0.0, "bike_id": "10c41b7a6b11be8c1aad4f17ce7df07c", "rental_uris": {"ios": "https://dc.lft.to/lastmile_qr_scan", "android": "https://dc.lft.to/lastmile_qr_scan"}}, {"name": "a70bed71792997f9d4bccc5718297bb3", "type": "electric_scooter", "lat": 38.901560333333336, "is_reserved": 0, "lon": -77.02035966666666, "fusion_lon": 0.0, "is_disabled": 0, "fusion_lat": 0.0, "bike_id": "a70bed71792997f9d4bccc5718297bb3", "rental_uris": {"ios": "https://dc.lft.to/lastmile_qr_scan", "android": "https://dc.lft.to/lastmile_qr_scan"}}, {"name": "0b19677da6ca1d1f6dbe6a70d1a0477b", "type": "electric_scooter", "lat": 38.939614166666665, "is_reserved": 0, "lon": -77.02750933333333, "fusion_lon": 0.0, "is_disabled": 0, "fusion_lat": 0.0, "bike_id": "0b19677da6ca1d1f6dbe6a70d1a0477b", "rental_uris": {"ios": "https://dc.lft.to/lastmile_qr_scan", "android": "https://dc.lft.to/lastmile_qr_scan"}}, {"name": "33c2986b0ad2401d3474b1347e737e2c", "type": "electric_scooter", "lat": 38.8871855, "is_reserved": 0, "lon": -76.95371866666666, "fusion_lon": 0.0, "is_disabled": 0, "fusion_lat": 0.0, "bike_id": "33c2986b0ad2401d3474b1347e737e2c", "rental_uris": {"ios": "https://dc.lft.to/lastmile_qr_scan", "android": "https://dc.lft.to/lastmile_qr_scan"}}, {"name": "fc1408d60a67a814ee22048a4734da91", "type": "electric_bike", "lat": 38.832364, "is_reserved": 0, "lon": -76.94622483333333, "fusion_lon": 0.0, "is_disabled": 0, "fusion_lat": 0.0, "bike_id": "fc1408d60a67a814ee22048a4734da91", "rental_uris": {"ios": "https://dc.lft.to/lastmile_qr_scan", "android": "https://dc.lft.to/lastmile_qr_scan"}}, {"name": "3775f71c2121ce5030644dc84e1489cd", "type": "electric_scooter", "lat": 38.927501, "is_reserved": 0, "lon": -77.02315516666667, "fusion_lon": 0.0, "is_disabled": 0, "fusion_lat": 0.0, "bike_id": "3775f71c2121ce5030644dc84e1489cd", "rental_uris": {"ios": "https://dc.lft.to/lastmile_qr_scan", "android": "https://dc.lft.to/lastmile_qr_scan"}}, {"name": "ac5326fa8ad4ba4a5b0719f7c69f25ba", "type": "electric_scooter", "lat": 38.91587533333333, "is_reserved": 0, "lon": -77.04259033333334, "fusion_lon": 0.0, "is_disabled": 0, "fusion_lat": 0.0, "bike_id": "ac5326fa8ad4ba4a5b0719f7c69f25ba", "rental_uris": {"ios": "https://dc.lft.to/lastmile_qr_scan", "android": "https://dc.lft.to/lastmile_qr_scan"}}, {"name": "21902947f59f9e205830ef87998f10b0", "type": "electric_scooter", "lat": 38.927891, "is_reserved": 0, "lon": -77.01396566666666, "fusion_lon": 0.0, "is_disabled": 0, "fusion_lat": 0.0, "bike_id": "21902947f59f9e205830ef87998f10b0", "rental_uris": {"ios": "https://dc.lft.to/lastmile_qr_scan", "android": "https://dc.lft.to/lastmile_qr_scan"}}, {"name": "0a4771ada2c4cc40354da843bf86fc86", "type": "electric_scooter", "lat": 38.90778183333333, "is_reserved": 0, "lon": -77.07161966666666, "fusion_lon": 0.0, "is_disabled": 0, "fusion_lat": 0.0, "bike_id": "0a4771ada2c4cc40354da843bf86fc86", "rental_uris": {"ios": "https://dc.lft.to/lastmile_qr_scan", "android": "https://dc.lft.to/lastmile_qr_scan"}}, {"name": "6785048656de9d857da500c3e36d6904", "type": "electric_scooter", "lat": 38.88276833333333, "is_reserved": 0, "lon": -76.98612116666666, "fusion_lon": 0.0, "is_disabled": 0, "fusion_lat": 0.0, "bike_id": "6785048656de9d857da500c3e36d6904", "rental_uris": {"ios": "https://dc.lft.to/lastmile_qr_scan", "android": "https://dc.lft.to/lastmile_qr_scan"}}, {"name": "3aa69881154daa06da1159e30930cd01", "type": "electric_scooter", "lat": 38.900319333333336, "is_reserved": 0, "lon": -77.00205566666666, "fusion_lon": 0.0, "is_disabled": 0, "fusion_lat": 0.0, "bike_id": "3aa69881154daa06da1159e30930cd01", "rental_uris": {"ios": "https://dc.lft.to/lastmile_qr_scan", "android": "https://dc.lft.to/lastmile_qr_scan"}}, {"name": "0ee50aa584040827b4d5de2d9d95c0e9", "type": "electric_scooter", "lat": 38.86830916666667, "is_reserved": 0, "lon": -76.98611166666667, "fusion_lon": 0.0, "is_disabled": 0, "fusion_lat": 0.0, "bike_id": "0ee50aa584040827b4d5de2d9d95c0e9", "rental_uris": {"ios": "https://dc.lft.to/lastmile_qr_scan", "android": "https://dc.lft.to/lastmile_qr_scan"}}, {"name": "171bbc2fde0e1f59d12e9845e7d0f74f", "type": "electric_scooter", "lat": 38.924833666666665, "is_reserved": 0, "lon": -77.0299665, "fusion_lon": 0.0, "is_disabled": 0, "fusion_lat": 0.0, "bike_id": "171bbc2fde0e1f59d12e9845e7d0f74f", "rental_uris": {"ios": "https://dc.lft.to/lastmile_qr_scan", "android": "https://dc.lft.to/lastmile_qr_scan"}}, {"name": "e76c4bc69cf5df1338bcdb373d71c67e", "type": "electric_scooter", "lat": 38.924095, "is_reserved": 0, "lon": -77.04072966666666, "fusion_lon": 0.0, "is_disabled": 0, "fusion_lat": 0.0, "bike_id": "e76c4bc69cf5df1338bcdb373d71c67e", "rental_uris": {"ios": "https://dc.lft.to/lastmile_qr_scan", "android": "https://dc.lft.to/lastmile_qr_scan"}}, {"name": "bfc0b6324b8c0bb336b8775d457d7e5e", "type": "electric_scooter", "lat": 38.9045975, "is_reserved": 0, "lon": -77.04645366666666, "fusion_lon": 0.0, "is_disabled": 0, "fusion_lat": 0.0, "bike_id": "bfc0b6324b8c0bb336b8775d457d7e5e", "rental_uris": {"ios": "https://dc.lft.to/lastmile_qr_scan", "android": "https://dc.lft.to/lastmile_qr_scan"}}, {"name": "547778a77f65774387f1a86651acf1e6", "type": "electric_scooter", "lat": 38.94449316666667, "is_reserved": 0, "lon": -77.063597, "fusion_lon": 0.0, "is_disabled": 0, "fusion_lat": 0.0, "bike_id": "547778a77f65774387f1a86651acf1e6", "rental_uris": {"ios": "https://dc.lft.to/lastmile_qr_scan", "android": "https://dc.lft.to/lastmile_qr_scan"}}, {"name": "59127730953c31bbd66d037b092675ae", "type": "electric_bike", "lat": 38.80223733333333, "is_reserved": 0, "lon": -77.07917666666667, "fusion_lon": 0.0, "is_disabled": 0, "fusion_lat": 0.0, "bike_id": "59127730953c31bbd66d037b092675ae", "rental_uris": {"ios": "https://dc.lft.to/lastmile_qr_scan", "android": "https://dc.lft.to/lastmile_qr_scan"}}, {"name": "db0be02aff5852ec5487a81df2fbf89b", "type": "electric_scooter", "lat": 38.91250333333333, "is_reserved": 0, "lon": -77.038376, "fusion_lon": 0.0, "is_disabled": 0, "fusion_lat": 0.0, "bike_id": "db0be02aff5852ec5487a81df2fbf89b", "rental_uris": {"ios": "https://dc.lft.to/lastmile_qr_scan", "android": "https://dc.lft.to/lastmile_qr_scan"}}, {"name": "7c86daf728759ff05d379f04d8b4f362", "type": "electric_bike", "lat": 38.906844, "is_reserved": 0, "lon": -76.95189133333334, "fusion_lon": 0.0, "is_disabled": 0, "fusion_lat": 0.0, "bike_id": "7c86daf728759ff05d379f04d8b4f362", "rental_uris": {"ios": "https://dc.lft.to/lastmile_qr_scan", "android": "https://dc.lft.to/lastmile_qr_scan"}}, {"name": "aa4f38ed1ce80d0a7115713723f6c5f1", "type": "electric_scooter", "lat": 38.903834, "is_reserved": 0, "lon": -77.0110355, "fusion_lon": 0.0, "is_disabled": 0, "fusion_lat": 0.0, "bike_id": "aa4f38ed1ce80d0a7115713723f6c5f1", "rental_uris": {"ios": "https://dc.lft.to/lastmile_qr_scan", "android": "https://dc.lft.to/lastmile_qr_scan"}}, {"name": "ba57a847ba5399e57b92e4d9445e1deb", "type": "electric_scooter", "lat": 38.896361, "is_reserved": 0, "lon": -77.041588, "fusion_lon": 0.0, "is_disabled": 0, "fusion_lat": 0.0, "bike_id": "ba57a847ba5399e57b92e4d9445e1deb", "rental_uris": {"ios": "https://dc.lft.to/lastmile_qr_scan", "android": "https://dc.lft.to/lastmile_qr_scan"}}, {"name": "078b1e29dba8634583c4ca2242711437", "type": "electric_scooter", "lat": 38.9033455, "is_reserved": 0, "lon": -76.998524, "fusion_lon": 0.0, "is_disabled": 0, "fusion_lat": 0.0, "bike_id": "078b1e29dba8634583c4ca2242711437", "rental_uris": {"ios": "https://dc.lft.to/lastmile_qr_scan", "android": "https://dc.lft.to/lastmile_qr_scan"}}, {"name": "c6b8f937da89a770e5be585c36cbfc10", "type": "electric_scooter", "lat": 38.906483, "is_reserved": 0, "lon": -77.02512033333333, "fusion_lon": 0.0, "is_disabled": 0, "fusion_lat": 0.0, "bike_id": "c6b8f937da89a770e5be585c36cbfc10", "rental_uris": {"ios": "https://dc.lft.to/lastmile_qr_scan", "android": "https://dc.lft.to/lastmile_qr_scan"}}, {"name": "c6c065f59170e8a1be199d271fcd333b", "type": "electric_scooter", "lat": 38.9389155, "is_reserved": 0, "lon": -77.02462833333334, "fusion_lon": 0.0, "is_disabled": 0, "fusion_lat": 0.0, "bike_id": "c6c065f59170e8a1be199d271fcd333b", "rental_uris": {"ios": "https://dc.lft.to/lastmile_qr_scan", "android": "https://dc.lft.to/lastmile_qr_scan"}}, {"name": "518f1b73b6f785ca8b8ec026c6ac89ae", "type": "electric_scooter", "lat": 38.934162666666666, "is_reserved": 0, "lon": -77.0724405, "fusion_lon": 0.0, "is_disabled": 0, "fusion_lat": 0.0, "bike_id": "518f1b73b6f785ca8b8ec026c6ac89ae", "rental_uris": {"ios": "https://dc.lft.to/lastmile_qr_scan", "android": "https://dc.lft.to/lastmile_qr_scan"}}, {"name": "49257f7532bcc08c8ad6d78462cfab3e", "type": "electric_scooter", "lat": 38.9055365, "is_reserved": 0, "lon": -77.03068066666667, "fusion_lon": 0.0, "is_disabled": 0, "fusion_lat": 0.0, "bike_id": "49257f7532bcc08c8ad6d78462cfab3e", "rental_uris": {"ios": "https://dc.lft.to/lastmile_qr_scan", "android": "https://dc.lft.to/lastmile_qr_scan"}}, {"name": "0dcd75a647c42065488fe7c5ffc75901", "type": "electric_scooter", "lat": 38.8970915, "is_reserved": 0, "lon": -77.03101166666667, "fusion_lon": 0.0, "is_disabled": 0, "fusion_lat": 0.0, "bike_id": "0dcd75a647c42065488fe7c5ffc75901", "rental_uris": {"ios": "https://dc.lft.to/lastmile_qr_scan", "android": "https://dc.lft.to/lastmile_qr_scan"}}, {"name": "41815826c6315a765419e7029e9c753b", "type": "electric_scooter", "lat": 38.901228833333334, "is_reserved": 0, "lon": -77.033885, "fusion_lon": 0.0, "is_disabled": 0, "fusion_lat": 0.0, "bike_id": "41815826c6315a765419e7029e9c753b", "rental_uris": {"ios": "https://dc.lft.to/lastmile_qr_scan", "android": "https://dc.lft.to/lastmile_qr_scan"}}, {"name": "e9e597a36c7c278af6dce739be335f48", "type": "electric_scooter", "lat": 38.8621965, "is_reserved": 0, "lon": -76.99482533333334, "fusion_lon": 0.0, "is_disabled": 0, "fusion_lat": 0.0, "bike_id": "e9e597a36c7c278af6dce739be335f48", "rental_uris": {"ios": "https://dc.lft.to/lastmile_qr_scan", "android": "https://dc.lft.to/lastmile_qr_scan"}}, {"name": "3786b748dc7b78fd6aa4db724a978b97", "type": "electric_scooter", "lat": 38.9034915, "is_reserved": 0, "lon": -77.038495, "fusion_lon": 0.0, "is_disabled": 0, "fusion_lat": 0.0, "bike_id": "3786b748dc7b78fd6aa4db724a978b97", "rental_uris": {"ios": "https://dc.lft.to/lastmile_qr_scan", "android": "https://dc.lft.to/lastmile_qr_scan"}}, {"name": "9accf0b40d005b1a2159065245fb5064", "type": "electric_scooter", "lat": 38.959238166666665, "is_reserved": 0, "lon": -77.03325233333334, "fusion_lon": 0.0, "is_disabled": 0, "fusion_lat": 0.0, "bike_id": "9accf0b40d005b1a2159065245fb5064", "rental_uris": {"ios": "https://dc.lft.to/lastmile_qr_scan", "android": "https://dc.lft.to/lastmile_qr_scan"}}, {"name": "5fd12fc2dbb67a52a4d7b44e1bb2a88b", "type": "electric_scooter", "lat": 38.901121833333335, "is_reserved": 0, "lon": -77.05166916666667, "fusion_lon": 0.0, "is_disabled": 0, "fusion_lat": 0.0, "bike_id": "5fd12fc2dbb67a52a4d7b44e1bb2a88b", "rental_uris": {"ios": "https://dc.lft.to/lastmile_qr_scan", "android": "https://dc.lft.to/lastmile_qr_scan"}}, {"name": "81c46556731ec6d8867bb89a454b72ad", "type": "electric_scooter", "lat": 38.89807166666667, "is_reserved": 0, "lon": -76.99499216666666, "fusion_lon": 0.0, "is_disabled": 0, "fusion_lat": 0.0, "bike_id": "81c46556731ec6d8867bb89a454b72ad", "rental_uris": {"ios": "https://dc.lft.to/lastmile_qr_scan", "android": "https://dc.lft.to/lastmile_qr_scan"}}, {"name": "7b58967518b2bc7da09bc277a1d3e2e0", "type": "electric_scooter", "lat": 38.923436333333335, "is_reserved": 0, "lon": -77.050991, "fusion_lon": 0.0, "is_disabled": 0, "fusion_lat": 0.0, "bike_id": "7b58967518b2bc7da09bc277a1d3e2e0", "rental_uris": {"ios": "https://dc.lft.to/lastmile_qr_scan", "android": "https://dc.lft.to/lastmile_qr_scan"}}, {"name": "e41a4f4a9f2681922473d95542290ebd", "type": "electric_scooter", "lat": 38.896289833333334, "is_reserved": 0, "lon": -77.02692916666666, "fusion_lon": 0.0, "is_disabled": 0, "fusion_lat": 0.0, "bike_id": "e41a4f4a9f2681922473d95542290ebd", "rental_uris": {"ios": "https://dc.lft.to/lastmile_qr_scan", "android": "https://dc.lft.to/lastmile_qr_scan"}}, {"name": "43aa51ee776d75b14d0eb8d157bd00f5", "type": "electric_scooter", "lat": 38.916098, "is_reserved": 0, "lon": -77.03855033333333, "fusion_lon": 0.0, "is_disabled": 0, "fusion_lat": 0.0, "bike_id": "43aa51ee776d75b14d0eb8d157bd00f5", "rental_uris": {"ios": "https://dc.lft.to/lastmile_qr_scan", "android": "https://dc.lft.to/lastmile_qr_scan"}}, {"name": "e616d64ef780456b6a3b4bd14496d05c", "type": "electric_scooter", "lat": 38.910964666666665, "is_reserved": 0, "lon": -77.07346666666666, "fusion_lon": 0.0, "is_disabled": 0, "fusion_lat": 0.0, "bike_id": "e616d64ef780456b6a3b4bd14496d05c", "rental_uris": {"ios": "https://dc.lft.to/lastmile_qr_scan", "android": "https://dc.lft.to/lastmile_qr_scan"}}, {"name": "51d80d4ed84469fbf8a829634abfabf7", "type": "electric_bike", "lat": 38.89218266666666, "is_reserved": 0, "lon": -77.1078385, "fusion_lon": 0.0, "is_disabled": 0, "fusion_lat": 0.0, "bike_id": "51d80d4ed84469fbf8a829634abfabf7", "rental_uris": {"ios": "https://dc.lft.to/lastmile_qr_scan", "android": "https://dc.lft.to/lastmile_qr_scan"}}, {"name": "883c42f169895a06d0262c8197878d48", "type": "electric_scooter", "lat": 38.912632333333335, "is_reserved": 0, "lon": -77.03158183333333, "fusion_lon": 0.0, "is_disabled": 0, "fusion_lat": 0.0, "bike_id": "883c42f169895a06d0262c8197878d48", "rental_uris": {"ios": "https://dc.lft.to/lastmile_qr_scan", "android": "https://dc.lft.to/lastmile_qr_scan"}}, {"name": "ea94b5d225f9f221901934289f9a2a9a", "type": "electric_scooter", "lat": 38.87763016666667, "is_reserved": 0, "lon": -76.99418266666666, "fusion_lon": 0.0, "is_disabled": 0, "fusion_lat": 0.0, "bike_id": "ea94b5d225f9f221901934289f9a2a9a", "rental_uris": {"ios": "https://dc.lft.to/lastmile_qr_scan", "android": "https://dc.lft.to/lastmile_qr_scan"}}, {"name": "d84f3b3f76e4d3a3236aeac909390a25", "type": "electric_scooter", "lat": 38.937017833333336, "is_reserved": 0, "lon": -77.0559715, "fusion_lon": 0.0, "is_disabled": 0, "fusion_lat": 0.0, "bike_id": "d84f3b3f76e4d3a3236aeac909390a25", "rental_uris": {"ios": "https://dc.lft.to/lastmile_qr_scan", "android": "https://dc.lft.to/lastmile_qr_scan"}}, {"name": "3df2568060afc6f8d163b71b68b8ac1f", "type": "electric_scooter", "lat": 38.924798333333335, "is_reserved": 0, "lon": -77.0521075, "fusion_lon": 0.0, "is_disabled": 0, "fusion_lat": 0.0, "bike_id": "3df2568060afc6f8d163b71b68b8ac1f", "rental_uris": {"ios": "https://dc.lft.to/lastmile_qr_scan", "android": "https://dc.lft.to/lastmile_qr_scan"}}, {"name": "fff3e764e237b991c308bc41783bf367", "type": "electric_scooter", "lat": 38.903819166666665, "is_reserved": 0, "lon": -77.0449485, "fusion_lon": 0.0, "is_disabled": 0, "fusion_lat": 0.0, "bike_id": "fff3e764e237b991c308bc41783bf367", "rental_uris": {"ios": "https://dc.lft.to/lastmile_qr_scan", "android": "https://dc.lft.to/lastmile_qr_scan"}}, {"name": "6ba901b5e66afee119ad8629b2564216", "type": "electric_scooter", "lat": 38.942905833333334, "is_reserved": 0, "lon": -77.02173233333333, "fusion_lon": 0.0, "is_disabled": 0, "fusion_lat": 0.0, "bike_id": "6ba901b5e66afee119ad8629b2564216", "rental_uris": {"ios": "https://dc.lft.to/lastmile_qr_scan", "android": "https://dc.lft.to/lastmile_qr_scan"}}, {"name": "53c8d42694c35d2a1846d89053884fea", "type": "electric_scooter", "lat": 38.905199833333334, "is_reserved": 0, "lon": -77.04157566666666, "fusion_lon": 0.0, "is_disabled": 0, "fusion_lat": 0.0, "bike_id": "53c8d42694c35d2a1846d89053884fea", "rental_uris": {"ios": "https://dc.lft.to/lastmile_qr_scan", "android": "https://dc.lft.to/lastmile_qr_scan"}}, {"name": "81abdb5eb00683ab1e51688a474dcc10", "type": "electric_scooter", "lat": 38.933937, "is_reserved": 0, "lon": -77.03581616666666, "fusion_lon": 0.0, "is_disabled": 0, "fusion_lat": 0.0, "bike_id": "81abdb5eb00683ab1e51688a474dcc10", "rental_uris": {"ios": "https://dc.lft.to/lastmile_qr_scan", "android": "https://dc.lft.to/lastmile_qr_scan"}}, {"name": "aca1dd5227256eb188f94b8943429747", "type": "electric_scooter", "lat": 38.911227833333335, "is_reserved": 0, "lon": -77.04350516666666, "fusion_lon": 0.0, "is_disabled": 0, "fusion_lat": 0.0, "bike_id": "aca1dd5227256eb188f94b8943429747", "rental_uris": {"ios": "https://dc.lft.to/lastmile_qr_scan", "android": "https://dc.lft.to/lastmile_qr_scan"}}, {"name": "7651940dd76fe0c619faf8d4dc5f2fad", "type": "electric_scooter", "lat": 38.926923, "is_reserved": 0, "lon": -77.02069416666667, "fusion_lon": 0.0, "is_disabled": 0, "fusion_lat": 0.0, "bike_id": "7651940dd76fe0c619faf8d4dc5f2fad", "rental_uris": {"ios": "https://dc.lft.to/lastmile_qr_scan", "android": "https://dc.lft.to/lastmile_qr_scan"}}, {"name": "3b2755357a70ef81d8f980c387e7aa41", "type": "electric_scooter", "lat": 38.93155616666667, "is_reserved": 0, "lon": -77.03894933333333, "fusion_lon": 0.0, "is_disabled": 0, "fusion_lat": 0.0, "bike_id": "3b2755357a70ef81d8f980c387e7aa41", "rental_uris": {"ios": "https://dc.lft.to/lastmile_qr_scan", "android": "https://dc.lft.to/lastmile_qr_scan"}}, {"name": "9ebe94972c07c7eddafc70635fd0f100", "type": "electric_scooter", "lat": 38.883148, "is_reserved": 0, "lon": -77.02390333333334, "fusion_lon": 0.0, "is_disabled": 0, "fusion_lat": 0.0, "bike_id": "9ebe94972c07c7eddafc70635fd0f100", "rental_uris": {"ios": "https://dc.lft.to/lastmile_qr_scan", "android": "https://dc.lft.to/lastmile_qr_scan"}}, {"name": "f864b3db176f2fe0f0f9fd7af5decfa6", "type": "electric_scooter", "lat": 38.907186333333335, "is_reserved": 0, "lon": -77.0312175, "fusion_lon": 0.0, "is_disabled": 0, "fusion_lat": 0.0, "bike_id": "f864b3db176f2fe0f0f9fd7af5decfa6", "rental_uris": {"ios": "https://dc.lft.to/lastmile_qr_scan", "android": "https://dc.lft.to/lastmile_qr_scan"}}, {"name": "a3e5b950f4711a2f7277d5ae38d51648", "type": "electric_scooter", "lat": 38.9159725, "is_reserved": 0, "lon": -77.02402916666666, "fusion_lon": 0.0, "is_disabled": 0, "fusion_lat": 0.0, "bike_id": "a3e5b950f4711a2f7277d5ae38d51648", "rental_uris": {"ios": "https://dc.lft.to/lastmile_qr_scan", "android": "https://dc.lft.to/lastmile_qr_scan"}}, {"name": "4916224a583b87ac037cccd5193db17c", "type": "electric_scooter", "lat": 38.900358, "is_reserved": 0, "lon": -77.0090405, "fusion_lon": 0.0, "is_disabled": 0, "fusion_lat": 0.0, "bike_id": "4916224a583b87ac037cccd5193db17c", "rental_uris": {"ios": "https://dc.lft.to/lastmile_qr_scan", "android": "https://dc.lft.to/lastmile_qr_scan"}}, {"name": "22270cb776523e308a7233e52c7302ea", "type": "electric_scooter", "lat": 38.89996816666667, "is_reserved": 0, "lon": -77.04041933333333, "fusion_lon": 0.0, "is_disabled": 0, "fusion_lat": 0.0, "bike_id": "22270cb776523e308a7233e52c7302ea", "rental_uris": {"ios": "https://dc.lft.to/lastmile_qr_scan", "android": "https://dc.lft.to/lastmile_qr_scan"}}, {"name": "9639c7387c26d9205df6aa3a634946ed", "type": "electric_scooter", "lat": 38.909575333333336, "is_reserved": 0, "lon": -77.0347645, "fusion_lon": 0.0, "is_disabled": 0, "fusion_lat": 0.0, "bike_id": "9639c7387c26d9205df6aa3a634946ed", "rental_uris": {"ios": "https://dc.lft.to/lastmile_qr_scan", "android": "https://dc.lft.to/lastmile_qr_scan"}}, {"name": "ea0df32387bd8687caf9967adaf9de03", "type": "electric_scooter", "lat": 38.89344783333333, "is_reserved": 0, "lon": -77.00207166666667, "fusion_lon": 0.0, "is_disabled": 0, "fusion_lat": 0.0, "bike_id": "ea0df32387bd8687caf9967adaf9de03", "rental_uris": {"ios": "https://dc.lft.to/lastmile_qr_scan", "android": "https://dc.lft.to/lastmile_qr_scan"}}, {"name": "2dda8ceaa80dbfeeee7164e466ebf812", "type": "electric_scooter", "lat": 38.8933015, "is_reserved": 0, "lon": -76.92987816666667, "fusion_lon": 0.0, "is_disabled": 0, "fusion_lat": 0.0, "bike_id": "2dda8ceaa80dbfeeee7164e466ebf812", "rental_uris": {"ios": "https://dc.lft.to/lastmile_qr_scan", "android": "https://dc.lft.to/lastmile_qr_scan"}}, {"name": "9a279d4eddf3af29620a0bf1096ede4e", "type": "electric_scooter", "lat": 38.903232833333334, "is_reserved": 0, "lon": -77.03452866666667, "fusion_lon": 0.0, "is_disabled": 0, "fusion_lat": 0.0, "bike_id": "9a279d4eddf3af29620a0bf1096ede4e", "rental_uris": {"ios": "https://dc.lft.to/lastmile_qr_scan", "android": "https://dc.lft.to/lastmile_qr_scan"}}, {"name": "9bd1be1259c57271ac98a4fe824b4e1e", "type": "electric_scooter", "lat": 38.90103416666667, "is_reserved": 0, "lon": -77.03189033333334, "fusion_lon": 0.0, "is_disabled": 0, "fusion_lat": 0.0, "bike_id": "9bd1be1259c57271ac98a4fe824b4e1e", "rental_uris": {"ios": "https://dc.lft.to/lastmile_qr_scan", "android": "https://dc.lft.to/lastmile_qr_scan"}}, {"name": "9363cc6b7d0786e4eccde629e09f524d", "type": "electric_scooter", "lat": 38.8665775, "is_reserved": 0, "lon": -76.98888133333334, "fusion_lon": 0.0, "is_disabled": 0, "fusion_lat": 0.0, "bike_id": "9363cc6b7d0786e4eccde629e09f524d", "rental_uris": {"ios": "https://dc.lft.to/lastmile_qr_scan", "android": "https://dc.lft.to/lastmile_qr_scan"}}, {"name": "b0235fd274bd29a12f4e46a4c65bab21", "type": "electric_scooter", "lat": 38.92456833333333, "is_reserved": 0, "lon": -77.03969266666667, "fusion_lon": 0.0, "is_disabled": 0, "fusion_lat": 0.0, "bike_id": "b0235fd274bd29a12f4e46a4c65bab21", "rental_uris": {"ios": "https://dc.lft.to/lastmile_qr_scan", "android": "https://dc.lft.to/lastmile_qr_scan"}}, {"name": "d4ff777e7166598257eb534ee4ffe8d4", "type": "electric_scooter", "lat": 38.89224466666667, "is_reserved": 0, "lon": -77.04367016666667, "fusion_lon": 0.0, "is_disabled": 0, "fusion_lat": 0.0, "bike_id": "d4ff777e7166598257eb534ee4ffe8d4", "rental_uris": {"ios": "https://dc.lft.to/lastmile_qr_scan", "android": "https://dc.lft.to/lastmile_qr_scan"}}, {"name": "bf4b75034152abe3f613c5724b70eb4a", "type": "electric_scooter", "lat": 38.9110065, "is_reserved": 0, "lon": -77.03659683333333, "fusion_lon": 0.0, "is_disabled": 0, "fusion_lat": 0.0, "bike_id": "bf4b75034152abe3f613c5724b70eb4a", "rental_uris": {"ios": "https://dc.lft.to/lastmile_qr_scan", "android": "https://dc.lft.to/lastmile_qr_scan"}}, {"name": "6b92386d907f73884174def115f9b837", "type": "electric_scooter", "lat": 38.9385595, "is_reserved": 0, "lon": -77.02473133333334, "fusion_lon": 0.0, "is_disabled": 0, "fusion_lat": 0.0, "bike_id": "6b92386d907f73884174def115f9b837", "rental_uris": {"ios": "https://dc.lft.to/lastmile_qr_scan", "android": "https://dc.lft.to/lastmile_qr_scan"}}, {"name": "f7afb2b68ca74f12dc119b11a2942fb8", "type": "electric_bike", "lat": 38.88037416666667, "is_reserved": 0, "lon": -77.01325516666667, "fusion_lon": 0.0, "is_disabled": 0, "fusion_lat": 0.0, "bike_id": "f7afb2b68ca74f12dc119b11a2942fb8", "rental_uris": {"ios": "https://dc.lft.to/lastmile_qr_scan", "android": "https://dc.lft.to/lastmile_qr_scan"}}, {"name": "2c05d2e5754c07f1e86487219686fc82", "type": "electric_scooter", "lat": 38.9111645, "is_reserved": 0, "lon": -77.04366616666667, "fusion_lon": 0.0, "is_disabled": 0, "fusion_lat": 0.0, "bike_id": "2c05d2e5754c07f1e86487219686fc82", "rental_uris": {"ios": "https://dc.lft.to/lastmile_qr_scan", "android": "https://dc.lft.to/lastmile_qr_scan"}}, {"name": "a334e4de91fe917545d6a153db718df2", "type": "electric_scooter", "lat": 38.91116666666667, "is_reserved": 0, "lon": -77.045304, "fusion_lon": 0.0, "is_disabled": 0, "fusion_lat": 0.0, "bike_id": "a334e4de91fe917545d6a153db718df2", "rental_uris": {"ios": "https://dc.lft.to/lastmile_qr_scan", "android": "https://dc.lft.to/lastmile_qr_scan"}}, {"name": "0a17d1a0467cf377806249f2695fb688", "type": "electric_scooter", "lat": 38.902548833333334, "is_reserved": 0, "lon": -77.034133, "fusion_lon": 0.0, "is_disabled": 0, "fusion_lat": 0.0, "bike_id": "0a17d1a0467cf377806249f2695fb688", "rental_uris": {"ios": "https://dc.lft.to/lastmile_qr_scan", "android": "https://dc.lft.to/lastmile_qr_scan"}}, {"name": "25da10804590291281e788b0cd2d4f15", "type": "electric_scooter", "lat": 38.90164216666667, "is_reserved": 0, "lon": -77.03188483333334, "fusion_lon": 0.0, "is_disabled": 0, "fusion_lat": 0.0, "bike_id": "25da10804590291281e788b0cd2d4f15", "rental_uris": {"ios": "https://dc.lft.to/lastmile_qr_scan", "android": "https://dc.lft.to/lastmile_qr_scan"}}, {"name": "43d7c09cecb6131b3e909fba9a255cbf", "type": "electric_scooter", "lat": 38.898800666666666, "is_reserved": 0, "lon": -77.03335433333334, "fusion_lon": 0.0, "is_disabled": 0, "fusion_lat": 0.0, "bike_id": "43d7c09cecb6131b3e909fba9a255cbf", "rental_uris": {"ios": "https://dc.lft.to/lastmile_qr_scan", "android": "https://dc.lft.to/lastmile_qr_scan"}}, {"name": "a153e1c06154563d8609e66dff709676", "type": "electric_scooter", "lat": 38.91401233333333, "is_reserved": 0, "lon": -77.03184683333333, "fusion_lon": 0.0, "is_disabled": 0, "fusion_lat": 0.0, "bike_id": "a153e1c06154563d8609e66dff709676", "rental_uris": {"ios": "https://dc.lft.to/lastmile_qr_scan", "android": "https://dc.lft.to/lastmile_qr_scan"}}, {"name": "66356b816be0ae34a35d7dce5fa6f024", "type": "electric_scooter", "lat": 38.9244, "is_reserved": 0, "lon": -77.0297595, "fusion_lon": 0.0, "is_disabled": 0, "fusion_lat": 0.0, "bike_id": "66356b816be0ae34a35d7dce5fa6f024", "rental_uris": {"ios": "https://dc.lft.to/lastmile_qr_scan", "android": "https://dc.lft.to/lastmile_qr_scan"}}, {"name": "faaefcbbd4bdc041519ed52ee1b3c908", "type": "electric_scooter", "lat": 38.924859, "is_reserved": 0, "lon": -77.02712333333334, "fusion_lon": 0.0, "is_disabled": 0, "fusion_lat": 0.0, "bike_id": "faaefcbbd4bdc041519ed52ee1b3c908", "rental_uris": {"ios": "https://dc.lft.to/lastmile_qr_scan", "android": "https://dc.lft.to/lastmile_qr_scan"}}, {"name": "33b5b9a2a7b48399390cbe36bd465245", "type": "electric_scooter", "lat": 38.90650216666667, "is_reserved": 0, "lon": -77.05135633333333, "fusion_lon": 0.0, "is_disabled": 0, "fusion_lat": 0.0, "bike_id": "33b5b9a2a7b48399390cbe36bd465245", "rental_uris": {"ios": "https://dc.lft.to/lastmile_qr_scan", "android": "https://dc.lft.to/lastmile_qr_scan"}}, {"name": "d78ed0fd82cca27786a09029da1e76f3", "type": "electric_scooter", "lat": 38.90640066666667, "is_reserved": 0, "lon": -77.05151683333334, "fusion_lon": 0.0, "is_disabled": 0, "fusion_lat": 0.0, "bike_id": "d78ed0fd82cca27786a09029da1e76f3", "rental_uris": {"ios": "https://dc.lft.to/lastmile_qr_scan", "android": "https://dc.lft.to/lastmile_qr_scan"}}, {"name": "7a1cd23c91de3562a1acb1853d909da7", "type": "electric_scooter", "lat": 38.90007383333333, "is_reserved": 0, "lon": -77.04040333333333, "fusion_lon": 0.0, "is_disabled": 0, "fusion_lat": 0.0, "bike_id": "7a1cd23c91de3562a1acb1853d909da7", "rental_uris": {"ios": "https://dc.lft.to/lastmile_qr_scan", "android": "https://dc.lft.to/lastmile_qr_scan"}}, {"name": "bf02b821e49b9facdba3054f4b6860b3", "type": "electric_scooter", "lat": 38.907171166666664, "is_reserved": 0, "lon": -77.03350733333333, "fusion_lon": 0.0, "is_disabled": 0, "fusion_lat": 0.0, "bike_id": "bf02b821e49b9facdba3054f4b6860b3", "rental_uris": {"ios": "https://dc.lft.to/lastmile_qr_scan", "android": "https://dc.lft.to/lastmile_qr_scan"}}, {"name": "51afa22fd64a5a06c885d30a591ac024", "type": "electric_scooter", "lat": 38.89725883333333, "is_reserved": 0, "lon": -77.04331916666666, "fusion_lon": 0.0, "is_disabled": 0, "fusion_lat": 0.0, "bike_id": "51afa22fd64a5a06c885d30a591ac024", "rental_uris": {"ios": "https://dc.lft.to/lastmile_qr_scan", "android": "https://dc.lft.to/lastmile_qr_scan"}}, {"name": "51e3b4b44bea419150887b1c6651d5ee", "type": "electric_scooter", "lat": 38.9110575, "is_reserved": 0, "lon": -77.046729, "fusion_lon": 0.0, "is_disabled": 0, "fusion_lat": 0.0, "bike_id": "51e3b4b44bea419150887b1c6651d5ee", "rental_uris": {"ios": "https://dc.lft.to/lastmile_qr_scan", "android": "https://dc.lft.to/lastmile_qr_scan"}}, {"name": "2a1f1bbb7d40f446e8f988ae0b8527f5", "type": "electric_scooter", "lat": 38.930081333333334, "is_reserved": 0, "lon": -77.02338983333334, "fusion_lon": 0.0, "is_disabled": 0, "fusion_lat": 0.0, "bike_id": "2a1f1bbb7d40f446e8f988ae0b8527f5", "rental_uris": {"ios": "https://dc.lft.to/lastmile_qr_scan", "android": "https://dc.lft.to/lastmile_qr_scan"}}, {"name": "53fdbf927ef1cf0d10a7db007f9183a5", "type": "electric_scooter", "lat": 38.92721566666667, "is_reserved": 0, "lon": -77.0056945, "fusion_lon": 0.0, "is_disabled": 0, "fusion_lat": 0.0, "bike_id": "53fdbf927ef1cf0d10a7db007f9183a5", "rental_uris": {"ios": "https://dc.lft.to/lastmile_qr_scan", "android": "https://dc.lft.to/lastmile_qr_scan"}}, {"name": "93ebe87bc5b6251e56921653692e4120", "type": "electric_scooter", "lat": 38.89361816666667, "is_reserved": 0, "lon": -77.04793666666667, "fusion_lon": 0.0, "is_disabled": 0, "fusion_lat": 0.0, "bike_id": "93ebe87bc5b6251e56921653692e4120", "rental_uris": {"ios": "https://dc.lft.to/lastmile_qr_scan", "android": "https://dc.lft.to/lastmile_qr_scan"}}, {"name": "544f82ab1423ab73b26f5949a27cc410", "type": "electric_bike", "lat": 39.0945745, "is_reserved": 0, "lon": -77.14999833333333, "fusion_lon": 0.0, "is_disabled": 0, "fusion_lat": 0.0, "bike_id": "544f82ab1423ab73b26f5949a27cc410", "rental_uris": {"ios": "https://dc.lft.to/lastmile_qr_scan", "android": "https://dc.lft.to/lastmile_qr_scan"}}, {"name": "6b8c306f4ac55897839e3a6ad9319b14", "type": "electric_scooter", "lat": 38.91808283333334, "is_reserved": 0, "lon": -77.0302525, "fusion_lon": 0.0, "is_disabled": 0, "fusion_lat": 0.0, "bike_id": "6b8c306f4ac55897839e3a6ad9319b14", "rental_uris": {"ios": "https://dc.lft.to/lastmile_qr_scan", "android": "https://dc.lft.to/lastmile_qr_scan"}}, {"name": "8e58d0b0a8f55f981acfd505bbbb7d95", "type": "electric_bike", "lat": 38.8758505, "is_reserved": 0, "lon": -77.00744333333333, "fusion_lon": 0.0, "is_disabled": 0, "fusion_lat": 0.0, "bike_id": "8e58d0b0a8f55f981acfd505bbbb7d95", "rental_uris": {"ios": "https://dc.lft.to/lastmile_qr_scan", "android": "https://dc.lft.to/lastmile_qr_scan"}}, {"name": "d0a0de885b65f71b1cb0a23308c2f28f", "type": "electric_scooter", "lat": 38.896893166666665, "is_reserved": 0, "lon": -77.01210033333334, "fusion_lon": 0.0, "is_disabled": 0, "fusion_lat": 0.0, "bike_id": "d0a0de885b65f71b1cb0a23308c2f28f", "rental_uris": {"ios": "https://dc.lft.to/lastmile_qr_scan", "android": "https://dc.lft.to/lastmile_qr_scan"}}, {"name": "2c0eac017c8245675f7662b10d968dab", "type": "electric_scooter", "lat": 38.89013583333333, "is_reserved": 0, "lon": -76.93732116666666, "fusion_lon": 0.0, "is_disabled": 0, "fusion_lat": 0.0, "bike_id": "2c0eac017c8245675f7662b10d968dab", "rental_uris": {"ios": "https://dc.lft.to/lastmile_qr_scan", "android": "https://dc.lft.to/lastmile_qr_scan"}}, {"name": "89d22e3b2ee2dcde2690b84afb527902", "type": "electric_scooter", "lat": 38.892209, "is_reserved": 0, "lon": -77.02230333333333, "fusion_lon": 0.0, "is_disabled": 0, "fusion_lat": 0.0, "bike_id": "89d22e3b2ee2dcde2690b84afb527902", "rental_uris": {"ios": "https://dc.lft.to/lastmile_qr_scan", "android": "https://dc.lft.to/lastmile_qr_scan"}}, {"name": "bce778f42b459b5cdfea36271368f9b6", "type": "electric_bike", "lat": 38.8406235, "is_reserved": 0, "lon": -77.06411033333333, "fusion_lon": 0.0, "is_disabled": 0, "fusion_lat": 0.0, "bike_id": "bce778f42b459b5cdfea36271368f9b6", "rental_uris": {"ios": "https://dc.lft.to/lastmile_qr_scan", "android": "https://dc.lft.to/lastmile_qr_scan"}}, {"name": "f2120aa6653ac6d5a0ca36285601a1f3", "type": "electric_scooter", "lat": 38.862434666666665, "is_reserved": 0, "lon": -76.9949895, "fusion_lon": 0.0, "is_disabled": 0, "fusion_lat": 0.0, "bike_id": "f2120aa6653ac6d5a0ca36285601a1f3", "rental_uris": {"ios": "https://dc.lft.to/lastmile_qr_scan", "android": "https://dc.lft.to/lastmile_qr_scan"}}, {"name": "6517f330dcd4bf0e2595feab8be24c3a", "type": "electric_scooter", "lat": 38.89494716666667, "is_reserved": 0, "lon": -77.00211, "fusion_lon": 0.0, "is_disabled": 0, "fusion_lat": 0.0, "bike_id": "6517f330dcd4bf0e2595feab8be24c3a", "rental_uris": {"ios": "https://dc.lft.to/lastmile_qr_scan", "android": "https://dc.lft.to/lastmile_qr_scan"}}, {"name": "e78ad310ef3021c3b0ea0566b786829b", "type": "electric_bike", "lat": 38.857882000000004, "is_reserved": 0, "lon": -77.09964333333333, "fusion_lon": 0.0, "is_disabled": 0, "fusion_lat": 0.0, "bike_id": "e78ad310ef3021c3b0ea0566b786829b", "rental_uris": {"ios": "https://dc.lft.to/lastmile_qr_scan", "android": "https://dc.lft.to/lastmile_qr_scan"}}, {"name": "4ccfd76ca29c35c9656b277cb99dcab7", "type": "electric_scooter", "lat": 38.89904516666667, "is_reserved": 0, "lon": -76.93356716666666, "fusion_lon": 0.0, "is_disabled": 0, "fusion_lat": 0.0, "bike_id": "4ccfd76ca29c35c9656b277cb99dcab7", "rental_uris": {"ios": "https://dc.lft.to/lastmile_qr_scan", "android": "https://dc.lft.to/lastmile_qr_scan"}}, {"name": "715ee43241eccd862c9a693e30b2bfec", "type": "electric_bike", "lat": 38.87529883333333, "is_reserved": 0, "lon": -77.19909333333334, "fusion_lon": 0.0, "is_disabled": 0, "fusion_lat": 0.0, "bike_id": "715ee43241eccd862c9a693e30b2bfec", "rental_uris": {"ios": "https://dc.lft.to/lastmile_qr_scan", "android": "https://dc.lft.to/lastmile_qr_scan"}}, {"name": "769d220ebdb4db816bf8d6a9163f945c", "type": "electric_bike", "lat": 38.886351, "is_reserved": 0, "lon": -76.95454833333334, "fusion_lon": 0.0, "is_disabled": 0, "fusion_lat": 0.0, "bike_id": "769d220ebdb4db816bf8d6a9163f945c", "rental_uris": {"ios": "https://dc.lft.to/lastmile_qr_scan", "android": "https://dc.lft.to/lastmile_qr_scan"}}, {"name": "16bb0ffb4b699043599d7d911a0f1acd", "type": "electric_scooter", "lat": 38.866956, "is_reserved": 0, "lon": -76.98716283333333, "fusion_lon": 0.0, "is_disabled": 0, "fusion_lat": 0.0, "bike_id": "16bb0ffb4b699043599d7d911a0f1acd", "rental_uris": {"ios": "https://dc.lft.to/lastmile_qr_scan", "android": "https://dc.lft.to/lastmile_qr_scan"}}, {"name": "c24590bcc6a49d9b177442436bcdaa2c", "type": "electric_scooter", "lat": 38.90030683333333, "is_reserved": 0, "lon": -76.998644, "fusion_lon": 0.0, "is_disabled": 0, "fusion_lat": 0.0, "bike_id": "c24590bcc6a49d9b177442436bcdaa2c", "rental_uris": {"ios": "https://dc.lft.to/lastmile_qr_scan", "android": "https://dc.lft.to/lastmile_qr_scan"}}, {"name": "0be39ad1b4185a89e5defb90a959a42c", "type": "electric_scooter", "lat": 38.91272, "is_reserved": 0, "lon": -77.045104, "fusion_lon": 0.0, "is_disabled": 0, "fusion_lat": 0.0, "bike_id": "0be39ad1b4185a89e5defb90a959a42c", "rental_uris": {"ios": "https://dc.lft.to/lastmile_qr_scan", "android": "https://dc.lft.to/lastmile_qr_scan"}}, {"name": "00ffc6f275e4505a79d76e110e408e17", "type": "electric_scooter", "lat": 38.933586166666664, "is_reserved": 0, "lon": -77.05744616666667, "fusion_lon": 0.0, "is_disabled": 0, "fusion_lat": 0.0, "bike_id": "00ffc6f275e4505a79d76e110e408e17", "rental_uris": {"ios": "https://dc.lft.to/lastmile_qr_scan", "android": "https://dc.lft.to/lastmile_qr_scan"}}, {"name": "bb5918c7b0ac5e6d359db795bd9dbe7b", "type": "electric_bike", "lat": 38.896850666666666, "is_reserved": 0, "lon": -76.94064183333333, "fusion_lon": 0.0, "is_disabled": 0, "fusion_lat": 0.0, "bike_id": "bb5918c7b0ac5e6d359db795bd9dbe7b", "rental_uris": {"ios": "https://dc.lft.to/lastmile_qr_scan", "android": "https://dc.lft.to/lastmile_qr_scan"}}, {"name": "485fd631f21687af5764eaaae60ed8cc", "type": "electric_scooter", "lat": 38.907196166666665, "is_reserved": 0, "lon": -77.02505333333333, "fusion_lon": 0.0, "is_disabled": 0, "fusion_lat": 0.0, "bike_id": "485fd631f21687af5764eaaae60ed8cc", "rental_uris": {"ios": "https://dc.lft.to/lastmile_qr_scan", "android": "https://dc.lft.to/lastmile_qr_scan"}}, {"name": "439d4517a348c63ffe0ba68558e51781", "type": "electric_scooter", "lat": 38.91767266666667, "is_reserved": 0, "lon": -77.02710583333334, "fusion_lon": 0.0, "is_disabled": 0, "fusion_lat": 0.0, "bike_id": "439d4517a348c63ffe0ba68558e51781", "rental_uris": {"ios": "https://dc.lft.to/lastmile_qr_scan", "android": "https://dc.lft.to/lastmile_qr_scan"}}, {"name": "e0eba4dd71878cfdc0b660bdfc84409f", "type": "electric_scooter", "lat": 38.91081166666667, "is_reserved": 0, "lon": -77.04476483333333, "fusion_lon": 0.0, "is_disabled": 0, "fusion_lat": 0.0, "bike_id": "e0eba4dd71878cfdc0b660bdfc84409f", "rental_uris": {"ios": "https://dc.lft.to/lastmile_qr_scan", "android": "https://dc.lft.to/lastmile_qr_scan"}}, {"name": "28b146afa97db58b2a126b85de81900a", "type": "electric_scooter", "lat": 38.906867, "is_reserved": 0, "lon": -77.02699166666666, "fusion_lon": 0.0, "is_disabled": 0, "fusion_lat": 0.0, "bike_id": "28b146afa97db58b2a126b85de81900a", "rental_uris": {"ios": "https://dc.lft.to/lastmile_qr_scan", "android": "https://dc.lft.to/lastmile_qr_scan"}}, {"name": "644d46c694faf133f387313153c9b2fe", "type": "electric_scooter", "lat": 38.89602883333333, "is_reserved": 0, "lon": -77.02296533333333, "fusion_lon": 0.0, "is_disabled": 0, "fusion_lat": 0.0, "bike_id": "644d46c694faf133f387313153c9b2fe", "rental_uris": {"ios": "https://dc.lft.to/lastmile_qr_scan", "android": "https://dc.lft.to/lastmile_qr_scan"}}, {"name": "9e2587e9386fe180f61581982b794b87", "type": "electric_scooter", "lat": 38.90958166666667, "is_reserved": 0, "lon": -77.03870516666667, "fusion_lon": 0.0, "is_disabled": 0, "fusion_lat": 0.0, "bike_id": "9e2587e9386fe180f61581982b794b87", "rental_uris": {"ios": "https://dc.lft.to/lastmile_qr_scan", "android": "https://dc.lft.to/lastmile_qr_scan"}}, {"name": "c774befedab9195306eb9a591bdbe6c6", "type": "electric_scooter", "lat": 38.92375533333333, "is_reserved": 0, "lon": -77.02956216666666, "fusion_lon": 0.0, "is_disabled": 0, "fusion_lat": 0.0, "bike_id": "c774befedab9195306eb9a591bdbe6c6", "rental_uris": {"ios": "https://dc.lft.to/lastmile_qr_scan", "android": "https://dc.lft.to/lastmile_qr_scan"}}, {"name": "9e8b4cbde8d3bb101b95f3ad579e1f8f", "type": "electric_scooter", "lat": 38.92167216666667, "is_reserved": 0, "lon": -77.026789, "fusion_lon": 0.0, "is_disabled": 0, "fusion_lat": 0.0, "bike_id": "9e8b4cbde8d3bb101b95f3ad579e1f8f", "rental_uris": {"ios": "https://dc.lft.to/lastmile_qr_scan", "android": "https://dc.lft.to/lastmile_qr_scan"}}, {"name": "cf5869ae6370dc6e6773c2abcd60fb2c", "type": "electric_scooter", "lat": 38.92944383333333, "is_reserved": 0, "lon": -76.997457, "fusion_lon": 0.0, "is_disabled": 0, "fusion_lat": 0.0, "bike_id": "cf5869ae6370dc6e6773c2abcd60fb2c", "rental_uris": {"ios": "https://dc.lft.to/lastmile_qr_scan", "android": "https://dc.lft.to/lastmile_qr_scan"}}, {"name": "ee1947bd408137b5561bade8adb99f56", "type": "electric_scooter", "lat": 38.89220566666667, "is_reserved": 0, "lon": -77.02624766666666, "fusion_lon": 0.0, "is_disabled": 0, "fusion_lat": 0.0, "bike_id": "ee1947bd408137b5561bade8adb99f56", "rental_uris": {"ios": "https://dc.lft.to/lastmile_qr_scan", "android": "https://dc.lft.to/lastmile_qr_scan"}}, {"name": "ffeef3d5699af13feaae6d1865f0f500", "type": "electric_scooter", "lat": 38.91125, "is_reserved": 0, "lon": -77.043519, "fusion_lon": 0.0, "is_disabled": 0, "fusion_lat": 0.0, "bike_id": "ffeef3d5699af13feaae6d1865f0f500", "rental_uris": {"ios": "https://dc.lft.to/lastmile_qr_scan", "android": "https://dc.lft.to/lastmile_qr_scan"}}, {"name": "e50e08bcff79697a109c94cded207149", "type": "electric_scooter", "lat": 38.913325, "is_reserved": 0, "lon": -77.04277066666667, "fusion_lon": 0.0, "is_disabled": 0, "fusion_lat": 0.0, "bike_id": "e50e08bcff79697a109c94cded207149", "rental_uris": {"ios": "https://dc.lft.to/lastmile_qr_scan", "android": "https://dc.lft.to/lastmile_qr_scan"}}, {"name": "a44acec2a7e3087a387d705630122dc4", "type": "electric_scooter", "lat": 38.88207366666666, "is_reserved": 0, "lon": -77.014535, "fusion_lon": 0.0, "is_disabled": 0, "fusion_lat": 0.0, "bike_id": "a44acec2a7e3087a387d705630122dc4", "rental_uris": {"ios": "https://dc.lft.to/lastmile_qr_scan", "android": "https://dc.lft.to/lastmile_qr_scan"}}, {"name": "3b0c5a1776d6c257ffbf818577678429", "type": "electric_scooter", "lat": 38.89536666666667, "is_reserved": 0, "lon": -77.02435216666667, "fusion_lon": 0.0, "is_disabled": 0, "fusion_lat": 0.0, "bike_id": "3b0c5a1776d6c257ffbf818577678429", "rental_uris": {"ios": "https://dc.lft.to/lastmile_qr_scan", "android": "https://dc.lft.to/lastmile_qr_scan"}}, {"name": "4f381c17a7130fedfa6e0f939d8a298b", "type": "electric_scooter", "lat": 38.90019183333333, "is_reserved": 0, "lon": -77.00215016666667, "fusion_lon": 0.0, "is_disabled": 0, "fusion_lat": 0.0, "bike_id": "4f381c17a7130fedfa6e0f939d8a298b", "rental_uris": {"ios": "https://dc.lft.to/lastmile_qr_scan", "android": "https://dc.lft.to/lastmile_qr_scan"}}, {"name": "f93032555a37c1b61ee6bb54405f8311", "type": "electric_scooter", "lat": 38.92699666666667, "is_reserved": 0, "lon": -77.020956, "fusion_lon": 0.0, "is_disabled": 0, "fusion_lat": 0.0, "bike_id": "f93032555a37c1b61ee6bb54405f8311", "rental_uris": {"ios": "https://dc.lft.to/lastmile_qr_scan", "android": "https://dc.lft.to/lastmile_qr_scan"}}, {"name": "c8175de8fc2969ce915fdf09b4a7df29", "type": "electric_bike", "lat": 38.948963166666665, "is_reserved": 0, "lon": -76.96381216666667, "fusion_lon": 0.0, "is_disabled": 0, "fusion_lat": 0.0, "bike_id": "c8175de8fc2969ce915fdf09b4a7df29", "rental_uris": {"ios": "https://dc.lft.to/lastmile_qr_scan", "android": "https://dc.lft.to/lastmile_qr_scan"}}, {"name": "b07c835968c8e1375a2b14b9408fecd3", "type": "electric_scooter", "lat": 38.892281, "is_reserved": 0, "lon": -77.05000183333334, "fusion_lon": 0.0, "is_disabled": 0, "fusion_lat": 0.0, "bike_id": "b07c835968c8e1375a2b14b9408fecd3", "rental_uris": {"ios": "https://dc.lft.to/lastmile_qr_scan", "android": "https://dc.lft.to/lastmile_qr_scan"}}, {"name": "65ef8e3e489d320a4c30605d3e75c8b7", "type": "electric_bike", "lat": 38.90898283333333, "is_reserved": 0, "lon": -77.031444, "fusion_lon": 0.0, "is_disabled": 0, "fusion_lat": 0.0, "bike_id": "65ef8e3e489d320a4c30605d3e75c8b7", "rental_uris": {"ios": "https://dc.lft.to/lastmile_qr_scan", "android": "https://dc.lft.to/lastmile_qr_scan"}}, {"name": "c110514c8d67e2a0d6b9dc4269d3fde6", "type": "electric_scooter", "lat": 38.906623833333335, "is_reserved": 0, "lon": -77.03913016666667, "fusion_lon": 0.0, "is_disabled": 0, "fusion_lat": 0.0, "bike_id": "c110514c8d67e2a0d6b9dc4269d3fde6", "rental_uris": {"ios": "https://dc.lft.to/lastmile_qr_scan", "android": "https://dc.lft.to/lastmile_qr_scan"}}, {"name": "08b558f40c677070a75cae82abfd4bdf", "type": "electric_scooter", "lat": 38.929000333333335, "is_reserved": 0, "lon": -77.01651233333334, "fusion_lon": 0.0, "is_disabled": 0, "fusion_lat": 0.0, "bike_id": "08b558f40c677070a75cae82abfd4bdf", "rental_uris": {"ios": "https://dc.lft.to/lastmile_qr_scan", "android": "https://dc.lft.to/lastmile_qr_scan"}}, {"name": "4b7397dad54f8ddba53e61d14d8ef1f0", "type": "electric_scooter", "lat": 38.90143116666667, "is_reserved": 0, "lon": -77.04497316666667, "fusion_lon": 0.0, "is_disabled": 0, "fusion_lat": 0.0, "bike_id": "4b7397dad54f8ddba53e61d14d8ef1f0", "rental_uris": {"ios": "https://dc.lft.to/lastmile_qr_scan", "android": "https://dc.lft.to/lastmile_qr_scan"}}, {"name": "6573b0cbcb6ed104a6a07ced4fb39cd5", "type": "electric_scooter", "lat": 38.924878666666665, "is_reserved": 0, "lon": -77.027103, "fusion_lon": 0.0, "is_disabled": 0, "fusion_lat": 0.0, "bike_id": "6573b0cbcb6ed104a6a07ced4fb39cd5", "rental_uris": {"ios": "https://dc.lft.to/lastmile_qr_scan", "android": "https://dc.lft.to/lastmile_qr_scan"}}, {"name": "abc8a0215d483008cb51d9b468913121", "type": "electric_scooter", "lat": 38.9367405, "is_reserved": 0, "lon": -77.03591566666667, "fusion_lon": 0.0, "is_disabled": 0, "fusion_lat": 0.0, "bike_id": "abc8a0215d483008cb51d9b468913121", "rental_uris": {"ios": "https://dc.lft.to/lastmile_qr_scan", "android": "https://dc.lft.to/lastmile_qr_scan"}}, {"name": "9a3fef81eb27d49520a171fdd4395de3", "type": "electric_scooter", "lat": 38.900819, "is_reserved": 0, "lon": -77.059091, "fusion_lon": 0.0, "is_disabled": 0, "fusion_lat": 0.0, "bike_id": "9a3fef81eb27d49520a171fdd4395de3", "rental_uris": {"ios": "https://dc.lft.to/lastmile_qr_scan", "android": "https://dc.lft.to/lastmile_qr_scan"}}, {"name": "2bfcf5244207981f98791ac97470ff04", "type": "electric_scooter", "lat": 38.899156833333336, "is_reserved": 0, "lon": -76.93384983333334, "fusion_lon": 0.0, "is_disabled": 0, "fusion_lat": 0.0, "bike_id": "2bfcf5244207981f98791ac97470ff04", "rental_uris": {"ios": "https://dc.lft.to/lastmile_qr_scan", "android": "https://dc.lft.to/lastmile_qr_scan"}}, {"name": "82d79fd0bcd05ea3a22b08350cd18005", "type": "electric_bike", "lat": 38.88033933333333, "is_reserved": 0, "lon": -77.0252555, "fusion_lon": 0.0, "is_disabled": 0, "fusion_lat": 0.0, "bike_id": "82d79fd0bcd05ea3a22b08350cd18005", "rental_uris": {"ios": "https://dc.lft.to/lastmile_qr_scan", "android": "https://dc.lft.to/lastmile_qr_scan"}}, {"name": "81f68b5ef1c4965b5960d875cf386fa0", "type": "electric_scooter", "lat": 38.865699666666664, "is_reserved": 0, "lon": -76.98950816666667, "fusion_lon": 0.0, "is_disabled": 0, "fusion_lat": 0.0, "bike_id": "81f68b5ef1c4965b5960d875cf386fa0", "rental_uris": {"ios": "https://dc.lft.to/lastmile_qr_scan", "android": "https://dc.lft.to/lastmile_qr_scan"}}, {"name": "0e3c4806fbdd385ba19f221c9317fdb3", "type": "electric_scooter", "lat": 38.90309766666667, "is_reserved": 0, "lon": -76.97646716666667, "fusion_lon": 0.0, "is_disabled": 0, "fusion_lat": 0.0, "bike_id": "0e3c4806fbdd385ba19f221c9317fdb3", "rental_uris": {"ios": "https://dc.lft.to/lastmile_qr_scan", "android": "https://dc.lft.to/lastmile_qr_scan"}}, {"name": "293cd4438dcc7b5af8f90a17bd7a8ad7", "type": "electric_scooter", "lat": 38.925045, "is_reserved": 0, "lon": -77.03555016666667, "fusion_lon": 0.0, "is_disabled": 0, "fusion_lat": 0.0, "bike_id": "293cd4438dcc7b5af8f90a17bd7a8ad7", "rental_uris": {"ios": "https://dc.lft.to/lastmile_qr_scan", "android": "https://dc.lft.to/lastmile_qr_scan"}}, {"name": "8564237c45e07e1f1872d8524a980927", "type": "electric_bike", "lat": 38.8515695, "is_reserved": 0, "lon": -77.12877316666666, "fusion_lon": 0.0, "is_disabled": 0, "fusion_lat": 0.0, "bike_id": "8564237c45e07e1f1872d8524a980927", "rental_uris": {"ios": "https://dc.lft.to/lastmile_qr_scan", "android": "https://dc.lft.to/lastmile_qr_scan"}}, {"name": "29fbc557760da040cc6803a0083a3893", "type": "electric_scooter", "lat": 38.89475483333333, "is_reserved": 0, "lon": -76.98405733333334, "fusion_lon": 0.0, "is_disabled": 0, "fusion_lat": 0.0, "bike_id": "29fbc557760da040cc6803a0083a3893", "rental_uris": {"ios": "https://dc.lft.to/lastmile_qr_scan", "android": "https://dc.lft.to/lastmile_qr_scan"}}, {"name": "a016361af43e42c7d43292add6aff2e3", "type": "electric_scooter", "lat": 38.96114766666667, "is_reserved": 0, "lon": -77.02817683333333, "fusion_lon": 0.0, "is_disabled": 0, "fusion_lat": 0.0, "bike_id": "a016361af43e42c7d43292add6aff2e3", "rental_uris": {"ios": "https://dc.lft.to/lastmile_qr_scan", "android": "https://dc.lft.to/lastmile_qr_scan"}}, {"name": "f892cc3038383cf434803c15b43b440e", "type": "electric_scooter", "lat": 38.902366666666666, "is_reserved": 0, "lon": -77.001991, "fusion_lon": 0.0, "is_disabled": 0, "fusion_lat": 0.0, "bike_id": "f892cc3038383cf434803c15b43b440e", "rental_uris": {"ios": "https://dc.lft.to/lastmile_qr_scan", "android": "https://dc.lft.to/lastmile_qr_scan"}}, {"name": "f38388a2aeb2e5e8daad1658ea7e59a1", "type": "electric_bike", "lat": 38.872652, "is_reserved": 0, "lon": -77.01689016666667, "fusion_lon": 0.0, "is_disabled": 0, "fusion_lat": 0.0, "bike_id": "f38388a2aeb2e5e8daad1658ea7e59a1", "rental_uris": {"ios": "https://dc.lft.to/lastmile_qr_scan", "android": "https://dc.lft.to/lastmile_qr_scan"}}, {"name": "6c333c9da5daea89fadc0c89edd2714c", "type": "electric_scooter", "lat": 38.94320283333333, "is_reserved": 0, "lon": -77.059168, "fusion_lon": 0.0, "is_disabled": 0, "fusion_lat": 0.0, "bike_id": "6c333c9da5daea89fadc0c89edd2714c", "rental_uris": {"ios": "https://dc.lft.to/lastmile_qr_scan", "android": "https://dc.lft.to/lastmile_qr_scan"}}, {"name": "23a01ea851a4f028cd6485acaf8a3cd6", "type": "electric_scooter", "lat": 38.869444, "is_reserved": 0, "lon": -76.97857416666666, "fusion_lon": 0.0, "is_disabled": 0, "fusion_lat": 0.0, "bike_id": "23a01ea851a4f028cd6485acaf8a3cd6", "rental_uris": {"ios": "https://dc.lft.to/lastmile_qr_scan", "android": "https://dc.lft.to/lastmile_qr_scan"}}, {"name": "50738efb563b2a69db908baed3a46f59", "type": "electric_scooter", "lat": 38.93599233333333, "is_reserved": 0, "lon": -77.036537, "fusion_lon": 0.0, "is_disabled": 0, "fusion_lat": 0.0, "bike_id": "50738efb563b2a69db908baed3a46f59", "rental_uris": {"ios": "https://dc.lft.to/lastmile_qr_scan", "android": "https://dc.lft.to/lastmile_qr_scan"}}, {"name": "43c196c492370bf3d096be5d41c15253", "type": "electric_scooter", "lat": 38.928641666666664, "is_reserved": 0, "lon": -77.01369283333334, "fusion_lon": 0.0, "is_disabled": 0, "fusion_lat": 0.0, "bike_id": "43c196c492370bf3d096be5d41c15253", "rental_uris": {"ios": "https://dc.lft.to/lastmile_qr_scan", "android": "https://dc.lft.to/lastmile_qr_scan"}}, {"name": "e7efb5d5860a6201aee966c699e4a040", "type": "electric_scooter", "lat": 38.941853333333334, "is_reserved": 0, "lon": -77.0249155, "fusion_lon": 0.0, "is_disabled": 0, "fusion_lat": 0.0, "bike_id": "e7efb5d5860a6201aee966c699e4a040", "rental_uris": {"ios": "https://dc.lft.to/lastmile_qr_scan", "android": "https://dc.lft.to/lastmile_qr_scan"}}, {"name": "1ed19d386eecb4115231eda69fafa7ca", "type": "electric_scooter", "lat": 38.90023433333333, "is_reserved": 0, "lon": -77.021844, "fusion_lon": 0.0, "is_disabled": 0, "fusion_lat": 0.0, "bike_id": "1ed19d386eecb4115231eda69fafa7ca", "rental_uris": {"ios": "https://dc.lft.to/lastmile_qr_scan", "android": "https://dc.lft.to/lastmile_qr_scan"}}, {"name": "7dc3b9b3eac56aa352775ac27f4dcf4c", "type": "electric_scooter", "lat": 38.895066, "is_reserved": 0, "lon": -77.01610316666667, "fusion_lon": 0.0, "is_disabled": 0, "fusion_lat": 0.0, "bike_id": "7dc3b9b3eac56aa352775ac27f4dcf4c", "rental_uris": {"ios": "https://dc.lft.to/lastmile_qr_scan", "android": "https://dc.lft.to/lastmile_qr_scan"}}, {"name": "8acbee7c4d6173c534da1ff588229db8", "type": "electric_scooter", "lat": 38.916174833333336, "is_reserved": 0, "lon": -77.03853116666667, "fusion_lon": 0.0, "is_disabled": 0, "fusion_lat": 0.0, "bike_id": "8acbee7c4d6173c534da1ff588229db8", "rental_uris": {"ios": "https://dc.lft.to/lastmile_qr_scan", "android": "https://dc.lft.to/lastmile_qr_scan"}}, {"name": "035b2382ed79dc0eca3f2816dc632c96", "type": "electric_bike", "lat": 38.973287, "is_reserved": 0, "lon": -77.02147033333334, "fusion_lon": 0.0, "is_disabled": 0, "fusion_lat": 0.0, "bike_id": "035b2382ed79dc0eca3f2816dc632c96", "rental_uris": {"ios": "https://dc.lft.to/lastmile_qr_scan", "android": "https://dc.lft.to/lastmile_qr_scan"}}, {"name": "af73279c6dc86750ce4c5bce49f46a8b", "type": "electric_scooter", "lat": 38.906619166666665, "is_reserved": 0, "lon": -77.00578566666667, "fusion_lon": 0.0, "is_disabled": 0, "fusion_lat": 0.0, "bike_id": "af73279c6dc86750ce4c5bce49f46a8b", "rental_uris": {"ios": "https://dc.lft.to/lastmile_qr_scan", "android": "https://dc.lft.to/lastmile_qr_scan"}}, {"name": "3bc7d7e893e2de9f8ef95fada1b10839", "type": "electric_scooter", "lat": 38.866985666666665, "is_reserved": 0, "lon": -76.98713166666667, "fusion_lon": 0.0, "is_disabled": 0, "fusion_lat": 0.0, "bike_id": "3bc7d7e893e2de9f8ef95fada1b10839", "rental_uris": {"ios": "https://dc.lft.to/lastmile_qr_scan", "android": "https://dc.lft.to/lastmile_qr_scan"}}, {"name": "ec4c802e0c765db9834e8b4af9a45793", "type": "electric_bike", "lat": 38.945553, "is_reserved": 0, "lon": -76.8953675, "fusion_lon": 0.0, "is_disabled": 0, "fusion_lat": 0.0, "bike_id": "ec4c802e0c765db9834e8b4af9a45793", "rental_uris": {"ios": "https://dc.lft.to/lastmile_qr_scan", "android": "https://dc.lft.to/lastmile_qr_scan"}}, {"name": "592ef297fef50c59fd79325b3341fca7", "type": "electric_scooter", "lat": 38.91476083333333, "is_reserved": 0, "lon": -77.00227816666667, "fusion_lon": 0.0, "is_disabled": 0, "fusion_lat": 0.0, "bike_id": "592ef297fef50c59fd79325b3341fca7", "rental_uris": {"ios": "https://dc.lft.to/lastmile_qr_scan", "android": "https://dc.lft.to/lastmile_qr_scan"}}, {"name": "04366efd4fa51d4bb625302fe6b49cdc", "type": "electric_scooter", "lat": 38.912537666666665, "is_reserved": 0, "lon": -77.01362016666667, "fusion_lon": 0.0, "is_disabled": 0, "fusion_lat": 0.0, "bike_id": "04366efd4fa51d4bb625302fe6b49cdc", "rental_uris": {"ios": "https://dc.lft.to/lastmile_qr_scan", "android": "https://dc.lft.to/lastmile_qr_scan"}}, {"name": "654dc52149fad600a497aeea41016ff4", "type": "electric_scooter", "lat": 38.920484, "is_reserved": 0, "lon": -77.03226383333333, "fusion_lon": 0.0, "is_disabled": 0, "fusion_lat": 0.0, "bike_id": "654dc52149fad600a497aeea41016ff4", "rental_uris": {"ios": "https://dc.lft.to/lastmile_qr_scan", "android": "https://dc.lft.to/lastmile_qr_scan"}}, {"name": "d125711ac64a3c99e24bfa9a3424c9a2", "type": "electric_scooter", "lat": 38.93123683333334, "is_reserved": 0, "lon": -77.03602566666666, "fusion_lon": 0.0, "is_disabled": 0, "fusion_lat": 0.0, "bike_id": "d125711ac64a3c99e24bfa9a3424c9a2", "rental_uris": {"ios": "https://dc.lft.to/lastmile_qr_scan", "android": "https://dc.lft.to/lastmile_qr_scan"}}, {"name": "d35ba797ddaced7ddc3cc90ae9a84535", "type": "electric_scooter", "lat": 38.932476666666666, "is_reserved": 0, "lon": -77.04001466666666, "fusion_lon": 0.0, "is_disabled": 0, "fusion_lat": 0.0, "bike_id": "d35ba797ddaced7ddc3cc90ae9a84535", "rental_uris": {"ios": "https://dc.lft.to/lastmile_qr_scan", "android": "https://dc.lft.to/lastmile_qr_scan"}}, {"name": "f008e56338dc10c9df1f80cacc7dce00", "type": "electric_scooter", "lat": 38.937338833333335, "is_reserved": 0, "lon": -77.03351716666667, "fusion_lon": 0.0, "is_disabled": 0, "fusion_lat": 0.0, "bike_id": "f008e56338dc10c9df1f80cacc7dce00", "rental_uris": {"ios": "https://dc.lft.to/lastmile_qr_scan", "android": "https://dc.lft.to/lastmile_qr_scan"}}, {"name": "c23c6fb90f9bc3118ebcb59072f56bd3", "type": "electric_scooter", "lat": 38.91408066666666, "is_reserved": 0, "lon": -77.039105, "fusion_lon": 0.0, "is_disabled": 0, "fusion_lat": 0.0, "bike_id": "c23c6fb90f9bc3118ebcb59072f56bd3", "rental_uris": {"ios": "https://dc.lft.to/lastmile_qr_scan", "android": "https://dc.lft.to/lastmile_qr_scan"}}, {"name": "adabfc4192a08d08cf3a41e1fba16b51", "type": "electric_scooter", "lat": 38.883781666666664, "is_reserved": 0, "lon": -76.93046183333334, "fusion_lon": 0.0, "is_disabled": 0, "fusion_lat": 0.0, "bike_id": "adabfc4192a08d08cf3a41e1fba16b51", "rental_uris": {"ios": "https://dc.lft.to/lastmile_qr_scan", "android": "https://dc.lft.to/lastmile_qr_scan"}}, {"name": "167b6d004ec9db327183090ab656b674", "type": "electric_scooter", "lat": 38.89271433333333, "is_reserved": 0, "lon": -77.03213266666667, "fusion_lon": 0.0, "is_disabled": 0, "fusion_lat": 0.0, "bike_id": "167b6d004ec9db327183090ab656b674", "rental_uris": {"ios": "https://dc.lft.to/lastmile_qr_scan", "android": "https://dc.lft.to/lastmile_qr_scan"}}, {"name": "4218b2665e3d14801e9d7e84e6e439c3", "type": "electric_scooter", "lat": 38.9018225, "is_reserved": 0, "lon": -77.03938933333333, "fusion_lon": 0.0, "is_disabled": 0, "fusion_lat": 0.0, "bike_id": "4218b2665e3d14801e9d7e84e6e439c3", "rental_uris": {"ios": "https://dc.lft.to/lastmile_qr_scan", "android": "https://dc.lft.to/lastmile_qr_scan"}}, {"name": "e3c1b9eb8a1d35399156c2b76f8c9bb9", "type": "electric_scooter", "lat": 38.8985525, "is_reserved": 0, "lon": -76.99031866666667, "fusion_lon": 0.0, "is_disabled": 0, "fusion_lat": 0.0, "bike_id": "e3c1b9eb8a1d35399156c2b76f8c9bb9", "rental_uris": {"ios": "https://dc.lft.to/lastmile_qr_scan", "android": "https://dc.lft.to/lastmile_qr_scan"}}, {"name": "e3b1a36d5e2d7b531701c613235f64b6", "type": "electric_bike", "lat": 38.869090166666666, "is_reserved": 0, "lon": -77.13179783333334, "fusion_lon": 0.0, "is_disabled": 0, "fusion_lat": 0.0, "bike_id": "e3b1a36d5e2d7b531701c613235f64b6", "rental_uris": {"ios": "https://dc.lft.to/lastmile_qr_scan", "android": "https://dc.lft.to/lastmile_qr_scan"}}, {"name": "21cc9ca923424f10a330c1163047b6d1", "type": "electric_scooter", "lat": 38.9168415, "is_reserved": 0, "lon": -77.02808416666667, "fusion_lon": 0.0, "is_disabled": 0, "fusion_lat": 0.0, "bike_id": "21cc9ca923424f10a330c1163047b6d1", "rental_uris": {"ios": "https://dc.lft.to/lastmile_qr_scan", "android": "https://dc.lft.to/lastmile_qr_scan"}}, {"name": "a6c6baff2fd97b34c02aab45c8ea1367", "type": "electric_scooter", "lat": 38.912417, "is_reserved": 0, "lon": -77.00084816666667, "fusion_lon": 0.0, "is_disabled": 0, "fusion_lat": 0.0, "bike_id": "a6c6baff2fd97b34c02aab45c8ea1367", "rental_uris": {"ios": "https://dc.lft.to/lastmile_qr_scan", "android": "https://dc.lft.to/lastmile_qr_scan"}}, {"name": "55e247280c3660452e49b7a2e7e70b10", "type": "electric_scooter", "lat": 38.912488, "is_reserved": 0, "lon": -77.03644616666666, "fusion_lon": 0.0, "is_disabled": 0, "fusion_lat": 0.0, "bike_id": "55e247280c3660452e49b7a2e7e70b10", "rental_uris": {"ios": "https://dc.lft.to/lastmile_qr_scan", "android": "https://dc.lft.to/lastmile_qr_scan"}}, {"name": "5e7ae5e631bed280f5801532a5d8e20b", "type": "electric_scooter", "lat": 38.90027083333333, "is_reserved": 0, "lon": -77.01708916666666, "fusion_lon": 0.0, "is_disabled": 0, "fusion_lat": 0.0, "bike_id": "5e7ae5e631bed280f5801532a5d8e20b", "rental_uris": {"ios": "https://dc.lft.to/lastmile_qr_scan", "android": "https://dc.lft.to/lastmile_qr_scan"}}, {"name": "9d9ed803514b31d1fa7c559c8257c060", "type": "electric_scooter", "lat": 38.880365166666664, "is_reserved": 0, "lon": -77.0035775, "fusion_lon": 0.0, "is_disabled": 0, "fusion_lat": 0.0, "bike_id": "9d9ed803514b31d1fa7c559c8257c060", "rental_uris": {"ios": "https://dc.lft.to/lastmile_qr_scan", "android": "https://dc.lft.to/lastmile_qr_scan"}}, {"name": "23e81494596c5d8434650dfde9783530", "type": "electric_scooter", "lat": 38.844227333333336, "is_reserved": 0, "lon": -76.99782683333333, "fusion_lon": 0.0, "is_disabled": 0, "fusion_lat": 0.0, "bike_id": "23e81494596c5d8434650dfde9783530", "rental_uris": {"ios": "https://dc.lft.to/lastmile_qr_scan", "android": "https://dc.lft.to/lastmile_qr_scan"}}, {"name": "abd539e708c19ef1de307f0697f08fd3", "type": "electric_scooter", "lat": 38.918026, "is_reserved": 0, "lon": -77.0280955, "fusion_lon": 0.0, "is_disabled": 0, "fusion_lat": 0.0, "bike_id": "abd539e708c19ef1de307f0697f08fd3", "rental_uris": {"ios": "https://dc.lft.to/lastmile_qr_scan", "android": "https://dc.lft.to/lastmile_qr_scan"}}, {"name": "2429946a3bd7c49a65d64f3415e74125", "type": "electric_scooter", "lat": 38.8922045, "is_reserved": 0, "lon": -77.04264766666667, "fusion_lon": 0.0, "is_disabled": 0, "fusion_lat": 0.0, "bike_id": "2429946a3bd7c49a65d64f3415e74125", "rental_uris": {"ios": "https://dc.lft.to/lastmile_qr_scan", "android": "https://dc.lft.to/lastmile_qr_scan"}}, {"name": "45545bf50737d4a0255b8fcbdd0b6879", "type": "electric_scooter", "lat": 38.909509, "is_reserved": 0, "lon": -77.03982866666666, "fusion_lon": 0.0, "is_disabled": 0, "fusion_lat": 0.0, "bike_id": "45545bf50737d4a0255b8fcbdd0b6879", "rental_uris": {"ios": "https://dc.lft.to/lastmile_qr_scan", "android": "https://dc.lft.to/lastmile_qr_scan"}}, {"name": "16c37ae84192af73a599aa8eca6c719d", "type": "electric_scooter", "lat": 38.926209666666665, "is_reserved": 0, "lon": -77.00581116666666, "fusion_lon": 0.0, "is_disabled": 0, "fusion_lat": 0.0, "bike_id": "16c37ae84192af73a599aa8eca6c719d", "rental_uris": {"ios": "https://dc.lft.to/lastmile_qr_scan", "android": "https://dc.lft.to/lastmile_qr_scan"}},