{"data": {"bikes": [{"name": "71082fe62fd262a52b1c7c0b42b46cd6", "type": "electric_scooter", "lat": 38.92912166666667, "is_reserved": 0, "lon": -77.0219195, "fusion_lon": 0.0, "is_disabled": 0, "fusion_lat": 0.0, "bike_id": "71082fe62fd262a52b1c7c0b42b46cd6", "rental_uris": {"ios": "https://dc.lft.to/lastmile_qr_scan", "android": "https://dc.lft.to/lastmile_qr_scan"}}, {"name": "22f8de1cce2781c4a57b7a788381234c", "type": "electric_bike", "lat": 38.90071, "is_reserved": 0, "lon": -76.98010633333334, "fusion_lon": 0.0, "is_disabled": 0, "fusion_lat": 0.0, "bike_id": "22f8de1cce2781c4a57b7a788381234c", "rental_uris": {"ios": "https://dc.lft.to/lastmile_qr_scan", "android": "https://dc.lft.to/lastmile_qr_scan"}}, {"name": "30c69c24dd1ac4139949ff373560a4bf", "type": "electric_scooter", "lat": 38.90425483333333, "is_reserved": 0, "lon": -77.02953983333333, "fusion_lon": 0.0, "is_disabled": 0, "fusion_lat": 0.0, "bike_id": "30c69c24dd1ac4139949ff373560a4bf", "rental_uris": {"ios": "https://dc.lft.to/lastmile_qr_scan", "android": "https://dc.lft.to/lastmile_qr_scan"}}, {"name": "e6367168ca4f036dc8dc643520516cfc", "type": "electric_scooter", "lat": 38.90028133333333, "is_reserved": 0, "lon": -76.99450383333334, "fusion_lon": 0.0, "is_disabled": 0, "fusion_lat": 0.0, "bike_id": "e6367168ca4f036dc8dc643520516cfc", "rental_uris": {"ios": "https://dc.lft.to/lastmile_qr_scan", "android": "https://dc.lft.to/lastmile_qr_scan"}}, {"name": "7dac15ed411f8a54be261f48e2f036b0", "type": "electric_bike", "lat": 38.97326666666667, "is_reserved": 0, "lon": -77.0215075, "fusion_lon": 0.0, "is_disabled": 0, "fusion_lat": 0.0, "bike_id": "7dac15ed411f8a54be261f48e2f036b0", "rental_uris": {"ios": "https://dc.lft.to/lastmile_qr_scan", "android": "https://dc.lft.to/lastmile_qr_scan"}}, {"name": "1297eeccfe3952a5e777d5b86d1dea0c", "type": "electric_scooter", "lat": 38.90342183333333, "is_reserved": 0, "lon": -77.03837216666666, "fusion_lon": 0.0, "is_disabled": 0, "fusion_lat": 0.0, "bike_id": "1297eeccfe3952a5e777d5b86d1dea0c", "rental_uris": {"ios": "https://dc.lft.to/lastmile_qr_scan", "android": "https://dc.lft.to/lastmile_qr_scan"}}, {"name": "28f28dfe2d9fa4d644518121bbdb905f", "type": "electric_scooter", "lat": 38.89047883333333, "is_reserved": 0, "lon": -76.937514, "fusion_lon": 0.0, "is_disabled": 0, "fusion_lat": 0.0, "bike_id": "28f28dfe2d9fa4d644518121bbdb905f", "rental_uris": {"ios": "https://dc.lft.to/lastmile_qr_scan", "android": "https://dc.lft.to/lastmile_qr_scan"}}, {"name": "74c6a9aea43b1ac5f095b7115dcbee6d", "type": "electric_bike", "lat": 38.8386105, "is_reserved": 0, "lon": -77.0886485, "fusion_lon": 0.0, "is_disabled": 0, "fusion_lat": 0.0, "bike_id": "74c6a9aea43b1ac5f095b7115dcbee6d", "rental_uris": {"ios": "https://dc.lft.to/lastmile_qr_scan", "android": "https://dc.lft.to/lastmile_qr_scan"}}, {"name": "ac3616733d7b780ab36dd4f7314ea9fa", "type": "electric_scooter", "lat": 38.90035066666667, "is_reserved": 0, "lon": -77.00190116666667, "fusion_lon": 0.0, "is_disabled": 0, "fusion_lat": 0.0, "bike_id": "ac3616733d7b780ab36dd4f7314ea9fa", "rental_uris": {"ios": "https://dc.lft.to/lastmile_qr_scan", "android": "https://dc.lft.to/lastmile_qr_scan"}}, {"name": "ed85b3c4cf0fe00487d1fa68388b7208", "type": "electric_scooter", "lat": 38.932245333333334, "is_reserved": 0, "lon": -77.03542866666666, "fusion_lon": 0.0, "is_disabled": 0, "fusion_lat": 0.0, "bike_id": "ed85b3c4cf0fe00487d1fa68388b7208", "rental_uris": {"ios": "https://dc.lft.to/lastmile_qr_scan", "android": "https://dc.lft.to/lastmile_qr_scan"}}, {"name": "e631b2d12d66c3933c3b87a1123b35f5", "type": "electric_scooter", "lat": 38.84293316666667, "is_reserved": 0, "lon": -76.9995135, "fusion_lon": 0.0, "is_disabled": 0, "fusion_lat": 0.0, "bike_id": "e631b2d12d66c3933c3b87a1123b35f5", "rental_uris": {"ios": "https://dc.lft.to/lastmile_qr_scan", "android": "https://dc.lft.to/lastmile_qr_scan"}}, {"name": "4d0561e03137b469138bda016c9e1bfe", "type": "electric_scooter", "lat": 38.932962333333336, "is_reserved": 0, "lon": -77.02798816666666, "fusion_lon": 0.0, "is_disabled": 0, "fusion_lat": 0.0, "bike_id": "4d0561e03137b469138bda016c9e1bfe", "rental_uris": {"ios": "https://dc.lft.to/lastmile_qr_scan", "android": "https://dc.lft.to/lastmile_qr_scan"}}, {"name": "6e2a3058aef584b28962bbee19c28b7f", "type": "electric_scooter", "lat": 38.97473983333333, "is_reserved": 0, "lon": -77.01896133333334, "fusion_lon": 0.0, "is_disabled": 0, "fusion_lat": 0.0, "bike_id": "6e2a3058aef584b28962bbee19c28b7f", "rental_uris": {"ios": "https://dc.lft.to/lastmile_qr_scan", "android": "https://dc.lft.to/lastmile_qr_scan"}}, {"name": "09a9bebf5448e9cd62e9bb8ecf6b955f", "type": "electric_bike", "lat": 38.85802316666667, "is_reserved": 0, "lon": -76.987539, "fusion_lon": 0.0, "is_disabled": 0, "fusion_lat": 0.0, "bike_id": "09a9bebf5448e9cd62e9bb8ecf6b955f", "rental_uris": {"ios": "https://dc.lft.to/lastmile_qr_scan", "android": "https://dc.lft.to/lastmile_qr_scan"}}, {"name": "ec581e803acedf3273899947d7216006", "type": "electric_scooter", "lat": 38.92333933333333, "is_reserved": 0, "lon": -77.03487133333333, "fusion_lon": 0.0, "is_disabled": 0, "fusion_lat": 0.0, "bike_id": "ec581e803acedf3273899947d7216006", "rental_uris": {"ios": "https://dc.lft.to/lastmile_qr_scan", "android": "https://dc.lft.to/lastmile_qr_scan"}}, {"name": "c6c5f320792c53880830c0873ae808a5", "type": "electric_scooter", "lat": 38.897483666666666, "is_reserved": 0, "lon": -77.05157183333333, "fusion_lon": 0.0, "is_disabled": 0, "fusion_lat": 0.0, "bike_id": "c6c5f320792c53880830c0873ae808a5", "rental_uris": {"ios": "https://dc.lft.to/lastmile_qr_scan", "android": "https://dc.lft.to/lastmile_qr_scan"}}, {"name": "4ad9a8d353f818ce323c68f1dea57668", "type": "electric_scooter", "lat": 38.903759, "is_reserved": 0, "lon": -77.0421385, "fusion_lon": 0.0, "is_disabled": 0, "fusion_lat": 0.0, "bike_id": "4ad9a8d353f818ce323c68f1dea57668", "rental_uris": {"ios": "https://dc.lft.to/lastmile_qr_scan", "android": "https://dc.lft.to/lastmile_qr_scan"}}, {"name": "d5ca9b27170ac6fa7ffa0373ec816abc", "type": "electric_scooter", "lat": 38.920277666666664, "is_reserved": 0, "lon": -77.01118633333333, "fusion_lon": 0.0, "is_disabled": 0, "fusion_lat": 0.0, "bike_id": "d5ca9b27170ac6fa7ffa0373ec816abc", "rental_uris": {"ios": "https://dc.lft.to/lastmile_qr_scan", "android": "https://dc.lft.to/lastmile_qr_scan"}}, {"name": "c9a7be19bb744cf6f0041357006fe222", "type": "electric_scooter", "lat": 38.903053666666665, "is_reserved": 0, "lon": -77.0602155, "fusion_lon": 0.0, "is_disabled": 0, "fusion_lat": 0.0, "bike_id": "c9a7be19bb744cf6f0041357006fe222", "rental_uris": {"ios": "https://dc.lft.to/lastmile_qr_scan", "android": "https://dc.lft.to/lastmile_qr_scan"}}, {"name": "a2ed314ee1bf820956c644205e5f0704", "type": "electric_scooter", "lat": 38.93067166666667, "is_reserved": 0, "lon": -77.038063, "fusion_lon": 0.0, "is_disabled": 0, "fusion_lat": 0.0, "bike_id": "a2ed314ee1bf820956c644205e5f0704", "rental_uris": {"ios": "https://dc.lft.to/lastmile_qr_scan", "android": "https://dc.lft.to/lastmile_qr_scan"}}, {"name": "ca0cc879e2e448741debc5526a8a7d74", "type": "electric_bike", "lat": 38.89609016666667, "is_reserved": 0, "lon": -77.031676, "fusion_lon": 0.0, "is_disabled": 0, "fusion_lat": 0.0, "bike_id": "ca0cc879e2e448741debc5526a8a7d74", "rental_uris": {"ios": "https://dc.lft.to/lastmile_qr_scan", "android": "https://dc.lft.to/lastmile_qr_scan"}}, {"name": "97bc03c46b01d6d225a584faad708f0f", "type": "electric_scooter", "lat": 38.93206883333333, "is_reserved": 0, "lon": -77.023848, "fusion_lon": 0.0, "is_disabled": 0, "fusion_lat": 0.0, "bike_id": "97bc03c46b01d6d225a584faad708f0f", "rental_uris": {"ios": "https://dc.lft.to/lastmile_qr_scan", "android": "https://dc.lft.to/lastmile_qr_scan"}}, {"name": "9db9f70adfda1f425bac0246b6b33957", "type": "electric_bike", "lat": 38.877317166666664, "is_reserved": 0, "lon": -77.11846533333333, "fusion_lon": 0.0, "is_disabled": 0, "fusion_lat": 0.0, "bike_id": "9db9f70adfda1f425bac0246b6b33957", "rental_uris": {"ios": "https://dc.lft.to/lastmile_qr_scan", "android": "https://dc.lft.to/lastmile_qr_scan"}}, {"name": "faa5fb171b818cac0886f72dcdfd60f0", "type": "electric_scooter", "lat": 38.906091, "is_reserved": 0, "lon": -77.05127016666667, "fusion_lon": 0.0, "is_disabled": 0, "fusion_lat": 0.0, "bike_id": "faa5fb171b818cac0886f72dcdfd60f0", "rental_uris": {"ios": "https://dc.lft.to/lastmile_qr_scan", "android": "https://dc.lft.to/lastmile_qr_scan"}}, {"name": "98520232833980bd75052af174ee193c", "type": "electric_scooter", "lat": 38.8850515, "is_reserved": 0, "lon": -77.00566, "fusion_lon": 0.0, "is_disabled": 0, "fusion_lat": 0.0, "bike_id": "98520232833980bd75052af174ee193c", "rental_uris": {"ios": "https://dc.lft.to/lastmile_qr_scan", "android": "https://dc.lft.to/lastmile_qr_scan"}}, {"name": "1879d5cc35c0362b5503aa0739a1b3f8", "type": "electric_scooter", "lat": 38.873366, "is_reserved": 0, "lon": -76.967894, "fusion_lon": 0.0, "is_disabled": 0, "fusion_lat": 0.0, "bike_id": "1879d5cc35c0362b5503aa0739a1b3f8", "rental_uris": {"ios": "https://dc.lft.to/lastmile_qr_scan", "android": "https://dc.lft.to/lastmile_qr_scan"}}, {"name": "9fbd1b02bbbd50557b941ec309872482", "type": "electric_scooter", "lat": 38.9396825, "is_reserved": 0, "lon": -77.053202, "fusion_lon": 0.0, "is_disabled": 0, "fusion_lat": 0.0, "bike_id": "9fbd1b02bbbd50557b941ec309872482", "rental_uris": {"ios": "https://dc.lft.to/lastmile_qr_scan", "android": "https://dc.lft.to/lastmile_qr_scan"}}, {"name": "aeea7002147404caf3987752aa731b91", "type": "electric_scooter", "lat": 38.929885, "is_reserved": 0, "lon": -77.03473033333333, "fusion_lon": 0.0, "is_disabled": 0, "fusion_lat": 0.0, "bike_id": "aeea7002147404caf3987752aa731b91", "rental_uris": {"ios": "https://dc.lft.to/lastmile_qr_scan", "android": "https://dc.lft.to/lastmile_qr_scan"}}, {"name": "84c5025bac40940fcd5e83ef4402173d", "type": "electric_scooter", "lat": 38.879201333333334, "is_reserved": 0, "lon": -77.01340133333333, "fusion_lon": 0.0, "is_disabled": 0, "fusion_lat": 0.0, "bike_id": "84c5025bac40940fcd5e83ef4402173d", "rental_uris": {"ios": "https://dc.lft.to/lastmile_qr_scan", "android": "https://dc.lft.to/lastmile_qr_scan"}}, {"name": "21e367edde9343a37b2241f8a6271a08", "type": "electric_scooter", "lat": 38.89711833333333, "is_reserved": 0, "lon": -77.05116216666667, "fusion_lon": 0.0, "is_disabled": 0, "fusion_lat": 0.0, "bike_id": "21e367edde9343a37b2241f8a6271a08", "rental_uris": {"ios": "https://dc.lft.to/lastmile_qr_scan", "android": "https://dc.lft.to/lastmile_qr_scan"}}, {"name": "933ea3d9d78abad94846b1da6709a4b3", "type": "electric_scooter", "lat": 38.8429115, "is_reserved": 0, "lon": -76.99948466666666, "fusion_lon": 0.0, "is_disabled": 0, "fusion_lat": 0.0, "bike_id": "933ea3d9d78abad94846b1da6709a4b3", "rental_uris": {"ios": "https://dc.lft.to/lastmile_qr_scan", "android": "https://dc.lft.to/lastmile_qr_scan"}}, {"name": "f3b9936c79c20038ad3a962ce3de9f16", "type": "electric_scooter", "lat": 38.92725166666666, "is_reserved": 0, "lon": -77.05384033333333, "fusion_lon": 0.0, "is_disabled": 0, "fusion_lat": 0.0, "bike_id": "f3b9936c79c20038ad3a962ce3de9f16", "rental_uris": {"ios": "https://dc.lft.to/lastmile_qr_scan", "android": "https://dc.lft.to/lastmile_qr_scan"}}, {"name": "485638ef6f880650ab4071f6fc1ada48", "type": "electric_scooter", "lat": 38.93511, "is_reserved": 0, "lon": -77.03297866666666, "fusion_lon": 0.0, "is_disabled": 0, "fusion_lat": 0.0, "bike_id": "485638ef6f880650ab4071f6fc1ada48", "rental_uris": {"ios": "https://dc.lft.to/lastmile_qr_scan", "android": "https://dc.lft.to/lastmile_qr_scan"}}, {"name": "473195bcd351101fb45cb8afcebd72cc", "type": "electric_scooter", "lat": 38.91265883333333, "is_reserved": 0, "lon": -77.029659, "fusion_lon": 0.0, "is_disabled": 0, "fusion_lat": 0.0, "bike_id": "473195bcd351101fb45cb8afcebd72cc", "rental_uris": {"ios": "https://dc.lft.to/lastmile_qr_scan", "android": "https://dc.lft.to/lastmile_qr_scan"}}, {"name": "83373d234fd8f9e7d052a003f5c24e2d", "type": "electric_scooter", "lat": 38.887172166666666, "is_reserved": 0, "lon": -77.01776983333333, "fusion_lon": 0.0, "is_disabled": 0, "fusion_lat": 0.0, "bike_id": "83373d234fd8f9e7d052a003f5c24e2d", "rental_uris": {"ios": "https://dc.lft.to/lastmile_qr_scan", "android": "https://dc.lft.to/lastmile_qr_scan"}}, {"name": "2c2f17398704fa413535bb614d0e194c", "type": "electric_scooter", "lat": 38.904639333333336, "is_reserved": 0, "lon": -77.04175016666667, "fusion_lon": 0.0, "is_disabled": 0, "fusion_lat": 0.0, "bike_id": "2c2f17398704fa413535bb614d0e194c", "rental_uris": {"ios": "https://dc.lft.to/lastmile_qr_scan", "android": "https://dc.lft.to/lastmile_qr_scan"}}, {"name": "68f906cb16f2a79743136d6543c7cfc4", "type": "electric_scooter", "lat": 38.90641766666667, "is_reserved": 0, "lon": -77.00999316666666, "fusion_lon": 0.0, "is_disabled": 0, "fusion_lat": 0.0, "bike_id": "68f906cb16f2a79743136d6543c7cfc4", "rental_uris": {"ios": "https://dc.lft.to/lastmile_qr_scan", "android": "https://dc.lft.to/lastmile_qr_scan"}}, {"name": "6758f5da4acd60962769723ceb291e96", "type": "electric_scooter", "lat": 38.97516383333333, "is_reserved": 0, "lon": -77.01744416666666, "fusion_lon": 0.0, "is_disabled": 0, "fusion_lat": 0.0, "bike_id": "6758f5da4acd60962769723ceb291e96", "rental_uris": {"ios": "https://dc.lft.to/lastmile_qr_scan", "android": "https://dc.lft.to/lastmile_qr_scan"}}, {"name": "ff86f8481b1c0a5c00fdb4120ab07bb9", "type": "electric_bike", "lat": 38.852452, "is_reserved": 0, "lon": -77.1142915, "fusion_lon": 0.0, "is_disabled": 0, "fusion_lat": 0.0, "bike_id": "ff86f8481b1c0a5c00fdb4120ab07bb9", "rental_uris": {"ios": "https://dc.lft.to/lastmile_qr_scan", "android": "https://dc.lft.to/lastmile_qr_scan"}}, {"name": "3060f04376465f94ee3fb4f592310756", "type": "electric_scooter", "lat": 38.90278133333333, "is_reserved": 0, "lon": -77.03859383333334, "fusion_lon": 0.0, "is_disabled": 0, "fusion_lat": 0.0, "bike_id": "3060f04376465f94ee3fb4f592310756", "rental_uris": {"ios": "https://dc.lft.to/lastmile_qr_scan", "android": "https://dc.lft.to/lastmile_qr_scan"}}, {"name": "2e0d05fc62ce8cf11228c401baa9762a", "type": "electric_scooter", "lat": 38.921001833333335, "is_reserved": 0, "lon": -77.036469, "fusion_lon": 0.0, "is_disabled": 0, "fusion_lat": 0.0, "bike_id": "2e0d05fc62ce8cf11228c401baa9762a", "rental_uris": {"ios": "https://dc.lft.to/lastmile_qr_scan", "android": "https://dc.lft.to/lastmile_qr_scan"}}, {"name": "198a8f8f68f574f37f1842263d9966fd", "type": "electric_scooter", "lat": 38.901176, "is_reserved": 0, "lon": -77.04999333333333, "fusion_lon": 0.0, "is_disabled": 0, "fusion_lat": 0.0, "bike_id": "198a8f8f68f574f37f1842263d9966fd", "rental_uris": {"ios": "https://dc.lft.to/lastmile_qr_scan", "android": "https://dc.lft.to/lastmile_qr_scan"}}, {"name": "42b4dba3385db25fc8071803e8f79620", "type": "electric_scooter", "lat": 38.899531, "is_reserved": 0, "lon": -77.02980233333334, "fusion_lon": 0.0, "is_disabled": 0, "fusion_lat": 0.0, "bike_id": "42b4dba3385db25fc8071803e8f79620", "rental_uris": {"ios": "https://dc.lft.to/lastmile_qr_scan", "android": "https://dc.lft.to/lastmile_qr_scan"}}, {"name": "658cf78b3dfa6beaf724e6241af3fa5d", "type": "electric_scooter", "lat": 38.89677866666667, "is_reserved": 0, "lon": -76.9472365, "fusion_lon": 0.0, "is_disabled": 0, "fusion_lat": 0.0, "bike_id": "658cf78b3dfa6beaf724e6241af3fa5d", "rental_uris": {"ios": "https://dc.lft.to/lastmile_qr_scan", "android": "https://dc.lft.to/lastmile_qr_scan"}}, {"name": "30a6e2799cc53e5d3d3c20b1315c4e00", "type": "electric_scooter", "lat": 38.91339166666667, "is_reserved": 0, "lon": -77.03194266666667, "fusion_lon": 0.0, "is_disabled": 0, "fusion_lat": 0.0, "bike_id": "30a6e2799cc53e5d3d3c20b1315c4e00", "rental_uris": {"ios": "https://dc.lft.to/lastmile_qr_scan", "android": "https://dc.lft.to/lastmile_qr_scan"}}, {"name": "c755f96cae6a90f0a1bca025266c518b", "type": "electric_scooter", "lat": 38.916666666666664, "is_reserved": 0, "lon": -77.00502466666667, "fusion_lon": 0.0, "is_disabled": 0, "fusion_lat": 0.0, "bike_id": "c755f96cae6a90f0a1bca025266c518b", "rental_uris": {"ios": "https://dc.lft.to/lastmile_qr_scan", "android": "https://dc.lft.to/lastmile_qr_scan"}}, {"name": "d0db69fe89d25e0e1acf03156b545fae", "type": "electric_scooter", "lat": 38.90714083333334, "is_reserved": 0, "lon": -77.04356966666667, "fusion_lon": 0.0, "is_disabled": 0, "fusion_lat": 0.0, "bike_id": "d0db69fe89d25e0e1acf03156b545fae", "rental_uris": {"ios": "https://dc.lft.to/lastmile_qr_scan", "android": "https://dc.lft.to/lastmile_qr_scan"}}, {"name": "896e183e6d8e623fb431ab2f4be94a89", "type": "electric_scooter", "lat": 38.9165875, "is_reserved": 0, "lon": -77.0270055, "fusion_lon": 0.0, "is_disabled": 0, "fusion_lat": 0.0, "bike_id": "896e183e6d8e623fb431ab2f4be94a89", "rental_uris": {"ios": "https://dc.lft.to/lastmile_qr_scan", "android": "https://dc.lft.to/lastmile_qr_scan"}}, {"name": "6b96096ef4e1683a9e0df784828f306f", "type": "electric_scooter", "lat": 38.9035805, "is_reserved": 0, "lon": -77.02994, "fusion_lon": 0.0, "is_disabled": 0, "fusion_lat": 0.0, "bike_id": "6b96096ef4e1683a9e0df784828f306f", "rental_uris": {"ios": "https://dc.lft.to/lastmile_qr_scan", "android": "https://dc.lft.to/lastmile_qr_scan"}}, {"name": "2cdb90510a6d119e29ed951d6efdae58", "type": "electric_scooter", "lat": 38.903608, "is_reserved": 0, "lon": -77.04472233333334, "fusion_lon": 0.0, "is_disabled": 0, "fusion_lat": 0.0, "bike_id": "2cdb90510a6d119e29ed951d6efdae58", "rental_uris": {"ios": "https://dc.lft.to/lastmile_qr_scan", "android": "https://dc.lft.to/lastmile_qr_scan"}}, {"name": "b11b8c18bdcfabaa6791e3b37dab7f35", "type": "electric_scooter", "lat": 38.92614, "is_reserved": 0, "lon": -77.02163766666666, "fusion_lon": 0.0, "is_disabled": 0, "fusion_lat": 0.0, "bike_id": "b11b8c18bdcfabaa6791e3b37dab7f35", "rental_uris": {"ios": "https://dc.lft.to/lastmile_qr_scan", "android": "https://dc.lft.to/lastmile_qr_scan"}}, {"name": "4129e674be2fa2dfabc332fbc55d220a", "type": "electric_scooter", "lat": 38.8786745, "is_reserved": 0, "lon": -77.02278383333334, "fusion_lon": 0.0, "is_disabled": 0, "fusion_lat": 0.0, "bike_id": "4129e674be2fa2dfabc332fbc55d220a", "rental_uris": {"ios": "https://dc.lft.to/lastmile_qr_scan", "android": "https://dc.lft.to/lastmile_qr_scan"}}, {"name": "3737ccdc6a9a92d3d27ed7acde9061dc", "type": "electric_scooter", "lat": 38.909588166666666, "is_reserved": 0, "lon": -77.00760683333333, "fusion_lon": 0.0, "is_disabled": 0, "fusion_lat": 0.0, "bike_id": "3737ccdc6a9a92d3d27ed7acde9061dc", "rental_uris": {"ios": "https://dc.lft.to/lastmile_qr_scan", "android": "https://dc.lft.to/lastmile_qr_scan"}}, {"name": "b1197e24c4e430fd972ed530aa26283e", "type": "electric_scooter", "lat": 38.909661, "is_reserved": 0, "lon": -77.0330025, "fusion_lon": 0.0, "is_disabled": 0, "fusion_lat": 0.0, "bike_id": "b1197e24c4e430fd972ed530aa26283e", "rental_uris": {"ios": "https://dc.lft.to/lastmile_qr_scan", "android": "https://dc.lft.to/lastmile_qr_scan"}}, {"name": "71a93681c529f7ea188642efa8757f11", "type": "electric_scooter", "lat": 38.93201283333333, "is_reserved": 0, "lon": -77.03875166666667, "fusion_lon": 0.0, "is_disabled": 0, "fusion_lat": 0.0, "bike_id": "71a93681c529f7ea188642efa8757f11", "rental_uris": {"ios": "https://dc.lft.to/lastmile_qr_scan", "android": "https://dc.lft.to/lastmile_qr_scan"}}, {"name": "e2faeda1e85b230a8cd12626fcc61cf4", "type": "electric_scooter", "lat": 38.9037155, "is_reserved": 0, "lon": -77.01109366666667, "fusion_lon": 0.0, "is_disabled": 0, "fusion_lat": 0.0, "bike_id": "e2faeda1e85b230a8cd12626fcc61cf4", "rental_uris": {"ios": "https://dc.lft.to/lastmile_qr_scan", "android": "https://dc.lft.to/lastmile_qr_scan"}}, {"name": "31a0cd36ae13def8d3d62ba2495e224b", "type": "electric_scooter", "lat": 38.895408833333335, "is_reserved": 0, "lon": -77.0465305, "fusion_lon": 0.0, "is_disabled": 0, "fusion_lat": 0.0, "bike_id": "31a0cd36ae13def8d3d62ba2495e224b", "rental_uris": {"ios": "https://dc.lft.to/lastmile_qr_scan", "android": "https://dc.lft.to/lastmile_qr_scan"}}, {"name": "ec1b3693d65f97b3bfa3bd46d00e6549", "type": "electric_scooter", "lat": 38.906308, "is_reserved": 0, "lon": -77.039013, "fusion_lon": 0.0, "is_disabled": 0, "fusion_lat": 0.0, "bike_id": "ec1b3693d65f97b3bfa3bd46d00e6549", "rental_uris": {"ios": "https://dc.lft.to/lastmile_qr_scan", "android": "https://dc.lft.to/lastmile_qr_scan"}}, {"name": "3ef3915baee86f9ce96cfeb844cfcd6b", "type": "electric_scooter", "lat": 38.89193083333333, "is_reserved": 0, "lon": -77.04587116666667, "fusion_lon": 0.0, "is_disabled": 0, "fusion_lat": 0.0, "bike_id": "3ef3915baee86f9ce96cfeb844cfcd6b", "rental_uris": {"ios": "https://dc.lft.to/lastmile_qr_scan", "android": "https://dc.lft.to/lastmile_qr_scan"}}, {"name": "54fb3a05e0d71d19029b7ed017c195d3", "type": "electric_scooter", "lat": 38.94417166666667, "is_reserved": 0, "lon": -77.05518916666666, "fusion_lon": 0.0, "is_disabled": 0, "fusion_lat": 0.0, "bike_id": "54fb3a05e0d71d19029b7ed017c195d3", "rental_uris": {"ios": "https://dc.lft.to/lastmile_qr_scan", "android": "https://dc.lft.to/lastmile_qr_scan"}}, {"name": "641fcd3cbb7124853ed5f75c6a50779b", "type": "electric_bike", "lat": 38.90686216666667, "is_reserved": 0, "lon": -76.9518815, "fusion_lon": 0.0, "is_disabled": 0, "fusion_lat": 0.0, "bike_id": "641fcd3cbb7124853ed5f75c6a50779b", "rental_uris": {"ios": "https://dc.lft.to/lastmile_qr_scan", "android": "https://dc.lft.to/lastmile_qr_scan"}}, {"name": "253f46fb841c41ba5db3f0a3fba490a6", "type": "electric_scooter", "lat": 38.9054685, "is_reserved": 0, "lon": -77.02188533333333, "fusion_lon": 0.0, "is_disabled": 0, "fusion_lat": 0.0, "bike_id": "253f46fb841c41ba5db3f0a3fba490a6", "rental_uris": {"ios": "https://dc.lft.to/lastmile_qr_scan", "android": "https://dc.lft.to/lastmile_qr_scan"}}, {"name": "276e5ad7bc8738a088fd7fdc6a629453", "type": "electric_scooter", "lat": 38.88319766666667, "is_reserved": 0, "lon": -77.017532, "fusion_lon": 0.0, "is_disabled": 0, "fusion_lat": 0.0, "bike_id": "276e5ad7bc8738a088fd7fdc6a629453", "rental_uris": {"ios": "https://dc.lft.to/lastmile_qr_scan", "android": "https://dc.lft.to/lastmile_qr_scan"}}, {"name": "02db5ccf5924b383ebc91e96c050c786", "type": "electric_bike", "lat": 38.802266, "is_reserved": 0, "lon": -77.07915466666667, "fusion_lon": 0.0, "is_disabled": 0, "fusion_lat": 0.0, "bike_id": "02db5ccf5924b383ebc91e96c050c786", "rental_uris": {"ios": "https://dc.lft.to/lastmile_qr_scan", "android": "https://dc.lft.to/lastmile_qr_scan"}}, {"name": "a503cd456c9d8d7c2a25df6959053fca", "type": "electric_scooter", "lat": 38.92951683333333, "is_reserved": 0, "lon": -77.04402483333334, "fusion_lon": 0.0, "is_disabled": 0, "fusion_lat": 0.0, "bike_id": "a503cd456c9d8d7c2a25df6959053fca", "rental_uris": {"ios": "https://dc.lft.to/lastmile_qr_scan", "android": "https://dc.lft.to/lastmile_qr_scan"}}, {"name": "f8a0f15b5ec691dc9f20b74a424f9a50", "type": "electric_scooter", "lat": 38.904608333333336, "is_reserved": 0, "lon": -77.0465225, "fusion_lon": 0.0, "is_disabled": 0, "fusion_lat": 0.0, "bike_id": "f8a0f15b5ec691dc9f20b74a424f9a50", "rental_uris": {"ios": "https://dc.lft.to/lastmile_qr_scan", "android": "https://dc.lft.to/lastmile_qr_scan"}}, {"name": "8440c0212e8fe7160df43fa38c73b1e6", "type": "electric_scooter", "lat": 38.901423, "is_reserved": 0, "lon": -77.03321916666667, "fusion_lon": 0.0, "is_disabled": 0, "fusion_lat": 0.0, "bike_id": "8440c0212e8fe7160df43fa38c73b1e6", "rental_uris": {"ios": "https://dc.lft.to/lastmile_qr_scan", "android": "https://dc.lft.to/lastmile_qr_scan"}}, {"name": "4972c818d54fa59238f0436a10b0318a", "type": "electric_scooter", "lat": 38.90969183333333, "is_reserved": 0, "lon": -77.02719083333334, "fusion_lon": 0.0, "is_disabled": 0, "fusion_lat": 0.0, "bike_id": "4972c818d54fa59238f0436a10b0318a", "rental_uris": {"ios": "https://dc.lft.to/lastmile_qr_scan", "android": "https://dc.lft.to/lastmile_qr_scan"}}, {"name": "14dc8174a1ac1474f961bbae4c9ebcf7", "type": "electric_bike", "lat": 38.966234, "is_reserved": 0, "lon": -76.97667366666667, "fusion_lon": 0.0, "is_disabled": 0, "fusion_lat": 0.0, "bike_id": "14dc8174a1ac1474f961bbae4c9ebcf7", "rental_uris": {"ios": "https://dc.lft.to/lastmile_qr_scan", "android": "https://dc.lft.to/lastmile_qr_scan"}}, {"name": "af8a014357c6437a28f9fe3defbef462", "type": "electric_scooter", "lat": 38.933854, "is_reserved": 0, "lon": -77.02972266666667, "fusion_lon": 0.0, "is_disabled": 0, "fusion_lat": 0.0, "bike_id": "af8a014357c6437a28f9fe3defbef462", "rental_uris": {"ios": "https://dc.lft.to/lastmile_qr_scan", "android": "https://dc.lft.to/lastmile_qr_scan"}}, {"name": "e21ccf6b8dad7d778b8f966a686f841a", "type": "electric_scooter", "lat": 38.89970816666667, "is_reserved": 0, "lon": -77.03175516666667, "fusion_lon": 0.0, "is_disabled": 0, "fusion_lat": 0.0, "bike_id": "e21ccf6b8dad7d778b8f966a686f841a", "rental_uris": {"ios": "https://dc.lft.to/lastmile_qr_scan", "android": "https://dc.lft.to/lastmile_qr_scan"}}, {"name": "b1881173651658ffa476cfef7a4b6775", "type": "electric_bike", "lat": 38.907268333333334, "is_reserved": 0, "lon": -77.01307916666667, "fusion_lon": 0.0, "is_disabled": 0, "fusion_lat": 0.0, "bike_id": "b1881173651658ffa476cfef7a4b6775", "rental_uris": {"ios": "https://dc.lft.to/lastmile_qr_scan", "android": "https://dc.lft.to/lastmile_qr_scan"}}, {"name": "81e9b796280f9f071cd8039c728d0596", "type": "electric_scooter", "lat": 38.920500833333335, "is_reserved": 0, "lon": -77.03342883333333, "fusion_lon": 0.0, "is_disabled": 0, "fusion_lat": 0.0, "bike_id": "81e9b796280f9f071cd8039c728d0596", "rental_uris": {"ios": "https://dc.lft.to/lastmile_qr_scan", "android": "https://dc.lft.to/lastmile_qr_scan"}}, {"name": "575845ab92a7b39ccabc88ba87e3b7a7", "type": "electric_scooter", "lat": 38.86696833333333, "is_reserved": 0, "lon": -76.98712316666666, "fusion_lon": 0.0, "is_disabled": 0, "fusion_lat": 0.0, "bike_id": "575845ab92a7b39ccabc88ba87e3b7a7", "rental_uris": {"ios": "https://dc.lft.to/lastmile_qr_scan", "android": "https://dc.lft.to/lastmile_qr_scan"}}, {"name": "34be136f014fff7eacb563c5f5344835", "type": "electric_scooter", "lat": 38.91711183333334, "is_reserved": 0, "lon": -77.03654866666666, "fusion_lon": 0.0, "is_disabled": 0, "fusion_lat": 0.0, "bike_id": "34be136f014fff7eacb563c5f5344835", "rental_uris": {"ios": "https://dc.lft.to/lastmile_qr_scan", "android": "https://dc.lft.to/lastmile_qr_scan"}}, {"name": "86a1315bf538957277961b190e9eaa4d", "type": "electric_scooter", "lat": 38.92070983333333, "is_reserved": 0, "lon": -77.0346065, "fusion_lon": 0.0, "is_disabled": 0, "fusion_lat": 0.0, "bike_id": "86a1315bf538957277961b190e9eaa4d", "rental_uris": {"ios": "https://dc.lft.to/lastmile_qr_scan", "android": "https://dc.lft.to/lastmile_qr_scan"}}, {"name": "7af8e84433fba4f952aa706a7061be36", "type": "electric_scooter", "lat": 38.909590333333334, "is_reserved": 0, "lon": -77.0241345, "fusion_lon": 0.0, "is_disabled": 0, "fusion_lat": 0.0, "bike_id": "7af8e84433fba4f952aa706a7061be36", "rental_uris": {"ios": "https://dc.lft.to/lastmile_qr_scan", "android": "https://dc.lft.to/lastmile_qr_scan"}}, {"name": "83d690498a3ec07a2585a51d28e1baf8", "type": "electric_scooter", "lat": 38.928497, "is_reserved": 0, "lon": -77.03260983333334, "fusion_lon": 0.0, "is_disabled": 0, "fusion_lat": 0.0, "bike_id": "83d690498a3ec07a2585a51d28e1baf8", "rental_uris": {"ios": "https://dc.lft.to/lastmile_qr_scan", "android": "https://dc.lft.to/lastmile_qr_scan"}}, {"name": "bac244ca65580cb69fdb37ed1a8be71b", "type": "electric_bike", "lat": 38.99939633333334, "is_reserved": 0, "lon": -77.01765983333334, "fusion_lon": 0.0, "is_disabled": 0, "fusion_lat": 0.0, "bike_id": "bac244ca65580cb69fdb37ed1a8be71b", "rental_uris": {"ios": "https://dc.lft.to/lastmile_qr_scan", "android": "https://dc.lft.to/lastmile_qr_scan"}}, {"name": "8cfebe69b1ee0f5d2130ec8a2538465f", "type": "electric_scooter", "lat": 38.93977366666667, "is_reserved": 0, "lon": -77.02893966666667, "fusion_lon": 0.0, "is_disabled": 0, "fusion_lat": 0.0, "bike_id": "8cfebe69b1ee0f5d2130ec8a2538465f", "rental_uris": {"ios": "https://dc.lft.to/lastmile_qr_scan", "android": "https://dc.lft.to/lastmile_qr_scan"}}, {"name": "afe20ffe87961d6b236ecadd502c041d", "type": "electric_bike", "lat": 38.8585125, "is_reserved": 0, "lon": -77.09751566666667, "fusion_lon": 0.0, "is_disabled": 0, "fusion_lat": 0.0, "bike_id": "afe20ffe87961d6b236ecadd502c041d", "rental_uris": {"ios": "https://dc.lft.to/lastmile_qr_scan", "android": "https://dc.lft.to/lastmile_qr_scan"}}, {"name": "f91197dce264c4aefe5c8dc45b8e6782", "type": "electric_scooter", "lat": 38.9065765, "is_reserved": 0, "lon": -77.03849266666667, "fusion_lon": 0.0, "is_disabled": 0, "fusion_lat": 0.0, "bike_id": "f91197dce264c4aefe5c8dc45b8e6782", "rental_uris": {"ios": "https://dc.lft.to/lastmile_qr_scan", "android": "https://dc.lft.to/lastmile_qr_scan"}}, {"name": "16b11be6139cacd19bc343ce129b1058", "type": "electric_scooter", "lat": 38.92380033333333, "is_reserved": 0, "lon": -77.04024916666667, "fusion_lon": 0.0, "is_disabled": 0, "fusion_lat": 0.0, "bike_id": "16b11be6139cacd19bc343ce129b1058", "rental_uris": {"ios": "https://dc.lft.to/lastmile_qr_scan", "android": "https://dc.lft.to/lastmile_qr_scan"}}, {"name": "46e3e443c782f7632ca88b36c240f1e0", "type": "electric_scooter", "lat": 38.92684083333333, "is_reserved": 0, "lon": -77.02157216666667, "fusion_lon": 0.0, "is_disabled": 0, "fusion_lat": 0.0, "bike_id": "46e3e443c782f7632ca88b36c240f1e0", "rental_uris": {"ios": "https://dc.lft.to/lastmile_qr_scan", "android": "https://dc.lft.to/lastmile_qr_scan"}}, {"name": "245308565774e604680b4ddf406e592e", "type": "electric_bike", "lat": 38.854363166666666, "is_reserved": 0, "lon": -77.1170775, "fusion_lon": 0.0, "is_disabled": 0, "fusion_lat": 0.0, "bike_id": "245308565774e604680b4ddf406e592e", "rental_uris": {"ios": "https://dc.lft.to/lastmile_qr_scan", "android": "https://dc.lft.to/lastmile_qr_scan"}}, {"name": "975222db021d6c7da368645010502338", "type": "electric_scooter", "lat": 38.907976166666664, "is_reserved": 0, "lon": -76.99702816666667, "fusion_lon": 0.0, "is_disabled": 0, "fusion_lat": 0.0, "bike_id": "975222db021d6c7da368645010502338", "rental_uris": {"ios": "https://dc.lft.to/lastmile_qr_scan", "android": "https://dc.lft.to/lastmile_qr_scan"}}, {"name": "c53cf9ac1afe8a5c4cea96234f92dbf0", "type": "electric_scooter", "lat": 38.89743083333333, "is_reserved": 0, "lon": -77.04687716666666, "fusion_lon": 0.0, "is_disabled": 0, "fusion_lat": 0.0, "bike_id": "c53cf9ac1afe8a5c4cea96234f92dbf0", "rental_uris": {"ios": "https://dc.lft.to/lastmile_qr_scan", "android": "https://dc.lft.to/lastmile_qr_scan"}}, {"name": "3c6714ab78546b424cd944b693122fea", "type": "electric_scooter", "lat": 38.92071083333333, "is_reserved": 0, "lon": -77.03218083333333, "fusion_lon": 0.0, "is_disabled": 0, "fusion_lat": 0.0, "bike_id": "3c6714ab78546b424cd944b693122fea", "rental_uris": {"ios": "https://dc.lft.to/lastmile_qr_scan", "android": "https://dc.lft.to/lastmile_qr_scan"}}, {"name": "8d80113786f85cdfcb1fa5ca1585eba7", "type": "electric_scooter", "lat": 38.917200333333334, "is_reserved": 0, "lon": -77.04174066666667, "fusion_lon": 0.0, "is_disabled": 0, "fusion_lat": 0.0, "bike_id": "8d80113786f85cdfcb1fa5ca1585eba7", "rental_uris": {"ios": "https://dc.lft.to/lastmile_qr_scan", "android": "https://dc.lft.to/lastmile_qr_scan"}}, {"name": "894df09b3b58e012eae5ece133bea705", "type": "electric_scooter", "lat": 38.89529683333333, "is_reserved": 0, "lon": -77.01610133333334, "fusion_lon": 0.0, "is_disabled": 0, "fusion_lat": 0.0, "bike_id": "894df09b3b58e012eae5ece133bea705", "rental_uris": {"ios": "https://dc.lft.to/lastmile_qr_scan", "android": "https://dc.lft.to/lastmile_qr_scan"}}, {"name": "18b96abd33b2bc32675c94ab0e7df342", "type": "electric_scooter", "lat": 38.907235, "is_reserved": 0, "lon": -77.02509316666666, "fusion_lon": 0.0, "is_disabled": 0, "fusion_lat": 0.0, "bike_id": "18b96abd33b2bc32675c94ab0e7df342", "rental_uris": {"ios": "https://dc.lft.to/lastmile_qr_scan", "android": "https://dc.lft.to/lastmile_qr_scan"}}, {"name": "09c05446954e01bd1aafdbd26a05468c", "type": "electric_scooter", "lat": 38.9055255, "is_reserved": 0, "lon": -77.04485733333334, "fusion_lon": 0.0, "is_disabled": 0, "fusion_lat": 0.0, "bike_id": "09c05446954e01bd1aafdbd26a05468c", "rental_uris": {"ios": "https://dc.lft.to/lastmile_qr_scan", "android": "https://dc.lft.to/lastmile_qr_scan"}}, {"name": "f94154a1740446c23430e8f5c8062303", "type": "electric_scooter", "lat": 38.93501333333333, "is_reserved": 0, "lon": -77.02849533333334, "fusion_lon": 0.0, "is_disabled": 0, "fusion_lat": 0.0, "bike_id": "f94154a1740446c23430e8f5c8062303", "rental_uris": {"ios": "https://dc.lft.to/lastmile_qr_scan", "android": "https://dc.lft.to/lastmile_qr_scan"}}, {"name": "20bf1e8bda10fe0f6b3940d38b617f16", "type": "electric_scooter", "lat": 38.921715166666665, "is_reserved": 0, "lon": -76.99397533333334, "fusion_lon": 0.0, "is_disabled": 0, "fusion_lat": 0.0, "bike_id": "20bf1e8bda10fe0f6b3940d38b617f16", "rental_uris": {"ios": "https://dc.lft.to/lastmile_qr_scan", "android": "https://dc.lft.to/lastmile_qr_scan"}}, {"name": "f3ae4c731f3ebf420f12a62826a400c8", "type": "electric_scooter", "lat": 38.8850595, "is_reserved": 0, "lon": -77.0209355, "fusion_lon": 0.0, "is_disabled": 0, "fusion_lat": 0.0, "bike_id": "f3ae4c731f3ebf420f12a62826a400c8", "rental_uris": {"ios": "https://dc.lft.to/lastmile_qr_scan", "android": "https://dc.lft.to/lastmile_qr_scan"}}, {"name": "91ab6a2cf222c347d8ba285e579adfab", "type": "electric_scooter", "lat": 38.941779833333335, "is_reserved": 0, "lon": -77.03094366666667, "fusion_lon": 0.0, "is_disabled": 0, "fusion_lat": 0.0, "bike_id": "91ab6a2cf222c347d8ba285e579adfab", "rental_uris": {"ios": "https://dc.lft.to/lastmile_qr_scan", "android": "https://dc.lft.to/lastmile_qr_scan"}}, {"name": "8cbe00d7fdebd081239dd2aed94ab12d", "type": "electric_scooter", "lat": 38.8922125, "is_reserved": 0, "lon": -77.02145616666667, "fusion_lon": 0.0, "is_disabled": 0, "fusion_lat": 0.0, "bike_id": "8cbe00d7fdebd081239dd2aed94ab12d", "rental_uris": {"ios": "https://dc.lft.to/lastmile_qr_scan", "android": "https://dc.lft.to/lastmile_qr_scan"}}, {"name": "e177a82cb78a2b670715f85f097ba007", "type": "electric_scooter", "lat": 38.9035265, "is_reserved": 0, "lon": -77.0074435, "fusion_lon": 0.0, "is_disabled": 0, "fusion_lat": 0.0, "bike_id": "e177a82cb78a2b670715f85f097ba007", "rental_uris": {"ios": "https://dc.lft.to/lastmile_qr_scan", "android": "https://dc.lft.to/lastmile_qr_scan"}}, {"name": "06f77afee92bb44ccb5ff17bb579e796", "type": "electric_scooter", "lat": 38.89727233333333, "is_reserved": 0, "lon": -77.02718316666666, "fusion_lon": 0.0, "is_disabled": 0, "fusion_lat": 0.0, "bike_id": "06f77afee92bb44ccb5ff17bb579e796", "rental_uris": {"ios": "https://dc.lft.to/lastmile_qr_scan", "android": "https://dc.lft.to/lastmile_qr_scan"}}, {"name": "bec975eeab1788a8057855c9f34a23c9", "type": "electric_scooter", "lat": 38.928506, "is_reserved": 0, "lon": -77.05433633333334, "fusion_lon": 0.0, "is_disabled": 0, "fusion_lat": 0.0, "bike_id": "bec975eeab1788a8057855c9f34a23c9", "rental_uris": {"ios": "https://dc.lft.to/lastmile_qr_scan", "android": "https://dc.lft.to/lastmile_qr_scan"}}, {"name": "6ffa6a2a3909668c8d23d854ff9649d2", "type": "electric_bike", "lat": 38.8778795, "is_reserved": 0, "lon": -77.00833966666667, "fusion_lon": 0.0, "is_disabled": 0, "fusion_lat": 0.0, "bike_id": "6ffa6a2a3909668c8d23d854ff9649d2", "rental_uris": {"ios": "https://dc.lft.to/lastmile_qr_scan", "android": "https://dc.lft.to/lastmile_qr_scan"}}, {"name": "e7a6f1f5fd44aa8f4bc118be558ec0bc", "type": "electric_scooter", "lat": 38.891328333333334, "is_reserved": 0, "lon": -77.00347233333333, "fusion_lon": 0.0, "is_disabled": 0, "fusion_lat": 0.0, "bike_id": "e7a6f1f5fd44aa8f4bc118be558ec0bc", "rental_uris": {"ios": "https://dc.lft.to/lastmile_qr_scan", "android": "https://dc.lft.to/lastmile_qr_scan"}}, {"name": "e6bc5d062a4e52ace04f81fa0a0a473b", "type": "electric_scooter", "lat": 38.895826, "is_reserved": 0, "lon": -77.02567883333333, "fusion_lon": 0.0, "is_disabled": 0, "fusion_lat": 0.0, "bike_id": "e6bc5d062a4e52ace04f81fa0a0a473b", "rental_uris": {"ios": "https://dc.lft.to/lastmile_qr_scan", "android": "https://dc.lft.to/lastmile_qr_scan"}}, {"name": "2f968c2e0655cbddd62099ae61ffaf94", "type": "electric_scooter", "lat": 38.9082405, "is_reserved": 0, "lon": -76.99692116666667, "fusion_lon": 0.0, "is_disabled": 0, "fusion_lat": 0.0, "bike_id": "2f968c2e0655cbddd62099ae61ffaf94", "rental_uris": {"ios": "https://dc.lft.to/lastmile_qr_scan", "android": "https://dc.lft.to/lastmile_qr_scan"}}, {"name": "11819b6697e83d42f5e06e6371da8d4d", "type": "electric_scooter", "lat": 38.9024705, "is_reserved": 0, "lon": -77.033428, "fusion_lon": 0.0, "is_disabled": 0, "fusion_lat": 0.0, "bike_id": "11819b6697e83d42f5e06e6371da8d4d", "rental_uris": {"ios": "https://dc.lft.to/lastmile_qr_scan", "android": "https://dc.lft.to/lastmile_qr_scan"}}, {"name": "e7ba014f38281507adef1af7aabe18e8", "type": "electric_scooter", "lat": 38.87973616666667, "is_reserved": 0, "lon": -76.98547283333333, "fusion_lon": 0.0, "is_disabled": 0, "fusion_lat": 0.0, "bike_id": "e7ba014f38281507adef1af7aabe18e8", "rental_uris": {"ios": "https://dc.lft.to/lastmile_qr_scan", "android": "https://dc.lft.to/lastmile_qr_scan"}}, {"name": "2466a4d343543f4e93e53957d452e3a6", "type": "electric_scooter", "lat": 38.892005166666664, "is_reserved": 0, "lon": -77.015511, "fusion_lon": 0.0, "is_disabled": 0, "fusion_lat": 0.0, "bike_id": "2466a4d343543f4e93e53957d452e3a6", "rental_uris": {"ios": "https://dc.lft.to/lastmile_qr_scan", "android": "https://dc.lft.to/lastmile_qr_scan"}}, {"name": "d0ed918617aa2bd245aa1085bae0d1f4", "type": "electric_scooter", "lat": 38.905027833333335, "is_reserved": 0, "lon": -77.0513125, "fusion_lon": 0.0, "is_disabled": 0, "fusion_lat": 0.0, "bike_id": "d0ed918617aa2bd245aa1085bae0d1f4", "rental_uris": {"ios": "https://dc.lft.to/lastmile_qr_scan", "android": "https://dc.lft.to/lastmile_qr_scan"}}, {"name": "0d2c448fcf8c5a81c403026a56bb7c8d", "type": "electric_scooter", "lat": 38.90257166666667, "is_reserved": 0, "lon": -77.01820733333334, "fusion_lon": 0.0, "is_disabled": 0, "fusion_lat": 0.0, "bike_id": "0d2c448fcf8c5a81c403026a56bb7c8d", "rental_uris": {"ios": "https://dc.lft.to/lastmile_qr_scan", "android": "https://dc.lft.to/lastmile_qr_scan"}}, {"name": "c21d0675524158a40258475373d22943", "type": "electric_bike", "lat": 39.030497833333335, "is_reserved": 0, "lon": -77.09482416666667, "fusion_lon": 0.0, "is_disabled": 0, "fusion_lat": 0.0, "bike_id": "c21d0675524158a40258475373d22943", "rental_uris": {"ios": "https://dc.lft.to/lastmile_qr_scan", "android": "https://dc.lft.to/lastmile_qr_scan"}}, {"name": "badafee09479d4064f7bb9198d6a76f0", "type": "electric_scooter", "lat": 38.880029666666665, "is_reserved": 0, "lon": -76.98543233333334, "fusion_lon": 0.0, "is_disabled": 0, "fusion_lat": 0.0, "bike_id": "badafee09479d4064f7bb9198d6a76f0", "rental_uris": {"ios": "https://dc.lft.to/lastmile_qr_scan", "android": "https://dc.lft.to/lastmile_qr_scan"}}, {"name": "98d1b848411a9660e160d8fbc1db7a19", "type": "electric_scooter", "lat": 38.89850116666667, "is_reserved": 0, "lon": -77.00741783333334, "fusion_lon": 0.0, "is_disabled": 0, "fusion_lat": 0.0, "bike_id": "98d1b848411a9660e160d8fbc1db7a19", "rental_uris": {"ios": "https://dc.lft.to/lastmile_qr_scan", "android": "https://dc.lft.to/lastmile_qr_scan"}}, {"name": "f8c8284abfc04abda7bbd8f3373f4fdb", "type": "electric_scooter", "lat": 38.9397115, "is_reserved": 0, "lon": -77.03260333333333, "fusion_lon": 0.0, "is_disabled": 0, "fusion_lat": 0.0, "bike_id": "f8c8284abfc04abda7bbd8f3373f4fdb", "rental_uris": {"ios": "https://dc.lft.to/lastmile_qr_scan", "android": "https://dc.lft.to/lastmile_qr_scan"}}, {"name": "1f7afeaf971eea5ff142dc8c4c2d34d7", "type": "electric_scooter", "lat": 38.91427566666667, "is_reserved": 0, "lon": -77.04651016666666, "fusion_lon": 0.0, "is_disabled": 0, "fusion_lat": 0.0, "bike_id": "1f7afeaf971eea5ff142dc8c4c2d34d7", "rental_uris": {"ios": "https://dc.lft.to/lastmile_qr_scan", "android": "https://dc.lft.to/lastmile_qr_scan"}}, {"name": "80c4dc7ef9c141be006ce135d71e8d66", "type": "electric_scooter", "lat": 38.89706566666667, "is_reserved": 0, "lon": -77.03257016666667, "fusion_lon": 0.0, "is_disabled": 0, "fusion_lat": 0.0, "bike_id": "80c4dc7ef9c141be006ce135d71e8d66", "rental_uris": {"ios": "https://dc.lft.to/lastmile_qr_scan", "android": "https://dc.lft.to/lastmile_qr_scan"}}, {"name": "79a3e8657e262156f4fb6f24c01990e9", "type": "electric_bike", "lat": 38.88407516666667, "is_reserved": 0, "lon": -76.96057233333333, "fusion_lon": 0.0, "is_disabled": 0, "fusion_lat": 0.0, "bike_id": "79a3e8657e262156f4fb6f24c01990e9", "rental_uris": {"ios": "https://dc.lft.to/lastmile_qr_scan", "android": "https://dc.lft.to/lastmile_qr_scan"}}, {"name": "16fa21a024c1b3be0769de1e935f73fa", "type": "electric_scooter", "lat": 38.93713566666667, "is_reserved": 0, "lon": -77.02935666666667, "fusion_lon": 0.0, "is_disabled": 0, "fusion_lat": 0.0, "bike_id": "16fa21a024c1b3be0769de1e935f73fa", "rental_uris": {"ios": "https://dc.lft.to/lastmile_qr_scan", "android": "https://dc.lft.to/lastmile_qr_scan"}}, {"name": "01fcb78520bd0e7fc448780f74362235", "type": "electric_scooter", "lat": 38.90026533333333, "is_reserved": 0, "lon": -77.00205083333333, "fusion_lon": 0.0, "is_disabled": 0, "fusion_lat": 0.0, "bike_id": "01fcb78520bd0e7fc448780f74362235", "rental_uris": {"ios": "https://dc.lft.to/lastmile_qr_scan", "android": "https://dc.lft.to/lastmile_qr_scan"}}, {"name": "81ac1f2c3290def60a29bea33e64deec", "type": "electric_scooter", "lat": 38.885128333333334, "is_reserved": 0, "lon": -77.00570966666666, "fusion_lon": 0.0, "is_disabled": 0, "fusion_lat": 0.0, "bike_id": "81ac1f2c3290def60a29bea33e64deec", "rental_uris": {"ios": "https://dc.lft.to/lastmile_qr_scan", "android": "https://dc.lft.to/lastmile_qr_scan"}}, {"name": "2626e96c7d34d3fc7b2ccae7be98d0e4", "type": "electric_scooter", "lat": 38.9036545, "is_reserved": 0, "lon": -77.009895, "fusion_lon": 0.0, "is_disabled": 0, "fusion_lat": 0.0, "bike_id": "2626e96c7d34d3fc7b2ccae7be98d0e4", "rental_uris": {"ios": "https://dc.lft.to/lastmile_qr_scan", "android": "https://dc.lft.to/lastmile_qr_scan"}}, {"name": "b826ef5536e2abfbd90b29fa9aa517d6", "type": "electric_scooter", "lat": 38.9343285, "is_reserved": 0, "lon": -77.03995666666667, "fusion_lon": 0.0, "is_disabled": 0, "fusion_lat": 0.0, "bike_id": "b826ef5536e2abfbd90b29fa9aa517d6", "rental_uris": {"ios": "https://dc.lft.to/lastmile_qr_scan", "android": "https://dc.lft.to/lastmile_qr_scan"}}, {"name": "2fe11c631eda28f743d93709a8eeb83c", "type": "electric_scooter", "lat": 38.8922025, "is_reserved": 0, "lon": -77.0308295, "fusion_lon": 0.0, "is_disabled": 0, "fusion_lat": 0.0, "bike_id": "2fe11c631eda28f743d93709a8eeb83c", "rental_uris": {"ios": "https://dc.lft.to/lastmile_qr_scan", "android": "https://dc.lft.to/lastmile_qr_scan"}}, {"name": "6878efed5d07469ef192f32812f2114b", "type": "electric_scooter", "lat": 38.92851666666667, "is_reserved": 0, "lon": -77.01371066666667, "fusion_lon": 0.0, "is_disabled": 0, "fusion_lat": 0.0, "bike_id": "6878efed5d07469ef192f32812f2114b", "rental_uris": {"ios": "https://dc.lft.to/lastmile_qr_scan", "android": "https://dc.lft.to/lastmile_qr_scan"}}, {"name": "11a65f58892e969bf2dde95fdb7e0eff", "type": "electric_scooter", "lat": 38.90094366666667, "is_reserved": 0, "lon": -77.01927216666667, "fusion_lon": 0.0, "is_disabled": 0, "fusion_lat": 0.0, "bike_id": "11a65f58892e969bf2dde95fdb7e0eff", "rental_uris": {"ios": "https://dc.lft.to/lastmile_qr_scan", "android": "https://dc.lft.to/lastmile_qr_scan"}}, {"name": "a26760394c6baf0ecec3c2cc4057f1d8", "type": "electric_bike", "lat": 38.8372395, "is_reserved": 0, "lon": -76.99763416666667, "fusion_lon": 0.0, "is_disabled": 0, "fusion_lat": 0.0, "bike_id": "a26760394c6baf0ecec3c2cc4057f1d8", "rental_uris": {"ios": "https://dc.lft.to/lastmile_qr_scan", "android": "https://dc.lft.to/lastmile_qr_scan"}}, {"name": "26acb6dd5c733c1dc70fa7e42bc800ca", "type": "electric_scooter", "lat": 38.894830666666664, "is_reserved": 0, "lon": -76.94873133333333, "fusion_lon": 0.0, "is_disabled": 0, "fusion_lat": 0.0, "bike_id": "26acb6dd5c733c1dc70fa7e42bc800ca", "rental_uris": {"ios": "https://dc.lft.to/lastmile_qr_scan", "android": "https://dc.lft.to/lastmile_qr_scan"}}, {"name": "82349362639447d67ac42031a2942320", "type": "electric_scooter", "lat": 38.90592433333333, "is_reserved": 0, "lon": -77.0509755, "fusion_lon": 0.0, "is_disabled": 0, "fusion_lat": 0.0, "bike_id": "82349362639447d67ac42031a2942320", "rental_uris": {"ios": "https://dc.lft.to/lastmile_qr_scan", "android": "https://dc.lft.to/lastmile_qr_scan"}}, {"name": "c0d469e91fcbf3d9fb1defaa91704557", "type": "electric_bike", "lat": 38.95072866666667, "is_reserved": 0, "lon": -77.01199266666667, "fusion_lon": 0.0, "is_disabled": 0, "fusion_lat": 0.0, "bike_id": "c0d469e91fcbf3d9fb1defaa91704557", "rental_uris": {"ios": "https://dc.lft.to/lastmile_qr_scan", "android": "https://dc.lft.to/lastmile_qr_scan"}}, {"name": "b298bd813c360e556989573ed6f50db3", "type": "electric_scooter", "lat": 38.937220333333336, "is_reserved": 0, "lon": -77.02421516666666, "fusion_lon": 0.0, "is_disabled": 0, "fusion_lat": 0.0, "bike_id": "b298bd813c360e556989573ed6f50db3", "rental_uris": {"ios": "https://dc.lft.to/lastmile_qr_scan", "android": "https://dc.lft.to/lastmile_qr_scan"}}, {"name": "dc49c6c3ecfe8609a874f9694e5252f1", "type": "electric_scooter", "lat": 38.906255333333334, "is_reserved": 0, "lon": -77.04666, "fusion_lon": 0.0, "is_disabled": 0, "fusion_lat": 0.0, "bike_id": "dc49c6c3ecfe8609a874f9694e5252f1", "rental_uris": {"ios": "https://dc.lft.to/lastmile_qr_scan", "android": "https://dc.lft.to/lastmile_qr_scan"}}, {"name": "123ded59e6932b6f855f70d9b4de702e", "type": "electric_scooter", "lat": 38.928815, "is_reserved": 0, "lon": -77.04133666666667, "fusion_lon": 0.0, "is_disabled": 0, "fusion_lat": 0.0, "bike_id": "123ded59e6932b6f855f70d9b4de702e", "rental_uris": {"ios": "https://dc.lft.to/lastmile_qr_scan", "android": "https://dc.lft.to/lastmile_qr_scan"}}, {"name": "55ac94840f535fd52eb42eaeb58b3241", "type": "electric_scooter", "lat": 38.9259495, "is_reserved": 0, "lon": -77.00484316666666, "fusion_lon": 0.0, "is_disabled": 0, "fusion_lat": 0.0, "bike_id": "55ac94840f535fd52eb42eaeb58b3241", "rental_uris": {"ios": "https://dc.lft.to/lastmile_qr_scan", "android": "https://dc.lft.to/lastmile_qr_scan"}}, {"name": "4e373903572d5ebdff3f22ccd8c603aa", "type": "electric_scooter", "lat": 38.922554833333336, "is_reserved": 0, "lon": -77.03529316666666, "fusion_lon": 0.0, "is_disabled": 0, "fusion_lat": 0.0, "bike_id": "4e373903572d5ebdff3f22ccd8c603aa", "rental_uris": {"ios": "https://dc.lft.to/lastmile_qr_scan", "android": "https://dc.lft.to/lastmile_qr_scan"}}, {"name": "beb0eec73fe2bc0b7cc29c2795734198", "type": "electric_scooter", "lat": 38.913383833333334, "is_reserved": 0, "lon": -77.00217566666667, "fusion_lon": 0.0, "is_disabled": 0, "fusion_lat": 0.0, "bike_id": "beb0eec73fe2bc0b7cc29c2795734198", "rental_uris": {"ios": "https://dc.lft.to/lastmile_qr_scan", "android": "https://dc.lft.to/lastmile_qr_scan"}}, {"name": "dddb543c71d1aae401c09e432967f60c", "type": "electric_scooter", "lat": 38.894892166666665, "is_reserved": 0, "lon": -77.0112165, "fusion_lon": 0.0, "is_disabled": 0, "fusion_lat": 0.0, "bike_id": "dddb543c71d1aae401c09e432967f60c", "rental_uris": {"ios": "https://dc.lft.to/lastmile_qr_scan", "android": "https://dc.lft.to/lastmile_qr_scan"}}, {"name": "4e0144689e7bb54265b3c2981c26943b", "type": "electric_bike", "lat": 38.954817166666665, "is_reserved": 0, "lon": -77.082425, "fusion_lon": 0.0, "is_disabled": 0, "fusion_lat": 0.0, "bike_id": "4e0144689e7bb54265b3c2981c26943b", "rental_uris": {"ios": "https://dc.lft.to/lastmile_qr_scan", "android": "https://dc.lft.to/lastmile_qr_scan"}}, {"name": "bd44af7eac4c8a405a96a56a3d4b3ddc", "type": "electric_scooter", "lat": 38.9023955, "is_reserved": 0, "lon": -77.026981, "fusion_lon": 0.0, "is_disabled": 0, "fusion_lat": 0.0, "bike_id": "bd44af7eac4c8a405a96a56a3d4b3ddc", "rental_uris": {"ios": "https://dc.lft.to/lastmile_qr_scan", "android": "https://dc.lft.to/lastmile_qr_scan"}}, {"name": "43289953be0d081b1614dabc97d78121", "type": "electric_scooter", "lat": 38.88429633333333, "is_reserved": 0, "lon": -76.95757366666666, "fusion_lon": 0.0, "is_disabled": 0, "fusion_lat": 0.0, "bike_id": "43289953be0d081b1614dabc97d78121", "rental_uris": {"ios": "https://dc.lft.to/lastmile_qr_scan", "android": "https://dc.lft.to/lastmile_qr_scan"}}, {"name": "971da80bdee504b81ff0be966361e81d", "type": "electric_scooter", "lat": 38.916762166666665, "is_reserved": 0, "lon": -77.02712616666666, "fusion_lon": 0.0, "is_disabled": 0, "fusion_lat": 0.0, "bike_id": "971da80bdee504b81ff0be966361e81d", "rental_uris": {"ios": "https://dc.lft.to/lastmile_qr_scan", "android": "https://dc.lft.to/lastmile_qr_scan"}}, {"name": "af0b7f2c3b79e6bd2664307af5cb99fa", "type": "electric_scooter", "lat": 38.92422366666667, "is_reserved": 0, "lon": -77.01947483333333, "fusion_lon": 0.0, "is_disabled": 0, "fusion_lat": 0.0, "bike_id": "af0b7f2c3b79e6bd2664307af5cb99fa", "rental_uris": {"ios": "https://dc.lft.to/lastmile_qr_scan", "android": "https://dc.lft.to/lastmile_qr_scan"}}, {"name": "1b77883299e304c2499f422f976f70c7", "type": "electric_scooter", "lat": 38.863554, "is_reserved": 0, "lon": -76.99066083333334, "fusion_lon": 0.0, "is_disabled": 0, "fusion_lat": 0.0, "bike_id": "1b77883299e304c2499f422f976f70c7", "rental_uris": {"ios": "https://dc.lft.to/lastmile_qr_scan", "android": "https://dc.lft.to/lastmile_qr_scan"}}, {"name": "cd40210dd445a4168cd3d23bc4823ae8", "type": "electric_scooter", "lat": 38.8982925, "is_reserved": 0, "lon": -76.94633783333333, "fusion_lon": 0.0, "is_disabled": 0, "fusion_lat": 0.0, "bike_id": "cd40210dd445a4168cd3d23bc4823ae8", "rental_uris": {"ios": "https://dc.lft.to/lastmile_qr_scan", "android": "https://dc.lft.to/lastmile_qr_scan"}}, {"name": "0fd1e4abba87519274417cbf92719a04", "type": "electric_scooter", "lat": 38.920641833333335, "is_reserved": 0, "lon": -77.04251333333333, "fusion_lon": 0.0, "is_disabled": 0, "fusion_lat": 0.0, "bike_id": "0fd1e4abba87519274417cbf92719a04", "rental_uris": {"ios": "https://dc.lft.to/lastmile_qr_scan", "android": "https://dc.lft.to/lastmile_qr_scan"}}, {"name": "61fd7006f32857a38f7020bd97f7cc69", "type": "electric_scooter", "lat": 38.920365833333335, "is_reserved": 0, "lon": -77.04189833333334, "fusion_lon": 0.0, "is_disabled": 0, "fusion_lat": 0.0, "bike_id": "61fd7006f32857a38f7020bd97f7cc69", "rental_uris": {"ios": "https://dc.lft.to/lastmile_qr_scan", "android": "https://dc.lft.to/lastmile_qr_scan"}}, {"name": "6c6c93a2f54fddad48e7ce2763600d5c", "type": "electric_scooter", "lat": 38.90451683333333, "is_reserved": 0, "lon": -77.0489625, "fusion_lon": 0.0, "is_disabled": 0, "fusion_lat": 0.0, "bike_id": "6c6c93a2f54fddad48e7ce2763600d5c", "rental_uris": {"ios": "https://dc.lft.to/lastmile_qr_scan", "android": "https://dc.lft.to/lastmile_qr_scan"}}, {"name": "1f0fdc3094d1fc2dd5d30818b3f1d839", "type": "electric_bike", "lat": 39.026512833333335, "is_reserved": 0, "lon": -77.12539516666666, "fusion_lon": 0.0, "is_disabled": 0, "fusion_lat": 0.0, "bike_id": "1f0fdc3094d1fc2dd5d30818b3f1d839", "rental_uris": {"ios": "https://dc.lft.to/lastmile_qr_scan", "android": "https://dc.lft.to/lastmile_qr_scan"}}, {"name": "778eaa5b93e3bf2f30cc9c5f5776ecbc", "type": "electric_scooter", "lat": 38.911906333333334, "is_reserved": 0, "lon": -77.06095416666666, "fusion_lon": 0.0, "is_disabled": 0, "fusion_lat": 0.0, "bike_id": "778eaa5b93e3bf2f30cc9c5f5776ecbc", "rental_uris": {"ios": "https://dc.lft.to/lastmile_qr_scan", "android": "https://dc.lft.to/lastmile_qr_scan"}}, {"name": "b6b51760250578209c2ed188d7583f60", "type": "electric_scooter", "lat": 38.8922485, "is_reserved": 0, "lon": -77.04539233333334, "fusion_lon": 0.0, "is_disabled": 0, "fusion_lat": 0.0, "bike_id": "b6b51760250578209c2ed188d7583f60", "rental_uris": {"ios": "https://dc.lft.to/lastmile_qr_scan", "android": "https://dc.lft.to/lastmile_qr_scan"}}, {"name": "8391253815f9024669d81c49043633a4", "type": "electric_scooter", "lat": 38.929071, "is_reserved": 0, "lon": -77.02165983333333, "fusion_lon": 0.0, "is_disabled": 0, "fusion_lat": 0.0, "bike_id": "8391253815f9024669d81c49043633a4", "rental_uris": {"ios": "https://dc.lft.to/lastmile_qr_scan", "android": "https://dc.lft.to/lastmile_qr_scan"}}, {"name": "fa52d0dfc90477ec9be3a95eefca6b97", "type": "electric_bike", "lat": 38.905635333333336, "is_reserved": 0, "lon": -77.00553566666666, "fusion_lon": 0.0, "is_disabled": 0, "fusion_lat": 0.0, "bike_id": "fa52d0dfc90477ec9be3a95eefca6b97", "rental_uris": {"ios": "https://dc.lft.to/lastmile_qr_scan", "android": "https://dc.lft.to/lastmile_qr_scan"}}, {"name": "00d2b2c170223f5e995beb970649050f", "type": "electric_scooter", "lat": 38.9349355, "is_reserved": 0, "lon": -77.02846966666667, "fusion_lon": 0.0, "is_disabled": 0, "fusion_lat": 0.0, "bike_id": "00d2b2c170223f5e995beb970649050f", "rental_uris": {"ios": "https://dc.lft.to/lastmile_qr_scan", "android": "https://dc.lft.to/lastmile_qr_scan"}}, {"name": "cebc5c36bf25815c7f2e4068a3a4b844", "type": "electric_scooter", "lat": 38.882806, "is_reserved": 0, "lon": -76.979066, "fusion_lon": 0.0, "is_disabled": 0, "fusion_lat": 0.0, "bike_id": "cebc5c36bf25815c7f2e4068a3a4b844", "rental_uris": {"ios": "https://dc.lft.to/lastmile_qr_scan", "android": "https://dc.lft.to/lastmile_qr_scan"}}, {"name": "963652f145416ccc9639e8529652088d", "type": "electric_scooter", "lat": 38.900209333333336, "is_reserved": 0, "lon": -76.9870325, "fusion_lon": 0.0, "is_disabled": 0, "fusion_lat": 0.0, "bike_id": "963652f145416ccc9639e8529652088d", "rental_uris": {"ios": "https://dc.lft.to/lastmile_qr_scan", "android": "https://dc.lft.to/lastmile_qr_scan"}}, {"name": "ad74750f4c2d066aca3a068ec4dcf729", "type": "electric_scooter", "lat": 38.935508666666664, "is_reserved": 0, "lon": -77.03415766666667, "fusion_lon": 0.0, "is_disabled": 0, "fusion_lat": 0.0, "bike_id": "ad74750f4c2d066aca3a068ec4dcf729", "rental_uris": {"ios": "https://dc.lft.to/lastmile_qr_scan", "android": "https://dc.lft.to/lastmile_qr_scan"}}, {"name": "5f5a89ceec3f780edea036fed7f6c6ca", "type": "electric_scooter", "lat": 38.8442505, "is_reserved": 0, "lon": -76.99775733333334, "fusion_lon": 0.0, "is_disabled": 0, "fusion_lat": 0.0, "bike_id": "5f5a89ceec3f780edea036fed7f6c6ca", "rental_uris": {"ios": "https://dc.lft.to/lastmile_qr_scan", "android": "https://dc.lft.to/lastmile_qr_scan"}}, {"name": "9e2f103fd607e323fc78e78b9c6f1ac7", "type": "electric_scooter", "lat": 38.92671266666667, "is_reserved": 0, "lon": -76.9953515, "fusion_lon": 0.0, "is_disabled": 0, "fusion_lat": 0.0, "bike_id": "9e2f103fd607e323fc78e78b9c6f1ac7", "rental_uris": {"ios": "https://dc.lft.to/lastmile_qr_scan", "android": "https://dc.lft.to/lastmile_qr_scan"}}, {"name": "25e3af6ce89b6fb8d7cb9fcae301a6d3", "type": "electric_scooter", "lat": 38.895294, "is_reserved": 0, "lon": -76.9493145, "fusion_lon": 0.0, "is_disabled": 0, "fusion_lat": 0.0, "bike_id": "25e3af6ce89b6fb8d7cb9fcae301a6d3", "rental_uris": {"ios": "https://dc.lft.to/lastmile_qr_scan", "android": "https://dc.lft.to/lastmile_qr_scan"}}, {"name": "d868781b56ae2d302f2ff334afbcae92", "type": "electric_scooter", "lat": 38.907954, "is_reserved": 0, "lon": -77.02954666666666, "fusion_lon": 0.0, "is_disabled": 0, "fusion_lat": 0.0, "bike_id": "d868781b56ae2d302f2ff334afbcae92", "rental_uris": {"ios": "https://dc.lft.to/lastmile_qr_scan", "android": "https://dc.lft.to/lastmile_qr_scan"}}, {"name": "fbf135a5ef48ced2e42c78f6fa6f43e2", "type": "electric_scooter", "lat": 38.920919, "is_reserved": 0, "lon": -77.02411416666666, "fusion_lon": 0.0, "is_disabled": 0, "fusion_lat": 0.0, "bike_id": "fbf135a5ef48ced2e42c78f6fa6f43e2", "rental_uris": {"ios": "https://dc.lft.to/lastmile_qr_scan", "android": "https://dc.lft.to/lastmile_qr_scan"}}, {"name": "e776c039a54512f3b2e832ec2ef7d611", "type": "electric_scooter", "lat": 38.903117, "is_reserved": 0, "lon": -77.03305783333333, "fusion_lon": 0.0, "is_disabled": 0, "fusion_lat": 0.0, "bike_id": "e776c039a54512f3b2e832ec2ef7d611", "rental_uris": {"ios": "https://dc.lft.to/lastmile_qr_scan", "android": "https://dc.lft.to/lastmile_qr_scan"}}, {"name": "aa0feec0a7a42b7bbf10ea67d6ed8d17", "type": "electric_bike", "lat": 38.85442366666667, "is_reserved": 0, "lon": -76.90976816666667, "fusion_lon": 0.0, "is_disabled": 0, "fusion_lat": 0.0, "bike_id": "aa0feec0a7a42b7bbf10ea67d6ed8d17", "rental_uris": {"ios": "https://dc.lft.to/lastmile_qr_scan", "android": "https://dc.lft.to/lastmile_qr_scan"}}, {"name": "418e04c96abd2669f8160353cc6e0691", "type": "electric_bike", "lat": 38.810512, "is_reserved": 0, "lon": -77.08507683333333, "fusion_lon": 0.0, "is_disabled": 0, "fusion_lat": 0.0, "bike_id": "418e04c96abd2669f8160353cc6e0691", "rental_uris": {"ios": "https://dc.lft.to/lastmile_qr_scan", "android": "https://dc.lft.to/lastmile_qr_scan"}}, {"name": "33c51abacd2ac032742fba8652570627", "type": "electric_scooter", "lat": 38.921610333333334, "is_reserved": 0, "lon": -77.0323785, "fusion_lon": 0.0, "is_disabled": 0, "fusion_lat": 0.0, "bike_id": "33c51abacd2ac032742fba8652570627", "rental_uris": {"ios": "https://dc.lft.to/lastmile_qr_scan", "android": "https://dc.lft.to/lastmile_qr_scan"}}, {"name": "873955c01779982a7fc64d2f5a0964e2", "type": "electric_scooter", "lat": 38.88025366666667, "is_reserved": 0, "lon": -77.0025515, "fusion_lon": 0.0, "is_disabled": 0, "fusion_lat": 0.0, "bike_id": "873955c01779982a7fc64d2f5a0964e2", "rental_uris": {"ios": "https://dc.lft.to/lastmile_qr_scan", "android": "https://dc.lft.to/lastmile_qr_scan"}}, {"name": "1c553b9a85eab40d7cb2596e8c80dd94", "type": "electric_scooter", "lat": 38.900838, "is_reserved": 0, "lon": -77.050687, "fusion_lon": 0.0, "is_disabled": 0, "fusion_lat": 0.0, "bike_id": "1c553b9a85eab40d7cb2596e8c80dd94", "rental_uris": {"ios": "https://dc.lft.to/lastmile_qr_scan", "android": "https://dc.lft.to/lastmile_qr_scan"}}, {"name": "0a1c92b9dbb356367a80adb144f85d44", "type": "electric_scooter", "lat": 38.903761833333334, "is_reserved": 0, "lon": -77.011033, "fusion_lon": 0.0, "is_disabled": 0, "fusion_lat": 0.0, "bike_id": "0a1c92b9dbb356367a80adb144f85d44", "rental_uris": {"ios": "https://dc.lft.to/lastmile_qr_scan", "android": "https://dc.lft.to/lastmile_qr_scan"}}, {"name": "3e2a04864922c7024eb5793a3319f1f3", "type": "electric_scooter", "lat": 38.9033485, "is_reserved": 0, "lon": -77.0665375, "fusion_lon": 0.0, "is_disabled": 0, "fusion_lat": 0.0, "bike_id": "3e2a04864922c7024eb5793a3319f1f3", "rental_uris": {"ios": "https://dc.lft.to/lastmile_qr_scan", "android": "https://dc.lft.to/lastmile_qr_scan"}}, {"name": "3bc9c8961666f700ec6e502c53bec5f2", "type": "electric_scooter", "lat": 38.92899166666667, "is_reserved": 0, "lon": -77.05449683333333, "fusion_lon": 0.0, "is_disabled": 0, "fusion_lat": 0.0, "bike_id": "3bc9c8961666f700ec6e502c53bec5f2", "rental_uris": {"ios": "https://dc.lft.to/lastmile_qr_scan", "android": "https://dc.lft.to/lastmile_qr_scan"}}, {"name": "477cc4a49dcd3e002cb3a0f3cbc95c25", "type": "electric_scooter", "lat": 38.90618283333333, "is_reserved": 0, "lon": -77.05033633333333, "fusion_lon": 0.0, "is_disabled": 0, "fusion_lat": 0.0, "bike_id": "477cc4a49dcd3e002cb3a0f3cbc95c25", "rental_uris": {"ios": "https://dc.lft.to/lastmile_qr_scan", "android": "https://dc.lft.to/lastmile_qr_scan"}}, {"name": "56886c356ea0ad35772a399cc3b05f1a", "type": "electric_scooter", "lat": 38.91028333333333, "is_reserved": 0, "lon": -77.048087, "fusion_lon": 0.0, "is_disabled": 0, "fusion_lat": 0.0, "bike_id": "56886c356ea0ad35772a399cc3b05f1a", "rental_uris": {"ios": "https://dc.lft.to/lastmile_qr_scan", "android": "https://dc.lft.to/lastmile_qr_scan"}}, {"name": "43ffcc61fe40c74de1b51efbfe501210", "type": "electric_scooter", "lat": 38.926345166666664, "is_reserved": 0, "lon": -77.033979, "fusion_lon": 0.0, "is_disabled": 0, "fusion_lat": 0.0, "bike_id": "43ffcc61fe40c74de1b51efbfe501210", "rental_uris": {"ios": "https://dc.lft.to/lastmile_qr_scan", "android": "https://dc.lft.to/lastmile_qr_scan"}}, {"name": "e206eea9e249c0669c62d3b0dd29f305", "type": "electric_scooter", "lat": 38.898784666666664, "is_reserved": 0, "lon": -76.93158516666666, "fusion_lon": 0.0, "is_disabled": 0, "fusion_lat": 0.0, "bike_id": "e206eea9e249c0669c62d3b0dd29f305", "rental_uris": {"ios": "https://dc.lft.to/lastmile_qr_scan", "android": "https://dc.lft.to/lastmile_qr_scan"}}, {"name": "216c55415a05c24ec82f801f8d26eb70", "type": "electric_bike", "lat": 38.9982055, "is_reserved": 0, "lon": -76.88367716666667, "fusion_lon": 0.0, "is_disabled": 0, "fusion_lat": 0.0, "bike_id": "216c55415a05c24ec82f801f8d26eb70", "rental_uris": {"ios": "https://dc.lft.to/lastmile_qr_scan", "android": "https://dc.lft.to/lastmile_qr_scan"}}, {"name": "e961b99ebbb816aae838de8c1418c829", "type": "electric_scooter", "lat": 38.85632483333333, "is_reserved": 0, "lon": -76.9745395, "fusion_lon": 0.0, "is_disabled": 0, "fusion_lat": 0.0, "bike_id": "e961b99ebbb816aae838de8c1418c829", "rental_uris": {"ios": "https://dc.lft.to/lastmile_qr_scan", "android": "https://dc.lft.to/lastmile_qr_scan"}}, {"name": "fa02fbdf4708e70b02a2843fab22399b", "type": "electric_scooter", "lat": 38.9417105, "is_reserved": 0, "lon": -77.041344, "fusion_lon": 0.0, "is_disabled": 0, "fusion_lat": 0.0, "bike_id": "fa02fbdf4708e70b02a2843fab22399b", "rental_uris": {"ios": "https://dc.lft.to/lastmile_qr_scan", "android": "https://dc.lft.to/lastmile_qr_scan"}}, {"name": "66ef43f1a83934fc79fd66599190338b", "type": "electric_scooter", "lat": 38.8983715, "is_reserved": 0, "lon": -77.0075075, "fusion_lon": 0.0, "is_disabled": 0, "fusion_lat": 0.0, "bike_id": "66ef43f1a83934fc79fd66599190338b", "rental_uris": {"ios": "https://dc.lft.to/lastmile_qr_scan", "android": "https://dc.lft.to/lastmile_qr_scan"}}, {"name": "b07edede994c9cf6d14a3fdccbd9f899", "type": "electric_bike", "lat": 38.956284, "is_reserved": 0, "lon": -76.96661933333333, "fusion_lon": 0.0, "is_disabled": 0, "fusion_lat": 0.0, "bike_id": "b07edede994c9cf6d14a3fdccbd9f899", "rental_uris": {"ios": "https://dc.lft.to/lastmile_qr_scan", "android": "https://dc.lft.to/lastmile_qr_scan"}}, {"name": "57d1a4ce05ca5d527a963267b708d2b2", "type": "electric_scooter", "lat": 38.9054935, "is_reserved": 0, "lon": -77.0057925, "fusion_lon": 0.0, "is_disabled": 0, "fusion_lat": 0.0, "bike_id": "57d1a4ce05ca5d527a963267b708d2b2", "rental_uris": {"ios": "https://dc.lft.to/lastmile_qr_scan", "android": "https://dc.lft.to/lastmile_qr_scan"}}, {"name": "4c173213cbca2b9646e5ab4d4b7289dc", "type": "electric_scooter", "lat": 38.903246, "is_reserved": 0, "lon": -77.03434316666667, "fusion_lon": 0.0, "is_disabled": 0, "fusion_lat": 0.0, "bike_id": "4c173213cbca2b9646e5ab4d4b7289dc", "rental_uris": {"ios": "https://dc.lft.to/lastmile_qr_scan", "android": "https://dc.lft.to/lastmile_qr_scan"}}, {"name": "efec67eeaf34d867f0bf47336375a66d", "type": "electric_scooter", "lat": 38.905505, "is_reserved": 0, "lon": -77.00482216666667, "fusion_lon": 0.0, "is_disabled": 0, "fusion_lat": 0.0, "bike_id": "efec67eeaf34d867f0bf47336375a66d", "rental_uris": {"ios": "https://dc.lft.to/lastmile_qr_scan", "android": "https://dc.lft.to/lastmile_qr_scan"}}, {"name": "0619c61b1107a4a296817f0208a8c191", "type": "electric_scooter", "lat": 38.93121166666667, "is_reserved": 0, "lon": -77.03835933333333, "fusion_lon": 0.0, "is_disabled": 0, "fusion_lat": 0.0, "bike_id": "0619c61b1107a4a296817f0208a8c191", "rental_uris": {"ios": "https://dc.lft.to/lastmile_qr_scan", "android": "https://dc.lft.to/lastmile_qr_scan"}}, {"name": "f8c9ec7791f103f478aa7c7987d5cbfb", "type": "electric_scooter", "lat": 38.882202, "is_reserved": 0, "lon": -76.94183583333333, "fusion_lon": 0.0, "is_disabled": 0, "fusion_lat": 0.0, "bike_id": "f8c9ec7791f103f478aa7c7987d5cbfb", "rental_uris": {"ios": "https://dc.lft.to/lastmile_qr_scan", "android": "https://dc.lft.to/lastmile_qr_scan"}}, {"name": "8b7837ed13be1f886e812d9cbae5303d", "type": "electric_scooter", "lat": 38.902230833333334, "is_reserved": 0, "lon": -77.045175, "fusion_lon": 0.0, "is_disabled": 0, "fusion_lat": 0.0, "bike_id": "8b7837ed13be1f886e812d9cbae5303d", "rental_uris": {"ios": "https://dc.lft.to/lastmile_qr_scan", "android": "https://dc.lft.to/lastmile_qr_scan"}}, {"name": "c040963529df363cf6be91bf4d3dba51", "type": "electric_scooter", "lat": 38.8861105, "is_reserved": 0, "lon": -76.99514166666667, "fusion_lon": 0.0, "is_disabled": 0, "fusion_lat": 0.0, "bike_id": "c040963529df363cf6be91bf4d3dba51", "rental_uris": {"ios": "https://dc.lft.to/lastmile_qr_scan", "android": "https://dc.lft.to/lastmile_qr_scan"}}, {"name": "2f29c078b82a3c2df5ab75ddff1c048d", "type": "electric_scooter", "lat": 38.90332766666667, "is_reserved": 0, "lon": -76.989832, "fusion_lon": 0.0, "is_disabled": 0, "fusion_lat": 0.0, "bike_id": "2f29c078b82a3c2df5ab75ddff1c048d", "rental_uris": {"ios": "https://dc.lft.to/lastmile_qr_scan", "android": "https://dc.lft.to/lastmile_qr_scan"}}, {"name": "c4aa0170674583b5044f10e6ac66ef39", "type": "electric_scooter", "lat": 38.898138833333334, "is_reserved": 0, "lon": -77.03305016666667, "fusion_lon": 0.0, "is_disabled": 0, "fusion_lat": 0.0, "bike_id": "c4aa0170674583b5044f10e6ac66ef39", "rental_uris": {"ios": "https://dc.lft.to/lastmile_qr_scan", "android": "https://dc.lft.to/lastmile_qr_scan"}}, {"name": "52ac40196b566680b7f5d5b253920ad9", "type": "electric_scooter", "lat": 38.8642905, "is_reserved": 0, "lon": -76.98003783333333, "fusion_lon": 0.0, "is_disabled": 0, "fusion_lat": 0.0, "bike_id": "52ac40196b566680b7f5d5b253920ad9", "rental_uris": {"ios": "https://dc.lft.to/lastmile_qr_scan", "android": "https://dc.lft.to/lastmile_qr_scan"}}, {"name": "5b0116ecf21793f048ddc0784daef63e", "type": "electric_scooter", "lat": 38.89805033333333, "is_reserved": 0, "lon": -77.029916, "fusion_lon": 0.0, "is_disabled": 0, "fusion_lat": 0.0, "bike_id": "5b0116ecf21793f048ddc0784daef63e", "rental_uris": {"ios": "https://dc.lft.to/lastmile_qr_scan", "android": "https://dc.lft.to/lastmile_qr_scan"}}, {"name": "e4684a240fdb80fdb9683a95291a1294", "type": "electric_scooter", "lat": 38.91295083333333, "is_reserved": 0, "lon": -77.0611905, "fusion_lon": 0.0, "is_disabled": 0, "fusion_lat": 0.0, "bike_id": "e4684a240fdb80fdb9683a95291a1294", "rental_uris": {"ios": "https://dc.lft.to/lastmile_qr_scan", "android": "https://dc.lft.to/lastmile_qr_scan"}}, {"name": "d4f11539fe11bc0729690aa6d282b947", "type": "electric_scooter", "lat": 38.905219833333334, "is_reserved": 0, "lon": -77.04169766666666, "fusion_lon": 0.0, "is_disabled": 0, "fusion_lat": 0.0, "bike_id": "d4f11539fe11bc0729690aa6d282b947", "rental_uris": {"ios": "https://dc.lft.to/lastmile_qr_scan", "android": "https://dc.lft.to/lastmile_qr_scan"}}, {"name": "6f938821fcf5cfc1b43e850e3a5bfe92", "type": "electric_scooter", "lat": 38.90256516666667, "is_reserved": 0, "lon": -77.03870583333334, "fusion_lon": 0.0, "is_disabled": 0, "fusion_lat": 0.0, "bike_id": "6f938821fcf5cfc1b43e850e3a5bfe92", "rental_uris": {"ios": "https://dc.lft.to/lastmile_qr_scan", "android": "https://dc.lft.to/lastmile_qr_scan"}}, {"name": "469811c99eab9ba3ae1ae011b71a1275", "type": "electric_scooter", "lat": 38.933464666666666, "is_reserved": 0, "lon": -77.058641, "fusion_lon": 0.0, "is_disabled": 0, "fusion_lat": 0.0, "bike_id": "469811c99eab9ba3ae1ae011b71a1275", "rental_uris": {"ios": "https://dc.lft.to/lastmile_qr_scan", "android": "https://dc.lft.to/lastmile_qr_scan"}}, {"name": "f38eee62da49191671da692d69f5c07a", "type": "electric_scooter", "lat": 38.902917333333335, "is_reserved": 0, "lon": -77.03993583333333, "fusion_lon": 0.0, "is_disabled": 0, "fusion_lat": 0.0, "bike_id": "f38eee62da49191671da692d69f5c07a", "rental_uris": {"ios": "https://dc.lft.to/lastmile_qr_scan", "android": "https://dc.lft.to/lastmile_qr_scan"}}, {"name": "b764d9b2508655a0567db91bb664781e", "type": "electric_scooter", "lat": 38.9361505, "is_reserved": 0, "lon": -77.0321795, "fusion_lon": 0.0, "is_disabled": 0, "fusion_lat": 0.0, "bike_id": "b764d9b2508655a0567db91bb664781e", "rental_uris": {"ios": "https://dc.lft.to/lastmile_qr_scan", "android": "https://dc.lft.to/lastmile_qr_scan"}}, {"name": "84efde78e7a18ce9a6751e4363186b25", "type": "electric_scooter", "lat": 38.9051625, "is_reserved": 0, "lon": -77.053244, "fusion_lon": 0.0, "is_disabled": 0, "fusion_lat": 0.0, "bike_id": "84efde78e7a18ce9a6751e4363186b25", "rental_uris": {"ios": "https://dc.lft.to/lastmile_qr_scan", "android": "https://dc.lft.to/lastmile_qr_scan"}}, {"name": "3f4f923269565640947a437079384f50", "type": "electric_scooter", "lat": 38.89965483333334, "is_reserved": 0, "lon": -77.05089983333333, "fusion_lon": 0.0, "is_disabled": 0, "fusion_lat": 0.0, "bike_id": "3f4f923269565640947a437079384f50", "rental_uris": {"ios": "https://dc.lft.to/lastmile_qr_scan", "android": "https://dc.lft.to/lastmile_qr_scan"}}, {"name": "93a84f32916ac673b3758b13a866c8df", "type": "electric_bike", "lat": 38.89563016666666, "is_reserved": 0, "lon": -77.12731533333333, "fusion_lon": 0.0, "is_disabled": 0, "fusion_lat": 0.0, "bike_id": "93a84f32916ac673b3758b13a866c8df", "rental_uris": {"ios": "https://dc.lft.to/lastmile_qr_scan", "android": "https://dc.lft.to/lastmile_qr_scan"}}, {"name": "46b370c74770e3b16338411ffa70a9d7", "type": "electric_scooter", "lat": 38.8983455, "is_reserved": 0, "lon": -77.04357666666667, "fusion_lon": 0.0, "is_disabled": 0, "fusion_lat": 0.0, "bike_id": "46b370c74770e3b16338411ffa70a9d7", "rental_uris": {"ios": "https://dc.lft.to/lastmile_qr_scan", "android": "https://dc.lft.to/lastmile_qr_scan"}}, {"name": "c3505957de3404237d3d2ecfe94096d2", "type": "electric_scooter", "lat": 38.92760666666667, "is_reserved": 0, "lon": -77.0702025, "fusion_lon": 0.0, "is_disabled": 0, "fusion_lat": 0.0, "bike_id": "c3505957de3404237d3d2ecfe94096d2", "rental_uris": {"ios": "https://dc.lft.to/lastmile_qr_scan", "android": "https://dc.lft.to/lastmile_qr_scan"}}, {"name": "ad9c55a7678fd0ea7fe890b79fa13872", "type": "electric_scooter", "lat": 38.902412166666664, "is_reserved": 0, "lon": -77.0364135, "fusion_lon": 0.0, "is_disabled": 0, "fusion_lat": 0.0, "bike_id": "ad9c55a7678fd0ea7fe890b79fa13872", "rental_uris": {"ios": "https://dc.lft.to/lastmile_qr_scan", "android": "https://dc.lft.to/lastmile_qr_scan"}}, {"name": "08e58a424b4e42baa5b917b00ffb876c", "type": "electric_scooter", "lat": 38.92743866666667, "is_reserved": 0, "lon": -77.02482716666667, "fusion_lon": 0.0, "is_disabled": 0, "fusion_lat": 0.0, "bike_id": "08e58a424b4e42baa5b917b00ffb876c", "rental_uris": {"ios": "https://dc.lft.to/lastmile_qr_scan", "android": "https://dc.lft.to/lastmile_qr_scan"}}, {"name": "2630548ea8195783f495266f82abab2d", "type": "electric_scooter", "lat": 38.905275833333334, "is_reserved": 0, "lon": -77.04342933333334, "fusion_lon": 0.0, "is_disabled": 0, "fusion_lat": 0.0, "bike_id": "2630548ea8195783f495266f82abab2d", "rental_uris": {"ios": "https://dc.lft.to/lastmile_qr_scan", "android": "https://dc.lft.to/lastmile_qr_scan"}}, {"name": "a7e6a2ca139b130bff8f520172cf4250", "type": "electric_scooter", "lat": 38.899081333333335, "is_reserved": 0, "lon": -77.03930633333333, "fusion_lon": 0.0, "is_disabled": 0, "fusion_lat": 0.0, "bike_id": "a7e6a2ca139b130bff8f520172cf4250", "rental_uris": {"ios": "https://dc.lft.to/lastmile_qr_scan", "android": "https://dc.lft.to/lastmile_qr_scan"}}, {"name": "e0b9e260a9282c2c18892f53126e74c9", "type": "electric_scooter", "lat": 38.90269883333333, "is_reserved": 0, "lon": -77.05315183333333, "fusion_lon": 0.0, "is_disabled": 0, "fusion_lat": 0.0, "bike_id": "e0b9e260a9282c2c18892f53126e74c9", "rental_uris": {"ios": "https://dc.lft.to/lastmile_qr_scan", "android": "https://dc.lft.to/lastmile_qr_scan"}}, {"name": "1b04f747ccbca6a82bc90188aae8be59", "type": "electric_scooter", "lat": 38.907950166666666, "is_reserved": 0, "lon": -77.04824, "fusion_lon": 0.0, "is_disabled": 0, "fusion_lat": 0.0, "bike_id": "1b04f747ccbca6a82bc90188aae8be59", "rental_uris": {"ios": "https://dc.lft.to/lastmile_qr_scan", "android": "https://dc.lft.to/lastmile_qr_scan"}}, {"name": "bdcd6ea585d39de3046aacf00249b905", "type": "electric_scooter", "lat": 38.90363516666667, "is_reserved": 0, "lon": -77.0074835, "fusion_lon": 0.0, "is_disabled": 0, "fusion_lat": 0.0, "bike_id": "bdcd6ea585d39de3046aacf00249b905", "rental_uris": {"ios": "https://dc.lft.to/lastmile_qr_scan", "android": "https://dc.lft.to/lastmile_qr_scan"}}, {"name": "5085615fa2320e11df89792b29f14db9", "type": "electric_scooter", "lat": 38.906748666666665, "is_reserved": 0, "lon": -76.97806433333334, "fusion_lon": 0.0, "is_disabled": 0, "fusion_lat": 0.0, "bike_id": "5085615fa2320e11df89792b29f14db9", "rental_uris": {"ios": "https://dc.lft.to/lastmile_qr_scan", "android": "https://dc.lft.to/lastmile_qr_scan"}}, {"name": "16639d4c7fc6ed84e87814e21f296c34", "type": "electric_bike", "lat": 38.89187116666667, "is_reserved": 0, "lon": -77.1226175, "fusion_lon": 0.0, "is_disabled": 0, "fusion_lat": 0.0, "bike_id": "16639d4c7fc6ed84e87814e21f296c34", "rental_uris": {"ios": "https://dc.lft.to/lastmile_qr_scan", "android": "https://dc.lft.to/lastmile_qr_scan"}}, {"name": "dfbb784d9e7b8160d269cf1eae6a8272", "type": "electric_scooter", "lat": 38.91110883333333, "is_reserved": 0, "lon": -77.04936066666667, "fusion_lon": 0.0, "is_disabled": 0, "fusion_lat": 0.0, "bike_id": "dfbb784d9e7b8160d269cf1eae6a8272", "rental_uris": {"ios": "https://dc.lft.to/lastmile_qr_scan", "android": "https://dc.lft.to/lastmile_qr_scan"}}, {"name": "f4b09676326bc43e351aa2f59e77cb62", "type": "electric_bike", "lat": 38.95551733333333, "is_reserved": 0, "lon": -76.93541616666667, "fusion_lon": 0.0, "is_disabled": 0, "fusion_lat": 0.0, "bike_id": "f4b09676326bc43e351aa2f59e77cb62", "rental_uris": {"ios": "https://dc.lft.to/lastmile_qr_scan", "android": "https://dc.lft.to/lastmile_qr_scan"}}, {"name": "7918e03c48e3f7dfaa71994e670547e5", "type": "electric_scooter", "lat": 38.9342295, "is_reserved": 0, "lon": -77.0340725, "fusion_lon": 0.0, "is_disabled": 0, "fusion_lat": 0.0, "bike_id": "7918e03c48e3f7dfaa71994e670547e5", "rental_uris": {"ios": "https://dc.lft.to/lastmile_qr_scan", "android": "https://dc.lft.to/lastmile_qr_scan"}}, {"name": "ace648c97383c7f030bfa837c063ab5b", "type": "electric_scooter", "lat": 38.91033516666667, "is_reserved": 0, "lon": -77.0308425, "fusion_lon": 0.0, "is_disabled": 0, "fusion_lat": 0.0, "bike_id": "ace648c97383c7f030bfa837c063ab5b", "rental_uris": {"ios": "https://dc.lft.to/lastmile_qr_scan", "android": "https://dc.lft.to/lastmile_qr_scan"}}, {"name": "189dde3a2a94425716dbf2d77c7dd5e8", "type": "electric_scooter", "lat": 38.942743, "is_reserved": 0, "lon": -77.02507483333333, "fusion_lon": 0.0, "is_disabled": 0, "fusion_lat": 0.0, "bike_id": "189dde3a2a94425716dbf2d77c7dd5e8", "rental_uris": {"ios": "https://dc.lft.to/lastmile_qr_scan", "android": "https://dc.lft.to/lastmile_qr_scan"}}, {"name": "4b4575125d2481cf229288efe99853d8", "type": "electric_scooter", "lat": 38.908309333333335, "is_reserved": 0, "lon": -76.9969855, "fusion_lon": 0.0, "is_disabled": 0, "fusion_lat": 0.0, "bike_id": "4b4575125d2481cf229288efe99853d8", "rental_uris": {"ios": "https://dc.lft.to/lastmile_qr_scan", "android": "https://dc.lft.to/lastmile_qr_scan"}}, {"name": "f6ad5c5b096ae77063372cc28b020d3c", "type": "electric_scooter", "lat": 38.88041466666667, "is_reserved": 0, "lon": -76.92722933333333, "fusion_lon": 0.0, "is_disabled": 0, "fusion_lat": 0.0, "bike_id": "f6ad5c5b096ae77063372cc28b020d3c", "rental_uris": {"ios": "https://dc.lft.to/lastmile_qr_scan", "android": "https://dc.lft.to/lastmile_qr_scan"}}, {"name": "deeb33e47bc9d4a5647f3c44836594c3", "type": "electric_scooter", "lat": 38.924432, "is_reserved": 0, "lon": -77.03411383333334, "fusion_lon": 0.0, "is_disabled": 0, "fusion_lat": 0.0, "bike_id": "deeb33e47bc9d4a5647f3c44836594c3", "rental_uris": {"ios": "https://dc.lft.to/lastmile_qr_scan", "android": "https://dc.lft.to/lastmile_qr_scan"}}, {"name": "e4f88173ce7e5245e2d53a30fe343d08", "type": "electric_scooter", "lat": 38.90000966666667, "is_reserved": 0, "lon": -77.04029166666666, "fusion_lon": 0.0, "is_disabled": 0, "fusion_lat": 0.0, "bike_id": "e4f88173ce7e5245e2d53a30fe343d08", "rental_uris": {"ios": "https://dc.lft.to/lastmile_qr_scan", "android": "https://dc.lft.to/lastmile_qr_scan"}}, {"name": "bab75f8b4e96c2cc0d908645d36d5737", "type": "electric_scooter", "lat": 38.905383, "is_reserved": 0, "lon": -77.05040116666666, "fusion_lon": 0.0, "is_disabled": 0, "fusion_lat": 0.0, "bike_id": "bab75f8b4e96c2cc0d908645d36d5737", "rental_uris": {"ios": "https://dc.lft.to/lastmile_qr_scan", "android": "https://dc.lft.to/lastmile_qr_scan"}}, {"name": "3a145a151e7eb7b5a54d691422c999ee", "type": "electric_scooter", "lat": 38.898141333333335, "is_reserved": 0, "lon": -77.03326616666666, "fusion_lon": 0.0, "is_disabled": 0, "fusion_lat": 0.0, "bike_id": "3a145a151e7eb7b5a54d691422c999ee", "rental_uris": {"ios": "https://dc.lft.to/lastmile_qr_scan", "android": "https://dc.lft.to/lastmile_qr_scan"}}, {"name": "ae0503b5b7c77c6a42ce7595ca3b0dd6", "type": "electric_bike", "lat": 38.92461933333333, "is_reserved": 0, "lon": -77.208356, "fusion_lon": 0.0, "is_disabled": 0, "fusion_lat": 0.0, "bike_id": "ae0503b5b7c77c6a42ce7595ca3b0dd6", "rental_uris": {"ios": "https://dc.lft.to/lastmile_qr_scan", "android": "https://dc.lft.to/lastmile_qr_scan"}}, {"name": "c24dd7ecec7747dc884e59b131c44de6", "type": "electric_scooter", "lat": 38.9198545, "is_reserved": 0, "lon": -77.0218095, "fusion_lon": 0.0, "is_disabled": 0, "fusion_lat": 0.0, "bike_id": "c24dd7ecec7747dc884e59b131c44de6", "rental_uris": {"ios": "https://dc.lft.to/lastmile_qr_scan", "android": "https://dc.lft.to/lastmile_qr_scan"}}, {"name": "97e568cf1d11fd8a8ad45b0155f73034", "type": "electric_scooter", "lat": 38.912605, "is_reserved": 0, "lon": -77.03143633333333, "fusion_lon": 0.0, "is_disabled": 0, "fusion_lat": 0.0, "bike_id": "97e568cf1d11fd8a8ad45b0155f73034", "rental_uris": {"ios": "https://dc.lft.to/lastmile_qr_scan", "android": "https://dc.lft.to/lastmile_qr_scan"}}, {"name": "822507e5ef16516ce26a62f7e1274936", "type": "electric_scooter", "lat": 38.9149045, "is_reserved": 0, "lon": -76.98360533333333, "fusion_lon": 0.0, "is_disabled": 0, "fusion_lat": 0.0, "bike_id": "822507e5ef16516ce26a62f7e1274936", "rental_uris": {"ios": "https://dc.lft.to/lastmile_qr_scan", "android": "https://dc.lft.to/lastmile_qr_scan"}}, {"name": "c921e836170f05d9dc4233ba0e25a599", "type": "electric_scooter", "lat": 38.89223483333333, "is_reserved": 0, "lon": -77.0437185, "fusion_lon": 0.0, "is_disabled": 0, "fusion_lat": 0.0, "bike_id": "c921e836170f05d9dc4233ba0e25a599", "rental_uris": {"ios": "https://dc.lft.to/lastmile_qr_scan", "android": "https://dc.lft.to/lastmile_qr_scan"}}, {"name": "f3ae98bc48083cea57861c12074788e0", "type": "electric_scooter", "lat": 38.922475666666664, "is_reserved": 0, "lon": -77.03074466666666, "fusion_lon": 0.0, "is_disabled": 0, "fusion_lat": 0.0, "bike_id": "f3ae98bc48083cea57861c12074788e0", "rental_uris": {"ios": "https://dc.lft.to/lastmile_qr_scan", "android": "https://dc.lft.to/lastmile_qr_scan"}}, {"name": "daa2385a1b0fa796ee21763f06ac05c9", "type": "electric_scooter", "lat": 38.892229, "is_reserved": 0, "lon": -77.02224483333333, "fusion_lon": 0.0, "is_disabled": 0, "fusion_lat": 0.0, "bike_id": "daa2385a1b0fa796ee21763f06ac05c9", "rental_uris": {"ios": "https://dc.lft.to/lastmile_qr_scan", "android": "https://dc.lft.to/lastmile_qr_scan"}}, {"name": "dbd255a2b4212e8e7617a5f8d9aba69e", "type": "electric_scooter", "lat": 38.87550366666667, "is_reserved": 0, "lon": -76.96492333333333, "fusion_lon": 0.0, "is_disabled": 0, "fusion_lat": 0.0, "bike_id": "dbd255a2b4212e8e7617a5f8d9aba69e", "rental_uris": {"ios": "https://dc.lft.to/lastmile_qr_scan", "android": "https://dc.lft.to/lastmile_qr_scan"}}, {"name": "0fa6cde31493a582ba622e899d11af68", "type": "electric_scooter", "lat": 38.895352833333334, "is_reserved": 0, "lon": -77.04833583333334, "fusion_lon": 0.0, "is_disabled": 0, "fusion_lat": 0.0, "bike_id": "0fa6cde31493a582ba622e899d11af68", "rental_uris": {"ios": "https://dc.lft.to/lastmile_qr_scan", "android": "https://dc.lft.to/lastmile_qr_scan"}}, {"name": "8b858497c07e5dc433ff36b541785264", "type": "electric_scooter", "lat": 38.8999605, "is_reserved": 0, "lon": -77.052324, "fusion_lon": 0.0, "is_disabled": 0, "fusion_lat": 0.0, "bike_id": "8b858497c07e5dc433ff36b541785264", "rental_uris": {"ios": "https://dc.lft.to/lastmile_qr_scan", "android": "https://dc.lft.to/lastmile_qr_scan"}}, {"name": "aefa3f960917d3bcf66783f9fbe77bc0", "type": "electric_scooter", "lat": 38.917999, "is_reserved": 0, "lon": -77.02287666666666, "fusion_lon": 0.0, "is_disabled": 0, "fusion_lat": 0.0, "bike_id": "aefa3f960917d3bcf66783f9fbe77bc0", "rental_uris": {"ios": "https://dc.lft.to/lastmile_qr_scan", "android": "https://dc.lft.to/lastmile_qr_scan"}}, {"name": "26356c22814ec42f0b19da82d4a792c1", "type": "electric_bike", "lat": 38.90475983333333, "is_reserved": 0, "lon": -76.92946216666667, "fusion_lon": 0.0, "is_disabled": 0, "fusion_lat": 0.0, "bike_id": "26356c22814ec42f0b19da82d4a792c1", "rental_uris": {"ios": "https://dc.lft.to/lastmile_qr_scan", "android": "https://dc.lft.to/lastmile_qr_scan"}}, {"name": "4db301d98302740c4773de0fa2996595", "type": "electric_scooter", "lat": 38.9036305, "is_reserved": 0, "lon": -77.03388316666667, "fusion_lon": 0.0, "is_disabled": 0, "fusion_lat": 0.0, "bike_id": "4db301d98302740c4773de0fa2996595", "rental_uris": {"ios": "https://dc.lft.to/lastmile_qr_scan", "android": "https://dc.lft.to/lastmile_qr_scan"}}, {"name": "8063253f8cb094f85375f0bee990b3b0", "type": "electric_scooter", "lat": 38.921660833333334, "is_reserved": 0, "lon": -76.99397866666666, "fusion_lon": 0.0, "is_disabled": 0, "fusion_lat": 0.0, "bike_id": "8063253f8cb094f85375f0bee990b3b0", "rental_uris": {"ios": "https://dc.lft.to/lastmile_qr_scan", "android": "https://dc.lft.to/lastmile_qr_scan"}}, {"name": "d237930efd5660b51ebaca4a84083ff3", "type": "electric_scooter", "lat": 38.91490816666666, "is_reserved": 0, "lon": -77.01849883333334, "fusion_lon": 0.0, "is_disabled": 0, "fusion_lat": 0.0, "bike_id": "d237930efd5660b51ebaca4a84083ff3", "rental_uris": {"ios": "https://dc.lft.to/lastmile_qr_scan", "android": "https://dc.lft.to/lastmile_qr_scan"}}, {"name": "c67d53ed972cf8f7d95779bc3ce7fdff", "type": "electric_scooter", "lat": 38.91534866666667, "is_reserved": 0, "lon": -77.04618966666666, "fusion_lon": 0.0, "is_disabled": 0, "fusion_lat": 0.0, "bike_id": "c67d53ed972cf8f7d95779bc3ce7fdff", "rental_uris": {"ios": "https://dc.lft.to/lastmile_qr_scan", "android": "https://dc.lft.to/lastmile_qr_scan"}}, {"name": "e9f085f4ade0abe142b286487d3ca8d4", "type": "electric_scooter", "lat": 38.912616166666666, "is_reserved": 0, "lon": -77.003663, "fusion_lon": 0.0, "is_disabled": 0, "fusion_lat": 0.0, "bike_id": "e9f085f4ade0abe142b286487d3ca8d4", "rental_uris": {"ios": "https://dc.lft.to/lastmile_qr_scan", "android": "https://dc.lft.to/lastmile_qr_scan"}}, {"name": "a9567bfde4b16aa15a67e9958626f8f5", "type": "electric_scooter", "lat": 38.930631, "is_reserved": 0, "lon": -77.04138016666667, "fusion_lon": 0.0, "is_disabled": 0, "fusion_lat": 0.0, "bike_id": "a9567bfde4b16aa15a67e9958626f8f5", "rental_uris": {"ios": "https://dc.lft.to/lastmile_qr_scan", "android": "https://dc.lft.to/lastmile_qr_scan"}}, {"name": "921e08a11449c6142f925dd6458270d4", "type": "electric_scooter", "lat": 38.8948075, "is_reserved": 0, "lon": -76.948709, "fusion_lon": 0.0, "is_disabled": 0, "fusion_lat": 0.0, "bike_id": "921e08a11449c6142f925dd6458270d4", "rental_uris": {"ios": "https://dc.lft.to/lastmile_qr_scan", "android": "https://dc.lft.to/lastmile_qr_scan"}}, {"name": "2dac98b44b6ab733478e2252420f2acd", "type": "electric_scooter", "lat": 38.885032833333334, "is_reserved": 0, "lon": -76.998471, "fusion_lon": 0.0, "is_disabled": 0, "fusion_lat": 0.0, "bike_id": "2dac98b44b6ab733478e2252420f2acd", "rental_uris": {"ios": "https://dc.lft.to/lastmile_qr_scan", "android": "https://dc.lft.to/lastmile_qr_scan"}}, {"name": "dd401a9eea72e60647fce68f2548f7c9", "type": "electric_scooter", "lat": 38.89664, "is_reserved": 0, "lon": -77.02810766666667, "fusion_lon": 0.0, "is_disabled": 0, "fusion_lat": 0.0, "bike_id": "dd401a9eea72e60647fce68f2548f7c9", "rental_uris": {"ios": "https://dc.lft.to/lastmile_qr_scan", "android": "https://dc.lft.to/lastmile_qr_scan"}}, {"name": "1ea198e746353c35f5db7804dc112cd7", "type": "electric_bike", "lat": 38.84611833333334, "is_reserved": 0, "lon": -76.9783285, "fusion_lon": 0.0, "is_disabled": 0, "fusion_lat": 0.0, "bike_id": "1ea198e746353c35f5db7804dc112cd7", "rental_uris": {"ios": "https://dc.lft.to/lastmile_qr_scan", "android": "https://dc.lft.to/lastmile_qr_scan"}}, {"name": "b7c1576a72a319f13f4f852c4afe41ec", "type": "electric_scooter", "lat": 38.9418315, "is_reserved": 0, "lon": -77.03027383333334, "fusion_lon": 0.0, "is_disabled": 0, "fusion_lat": 0.0, "bike_id": "b7c1576a72a319f13f4f852c4afe41ec", "rental_uris": {"ios": "https://dc.lft.to/lastmile_qr_scan", "android": "https://dc.lft.to/lastmile_qr_scan"}}, {"name": "4bed837021f082f98a3e0eb165fcc3b6", "type": "electric_bike", "lat": 38.952897666666665, "is_reserved": 0, "lon": -76.978074, "fusion_lon": 0.0, "is_disabled": 0, "fusion_lat": 0.0, "bike_id": "4bed837021f082f98a3e0eb165fcc3b6", "rental_uris": {"ios": "https://dc.lft.to/lastmile_qr_scan", "android": "https://dc.lft.to/lastmile_qr_scan"}}, {"name": "55ab2c487d62e9e9601a7758a9dcc5c4", "type": "electric_scooter", "lat": 38.902451166666665, "is_reserved": 0, "lon": -77.0316785, "fusion_lon": 0.0, "is_disabled": 0, "fusion_lat": 0.0, "bike_id": "55ab2c487d62e9e9601a7758a9dcc5c4", "rental_uris": {"ios": "https://dc.lft.to/lastmile_qr_scan", "android": "https://dc.lft.to/lastmile_qr_scan"}}, {"name": "b9fe3134e02fb4057f0127472b7c5afa", "type": "electric_scooter", "lat": 38.91594583333333, "is_reserved": 0, "lon": -76.98377466666666, "fusion_lon": 0.0, "is_disabled": 0, "fusion_lat": 0.0, "bike_id": "b9fe3134e02fb4057f0127472b7c5afa", "rental_uris": {"ios": "https://dc.lft.to/lastmile_qr_scan", "android": "https://dc.lft.to/lastmile_qr_scan"}}, {"name": "c6d68ddaaccdae425eb98ff882c349d4", "type": "electric_scooter", "lat": 38.89023683333333, "is_reserved": 0, "lon": -76.936857, "fusion_lon": 0.0, "is_disabled": 0, "fusion_lat": 0.0, "bike_id": "c6d68ddaaccdae425eb98ff882c349d4", "rental_uris": {"ios": "https://dc.lft.to/lastmile_qr_scan", "android": "https://dc.lft.to/lastmile_qr_scan"}}, {"name": "95b95023c6175f0323c9aa618a97a9ec", "type": "electric_bike", "lat": 39.05814183333333, "is_reserved": 0, "lon": -77.12627716666667, "fusion_lon": 0.0, "is_disabled": 0, "fusion_lat": 0.0, "bike_id": "95b95023c6175f0323c9aa618a97a9ec", "rental_uris": {"ios": "https://dc.lft.to/lastmile_qr_scan", "android": "https://dc.lft.to/lastmile_qr_scan"}}, {"name": "d073cf3208d65dfe2fed5c002dff4aee", "type": "electric_scooter", "lat": 38.914772, "is_reserved": 0, "lon": -77.00837633333333, "fusion_lon": 0.0, "is_disabled": 0, "fusion_lat": 0.0, "bike_id": "d073cf3208d65dfe2fed5c002dff4aee", "rental_uris": {"ios": "https://dc.lft.to/lastmile_qr_scan", "android": "https://dc.lft.to/lastmile_qr_scan"}}, {"name": "4ca666332ffb42795d1365cf50d57d9b", "type": "electric_scooter", "lat": 38.898713666666666, "is_reserved": 0, "lon": -77.0327755, "fusion_lon": 0.0, "is_disabled": 0, "fusion_lat": 0.0, "bike_id": "4ca666332ffb42795d1365cf50d57d9b", "rental_uris": {"ios": "https://dc.lft.to/lastmile_qr_scan", "android": "https://dc.lft.to/lastmile_qr_scan"}}, {"name": "f087c722066cd0481660941fb0dece9e", "type": "electric_bike", "lat": 38.965028333333336, "is_reserved": 0, "lon": -77.10334466666667, "fusion_lon": 0.0, "is_disabled": 0, "fusion_lat": 0.0, "bike_id": "f087c722066cd0481660941fb0dece9e", "rental_uris": {"ios": "https://dc.lft.to/lastmile_qr_scan", "android": "https://dc.lft.to/lastmile_qr_scan"}}, {"name": "1198e6c2627cb5a9b0bb949ac19ffe1a", "type": "electric_scooter", "lat": 38.866592833333335, "is_reserved": 0, "lon": -76.988859, "fusion_lon": 0.0, "is_disabled": 0, "fusion_lat": 0.0, "bike_id": "1198e6c2627cb5a9b0bb949ac19ffe1a", "rental_uris": {"ios": "https://dc.lft.to/lastmile_qr_scan", "android": "https://dc.lft.to/lastmile_qr_scan"}}, {"name": "f4782b1b2b72ed30a663b3ae5311a9e5", "type": "electric_scooter", "lat": 38.9427575, "is_reserved": 0, "lon": -77.02505183333334, "fusion_lon": 0.0, "is_disabled": 0, "fusion_lat": 0.0, "bike_id": "f4782b1b2b72ed30a663b3ae5311a9e5", "rental_uris": {"ios": "https://dc.lft.to/lastmile_qr_scan", "android": "https://dc.lft.to/lastmile_qr_scan"}}, {"name": "0f7384acebf8b8c3019e38207488b387", "type": "electric_scooter", "lat": 38.900239166666665, "is_reserved": 0, "lon": -77.0467195, "fusion_lon": 0.0, "is_disabled": 0, "fusion_lat": 0.0, "bike_id": "0f7384acebf8b8c3019e38207488b387", "rental_uris": {"ios": "https://dc.lft.to/lastmile_qr_scan", "android": "https://dc.lft.to/lastmile_qr_scan"}}, {"name": "2fb7f4917476fae608f1681368af493b", "type": "electric_scooter", "lat": 38.9292305, "is_reserved": 0, "lon": -77.0326475, "fusion_lon": 0.0, "is_disabled": 0, "fusion_lat": 0.0, "bike_id": "2fb7f4917476fae608f1681368af493b", "rental_uris": {"ios": "https://dc.lft.to/lastmile_qr_scan", "android": "https://dc.lft.to/lastmile_qr_scan"}}, {"name": "88c9106f0005021a273827a3acf6beb8", "type": "electric_scooter", "lat": 38.91628133333333, "is_reserved": 0, "lon": -77.01088583333333, "fusion_lon": 0.0, "is_disabled": 0, "fusion_lat": 0.0, "bike_id": "88c9106f0005021a273827a3acf6beb8", "rental_uris": {"ios": "https://dc.lft.to/lastmile_qr_scan", "android": "https://dc.lft.to/lastmile_qr_scan"}}, {"name": "5b97e62da4677a9231917ee7f12ba0b8", "type": "electric_scooter", "lat": 38.89634016666667, "is_reserved": 0, "lon": -77.03228383333334, "fusion_lon": 0.0, "is_disabled": 0, "fusion_lat": 0.0, "bike_id": "5b97e62da4677a9231917ee7f12ba0b8", "rental_uris": {"ios": "https://dc.lft.to/lastmile_qr_scan", "android": "https://dc.lft.to/lastmile_qr_scan"}}, {"name": "50e09363981a80fa753bb8b4ff5ea75e", "type": "electric_scooter", "lat": 38.90664916666667, "is_reserved": 0, "lon": -77.027037, "fusion_lon": 0.0, "is_disabled": 0, "fusion_lat": 0.0, "bike_id": "50e09363981a80fa753bb8b4ff5ea75e", "rental_uris": {"ios": "https://dc.lft.to/lastmile_qr_scan", "android": "https://dc.lft.to/lastmile_qr_scan"}}, {"name": "6ab50f01c160ba5371533d86618231b4", "type": "electric_scooter", "lat": 38.87789033333333, "is_reserved": 0, "lon": -76.99407783333334, "fusion_lon": 0.0, "is_disabled": 0, "fusion_lat": 0.0, "bike_id": "6ab50f01c160ba5371533d86618231b4", "rental_uris": {"ios": "https://dc.lft.to/lastmile_qr_scan", "android": "https://dc.lft.to/lastmile_qr_scan"}}, {"name": "9629aa05f4070518b7e63857a5c8ddec", "type": "electric_scooter", "lat": 38.9057545, "is_reserved": 0, "lon": -77.0385375, "fusion_lon": 0.0, "is_disabled": 0, "fusion_lat": 0.0, "bike_id": "9629aa05f4070518b7e63857a5c8ddec", "rental_uris": {"ios": "https://dc.lft.to/lastmile_qr_scan", "android": "https://dc.lft.to/lastmile_qr_scan"}}, {"name": "7275455120bca58d22915426898d5fb5", "type": "electric_scooter", "lat": 38.92718416666666, "is_reserved": 0, "lon": -77.020972, "fusion_lon": 0.0, "is_disabled": 0, "fusion_lat": 0.0, "bike_id": "7275455120bca58d22915426898d5fb5", "rental_uris": {"ios": "https://dc.lft.to/lastmile_qr_scan", "android": "https://dc.lft.to/lastmile_qr_scan"}}, {"name": "aed9e2df10c302f53dce5467563db140", "type": "electric_scooter", "lat": 38.94949166666667, "is_reserved": 0, "lon": -77.01618466666666, "fusion_lon": 0.0, "is_disabled": 0, "fusion_lat": 0.0, "bike_id": "aed9e2df10c302f53dce5467563db140", "rental_uris": {"ios": "https://dc.lft.to/lastmile_qr_scan", "android": "https://dc.lft.to/lastmile_qr_scan"}}, {"name": "077f6b735969ef557f12684eb05b9720", "type": "electric_scooter", "lat": 38.8987885, "is_reserved": 0, "lon": -76.93161283333333, "fusion_lon": 0.0, "is_disabled": 0, "fusion_lat": 0.0, "bike_id": "077f6b735969ef557f12684eb05b9720", "rental_uris": {"ios": "https://dc.lft.to/lastmile_qr_scan", "android": "https://dc.lft.to/lastmile_qr_scan"}}, {"name": "52ca56f0b7c80ff5daf89d8e327a608a", "type": "electric_bike", "lat": 38.914845166666666, "is_reserved": 0, "lon": -77.03392366666667, "fusion_lon": 0.0, "is_disabled": 0, "fusion_lat": 0.0, "bike_id": "52ca56f0b7c80ff5daf89d8e327a608a", "rental_uris": {"ios": "https://dc.lft.to/lastmile_qr_scan", "android": "https://dc.lft.to/lastmile_qr_scan"}}, {"name": "9762230fe2c253cffc146c0d1779d531", "type": "electric_scooter", "lat": 38.915716333333336, "is_reserved": 0, "lon": -77.046759, "fusion_lon": 0.0, "is_disabled": 0, "fusion_lat": 0.0, "bike_id": "9762230fe2c253cffc146c0d1779d531", "rental_uris": {"ios": "https://dc.lft.to/lastmile_qr_scan", "android": "https://dc.lft.to/lastmile_qr_scan"}}, {"name": "0a40a02805cfca3e4616333a4548a464", "type": "electric_bike", "lat": 38.9196795, "is_reserved": 0, "lon": -76.97264333333334, "fusion_lon": 0.0, "is_disabled": 0, "fusion_lat": 0.0, "bike_id": "0a40a02805cfca3e4616333a4548a464", "rental_uris": {"ios": "https://dc.lft.to/lastmile_qr_scan", "android": "https://dc.lft.to/lastmile_qr_scan"}}, {"name": "833d1704bdeb955b80e6afd78b1ffedb", "type": "electric_scooter", "lat": 38.92681233333333, "is_reserved": 0, "lon": -77.03760516666667, "fusion_lon": 0.0, "is_disabled": 0, "fusion_lat": 0.0, "bike_id": "833d1704bdeb955b80e6afd78b1ffedb", "rental_uris": {"ios": "https://dc.lft.to/lastmile_qr_scan", "android": "https://dc.lft.to/lastmile_qr_scan"}}, {"name": "a10f63a9c19ca4d52f8dd7b923784415", "type": "electric_scooter", "lat": 38.90071016666667, "is_reserved": 0, "lon": -77.0260525, "fusion_lon": 0.0, "is_disabled": 0, "fusion_lat": 0.0, "bike_id": "a10f63a9c19ca4d52f8dd7b923784415", "rental_uris": {"ios": "https://dc.lft.to/lastmile_qr_scan", "android": "https://dc.lft.to/lastmile_qr_scan"}}, {"name": "950c503451ad6cd5adf674fe3fefc241", "type": "electric_scooter", "lat": 38.911039, "is_reserved": 0, "lon": -77.04670483333334, "fusion_lon": 0.0, "is_disabled": 0, "fusion_lat": 0.0, "bike_id": "950c503451ad6cd5adf674fe3fefc241", "rental_uris": {"ios": "https://dc.lft.to/lastmile_qr_scan", "android": "https://dc.lft.to/lastmile_qr_scan"}}, {"name": "a8ba6f0e6e56d6e89a60cf80fa2d54ca", "type": "electric_scooter", "lat": 38.903386833333336, "is_reserved": 0, "lon": -77.03836, "fusion_lon": 0.0, "is_disabled": 0, "fusion_lat": 0.0, "bike_id": "a8ba6f0e6e56d6e89a60cf80fa2d54ca", "rental_uris": {"ios": "https://dc.lft.to/lastmile_qr_scan", "android": "https://dc.lft.to/lastmile_qr_scan"}}, {"name": "db02056065a3fbdc22f32d676b67f8fd", "type": "electric_scooter", "lat": 38.923449166666664, "is_reserved": 0, "lon": -77.03498116666667, "fusion_lon": 0.0, "is_disabled": 0, "fusion_lat": 0.0, "bike_id": "db02056065a3fbdc22f32d676b67f8fd", "rental_uris": {"ios": "https://dc.lft.to/lastmile_qr_scan", "android": "https://dc.lft.to/lastmile_qr_scan"}}, {"name": "32307ab2053cf19dbafc88ccf4ed3e95", "type": "electric_bike", "lat": 38.8747675, "is_reserved": 0, "lon": -77.00245183333334, "fusion_lon": 0.0, "is_disabled": 0, "fusion_lat": 0.0, "bike_id": "32307ab2053cf19dbafc88ccf4ed3e95", "rental_uris": {"ios": "https://dc.lft.to/lastmile_qr_scan", "android": "https://dc.lft.to/lastmile_qr_scan"}}, {"name": "72c5f674c813de2a1b77624ad2b963f5", "type": "electric_scooter", "lat": 38.89394983333333, "is_reserved": 0, "lon": -77.0236615, "fusion_lon": 0.0, "is_disabled": 0, "fusion_lat": 0.0, "bike_id": "72c5f674c813de2a1b77624ad2b963f5", "rental_uris": {"ios": "https://dc.lft.to/lastmile_qr_scan", "android": "https://dc.lft.to/lastmile_qr_scan"}}, {"name": "7fab11c4e143613863638526c3deb2d0", "type": "electric_scooter", "lat": 38.922906833333336, "is_reserved": 0, "lon": -77.04253233333333, "fusion_lon": 0.0, "is_disabled": 0, "fusion_lat": 0.0, "bike_id": "7fab11c4e143613863638526c3deb2d0", "rental_uris": {"ios": "https://dc.lft.to/lastmile_qr_scan", "android": "https://dc.lft.to/lastmile_qr_scan"}}, {"name": "64893649e19c1c708b71708aefe608ef", "type": "electric_scooter", "lat": 38.8981015, "is_reserved": 0, "lon": -77.0329855, "fusion_lon": 0.0, "is_disabled": 0, "fusion_lat": 0.0, "bike_id": "64893649e19c1c708b71708aefe608ef", "rental_uris": {"ios": "https://dc.lft.to/lastmile_qr_scan", "android": "https://dc.lft.to/lastmile_qr_scan"}}, {"name": "445cd88802008ce58fd9d4e4b39c97cc", "type": "electric_scooter", "lat": 38.932094666666664, "is_reserved": 0, "lon": -77.0385415, "fusion_lon": 0.0, "is_disabled": 0, "fusion_lat": 0.0, "bike_id": "445cd88802008ce58fd9d4e4b39c97cc", "rental_uris": {"ios": "https://dc.lft.to/lastmile_qr_scan", "android": "https://dc.lft.to/lastmile_qr_scan"}}, {"name": "a8b89093bed15ad77526c7349be7aab6", "type": "electric_scooter", "lat": 38.8934695, "is_reserved": 0, "lon": -76.99155816666666, "fusion_lon": 0.0, "is_disabled": 0, "fusion_lat": 0.0, "bike_id": "a8b89093bed15ad77526c7349be7aab6", "rental_uris": {"ios": "https://dc.lft.to/lastmile_qr_scan", "android": "https://dc.lft.to/lastmile_qr_scan"}}, {"name": "23d31cafafe68caf4393151ae74c2266", "type": "electric_scooter", "lat": 38.903505, "is_reserved": 0, "lon": -77.03893766666667, "fusion_lon": 0.0, "is_disabled": 0, "fusion_lat": 0.0, "bike_id": "23d31cafafe68caf4393151ae74c2266", "rental_uris": {"ios": "https://dc.lft.to/lastmile_qr_scan", "android": "https://dc.lft.to/lastmile_qr_scan"}}, {"name": "52c566ae10c005f49720049cfbb85e04", "type": "electric_scooter", "lat": 38.928687833333335, "is_reserved": 0, "lon": -77.034809, "fusion_lon": 0.0, "is_disabled": 0, "fusion_lat": 0.0, "bike_id": "52c566ae10c005f49720049cfbb85e04", "rental_uris": {"ios": "https://dc.lft.to/lastmile_qr_scan", "android": "https://dc.lft.to/lastmile_qr_scan"}}, {"name": "42ce4a150f9a77092710d06fb09faced", "type": "electric_scooter", "lat": 38.884051666666664, "is_reserved": 0, "lon": -77.01769383333334, "fusion_lon": 0.0, "is_disabled": 0, "fusion_lat": 0.0, "bike_id": "42ce4a150f9a77092710d06fb09faced", "rental_uris": {"ios": "https://dc.lft.to/lastmile_qr_scan", "android": "https://dc.lft.to/lastmile_qr_scan"}}, {"name": "0cffdefadf5f192916795ef2bf77f7fd", "type": "electric_scooter", "lat": 38.92474283333333, "is_reserved": 0, "lon": -77.02837966666667, "fusion_lon": 0.0, "is_disabled": 0, "fusion_lat": 0.0, "bike_id": "0cffdefadf5f192916795ef2bf77f7fd", "rental_uris": {"ios": "https://dc.lft.to/lastmile_qr_scan", "android": "https://dc.lft.to/lastmile_qr_scan"}}, {"name": "41a186c7cf1bfefdd8398237f964319a", "type": "electric_scooter", "lat": 38.886264, "is_reserved": 0, "lon": -77.0153115, "fusion_lon": 0.0, "is_disabled": 0, "fusion_lat": 0.0, "bike_id": "41a186c7cf1bfefdd8398237f964319a", "rental_uris": {"ios": "https://dc.lft.to/lastmile_qr_scan", "android": "https://dc.lft.to/lastmile_qr_scan"}}, {"name": "ce7a0f26b43f2040eb63963fbd89366f", "type": "electric_scooter", "lat": 38.8947535, "is_reserved": 0, "lon": -76.99540516666667, "fusion_lon": 0.0, "is_disabled": 0, "fusion_lat": 0.0, "bike_id": "ce7a0f26b43f2040eb63963fbd89366f", "rental_uris": {"ios": "https://dc.lft.to/lastmile_qr_scan", "android": "https://dc.lft.to/lastmile_qr_scan"}},