{"data": {"bikes": [{"rental_uris": {"android": "https://dc.lft.to/lastmile_qr_scan", "ios": "https://dc.lft.to/lastmile_qr_scan"}, "lon": -77.00928416666666, "name": "b0ddb00f1efc413de0e4b3d17f160041", "lat": 38.896002833333334, "is_reserved": 0, "fusion_lat": 0.0, "bike_id": "b0ddb00f1efc413de0e4b3d17f160041", "type": "electric_scooter", "is_disabled": 0, "fusion_lon": 0.0}, {"rental_uris": {"android": "https://dc.lft.to/lastmile_qr_scan", "ios": "https://dc.lft.to/lastmile_qr_scan"}, "lon": -77.01426966666666, "name": "7d9c9712bdb253ba670a0c858c433e3e", "lat": 38.972171333333335, "is_reserved": 0, "fusion_lat": 0.0, "bike_id": "7d9c9712bdb253ba670a0c858c433e3e", "type": "electric_bike", "is_disabled": 0, "fusion_lon": 0.0}, {"rental_uris": {"android": "https://dc.lft.to/lastmile_qr_scan", "ios": "https://dc.lft.to/lastmile_qr_scan"}, "lon": -77.02706016666667, "name": "de8f3a07275f50e745ce77131de34e93", "lat": 38.897189833333336, "is_reserved": 0, "fusion_lat": 0.0, "bike_id": "de8f3a07275f50e745ce77131de34e93", "type": "electric_scooter", "is_disabled": 0, "fusion_lon": 0.0}, {"rental_uris": {"android": "https://dc.lft.to/lastmile_qr_scan", "ios": "https://dc.lft.to/lastmile_qr_scan"}, "lon": -76.99247683333333, "name": "17ae59394416c61361daa81f090ec031", "lat": 38.794661, "is_reserved": 0, "fusion_lat": 0.0, "bike_id": "17ae59394416c61361daa81f090ec031", "type": "electric_bike", "is_disabled": 0, "fusion_lon": 0.0}, {"rental_uris": {"android": "https://dc.lft.to/lastmile_qr_scan", "ios": "https://dc.lft.to/lastmile_qr_scan"}, "lon": -77.0770065, "name": "ad90ac06ab7fec20db1b2728d27e9a12", "lat": 38.9438135, "is_reserved": 0, "fusion_lat": 0.0, "bike_id": "ad90ac06ab7fec20db1b2728d27e9a12", "type": "electric_scooter", "is_disabled": 0, "fusion_lon": 0.0}, {"rental_uris": {"android": "https://dc.lft.to/lastmile_qr_scan", "ios": "https://dc.lft.to/lastmile_qr_scan"}, "lon": -77.08763416666666, "name": "1b23da0453d8a31cec1b902ebc68aa0f", "lat": 38.80653683333333, "is_reserved": 0, "fusion_lat": 0.0, "bike_id": "1b23da0453d8a31cec1b902ebc68aa0f", "type": "electric_bike", "is_disabled": 0, "fusion_lon": 0.0}, {"rental_uris": {"android": "https://dc.lft.to/lastmile_qr_scan", "ios": "https://dc.lft.to/lastmile_qr_scan"}, "lon": -77.03342166666667, "name": "1564183b7211c866a816fed1e4bc5d01", "lat": 38.935218, "is_reserved": 0, "fusion_lat": 0.0, "bike_id": "1564183b7211c866a816fed1e4bc5d01", "type": "electric_scooter", "is_disabled": 0, "fusion_lon": 0.0}, {"rental_uris": {"android": "https://dc.lft.to/lastmile_qr_scan", "ios": "https://dc.lft.to/lastmile_qr_scan"}, "lon": -77.03135233333333, "name": "3a1781ff459a841292e30c416e0421df", "lat": 38.91709216666667, "is_reserved": 0, "fusion_lat": 0.0, "bike_id": "3a1781ff459a841292e30c416e0421df", "type": "electric_scooter", "is_disabled": 0, "fusion_lon": 0.0}, {"rental_uris": {"android": "https://dc.lft.to/lastmile_qr_scan", "ios": "https://dc.lft.to/lastmile_qr_scan"}, "lon": -77.05468316666666, "name": "95eb05e164de1a0752d118b43da2a032", "lat": 38.896694333333336, "is_reserved": 0, "fusion_lat": 0.0, "bike_id": "95eb05e164de1a0752d118b43da2a032", "type": "electric_scooter", "is_disabled": 0, "fusion_lon": 0.0}, {"rental_uris": {"android": "https://dc.lft.to/lastmile_qr_scan", "ios": "https://dc.lft.to/lastmile_qr_scan"}, "lon": -76.985447, "name": "07589556ae40f9ed7a05ad521b60d501", "lat": 38.866868333333336, "is_reserved": 0, "fusion_lat": 0.0, "bike_id": "07589556ae40f9ed7a05ad521b60d501", "type": "electric_scooter", "is_disabled": 0, "fusion_lon": 0.0}, {"rental_uris": {"android": "https://dc.lft.to/lastmile_qr_scan", "ios": "https://dc.lft.to/lastmile_qr_scan"}, "lon": -77.01679466666667, "name": "deef66fa045e502eb9d7b1cb879cee06", "lat": 38.92040766666667, "is_reserved": 0, "fusion_lat": 0.0, "bike_id": "deef66fa045e502eb9d7b1cb879cee06", "type": "electric_scooter", "is_disabled": 0, "fusion_lon": 0.0}, {"rental_uris": {"android": "https://dc.lft.to/lastmile_qr_scan", "ios": "https://dc.lft.to/lastmile_qr_scan"}, "lon": -77.02583333333334, "name": "cd4d5ea3b2ed64e821f591b3e8b6178b", "lat": 38.887337333333335, "is_reserved": 0, "fusion_lat": 0.0, "bike_id": "cd4d5ea3b2ed64e821f591b3e8b6178b", "type": "electric_scooter", "is_disabled": 0, "fusion_lon": 0.0}, {"rental_uris": {"android": "https://dc.lft.to/lastmile_qr_scan", "ios": "https://dc.lft.to/lastmile_qr_scan"}, "lon": -77.04443133333334, "name": "ba2ee021c676986ec2aad15bf7debec7", "lat": 38.9100975, "is_reserved": 0, "fusion_lat": 0.0, "bike_id": "ba2ee021c676986ec2aad15bf7debec7", "type": "electric_scooter", "is_disabled": 0, "fusion_lon": 0.0}, {"rental_uris": {"android": "https://dc.lft.to/lastmile_qr_scan", "ios": "https://dc.lft.to/lastmile_qr_scan"}, "lon": -77.00420783333334, "name": "922105db7f4a8c7d8633640fae5972f0", "lat": 38.8769735, "is_reserved": 0, "fusion_lat": 0.0, "bike_id": "922105db7f4a8c7d8633640fae5972f0", "type": "electric_scooter", "is_disabled": 0, "fusion_lon": 0.0}, {"rental_uris": {"android": "https://dc.lft.to/lastmile_qr_scan", "ios": "https://dc.lft.to/lastmile_qr_scan"}, "lon": -76.9857235, "name": "d1f64858cc18ddc9ed119ed14d530c12", "lat": 38.866806, "is_reserved": 0, "fusion_lat": 0.0, "bike_id": "d1f64858cc18ddc9ed119ed14d530c12", "type": "electric_scooter", "is_disabled": 0, "fusion_lon": 0.0}, {"rental_uris": {"android": "https://dc.lft.to/lastmile_qr_scan", "ios": "https://dc.lft.to/lastmile_qr_scan"}, "lon": -77.05168633333334, "name": "248f5752ef31460d6a58222b3a8f9c63", "lat": 38.89749183333333, "is_reserved": 0, "fusion_lat": 0.0, "bike_id": "248f5752ef31460d6a58222b3a8f9c63", "type": "electric_scooter", "is_disabled": 0, "fusion_lon": 0.0}, {"rental_uris": {"android": "https://dc.lft.to/lastmile_qr_scan", "ios": "https://dc.lft.to/lastmile_qr_scan"}, "lon": -76.97976466666667, "name": "5c85b85f8499b529cdd2ca6ec5ca1b5b", "lat": 38.89734416666667, "is_reserved": 0, "fusion_lat": 0.0, "bike_id": "5c85b85f8499b529cdd2ca6ec5ca1b5b", "type": "electric_scooter", "is_disabled": 0, "fusion_lon": 0.0}, {"rental_uris": {"android": "https://dc.lft.to/lastmile_qr_scan", "ios": "https://dc.lft.to/lastmile_qr_scan"}, "lon": -77.00537016666667, "name": "c115542b26cb0aa877bc7223a69c844b", "lat": 38.91265816666667, "is_reserved": 0, "fusion_lat": 0.0, "bike_id": "c115542b26cb0aa877bc7223a69c844b", "type": "electric_scooter", "is_disabled": 0, "fusion_lon": 0.0}, {"rental_uris": {"android": "https://dc.lft.to/lastmile_qr_scan", "ios": "https://dc.lft.to/lastmile_qr_scan"}, "lon": -77.04243433333333, "name": "fe91bed538aaee4d4a90ee10c02230bd", "lat": 38.910640666666666, "is_reserved": 0, "fusion_lat": 0.0, "bike_id": "fe91bed538aaee4d4a90ee10c02230bd", "type": "electric_scooter", "is_disabled": 0, "fusion_lon": 0.0}, {"rental_uris": {"android": "https://dc.lft.to/lastmile_qr_scan", "ios": "https://dc.lft.to/lastmile_qr_scan"}, "lon": -77.051318, "name": "3d62946a6e8c806c4cd865c7421d4a66", "lat": 38.923592166666666, "is_reserved": 0, "fusion_lat": 0.0, "bike_id": "3d62946a6e8c806c4cd865c7421d4a66", "type": "electric_scooter", "is_disabled": 0, "fusion_lon": 0.0}, {"rental_uris": {"android": "https://dc.lft.to/lastmile_qr_scan", "ios": "https://dc.lft.to/lastmile_qr_scan"}, "lon": -77.00922116666666, "name": "2c7146fcadd92a0325f839092befeecb", "lat": 38.896408666666666, "is_reserved": 0, "fusion_lat": 0.0, "bike_id": "2c7146fcadd92a0325f839092befeecb", "type": "electric_scooter", "is_disabled": 0, "fusion_lon": 0.0}, {"rental_uris": {"android": "https://dc.lft.to/lastmile_qr_scan", "ios": "https://dc.lft.to/lastmile_qr_scan"}, "lon": -77.04513066666667, "name": "3a34884705ceaf5e54cf23768bafefe2", "lat": 38.892230166666664, "is_reserved": 0, "fusion_lat": 0.0, "bike_id": "3a34884705ceaf5e54cf23768bafefe2", "type": "electric_scooter", "is_disabled": 0, "fusion_lon": 0.0}, {"rental_uris": {"android": "https://dc.lft.to/lastmile_qr_scan", "ios": "https://dc.lft.to/lastmile_qr_scan"}, "lon": -77.03281716666666, "name": "e9b564f4fff1d19b7a40a16cfabb3278", "lat": 38.94090383333333, "is_reserved": 0, "fusion_lat": 0.0, "bike_id": "e9b564f4fff1d19b7a40a16cfabb3278", "type": "electric_scooter", "is_disabled": 0, "fusion_lon": 0.0}, {"rental_uris": {"android": "https://dc.lft.to/lastmile_qr_scan", "ios": "https://dc.lft.to/lastmile_qr_scan"}, "lon": -77.0206775, "name": "2c0dcf807a5b5db253badd557fb89472", "lat": 38.90197033333333, "is_reserved": 0, "fusion_lat": 0.0, "bike_id": "2c0dcf807a5b5db253badd557fb89472", "type": "electric_scooter", "is_disabled": 0, "fusion_lon": 0.0}, {"rental_uris": {"android": "https://dc.lft.to/lastmile_qr_scan", "ios": "https://dc.lft.to/lastmile_qr_scan"}, "lon": -77.021589, "name": "412f6198af6a0c7f0c4b6cccdd7a1a96", "lat": 38.901861333333336, "is_reserved": 0, "fusion_lat": 0.0, "bike_id": "412f6198af6a0c7f0c4b6cccdd7a1a96", "type": "electric_scooter", "is_disabled": 0, "fusion_lon": 0.0}, {"rental_uris": {"android": "https://dc.lft.to/lastmile_qr_scan", "ios": "https://dc.lft.to/lastmile_qr_scan"}, "lon": -77.00930866666667, "name": "5b8bada3030bcdbda7020c4c23b22897", "lat": 38.89878683333333, "is_reserved": 0, "fusion_lat": 0.0, "bike_id": "5b8bada3030bcdbda7020c4c23b22897", "type": "electric_scooter", "is_disabled": 0, "fusion_lon": 0.0}, {"rental_uris": {"android": "https://dc.lft.to/lastmile_qr_scan", "ios": "https://dc.lft.to/lastmile_qr_scan"}, "lon": -77.03566033333334, "name": "c9c91dbe70046bcfddbdd94a2593cb6e", "lat": 38.90154416666667, "is_reserved": 0, "fusion_lat": 0.0, "bike_id": "c9c91dbe70046bcfddbdd94a2593cb6e", "type": "electric_scooter", "is_disabled": 0, "fusion_lon": 0.0}, {"rental_uris": {"android": "https://dc.lft.to/lastmile_qr_scan", "ios": "https://dc.lft.to/lastmile_qr_scan"}, "lon": -77.022007, "name": "6ee9c2a1b301da6a6b1b37659c9305e4", "lat": 38.9113475, "is_reserved": 0, "fusion_lat": 0.0, "bike_id": "6ee9c2a1b301da6a6b1b37659c9305e4", "type": "electric_scooter", "is_disabled": 0, "fusion_lon": 0.0}, {"rental_uris": {"android": "https://dc.lft.to/lastmile_qr_scan", "ios": "https://dc.lft.to/lastmile_qr_scan"}, "lon": -77.0915915, "name": "086eeff042baa8004f6df840fc34e80d", "lat": 38.93961383333333, "is_reserved": 0, "fusion_lat": 0.0, "bike_id": "086eeff042baa8004f6df840fc34e80d", "type": "electric_scooter", "is_disabled": 0, "fusion_lon": 0.0}, {"rental_uris": {"android": "https://dc.lft.to/lastmile_qr_scan", "ios": "https://dc.lft.to/lastmile_qr_scan"}, "lon": -77.07017433333333, "name": "bea2670f06cdd374270a7359ecb70f15", "lat": 38.955799666666664, "is_reserved": 0, "fusion_lat": 0.0, "bike_id": "bea2670f06cdd374270a7359ecb70f15", "type": "electric_scooter", "is_disabled": 0, "fusion_lon": 0.0}, {"rental_uris": {"android": "https://dc.lft.to/lastmile_qr_scan", "ios": "https://dc.lft.to/lastmile_qr_scan"}, "lon": -77.02959866666667, "name": "8110643c8008692f5a5a622366259838", "lat": 38.908674500000004, "is_reserved": 0, "fusion_lat": 0.0, "bike_id": "8110643c8008692f5a5a622366259838", "type": "electric_scooter", "is_disabled": 0, "fusion_lon": 0.0}, {"rental_uris": {"android": "https://dc.lft.to/lastmile_qr_scan", "ios": "https://dc.lft.to/lastmile_qr_scan"}, "lon": -77.02687616666667, "name": "380668f7b8fcbf36b65ea33747d9b96b", "lat": 38.89725983333334, "is_reserved": 0, "fusion_lat": 0.0, "bike_id": "380668f7b8fcbf36b65ea33747d9b96b", "type": "electric_scooter", "is_disabled": 0, "fusion_lon": 0.0}, {"rental_uris": {"android": "https://dc.lft.to/lastmile_qr_scan", "ios": "https://dc.lft.to/lastmile_qr_scan"}, "lon": -77.040207, "name": "881532d48f1ebe122688645b108d0fcc", "lat": 38.89916933333333, "is_reserved": 0, "fusion_lat": 0.0, "bike_id": "881532d48f1ebe122688645b108d0fcc", "type": "electric_scooter", "is_disabled": 0, "fusion_lon": 0.0}, {"rental_uris": {"android": "https://dc.lft.to/lastmile_qr_scan", "ios": "https://dc.lft.to/lastmile_qr_scan"}, "lon": -77.01372566666667, "name": "914f50f17814e9d3186de8f371e57007", "lat": 38.88707, "is_reserved": 0, "fusion_lat": 0.0, "bike_id": "914f50f17814e9d3186de8f371e57007", "type": "electric_scooter", "is_disabled": 0, "fusion_lon": 0.0}, {"rental_uris": {"android": "https://dc.lft.to/lastmile_qr_scan", "ios": "https://dc.lft.to/lastmile_qr_scan"}, "lon": -77.035644, "name": "653fe67bfa284ced5f2b69683ecbabbc", "lat": 38.926941666666664, "is_reserved": 0, "fusion_lat": 0.0, "bike_id": "653fe67bfa284ced5f2b69683ecbabbc", "type": "electric_scooter", "is_disabled": 0, "fusion_lon": 0.0}, {"rental_uris": {"android": "https://dc.lft.to/lastmile_qr_scan", "ios": "https://dc.lft.to/lastmile_qr_scan"}, "lon": -77.010719, "name": "06485c7f933164a15943a683859a420c", "lat": 38.91403483333333, "is_reserved": 0, "fusion_lat": 0.0, "bike_id": "06485c7f933164a15943a683859a420c", "type": "electric_scooter", "is_disabled": 0, "fusion_lon": 0.0}, {"rental_uris": {"android": "https://dc.lft.to/lastmile_qr_scan", "ios": "https://dc.lft.to/lastmile_qr_scan"}, "lon": -77.02575016666667, "name": "6bff87ad2dc2931d7e06e89c0aa9b5aa", "lat": 38.920445, "is_reserved": 0, "fusion_lat": 0.0, "bike_id": "6bff87ad2dc2931d7e06e89c0aa9b5aa", "type": "electric_scooter", "is_disabled": 0, "fusion_lon": 0.0}, {"rental_uris": {"android": "https://dc.lft.to/lastmile_qr_scan", "ios": "https://dc.lft.to/lastmile_qr_scan"}, "lon": -76.9872565, "name": "91383f3fa6d660fc13bd5e9b636a992d", "lat": 38.85592533333333, "is_reserved": 0, "fusion_lat": 0.0, "bike_id": "91383f3fa6d660fc13bd5e9b636a992d", "type": "electric_scooter", "is_disabled": 0, "fusion_lon": 0.0}, {"rental_uris": {"android": "https://dc.lft.to/lastmile_qr_scan", "ios": "https://dc.lft.to/lastmile_qr_scan"}, "lon": -77.03234516666667, "name": "aeddd65f649964b3c781664fb75a014f", "lat": 38.92156816666667, "is_reserved": 0, "fusion_lat": 0.0, "bike_id": "aeddd65f649964b3c781664fb75a014f", "type": "electric_scooter", "is_disabled": 0, "fusion_lon": 0.0}, {"rental_uris": {"android": "https://dc.lft.to/lastmile_qr_scan", "ios": "https://dc.lft.to/lastmile_qr_scan"}, "lon": -77.03474666666666, "name": "b8779a925f18c21350347aa2a29daed1", "lat": 38.909672, "is_reserved": 0, "fusion_lat": 0.0, "bike_id": "b8779a925f18c21350347aa2a29daed1", "type": "electric_bike", "is_disabled": 0, "fusion_lon": 0.0}, {"rental_uris": {"android": "https://dc.lft.to/lastmile_qr_scan", "ios": "https://dc.lft.to/lastmile_qr_scan"}, "lon": -77.03285583333333, "name": "71afcfd2098d9cf4daea163716d88f7c", "lat": 38.92033033333333, "is_reserved": 0, "fusion_lat": 0.0, "bike_id": "71afcfd2098d9cf4daea163716d88f7c", "type": "electric_scooter", "is_disabled": 0, "fusion_lon": 0.0}, {"rental_uris": {"android": "https://dc.lft.to/lastmile_qr_scan", "ios": "https://dc.lft.to/lastmile_qr_scan"}, "lon": -76.987945, "name": "236056f68504dbc06e2ee4a86617519b", "lat": 38.84488433333333, "is_reserved": 0, "fusion_lat": 0.0, "bike_id": "236056f68504dbc06e2ee4a86617519b", "type": "electric_scooter", "is_disabled": 0, "fusion_lon": 0.0}, {"rental_uris": {"android": "https://dc.lft.to/lastmile_qr_scan", "ios": "https://dc.lft.to/lastmile_qr_scan"}, "lon": -77.01954616666667, "name": "d85910ff5cbeb7e61c85374c4fb93b24", "lat": 38.92318216666666, "is_reserved": 0, "fusion_lat": 0.0, "bike_id": "d85910ff5cbeb7e61c85374c4fb93b24", "type": "electric_scooter", "is_disabled": 0, "fusion_lon": 0.0}, {"rental_uris": {"android": "https://dc.lft.to/lastmile_qr_scan", "ios": "https://dc.lft.to/lastmile_qr_scan"}, "lon": -77.02384166666667, "name": "b5cd8d07d55b6bc5008667a28b1cba6c", "lat": 38.89226166666667, "is_reserved": 0, "fusion_lat": 0.0, "bike_id": "b5cd8d07d55b6bc5008667a28b1cba6c", "type": "electric_scooter", "is_disabled": 0, "fusion_lon": 0.0}, {"rental_uris": {"android": "https://dc.lft.to/lastmile_qr_scan", "ios": "https://dc.lft.to/lastmile_qr_scan"}, "lon": -77.0423375, "name": "d412eed379c277ae3096bc8ed1f6434f", "lat": 38.9024215, "is_reserved": 0, "fusion_lat": 0.0, "bike_id": "d412eed379c277ae3096bc8ed1f6434f", "type": "electric_scooter", "is_disabled": 0, "fusion_lon": 0.0}, {"rental_uris": {"android": "https://dc.lft.to/lastmile_qr_scan", "ios": "https://dc.lft.to/lastmile_qr_scan"}, "lon": -77.04196333333333, "name": "02cd289575e219c54170378cb8d830bd", "lat": 38.892214833333334, "is_reserved": 0, "fusion_lat": 0.0, "bike_id": "02cd289575e219c54170378cb8d830bd", "type": "electric_scooter", "is_disabled": 0, "fusion_lon": 0.0}, {"rental_uris": {"android": "https://dc.lft.to/lastmile_qr_scan", "ios": "https://dc.lft.to/lastmile_qr_scan"}, "lon": -76.98732133333333, "name": "6b8574c65550fac538c2010aabde86a8", "lat": 38.83544833333333, "is_reserved": 0, "fusion_lat": 0.0, "bike_id": "6b8574c65550fac538c2010aabde86a8", "type": "electric_bike", "is_disabled": 0, "fusion_lon": 0.0}, {"rental_uris": {"android": "https://dc.lft.to/lastmile_qr_scan", "ios": "https://dc.lft.to/lastmile_qr_scan"}, "lon": -77.01147083333333, "name": "a40ca820b327ebb46c0b803c38274baa", "lat": 38.92959366666667, "is_reserved": 0, "fusion_lat": 0.0, "bike_id": "a40ca820b327ebb46c0b803c38274baa", "type": "electric_scooter", "is_disabled": 0, "fusion_lon": 0.0}, {"rental_uris": {"android": "https://dc.lft.to/lastmile_qr_scan", "ios": "https://dc.lft.to/lastmile_qr_scan"}, "lon": -77.02699583333333, "name": "c185e3c77bfd61d71bb0100ce5c5b1a2", "lat": 38.949767666666666, "is_reserved": 0, "fusion_lat": 0.0, "bike_id": "c185e3c77bfd61d71bb0100ce5c5b1a2", "type": "electric_scooter", "is_disabled": 0, "fusion_lon": 0.0}, {"rental_uris": {"android": "https://dc.lft.to/lastmile_qr_scan", "ios": "https://dc.lft.to/lastmile_qr_scan"}, "lon": -77.038706, "name": "46f35d13c0b70556c22476abfd05eaaf", "lat": 38.99052783333333, "is_reserved": 0, "fusion_lat": 0.0, "bike_id": "46f35d13c0b70556c22476abfd05eaaf", "type": "electric_bike", "is_disabled": 0, "fusion_lon": 0.0}, {"rental_uris": {"android": "https://dc.lft.to/lastmile_qr_scan", "ios": "https://dc.lft.to/lastmile_qr_scan"}, "lon": -77.04385666666667, "name": "cbfceafd514deeee9db0d8b07ca515bc", "lat": 38.92359833333333, "is_reserved": 0, "fusion_lat": 0.0, "bike_id": "cbfceafd514deeee9db0d8b07ca515bc", "type": "electric_scooter", "is_disabled": 0, "fusion_lon": 0.0}, {"rental_uris": {"android": "https://dc.lft.to/lastmile_qr_scan", "ios": "https://dc.lft.to/lastmile_qr_scan"}, "lon": -76.946387, "name": "b4d1c6a0a7cc5ec3e131eaf096f16e96", "lat": 38.898603, "is_reserved": 0, "fusion_lat": 0.0, "bike_id": "b4d1c6a0a7cc5ec3e131eaf096f16e96", "type": "electric_scooter", "is_disabled": 0, "fusion_lon": 0.0}, {"rental_uris": {"android": "https://dc.lft.to/lastmile_qr_scan", "ios": "https://dc.lft.to/lastmile_qr_scan"}, "lon": -77.0216715, "name": "9d0b6cbe067a6162f35be85c646159ad", "lat": 38.90184966666666, "is_reserved": 0, "fusion_lat": 0.0, "bike_id": "9d0b6cbe067a6162f35be85c646159ad", "type": "electric_scooter", "is_disabled": 0, "fusion_lon": 0.0}, {"rental_uris": {"android": "https://dc.lft.to/lastmile_qr_scan", "ios": "https://dc.lft.to/lastmile_qr_scan"}, "lon": -77.031396, "name": "522d716dfbe4d5b90d9f2cf3a76d358b", "lat": 38.9169955, "is_reserved": 0, "fusion_lat": 0.0, "bike_id": "522d716dfbe4d5b90d9f2cf3a76d358b", "type": "electric_scooter", "is_disabled": 0, "fusion_lon": 0.0}, {"rental_uris": {"android": "https://dc.lft.to/lastmile_qr_scan", "ios": "https://dc.lft.to/lastmile_qr_scan"}, "lon": -76.9907135, "name": "9019acc8112d8aef7cf0e1743f7e90e7", "lat": 38.942609166666664, "is_reserved": 0, "fusion_lat": 0.0, "bike_id": "9019acc8112d8aef7cf0e1743f7e90e7", "type": "electric_bike", "is_disabled": 0, "fusion_lon": 0.0}, {"rental_uris": {"android": "https://dc.lft.to/lastmile_qr_scan", "ios": "https://dc.lft.to/lastmile_qr_scan"}, "lon": -77.0365455, "name": "39ffff2c100aef84ae410e7d00e89e17", "lat": 38.929811, "is_reserved": 0, "fusion_lat": 0.0, "bike_id": "39ffff2c100aef84ae410e7d00e89e17", "type": "electric_scooter", "is_disabled": 0, "fusion_lon": 0.0}, {"rental_uris": {"android": "https://dc.lft.to/lastmile_qr_scan", "ios": "https://dc.lft.to/lastmile_qr_scan"}, "lon": -76.9754635, "name": "a848c34fa9d33cfe4547a8074b30cda3", "lat": 38.9032295, "is_reserved": 0, "fusion_lat": 0.0, "bike_id": "a848c34fa9d33cfe4547a8074b30cda3", "type": "electric_scooter", "is_disabled": 0, "fusion_lon": 0.0}, {"rental_uris": {"android": "https://dc.lft.to/lastmile_qr_scan", "ios": "https://dc.lft.to/lastmile_qr_scan"}, "lon": -77.01293566666666, "name": "1a9dad93e67e86b029108db4c882a250", "lat": 38.90070033333333, "is_reserved": 0, "fusion_lat": 0.0, "bike_id": "1a9dad93e67e86b029108db4c882a250", "type": "electric_bike", "is_disabled": 0, "fusion_lon": 0.0}, {"rental_uris": {"android": "https://dc.lft.to/lastmile_qr_scan", "ios": "https://dc.lft.to/lastmile_qr_scan"}, "lon": -76.9856255, "name": "4763c3f65d184b2e179b5042fddb5e86", "lat": 38.866824666666666, "is_reserved": 0, "fusion_lat": 0.0, "bike_id": "4763c3f65d184b2e179b5042fddb5e86", "type": "electric_scooter", "is_disabled": 0, "fusion_lon": 0.0}, {"rental_uris": {"android": "https://dc.lft.to/lastmile_qr_scan", "ios": "https://dc.lft.to/lastmile_qr_scan"}, "lon": -77.04342316666667, "name": "7fefa0ff5bb78e2c0c2ca47b654d36a0", "lat": 38.90395766666666, "is_reserved": 0, "fusion_lat": 0.0, "bike_id": "7fefa0ff5bb78e2c0c2ca47b654d36a0", "type": "electric_scooter", "is_disabled": 0, "fusion_lon": 0.0}, {"rental_uris": {"android": "https://dc.lft.to/lastmile_qr_scan", "ios": "https://dc.lft.to/lastmile_qr_scan"}, "lon": -77.03801666666666, "name": "bb96ab206e556ce2a1d87f966a9e4711", "lat": 38.99682933333333, "is_reserved": 0, "fusion_lat": 0.0, "bike_id": "bb96ab206e556ce2a1d87f966a9e4711", "type": "electric_bike", "is_disabled": 0, "fusion_lon": 0.0}, {"rental_uris": {"android": "https://dc.lft.to/lastmile_qr_scan", "ios": "https://dc.lft.to/lastmile_qr_scan"}, "lon": -76.98113133333334, "name": "d79ce683cf3110b270c10b4f1a5c9d54", "lat": 38.9146975, "is_reserved": 0, "fusion_lat": 0.0, "bike_id": "d79ce683cf3110b270c10b4f1a5c9d54", "type": "electric_scooter", "is_disabled": 0, "fusion_lon": 0.0}, {"rental_uris": {"android": "https://dc.lft.to/lastmile_qr_scan", "ios": "https://dc.lft.to/lastmile_qr_scan"}, "lon": -77.04874666666667, "name": "24d0cbd2afd73c32065564e9128bc1f9", "lat": 38.91235866666667, "is_reserved": 0, "fusion_lat": 0.0, "bike_id": "24d0cbd2afd73c32065564e9128bc1f9", "type": "electric_scooter", "is_disabled": 0, "fusion_lon": 0.0}, {"rental_uris": {"android": "https://dc.lft.to/lastmile_qr_scan", "ios": "https://dc.lft.to/lastmile_qr_scan"}, "lon": -77.01065433333333, "name": "0b7063242d2a4a54de8e022e62310cb7", "lat": 38.920303833333335, "is_reserved": 0, "fusion_lat": 0.0, "bike_id": "0b7063242d2a4a54de8e022e62310cb7", "type": "electric_scooter", "is_disabled": 0, "fusion_lon": 0.0}, {"rental_uris": {"android": "https://dc.lft.to/lastmile_qr_scan", "ios": "https://dc.lft.to/lastmile_qr_scan"}, "lon": -77.042282, "name": "b822683eaa4aa8646347152286d3baff", "lat": 38.91103666666667, "is_reserved": 0, "fusion_lat": 0.0, "bike_id": "b822683eaa4aa8646347152286d3baff", "type": "electric_scooter", "is_disabled": 0, "fusion_lon": 0.0}, {"rental_uris": {"android": "https://dc.lft.to/lastmile_qr_scan", "ios": "https://dc.lft.to/lastmile_qr_scan"}, "lon": -77.04676166666667, "name": "c8098b13a16eabad539db552cc419242", "lat": 38.895615, "is_reserved": 0, "fusion_lat": 0.0, "bike_id": "c8098b13a16eabad539db552cc419242", "type": "electric_scooter", "is_disabled": 0, "fusion_lon": 0.0}, {"rental_uris": {"android": "https://dc.lft.to/lastmile_qr_scan", "ios": "https://dc.lft.to/lastmile_qr_scan"}, "lon": -77.02350116666666, "name": "6bed5ec38f29ea5cf1770251b814a1be", "lat": 38.935329833333334, "is_reserved": 0, "fusion_lat": 0.0, "bike_id": "6bed5ec38f29ea5cf1770251b814a1be", "type": "electric_scooter", "is_disabled": 0, "fusion_lon": 0.0}, {"rental_uris": {"android": "https://dc.lft.to/lastmile_qr_scan", "ios": "https://dc.lft.to/lastmile_qr_scan"}, "lon": -76.95423533333333, "name": "0cf21212a8274bc773545603e8680a8b", "lat": 38.8899775, "is_reserved": 0, "fusion_lat": 0.0, "bike_id": "0cf21212a8274bc773545603e8680a8b", "type": "electric_scooter", "is_disabled": 0, "fusion_lon": 0.0}, {"rental_uris": {"android": "https://dc.lft.to/lastmile_qr_scan", "ios": "https://dc.lft.to/lastmile_qr_scan"}, "lon": -77.02306733333333, "name": "bf8354526836b3833f7a7148f394583e", "lat": 38.92659466666667, "is_reserved": 0, "fusion_lat": 0.0, "bike_id": "bf8354526836b3833f7a7148f394583e", "type": "electric_scooter", "is_disabled": 0, "fusion_lon": 0.0}, {"rental_uris": {"android": "https://dc.lft.to/lastmile_qr_scan", "ios": "https://dc.lft.to/lastmile_qr_scan"}, "lon": -77.0417915, "name": "8ca66258bc2ef0e35187c4a6c759c70e", "lat": 38.90642016666666, "is_reserved": 0, "fusion_lat": 0.0, "bike_id": "8ca66258bc2ef0e35187c4a6c759c70e", "type": "electric_scooter", "is_disabled": 0, "fusion_lon": 0.0}, {"rental_uris": {"android": "https://dc.lft.to/lastmile_qr_scan", "ios": "https://dc.lft.to/lastmile_qr_scan"}, "lon": -77.03302033333334, "name": "e45ed320845d2c073c6dcb8fec824219", "lat": 38.9245695, "is_reserved": 0, "fusion_lat": 0.0, "bike_id": "e45ed320845d2c073c6dcb8fec824219", "type": "electric_scooter", "is_disabled": 0, "fusion_lon": 0.0}, {"rental_uris": {"android": "https://dc.lft.to/lastmile_qr_scan", "ios": "https://dc.lft.to/lastmile_qr_scan"}, "lon": -76.98015733333334, "name": "dba2eee29fa1af8beeaeb16e81360ec1", "lat": 38.90082916666667, "is_reserved": 0, "fusion_lat": 0.0, "bike_id": "dba2eee29fa1af8beeaeb16e81360ec1", "type": "electric_scooter", "is_disabled": 0, "fusion_lon": 0.0}, {"rental_uris": {"android": "https://dc.lft.to/lastmile_qr_scan", "ios": "https://dc.lft.to/lastmile_qr_scan"}, "lon": -77.04226833333334, "name": "31dd9c5bd702ee8672dccccf405b5b8c", "lat": 38.911088, "is_reserved": 0, "fusion_lat": 0.0, "bike_id": "31dd9c5bd702ee8672dccccf405b5b8c", "type": "electric_scooter", "is_disabled": 0, "fusion_lon": 0.0}, {"rental_uris": {"android": "https://dc.lft.to/lastmile_qr_scan", "ios": "https://dc.lft.to/lastmile_qr_scan"}, "lon": -77.041956, "name": "c4d57580c0f50625883928be4ad54351", "lat": 38.89222183333333, "is_reserved": 0, "fusion_lat": 0.0, "bike_id": "c4d57580c0f50625883928be4ad54351", "type": "electric_scooter", "is_disabled": 0, "fusion_lon": 0.0}, {"rental_uris": {"android": "https://dc.lft.to/lastmile_qr_scan", "ios": "https://dc.lft.to/lastmile_qr_scan"}, "lon": -77.02986, "name": "699500e8758407b28a5f887cf40bba12", "lat": 38.90726466666667, "is_reserved": 0, "fusion_lat": 0.0, "bike_id": "699500e8758407b28a5f887cf40bba12", "type": "electric_scooter", "is_disabled": 0, "fusion_lon": 0.0}, {"rental_uris": {"android": "https://dc.lft.to/lastmile_qr_scan", "ios": "https://dc.lft.to/lastmile_qr_scan"}, "lon": -77.02694416666667, "name": "861c81cc739c08ce916b39b6fd8d2c2a", "lat": 38.89755616666667, "is_reserved": 0, "fusion_lat": 0.0, "bike_id": "861c81cc739c08ce916b39b6fd8d2c2a", "type": "electric_scooter", "is_disabled": 0, "fusion_lon": 0.0}, {"rental_uris": {"android": "https://dc.lft.to/lastmile_qr_scan", "ios": "https://dc.lft.to/lastmile_qr_scan"}, "lon": -77.03063233333333, "name": "6ad2467e5c5ac4e444a1ebe6939ef916", "lat": 38.902578166666665, "is_reserved": 0, "fusion_lat": 0.0, "bike_id": "6ad2467e5c5ac4e444a1ebe6939ef916", "type": "electric_scooter", "is_disabled": 0, "fusion_lon": 0.0}, {"rental_uris": {"android": "https://dc.lft.to/lastmile_qr_scan", "ios": "https://dc.lft.to/lastmile_qr_scan"}, "lon": -77.01752366666666, "name": "dc375bf27c557b8092ab224726fbe832", "lat": 38.8830465, "is_reserved": 0, "fusion_lat": 0.0, "bike_id": "dc375bf27c557b8092ab224726fbe832", "type": "electric_scooter", "is_disabled": 0, "fusion_lon": 0.0}, {"rental_uris": {"android": "https://dc.lft.to/lastmile_qr_scan", "ios": "https://dc.lft.to/lastmile_qr_scan"}, "lon": -77.001992, "name": "efaaa4898839ab3b35173c59ee604e37", "lat": 38.96613033333333, "is_reserved": 0, "fusion_lat": 0.0, "bike_id": "efaaa4898839ab3b35173c59ee604e37", "type": "electric_scooter", "is_disabled": 0, "fusion_lon": 0.0}, {"rental_uris": {"android": "https://dc.lft.to/lastmile_qr_scan", "ios": "https://dc.lft.to/lastmile_qr_scan"}, "lon": -76.99035816666667, "name": "79406a74234baf4126b30c604c455859", "lat": 38.89852616666667, "is_reserved": 0, "fusion_lat": 0.0, "bike_id": "79406a74234baf4126b30c604c455859", "type": "electric_scooter", "is_disabled": 0, "fusion_lon": 0.0}, {"rental_uris": {"android": "https://dc.lft.to/lastmile_qr_scan", "ios": "https://dc.lft.to/lastmile_qr_scan"}, "lon": -77.0141105, "name": "6ff198aaacad71eec3dfc978db6f71e2", "lat": 38.913993, "is_reserved": 0, "fusion_lat": 0.0, "bike_id": "6ff198aaacad71eec3dfc978db6f71e2", "type": "electric_scooter", "is_disabled": 0, "fusion_lon": 0.0}, {"rental_uris": {"android": "https://dc.lft.to/lastmile_qr_scan", "ios": "https://dc.lft.to/lastmile_qr_scan"}, "lon": -76.98370416666667, "name": "b21af0ff42b29d26c5006d10df39f892", "lat": 38.914933833333336, "is_reserved": 0, "fusion_lat": 0.0, "bike_id": "b21af0ff42b29d26c5006d10df39f892", "type": "electric_scooter", "is_disabled": 0, "fusion_lon": 0.0}, {"rental_uris": {"android": "https://dc.lft.to/lastmile_qr_scan", "ios": "https://dc.lft.to/lastmile_qr_scan"}, "lon": -77.0076565, "name": "8860ed03a56206318bf435bacf97041e", "lat": 38.92693666666667, "is_reserved": 0, "fusion_lat": 0.0, "bike_id": "8860ed03a56206318bf435bacf97041e", "type": "electric_scooter", "is_disabled": 0, "fusion_lon": 0.0}, {"rental_uris": {"android": "https://dc.lft.to/lastmile_qr_scan", "ios": "https://dc.lft.to/lastmile_qr_scan"}, "lon": -77.01745983333333, "name": "43730557f1ffda408b0f632aef4f2735", "lat": 38.939905833333334, "is_reserved": 0, "fusion_lat": 0.0, "bike_id": "43730557f1ffda408b0f632aef4f2735", "type": "electric_scooter", "is_disabled": 0, "fusion_lon": 0.0}, {"rental_uris": {"android": "https://dc.lft.to/lastmile_qr_scan", "ios": "https://dc.lft.to/lastmile_qr_scan"}, "lon": -77.0240805, "name": "e36ed4d18634d5ca6e24bbfe49f752db", "lat": 38.935053833333335, "is_reserved": 0, "fusion_lat": 0.0, "bike_id": "e36ed4d18634d5ca6e24bbfe49f752db", "type": "electric_scooter", "is_disabled": 0, "fusion_lon": 0.0}, {"rental_uris": {"android": "https://dc.lft.to/lastmile_qr_scan", "ios": "https://dc.lft.to/lastmile_qr_scan"}, "lon": -77.00020066666667, "name": "7f87dd431bae6c6bc28a30462338a9d7", "lat": 38.9078505, "is_reserved": 0, "fusion_lat": 0.0, "bike_id": "7f87dd431bae6c6bc28a30462338a9d7", "type": "electric_scooter", "is_disabled": 0, "fusion_lon": 0.0}, {"rental_uris": {"android": "https://dc.lft.to/lastmile_qr_scan", "ios": "https://dc.lft.to/lastmile_qr_scan"}, "lon": -77.022053, "name": "94491edb773746a86ea1372717b52684", "lat": 38.91990416666667, "is_reserved": 0, "fusion_lat": 0.0, "bike_id": "94491edb773746a86ea1372717b52684", "type": "electric_scooter", "is_disabled": 0, "fusion_lon": 0.0}, {"rental_uris": {"android": "https://dc.lft.to/lastmile_qr_scan", "ios": "https://dc.lft.to/lastmile_qr_scan"}, "lon": -76.956722, "name": "54589f586d5f065b538d2153da8ee4a4", "lat": 38.884873, "is_reserved": 0, "fusion_lat": 0.0, "bike_id": "54589f586d5f065b538d2153da8ee4a4", "type": "electric_bike", "is_disabled": 0, "fusion_lon": 0.0}, {"rental_uris": {"android": "https://dc.lft.to/lastmile_qr_scan", "ios": "https://dc.lft.to/lastmile_qr_scan"}, "lon": -77.0461015, "name": "b69b30797cb8a54220d7209ed1fda588", "lat": 38.895017333333335, "is_reserved": 0, "fusion_lat": 0.0, "bike_id": "b69b30797cb8a54220d7209ed1fda588", "type": "electric_scooter", "is_disabled": 0, "fusion_lon": 0.0}, {"rental_uris": {"android": "https://dc.lft.to/lastmile_qr_scan", "ios": "https://dc.lft.to/lastmile_qr_scan"}, "lon": -77.04614183333334, "name": "19fbf88407e7b8e893f8d4cdf1ca61c3", "lat": 38.906593666666666, "is_reserved": 0, "fusion_lat": 0.0, "bike_id": "19fbf88407e7b8e893f8d4cdf1ca61c3", "type": "electric_scooter", "is_disabled": 0, "fusion_lon": 0.0}, {"rental_uris": {"android": "https://dc.lft.to/lastmile_qr_scan", "ios": "https://dc.lft.to/lastmile_qr_scan"}, "lon": -76.94536766666667, "name": "7eaad3eb8e75d1bc8b986d4cfb38503f", "lat": 38.867531, "is_reserved": 0, "fusion_lat": 0.0, "bike_id": "7eaad3eb8e75d1bc8b986d4cfb38503f", "type": "electric_bike", "is_disabled": 0, "fusion_lon": 0.0}, {"rental_uris": {"android": "https://dc.lft.to/lastmile_qr_scan", "ios": "https://dc.lft.to/lastmile_qr_scan"}, "lon": -77.0200475, "name": "3984bb96afb43d784ae13e3ed89dd09c", "lat": 38.892471, "is_reserved": 0, "fusion_lat": 0.0, "bike_id": "3984bb96afb43d784ae13e3ed89dd09c", "type": "electric_scooter", "is_disabled": 0, "fusion_lon": 0.0}, {"rental_uris": {"android": "https://dc.lft.to/lastmile_qr_scan", "ios": "https://dc.lft.to/lastmile_qr_scan"}, "lon": -77.019512, "name": "f9a57a3af196f5fd3731e3858da95b50", "lat": 38.924217, "is_reserved": 0, "fusion_lat": 0.0, "bike_id": "f9a57a3af196f5fd3731e3858da95b50", "type": "electric_scooter", "is_disabled": 0, "fusion_lon": 0.0}, {"rental_uris": {"android": "https://dc.lft.to/lastmile_qr_scan", "ios": "https://dc.lft.to/lastmile_qr_scan"}, "lon": -77.04074266666667, "name": "007945a7884b9fdb625a49ec94f8ad01", "lat": 38.91702866666667, "is_reserved": 0, "fusion_lat": 0.0, "bike_id": "007945a7884b9fdb625a49ec94f8ad01", "type": "electric_scooter", "is_disabled": 0, "fusion_lon": 0.0}, {"rental_uris": {"android": "https://dc.lft.to/lastmile_qr_scan", "ios": "https://dc.lft.to/lastmile_qr_scan"}, "lon": -77.00996883333333, "name": "7ed799f0fdce877ca8fda7e996f67946", "lat": 38.91559266666667, "is_reserved": 0, "fusion_lat": 0.0, "bike_id": "7ed799f0fdce877ca8fda7e996f67946", "type": "electric_scooter", "is_disabled": 0, "fusion_lon": 0.0}, {"rental_uris": {"android": "https://dc.lft.to/lastmile_qr_scan", "ios": "https://dc.lft.to/lastmile_qr_scan"}, "lon": -77.02826233333333, "name": "62664761037fa22a4f99cf646216b8e2", "lat": 38.89908166666667, "is_reserved": 0, "fusion_lat": 0.0, "bike_id": "62664761037fa22a4f99cf646216b8e2", "type": "electric_scooter", "is_disabled": 0, "fusion_lon": 0.0}, {"rental_uris": {"android": "https://dc.lft.to/lastmile_qr_scan", "ios": "https://dc.lft.to/lastmile_qr_scan"}, "lon": -77.0232915, "name": "cbe741816577a494027684a28c9d2a8f", "lat": 38.928700166666665, "is_reserved": 0, "fusion_lat": 0.0, "bike_id": "cbe741816577a494027684a28c9d2a8f", "type": "electric_scooter", "is_disabled": 0, "fusion_lon": 0.0}, {"rental_uris": {"android": "https://dc.lft.to/lastmile_qr_scan", "ios": "https://dc.lft.to/lastmile_qr_scan"}, "lon": -77.04665666666666, "name": "0bd2099f5e218e8d85ace6160709b2dc", "lat": 38.9004115, "is_reserved": 0, "fusion_lat": 0.0, "bike_id": "0bd2099f5e218e8d85ace6160709b2dc", "type": "electric_scooter", "is_disabled": 0, "fusion_lon": 0.0}, {"rental_uris": {"android": "https://dc.lft.to/lastmile_qr_scan", "ios": "https://dc.lft.to/lastmile_qr_scan"}, "lon": -77.02158266666666, "name": "5efa38c7209da8253d107006ed1af23d", "lat": 38.926036833333335, "is_reserved": 0, "fusion_lat": 0.0, "bike_id": "5efa38c7209da8253d107006ed1af23d", "type": "electric_scooter", "is_disabled": 0, "fusion_lon": 0.0}, {"rental_uris": {"android": "https://dc.lft.to/lastmile_qr_scan", "ios": "https://dc.lft.to/lastmile_qr_scan"}, "lon": -76.94980333333334, "name": "d091ff95d9a5a02371276beba96e2e43", "lat": 38.88462216666667, "is_reserved": 0, "fusion_lat": 0.0, "bike_id": "d091ff95d9a5a02371276beba96e2e43", "type": "electric_scooter", "is_disabled": 0, "fusion_lon": 0.0}, {"rental_uris": {"android": "https://dc.lft.to/lastmile_qr_scan", "ios": "https://dc.lft.to/lastmile_qr_scan"}, "lon": -76.99812266666666, "name": "6cb438a952dc7615ec5457226de2430e", "lat": 38.93230166666667, "is_reserved": 0, "fusion_lat": 0.0, "bike_id": "6cb438a952dc7615ec5457226de2430e", "type": "electric_scooter", "is_disabled": 0, "fusion_lon": 0.0}, {"rental_uris": {"android": "https://dc.lft.to/lastmile_qr_scan", "ios": "https://dc.lft.to/lastmile_qr_scan"}, "lon": -77.07471183333334, "name": "b72a888314a3887d5da42d5d7d33e0c1", "lat": 38.90705033333333, "is_reserved": 0, "fusion_lat": 0.0, "bike_id": "b72a888314a3887d5da42d5d7d33e0c1", "type": "electric_scooter", "is_disabled": 0, "fusion_lon": 0.0}, {"rental_uris": {"android": "https://dc.lft.to/lastmile_qr_scan", "ios": "https://dc.lft.to/lastmile_qr_scan"}, "lon": -77.0365955, "name": "448f90a6c98b8e677d902a0e9576d9a9", "lat": 38.910045, "is_reserved": 0, "fusion_lat": 0.0, "bike_id": "448f90a6c98b8e677d902a0e9576d9a9", "type": "electric_scooter", "is_disabled": 0, "fusion_lon": 0.0}, {"rental_uris": {"android": "https://dc.lft.to/lastmile_qr_scan", "ios": "https://dc.lft.to/lastmile_qr_scan"}, "lon": -77.01221183333334, "name": "c04580985a67cfa1166c09076ec4fd67", "lat": 38.9119055, "is_reserved": 0, "fusion_lat": 0.0, "bike_id": "c04580985a67cfa1166c09076ec4fd67", "type": "electric_scooter", "is_disabled": 0, "fusion_lon": 0.0}, {"rental_uris": {"android": "https://dc.lft.to/lastmile_qr_scan", "ios": "https://dc.lft.to/lastmile_qr_scan"}, "lon": -77.04518933333334, "name": "2bb51b10403c8c02cc9e6faee1db57ef", "lat": 38.903526, "is_reserved": 0, "fusion_lat": 0.0, "bike_id": "2bb51b10403c8c02cc9e6faee1db57ef", "type": "electric_scooter", "is_disabled": 0, "fusion_lon": 0.0}, {"rental_uris": {"android": "https://dc.lft.to/lastmile_qr_scan", "ios": "https://dc.lft.to/lastmile_qr_scan"}, "lon": -76.98432916666667, "name": "728379df1df1ca456e06d2a5e9b1ad5c", "lat": 38.90579533333333, "is_reserved": 0, "fusion_lat": 0.0, "bike_id": "728379df1df1ca456e06d2a5e9b1ad5c", "type": "electric_scooter", "is_disabled": 0, "fusion_lon": 0.0}, {"rental_uris": {"android": "https://dc.lft.to/lastmile_qr_scan", "ios": "https://dc.lft.to/lastmile_qr_scan"}, "lon": -77.0271905, "name": "ef4c559bdca3ca37e728a65afc36183a", "lat": 38.923717833333335, "is_reserved": 0, "fusion_lat": 0.0, "bike_id": "ef4c559bdca3ca37e728a65afc36183a", "type": "electric_scooter", "is_disabled": 0, "fusion_lon": 0.0}, {"rental_uris": {"android": "https://dc.lft.to/lastmile_qr_scan", "ios": "https://dc.lft.to/lastmile_qr_scan"}, "lon": -77.05672616666666, "name": "df589fbdec8c7c5fa279c1585bf80328", "lat": 38.9048865, "is_reserved": 0, "fusion_lat": 0.0, "bike_id": "df589fbdec8c7c5fa279c1585bf80328", "type": "electric_scooter", "is_disabled": 0, "fusion_lon": 0.0}, {"rental_uris": {"android": "https://dc.lft.to/lastmile_qr_scan", "ios": "https://dc.lft.to/lastmile_qr_scan"}, "lon": -76.97346883333333, "name": "c81dda23bfa5d436cb1b5bed05abbe5b", "lat": 38.865113, "is_reserved": 0, "fusion_lat": 0.0, "bike_id": "c81dda23bfa5d436cb1b5bed05abbe5b", "type": "electric_scooter", "is_disabled": 0, "fusion_lon": 0.0}, {"rental_uris": {"android": "https://dc.lft.to/lastmile_qr_scan", "ios": "https://dc.lft.to/lastmile_qr_scan"}, "lon": -77.04247533333333, "name": "ee10a8e075712f3ae16bfdbb6e336422", "lat": 38.924295, "is_reserved": 0, "fusion_lat": 0.0, "bike_id": "ee10a8e075712f3ae16bfdbb6e336422", "type": "electric_scooter", "is_disabled": 0, "fusion_lon": 0.0}, {"rental_uris": {"android": "https://dc.lft.to/lastmile_qr_scan", "ios": "https://dc.lft.to/lastmile_qr_scan"}, "lon": -77.00668933333333, "name": "d052ae796560a07c29d092e63984e853", "lat": 39.03000133333333, "is_reserved": 0, "fusion_lat": 0.0, "bike_id": "d052ae796560a07c29d092e63984e853", "type": "electric_bike", "is_disabled": 0, "fusion_lon": 0.0}, {"rental_uris": {"android": "https://dc.lft.to/lastmile_qr_scan", "ios": "https://dc.lft.to/lastmile_qr_scan"}, "lon": -77.03125033333333, "name": "925640d1b709717acb1237e60c1d2bff", "lat": 38.905259666666666, "is_reserved": 0, "fusion_lat": 0.0, "bike_id": "925640d1b709717acb1237e60c1d2bff", "type": "electric_scooter", "is_disabled": 0, "fusion_lon": 0.0}, {"rental_uris": {"android": "https://dc.lft.to/lastmile_qr_scan", "ios": "https://dc.lft.to/lastmile_qr_scan"}, "lon": -76.98530083333333, "name": "b01f0abcc47a9d75bc134941162ea26a", "lat": 38.879852666666665, "is_reserved": 0, "fusion_lat": 0.0, "bike_id": "b01f0abcc47a9d75bc134941162ea26a", "type": "electric_scooter", "is_disabled": 0, "fusion_lon": 0.0}, {"rental_uris": {"android": "https://dc.lft.to/lastmile_qr_scan", "ios": "https://dc.lft.to/lastmile_qr_scan"}, "lon": -77.0006875, "name": "f28b226458b9483db4a5515d82dcd061", "lat": 38.87442516666667, "is_reserved": 0, "fusion_lat": 0.0, "bike_id": "f28b226458b9483db4a5515d82dcd061", "type": "electric_scooter", "is_disabled": 0, "fusion_lon": 0.0}, {"rental_uris": {"android": "https://dc.lft.to/lastmile_qr_scan", "ios": "https://dc.lft.to/lastmile_qr_scan"}, "lon": -77.01965316666667, "name": "52df01e832dd7c4938c478f0ca9816d8", "lat": 38.878444, "is_reserved": 0, "fusion_lat": 0.0, "bike_id": "52df01e832dd7c4938c478f0ca9816d8", "type": "electric_scooter", "is_disabled": 0, "fusion_lon": 0.0}, {"rental_uris": {"android": "https://dc.lft.to/lastmile_qr_scan", "ios": "https://dc.lft.to/lastmile_qr_scan"}, "lon": -77.02582383333333, "name": "c601f9fc498567b12cc42b9bc3ae42f2", "lat": 38.8873365, "is_reserved": 0, "fusion_lat": 0.0, "bike_id": "c601f9fc498567b12cc42b9bc3ae42f2", "type": "electric_scooter", "is_disabled": 0, "fusion_lon": 0.0}, {"rental_uris": {"android": "https://dc.lft.to/lastmile_qr_scan", "ios": "https://dc.lft.to/lastmile_qr_scan"}, "lon": -76.92898383333333, "name": "889c956163500b62dbcfc888376b2543", "lat": 38.90182016666667, "is_reserved": 0, "fusion_lat": 0.0, "bike_id": "889c956163500b62dbcfc888376b2543", "type": "electric_scooter", "is_disabled": 0, "fusion_lon": 0.0}, {"rental_uris": {"android": "https://dc.lft.to/lastmile_qr_scan", "ios": "https://dc.lft.to/lastmile_qr_scan"}, "lon": -77.00344916666667, "name": "3a8407c18dd831c612288a0e898e57e8", "lat": 38.88698816666667, "is_reserved": 0, "fusion_lat": 0.0, "bike_id": "3a8407c18dd831c612288a0e898e57e8", "type": "electric_scooter", "is_disabled": 0, "fusion_lon": 0.0}, {"rental_uris": {"android": "https://dc.lft.to/lastmile_qr_scan", "ios": "https://dc.lft.to/lastmile_qr_scan"}, "lon": -77.02225816666666, "name": "6f67c3d9a140c494c9aee9906d7d9ca3", "lat": 38.9568815, "is_reserved": 0, "fusion_lat": 0.0, "bike_id": "6f67c3d9a140c494c9aee9906d7d9ca3", "type": "electric_bike", "is_disabled": 0, "fusion_lon": 0.0}, {"rental_uris": {"android": "https://dc.lft.to/lastmile_qr_scan", "ios": "https://dc.lft.to/lastmile_qr_scan"}, "lon": -77.0237195, "name": "84d7d83ed9a9aafd58049bbc0eabd963", "lat": 38.9068825, "is_reserved": 0, "fusion_lat": 0.0, "bike_id": "84d7d83ed9a9aafd58049bbc0eabd963", "type": "electric_scooter", "is_disabled": 0, "fusion_lon": 0.0}, {"rental_uris": {"android": "https://dc.lft.to/lastmile_qr_scan", "ios": "https://dc.lft.to/lastmile_qr_scan"}, "lon": -77.02386483333333, "name": "f630b5a07afa32653243a4bd22569197", "lat": 38.89227916666667, "is_reserved": 0, "fusion_lat": 0.0, "bike_id": "f630b5a07afa32653243a4bd22569197", "type": "electric_scooter", "is_disabled": 0, "fusion_lon": 0.0}, {"rental_uris": {"android": "https://dc.lft.to/lastmile_qr_scan", "ios": "https://dc.lft.to/lastmile_qr_scan"}, "lon": -77.023803, "name": "15ed4a04c00a5524962dcd3fbcdc6785", "lat": 38.89197683333333, "is_reserved": 0, "fusion_lat": 0.0, "bike_id": "15ed4a04c00a5524962dcd3fbcdc6785", "type": "electric_scooter", "is_disabled": 0, "fusion_lon": 0.0}, {"rental_uris": {"android": "https://dc.lft.to/lastmile_qr_scan", "ios": "https://dc.lft.to/lastmile_qr_scan"}, "lon": -77.04267283333333, "name": "d9e76f673ebdf683a8802cefd7c74437", "lat": 38.8309815, "is_reserved": 0, "fusion_lat": 0.0, "bike_id": "d9e76f673ebdf683a8802cefd7c74437", "type": "electric_bike", "is_disabled": 0, "fusion_lon": 0.0}, {"rental_uris": {"android": "https://dc.lft.to/lastmile_qr_scan", "ios": "https://dc.lft.to/lastmile_qr_scan"}, "lon": -77.04319, "name": "d5c15f8402425f544d9fdcf993201f5f", "lat": 38.914035, "is_reserved": 0, "fusion_lat": 0.0, "bike_id": "d5c15f8402425f544d9fdcf993201f5f", "type": "electric_scooter", "is_disabled": 0, "fusion_lon": 0.0}, {"rental_uris": {"android": "https://dc.lft.to/lastmile_qr_scan", "ios": "https://dc.lft.to/lastmile_qr_scan"}, "lon": -77.02110133333333, "name": "28d8b9bf6ea7b35e1444979f209b753d", "lat": 38.927503333333334, "is_reserved": 0, "fusion_lat": 0.0, "bike_id": "28d8b9bf6ea7b35e1444979f209b753d", "type": "electric_scooter", "is_disabled": 0, "fusion_lon": 0.0}, {"rental_uris": {"android": "https://dc.lft.to/lastmile_qr_scan", "ios": "https://dc.lft.to/lastmile_qr_scan"}, "lon": -77.04109783333334, "name": "388a2f7b4422cc000739a4e9763da65c", "lat": 38.910359166666666, "is_reserved": 0, "fusion_lat": 0.0, "bike_id": "388a2f7b4422cc000739a4e9763da65c", "type": "electric_scooter", "is_disabled": 0, "fusion_lon": 0.0}, {"rental_uris": {"android": "https://dc.lft.to/lastmile_qr_scan", "ios": "https://dc.lft.to/lastmile_qr_scan"}, "lon": -77.03659616666667, "name": "f2f94590f78ce64c218f29e14e4a08c5", "lat": 38.921361833333336, "is_reserved": 0, "fusion_lat": 0.0, "bike_id": "f2f94590f78ce64c218f29e14e4a08c5", "type": "electric_scooter", "is_disabled": 0, "fusion_lon": 0.0}, {"rental_uris": {"android": "https://dc.lft.to/lastmile_qr_scan", "ios": "https://dc.lft.to/lastmile_qr_scan"}, "lon": -76.986612, "name": "bfcecf588e3543e089ccaaa7b44fc655", "lat": 38.91067966666667, "is_reserved": 0, "fusion_lat": 0.0, "bike_id": "bfcecf588e3543e089ccaaa7b44fc655", "type": "electric_scooter", "is_disabled": 0, "fusion_lon": 0.0}, {"rental_uris": {"android": "https://dc.lft.to/lastmile_qr_scan", "ios": "https://dc.lft.to/lastmile_qr_scan"}, "lon": -77.10684966666666, "name": "65728e449bc12d4d91f712fc93be2125", "lat": 38.8644715, "is_reserved": 0, "fusion_lat": 0.0, "bike_id": "65728e449bc12d4d91f712fc93be2125", "type": "electric_bike", "is_disabled": 0, "fusion_lon": 0.0}, {"rental_uris": {"android": "https://dc.lft.to/lastmile_qr_scan", "ios": "https://dc.lft.to/lastmile_qr_scan"}, "lon": -77.03857983333333, "name": "c97a2d4d0c1cd7b1b965bf66d405325b", "lat": 38.91775416666667, "is_reserved": 0, "fusion_lat": 0.0, "bike_id": "c97a2d4d0c1cd7b1b965bf66d405325b", "type": "electric_scooter", "is_disabled": 0, "fusion_lon": 0.0}, {"rental_uris": {"android": "https://dc.lft.to/lastmile_qr_scan", "ios": "https://dc.lft.to/lastmile_qr_scan"}, "lon": -77.0390445, "name": "2a0678bee1ab0ae1d6ea3fc7e2a1cca2", "lat": 38.90109566666667, "is_reserved": 0, "fusion_lat": 0.0, "bike_id": "2a0678bee1ab0ae1d6ea3fc7e2a1cca2", "type": "electric_scooter", "is_disabled": 0, "fusion_lon": 0.0}, {"rental_uris": {"android": "https://dc.lft.to/lastmile_qr_scan", "ios": "https://dc.lft.to/lastmile_qr_scan"}, "lon": -77.044774, "name": "6ec49f3a7f5ce70dc24b42ad308f8de1", "lat": 38.9036785, "is_reserved": 0, "fusion_lat": 0.0, "bike_id": "6ec49f3a7f5ce70dc24b42ad308f8de1", "type": "electric_scooter", "is_disabled": 0, "fusion_lon": 0.0}, {"rental_uris": {"android": "https://dc.lft.to/lastmile_qr_scan", "ios": "https://dc.lft.to/lastmile_qr_scan"}, "lon": -77.0100465, "name": "bdb0d7b4b14da79b5cd65fea992582c9", "lat": 38.90644066666667, "is_reserved": 0, "fusion_lat": 0.0, "bike_id": "bdb0d7b4b14da79b5cd65fea992582c9", "type": "electric_scooter", "is_disabled": 0, "fusion_lon": 0.0}, {"rental_uris": {"android": "https://dc.lft.to/lastmile_qr_scan", "ios": "https://dc.lft.to/lastmile_qr_scan"}, "lon": -77.02796733333334, "name": "e969561fed7a79eb40fd09792463951c", "lat": 38.93931716666667, "is_reserved": 0, "fusion_lat": 0.0, "bike_id": "e969561fed7a79eb40fd09792463951c", "type": "electric_scooter", "is_disabled": 0, "fusion_lon": 0.0}, {"rental_uris": {"android": "https://dc.lft.to/lastmile_qr_scan", "ios": "https://dc.lft.to/lastmile_qr_scan"}, "lon": -77.077667, "name": "5056535dc5e81a305eeb323b86c8e536", "lat": 38.925511, "is_reserved": 0, "fusion_lat": 0.0, "bike_id": "5056535dc5e81a305eeb323b86c8e536", "type": "electric_scooter", "is_disabled": 0, "fusion_lon": 0.0}, {"rental_uris": {"android": "https://dc.lft.to/lastmile_qr_scan", "ios": "https://dc.lft.to/lastmile_qr_scan"}, "lon": -77.0558665, "name": "d47036e16c4c233ba59c249f6b5c1e7e", "lat": 38.934309166666665, "is_reserved": 0, "fusion_lat": 0.0, "bike_id": "d47036e16c4c233ba59c249f6b5c1e7e", "type": "electric_scooter", "is_disabled": 0, "fusion_lon": 0.0}, {"rental_uris": {"android": "https://dc.lft.to/lastmile_qr_scan", "ios": "https://dc.lft.to/lastmile_qr_scan"}, "lon": -77.05681783333333, "name": "1464ccfea57501ce7e6a151be0b061a7", "lat": 38.93154666666667, "is_reserved": 0, "fusion_lat": 0.0, "bike_id": "1464ccfea57501ce7e6a151be0b061a7", "type": "electric_scooter", "is_disabled": 0, "fusion_lon": 0.0}, {"rental_uris": {"android": "https://dc.lft.to/lastmile_qr_scan", "ios": "https://dc.lft.to/lastmile_qr_scan"}, "lon": -77.06193333333333, "name": "27e55117a5d435f6dd708ef17297ee0c", "lat": 38.91851183333333, "is_reserved": 0, "fusion_lat": 0.0, "bike_id": "27e55117a5d435f6dd708ef17297ee0c", "type": "electric_scooter", "is_disabled": 0, "fusion_lon": 0.0}, {"rental_uris": {"android": "https://dc.lft.to/lastmile_qr_scan", "ios": "https://dc.lft.to/lastmile_qr_scan"}, "lon": -77.0204195, "name": "b7407461399202aecf87be9614a93850", "lat": 38.920877, "is_reserved": 0, "fusion_lat": 0.0, "bike_id": "b7407461399202aecf87be9614a93850", "type": "electric_scooter", "is_disabled": 0, "fusion_lon": 0.0}, {"rental_uris": {"android": "https://dc.lft.to/lastmile_qr_scan", "ios": "https://dc.lft.to/lastmile_qr_scan"}, "lon": -77.001967, "name": "d4b11c29c13e27009542d3c706db4dfa", "lat": 38.941516, "is_reserved": 0, "fusion_lat": 0.0, "bike_id": "d4b11c29c13e27009542d3c706db4dfa", "type": "electric_bike", "is_disabled": 0, "fusion_lon": 0.0}, {"rental_uris": {"android": "https://dc.lft.to/lastmile_qr_scan", "ios": "https://dc.lft.to/lastmile_qr_scan"}, "lon": -77.02343016666667, "name": "4898df2b4efa160477ab12a61170de11", "lat": 38.94458383333333, "is_reserved": 0, "fusion_lat": 0.0, "bike_id": "4898df2b4efa160477ab12a61170de11", "type": "electric_scooter", "is_disabled": 0, "fusion_lon": 0.0}, {"rental_uris": {"android": "https://dc.lft.to/lastmile_qr_scan", "ios": "https://dc.lft.to/lastmile_qr_scan"}, "lon": -77.00224333333334, "name": "9326c66c46f20744af4ab9f7994710a4", "lat": 38.952430166666666, "is_reserved": 0, "fusion_lat": 0.0, "bike_id": "9326c66c46f20744af4ab9f7994710a4", "type": "electric_scooter", "is_disabled": 0, "fusion_lon": 0.0}, {"rental_uris": {"android": "https://dc.lft.to/lastmile_qr_scan", "ios": "https://dc.lft.to/lastmile_qr_scan"}, "lon": -77.08660466666667, "name": "dd0a12c30dd05d9aab63e007dac6eaf0", "lat": 38.938514833333336, "is_reserved": 0, "fusion_lat": 0.0, "bike_id": "dd0a12c30dd05d9aab63e007dac6eaf0", "type": "electric_scooter", "is_disabled": 0, "fusion_lon": 0.0}, {"rental_uris": {"android": "https://dc.lft.to/lastmile_qr_scan", "ios": "https://dc.lft.to/lastmile_qr_scan"}, "lon": -77.04350716666667, "name": "bb19d93a65fd927751c45d43d7e3066c", "lat": 38.90408816666667, "is_reserved": 0, "fusion_lat": 0.0, "bike_id": "bb19d93a65fd927751c45d43d7e3066c", "type": "electric_scooter", "is_disabled": 0, "fusion_lon": 0.0}, {"rental_uris": {"android": "https://dc.lft.to/lastmile_qr_scan", "ios": "https://dc.lft.to/lastmile_qr_scan"}, "lon": -77.05052683333334, "name": "3ae61e35596e81731d7c10a98981c216", "lat": 38.910822, "is_reserved": 0, "fusion_lat": 0.0, "bike_id": "3ae61e35596e81731d7c10a98981c216", "type": "electric_scooter", "is_disabled": 0, "fusion_lon": 0.0}, {"rental_uris": {"android": "https://dc.lft.to/lastmile_qr_scan", "ios": "https://dc.lft.to/lastmile_qr_scan"}, "lon": -76.9854575, "name": "a197b01a66db067d09a83f38183649e0", "lat": 38.866867, "is_reserved": 0, "fusion_lat": 0.0, "bike_id": "a197b01a66db067d09a83f38183649e0", "type": "electric_scooter", "is_disabled": 0, "fusion_lon": 0.0}, {"rental_uris": {"android": "https://dc.lft.to/lastmile_qr_scan", "ios": "https://dc.lft.to/lastmile_qr_scan"}, "lon": -77.03209616666666, "name": "771b0c22919c10d1c19c6f75fda8a6ab", "lat": 38.8923605, "is_reserved": 0, "fusion_lat": 0.0, "bike_id": "771b0c22919c10d1c19c6f75fda8a6ab", "type": "electric_scooter", "is_disabled": 0, "fusion_lon": 0.0}, {"rental_uris": {"android": "https://dc.lft.to/lastmile_qr_scan", "ios": "https://dc.lft.to/lastmile_qr_scan"}, "lon": -77.00067833333334, "name": "eefe985d2717bf8f3d319a5b36ae701a", "lat": 38.92549183333333, "is_reserved": 0, "fusion_lat": 0.0, "bike_id": "eefe985d2717bf8f3d319a5b36ae701a", "type": "electric_scooter", "is_disabled": 0, "fusion_lon": 0.0}, {"rental_uris": {"android": "https://dc.lft.to/lastmile_qr_scan", "ios": "https://dc.lft.to/lastmile_qr_scan"}, "lon": -77.05787933333333, "name": "7a105e87e6363ca1304a75ec9571fc78", "lat": 38.900986333333336, "is_reserved": 0, "fusion_lat": 0.0, "bike_id": "7a105e87e6363ca1304a75ec9571fc78", "type": "electric_scooter", "is_disabled": 0, "fusion_lon": 0.0}, {"rental_uris": {"android": "https://dc.lft.to/lastmile_qr_scan", "ios": "https://dc.lft.to/lastmile_qr_scan"}, "lon": -77.03868233333333, "name": "c8c1d6933f6b9c67c543e9209645658d", "lat": 38.915595833333334, "is_reserved": 0, "fusion_lat": 0.0, "bike_id": "c8c1d6933f6b9c67c543e9209645658d", "type": "electric_scooter", "is_disabled": 0, "fusion_lon": 0.0}, {"rental_uris": {"android": "https://dc.lft.to/lastmile_qr_scan", "ios": "https://dc.lft.to/lastmile_qr_scan"}, "lon": -77.00115833333334, "name": "2a36a2037bdaa72f6cde45266a398686", "lat": 38.877899166666666, "is_reserved": 0, "fusion_lat": 0.0, "bike_id": "2a36a2037bdaa72f6cde45266a398686", "type": "electric_scooter", "is_disabled": 0, "fusion_lon": 0.0}, {"rental_uris": {"android": "https://dc.lft.to/lastmile_qr_scan", "ios": "https://dc.lft.to/lastmile_qr_scan"}, "lon": -77.01115966666667, "name": "cb8ce9ea58f3bf9bfcff0625a9f8e31b", "lat": 38.89539216666667, "is_reserved": 0, "fusion_lat": 0.0, "bike_id": "cb8ce9ea58f3bf9bfcff0625a9f8e31b", "type": "electric_scooter", "is_disabled": 0, "fusion_lon": 0.0}, {"rental_uris": {"android": "https://dc.lft.to/lastmile_qr_scan", "ios": "https://dc.lft.to/lastmile_qr_scan"}, "lon": -77.04267883333333, "name": "1ed3f6e0b5685f18845ac067180ae9ee", "lat": 38.908660166666664, "is_reserved": 0, "fusion_lat": 0.0, "bike_id": "1ed3f6e0b5685f18845ac067180ae9ee", "type": "electric_scooter", "is_disabled": 0, "fusion_lon": 0.0}, {"rental_uris": {"android": "https://dc.lft.to/lastmile_qr_scan", "ios": "https://dc.lft.to/lastmile_qr_scan"}, "lon": -77.0120655, "name": "20e770dcb5e4fac1863a660f9bab4dd0", "lat": 38.91913816666667, "is_reserved": 0, "fusion_lat": 0.0, "bike_id": "20e770dcb5e4fac1863a660f9bab4dd0", "type": "electric_scooter", "is_disabled": 0, "fusion_lon": 0.0}, {"rental_uris": {"android": "https://dc.lft.to/lastmile_qr_scan", "ios": "https://dc.lft.to/lastmile_qr_scan"}, "lon": -77.04918183333334, "name": "6b9a0f1abf58a9eb047942f67b470021", "lat": 38.89684316666666, "is_reserved": 0, "fusion_lat": 0.0, "bike_id": "6b9a0f1abf58a9eb047942f67b470021", "type": "electric_scooter", "is_disabled": 0, "fusion_lon": 0.0}, {"rental_uris": {"android": "https://dc.lft.to/lastmile_qr_scan", "ios": "https://dc.lft.to/lastmile_qr_scan"}, "lon": -76.99948383333333, "name": "da2df484506294108bba32bda3785074", "lat": 38.84294033333333, "is_reserved": 0, "fusion_lat": 0.0, "bike_id": "da2df484506294108bba32bda3785074", "type": "electric_scooter", "is_disabled": 0, "fusion_lon": 0.0}, {"rental_uris": {"android": "https://dc.lft.to/lastmile_qr_scan", "ios": "https://dc.lft.to/lastmile_qr_scan"}, "lon": -77.00198583333334, "name": "7869e8911bbdf8e5ebe8bf1b00d0d443", "lat": 38.900294833333334, "is_reserved": 0, "fusion_lat": 0.0, "bike_id": "7869e8911bbdf8e5ebe8bf1b00d0d443", "type": "electric_scooter", "is_disabled": 0, "fusion_lon": 0.0}, {"rental_uris": {"android": "https://dc.lft.to/lastmile_qr_scan", "ios": "https://dc.lft.to/lastmile_qr_scan"}, "lon": -77.05828, "name": "2255551a1911ded218dcfd9f8b8a4ba8", "lat": 38.935618833333336, "is_reserved": 0, "fusion_lat": 0.0, "bike_id": "2255551a1911ded218dcfd9f8b8a4ba8", "type": "electric_scooter", "is_disabled": 0, "fusion_lon": 0.0}, {"rental_uris": {"android": "https://dc.lft.to/lastmile_qr_scan", "ios": "https://dc.lft.to/lastmile_qr_scan"}, "lon": -77.06884766666667, "name": "db28cc2c37e5c93a7e925a4a71afa887", "lat": 38.904989, "is_reserved": 0, "fusion_lat": 0.0, "bike_id": "db28cc2c37e5c93a7e925a4a71afa887", "type": "electric_scooter", "is_disabled": 0, "fusion_lon": 0.0}, {"rental_uris": {"android": "https://dc.lft.to/lastmile_qr_scan", "ios": "https://dc.lft.to/lastmile_qr_scan"}, "lon": -77.0241035, "name": "42b9debde1cbbaa20d3941e572f2de7e", "lat": 38.937026833333334, "is_reserved": 0, "fusion_lat": 0.0, "bike_id": "42b9debde1cbbaa20d3941e572f2de7e", "type": "electric_scooter", "is_disabled": 0, "fusion_lon": 0.0}, {"rental_uris": {"android": "https://dc.lft.to/lastmile_qr_scan", "ios": "https://dc.lft.to/lastmile_qr_scan"}, "lon": -77.0484055, "name": "91eb733514c7a0328e7483b673b3fd25", "lat": 38.912653666666664, "is_reserved": 0, "fusion_lat": 0.0, "bike_id": "91eb733514c7a0328e7483b673b3fd25", "type": "electric_scooter", "is_disabled": 0, "fusion_lon": 0.0}, {"rental_uris": {"android": "https://dc.lft.to/lastmile_qr_scan", "ios": "https://dc.lft.to/lastmile_qr_scan"}, "lon": -77.02692733333333, "name": "c9388fee18b96d003a3bb1043dd6da1b", "lat": 38.902324666666665, "is_reserved": 0, "fusion_lat": 0.0, "bike_id": "c9388fee18b96d003a3bb1043dd6da1b", "type": "electric_scooter", "is_disabled": 0, "fusion_lon": 0.0}, {"rental_uris": {"android": "https://dc.lft.to/lastmile_qr_scan", "ios": "https://dc.lft.to/lastmile_qr_scan"}, "lon": -77.048367, "name": "2e77006f3ab066a39983d442561a11df", "lat": 38.914932666666665, "is_reserved": 0, "fusion_lat": 0.0, "bike_id": "2e77006f3ab066a39983d442561a11df", "type": "electric_scooter", "is_disabled": 0, "fusion_lon": 0.0}, {"rental_uris": {"android": "https://dc.lft.to/lastmile_qr_scan", "ios": "https://dc.lft.to/lastmile_qr_scan"}, "lon": -77.1293795, "name": "cbc48e9c6fe07f048ec4a53531425d39", "lat": 38.8651345, "is_reserved": 0, "fusion_lat": 0.0, "bike_id": "cbc48e9c6fe07f048ec4a53531425d39", "type": "electric_bike", "is_disabled": 0, "fusion_lon": 0.0}, {"rental_uris": {"android": "https://dc.lft.to/lastmile_qr_scan", "ios": "https://dc.lft.to/lastmile_qr_scan"}, "lon": -77.00802883333333, "name": "c7e4e0a6b005c6a3909f66572eb11b04", "lat": 38.912638666666666, "is_reserved": 0, "fusion_lat": 0.0, "bike_id": "c7e4e0a6b005c6a3909f66572eb11b04", "type": "electric_scooter", "is_disabled": 0, "fusion_lon": 0.0}, {"rental_uris": {"android": "https://dc.lft.to/lastmile_qr_scan", "ios": "https://dc.lft.to/lastmile_qr_scan"}, "lon": -77.02817383333333, "name": "9c2d17d5b899dd328ede90a8a7d59183", "lat": 38.906185, "is_reserved": 0, "fusion_lat": 0.0, "bike_id": "9c2d17d5b899dd328ede90a8a7d59183", "type": "electric_scooter", "is_disabled": 0, "fusion_lon": 0.0}, {"rental_uris": {"android": "https://dc.lft.to/lastmile_qr_scan", "ios": "https://dc.lft.to/lastmile_qr_scan"}, "lon": -76.92582633333333, "name": "6e569c7cc4385f199eed35ba1b562665", "lat": 38.8935105, "is_reserved": 0, "fusion_lat": 0.0, "bike_id": "6e569c7cc4385f199eed35ba1b562665", "type": "electric_scooter", "is_disabled": 0, "fusion_lon": 0.0}, {"rental_uris": {"android": "https://dc.lft.to/lastmile_qr_scan", "ios": "https://dc.lft.to/lastmile_qr_scan"}, "lon": -77.02798266666667, "name": "4bcdb209cc8f0099fbdfb6ea29e9f8b1", "lat": 38.96049266666667, "is_reserved": 0, "fusion_lat": 0.0, "bike_id": "4bcdb209cc8f0099fbdfb6ea29e9f8b1", "type": "electric_scooter", "is_disabled": 0, "fusion_lon": 0.0}, {"rental_uris": {"android": "https://dc.lft.to/lastmile_qr_scan", "ios": "https://dc.lft.to/lastmile_qr_scan"}, "lon": -77.063461, "name": "2a7c3a0b7a202d106540880c323a8d09", "lat": 38.944517, "is_reserved": 0, "fusion_lat": 0.0, "bike_id": "2a7c3a0b7a202d106540880c323a8d09", "type": "electric_scooter", "is_disabled": 0, "fusion_lon": 0.0}, {"rental_uris": {"android": "https://dc.lft.to/lastmile_qr_scan", "ios": "https://dc.lft.to/lastmile_qr_scan"}, "lon": -77.03159133333334, "name": "5fdb6ddc8c55e238f765a10a7011db8e", "lat": 38.89546983333334, "is_reserved": 0, "fusion_lat": 0.0, "bike_id": "5fdb6ddc8c55e238f765a10a7011db8e", "type": "electric_scooter", "is_disabled": 0, "fusion_lon": 0.0}, {"rental_uris": {"android": "https://dc.lft.to/lastmile_qr_scan", "ios": "https://dc.lft.to/lastmile_qr_scan"}, "lon": -77.0371165, "name": "eeeff6d79bc6cffdfc208561e4d089bf", "lat": 38.9263825, "is_reserved": 0, "fusion_lat": 0.0, "bike_id": "eeeff6d79bc6cffdfc208561e4d089bf", "type": "electric_scooter", "is_disabled": 0, "fusion_lon": 0.0}, {"rental_uris": {"android": "https://dc.lft.to/lastmile_qr_scan", "ios": "https://dc.lft.to/lastmile_qr_scan"}, "lon": -77.001771, "name": "76cd2171cb86f0082031bb6502036b24", "lat": 38.907258, "is_reserved": 0, "fusion_lat": 0.0, "bike_id": "76cd2171cb86f0082031bb6502036b24", "type": "electric_scooter", "is_disabled": 0, "fusion_lon": 0.0}, {"rental_uris": {"android": "https://dc.lft.to/lastmile_qr_scan", "ios": "https://dc.lft.to/lastmile_qr_scan"}, "lon": -77.06261283333333, "name": "39bb8e51baa789f830d36450e65fe312", "lat": 38.9440925, "is_reserved": 0, "fusion_lat": 0.0, "bike_id": "39bb8e51baa789f830d36450e65fe312", "type": "electric_bike", "is_disabled": 0, "fusion_lon": 0.0}, {"rental_uris": {"android": "https://dc.lft.to/lastmile_qr_scan", "ios": "https://dc.lft.to/lastmile_qr_scan"}, "lon": -77.02981333333334, "name": "72939832512d2243f34f01a8c578ffec", "lat": 38.907188833333336, "is_reserved": 0, "fusion_lat": 0.0, "bike_id": "72939832512d2243f34f01a8c578ffec", "type": "electric_scooter", "is_disabled": 0, "fusion_lon": 0.0}, {"rental_uris": {"android": "https://dc.lft.to/lastmile_qr_scan", "ios": "https://dc.lft.to/lastmile_qr_scan"}, "lon": -77.03501583333333, "name": "3e3218f4cf5e0359febe754ef328e611", "lat": 38.921361166666664, "is_reserved": 0, "fusion_lat": 0.0, "bike_id": "3e3218f4cf5e0359febe754ef328e611", "type": "electric_scooter", "is_disabled": 0, "fusion_lon": 0.0}, {"rental_uris": {"android": "https://dc.lft.to/lastmile_qr_scan", "ios": "https://dc.lft.to/lastmile_qr_scan"}, "lon": -77.03569783333333, "name": "dd5ae463a6f5d9a76de9bccaa02b714e", "lat": 38.9014525, "is_reserved": 0, "fusion_lat": 0.0, "bike_id": "dd5ae463a6f5d9a76de9bccaa02b714e", "type": "electric_scooter", "is_disabled": 0, "fusion_lon": 0.0}, {"rental_uris": {"android": "https://dc.lft.to/lastmile_qr_scan", "ios": "https://dc.lft.to/lastmile_qr_scan"}, "lon": -77.02481416666667, "name": "36e365a41604a51aff621fbe2a9baf2a", "lat": 38.92058466666667, "is_reserved": 0, "fusion_lat": 0.0, "bike_id": "36e365a41604a51aff621fbe2a9baf2a", "type": "electric_scooter", "is_disabled": 0, "fusion_lon": 0.0}, {"rental_uris": {"android": "https://dc.lft.to/lastmile_qr_scan", "ios": "https://dc.lft.to/lastmile_qr_scan"}, "lon": -77.03441516666666, "name": "a7b4773c78817fee3ae64bf47ad2a94a", "lat": 38.905807, "is_reserved": 0, "fusion_lat": 0.0, "bike_id": "a7b4773c78817fee3ae64bf47ad2a94a", "type": "electric_scooter", "is_disabled": 0, "fusion_lon": 0.0}, {"rental_uris": {"android": "https://dc.lft.to/lastmile_qr_scan", "ios": "https://dc.lft.to/lastmile_qr_scan"}, "lon": -76.93339316666666, "name": "496c7b285e06ef723f1853b2c6bbed3e", "lat": 38.90868183333333, "is_reserved": 0, "fusion_lat": 0.0, "bike_id": "496c7b285e06ef723f1853b2c6bbed3e", "type": "electric_scooter", "is_disabled": 0, "fusion_lon": 0.0}, {"rental_uris": {"android": "https://dc.lft.to/lastmile_qr_scan", "ios": "https://dc.lft.to/lastmile_qr_scan"}, "lon": -77.027394, "name": "5fc0b86eac7975b6b5ff7783973f4c6e", "lat": 38.92770016666667, "is_reserved": 0, "fusion_lat": 0.0, "bike_id": "5fc0b86eac7975b6b5ff7783973f4c6e", "type": "electric_scooter", "is_disabled": 0, "fusion_lon": 0.0}, {"rental_uris": {"android": "https://dc.lft.to/lastmile_qr_scan", "ios": "https://dc.lft.to/lastmile_qr_scan"}, "lon": -76.99635783333333, "name": "49bc859c582aae27115e897c4b7ad442", "lat": 38.905271, "is_reserved": 0, "fusion_lat": 0.0, "bike_id": "49bc859c582aae27115e897c4b7ad442", "type": "electric_scooter", "is_disabled": 0, "fusion_lon": 0.0}, {"rental_uris": {"android": "https://dc.lft.to/lastmile_qr_scan", "ios": "https://dc.lft.to/lastmile_qr_scan"}, "lon": -77.04602783333333, "name": "7fb3a0c1ea78fbd0cd1cd7b6ee132eaa", "lat": 38.90229166666667, "is_reserved": 0, "fusion_lat": 0.0, "bike_id": "7fb3a0c1ea78fbd0cd1cd7b6ee132eaa", "type": "electric_scooter", "is_disabled": 0, "fusion_lon": 0.0}, {"rental_uris": {"android": "https://dc.lft.to/lastmile_qr_scan", "ios": "https://dc.lft.to/lastmile_qr_scan"}, "lon": -77.022175, "name": "fd8593d5e57576f5454a40c479157220", "lat": 38.91010766666667, "is_reserved": 0, "fusion_lat": 0.0, "bike_id": "fd8593d5e57576f5454a40c479157220", "type": "electric_scooter", "is_disabled": 0, "fusion_lon": 0.0}, {"rental_uris": {"android": "https://dc.lft.to/lastmile_qr_scan", "ios": "https://dc.lft.to/lastmile_qr_scan"}, "lon": -77.04397, "name": "be4721ab8ef8fc9c56b9880de4442a5f", "lat": 38.9111175, "is_reserved": 0, "fusion_lat": 0.0, "bike_id": "be4721ab8ef8fc9c56b9880de4442a5f", "type": "electric_scooter", "is_disabled": 0, "fusion_lon": 0.0}, {"rental_uris": {"android": "https://dc.lft.to/lastmile_qr_scan", "ios": "https://dc.lft.to/lastmile_qr_scan"}, "lon": -77.01718516666666, "name": "bc504384e8dba8fa889ad2ae2e23d9c2", "lat": 38.8793405, "is_reserved": 0, "fusion_lat": 0.0, "bike_id": "bc504384e8dba8fa889ad2ae2e23d9c2", "type": "electric_scooter", "is_disabled": 0, "fusion_lon": 0.0}, {"rental_uris": {"android": "https://dc.lft.to/lastmile_qr_scan", "ios": "https://dc.lft.to/lastmile_qr_scan"}, "lon": -77.02415916666666, "name": "e4e443bfcf11ac757d1435f8b29b6111", "lat": 38.892210666666664, "is_reserved": 0, "fusion_lat": 0.0, "bike_id": "e4e443bfcf11ac757d1435f8b29b6111", "type": "electric_scooter", "is_disabled": 0, "fusion_lon": 0.0}, {"rental_uris": {"android": "https://dc.lft.to/lastmile_qr_scan", "ios": "https://dc.lft.to/lastmile_qr_scan"}, "lon": -77.02412433333333, "name": "56c75389a94129a1e23a3f1da89aed7d", "lat": 38.896875666666666, "is_reserved": 0, "fusion_lat": 0.0, "bike_id": "56c75389a94129a1e23a3f1da89aed7d", "type": "electric_bike", "is_disabled": 0, "fusion_lon": 0.0}, {"rental_uris": {"android": "https://dc.lft.to/lastmile_qr_scan", "ios": "https://dc.lft.to/lastmile_qr_scan"}, "lon": -77.036723, "name": "69054e4a780dd9fa6bb194e2ced7642d", "lat": 38.939214666666665, "is_reserved": 0, "fusion_lat": 0.0, "bike_id": "69054e4a780dd9fa6bb194e2ced7642d", "type": "electric_scooter", "is_disabled": 0, "fusion_lon": 0.0}, {"rental_uris": {"android": "https://dc.lft.to/lastmile_qr_scan", "ios": "https://dc.lft.to/lastmile_qr_scan"}, "lon": -76.90419033333333, "name": "de4ffbf5bc596444d5f979c19a85987b", "lat": 38.94053066666667, "is_reserved": 0, "fusion_lat": 0.0, "bike_id": "de4ffbf5bc596444d5f979c19a85987b", "type": "electric_bike", "is_disabled": 0, "fusion_lon": 0.0}, {"rental_uris": {"android": "https://dc.lft.to/lastmile_qr_scan", "ios": "https://dc.lft.to/lastmile_qr_scan"}, "lon": -77.0523315, "name": "0721cee24923eb3f0eccb127c05c83fa", "lat": 38.92455116666667, "is_reserved": 0, "fusion_lat": 0.0, "bike_id": "0721cee24923eb3f0eccb127c05c83fa", "type": "electric_scooter", "is_disabled": 0, "fusion_lon": 0.0}, {"rental_uris": {"android": "https://dc.lft.to/lastmile_qr_scan", "ios": "https://dc.lft.to/lastmile_qr_scan"}, "lon": -77.04395616666666, "name": "e6372145450962fd94b75e8703628677", "lat": 38.897269, "is_reserved": 0, "fusion_lat": 0.0, "bike_id": "e6372145450962fd94b75e8703628677", "type": "electric_scooter", "is_disabled": 0, "fusion_lon": 0.0}, {"rental_uris": {"android": "https://dc.lft.to/lastmile_qr_scan", "ios": "https://dc.lft.to/lastmile_qr_scan"}, "lon": -77.02161033333333, "name": "e620789d6fed63aec17526b89f19ed85", "lat": 38.92611133333333, "is_reserved": 0, "fusion_lat": 0.0, "bike_id": "e620789d6fed63aec17526b89f19ed85", "type": "electric_scooter", "is_disabled": 0, "fusion_lon": 0.0}, {"rental_uris": {"android": "https://dc.lft.to/lastmile_qr_scan", "ios": "https://dc.lft.to/lastmile_qr_scan"}, "lon": -77.02512333333334, "name": "92c0e2e6404b3f73cea00d11aaa5b1c7", "lat": 38.9180625, "is_reserved": 0, "fusion_lat": 0.0, "bike_id": "92c0e2e6404b3f73cea00d11aaa5b1c7", "type": "electric_scooter", "is_disabled": 0, "fusion_lon": 0.0}, {"rental_uris": {"android": "https://dc.lft.to/lastmile_qr_scan", "ios": "https://dc.lft.to/lastmile_qr_scan"}, "lon": -77.0395595, "name": "8574d5a28a1646c0ff6676407a27ae58", "lat": 38.892437666666666, "is_reserved": 0, "fusion_lat": 0.0, "bike_id": "8574d5a28a1646c0ff6676407a27ae58", "type": "electric_scooter", "is_disabled": 0, "fusion_lon": 0.0}, {"rental_uris": {"android": "https://dc.lft.to/lastmile_qr_scan", "ios": "https://dc.lft.to/lastmile_qr_scan"}, "lon": -77.03123083333334, "name": "93b52366485b7b02e4c61c013ed2621c", "lat": 38.9202145, "is_reserved": 0, "fusion_lat": 0.0, "bike_id": "93b52366485b7b02e4c61c013ed2621c", "type": "electric_scooter", "is_disabled": 0, "fusion_lon": 0.0}, {"rental_uris": {"android": "https://dc.lft.to/lastmile_qr_scan", "ios": "https://dc.lft.to/lastmile_qr_scan"}, "lon": -77.03846166666666, "name": "9596e6e68cbcfdc7ed70b140a8800059", "lat": 38.903378000000004, "is_reserved": 0, "fusion_lat": 0.0, "bike_id": "9596e6e68cbcfdc7ed70b140a8800059", "type": "electric_scooter", "is_disabled": 0, "fusion_lon": 0.0}, {"rental_uris": {"android": "https://dc.lft.to/lastmile_qr_scan", "ios": "https://dc.lft.to/lastmile_qr_scan"}, "lon": -77.0363705, "name": "fea2636b1a6f0b5033389a1e8d67372d", "lat": 38.91649183333333, "is_reserved": 0, "fusion_lat": 0.0, "bike_id": "fea2636b1a6f0b5033389a1e8d67372d", "type": "electric_scooter", "is_disabled": 0, "fusion_lon": 0.0}, {"rental_uris": {"android": "https://dc.lft.to/lastmile_qr_scan", "ios": "https://dc.lft.to/lastmile_qr_scan"}, "lon": -77.03867316666667, "name": "16f7dd500c93337c25d6197d6242b70f", "lat": 38.915593, "is_reserved": 0, "fusion_lat": 0.0, "bike_id": "16f7dd500c93337c25d6197d6242b70f", "type": "electric_scooter", "is_disabled": 0, "fusion_lon": 0.0}, {"rental_uris": {"android": "https://dc.lft.to/lastmile_qr_scan", "ios": "https://dc.lft.to/lastmile_qr_scan"}, "lon": -77.050015, "name": "b80b919463a982d4885e7aa5e7802af7", "lat": 38.90120233333333, "is_reserved": 0, "fusion_lat": 0.0, "bike_id": "b80b919463a982d4885e7aa5e7802af7", "type": "electric_scooter", "is_disabled": 0, "fusion_lon": 0.0}, {"rental_uris": {"android": "https://dc.lft.to/lastmile_qr_scan", "ios": "https://dc.lft.to/lastmile_qr_scan"}, "lon": -77.047025, "name": "2654c10e91bdd0500b30c7db88b98cc5", "lat": 38.921772833333335, "is_reserved": 0, "fusion_lat": 0.0, "bike_id": "2654c10e91bdd0500b30c7db88b98cc5", "type": "electric_scooter", "is_disabled": 0, "fusion_lon": 0.0}, {"rental_uris": {"android": "https://dc.lft.to/lastmile_qr_scan", "ios": "https://dc.lft.to/lastmile_qr_scan"}, "lon": -77.0352885, "name": "66791d920927fd77b41b543cc7e96c6f", "lat": 38.92521583333333, "is_reserved": 0, "fusion_lat": 0.0, "bike_id": "66791d920927fd77b41b543cc7e96c6f", "type": "electric_scooter", "is_disabled": 0, "fusion_lon": 0.0}, {"rental_uris": {"android": "https://dc.lft.to/lastmile_qr_scan", "ios": "https://dc.lft.to/lastmile_qr_scan"}, "lon": -77.0426405, "name": "5dde76a7df6c64159da798adc765656c", "lat": 38.906460333333335, "is_reserved": 0, "fusion_lat": 0.0, "bike_id": "5dde76a7df6c64159da798adc765656c", "type": "electric_scooter", "is_disabled": 0, "fusion_lon": 0.0}, {"rental_uris": {"android": "https://dc.lft.to/lastmile_qr_scan", "ios": "https://dc.lft.to/lastmile_qr_scan"}, "lon": -77.02989433333333, "name": "233f86449b575d563383f5025588708a", "lat": 38.908578, "is_reserved": 0, "fusion_lat": 0.0, "bike_id": "233f86449b575d563383f5025588708a", "type": "electric_scooter", "is_disabled": 0, "fusion_lon": 0.0}, {"rental_uris": {"android": "https://dc.lft.to/lastmile_qr_scan", "ios": "https://dc.lft.to/lastmile_qr_scan"}, "lon": -77.003061, "name": "dd1cdf7f3ed9b225ff59a97aae61f8ae", "lat": 38.833616666666664, "is_reserved": 0, "fusion_lat": 0.0, "bike_id": "dd1cdf7f3ed9b225ff59a97aae61f8ae", "type": "electric_bike", "is_disabled": 0, "fusion_lon": 0.0}, {"rental_uris": {"android": "https://dc.lft.to/lastmile_qr_scan", "ios": "https://dc.lft.to/lastmile_qr_scan"}, "lon": -77.05131383333334, "name": "cb21e0117b711fa9bd3f7463fd2bdd6c", "lat": 38.923607833333335, "is_reserved": 0, "fusion_lat": 0.0, "bike_id": "cb21e0117b711fa9bd3f7463fd2bdd6c", "type": "electric_scooter", "is_disabled": 0, "fusion_lon": 0.0}, {"rental_uris": {"android": "https://dc.lft.to/lastmile_qr_scan", "ios": "https://dc.lft.to/lastmile_qr_scan"}, "lon": -77.0291205, "name": "763ec2ccc24853e8e3238a94c475cd6e", "lat": 38.917113, "is_reserved": 0, "fusion_lat": 0.0, "bike_id": "763ec2ccc24853e8e3238a94c475cd6e", "type": "electric_scooter", "is_disabled": 0, "fusion_lon": 0.0}, {"rental_uris": {"android": "https://dc.lft.to/lastmile_qr_scan", "ios": "https://dc.lft.to/lastmile_qr_scan"}, "lon": -77.04340633333334, "name": "0cd81c66de7ca7016faca7b1fb470f6b", "lat": 38.90046783333333, "is_reserved": 0, "fusion_lat": 0.0, "bike_id": "0cd81c66de7ca7016faca7b1fb470f6b", "type": "electric_scooter", "is_disabled": 0, "fusion_lon": 0.0}, {"rental_uris": {"android": "https://dc.lft.to/lastmile_qr_scan", "ios": "https://dc.lft.to/lastmile_qr_scan"}, "lon": -77.03107716666666, "name": "d4c4649c28bec8c691b8afadc3ef3383", "lat": 38.883156, "is_reserved": 0, "fusion_lat": 0.0, "bike_id": "d4c4649c28bec8c691b8afadc3ef3383", "type": "electric_scooter", "is_disabled": 0, "fusion_lon": 0.0}, {"rental_uris": {"android": "https://dc.lft.to/lastmile_qr_scan", "ios": "https://dc.lft.to/lastmile_qr_scan"}, "lon": -77.02950866666667, "name": "fdc7a83f06c0fce59743ac2ba4aba3df", "lat": 38.9167845, "is_reserved": 0, "fusion_lat": 0.0, "bike_id": "fdc7a83f06c0fce59743ac2ba4aba3df", "type": "electric_scooter", "is_disabled": 0, "fusion_lon": 0.0}, {"rental_uris": {"android": "https://dc.lft.to/lastmile_qr_scan", "ios": "https://dc.lft.to/lastmile_qr_scan"}, "lon": -77.04356783333333, "name": "0d0c3b29d5537c20bb5064dd031dcfa8", "lat": 38.9110845, "is_reserved": 0, "fusion_lat": 0.0, "bike_id": "0d0c3b29d5537c20bb5064dd031dcfa8", "type": "electric_scooter", "is_disabled": 0, "fusion_lon": 0.0}, {"rental_uris": {"android": "https://dc.lft.to/lastmile_qr_scan", "ios": "https://dc.lft.to/lastmile_qr_scan"}, "lon": -77.0327, "name": "6c0aee71ea3b9e1f75d615a70ecdba0b", "lat": 38.9309965, "is_reserved": 0, "fusion_lat": 0.0, "bike_id": "6c0aee71ea3b9e1f75d615a70ecdba0b", "type": "electric_scooter", "is_disabled": 0, "fusion_lon": 0.0}, {"rental_uris": {"android": "https://dc.lft.to/lastmile_qr_scan", "ios": "https://dc.lft.to/lastmile_qr_scan"}, "lon": -77.0413575, "name": "fb52f4af9e4335b017d4ae56ae7b8b45", "lat": 38.90013033333334, "is_reserved": 0, "fusion_lat": 0.0, "bike_id": "fb52f4af9e4335b017d4ae56ae7b8b45", "type": "electric_scooter", "is_disabled": 0, "fusion_lon": 0.0}, {"rental_uris": {"android": "https://dc.lft.to/lastmile_qr_scan", "ios": "https://dc.lft.to/lastmile_qr_scan"}, "lon": -77.0176325, "name": "7d8e4d0a7025cf9ed63acd669fcaf5ce", "lat": 38.87720066666667, "is_reserved": 0, "fusion_lat": 0.0, "bike_id": "7d8e4d0a7025cf9ed63acd669fcaf5ce", "type": "electric_scooter", "is_disabled": 0, "fusion_lon": 0.0}, {"rental_uris": {"android": "https://dc.lft.to/lastmile_qr_scan", "ios": "https://dc.lft.to/lastmile_qr_scan"}, "lon": -76.98654333333333, "name": "120b4546183e9a1e739ceaa65d587db8", "lat": 38.85808433333333, "is_reserved": 0, "fusion_lat": 0.0, "bike_id": "120b4546183e9a1e739ceaa65d587db8", "type": "electric_scooter", "is_disabled": 0, "fusion_lon": 0.0}, {"rental_uris": {"android": "https://dc.lft.to/lastmile_qr_scan", "ios": "https://dc.lft.to/lastmile_qr_scan"}, "lon": -77.031831, "name": "15c26bf08a2a500fa1b887fcd52190d8", "lat": 38.9175735, "is_reserved": 0, "fusion_lat": 0.0, "bike_id": "15c26bf08a2a500fa1b887fcd52190d8", "type": "electric_scooter", "is_disabled": 0, "fusion_lon": 0.0}, {"rental_uris": {"android": "https://dc.lft.to/lastmile_qr_scan", "ios": "https://dc.lft.to/lastmile_qr_scan"}, "lon": -77.042742, "name": "688d3829d64a50e8d4e3486a36c2febb", "lat": 38.907303166666665, "is_reserved": 0, "fusion_lat": 0.0, "bike_id": "688d3829d64a50e8d4e3486a36c2febb", "type": "electric_scooter", "is_disabled": 0, "fusion_lon": 0.0}, {"rental_uris": {"android": "https://dc.lft.to/lastmile_qr_scan", "ios": "https://dc.lft.to/lastmile_qr_scan"}, "lon": -77.07884566666667, "name": "f7acd1e0ce456c2becd8db682759cf2f", "lat": 38.842552166666664, "is_reserved": 0, "fusion_lat": 0.0, "bike_id": "f7acd1e0ce456c2becd8db682759cf2f", "type": "electric_bike", "is_disabled": 0, "fusion_lon": 0.0}, {"rental_uris": {"android": "https://dc.lft.to/lastmile_qr_scan", "ios": "https://dc.lft.to/lastmile_qr_scan"}, "lon": -77.02212266666666, "name": "8f0ad9dbe216cf9238492ef501fcf081", "lat": 38.91267283333333, "is_reserved": 0, "fusion_lat": 0.0, "bike_id": "8f0ad9dbe216cf9238492ef501fcf081", "type": "electric_scooter", "is_disabled": 0, "fusion_lon": 0.0}, {"rental_uris": {"android": "https://dc.lft.to/lastmile_qr_scan", "ios": "https://dc.lft.to/lastmile_qr_scan"}, "lon": -77.035591, "name": "012de3bb1c13c4aabdd3ecf7b6a2196a", "lat": 38.908359, "is_reserved": 0, "fusion_lat": 0.0, "bike_id": "012de3bb1c13c4aabdd3ecf7b6a2196a", "type": "electric_scooter", "is_disabled": 0, "fusion_lon": 0.0}, {"rental_uris": {"android": "https://dc.lft.to/lastmile_qr_scan", "ios": "https://dc.lft.to/lastmile_qr_scan"}, "lon": -77.02113083333333, "name": "c8144d753b005a227d6cf29b02a0939b", "lat": 38.92749766666667, "is_reserved": 0, "fusion_lat": 0.0, "bike_id": "c8144d753b005a227d6cf29b02a0939b", "type": "electric_scooter", "is_disabled": 0, "fusion_lon": 0.0}, {"rental_uris": {"android": "https://dc.lft.to/lastmile_qr_scan", "ios": "https://dc.lft.to/lastmile_qr_scan"}, "lon": -77.03464833333334, "name": "04c126da55be12d69f9b4533adca8cc4", "lat": 38.902844333333334, "is_reserved": 0, "fusion_lat": 0.0, "bike_id": "04c126da55be12d69f9b4533adca8cc4", "type": "electric_scooter", "is_disabled": 0, "fusion_lon": 0.0}, {"rental_uris": {"android": "https://dc.lft.to/lastmile_qr_scan", "ios": "https://dc.lft.to/lastmile_qr_scan"}, "lon": -77.00493083333333, "name": "6c8fbd94c8e79835666e52c35625dde5", "lat": 38.87466783333333, "is_reserved": 0, "fusion_lat": 0.0, "bike_id": "6c8fbd94c8e79835666e52c35625dde5", "type": "electric_scooter", "is_disabled": 0, "fusion_lon": 0.0}, {"rental_uris": {"android": "https://dc.lft.to/lastmile_qr_scan", "ios": "https://dc.lft.to/lastmile_qr_scan"}, "lon": -77.071885, "name": "170140a5b4a6208c28f7cf6443640f98", "lat": 38.90909766666667, "is_reserved": 0, "fusion_lat": 0.0, "bike_id": "170140a5b4a6208c28f7cf6443640f98", "type": "electric_scooter", "is_disabled": 0, "fusion_lon": 0.0}, {"rental_uris": {"android": "https://dc.lft.to/lastmile_qr_scan", "ios": "https://dc.lft.to/lastmile_qr_scan"}, "lon": -77.0322595, "name": "537fd57e4019aeb11039cf7ffa3f57ec", "lat": 38.91702933333333, "is_reserved": 0, "fusion_lat": 0.0, "bike_id": "537fd57e4019aeb11039cf7ffa3f57ec", "type": "electric_scooter", "is_disabled": 0, "fusion_lon": 0.0}, {"rental_uris": {"android": "https://dc.lft.to/lastmile_qr_scan", "ios": "https://dc.lft.to/lastmile_qr_scan"}, "lon": -77.0333675, "name": "d51433a4a72c344e71a6ad594fb70720", "lat": 38.92880866666667, "is_reserved": 0, "fusion_lat": 0.0, "bike_id": "d51433a4a72c344e71a6ad594fb70720", "type": "electric_scooter", "is_disabled": 0, "fusion_lon": 0.0}, {"rental_uris": {"android": "https://dc.lft.to/lastmile_qr_scan", "ios": "https://dc.lft.to/lastmile_qr_scan"}, "lon": -77.03181166666667, "name": "e50a6d4fc00e7770be7c644b39c2e716", "lat": 38.90152366666667, "is_reserved": 0, "fusion_lat": 0.0, "bike_id": "e50a6d4fc00e7770be7c644b39c2e716", "type": "electric_scooter", "is_disabled": 0, "fusion_lon": 0.0}, {"rental_uris": {"android": "https://dc.lft.to/lastmile_qr_scan", "ios": "https://dc.lft.to/lastmile_qr_scan"}, "lon": -77.04520816666667, "name": "3e23bdd17720cf27eb1fdc6f129bf0f2", "lat": 38.9231845, "is_reserved": 0, "fusion_lat": 0.0, "bike_id": "3e23bdd17720cf27eb1fdc6f129bf0f2", "type": "electric_scooter", "is_disabled": 0, "fusion_lon": 0.0}, {"rental_uris": {"android": "https://dc.lft.to/lastmile_qr_scan", "ios": "https://dc.lft.to/lastmile_qr_scan"}, "lon": -76.942492, "name": "625a08d4875bffd17582a98529e3fca5", "lat": 38.893034, "is_reserved": 0, "fusion_lat": 0.0, "bike_id": "625a08d4875bffd17582a98529e3fca5", "type": "electric_scooter", "is_disabled": 0, "fusion_lon": 0.0}, {"rental_uris": {"android": "https://dc.lft.to/lastmile_qr_scan", "ios": "https://dc.lft.to/lastmile_qr_scan"}, "lon": -77.039583, "name": "dde7f86ffe41f556afe2b2fc510ed471", "lat": 38.892421666666664, "is_reserved": 0, "fusion_lat": 0.0, "bike_id": "dde7f86ffe41f556afe2b2fc510ed471", "type": "electric_scooter", "is_disabled": 0, "fusion_lon": 0.0}, {"rental_uris": {"android": "https://dc.lft.to/lastmile_qr_scan", "ios": "https://dc.lft.to/lastmile_qr_scan"}, "lon": -77.03312283333334, "name": "aaf8c9a61ea9583c0f454205eb1115e5", "lat": 38.92743266666667, "is_reserved": 0, "fusion_lat": 0.0, "bike_id": "aaf8c9a61ea9583c0f454205eb1115e5", "type": "electric_scooter", "is_disabled": 0, "fusion_lon": 0.0}, {"rental_uris": {"android": "https://dc.lft.to/lastmile_qr_scan", "ios": "https://dc.lft.to/lastmile_qr_scan"}, "lon": -76.95760233333333, "name": "6849b629c7c1cb56112c8fb9ffbf2bec", "lat": 38.8842335, "is_reserved": 0, "fusion_lat": 0.0, "bike_id": "6849b629c7c1cb56112c8fb9ffbf2bec", "type": "electric_scooter", "is_disabled": 0, "fusion_lon": 0.0}, {"rental_uris": {"android": "https://dc.lft.to/lastmile_qr_scan", "ios": "https://dc.lft.to/lastmile_qr_scan"}, "lon": -77.031888, "name": "12a12eb59b3db8ec74cdf45da5255cc1", "lat": 38.90915866666667, "is_reserved": 0, "fusion_lat": 0.0, "bike_id": "12a12eb59b3db8ec74cdf45da5255cc1", "type": "electric_scooter", "is_disabled": 0, "fusion_lon": 0.0}, {"rental_uris": {"android": "https://dc.lft.to/lastmile_qr_scan", "ios": "https://dc.lft.to/lastmile_qr_scan"}, "lon": -77.02414066666667, "name": "f90d202fac6a5df76034c7e08a4f2988", "lat": 38.8922385, "is_reserved": 0, "fusion_lat": 0.0, "bike_id": "f90d202fac6a5df76034c7e08a4f2988", "type": "electric_scooter", "is_disabled": 0, "fusion_lon": 0.0}, {"rental_uris": {"android": "https://dc.lft.to/lastmile_qr_scan", "ios": "https://dc.lft.to/lastmile_qr_scan"}, "lon": -77.000005, "name": "bc873c755e07f61231c2547e01305546", "lat": 38.873854666666666, "is_reserved": 0, "fusion_lat": 0.0, "bike_id": "bc873c755e07f61231c2547e01305546", "type": "electric_scooter", "is_disabled": 0, "fusion_lon": 0.0}, {"rental_uris": {"android": "https://dc.lft.to/lastmile_qr_scan", "ios": "https://dc.lft.to/lastmile_qr_scan"}, "lon": -77.0286605, "name": "418bbf90492dc1cc0c2935d8e5a7de82", "lat": 38.91699116666667, "is_reserved": 0, "fusion_lat": 0.0, "bike_id": "418bbf90492dc1cc0c2935d8e5a7de82", "type": "electric_scooter", "is_disabled": 0, "fusion_lon": 0.0}, {"rental_uris": {"android": "https://dc.lft.to/lastmile_qr_scan", "ios": "https://dc.lft.to/lastmile_qr_scan"}, "lon": -77.02237666666667, "name": "59f168f10e2ad6e9f09622ef38c8b17e", "lat": 38.9224005, "is_reserved": 0, "fusion_lat": 0.0, "bike_id": "59f168f10e2ad6e9f09622ef38c8b17e", "type": "electric_scooter", "is_disabled": 0, "fusion_lon": 0.0}, {"rental_uris": {"android": "https://dc.lft.to/lastmile_qr_scan", "ios": "https://dc.lft.to/lastmile_qr_scan"}, "lon": -76.98903516666667, "name": "5fbb33bca8c7acf71e2c6ecdaad69211", "lat": 38.90026616666667, "is_reserved": 0, "fusion_lat": 0.0, "bike_id": "5fbb33bca8c7acf71e2c6ecdaad69211", "type": "electric_scooter", "is_disabled": 0, "fusion_lon": 0.0}, {"rental_uris": {"android": "https://dc.lft.to/lastmile_qr_scan", "ios": "https://dc.lft.to/lastmile_qr_scan"}, "lon": -77.03212816666667, "name": "c18056f4b7191724bcc050d7b23258e2", "lat": 38.9278515, "is_reserved": 0, "fusion_lat": 0.0, "bike_id": "c18056f4b7191724bcc050d7b23258e2", "type": "electric_scooter", "is_disabled": 0, "fusion_lon": 0.0}, {"rental_uris": {"android": "https://dc.lft.to/lastmile_qr_scan", "ios": "https://dc.lft.to/lastmile_qr_scan"}, "lon": -77.0118485, "name": "22a5da4796149c73678083f925cc774d", "lat": 38.90027633333333, "is_reserved": 0, "fusion_lat": 0.0, "bike_id": "22a5da4796149c73678083f925cc774d", "type": "electric_scooter", "is_disabled": 0, "fusion_lon": 0.0}, {"rental_uris": {"android": "https://dc.lft.to/lastmile_qr_scan", "ios": "https://dc.lft.to/lastmile_qr_scan"}, "lon": -77.011819, "name": "6511582fd63ed3e3f0a56d7ac5a59cf6", "lat": 38.90028616666667, "is_reserved": 0, "fusion_lat": 0.0, "bike_id": "6511582fd63ed3e3f0a56d7ac5a59cf6", "type": "electric_scooter", "is_disabled": 0, "fusion_lon": 0.0}, {"rental_uris": {"android": "https://dc.lft.to/lastmile_qr_scan", "ios": "https://dc.lft.to/lastmile_qr_scan"}, "lon": -77.0019875, "name": "559ad0dfb34fba525216b10a6433b947", "lat": 38.90240983333333, "is_reserved": 0, "fusion_lat": 0.0, "bike_id": "559ad0dfb34fba525216b10a6433b947", "type": "electric_scooter", "is_disabled": 0, "fusion_lon": 0.0}, {"rental_uris": {"android": "https://dc.lft.to/lastmile_qr_scan", "ios": "https://dc.lft.to/lastmile_qr_scan"}, "lon": -77.05130933333334, "name": "6139169f27f986e033369fcb8efbe31c", "lat": 38.9251955, "is_reserved": 0, "fusion_lat": 0.0, "bike_id": "6139169f27f986e033369fcb8efbe31c", "type": "electric_scooter", "is_disabled": 0, "fusion_lon": 0.0}, {"rental_uris": {"android": "https://dc.lft.to/lastmile_qr_scan", "ios": "https://dc.lft.to/lastmile_qr_scan"}, "lon": -77.02815, "name": "efec3c409c9d04d663b6d5546d174838", "lat": 38.90937183333333, "is_reserved": 0, "fusion_lat": 0.0, "bike_id": "efec3c409c9d04d663b6d5546d174838", "type": "electric_scooter", "is_disabled": 0, "fusion_lon": 0.0}, {"rental_uris": {"android": "https://dc.lft.to/lastmile_qr_scan", "ios": "https://dc.lft.to/lastmile_qr_scan"}, "lon": -77.02695283333334, "name": "8accad38ce831370d1360792be8f1f6d", "lat": 38.897129, "is_reserved": 0, "fusion_lat": 0.0, "bike_id": "8accad38ce831370d1360792be8f1f6d", "type": "electric_scooter", "is_disabled": 0, "fusion_lon": 0.0}, {"rental_uris": {"android": "https://dc.lft.to/lastmile_qr_scan", "ios": "https://dc.lft.to/lastmile_qr_scan"}, "lon": -77.039433, "name": "5ca65e397c42f51566a44a9b3e1e1b0d", "lat": 38.90833816666667, "is_reserved": 0, "fusion_lat": 0.0, "bike_id": "5ca65e397c42f51566a44a9b3e1e1b0d", "type": "electric_scooter", "is_disabled": 0, "fusion_lon": 0.0}, {"rental_uris": {"android": "https://dc.lft.to/lastmile_qr_scan", "ios": "https://dc.lft.to/lastmile_qr_scan"}, "lon": -77.00605266666666, "name": "068d4669630c5c6547160c05ebcc9368", "lat": 38.91118083333333, "is_reserved": 0, "fusion_lat": 0.0, "bike_id": "068d4669630c5c6547160c05ebcc9368", "type": "electric_scooter", "is_disabled": 0, "fusion_lon": 0.0}, {"rental_uris": {"android": "https://dc.lft.to/lastmile_qr_scan", "ios": "https://dc.lft.to/lastmile_qr_scan"}, "lon": -77.038511, "name": "e39e8ff3445e4f6da8c45b0d289bd702", "lat": 38.93241733333333, "is_reserved": 0, "fusion_lat": 0.0, "bike_id": "e39e8ff3445e4f6da8c45b0d289bd702", "type": "electric_scooter", "is_disabled": 0, "fusion_lon": 0.0}, {"rental_uris": {"android": "https://dc.lft.to/lastmile_qr_scan", "ios": "https://dc.lft.to/lastmile_qr_scan"}, "lon": -76.94145666666667, "name": "5a591f5c834f58b15836c9c628ea78b0", "lat": 38.901799833333335, "is_reserved": 0, "fusion_lat": 0.0, "bike_id": "5a591f5c834f58b15836c9c628ea78b0", "type": "electric_scooter", "is_disabled": 0, "fusion_lon": 0.0}, {"rental_uris": {"android": "https://dc.lft.to/lastmile_qr_scan", "ios": "https://dc.lft.to/lastmile_qr_scan"}, "lon": -77.03631616666667, "name": "b7b4db0add9bf511265409af633b8ee1", "lat": 38.90128583333333, "is_reserved": 0, "fusion_lat": 0.0, "bike_id": "b7b4db0add9bf511265409af633b8ee1", "type": "electric_scooter", "is_disabled": 0, "fusion_lon": 0.0}, {"rental_uris": {"android": "https://dc.lft.to/lastmile_qr_scan", "ios": "https://dc.lft.to/lastmile_qr_scan"}, "lon": -76.97638283333333, "name": "d358895dc49e0e5fa61cbc3551729e67", "lat": 38.886864333333335, "is_reserved": 0, "fusion_lat": 0.0, "bike_id": "d358895dc49e0e5fa61cbc3551729e67", "type": "electric_bike", "is_disabled": 0, "fusion_lon": 0.0}, {"rental_uris": {"android": "https://dc.lft.to/lastmile_qr_scan", "ios": "https://dc.lft.to/lastmile_qr_scan"}, "lon": -76.98232016666667, "name": "00a0a7084eb6cfc62f619a6838f1d867", "lat": 38.86471433333333, "is_reserved": 0, "fusion_lat": 0.0, "bike_id": "00a0a7084eb6cfc62f619a6838f1d867", "type": "electric_scooter", "is_disabled": 0, "fusion_lon": 0.0}, {"rental_uris": {"android": "https://dc.lft.to/lastmile_qr_scan", "ios": "https://dc.lft.to/lastmile_qr_scan"}, "lon": -77.03745066666667, "name": "9a6a3b4c7d71c53af9f1a1c31fb47a17", "lat": 38.916202166666665, "is_reserved": 0, "fusion_lat": 0.0, "bike_id": "9a6a3b4c7d71c53af9f1a1c31fb47a17", "type": "electric_scooter", "is_disabled": 0, "fusion_lon": 0.0}, {"rental_uris": {"android": "https://dc.lft.to/lastmile_qr_scan", "ios": "https://dc.lft.to/lastmile_qr_scan"}, "lon": -77.02489716666666, "name": "8ac33b44cf7619fdd51787656749e1de", "lat": 38.94183733333333, "is_reserved": 0, "fusion_lat": 0.0, "bike_id": "8ac33b44cf7619fdd51787656749e1de", "type": "electric_scooter", "is_disabled": 0, "fusion_lon": 0.0}, {"rental_uris": {"android": "https://dc.lft.to/lastmile_qr_scan", "ios": "https://dc.lft.to/lastmile_qr_scan"}, "lon": -77.02204816666666, "name": "5f69e9eb9b42826d961a860ddfc3f10e", "lat": 38.909777, "is_reserved": 0, "fusion_lat": 0.0, "bike_id": "5f69e9eb9b42826d961a860ddfc3f10e", "type": "electric_scooter", "is_disabled": 0, "fusion_lon": 0.0}, {"rental_uris": {"android": "https://dc.lft.to/lastmile_qr_scan", "ios": "https://dc.lft.to/lastmile_qr_scan"}, "lon": -77.0073645, "name": "0533ffda26795702a7ff221fbff823f8", "lat": 38.8984495, "is_reserved": 0, "fusion_lat": 0.0, "bike_id": "0533ffda26795702a7ff221fbff823f8", "type": "electric_scooter", "is_disabled": 0, "fusion_lon": 0.0}, {"rental_uris": {"android": "https://dc.lft.to/lastmile_qr_scan", "ios": "https://dc.lft.to/lastmile_qr_scan"}, "lon": -76.986792, "name": "526118d70a1b03fac6c3e8737f398f17", "lat": 38.8936555, "is_reserved": 0, "fusion_lat": 0.0, "bike_id": "526118d70a1b03fac6c3e8737f398f17", "type": "electric_scooter", "is_disabled": 0, "fusion_lon": 0.0}, {"rental_uris": {"android": "https://dc.lft.to/lastmile_qr_scan", "ios": "https://dc.lft.to/lastmile_qr_scan"}, "lon": -77.00466833333333, "name": "4e244b9d3ee656593c20c9a890b30ca9", "lat": 38.89158916666667, "is_reserved": 0, "fusion_lat": 0.0, "bike_id": "4e244b9d3ee656593c20c9a890b30ca9", "type": "electric_bike", "is_disabled": 0, "fusion_lon": 0.0}, {"rental_uris": {"android": "https://dc.lft.to/lastmile_qr_scan", "ios": "https://dc.lft.to/lastmile_qr_scan"}, "lon": -77.08703683333333, "name": "216199880068731a632274ef32f3a47f", "lat": 38.9352055, "is_reserved": 0, "fusion_lat": 0.0, "bike_id": "216199880068731a632274ef32f3a47f", "type": "electric_scooter", "is_disabled": 0, "fusion_lon": 0.0}, {"rental_uris": {"android": "https://dc.lft.to/lastmile_qr_scan", "ios": "https://dc.lft.to/lastmile_qr_scan"}, "lon": -76.9882805, "name": "5dc621f28805c3a4cdc9a4490062345c", "lat": 38.8907715, "is_reserved": 0, "fusion_lat": 0.0, "bike_id": "5dc621f28805c3a4cdc9a4490062345c", "type": "electric_scooter", "is_disabled": 0, "fusion_lon": 0.0}, {"rental_uris": {"android": "https://dc.lft.to/lastmile_qr_scan", "ios": "https://dc.lft.to/lastmile_qr_scan"}, "lon": -77.00228333333334, "name": "37c1c736aba131b1b8e7276460ee655b", "lat": 38.89486, "is_reserved": 0, "fusion_lat": 0.0, "bike_id": "37c1c736aba131b1b8e7276460ee655b", "type": "electric_scooter", "is_disabled": 0, "fusion_lon": 0.0}, {"rental_uris": {"android": "https://dc.lft.to/lastmile_qr_scan", "ios": "https://dc.lft.to/lastmile_qr_scan"}, "lon": -76.98414633333333, "name": "151529cbde824f71faf8139aaf4e71f5", "lat": 38.90818216666667, "is_reserved": 0, "fusion_lat": 0.0, "bike_id": "151529cbde824f71faf8139aaf4e71f5", "type": "electric_scooter", "is_disabled": 0, "fusion_lon": 0.0}, {"rental_uris": {"android": "https://dc.lft.to/lastmile_qr_scan", "ios": "https://dc.lft.to/lastmile_qr_scan"}, "lon": -77.03789966666666, "name": "b71490d8a6edfbdcba288f1c01243818", "lat": 38.927019, "is_reserved": 0, "fusion_lat": 0.0, "bike_id": "b71490d8a6edfbdcba288f1c01243818", "type": "electric_scooter", "is_disabled": 0, "fusion_lon": 0.0}, {"rental_uris": {"android": "https://dc.lft.to/lastmile_qr_scan", "ios": "https://dc.lft.to/lastmile_qr_scan"}, "lon": -77.0257415, "name": "40dd4a65789a6afc58510b9320239107", "lat": 38.92049816666667, "is_reserved": 0, "fusion_lat": 0.0, "bike_id": "40dd4a65789a6afc58510b9320239107", "type": "electric_scooter", "is_disabled": 0, "fusion_lon": 0.0}, {"rental_uris": {"android": "https://dc.lft.to/lastmile_qr_scan", "ios": "https://dc.lft.to/lastmile_qr_scan"}, "lon": -76.9973805, "name": "8f886753860a8bef43a91430aff021e8", "lat": 38.86158016666667, "is_reserved": 0, "fusion_lat": 0.0, "bike_id": "8f886753860a8bef43a91430aff021e8", "type": "electric_scooter", "is_disabled": 0, "fusion_lon": 0.0}, {"rental_uris": {"android": "https://dc.lft.to/lastmile_qr_scan", "ios": "https://dc.lft.to/lastmile_qr_scan"}, "lon": -76.99805933333333, "name": "c71a6aaf3c9544583ebedda5ab541384", "lat": 38.8199005, "is_reserved": 0, "fusion_lat": 0.0, "bike_id": "c71a6aaf3c9544583ebedda5ab541384", "type": "electric_bike", "is_disabled": 0, "fusion_lon": 0.0}, {"rental_uris": {"android": "https://dc.lft.to/lastmile_qr_scan", "ios": "https://dc.lft.to/lastmile_qr_scan"}, "lon": -77.03602866666667, "name": "326713824f19bc55223e6f2e7daf58ff", "lat": 38.928525666666665, "is_reserved": 0, "fusion_lat": 0.0, "bike_id": "326713824f19bc55223e6f2e7daf58ff", "type": "electric_scooter", "is_disabled": 0, "fusion_lon": 0.0}, {"rental_uris": {"android": "https://dc.lft.to/lastmile_qr_scan", "ios": "https://dc.lft.to/lastmile_qr_scan"}, "lon": -77.02026683333334, "name": "94ddce8fbfd76b15e2f5f39d2665fbb9", "lat": 38.91308183333334, "is_reserved": 0, "fusion_lat": 0.0, "bike_id": "94ddce8fbfd76b15e2f5f39d2665fbb9", "type": "electric_scooter", "is_disabled": 0, "fusion_lon": 0.0}, {"rental_uris": {"android": "https://dc.lft.to/lastmile_qr_scan", "ios": "https://dc.lft.to/lastmile_qr_scan"}, "lon": -77.039322, "name": "94713a0f17a3093bf991e4f5798b5947", "lat": 38.912564833333334, "is_reserved": 0, "fusion_lat": 0.0, "bike_id": "94713a0f17a3093bf991e4f5798b5947", "type": "electric_scooter", "is_disabled": 0, "fusion_lon": 0.0}, {"rental_uris": {"android": "https://dc.lft.to/lastmile_qr_scan", "ios": "https://dc.lft.to/lastmile_qr_scan"}, "lon": -77.02150883333333, "name": "7884bfafcdc32351c1cc4f7786d92e89", "lat": 38.9246335, "is_reserved": 0, "fusion_lat": 0.0, "bike_id": "7884bfafcdc32351c1cc4f7786d92e89", "type": "electric_scooter", "is_disabled": 0, "fusion_lon": 0.0}, {"rental_uris": {"android": "https://dc.lft.to/lastmile_qr_scan", "ios": "https://dc.lft.to/lastmile_qr_scan"}, "lon": -77.00005366666667, "name": "5599be53e26fef9e62f03dc758f7f290", "lat": 38.8333035, "is_reserved": 0, "fusion_lat": 0.0, "bike_id": "5599be53e26fef9e62f03dc758f7f290", "type": "electric_bike", "is_disabled": 0, "fusion_lon": 0.0}, {"rental_uris": {"android": "https://dc.lft.to/lastmile_qr_scan", "ios": "https://dc.lft.to/lastmile_qr_scan"}, "lon": -77.03380316666667, "name": "b5898f2af6171d08e3d4535f429e8ec0", "lat": 38.901968333333336, "is_reserved": 0, "fusion_lat": 0.0, "bike_id": "b5898f2af6171d08e3d4535f429e8ec0", "type": "electric_scooter", "is_disabled": 0, "fusion_lon": 0.0}, {"rental_uris": {"android": "https://dc.lft.to/lastmile_qr_scan", "ios": "https://dc.lft.to/lastmile_qr_scan"}, "lon": -77.04000633333334, "name": "c78db56efba29c52de280bce3ae3a375", "lat": 38.93429066666667, "is_reserved": 0, "fusion_lat": 0.0, "bike_id": "c78db56efba29c52de280bce3ae3a375", "type": "electric_scooter", "is_disabled": 0, "fusion_lon": 0.0}, {"rental_uris": {"android": "https://dc.lft.to/lastmile_qr_scan", "ios": "https://dc.lft.to/lastmile_qr_scan"}, "lon": -76.94960316666666, "name": "1d9dbc9d35c1489a8f2793a390a0bbf3", "lat": 38.8946445, "is_reserved": 0, "fusion_lat": 0.0, "bike_id": "1d9dbc9d35c1489a8f2793a390a0bbf3", "type": "electric_scooter", "is_disabled": 0, "fusion_lon": 0.0}, {"rental_uris": {"android": "https://dc.lft.to/lastmile_qr_scan", "ios": "https://dc.lft.to/lastmile_qr_scan"}, "lon": -77.18436766666666, "name": "af2e307a3c0eb00889f141602d177383", "lat": 38.890646, "is_reserved": 0, "fusion_lat": 0.0, "bike_id": "af2e307a3c0eb00889f141602d177383", "type": "electric_bike", "is_disabled": 0, "fusion_lon": 0.0}, {"rental_uris": {"android": "https://dc.lft.to/lastmile_qr_scan", "ios": "https://dc.lft.to/lastmile_qr_scan"}, "lon": -76.97451716666667, "name": "d5c13e6f861db073ef39fdfc83b96803", "lat": 38.8642285, "is_reserved": 0, "fusion_lat": 0.0, "bike_id": "d5c13e6f861db073ef39fdfc83b96803", "type": "electric_scooter", "is_disabled": 0, "fusion_lon": 0.0}, {"rental_uris": {"android": "https://dc.lft.to/lastmile_qr_scan", "ios": "https://dc.lft.to/lastmile_qr_scan"}, "lon": -76.98717166666667, "name": "37b01873610c7706e976f4da3e76f133", "lat": 38.86631283333333, "is_reserved": 0, "fusion_lat": 0.0, "bike_id": "37b01873610c7706e976f4da3e76f133", "type": "electric_scooter", "is_disabled": 0, "fusion_lon": 0.0}, {"rental_uris": {"android": "https://dc.lft.to/lastmile_qr_scan", "ios": "https://dc.lft.to/lastmile_qr_scan"}, "lon": -77.04140233333334, "name": "4be3d6548991fb2ee175df2969732e86", "lat": 38.919711166666666, "is_reserved": 0, "fusion_lat": 0.0, "bike_id": "4be3d6548991fb2ee175df2969732e86", "type": "electric_scooter", "is_disabled": 0, "fusion_lon": 0.0}, {"rental_uris": {"android": "https://dc.lft.to/lastmile_qr_scan", "ios": "https://dc.lft.to/lastmile_qr_scan"}, "lon": -77.04131116666667, "name": "57644d03807a2263d0d45e84c9b71938", "lat": 38.9225175, "is_reserved": 0, "fusion_lat": 0.0, "bike_id": "57644d03807a2263d0d45e84c9b71938", "type": "electric_scooter", "is_disabled": 0, "fusion_lon": 0.0}, {"rental_uris": {"android": "https://dc.lft.to/lastmile_qr_scan", "ios": "https://dc.lft.to/lastmile_qr_scan"}, "lon": -77.00710033333333, "name": "63acde4c8fd3fd6b18a6f9771affae11", "lat": 38.88488816666667, "is_reserved": 0, "fusion_lat": 0.0, "bike_id": "63acde4c8fd3fd6b18a6f9771affae11", "type": "electric_scooter", "is_disabled": 0, "fusion_lon": 0.0}, {"rental_uris": {"android": "https://dc.lft.to/lastmile_qr_scan", "ios": "https://dc.lft.to/lastmile_qr_scan"}, "lon": -76.98697016666667, "name": "84497e228719f83e2b8965da6acd7c0a", "lat": 38.867218333333334, "is_reserved": 0, "fusion_lat": 0.0, "bike_id": "84497e228719f83e2b8965da6acd7c0a", "type": "electric_scooter", "is_disabled": 0, "fusion_lon": 0.0}, {"rental_uris": {"android": "https://dc.lft.to/lastmile_qr_scan", "ios": "https://dc.lft.to/lastmile_qr_scan"}, "lon": -77.03351666666667, "name": "28b25782a7ae82aae6f8ef12bd823444", "lat": 38.922314666666665, "is_reserved": 0, "fusion_lat": 0.0, "bike_id": "28b25782a7ae82aae6f8ef12bd823444", "type": "electric_scooter", "is_disabled": 0, "fusion_lon": 0.0}, {"rental_uris": {"android": "https://dc.lft.to/lastmile_qr_scan", "ios": "https://dc.lft.to/lastmile_qr_scan"}, "lon": -77.03345216666666, "name": "1ec3024fd04a284ca8bc780fa0b34af7", "lat": 38.916953666666664, "is_reserved": 0, "fusion_lat": 0.0, "bike_id": "1ec3024fd04a284ca8bc780fa0b34af7", "type": "electric_scooter", "is_disabled": 0, "fusion_lon": 0.0}, {"rental_uris": {"android": "https://dc.lft.to/lastmile_qr_scan", "ios": "https://dc.lft.to/lastmile_qr_scan"},