{"data": {"bikes": [{"name": "da490416a35ab6c4550bcb5f5c959096", "fusion_lat": 0.0, "type": "electric_scooter", "lat": 38.86657983333333, "is_reserved": 0, "is_disabled": 0, "fusion_lon": 0.0, "bike_id": "da490416a35ab6c4550bcb5f5c959096", "lon": -76.9888045, "rental_uris": {"ios": "https://dc.lft.to/lastmile_qr_scan", "android": "https://dc.lft.to/lastmile_qr_scan"}}, {"name": "a145101444d4fb848586360b21c1e944", "fusion_lat": 0.0, "type": "electric_scooter", "lat": 38.91426416666667, "is_reserved": 0, "is_disabled": 0, "fusion_lon": 0.0, "bike_id": "a145101444d4fb848586360b21c1e944", "lon": -77.04495083333333, "rental_uris": {"ios": "https://dc.lft.to/lastmile_qr_scan", "android": "https://dc.lft.to/lastmile_qr_scan"}}, {"name": "7f4c67e89f11b28c1e2ec906f22c77b9", "fusion_lat": 0.0, "type": "electric_scooter", "lat": 38.90255766666667, "is_reserved": 0, "is_disabled": 0, "fusion_lon": 0.0, "bike_id": "7f4c67e89f11b28c1e2ec906f22c77b9", "lon": -77.03925516666666, "rental_uris": {"ios": "https://dc.lft.to/lastmile_qr_scan", "android": "https://dc.lft.to/lastmile_qr_scan"}}, {"name": "26bead07171dc3a0b8610deb7d50f64e", "fusion_lat": 0.0, "type": "electric_scooter", "lat": 38.89604033333333, "is_reserved": 0, "is_disabled": 0, "fusion_lon": 0.0, "bike_id": "26bead07171dc3a0b8610deb7d50f64e", "lon": -77.04758683333333, "rental_uris": {"ios": "https://dc.lft.to/lastmile_qr_scan", "android": "https://dc.lft.to/lastmile_qr_scan"}}, {"name": "d840904941f5d8ad26da024b763348d8", "fusion_lat": 0.0, "type": "electric_scooter", "lat": 38.912578833333335, "is_reserved": 0, "is_disabled": 0, "fusion_lon": 0.0, "bike_id": "d840904941f5d8ad26da024b763348d8", "lon": -77.03864116666666, "rental_uris": {"ios": "https://dc.lft.to/lastmile_qr_scan", "android": "https://dc.lft.to/lastmile_qr_scan"}}, {"name": "f5eaf07527ef4453f1aabff6e70e6c7e", "fusion_lat": 0.0, "type": "electric_scooter", "lat": 38.9073005, "is_reserved": 0, "is_disabled": 0, "fusion_lon": 0.0, "bike_id": "f5eaf07527ef4453f1aabff6e70e6c7e", "lon": -77.00804516666666, "rental_uris": {"ios": "https://dc.lft.to/lastmile_qr_scan", "android": "https://dc.lft.to/lastmile_qr_scan"}}, {"name": "b13e60f71fcf8d117087e203dee4d55b", "fusion_lat": 0.0, "type": "electric_scooter", "lat": 38.9307765, "is_reserved": 0, "is_disabled": 0, "fusion_lon": 0.0, "bike_id": "b13e60f71fcf8d117087e203dee4d55b", "lon": -77.02791933333333, "rental_uris": {"ios": "https://dc.lft.to/lastmile_qr_scan", "android": "https://dc.lft.to/lastmile_qr_scan"}}, {"name": "8329fe67623d33c25d6d5977c6742374", "fusion_lat": 0.0, "type": "electric_scooter", "lat": 38.9032145, "is_reserved": 0, "is_disabled": 0, "fusion_lon": 0.0, "bike_id": "8329fe67623d33c25d6d5977c6742374", "lon": -77.03660616666667, "rental_uris": {"ios": "https://dc.lft.to/lastmile_qr_scan", "android": "https://dc.lft.to/lastmile_qr_scan"}}, {"name": "6cd1fdcf8b90efb865b8748f4680f5ce", "fusion_lat": 0.0, "type": "electric_bike", "lat": 38.85614833333333, "is_reserved": 0, "is_disabled": 0, "fusion_lon": 0.0, "bike_id": "6cd1fdcf8b90efb865b8748f4680f5ce", "lon": -77.08539683333333, "rental_uris": {"ios": "https://dc.lft.to/lastmile_qr_scan", "android": "https://dc.lft.to/lastmile_qr_scan"}}, {"name": "beaab88a4b51482263dd041cb061ac73", "fusion_lat": 0.0, "type": "electric_scooter", "lat": 38.8936285, "is_reserved": 0, "is_disabled": 0, "fusion_lon": 0.0, "bike_id": "beaab88a4b51482263dd041cb061ac73", "lon": -77.01175983333333, "rental_uris": {"ios": "https://dc.lft.to/lastmile_qr_scan", "android": "https://dc.lft.to/lastmile_qr_scan"}}, {"name": "5ac6805591a9ae6dbe3eda3a1a63294d", "fusion_lat": 0.0, "type": "electric_scooter", "lat": 38.9023505, "is_reserved": 0, "is_disabled": 0, "fusion_lon": 0.0, "bike_id": "5ac6805591a9ae6dbe3eda3a1a63294d", "lon": -77.01504, "rental_uris": {"ios": "https://dc.lft.to/lastmile_qr_scan", "android": "https://dc.lft.to/lastmile_qr_scan"}}, {"name": "0204c5c913f5a94db460f22ef06deeb9", "fusion_lat": 0.0, "type": "electric_scooter", "lat": 38.909074833333335, "is_reserved": 0, "is_disabled": 0, "fusion_lon": 0.0, "bike_id": "0204c5c913f5a94db460f22ef06deeb9", "lon": -77.042068, "rental_uris": {"ios": "https://dc.lft.to/lastmile_qr_scan", "android": "https://dc.lft.to/lastmile_qr_scan"}}, {"name": "2c9d8e2e3e0778f1ab7eb38432a7fc24", "fusion_lat": 0.0, "type": "electric_scooter", "lat": 38.88364966666666, "is_reserved": 0, "is_disabled": 0, "fusion_lon": 0.0, "bike_id": "2c9d8e2e3e0778f1ab7eb38432a7fc24", "lon": -77.02617633333334, "rental_uris": {"ios": "https://dc.lft.to/lastmile_qr_scan", "android": "https://dc.lft.to/lastmile_qr_scan"}}, {"name": "c28e340c482deadb36918f4023488299", "fusion_lat": 0.0, "type": "electric_scooter", "lat": 38.90517583333333, "is_reserved": 0, "is_disabled": 0, "fusion_lon": 0.0, "bike_id": "c28e340c482deadb36918f4023488299", "lon": -77.047455, "rental_uris": {"ios": "https://dc.lft.to/lastmile_qr_scan", "android": "https://dc.lft.to/lastmile_qr_scan"}}, {"name": "f796f2c8555b097b5ba41981585b7764", "fusion_lat": 0.0, "type": "electric_scooter", "lat": 38.925463, "is_reserved": 0, "is_disabled": 0, "fusion_lon": 0.0, "bike_id": "f796f2c8555b097b5ba41981585b7764", "lon": -77.03224683333333, "rental_uris": {"ios": "https://dc.lft.to/lastmile_qr_scan", "android": "https://dc.lft.to/lastmile_qr_scan"}}, {"name": "65f0074d2e8ab79b81f90113bef350ec", "fusion_lat": 0.0, "type": "electric_bike", "lat": 38.92055933333333, "is_reserved": 0, "is_disabled": 0, "fusion_lon": 0.0, "bike_id": "65f0074d2e8ab79b81f90113bef350ec", "lon": -77.03316183333334, "rental_uris": {"ios": "https://dc.lft.to/lastmile_qr_scan", "android": "https://dc.lft.to/lastmile_qr_scan"}}, {"name": "03cd7fc4707c6e0231fc51a577606015", "fusion_lat": 0.0, "type": "electric_bike", "lat": 38.960117, "is_reserved": 0, "is_disabled": 0, "fusion_lon": 0.0, "bike_id": "03cd7fc4707c6e0231fc51a577606015", "lon": -76.99872966666666, "rental_uris": {"ios": "https://dc.lft.to/lastmile_qr_scan", "android": "https://dc.lft.to/lastmile_qr_scan"}}, {"name": "b6f85d7763bbcf80878ce6c955b3853c", "fusion_lat": 0.0, "type": "electric_scooter", "lat": 38.9387165, "is_reserved": 0, "is_disabled": 0, "fusion_lon": 0.0, "bike_id": "b6f85d7763bbcf80878ce6c955b3853c", "lon": -77.03257583333334, "rental_uris": {"ios": "https://dc.lft.to/lastmile_qr_scan", "android": "https://dc.lft.to/lastmile_qr_scan"}}, {"name": "c6e7e82c3972da9b9ce72fb48c173035", "fusion_lat": 0.0, "type": "electric_scooter", "lat": 38.9090105, "is_reserved": 0, "is_disabled": 0, "fusion_lon": 0.0, "bike_id": "c6e7e82c3972da9b9ce72fb48c173035", "lon": -77.04873283333333, "rental_uris": {"ios": "https://dc.lft.to/lastmile_qr_scan", "android": "https://dc.lft.to/lastmile_qr_scan"}}, {"name": "076a6b39d52094d480a6d28b03beb694", "fusion_lat": 0.0, "type": "electric_scooter", "lat": 38.88027483333333, "is_reserved": 0, "is_disabled": 0, "fusion_lon": 0.0, "bike_id": "076a6b39d52094d480a6d28b03beb694", "lon": -77.02500583333334, "rental_uris": {"ios": "https://dc.lft.to/lastmile_qr_scan", "android": "https://dc.lft.to/lastmile_qr_scan"}}, {"name": "34df26a534be03d6c9dd0762253424f6", "fusion_lat": 0.0, "type": "electric_scooter", "lat": 38.962250166666664, "is_reserved": 0, "is_disabled": 0, "fusion_lon": 0.0, "bike_id": "34df26a534be03d6c9dd0762253424f6", "lon": -77.02972483333333, "rental_uris": {"ios": "https://dc.lft.to/lastmile_qr_scan", "android": "https://dc.lft.to/lastmile_qr_scan"}}, {"name": "8c33444790817f2b807134b189d8c6f0", "fusion_lat": 0.0, "type": "electric_scooter", "lat": 38.934641, "is_reserved": 0, "is_disabled": 0, "fusion_lon": 0.0, "bike_id": "8c33444790817f2b807134b189d8c6f0", "lon": -77.03523416666667, "rental_uris": {"ios": "https://dc.lft.to/lastmile_qr_scan", "android": "https://dc.lft.to/lastmile_qr_scan"}}, {"name": "ce68f5784aa6b9293af3fac1ec5d4638", "fusion_lat": 0.0, "type": "electric_scooter", "lat": 38.928232333333334, "is_reserved": 0, "is_disabled": 0, "fusion_lon": 0.0, "bike_id": "ce68f5784aa6b9293af3fac1ec5d4638", "lon": -77.02256833333334, "rental_uris": {"ios": "https://dc.lft.to/lastmile_qr_scan", "android": "https://dc.lft.to/lastmile_qr_scan"}}, {"name": "92298a5fd96d48c1d0791a2071e991fc", "fusion_lat": 0.0, "type": "electric_scooter", "lat": 38.925729833333335, "is_reserved": 0, "is_disabled": 0, "fusion_lon": 0.0, "bike_id": "92298a5fd96d48c1d0791a2071e991fc", "lon": -76.99492983333333, "rental_uris": {"ios": "https://dc.lft.to/lastmile_qr_scan", "android": "https://dc.lft.to/lastmile_qr_scan"}}, {"name": "da739312a431a3914c920da48e6b6cbf", "fusion_lat": 0.0, "type": "electric_scooter", "lat": 38.9057465, "is_reserved": 0, "is_disabled": 0, "fusion_lon": 0.0, "bike_id": "da739312a431a3914c920da48e6b6cbf", "lon": -77.048827, "rental_uris": {"ios": "https://dc.lft.to/lastmile_qr_scan", "android": "https://dc.lft.to/lastmile_qr_scan"}}, {"name": "e11f3f7337d6452bdc9290b52ba54b50", "fusion_lat": 0.0, "type": "electric_scooter", "lat": 38.882282333333336, "is_reserved": 0, "is_disabled": 0, "fusion_lon": 0.0, "bike_id": "e11f3f7337d6452bdc9290b52ba54b50", "lon": -77.02579883333334, "rental_uris": {"ios": "https://dc.lft.to/lastmile_qr_scan", "android": "https://dc.lft.to/lastmile_qr_scan"}}, {"name": "aa8bea410cc124c40333061a1d5ea4a1", "fusion_lat": 0.0, "type": "electric_scooter", "lat": 38.92231, "is_reserved": 0, "is_disabled": 0, "fusion_lon": 0.0, "bike_id": "aa8bea410cc124c40333061a1d5ea4a1", "lon": -77.04710983333334, "rental_uris": {"ios": "https://dc.lft.to/lastmile_qr_scan", "android": "https://dc.lft.to/lastmile_qr_scan"}}, {"name": "662933f979aa06472e30614611ab20dd", "fusion_lat": 0.0, "type": "electric_scooter", "lat": 38.861478166666664, "is_reserved": 0, "is_disabled": 0, "fusion_lon": 0.0, "bike_id": "662933f979aa06472e30614611ab20dd", "lon": -76.98916916666667, "rental_uris": {"ios": "https://dc.lft.to/lastmile_qr_scan", "android": "https://dc.lft.to/lastmile_qr_scan"}}, {"name": "c958295af68b31455141956cd4f901de", "fusion_lat": 0.0, "type": "electric_scooter", "lat": 38.902721166666666, "is_reserved": 0, "is_disabled": 0, "fusion_lon": 0.0, "bike_id": "c958295af68b31455141956cd4f901de", "lon": -77.03074333333333, "rental_uris": {"ios": "https://dc.lft.to/lastmile_qr_scan", "android": "https://dc.lft.to/lastmile_qr_scan"}}, {"name": "0868497f6620b64485a0429f43e9164b", "fusion_lat": 0.0, "type": "electric_bike", "lat": 38.875261333333334, "is_reserved": 0, "is_disabled": 0, "fusion_lon": 0.0, "bike_id": "0868497f6620b64485a0429f43e9164b", "lon": -77.1990855, "rental_uris": {"ios": "https://dc.lft.to/lastmile_qr_scan", "android": "https://dc.lft.to/lastmile_qr_scan"}}, {"name": "da0c90f7284dea3188adb9bf670ff4b6", "fusion_lat": 0.0, "type": "electric_scooter", "lat": 38.892266, "is_reserved": 0, "is_disabled": 0, "fusion_lon": 0.0, "bike_id": "da0c90f7284dea3188adb9bf670ff4b6", "lon": -77.031836, "rental_uris": {"ios": "https://dc.lft.to/lastmile_qr_scan", "android": "https://dc.lft.to/lastmile_qr_scan"}}, {"name": "75047915c161afa5bca80cc5c77dc8c2", "fusion_lat": 0.0, "type": "electric_scooter", "lat": 38.9031265, "is_reserved": 0, "is_disabled": 0, "fusion_lon": 0.0, "bike_id": "75047915c161afa5bca80cc5c77dc8c2", "lon": -77.0395285, "rental_uris": {"ios": "https://dc.lft.to/lastmile_qr_scan", "android": "https://dc.lft.to/lastmile_qr_scan"}}, {"name": "d1fb7652d7108d69e25ca0d6a4420a73", "fusion_lat": 0.0, "type": "electric_scooter", "lat": 38.91816266666667, "is_reserved": 0, "is_disabled": 0, "fusion_lon": 0.0, "bike_id": "d1fb7652d7108d69e25ca0d6a4420a73", "lon": -77.02808616666667, "rental_uris": {"ios": "https://dc.lft.to/lastmile_qr_scan", "android": "https://dc.lft.to/lastmile_qr_scan"}}, {"name": "0f07e25bd267423641ee0db8251fd5c7", "fusion_lat": 0.0, "type": "electric_bike", "lat": 39.094561166666665, "is_reserved": 0, "is_disabled": 0, "fusion_lon": 0.0, "bike_id": "0f07e25bd267423641ee0db8251fd5c7", "lon": -77.14991683333334, "rental_uris": {"ios": "https://dc.lft.to/lastmile_qr_scan", "android": "https://dc.lft.to/lastmile_qr_scan"}}, {"name": "9a6c01d51c99a9e94d85403d5097f115", "fusion_lat": 0.0, "type": "electric_bike", "lat": 38.87086516666667, "is_reserved": 0, "is_disabled": 0, "fusion_lon": 0.0, "bike_id": "9a6c01d51c99a9e94d85403d5097f115", "lon": -77.01200783333333, "rental_uris": {"ios": "https://dc.lft.to/lastmile_qr_scan", "android": "https://dc.lft.to/lastmile_qr_scan"}}, {"name": "7c1009770876876329fa459a56957e73", "fusion_lat": 0.0, "type": "electric_scooter", "lat": 38.8845505, "is_reserved": 0, "is_disabled": 0, "fusion_lon": 0.0, "bike_id": "7c1009770876876329fa459a56957e73", "lon": -76.92468866666667, "rental_uris": {"ios": "https://dc.lft.to/lastmile_qr_scan", "android": "https://dc.lft.to/lastmile_qr_scan"}}, {"name": "57826bb2decdeff59f629fa89b1db30e", "fusion_lat": 0.0, "type": "electric_scooter", "lat": 38.927221833333334, "is_reserved": 0, "is_disabled": 0, "fusion_lon": 0.0, "bike_id": "57826bb2decdeff59f629fa89b1db30e", "lon": -77.00563216666667, "rental_uris": {"ios": "https://dc.lft.to/lastmile_qr_scan", "android": "https://dc.lft.to/lastmile_qr_scan"}}, {"name": "3ce16e8618bd3a9156fab51e0dcd7df7", "fusion_lat": 0.0, "type": "electric_scooter", "lat": 38.92100533333333, "is_reserved": 0, "is_disabled": 0, "fusion_lon": 0.0, "bike_id": "3ce16e8618bd3a9156fab51e0dcd7df7", "lon": -77.03196483333333, "rental_uris": {"ios": "https://dc.lft.to/lastmile_qr_scan", "android": "https://dc.lft.to/lastmile_qr_scan"}}, {"name": "83dea69d20d9fd63b69a76335592d4db", "fusion_lat": 0.0, "type": "electric_scooter", "lat": 38.899111166666664, "is_reserved": 0, "is_disabled": 0, "fusion_lon": 0.0, "bike_id": "83dea69d20d9fd63b69a76335592d4db", "lon": -76.93368166666667, "rental_uris": {"ios": "https://dc.lft.to/lastmile_qr_scan", "android": "https://dc.lft.to/lastmile_qr_scan"}}, {"name": "d4f995ecb626c66b4b0bd74081aa5831", "fusion_lat": 0.0, "type": "electric_scooter", "lat": 38.87931283333333, "is_reserved": 0, "is_disabled": 0, "fusion_lon": 0.0, "bike_id": "d4f995ecb626c66b4b0bd74081aa5831", "lon": -77.021129, "rental_uris": {"ios": "https://dc.lft.to/lastmile_qr_scan", "android": "https://dc.lft.to/lastmile_qr_scan"}}, {"name": "42796f369962565c49f0ddddbe717dd5", "fusion_lat": 0.0, "type": "electric_scooter", "lat": 38.87619216666667, "is_reserved": 0, "is_disabled": 0, "fusion_lon": 0.0, "bike_id": "42796f369962565c49f0ddddbe717dd5", "lon": -77.00737933333333, "rental_uris": {"ios": "https://dc.lft.to/lastmile_qr_scan", "android": "https://dc.lft.to/lastmile_qr_scan"}}, {"name": "9e59bba99b81da3ee7388c6788194d5f", "fusion_lat": 0.0, "type": "electric_scooter", "lat": 38.910669666666664, "is_reserved": 0, "is_disabled": 0, "fusion_lon": 0.0, "bike_id": "9e59bba99b81da3ee7388c6788194d5f", "lon": -77.067131, "rental_uris": {"ios": "https://dc.lft.to/lastmile_qr_scan", "android": "https://dc.lft.to/lastmile_qr_scan"}}, {"name": "a6a28ba6ef4172a51ba9e7af83948891", "fusion_lat": 0.0, "type": "electric_scooter", "lat": 38.984714, "is_reserved": 0, "is_disabled": 0, "fusion_lon": 0.0, "bike_id": "a6a28ba6ef4172a51ba9e7af83948891", "lon": -77.02643666666667, "rental_uris": {"ios": "https://dc.lft.to/lastmile_qr_scan", "android": "https://dc.lft.to/lastmile_qr_scan"}}, {"name": "b368be321d9f84f519af969e555f1a61", "fusion_lat": 0.0, "type": "electric_scooter", "lat": 38.909597833333336, "is_reserved": 0, "is_disabled": 0, "fusion_lon": 0.0, "bike_id": "b368be321d9f84f519af969e555f1a61", "lon": -77.0388355, "rental_uris": {"ios": "https://dc.lft.to/lastmile_qr_scan", "android": "https://dc.lft.to/lastmile_qr_scan"}}, {"name": "75d1e841c5da9a595b686e8a98c10832", "fusion_lat": 0.0, "type": "electric_scooter", "lat": 38.872912, "is_reserved": 0, "is_disabled": 0, "fusion_lon": 0.0, "bike_id": "75d1e841c5da9a595b686e8a98c10832", "lon": -77.00985466666667, "rental_uris": {"ios": "https://dc.lft.to/lastmile_qr_scan", "android": "https://dc.lft.to/lastmile_qr_scan"}}, {"name": "0bb0db45e9dcf62eb377dc416209e883", "fusion_lat": 0.0, "type": "electric_scooter", "lat": 38.91139283333333, "is_reserved": 0, "is_disabled": 0, "fusion_lon": 0.0, "bike_id": "0bb0db45e9dcf62eb377dc416209e883", "lon": -77.04195516666667, "rental_uris": {"ios": "https://dc.lft.to/lastmile_qr_scan", "android": "https://dc.lft.to/lastmile_qr_scan"}}, {"name": "092f8e7101d0ecd45152de75acc1b1c6", "fusion_lat": 0.0, "type": "electric_scooter", "lat": 38.942867, "is_reserved": 0, "is_disabled": 0, "fusion_lon": 0.0, "bike_id": "092f8e7101d0ecd45152de75acc1b1c6", "lon": -77.02173966666666, "rental_uris": {"ios": "https://dc.lft.to/lastmile_qr_scan", "android": "https://dc.lft.to/lastmile_qr_scan"}}, {"name": "97b3509dc09c390cba95c96fca4a931b", "fusion_lat": 0.0, "type": "electric_scooter", "lat": 38.902788666666666, "is_reserved": 0, "is_disabled": 0, "fusion_lon": 0.0, "bike_id": "97b3509dc09c390cba95c96fca4a931b", "lon": -77.03462066666667, "rental_uris": {"ios": "https://dc.lft.to/lastmile_qr_scan", "android": "https://dc.lft.to/lastmile_qr_scan"}}, {"name": "dcb28316679a4a7df89058bf89c54811", "fusion_lat": 0.0, "type": "electric_scooter", "lat": 38.8853155, "is_reserved": 0, "is_disabled": 0, "fusion_lon": 0.0, "bike_id": "dcb28316679a4a7df89058bf89c54811", "lon": -76.998262, "rental_uris": {"ios": "https://dc.lft.to/lastmile_qr_scan", "android": "https://dc.lft.to/lastmile_qr_scan"}}, {"name": "a501a1a1014526dd9482b4142209da81", "fusion_lat": 0.0, "type": "electric_scooter", "lat": 38.921797, "is_reserved": 0, "is_disabled": 0, "fusion_lon": 0.0, "bike_id": "a501a1a1014526dd9482b4142209da81", "lon": -77.04013466666666, "rental_uris": {"ios": "https://dc.lft.to/lastmile_qr_scan", "android": "https://dc.lft.to/lastmile_qr_scan"}}, {"name": "ec82d29fedfcee51d2b1aff2c1e33ae0", "fusion_lat": 0.0, "type": "electric_scooter", "lat": 38.883799333333336, "is_reserved": 0, "is_disabled": 0, "fusion_lon": 0.0, "bike_id": "ec82d29fedfcee51d2b1aff2c1e33ae0", "lon": -77.02629883333333, "rental_uris": {"ios": "https://dc.lft.to/lastmile_qr_scan", "android": "https://dc.lft.to/lastmile_qr_scan"}}, {"name": "6bcd91fef2cf79f3ffe1dbde80693f5c", "fusion_lat": 0.0, "type": "electric_scooter", "lat": 38.904963, "is_reserved": 0, "is_disabled": 0, "fusion_lon": 0.0, "bike_id": "6bcd91fef2cf79f3ffe1dbde80693f5c", "lon": -77.02691983333334, "rental_uris": {"ios": "https://dc.lft.to/lastmile_qr_scan", "android": "https://dc.lft.to/lastmile_qr_scan"}}, {"name": "8e8e3917fb7a0014532440fcb3eaa2e0", "fusion_lat": 0.0, "type": "electric_scooter", "lat": 38.891868, "is_reserved": 0, "is_disabled": 0, "fusion_lon": 0.0, "bike_id": "8e8e3917fb7a0014532440fcb3eaa2e0", "lon": -77.0158215, "rental_uris": {"ios": "https://dc.lft.to/lastmile_qr_scan", "android": "https://dc.lft.to/lastmile_qr_scan"}}, {"name": "1412992ab0f1a81641a45b0e0b3ae673", "fusion_lat": 0.0, "type": "electric_scooter", "lat": 38.915629833333334, "is_reserved": 0, "is_disabled": 0, "fusion_lon": 0.0, "bike_id": "1412992ab0f1a81641a45b0e0b3ae673", "lon": -77.04715333333333, "rental_uris": {"ios": "https://dc.lft.to/lastmile_qr_scan", "android": "https://dc.lft.to/lastmile_qr_scan"}}, {"name": "ddf809a06b2a60c8652facad35dd4bd2", "fusion_lat": 0.0, "type": "electric_scooter", "lat": 38.90082683333333, "is_reserved": 0, "is_disabled": 0, "fusion_lon": 0.0, "bike_id": "ddf809a06b2a60c8652facad35dd4bd2", "lon": -77.03185783333333, "rental_uris": {"ios": "https://dc.lft.to/lastmile_qr_scan", "android": "https://dc.lft.to/lastmile_qr_scan"}}, {"name": "58e5e5e4f3ed58493622ae9f5104871b", "fusion_lat": 0.0, "type": "electric_scooter", "lat": 38.859271166666666, "is_reserved": 0, "is_disabled": 0, "fusion_lon": 0.0, "bike_id": "58e5e5e4f3ed58493622ae9f5104871b", "lon": -76.98970916666667, "rental_uris": {"ios": "https://dc.lft.to/lastmile_qr_scan", "android": "https://dc.lft.to/lastmile_qr_scan"}}, {"name": "7ac5136c950f4f92e5351937d523ab3e", "fusion_lat": 0.0, "type": "electric_bike", "lat": 38.8921435, "is_reserved": 0, "is_disabled": 0, "fusion_lon": 0.0, "bike_id": "7ac5136c950f4f92e5351937d523ab3e", "lon": -77.10780533333333, "rental_uris": {"ios": "https://dc.lft.to/lastmile_qr_scan", "android": "https://dc.lft.to/lastmile_qr_scan"}}, {"name": "635b15d64946a1be279fe48490ae102d", "fusion_lat": 0.0, "type": "electric_scooter", "lat": 38.84630083333333, "is_reserved": 0, "is_disabled": 0, "fusion_lon": 0.0, "bike_id": "635b15d64946a1be279fe48490ae102d", "lon": -76.98442316666667, "rental_uris": {"ios": "https://dc.lft.to/lastmile_qr_scan", "android": "https://dc.lft.to/lastmile_qr_scan"}}, {"name": "ac91c659211af388c037a0ef17fb475a", "fusion_lat": 0.0, "type": "electric_scooter", "lat": 38.9058555, "is_reserved": 0, "is_disabled": 0, "fusion_lon": 0.0, "bike_id": "ac91c659211af388c037a0ef17fb475a", "lon": -77.016179, "rental_uris": {"ios": "https://dc.lft.to/lastmile_qr_scan", "android": "https://dc.lft.to/lastmile_qr_scan"}}, {"name": "662845a89d3d84495f34a40767737bb1", "fusion_lat": 0.0, "type": "electric_scooter", "lat": 38.88497866666667, "is_reserved": 0, "is_disabled": 0, "fusion_lon": 0.0, "bike_id": "662845a89d3d84495f34a40767737bb1", "lon": -77.01580766666666, "rental_uris": {"ios": "https://dc.lft.to/lastmile_qr_scan", "android": "https://dc.lft.to/lastmile_qr_scan"}}, {"name": "b24cc785651ba2a6ea466b94bc2bbe26", "fusion_lat": 0.0, "type": "electric_scooter", "lat": 38.923583, "is_reserved": 0, "is_disabled": 0, "fusion_lon": 0.0, "bike_id": "b24cc785651ba2a6ea466b94bc2bbe26", "lon": -77.033669, "rental_uris": {"ios": "https://dc.lft.to/lastmile_qr_scan", "android": "https://dc.lft.to/lastmile_qr_scan"}}, {"name": "16c4cfe8effc2a23e8683fa35dfb05ec", "fusion_lat": 0.0, "type": "electric_scooter", "lat": 38.897397, "is_reserved": 0, "is_disabled": 0, "fusion_lon": 0.0, "bike_id": "16c4cfe8effc2a23e8683fa35dfb05ec", "lon": -77.02593666666667, "rental_uris": {"ios": "https://dc.lft.to/lastmile_qr_scan", "android": "https://dc.lft.to/lastmile_qr_scan"}}, {"name": "63e25a30168ad039823c966963ca0580", "fusion_lat": 0.0, "type": "electric_bike", "lat": 38.907157833333336, "is_reserved": 0, "is_disabled": 0, "fusion_lon": 0.0, "bike_id": "63e25a30168ad039823c966963ca0580", "lon": -77.04330033333333, "rental_uris": {"ios": "https://dc.lft.to/lastmile_qr_scan", "android": "https://dc.lft.to/lastmile_qr_scan"}}, {"name": "bc0275a88f6ae95ea30781a17f3af0e9", "fusion_lat": 0.0, "type": "electric_scooter", "lat": 38.846783, "is_reserved": 0, "is_disabled": 0, "fusion_lon": 0.0, "bike_id": "bc0275a88f6ae95ea30781a17f3af0e9", "lon": -76.99200166666667, "rental_uris": {"ios": "https://dc.lft.to/lastmile_qr_scan", "android": "https://dc.lft.to/lastmile_qr_scan"}}, {"name": "862120fe1a59ce7da8e8a8a050cb3b13", "fusion_lat": 0.0, "type": "electric_scooter", "lat": 38.858042, "is_reserved": 0, "is_disabled": 0, "fusion_lon": 0.0, "bike_id": "862120fe1a59ce7da8e8a8a050cb3b13", "lon": -76.9865245, "rental_uris": {"ios": "https://dc.lft.to/lastmile_qr_scan", "android": "https://dc.lft.to/lastmile_qr_scan"}}, {"name": "27a0b8e3a8d84422638f8b03d8b0a628", "fusion_lat": 0.0, "type": "electric_scooter", "lat": 38.9326065, "is_reserved": 0, "is_disabled": 0, "fusion_lon": 0.0, "bike_id": "27a0b8e3a8d84422638f8b03d8b0a628", "lon": -77.03894783333334, "rental_uris": {"ios": "https://dc.lft.to/lastmile_qr_scan", "android": "https://dc.lft.to/lastmile_qr_scan"}}, {"name": "a9e33de2c8415369f234c43d2b49ecf9", "fusion_lat": 0.0, "type": "electric_scooter", "lat": 38.938193, "is_reserved": 0, "is_disabled": 0, "fusion_lon": 0.0, "bike_id": "a9e33de2c8415369f234c43d2b49ecf9", "lon": -77.02477616666667, "rental_uris": {"ios": "https://dc.lft.to/lastmile_qr_scan", "android": "https://dc.lft.to/lastmile_qr_scan"}}, {"name": "4e42156ad12d1cf260e2064d48e10738", "fusion_lat": 0.0, "type": "electric_scooter", "lat": 38.8571785, "is_reserved": 0, "is_disabled": 0, "fusion_lon": 0.0, "bike_id": "4e42156ad12d1cf260e2064d48e10738", "lon": -76.98085033333334, "rental_uris": {"ios": "https://dc.lft.to/lastmile_qr_scan", "android": "https://dc.lft.to/lastmile_qr_scan"}}, {"name": "765b80c8b604ddd8b0e6764c1dbafaf8", "fusion_lat": 0.0, "type": "electric_scooter", "lat": 38.901113, "is_reserved": 0, "is_disabled": 0, "fusion_lon": 0.0, "bike_id": "765b80c8b604ddd8b0e6764c1dbafaf8", "lon": -77.04998966666666, "rental_uris": {"ios": "https://dc.lft.to/lastmile_qr_scan", "android": "https://dc.lft.to/lastmile_qr_scan"}}, {"name": "f52cc195d71f04e40a953bd07b9b5b39", "fusion_lat": 0.0, "type": "electric_scooter", "lat": 38.88305316666667, "is_reserved": 0, "is_disabled": 0, "fusion_lon": 0.0, "bike_id": "f52cc195d71f04e40a953bd07b9b5b39", "lon": -77.0166665, "rental_uris": {"ios": "https://dc.lft.to/lastmile_qr_scan", "android": "https://dc.lft.to/lastmile_qr_scan"}}, {"name": "38695df957af95683fa9e7fd61fd0b29", "fusion_lat": 0.0, "type": "electric_scooter", "lat": 38.8985135, "is_reserved": 0, "is_disabled": 0, "fusion_lon": 0.0, "bike_id": "38695df957af95683fa9e7fd61fd0b29", "lon": -76.97656316666666, "rental_uris": {"ios": "https://dc.lft.to/lastmile_qr_scan", "android": "https://dc.lft.to/lastmile_qr_scan"}}, {"name": "3833f75461caa5b9ab5f9baf1f29188d", "fusion_lat": 0.0, "type": "electric_bike", "lat": 38.99057166666667, "is_reserved": 0, "is_disabled": 0, "fusion_lon": 0.0, "bike_id": "3833f75461caa5b9ab5f9baf1f29188d", "lon": -77.10027866666667, "rental_uris": {"ios": "https://dc.lft.to/lastmile_qr_scan", "android": "https://dc.lft.to/lastmile_qr_scan"}}, {"name": "4d3e034ab91dfe00a64bb9f9b8b1d85b", "fusion_lat": 0.0, "type": "electric_scooter", "lat": 38.90241316666667, "is_reserved": 0, "is_disabled": 0, "fusion_lon": 0.0, "bike_id": "4d3e034ab91dfe00a64bb9f9b8b1d85b", "lon": -77.04339816666666, "rental_uris": {"ios": "https://dc.lft.to/lastmile_qr_scan", "android": "https://dc.lft.to/lastmile_qr_scan"}}, {"name": "fa6d27cfe0ca51647b194c98eb9b22cb", "fusion_lat": 0.0, "type": "electric_scooter", "lat": 38.918249, "is_reserved": 0, "is_disabled": 0, "fusion_lon": 0.0, "bike_id": "fa6d27cfe0ca51647b194c98eb9b22cb", "lon": -77.0456035, "rental_uris": {"ios": "https://dc.lft.to/lastmile_qr_scan", "android": "https://dc.lft.to/lastmile_qr_scan"}}, {"name": "adfe3218efd2c3653ff35458eccaceec", "fusion_lat": 0.0, "type": "electric_scooter", "lat": 38.90381683333333, "is_reserved": 0, "is_disabled": 0, "fusion_lon": 0.0, "bike_id": "adfe3218efd2c3653ff35458eccaceec", "lon": -77.048352, "rental_uris": {"ios": "https://dc.lft.to/lastmile_qr_scan", "android": "https://dc.lft.to/lastmile_qr_scan"}}, {"name": "eb59c2dec11b6c8107680bd209fb5385", "fusion_lat": 0.0, "type": "electric_scooter", "lat": 38.90155333333333, "is_reserved": 0, "is_disabled": 0, "fusion_lon": 0.0, "bike_id": "eb59c2dec11b6c8107680bd209fb5385", "lon": -77.0185625, "rental_uris": {"ios": "https://dc.lft.to/lastmile_qr_scan", "android": "https://dc.lft.to/lastmile_qr_scan"}}, {"name": "25854ec4f6ae210fe706bbb874204700", "fusion_lat": 0.0, "type": "electric_bike", "lat": 38.94619433333333, "is_reserved": 0, "is_disabled": 0, "fusion_lon": 0.0, "bike_id": "25854ec4f6ae210fe706bbb874204700", "lon": -77.08045966666667, "rental_uris": {"ios": "https://dc.lft.to/lastmile_qr_scan", "android": "https://dc.lft.to/lastmile_qr_scan"}}, {"name": "3089e01fab4a0afc96da893b6ed3b4b7", "fusion_lat": 0.0, "type": "electric_bike", "lat": 38.923286166666664, "is_reserved": 0, "is_disabled": 0, "fusion_lon": 0.0, "bike_id": "3089e01fab4a0afc96da893b6ed3b4b7", "lon": -77.02291816666667, "rental_uris": {"ios": "https://dc.lft.to/lastmile_qr_scan", "android": "https://dc.lft.to/lastmile_qr_scan"}}, {"name": "680decfc1823e67d63cb5ad767384fbd", "fusion_lat": 0.0, "type": "electric_scooter", "lat": 38.9564115, "is_reserved": 0, "is_disabled": 0, "fusion_lon": 0.0, "bike_id": "680decfc1823e67d63cb5ad767384fbd", "lon": -77.02271466666667, "rental_uris": {"ios": "https://dc.lft.to/lastmile_qr_scan", "android": "https://dc.lft.to/lastmile_qr_scan"}}, {"name": "ee976ec7211518bb2c27ddd0c46ac28f", "fusion_lat": 0.0, "type": "electric_scooter", "lat": 38.90529016666667, "is_reserved": 0, "is_disabled": 0, "fusion_lon": 0.0, "bike_id": "ee976ec7211518bb2c27ddd0c46ac28f", "lon": -77.0450505, "rental_uris": {"ios": "https://dc.lft.to/lastmile_qr_scan", "android": "https://dc.lft.to/lastmile_qr_scan"}}, {"name": "00157e979aa12d2b366a31b18c03e798", "fusion_lat": 0.0, "type": "electric_scooter", "lat": 38.917574333333334, "is_reserved": 0, "is_disabled": 0, "fusion_lon": 0.0, "bike_id": "00157e979aa12d2b366a31b18c03e798", "lon": -77.02511, "rental_uris": {"ios": "https://dc.lft.to/lastmile_qr_scan", "android": "https://dc.lft.to/lastmile_qr_scan"}}, {"name": "2cbdd01caad2762192d859d49c6336ce", "fusion_lat": 0.0, "type": "electric_scooter", "lat": 38.888656833333336, "is_reserved": 0, "is_disabled": 0, "fusion_lon": 0.0, "bike_id": "2cbdd01caad2762192d859d49c6336ce", "lon": -77.03998866666667, "rental_uris": {"ios": "https://dc.lft.to/lastmile_qr_scan", "android": "https://dc.lft.to/lastmile_qr_scan"}}, {"name": "8d85bff8b92aa55285d7ea50956cee0a", "fusion_lat": 0.0, "type": "electric_scooter", "lat": 38.917223166666666, "is_reserved": 0, "is_disabled": 0, "fusion_lon": 0.0, "bike_id": "8d85bff8b92aa55285d7ea50956cee0a", "lon": -77.01862833333334, "rental_uris": {"ios": "https://dc.lft.to/lastmile_qr_scan", "android": "https://dc.lft.to/lastmile_qr_scan"}}, {"name": "c18f5c0ea75cecae9565a9ced30ce71f", "fusion_lat": 0.0, "type": "electric_bike", "lat": 38.8448135, "is_reserved": 0, "is_disabled": 0, "fusion_lon": 0.0, "bike_id": "c18f5c0ea75cecae9565a9ced30ce71f", "lon": -76.9722065, "rental_uris": {"ios": "https://dc.lft.to/lastmile_qr_scan", "android": "https://dc.lft.to/lastmile_qr_scan"}}, {"name": "409741f884625beb943a94a441b96844", "fusion_lat": 0.0, "type": "electric_scooter", "lat": 38.9020155, "is_reserved": 0, "is_disabled": 0, "fusion_lon": 0.0, "bike_id": "409741f884625beb943a94a441b96844", "lon": -77.0505545, "rental_uris": {"ios": "https://dc.lft.to/lastmile_qr_scan", "android": "https://dc.lft.to/lastmile_qr_scan"}}, {"name": "0434fb1a1ab48d0e549b6cd889d7a72f", "fusion_lat": 0.0, "type": "electric_scooter", "lat": 38.91246683333333, "is_reserved": 0, "is_disabled": 0, "fusion_lon": 0.0, "bike_id": "0434fb1a1ab48d0e549b6cd889d7a72f", "lon": -77.03838966666666, "rental_uris": {"ios": "https://dc.lft.to/lastmile_qr_scan", "android": "https://dc.lft.to/lastmile_qr_scan"}}, {"name": "07d4bacfb1cd1564a58ff8a4cdec2088", "fusion_lat": 0.0, "type": "electric_scooter", "lat": 38.91196033333333, "is_reserved": 0, "is_disabled": 0, "fusion_lon": 0.0, "bike_id": "07d4bacfb1cd1564a58ff8a4cdec2088", "lon": -77.045346, "rental_uris": {"ios": "https://dc.lft.to/lastmile_qr_scan", "android": "https://dc.lft.to/lastmile_qr_scan"}}, {"name": "196e74688d69843903917a3f5d44e9b4", "fusion_lat": 0.0, "type": "electric_scooter", "lat": 38.876611, "is_reserved": 0, "is_disabled": 0, "fusion_lon": 0.0, "bike_id": "196e74688d69843903917a3f5d44e9b4", "lon": -77.00421466666667, "rental_uris": {"ios": "https://dc.lft.to/lastmile_qr_scan", "android": "https://dc.lft.to/lastmile_qr_scan"}}, {"name": "49a736df33c6e2e4bdd1a6a313e808a3", "fusion_lat": 0.0, "type": "electric_scooter", "lat": 38.901364, "is_reserved": 0, "is_disabled": 0, "fusion_lon": 0.0, "bike_id": "49a736df33c6e2e4bdd1a6a313e808a3", "lon": -77.0463315, "rental_uris": {"ios": "https://dc.lft.to/lastmile_qr_scan", "android": "https://dc.lft.to/lastmile_qr_scan"}}, {"name": "96f7b7334545b808588af0ed5498d64b", "fusion_lat": 0.0, "type": "electric_bike", "lat": 38.9708815, "is_reserved": 0, "is_disabled": 0, "fusion_lon": 0.0, "bike_id": "96f7b7334545b808588af0ed5498d64b", "lon": -77.0696465, "rental_uris": {"ios": "https://dc.lft.to/lastmile_qr_scan", "android": "https://dc.lft.to/lastmile_qr_scan"}}, {"name": "66f486faedba14b084f7a273a8acf978", "fusion_lat": 0.0, "type": "electric_scooter", "lat": 38.91329966666667, "is_reserved": 0, "is_disabled": 0, "fusion_lon": 0.0, "bike_id": "66f486faedba14b084f7a273a8acf978", "lon": -77.0486955, "rental_uris": {"ios": "https://dc.lft.to/lastmile_qr_scan", "android": "https://dc.lft.to/lastmile_qr_scan"}}, {"name": "9da0fd1b2925fb901fc1eb5cfb48b136", "fusion_lat": 0.0, "type": "electric_scooter", "lat": 38.92619116666667, "is_reserved": 0, "is_disabled": 0, "fusion_lon": 0.0, "bike_id": "9da0fd1b2925fb901fc1eb5cfb48b136", "lon": -77.03785583333334, "rental_uris": {"ios": "https://dc.lft.to/lastmile_qr_scan", "android": "https://dc.lft.to/lastmile_qr_scan"}}, {"name": "7fa9fd0e77aeb333cb6889194561df52", "fusion_lat": 0.0, "type": "electric_bike", "lat": 38.863731, "is_reserved": 0, "is_disabled": 0, "fusion_lon": 0.0, "bike_id": "7fa9fd0e77aeb333cb6889194561df52", "lon": -77.12899933333334, "rental_uris": {"ios": "https://dc.lft.to/lastmile_qr_scan", "android": "https://dc.lft.to/lastmile_qr_scan"}}, {"name": "43adf80bc66efeeec989d3ef75e13c59", "fusion_lat": 0.0, "type": "electric_scooter", "lat": 38.920211, "is_reserved": 0, "is_disabled": 0, "fusion_lon": 0.0, "bike_id": "43adf80bc66efeeec989d3ef75e13c59", "lon": -77.0312335, "rental_uris": {"ios": "https://dc.lft.to/lastmile_qr_scan", "android": "https://dc.lft.to/lastmile_qr_scan"}}, {"name": "0a1e15a327b337d0eca164e608ff8f38", "fusion_lat": 0.0, "type": "electric_scooter", "lat": 38.905426, "is_reserved": 0, "is_disabled": 0, "fusion_lon": 0.0, "bike_id": "0a1e15a327b337d0eca164e608ff8f38", "lon": -77.00550583333333, "rental_uris": {"ios": "https://dc.lft.to/lastmile_qr_scan", "android": "https://dc.lft.to/lastmile_qr_scan"}}, {"name": "82e983c5743be2ca935337fa3298f4a1", "fusion_lat": 0.0, "type": "electric_scooter", "lat": 38.91063916666667, "is_reserved": 0, "is_disabled": 0, "fusion_lon": 0.0, "bike_id": "82e983c5743be2ca935337fa3298f4a1", "lon": -77.00857216666667, "rental_uris": {"ios": "https://dc.lft.to/lastmile_qr_scan", "android": "https://dc.lft.to/lastmile_qr_scan"}}, {"name": "38ddfc6555fe0b76eb792d7e3069bf3e", "fusion_lat": 0.0, "type": "electric_scooter", "lat": 38.8923785, "is_reserved": 0, "is_disabled": 0, "fusion_lon": 0.0, "bike_id": "38ddfc6555fe0b76eb792d7e3069bf3e", "lon": -77.0151605, "rental_uris": {"ios": "https://dc.lft.to/lastmile_qr_scan", "android": "https://dc.lft.to/lastmile_qr_scan"}}, {"name": "b9a8b68b1d4e4317fdb8101c69b8f6f2", "fusion_lat": 0.0, "type": "electric_scooter", "lat": 38.918517333333334, "is_reserved": 0, "is_disabled": 0, "fusion_lon": 0.0, "bike_id": "b9a8b68b1d4e4317fdb8101c69b8f6f2", "lon": -77.04587366666667, "rental_uris": {"ios": "https://dc.lft.to/lastmile_qr_scan", "android": "https://dc.lft.to/lastmile_qr_scan"}}, {"name": "31e46c4574cb287e490e594ab297f05c", "fusion_lat": 0.0, "type": "electric_scooter", "lat": 38.896232833333336, "is_reserved": 0, "is_disabled": 0, "fusion_lon": 0.0, "bike_id": "31e46c4574cb287e490e594ab297f05c", "lon": -77.028275, "rental_uris": {"ios": "https://dc.lft.to/lastmile_qr_scan", "android": "https://dc.lft.to/lastmile_qr_scan"}}, {"name": "b0e5d1d847f1f8e04abb814aadedad94", "fusion_lat": 0.0, "type": "electric_scooter", "lat": 38.874224166666664, "is_reserved": 0, "is_disabled": 0, "fusion_lon": 0.0, "bike_id": "b0e5d1d847f1f8e04abb814aadedad94", "lon": -77.02058483333333, "rental_uris": {"ios": "https://dc.lft.to/lastmile_qr_scan", "android": "https://dc.lft.to/lastmile_qr_scan"}}, {"name": "66328d80078eaf14748918ecdf8ee181", "fusion_lat": 0.0, "type": "electric_scooter", "lat": 38.92789466666667, "is_reserved": 0, "is_disabled": 0, "fusion_lon": 0.0, "bike_id": "66328d80078eaf14748918ecdf8ee181", "lon": -77.03257483333333, "rental_uris": {"ios": "https://dc.lft.to/lastmile_qr_scan", "android": "https://dc.lft.to/lastmile_qr_scan"}}, {"name": "39c94dbf66e22cded5815e34e1fd1577", "fusion_lat": 0.0, "type": "electric_scooter", "lat": 38.893279, "is_reserved": 0, "is_disabled": 0, "fusion_lon": 0.0, "bike_id": "39c94dbf66e22cded5815e34e1fd1577", "lon": -76.92889266666667, "rental_uris": {"ios": "https://dc.lft.to/lastmile_qr_scan", "android": "https://dc.lft.to/lastmile_qr_scan"}}, {"name": "53bf8db91cdf7589b4e873db7d0f554e", "fusion_lat": 0.0, "type": "electric_scooter", "lat": 38.8636625, "is_reserved": 0, "is_disabled": 0, "fusion_lon": 0.0, "bike_id": "53bf8db91cdf7589b4e873db7d0f554e", "lon": -77.01365783333334, "rental_uris": {"ios": "https://dc.lft.to/lastmile_qr_scan", "android": "https://dc.lft.to/lastmile_qr_scan"}}, {"name": "5d15ca12910eea227b452a9a6044f5f4", "fusion_lat": 0.0, "type": "electric_scooter", "lat": 38.90325333333333, "is_reserved": 0, "is_disabled": 0, "fusion_lon": 0.0, "bike_id": "5d15ca12910eea227b452a9a6044f5f4", "lon": -77.02605083333333, "rental_uris": {"ios": "https://dc.lft.to/lastmile_qr_scan", "android": "https://dc.lft.to/lastmile_qr_scan"}}, {"name": "88f90eb8ea87b9265c5ec8e26e220c3b", "fusion_lat": 0.0, "type": "electric_bike", "lat": 38.93055966666667, "is_reserved": 0, "is_disabled": 0, "fusion_lon": 0.0, "bike_id": "88f90eb8ea87b9265c5ec8e26e220c3b", "lon": -76.9732475, "rental_uris": {"ios": "https://dc.lft.to/lastmile_qr_scan", "android": "https://dc.lft.to/lastmile_qr_scan"}}, {"name": "5e74104926a4a2b58142f531e7a6b266", "fusion_lat": 0.0, "type": "electric_scooter", "lat": 38.88535516666666, "is_reserved": 0, "is_disabled": 0, "fusion_lon": 0.0, "bike_id": "5e74104926a4a2b58142f531e7a6b266", "lon": -77.03342616666667, "rental_uris": {"ios": "https://dc.lft.to/lastmile_qr_scan", "android": "https://dc.lft.to/lastmile_qr_scan"}}, {"name": "9a04fc2edc655b7faa292617e4cc8f51", "fusion_lat": 0.0, "type": "electric_bike", "lat": 38.90348766666666, "is_reserved": 0, "is_disabled": 0, "fusion_lon": 0.0, "bike_id": "9a04fc2edc655b7faa292617e4cc8f51", "lon": -77.04500666666667, "rental_uris": {"ios": "https://dc.lft.to/lastmile_qr_scan", "android": "https://dc.lft.to/lastmile_qr_scan"}}, {"name": "36a1df2078a4935b48ee11dca5087399", "fusion_lat": 0.0, "type": "electric_scooter", "lat": 38.89833983333333, "is_reserved": 0, "is_disabled": 0, "fusion_lon": 0.0, "bike_id": "36a1df2078a4935b48ee11dca5087399", "lon": -77.0074295, "rental_uris": {"ios": "https://dc.lft.to/lastmile_qr_scan", "android": "https://dc.lft.to/lastmile_qr_scan"}}, {"name": "e7dad7754f523c42ebe8ccfb2c4b8f3c", "fusion_lat": 0.0, "type": "electric_scooter", "lat": 38.931236166666665, "is_reserved": 0, "is_disabled": 0, "fusion_lon": 0.0, "bike_id": "e7dad7754f523c42ebe8ccfb2c4b8f3c", "lon": -77.028192, "rental_uris": {"ios": "https://dc.lft.to/lastmile_qr_scan", "android": "https://dc.lft.to/lastmile_qr_scan"}}, {"name": "fb50fedc8b5b52981748f967ca56c971", "fusion_lat": 0.0, "type": "electric_scooter", "lat": 38.929489333333336, "is_reserved": 0, "is_disabled": 0, "fusion_lon": 0.0, "bike_id": "fb50fedc8b5b52981748f967ca56c971", "lon": -77.03282016666667, "rental_uris": {"ios": "https://dc.lft.to/lastmile_qr_scan", "android": "https://dc.lft.to/lastmile_qr_scan"}}, {"name": "f116b035a9347cafec46c2148cf93388", "fusion_lat": 0.0, "type": "electric_scooter", "lat": 38.89191916666667, "is_reserved": 0, "is_disabled": 0, "fusion_lon": 0.0, "bike_id": "f116b035a9347cafec46c2148cf93388", "lon": -77.00286933333334, "rental_uris": {"ios": "https://dc.lft.to/lastmile_qr_scan", "android": "https://dc.lft.to/lastmile_qr_scan"}}, {"name": "baf9cb057a5abbdf23b981b59c2dcae7", "fusion_lat": 0.0, "type": "electric_scooter", "lat": 38.901325166666666, "is_reserved": 0, "is_disabled": 0, "fusion_lon": 0.0, "bike_id": "baf9cb057a5abbdf23b981b59c2dcae7", "lon": -76.99747866666667, "rental_uris": {"ios": "https://dc.lft.to/lastmile_qr_scan", "android": "https://dc.lft.to/lastmile_qr_scan"}}, {"name": "1019f2a341ae222e80f82a0ac402196c", "fusion_lat": 0.0, "type": "electric_scooter", "lat": 38.895712833333334, "is_reserved": 0, "is_disabled": 0, "fusion_lon": 0.0, "bike_id": "1019f2a341ae222e80f82a0ac402196c", "lon": -76.94867233333333, "rental_uris": {"ios": "https://dc.lft.to/lastmile_qr_scan", "android": "https://dc.lft.to/lastmile_qr_scan"}}, {"name": "b0966a1909103a0e27760c5c9cd5f70e", "fusion_lat": 0.0, "type": "electric_bike", "lat": 38.83229733333334, "is_reserved": 0, "is_disabled": 0, "fusion_lon": 0.0, "bike_id": "b0966a1909103a0e27760c5c9cd5f70e", "lon": -76.9461845, "rental_uris": {"ios": "https://dc.lft.to/lastmile_qr_scan", "android": "https://dc.lft.to/lastmile_qr_scan"}}, {"name": "6a43e58e65d6fbe57b5a1f6fc40c76b8", "fusion_lat": 0.0, "type": "electric_scooter", "lat": 38.883817, "is_reserved": 0, "is_disabled": 0, "fusion_lon": 0.0, "bike_id": "6a43e58e65d6fbe57b5a1f6fc40c76b8", "lon": -76.98550916666667, "rental_uris": {"ios": "https://dc.lft.to/lastmile_qr_scan", "android": "https://dc.lft.to/lastmile_qr_scan"}}, {"name": "7580b08fcb7f337d9bf66ba390f7b9a3", "fusion_lat": 0.0, "type": "electric_scooter", "lat": 38.899025, "is_reserved": 0, "is_disabled": 0, "fusion_lon": 0.0, "bike_id": "7580b08fcb7f337d9bf66ba390f7b9a3", "lon": -77.03942383333333, "rental_uris": {"ios": "https://dc.lft.to/lastmile_qr_scan", "android": "https://dc.lft.to/lastmile_qr_scan"}}, {"name": "f9dafb099b57575ad28b5ffb5fc7d8f2", "fusion_lat": 0.0, "type": "electric_scooter", "lat": 38.93956633333333, "is_reserved": 0, "is_disabled": 0, "fusion_lon": 0.0, "bike_id": "f9dafb099b57575ad28b5ffb5fc7d8f2", "lon": -77.0274785, "rental_uris": {"ios": "https://dc.lft.to/lastmile_qr_scan", "android": "https://dc.lft.to/lastmile_qr_scan"}}, {"name": "079dc2318418ddbc9b4cdbdd7cfd5015", "fusion_lat": 0.0, "type": "electric_scooter", "lat": 38.933325833333335, "is_reserved": 0, "is_disabled": 0, "fusion_lon": 0.0, "bike_id": "079dc2318418ddbc9b4cdbdd7cfd5015", "lon": -77.04366833333333, "rental_uris": {"ios": "https://dc.lft.to/lastmile_qr_scan", "android": "https://dc.lft.to/lastmile_qr_scan"}}, {"name": "c1a2394cec8df7f38c9120011730517a", "fusion_lat": 0.0, "type": "electric_scooter", "lat": 38.904072666666664, "is_reserved": 0, "is_disabled": 0, "fusion_lon": 0.0, "bike_id": "c1a2394cec8df7f38c9120011730517a", "lon": -77.038556, "rental_uris": {"ios": "https://dc.lft.to/lastmile_qr_scan", "android": "https://dc.lft.to/lastmile_qr_scan"}}, {"name": "30022beb7f329f506fcbd2f71608940e", "fusion_lat": 0.0, "type": "electric_scooter", "lat": 38.8929105, "is_reserved": 0, "is_disabled": 0, "fusion_lon": 0.0, "bike_id": "30022beb7f329f506fcbd2f71608940e", "lon": -76.93927983333333, "rental_uris": {"ios": "https://dc.lft.to/lastmile_qr_scan", "android": "https://dc.lft.to/lastmile_qr_scan"}}, {"name": "76c25df720126af8e7119b96eefaa80d", "fusion_lat": 0.0, "type": "electric_scooter", "lat": 38.90178383333333, "is_reserved": 0, "is_disabled": 0, "fusion_lon": 0.0, "bike_id": "76c25df720126af8e7119b96eefaa80d", "lon": -77.05019583333333, "rental_uris": {"ios": "https://dc.lft.to/lastmile_qr_scan", "android": "https://dc.lft.to/lastmile_qr_scan"}}, {"name": "661318fff5106fcd2715f209128b7c8d", "fusion_lat": 0.0, "type": "electric_scooter", "lat": 38.886194833333334, "is_reserved": 0, "is_disabled": 0, "fusion_lon": 0.0, "bike_id": "661318fff5106fcd2715f209128b7c8d", "lon": -77.01534533333333, "rental_uris": {"ios": "https://dc.lft.to/lastmile_qr_scan", "android": "https://dc.lft.to/lastmile_qr_scan"}}, {"name": "9dd185a85d9c004dcacdd7cfa6d54405", "fusion_lat": 0.0, "type": "electric_scooter", "lat": 38.90683883333333, "is_reserved": 0, "is_disabled": 0, "fusion_lon": 0.0, "bike_id": "9dd185a85d9c004dcacdd7cfa6d54405", "lon": -77.03844683333334, "rental_uris": {"ios": "https://dc.lft.to/lastmile_qr_scan", "android": "https://dc.lft.to/lastmile_qr_scan"}}, {"name": "74b13282fa4ebac38e31716b5b63722c", "fusion_lat": 0.0, "type": "electric_scooter", "lat": 38.904915, "is_reserved": 0, "is_disabled": 0, "fusion_lon": 0.0, "bike_id": "74b13282fa4ebac38e31716b5b63722c", "lon": -77.0345515, "rental_uris": {"ios": "https://dc.lft.to/lastmile_qr_scan", "android": "https://dc.lft.to/lastmile_qr_scan"}}, {"name": "2d166fce6c437c014839d52f0d728824", "fusion_lat": 0.0, "type": "electric_scooter", "lat": 38.91324083333333, "is_reserved": 0, "is_disabled": 0, "fusion_lon": 0.0, "bike_id": "2d166fce6c437c014839d52f0d728824", "lon": -77.045304, "rental_uris": {"ios": "https://dc.lft.to/lastmile_qr_scan", "android": "https://dc.lft.to/lastmile_qr_scan"}}, {"name": "71c72af331d843771cb391e62d0dfd2f", "fusion_lat": 0.0, "type": "electric_bike", "lat": 38.95954116666667, "is_reserved": 0, "is_disabled": 0, "fusion_lon": 0.0, "bike_id": "71c72af331d843771cb391e62d0dfd2f", "lon": -77.1008615, "rental_uris": {"ios": "https://dc.lft.to/lastmile_qr_scan", "android": "https://dc.lft.to/lastmile_qr_scan"}}, {"name": "4ed448337e411e5cf6a3b0f284c98164", "fusion_lat": 0.0, "type": "electric_bike", "lat": 38.857864666666664, "is_reserved": 0, "is_disabled": 0, "fusion_lon": 0.0, "bike_id": "4ed448337e411e5cf6a3b0f284c98164", "lon": -76.98743233333333, "rental_uris": {"ios": "https://dc.lft.to/lastmile_qr_scan", "android": "https://dc.lft.to/lastmile_qr_scan"}}, {"name": "6d14a49ea514cff57ad17ca7539a478a", "fusion_lat": 0.0, "type": "electric_scooter", "lat": 38.88364, "is_reserved": 0, "is_disabled": 0, "fusion_lon": 0.0, "bike_id": "6d14a49ea514cff57ad17ca7539a478a", "lon": -77.02621916666666, "rental_uris": {"ios": "https://dc.lft.to/lastmile_qr_scan", "android": "https://dc.lft.to/lastmile_qr_scan"}}, {"name": "6d8243b9448ced839ffe7be3633d6176", "fusion_lat": 0.0, "type": "electric_scooter", "lat": 38.90649, "is_reserved": 0, "is_disabled": 0, "fusion_lon": 0.0, "bike_id": "6d8243b9448ced839ffe7be3633d6176", "lon": -77.03873816666666, "rental_uris": {"ios": "https://dc.lft.to/lastmile_qr_scan", "android": "https://dc.lft.to/lastmile_qr_scan"}}, {"name": "1e48cb6cf605a68da7c73ec9a979aea3", "fusion_lat": 0.0, "type": "electric_scooter", "lat": 38.93264333333333, "is_reserved": 0, "is_disabled": 0, "fusion_lon": 0.0, "bike_id": "1e48cb6cf605a68da7c73ec9a979aea3", "lon": -77.03898383333333, "rental_uris": {"ios": "https://dc.lft.to/lastmile_qr_scan", "android": "https://dc.lft.to/lastmile_qr_scan"}}, {"name": "c7c2170eef897a1e415e7838148173f0", "fusion_lat": 0.0, "type": "electric_scooter", "lat": 38.8922475, "is_reserved": 0, "is_disabled": 0, "fusion_lon": 0.0, "bike_id": "c7c2170eef897a1e415e7838148173f0", "lon": -77.05000816666667, "rental_uris": {"ios": "https://dc.lft.to/lastmile_qr_scan", "android": "https://dc.lft.to/lastmile_qr_scan"}}, {"name": "d948f0f5a3678c613d0fdd4b09481be2", "fusion_lat": 0.0, "type": "electric_scooter", "lat": 38.9063445, "is_reserved": 0, "is_disabled": 0, "fusion_lon": 0.0, "bike_id": "d948f0f5a3678c613d0fdd4b09481be2", "lon": -77.03468216666667, "rental_uris": {"ios": "https://dc.lft.to/lastmile_qr_scan", "android": "https://dc.lft.to/lastmile_qr_scan"}}, {"name": "4aa7bfaa9ada6c77a6f79c493579d63e", "fusion_lat": 0.0, "type": "electric_scooter", "lat": 38.905642666666665, "is_reserved": 0, "is_disabled": 0, "fusion_lon": 0.0, "bike_id": "4aa7bfaa9ada6c77a6f79c493579d63e", "lon": -77.02212933333334, "rental_uris": {"ios": "https://dc.lft.to/lastmile_qr_scan", "android": "https://dc.lft.to/lastmile_qr_scan"}}, {"name": "ef93d54925686c07cb182ca2ed5a61a8", "fusion_lat": 0.0, "type": "electric_bike", "lat": 38.911821, "is_reserved": 0, "is_disabled": 0, "fusion_lon": 0.0, "bike_id": "ef93d54925686c07cb182ca2ed5a61a8", "lon": -77.00192033333333, "rental_uris": {"ios": "https://dc.lft.to/lastmile_qr_scan", "android": "https://dc.lft.to/lastmile_qr_scan"}}, {"name": "0298f781f37a7dc5dd8209ad1d84a2da", "fusion_lat": 0.0, "type": "electric_scooter", "lat": 38.90721333333333, "is_reserved": 0, "is_disabled": 0, "fusion_lon": 0.0, "bike_id": "0298f781f37a7dc5dd8209ad1d84a2da", "lon": -77.04323033333333, "rental_uris": {"ios": "https://dc.lft.to/lastmile_qr_scan", "android": "https://dc.lft.to/lastmile_qr_scan"}}, {"name": "0b2fad6708c003a5b4506a3825212568", "fusion_lat": 0.0, "type": "electric_scooter", "lat": 38.896856, "is_reserved": 0, "is_disabled": 0, "fusion_lon": 0.0, "bike_id": "0b2fad6708c003a5b4506a3825212568", "lon": -77.00500266666667, "rental_uris": {"ios": "https://dc.lft.to/lastmile_qr_scan", "android": "https://dc.lft.to/lastmile_qr_scan"}}, {"name": "ef8216f57a04feac6aa8a5880d73e5cb", "fusion_lat": 0.0, "type": "electric_scooter", "lat": 38.84538283333333, "is_reserved": 0, "is_disabled": 0, "fusion_lon": 0.0, "bike_id": "ef8216f57a04feac6aa8a5880d73e5cb", "lon": -76.99593983333334, "rental_uris": {"ios": "https://dc.lft.to/lastmile_qr_scan", "android": "https://dc.lft.to/lastmile_qr_scan"}}, {"name": "9f3b85851370ff3ff710be97619b8dd5", "fusion_lat": 0.0, "type": "electric_scooter", "lat": 38.90413566666667, "is_reserved": 0, "is_disabled": 0, "fusion_lon": 0.0, "bike_id": "9f3b85851370ff3ff710be97619b8dd5", "lon": -76.978896, "rental_uris": {"ios": "https://dc.lft.to/lastmile_qr_scan", "android": "https://dc.lft.to/lastmile_qr_scan"}}, {"name": "dd3ad3ee9c41f3bccbed12f38ebc48d0", "fusion_lat": 0.0, "type": "electric_scooter", "lat": 38.91853533333333, "is_reserved": 0, "is_disabled": 0, "fusion_lon": 0.0, "bike_id": "dd3ad3ee9c41f3bccbed12f38ebc48d0", "lon": -77.02599933333333, "rental_uris": {"ios": "https://dc.lft.to/lastmile_qr_scan", "android": "https://dc.lft.to/lastmile_qr_scan"}}, {"name": "f6516f623d2fad49974c505542116053", "fusion_lat": 0.0, "type": "electric_scooter", "lat": 38.8999065, "is_reserved": 0, "is_disabled": 0, "fusion_lon": 0.0, "bike_id": "f6516f623d2fad49974c505542116053", "lon": -76.99616933333333, "rental_uris": {"ios": "https://dc.lft.to/lastmile_qr_scan", "android": "https://dc.lft.to/lastmile_qr_scan"}}, {"name": "14282be9b13f8435e70432efdb5ba6ec", "fusion_lat": 0.0, "type": "electric_scooter", "lat": 38.90113316666667, "is_reserved": 0, "is_disabled": 0, "fusion_lon": 0.0, "bike_id": "14282be9b13f8435e70432efdb5ba6ec", "lon": -77.03184533333334, "rental_uris": {"ios": "https://dc.lft.to/lastmile_qr_scan", "android": "https://dc.lft.to/lastmile_qr_scan"}}, {"name": "fdf9fb1a0a82979bad8883efff1064c3", "fusion_lat": 0.0, "type": "electric_scooter", "lat": 38.91628583333333, "is_reserved": 0, "is_disabled": 0, "fusion_lon": 0.0, "bike_id": "fdf9fb1a0a82979bad8883efff1064c3", "lon": -77.001053, "rental_uris": {"ios": "https://dc.lft.to/lastmile_qr_scan", "android": "https://dc.lft.to/lastmile_qr_scan"}}, {"name": "2267896df73bf9cc647f68374ba860b8", "fusion_lat": 0.0, "type": "electric_scooter", "lat": 38.906977, "is_reserved": 0, "is_disabled": 0, "fusion_lon": 0.0, "bike_id": "2267896df73bf9cc647f68374ba860b8", "lon": -77.02965116666667, "rental_uris": {"ios": "https://dc.lft.to/lastmile_qr_scan", "android": "https://dc.lft.to/lastmile_qr_scan"}}, {"name": "e51a10f74301c29e3642726ce57c6f5b", "fusion_lat": 0.0, "type": "electric_scooter", "lat": 38.9079605, "is_reserved": 0, "is_disabled": 0, "fusion_lon": 0.0, "bike_id": "e51a10f74301c29e3642726ce57c6f5b", "lon": -77.01815166666667, "rental_uris": {"ios": "https://dc.lft.to/lastmile_qr_scan", "android": "https://dc.lft.to/lastmile_qr_scan"}}, {"name": "711df81d2b77f046f9b6af59ded09118", "fusion_lat": 0.0, "type": "electric_scooter", "lat": 38.90253116666667, "is_reserved": 0, "is_disabled": 0, "fusion_lon": 0.0, "bike_id": "711df81d2b77f046f9b6af59ded09118", "lon": -76.977027, "rental_uris": {"ios": "https://dc.lft.to/lastmile_qr_scan", "android": "https://dc.lft.to/lastmile_qr_scan"}}, {"name": "cf156ab5a7f49d896988fcd2ac164687", "fusion_lat": 0.0, "type": "electric_scooter", "lat": 38.92820566666666, "is_reserved": 0, "is_disabled": 0, "fusion_lon": 0.0, "bike_id": "cf156ab5a7f49d896988fcd2ac164687", "lon": -77.0225455, "rental_uris": {"ios": "https://dc.lft.to/lastmile_qr_scan", "android": "https://dc.lft.to/lastmile_qr_scan"}}, {"name": "3cf5403d99c11f7185e39365ec204e4c", "fusion_lat": 0.0, "type": "electric_scooter", "lat": 38.92961433333333, "is_reserved": 0, "is_disabled": 0, "fusion_lon": 0.0, "bike_id": "3cf5403d99c11f7185e39365ec204e4c", "lon": -77.04111316666666, "rental_uris": {"ios": "https://dc.lft.to/lastmile_qr_scan", "android": "https://dc.lft.to/lastmile_qr_scan"}}, {"name": "f0d8fe57fa0b6725c1effc9eccfc60a8", "fusion_lat": 0.0, "type": "electric_scooter", "lat": 38.875745333333334, "is_reserved": 0, "is_disabled": 0, "fusion_lon": 0.0, "bike_id": "f0d8fe57fa0b6725c1effc9eccfc60a8", "lon": -77.01056533333333, "rental_uris": {"ios": "https://dc.lft.to/lastmile_qr_scan", "android": "https://dc.lft.to/lastmile_qr_scan"}}, {"name": "60456a847cd20dc68bb2acd7db0632da", "fusion_lat": 0.0, "type": "electric_scooter", "lat": 38.91764216666667, "is_reserved": 0, "is_disabled": 0, "fusion_lon": 0.0, "bike_id": "60456a847cd20dc68bb2acd7db0632da", "lon": -77.0967275, "rental_uris": {"ios": "https://dc.lft.to/lastmile_qr_scan", "android": "https://dc.lft.to/lastmile_qr_scan"}}, {"name": "e7225a7b06ae18642aa203c112095cdf", "fusion_lat": 0.0, "type": "electric_scooter", "lat": 38.924873, "is_reserved": 0, "is_disabled": 0, "fusion_lon": 0.0, "bike_id": "e7225a7b06ae18642aa203c112095cdf", "lon": -77.0217815, "rental_uris": {"ios": "https://dc.lft.to/lastmile_qr_scan", "android": "https://dc.lft.to/lastmile_qr_scan"}}, {"name": "4fc68115e579ce9594359a94cf93907d", "fusion_lat": 0.0, "type": "electric_scooter", "lat": 38.8954995, "is_reserved": 0, "is_disabled": 0, "fusion_lon": 0.0, "bike_id": "4fc68115e579ce9594359a94cf93907d", "lon": -76.94875216666667, "rental_uris": {"ios": "https://dc.lft.to/lastmile_qr_scan", "android": "https://dc.lft.to/lastmile_qr_scan"}}, {"name": "c3f0f418597337092c9ca766ca4344b4", "fusion_lat": 0.0, "type": "electric_scooter", "lat": 38.86655066666667, "is_reserved": 0, "is_disabled": 0, "fusion_lon": 0.0, "bike_id": "c3f0f418597337092c9ca766ca4344b4", "lon": -76.98882033333334, "rental_uris": {"ios": "https://dc.lft.to/lastmile_qr_scan", "android": "https://dc.lft.to/lastmile_qr_scan"}}, {"name": "2124c9d022ad6e01a93d4c2d9422b0e7", "fusion_lat": 0.0, "type": "electric_scooter", "lat": 38.9168895, "is_reserved": 0, "is_disabled": 0, "fusion_lon": 0.0, "bike_id": "2124c9d022ad6e01a93d4c2d9422b0e7", "lon": -77.01878, "rental_uris": {"ios": "https://dc.lft.to/lastmile_qr_scan", "android": "https://dc.lft.to/lastmile_qr_scan"}}, {"name": "4b692a3b991bad78262bff1e80dcc02e", "fusion_lat": 0.0, "type": "electric_scooter", "lat": 38.91108633333333, "is_reserved": 0, "is_disabled": 0, "fusion_lon": 0.0, "bike_id": "4b692a3b991bad78262bff1e80dcc02e", "lon": -77.02457916666667, "rental_uris": {"ios": "https://dc.lft.to/lastmile_qr_scan", "android": "https://dc.lft.to/lastmile_qr_scan"}}, {"name": "2fe4655f21718774e3a31d2d19c1b24f", "fusion_lat": 0.0, "type": "electric_scooter", "lat": 38.89605983333333, "is_reserved": 0, "is_disabled": 0, "fusion_lon": 0.0, "bike_id": "2fe4655f21718774e3a31d2d19c1b24f", "lon": -77.044633, "rental_uris": {"ios": "https://dc.lft.to/lastmile_qr_scan", "android": "https://dc.lft.to/lastmile_qr_scan"}}, {"name": "204c86c910f8710b818ff0e4c613bce0", "fusion_lat": 0.0, "type": "electric_scooter", "lat": 38.909826333333335, "is_reserved": 0, "is_disabled": 0, "fusion_lon": 0.0, "bike_id": "204c86c910f8710b818ff0e4c613bce0", "lon": -77.04262733333333, "rental_uris": {"ios": "https://dc.lft.to/lastmile_qr_scan", "android": "https://dc.lft.to/lastmile_qr_scan"}}, {"name": "cf3a63ded61cb92091bfe597eb8c34a0", "fusion_lat": 0.0, "type": "electric_scooter", "lat": 38.90732716666667, "is_reserved": 0, "is_disabled": 0, "fusion_lon": 0.0, "bike_id": "cf3a63ded61cb92091bfe597eb8c34a0", "lon": -77.04674166666666, "rental_uris": {"ios": "https://dc.lft.to/lastmile_qr_scan", "android": "https://dc.lft.to/lastmile_qr_scan"}}, {"name": "5a6d033085cd377f81c6974a7551b401", "fusion_lat": 0.0, "type": "electric_scooter", "lat": 38.91286433333333, "is_reserved": 0, "is_disabled": 0, "fusion_lon": 0.0, "bike_id": "5a6d033085cd377f81c6974a7551b401", "lon": -76.937499, "rental_uris": {"ios": "https://dc.lft.to/lastmile_qr_scan", "android": "https://dc.lft.to/lastmile_qr_scan"}}, {"name": "713a45133c687ffccdc09e14195cd9fc", "fusion_lat": 0.0, "type": "electric_scooter", "lat": 38.91184066666667, "is_reserved": 0, "is_disabled": 0, "fusion_lon": 0.0, "bike_id": "713a45133c687ffccdc09e14195cd9fc", "lon": -77.060906, "rental_uris": {"ios": "https://dc.lft.to/lastmile_qr_scan", "android": "https://dc.lft.to/lastmile_qr_scan"}}, {"name": "2cd275eb61476e3d76ac9e962a557d23", "fusion_lat": 0.0, "type": "electric_scooter", "lat": 38.91214766666667, "is_reserved": 0, "is_disabled": 0, "fusion_lon": 0.0, "bike_id": "2cd275eb61476e3d76ac9e962a557d23", "lon": -77.07588666666666, "rental_uris": {"ios": "https://dc.lft.to/lastmile_qr_scan", "android": "https://dc.lft.to/lastmile_qr_scan"}}, {"name": "6a48c39eafd5767492ef80221beb4728", "fusion_lat": 0.0, "type": "electric_scooter", "lat": 38.889928, "is_reserved": 0, "is_disabled": 0, "fusion_lon": 0.0, "bike_id": "6a48c39eafd5767492ef80221beb4728", "lon": -76.9541545, "rental_uris": {"ios": "https://dc.lft.to/lastmile_qr_scan", "android": "https://dc.lft.to/lastmile_qr_scan"}}, {"name": "073ed443f8b8b83d497425f290db2153", "fusion_lat": 0.0, "type": "electric_scooter", "lat": 38.91565116666666, "is_reserved": 0, "is_disabled": 0, "fusion_lon": 0.0, "bike_id": "073ed443f8b8b83d497425f290db2153", "lon": -77.011969, "rental_uris": {"ios": "https://dc.lft.to/lastmile_qr_scan", "android": "https://dc.lft.to/lastmile_qr_scan"}}, {"name": "b9cf1ef3bf2faf4b6e02e7460631b279", "fusion_lat": 0.0, "type": "electric_scooter", "lat": 38.902828, "is_reserved": 0, "is_disabled": 0, "fusion_lon": 0.0, "bike_id": "b9cf1ef3bf2faf4b6e02e7460631b279", "lon": -77.04380233333333, "rental_uris": {"ios": "https://dc.lft.to/lastmile_qr_scan", "android": "https://dc.lft.to/lastmile_qr_scan"}}, {"name": "b0091eec16ac01a23e05ca00f37bf062", "fusion_lat": 0.0, "type": "electric_scooter", "lat": 38.89478033333333, "is_reserved": 0, "is_disabled": 0, "fusion_lon": 0.0, "bike_id": "b0091eec16ac01a23e05ca00f37bf062", "lon": -76.9487315, "rental_uris": {"ios": "https://dc.lft.to/lastmile_qr_scan", "android": "https://dc.lft.to/lastmile_qr_scan"}}, {"name": "20bd29f6f44a621c934d5dc35bdd3162", "fusion_lat": 0.0, "type": "electric_scooter", "lat": 38.9014765, "is_reserved": 0, "is_disabled": 0, "fusion_lon": 0.0, "bike_id": "20bd29f6f44a621c934d5dc35bdd3162", "lon": -77.03974366666667, "rental_uris": {"ios": "https://dc.lft.to/lastmile_qr_scan", "android": "https://dc.lft.to/lastmile_qr_scan"}}, {"name": "4f500e9ad777efdf0f0a532ea88ca649", "fusion_lat": 0.0, "type": "electric_scooter", "lat": 38.899055, "is_reserved": 0, "is_disabled": 0, "fusion_lon": 0.0, "bike_id": "4f500e9ad777efdf0f0a532ea88ca649", "lon": -77.07092216666666, "rental_uris": {"ios": "https://dc.lft.to/lastmile_qr_scan", "android": "https://dc.lft.to/lastmile_qr_scan"}}, {"name": "e09b26a0909ae71a586cb64416965d7b", "fusion_lat": 0.0, "type": "electric_scooter", "lat": 38.893580666666665, "is_reserved": 0, "is_disabled": 0, "fusion_lon": 0.0, "bike_id": "e09b26a0909ae71a586cb64416965d7b", "lon": -76.94982916666666, "rental_uris": {"ios": "https://dc.lft.to/lastmile_qr_scan", "android": "https://dc.lft.to/lastmile_qr_scan"}}, {"name": "7377e7d3ae9ee7b9853a0dbd745f799c", "fusion_lat": 0.0, "type": "electric_scooter", "lat": 38.90387666666667, "is_reserved": 0, "is_disabled": 0, "fusion_lon": 0.0, "bike_id": "7377e7d3ae9ee7b9853a0dbd745f799c", "lon": -77.032122, "rental_uris": {"ios": "https://dc.lft.to/lastmile_qr_scan", "android": "https://dc.lft.to/lastmile_qr_scan"}}, {"name": "65a7c68993b8e492f85683b7da1c4c03", "fusion_lat": 0.0, "type": "electric_scooter", "lat": 38.84490183333333, "is_reserved": 0, "is_disabled": 0, "fusion_lon": 0.0, "bike_id": "65a7c68993b8e492f85683b7da1c4c03", "lon": -76.987666, "rental_uris": {"ios": "https://dc.lft.to/lastmile_qr_scan", "android": "https://dc.lft.to/lastmile_qr_scan"}}, {"name": "85abb1967b265cd5b2d5e6b9a91dca6a", "fusion_lat": 0.0, "type": "electric_scooter", "lat": 38.91041833333333, "is_reserved": 0, "is_disabled": 0, "fusion_lon": 0.0, "bike_id": "85abb1967b265cd5b2d5e6b9a91dca6a", "lon": -77.04254183333333, "rental_uris": {"ios": "https://dc.lft.to/lastmile_qr_scan", "android": "https://dc.lft.to/lastmile_qr_scan"}}, {"name": "851b899c4e57e1a946ee2896962ee675", "fusion_lat": 0.0, "type": "electric_scooter", "lat": 38.905679666666664, "is_reserved": 0, "is_disabled": 0, "fusion_lon": 0.0, "bike_id": "851b899c4e57e1a946ee2896962ee675", "lon": -77.02211733333333, "rental_uris": {"ios": "https://dc.lft.to/lastmile_qr_scan", "android": "https://dc.lft.to/lastmile_qr_scan"}}, {"name": "34cf7a9203dd412ff7d4a5700e7563d0", "fusion_lat": 0.0, "type": "electric_scooter", "lat": 38.876265, "is_reserved": 0, "is_disabled": 0, "fusion_lon": 0.0, "bike_id": "34cf7a9203dd412ff7d4a5700e7563d0", "lon": -77.007564, "rental_uris": {"ios": "https://dc.lft.to/lastmile_qr_scan", "android": "https://dc.lft.to/lastmile_qr_scan"}}, {"name": "126773f48809776b179d8129be448f67", "fusion_lat": 0.0, "type": "electric_bike", "lat": 38.906905333333334, "is_reserved": 0, "is_disabled": 0, "fusion_lon": 0.0, "bike_id": "126773f48809776b179d8129be448f67", "lon": -77.000513, "rental_uris": {"ios": "https://dc.lft.to/lastmile_qr_scan", "android": "https://dc.lft.to/lastmile_qr_scan"}}, {"name": "c0d6ddc335b564da709f2511913f2629", "fusion_lat": 0.0, "type": "electric_scooter", "lat": 38.91816033333333, "is_reserved": 0, "is_disabled": 0, "fusion_lon": 0.0, "bike_id": "c0d6ddc335b564da709f2511913f2629", "lon": -77.0280045, "rental_uris": {"ios": "https://dc.lft.to/lastmile_qr_scan", "android": "https://dc.lft.to/lastmile_qr_scan"}}, {"name": "b6c9dd46dbd4d581b4cfe2e0678168f4", "fusion_lat": 0.0, "type": "electric_scooter", "lat": 38.9005795, "is_reserved": 0, "is_disabled": 0, "fusion_lon": 0.0, "bike_id": "b6c9dd46dbd4d581b4cfe2e0678168f4", "lon": -77.03371633333333, "rental_uris": {"ios": "https://dc.lft.to/lastmile_qr_scan", "android": "https://dc.lft.to/lastmile_qr_scan"}}, {"name": "263c1ae69d710b8ae9ee3e8be9f4fbd6", "fusion_lat": 0.0, "type": "electric_scooter", "lat": 38.906993166666666, "is_reserved": 0, "is_disabled": 0, "fusion_lon": 0.0, "bike_id": "263c1ae69d710b8ae9ee3e8be9f4fbd6", "lon": -77.023964, "rental_uris": {"ios": "https://dc.lft.to/lastmile_qr_scan", "android": "https://dc.lft.to/lastmile_qr_scan"}}, {"name": "7c35799569bba98ea42a6b4e90fdd7a7", "fusion_lat": 0.0, "type": "electric_scooter", "lat": 38.90048516666667, "is_reserved": 0, "is_disabled": 0, "fusion_lon": 0.0, "bike_id": "7c35799569bba98ea42a6b4e90fdd7a7", "lon": -77.029651, "rental_uris": {"ios": "https://dc.lft.to/lastmile_qr_scan", "android": "https://dc.lft.to/lastmile_qr_scan"}}, {"name": "5a3aef568f4dda3301311b6086b749eb", "fusion_lat": 0.0, "type": "electric_bike", "lat": 38.83434783333333, "is_reserved": 0, "is_disabled": 0, "fusion_lon": 0.0, "bike_id": "5a3aef568f4dda3301311b6086b749eb", "lon": -77.00824333333334, "rental_uris": {"ios": "https://dc.lft.to/lastmile_qr_scan", "android": "https://dc.lft.to/lastmile_qr_scan"}}, {"name": "599397fb50b9200838da0480cd31e263", "fusion_lat": 0.0, "type": "electric_scooter", "lat": 38.93150683333333, "is_reserved": 0, "is_disabled": 0, "fusion_lon": 0.0, "bike_id": "599397fb50b9200838da0480cd31e263", "lon": -77.02961616666667, "rental_uris": {"ios": "https://dc.lft.to/lastmile_qr_scan", "android": "https://dc.lft.to/lastmile_qr_scan"}}, {"name": "b51a614a628d74aa21cb9355ff71eff4", "fusion_lat": 0.0, "type": "electric_bike", "lat": 38.869080333333336, "is_reserved": 0, "is_disabled": 0, "fusion_lon": 0.0, "bike_id": "b51a614a628d74aa21cb9355ff71eff4", "lon": -77.1318125, "rental_uris": {"ios": "https://dc.lft.to/lastmile_qr_scan", "android": "https://dc.lft.to/lastmile_qr_scan"}}, {"name": "ef0a757d1a3a77ba383f85486480dc0f", "fusion_lat": 0.0, "type": "electric_scooter", "lat": 38.940832666666665, "is_reserved": 0, "is_disabled": 0, "fusion_lon": 0.0, "bike_id": "ef0a757d1a3a77ba383f85486480dc0f", "lon": -77.0177325, "rental_uris": {"ios": "https://dc.lft.to/lastmile_qr_scan", "android": "https://dc.lft.to/lastmile_qr_scan"}}, {"name": "d4d58c147fc98e8598f8fb4d0bb4caa5", "fusion_lat": 0.0, "type": "electric_scooter", "lat": 38.902033833333334, "is_reserved": 0, "is_disabled": 0, "fusion_lon": 0.0, "bike_id": "d4d58c147fc98e8598f8fb4d0bb4caa5", "lon": -77.05106266666667, "rental_uris": {"ios": "https://dc.lft.to/lastmile_qr_scan", "android": "https://dc.lft.to/lastmile_qr_scan"}}, {"name": "fdbdd14a05d695f9bda398a91c17e832", "fusion_lat": 0.0, "type": "electric_scooter", "lat": 38.909665, "is_reserved": 0, "is_disabled": 0, "fusion_lon": 0.0, "bike_id": "fdbdd14a05d695f9bda398a91c17e832", "lon": -77.02181516666667, "rental_uris": {"ios": "https://dc.lft.to/lastmile_qr_scan", "android": "https://dc.lft.to/lastmile_qr_scan"}}, {"name": "6c6b85d03b11b2ec3c85c846c78dc6b2", "fusion_lat": 0.0, "type": "electric_scooter", "lat": 38.926862166666666, "is_reserved": 0, "is_disabled": 0, "fusion_lon": 0.0, "bike_id": "6c6b85d03b11b2ec3c85c846c78dc6b2", "lon": -77.02785566666667, "rental_uris": {"ios": "https://dc.lft.to/lastmile_qr_scan", "android": "https://dc.lft.to/lastmile_qr_scan"}}, {"name": "9e7abe1259f62d16adf0019ff8a2f4ce", "fusion_lat": 0.0, "type": "electric_scooter", "lat": 38.93107233333333, "is_reserved": 0, "is_disabled": 0, "fusion_lon": 0.0, "bike_id": "9e7abe1259f62d16adf0019ff8a2f4ce", "lon": -77.0373295, "rental_uris": {"ios": "https://dc.lft.to/lastmile_qr_scan", "android": "https://dc.lft.to/lastmile_qr_scan"}}, {"name": "dface20cbd934fa9c30b07b0a29d5308", "fusion_lat": 0.0, "type": "electric_scooter", "lat": 38.9231675, "is_reserved": 0, "is_disabled": 0, "fusion_lon": 0.0, "bike_id": "dface20cbd934fa9c30b07b0a29d5308", "lon": -77.05464283333333, "rental_uris": {"ios": "https://dc.lft.to/lastmile_qr_scan", "android": "https://dc.lft.to/lastmile_qr_scan"}}, {"name": "5a93e68114b86c5c14544d009b38268a", "fusion_lat": 0.0, "type": "electric_scooter", "lat": 38.90963333333333, "is_reserved": 0, "is_disabled": 0, "fusion_lon": 0.0, "bike_id": "5a93e68114b86c5c14544d009b38268a", "lon": -77.01712133333334, "rental_uris": {"ios": "https://dc.lft.to/lastmile_qr_scan", "android": "https://dc.lft.to/lastmile_qr_scan"}}, {"name": "a183bda953180bb4e1d5da5ae51067ff", "fusion_lat": 0.0, "type": "electric_bike", "lat": 38.928627, "is_reserved": 0, "is_disabled": 0, "fusion_lon": 0.0, "bike_id": "a183bda953180bb4e1d5da5ae51067ff", "lon": -76.96105416666667, "rental_uris": {"ios": "https://dc.lft.to/lastmile_qr_scan", "android": "https://dc.lft.to/lastmile_qr_scan"}}, {"name": "b6d6e3f384412a414b63a2b1caf89db4", "fusion_lat": 0.0, "type": "electric_scooter", "lat": 38.905789166666665, "is_reserved": 0, "is_disabled": 0, "fusion_lon": 0.0, "bike_id": "b6d6e3f384412a414b63a2b1caf89db4", "lon": -77.04877233333333, "rental_uris": {"ios": "https://dc.lft.to/lastmile_qr_scan", "android": "https://dc.lft.to/lastmile_qr_scan"}}, {"name": "e9eb94ea82158a77c7c2ae3d771457a4", "fusion_lat": 0.0, "type": "electric_scooter", "lat": 38.930201, "is_reserved": 0, "is_disabled": 0, "fusion_lon": 0.0, "bike_id": "e9eb94ea82158a77c7c2ae3d771457a4", "lon": -77.03784, "rental_uris": {"ios": "https://dc.lft.to/lastmile_qr_scan", "android": "https://dc.lft.to/lastmile_qr_scan"}}, {"name": "cfd4933341811073b590b7f36282b969", "fusion_lat": 0.0, "type": "electric_scooter", "lat": 38.90606416666667, "is_reserved": 0, "is_disabled": 0, "fusion_lon": 0.0, "bike_id": "cfd4933341811073b590b7f36282b969", "lon": -77.03881, "rental_uris": {"ios": "https://dc.lft.to/lastmile_qr_scan", "android": "https://dc.lft.to/lastmile_qr_scan"}}, {"name": "4f347b0870a9940fed470e94394aaa5a", "fusion_lat": 0.0, "type": "electric_scooter", "lat": 38.898384166666666, "is_reserved": 0, "is_disabled": 0, "fusion_lon": 0.0, "bike_id": "4f347b0870a9940fed470e94394aaa5a", "lon": -77.0198865, "rental_uris": {"ios": "https://dc.lft.to/lastmile_qr_scan", "android": "https://dc.lft.to/lastmile_qr_scan"}}, {"name": "097cc980cd9b628e8701d9114cdbab32", "fusion_lat": 0.0, "type": "electric_scooter", "lat": 38.938722166666665, "is_reserved": 0, "is_disabled": 0, "fusion_lon": 0.0, "bike_id": "097cc980cd9b628e8701d9114cdbab32", "lon": -77.03257066666667, "rental_uris": {"ios": "https://dc.lft.to/lastmile_qr_scan", "android": "https://dc.lft.to/lastmile_qr_scan"}}, {"name": "e516be4f5a4a17610c82658a1c181826", "fusion_lat": 0.0, "type": "electric_scooter", "lat": 38.965564666666666, "is_reserved": 0, "is_disabled": 0, "fusion_lon": 0.0, "bike_id": "e516be4f5a4a17610c82658a1c181826", "lon": -77.0162105, "rental_uris": {"ios": "https://dc.lft.to/lastmile_qr_scan", "android": "https://dc.lft.to/lastmile_qr_scan"}}, {"name": "14d664954a9438ddd9e33c6d770e6a04", "fusion_lat": 0.0, "type": "electric_scooter", "lat": 38.90424516666667, "is_reserved": 0, "is_disabled": 0, "fusion_lon": 0.0, "bike_id": "14d664954a9438ddd9e33c6d770e6a04", "lon": -77.02598366666666, "rental_uris": {"ios": "https://dc.lft.to/lastmile_qr_scan", "android": "https://dc.lft.to/lastmile_qr_scan"}}, {"name": "ce87cb60ee61f4eead86aa01e75c50bf", "fusion_lat": 0.0, "type": "electric_bike", "lat": 38.819330666666666, "is_reserved": 0, "is_disabled": 0, "fusion_lon": 0.0, "bike_id": "ce87cb60ee61f4eead86aa01e75c50bf", "lon": -77.0020665, "rental_uris": {"ios": "https://dc.lft.to/lastmile_qr_scan", "android": "https://dc.lft.to/lastmile_qr_scan"}}, {"name": "8b408285efc74b9fd0bc8b9509051193", "fusion_lat": 0.0, "type": "electric_scooter", "lat": 38.92056, "is_reserved": 0, "is_disabled": 0, "fusion_lon": 0.0, "bike_id": "8b408285efc74b9fd0bc8b9509051193", "lon": -77.02387366666666, "rental_uris": {"ios": "https://dc.lft.to/lastmile_qr_scan", "android": "https://dc.lft.to/lastmile_qr_scan"}}, {"name": "0ca6d4f8e086a1cabb4f0c845252ad5d", "fusion_lat": 0.0, "type": "electric_scooter", "lat": 38.92673083333333, "is_reserved": 0, "is_disabled": 0, "fusion_lon": 0.0, "bike_id": "0ca6d4f8e086a1cabb4f0c845252ad5d", "lon": -77.01466366666666, "rental_uris": {"ios": "https://dc.lft.to/lastmile_qr_scan", "android": "https://dc.lft.to/lastmile_qr_scan"}}, {"name": "79de251bd806bc546f48935e3f500efa", "fusion_lat": 0.0, "type": "electric_bike", "lat": 38.96533783333334, "is_reserved": 0, "is_disabled": 0, "fusion_lon": 0.0, "bike_id": "79de251bd806bc546f48935e3f500efa", "lon": -77.03521366666666, "rental_uris": {"ios": "https://dc.lft.to/lastmile_qr_scan", "android": "https://dc.lft.to/lastmile_qr_scan"}}, {"name": "05b2288e2048a5e31477a8674d290c80", "fusion_lat": 0.0, "type": "electric_scooter", "lat": 38.90702483333333, "is_reserved": 0, "is_disabled": 0, "fusion_lon": 0.0, "bike_id": "05b2288e2048a5e31477a8674d290c80", "lon": -76.98697433333334, "rental_uris": {"ios": "https://dc.lft.to/lastmile_qr_scan", "android": "https://dc.lft.to/lastmile_qr_scan"}}, {"name": "b2828a94793473cb60063af2ce6e1635", "fusion_lat": 0.0, "type": "electric_scooter", "lat": 38.910392, "is_reserved": 0, "is_disabled": 0, "fusion_lon": 0.0, "bike_id": "b2828a94793473cb60063af2ce6e1635", "lon": -77.02810983333333, "rental_uris": {"ios": "https://dc.lft.to/lastmile_qr_scan", "android": "https://dc.lft.to/lastmile_qr_scan"}}, {"name": "c0f29f3c08b0943365510ed408fe15cc", "fusion_lat": 0.0, "type": "electric_scooter", "lat": 38.9155785, "is_reserved": 0, "is_disabled": 0, "fusion_lon": 0.0, "bike_id": "c0f29f3c08b0943365510ed408fe15cc", "lon": -77.04275433333333, "rental_uris": {"ios": "https://dc.lft.to/lastmile_qr_scan", "android": "https://dc.lft.to/lastmile_qr_scan"}}, {"name": "7199f5b744e96eb3146205b1447c7571", "fusion_lat": 0.0, "type": "electric_scooter", "lat": 38.88502833333333, "is_reserved": 0, "is_disabled": 0, "fusion_lon": 0.0, "bike_id": "7199f5b744e96eb3146205b1447c7571", "lon": -77.0056865, "rental_uris": {"ios": "https://dc.lft.to/lastmile_qr_scan", "android": "https://dc.lft.to/lastmile_qr_scan"}}, {"name": "f4c7a556cb4657b0f01ddb754c87f8f1", "fusion_lat": 0.0, "type": "electric_scooter", "lat": 38.903257833333335, "is_reserved": 0, "is_disabled": 0, "fusion_lon": 0.0, "bike_id": "f4c7a556cb4657b0f01ddb754c87f8f1", "lon": -77.05345316666667, "rental_uris": {"ios": "https://dc.lft.to/lastmile_qr_scan", "android": "https://dc.lft.to/lastmile_qr_scan"}}, {"name": "aba5dc82a6eaf9c1524c68f002119c4b", "fusion_lat": 0.0, "type": "electric_scooter", "lat": 38.894785, "is_reserved": 0, "is_disabled": 0, "fusion_lon": 0.0, "bike_id": "aba5dc82a6eaf9c1524c68f002119c4b", "lon": -77.01008166666666, "rental_uris": {"ios": "https://dc.lft.to/lastmile_qr_scan", "android": "https://dc.lft.to/lastmile_qr_scan"}}, {"name": "8aa49c761fe508c559e275068cc80da1", "fusion_lat": 0.0, "type": "electric_scooter", "lat": 38.902755, "is_reserved": 0, "is_disabled": 0, "fusion_lon": 0.0, "bike_id": "8aa49c761fe508c559e275068cc80da1", "lon": -77.04064716666667, "rental_uris": {"ios": "https://dc.lft.to/lastmile_qr_scan", "android": "https://dc.lft.to/lastmile_qr_scan"}}, {"name": "e0d4ab96cc2cefdceaa2cccde35eb290", "fusion_lat": 0.0, "type": "electric_scooter", "lat": 38.91550816666667, "is_reserved": 0, "is_disabled": 0, "fusion_lon": 0.0, "bike_id": "e0d4ab96cc2cefdceaa2cccde35eb290", "lon": -77.03239733333334, "rental_uris": {"ios": "https://dc.lft.to/lastmile_qr_scan", "android": "https://dc.lft.to/lastmile_qr_scan"}}, {"name": "4295c13caaaecdf6eb6dba855f0cfec1", "fusion_lat": 0.0, "type": "electric_bike", "lat": 38.88824316666667, "is_reserved": 0, "is_disabled": 0, "fusion_lon": 0.0, "bike_id": "4295c13caaaecdf6eb6dba855f0cfec1", "lon": -77.12741766666667, "rental_uris": {"ios": "https://dc.lft.to/lastmile_qr_scan", "android": "https://dc.lft.to/lastmile_qr_scan"}}, {"name": "7e02ade3e34250521e8f95da4c1dbc28", "fusion_lat": 0.0, "type": "electric_scooter", "lat": 38.898304, "is_reserved": 0, "is_disabled": 0, "fusion_lon": 0.0, "bike_id": "7e02ade3e34250521e8f95da4c1dbc28", "lon": -76.94639066666667, "rental_uris": {"ios": "https://dc.lft.to/lastmile_qr_scan", "android": "https://dc.lft.to/lastmile_qr_scan"}}, {"name": "52bd924b57e3ee243d5d0f79c7c5e170", "fusion_lat": 0.0, "type": "electric_scooter", "lat": 38.90253533333333, "is_reserved": 0, "is_disabled": 0, "fusion_lon": 0.0, "bike_id": "52bd924b57e3ee243d5d0f79c7c5e170", "lon": -77.04642333333334, "rental_uris": {"ios": "https://dc.lft.to/lastmile_qr_scan", "android": "https://dc.lft.to/lastmile_qr_scan"}}, {"name": "e62b056c9d9c5d577add6b8aa4c62d22", "fusion_lat": 0.0, "type": "electric_scooter", "lat": 38.92662033333333, "is_reserved": 0, "is_disabled": 0, "fusion_lon": 0.0, "bike_id": "e62b056c9d9c5d577add6b8aa4c62d22", "lon": -76.99529533333333, "rental_uris": {"ios": "https://dc.lft.to/lastmile_qr_scan", "android": "https://dc.lft.to/lastmile_qr_scan"}}, {"name": "1defa23c22576891230596f1a8457296", "fusion_lat": 0.0, "type": "electric_scooter", "lat": 38.91283116666666, "is_reserved": 0, "is_disabled": 0, "fusion_lon": 0.0, "bike_id": "1defa23c22576891230596f1a8457296", "lon": -76.93794316666667, "rental_uris": {"ios": "https://dc.lft.to/lastmile_qr_scan", "android": "https://dc.lft.to/lastmile_qr_scan"}}, {"name": "ac7fcad2186fa849c3b46c22c81ee868", "fusion_lat": 0.0, "type": "electric_scooter", "lat": 38.899576833333334, "is_reserved": 0, "is_disabled": 0, "fusion_lon": 0.0, "bike_id": "ac7fcad2186fa849c3b46c22c81ee868", "lon": -77.0394355, "rental_uris": {"ios": "https://dc.lft.to/lastmile_qr_scan", "android": "https://dc.lft.to/lastmile_qr_scan"}}, {"name": "3ddc3de95aff1898a4194e4653aec6f5", "fusion_lat": 0.0, "type": "electric_scooter", "lat": 38.906009833333336, "is_reserved": 0, "is_disabled": 0, "fusion_lon": 0.0, "bike_id": "3ddc3de95aff1898a4194e4653aec6f5", "lon": -77.0269505, "rental_uris": {"ios": "https://dc.lft.to/lastmile_qr_scan", "android": "https://dc.lft.to/lastmile_qr_scan"}}, {"name": "428edfb4b6742359f7ebf89ff2264dfb", "fusion_lat": 0.0, "type": "electric_scooter", "lat": 38.90240033333333, "is_reserved": 0, "is_disabled": 0, "fusion_lon": 0.0, "bike_id": "428edfb4b6742359f7ebf89ff2264dfb", "lon": -77.05132483333334, "rental_uris": {"ios": "https://dc.lft.to/lastmile_qr_scan", "android": "https://dc.lft.to/lastmile_qr_scan"}}, {"name": "4c2eb12a217fdc8755d2c16419a378e4", "fusion_lat": 0.0, "type": "electric_scooter", "lat": 38.9247605, "is_reserved": 0, "is_disabled": 0, "fusion_lon": 0.0, "bike_id": "4c2eb12a217fdc8755d2c16419a378e4", "lon": -77.03000833333333, "rental_uris": {"ios": "https://dc.lft.to/lastmile_qr_scan", "android": "https://dc.lft.to/lastmile_qr_scan"}}, {"name": "2cd3dfe5603fc1d2dd266cc41cc4906d", "fusion_lat": 0.0, "type": "electric_scooter", "lat": 38.9181155, "is_reserved": 0, "is_disabled": 0, "fusion_lon": 0.0, "bike_id": "2cd3dfe5603fc1d2dd266cc41cc4906d", "lon": -77.03206383333334, "rental_uris": {"ios": "https://dc.lft.to/lastmile_qr_scan", "android": "https://dc.lft.to/lastmile_qr_scan"}}, {"name": "db284b84e9ff80399a7a02bfe6e220b1", "fusion_lat": 0.0, "type": "electric_scooter", "lat": 38.925934, "is_reserved": 0, "is_disabled": 0, "fusion_lon": 0.0, "bike_id": "db284b84e9ff80399a7a02bfe6e220b1", "lon": -77.00854383333333, "rental_uris": {"ios": "https://dc.lft.to/lastmile_qr_scan", "android": "https://dc.lft.to/lastmile_qr_scan"}}, {"name": "3da4f41138d0f81f3c6ab86e14e0fa3c", "fusion_lat": 0.0, "type": "electric_scooter", "lat": 38.903636666666664, "is_reserved": 0, "is_disabled": 0, "fusion_lon": 0.0, "bike_id": "3da4f41138d0f81f3c6ab86e14e0fa3c", "lon": -77.04495216666666, "rental_uris": {"ios": "https://dc.lft.to/lastmile_qr_scan", "android": "https://dc.lft.to/lastmile_qr_scan"}}, {"name": "991868c3da7139a1311efe4edaffa486", "fusion_lat": 0.0, "type": "electric_scooter", "lat": 38.9056375, "is_reserved": 0, "is_disabled": 0, "fusion_lon": 0.0, "bike_id": "991868c3da7139a1311efe4edaffa486", "lon": -77.03423516666666, "rental_uris": {"ios": "https://dc.lft.to/lastmile_qr_scan", "android": "https://dc.lft.to/lastmile_qr_scan"}}, {"name": "544cae0126861b1fea30e9b36445a43a", "fusion_lat": 0.0, "type": "electric_scooter", "lat": 38.93028966666667, "is_reserved": 0, "is_disabled": 0, "fusion_lon": 0.0, "bike_id": "544cae0126861b1fea30e9b36445a43a", "lon": -77.08361816666667, "rental_uris": {"ios": "https://dc.lft.to/lastmile_qr_scan", "android": "https://dc.lft.to/lastmile_qr_scan"}}, {"name": "6d8c0c7c2368631ac1e802944c4c9330", "fusion_lat": 0.0, "type": "electric_scooter", "lat": 38.8921405, "is_reserved": 0, "is_disabled": 0, "fusion_lon": 0.0, "bike_id": "6d8c0c7c2368631ac1e802944c4c9330", "lon": -77.02225383333334, "rental_uris": {"ios": "https://dc.lft.to/lastmile_qr_scan", "android": "https://dc.lft.to/lastmile_qr_scan"}}, {"name": "4ea2bd85adea738b907c85ae80a09bf5", "fusion_lat": 0.0, "type": "electric_scooter", "lat": 38.930561166666664, "is_reserved": 0, "is_disabled": 0, "fusion_lon": 0.0, "bike_id": "4ea2bd85adea738b907c85ae80a09bf5", "lon": -77.02319466666667, "rental_uris": {"ios": "https://dc.lft.to/lastmile_qr_scan", "android": "https://dc.lft.to/lastmile_qr_scan"}}, {"name": "2454897173b9dd0668a4509b303a62b9", "fusion_lat": 0.0, "type": "electric_scooter", "lat": 38.89546566666667, "is_reserved": 0, "is_disabled": 0, "fusion_lon": 0.0, "bike_id": "2454897173b9dd0668a4509b303a62b9", "lon": -76.9837075, "rental_uris": {"ios": "https://dc.lft.to/lastmile_qr_scan", "android": "https://dc.lft.to/lastmile_qr_scan"}}, {"name": "34636208b2fc4bf88ebc018595508b29", "fusion_lat": 0.0, "type": "electric_scooter", "lat": 38.900469666666666, "is_reserved": 0, "is_disabled": 0, "fusion_lon": 0.0, "bike_id": "34636208b2fc4bf88ebc018595508b29", "lon": -76.94752583333333, "rental_uris": {"ios": "https://dc.lft.to/lastmile_qr_scan", "android": "https://dc.lft.to/lastmile_qr_scan"}}, {"name": "b8f194456f3f897475c1af69f7d090f5", "fusion_lat": 0.0, "type": "electric_scooter", "lat": 38.906708333333334, "is_reserved": 0, "is_disabled": 0, "fusion_lon": 0.0, "bike_id": "b8f194456f3f897475c1af69f7d090f5", "lon": -77.03833, "rental_uris": {"ios": "https://dc.lft.to/lastmile_qr_scan", "android": "https://dc.lft.to/lastmile_qr_scan"}}, {"name": "6efd37fad80f6ac2f62e4755cdc2c78b", "fusion_lat": 0.0, "type": "electric_bike", "lat": 38.852155833333335, "is_reserved": 0, "is_disabled": 0, "fusion_lon": 0.0, "bike_id": "6efd37fad80f6ac2f62e4755cdc2c78b", "lon": -77.12956283333334, "rental_uris": {"ios": "https://dc.lft.to/lastmile_qr_scan", "android": "https://dc.lft.to/lastmile_qr_scan"}}, {"name": "fed6fabb3bcf5dbaf9f8eedd460c83cd", "fusion_lat": 0.0, "type": "electric_scooter", "lat": 38.893885, "is_reserved": 0, "is_disabled": 0, "fusion_lon": 0.0, "bike_id": "fed6fabb3bcf5dbaf9f8eedd460c83cd", "lon": -77.05475033333333, "rental_uris": {"ios": "https://dc.lft.to/lastmile_qr_scan", "android": "https://dc.lft.to/lastmile_qr_scan"}}, {"name": "55235482eaceec1ff738bbdc4e744426", "fusion_lat": 0.0, "type": "electric_bike", "lat": 38.98450066666667, "is_reserved": 0, "is_disabled": 0, "fusion_lon": 0.0, "bike_id": "55235482eaceec1ff738bbdc4e744426", "lon": -76.95521883333333, "rental_uris": {"ios": "https://dc.lft.to/lastmile_qr_scan", "android": "https://dc.lft.to/lastmile_qr_scan"}}, {"name": "9eb0b2ccd53fe1f4005a749857e5669c", "fusion_lat": 0.0, "type": "electric_scooter", "lat": 38.900300666666666, "is_reserved": 0, "is_disabled": 0, "fusion_lon": 0.0, "bike_id": "9eb0b2ccd53fe1f4005a749857e5669c", "lon": -77.00213016666666, "rental_uris": {"ios": "https://dc.lft.to/lastmile_qr_scan", "android": "https://dc.lft.to/lastmile_qr_scan"}}, {"name": "41c0fa80627a76ae6f27031ed53c5e64", "fusion_lat": 0.0, "type": "electric_scooter", "lat": 38.8804565, "is_reserved": 0, "is_disabled": 0, "fusion_lon": 0.0, "bike_id": "41c0fa80627a76ae6f27031ed53c5e64", "lon": -76.9598375, "rental_uris": {"ios": "https://dc.lft.to/lastmile_qr_scan", "android": "https://dc.lft.to/lastmile_qr_scan"}}, {"name": "3a50847f60db96a77da3c7183016f159", "fusion_lat": 0.0, "type": "electric_scooter", "lat": 38.8851165, "is_reserved": 0, "is_disabled": 0, "fusion_lon": 0.0, "bike_id": "3a50847f60db96a77da3c7183016f159", "lon": -77.033399, "rental_uris": {"ios": "https://dc.lft.to/lastmile_qr_scan", "android": "https://dc.lft.to/lastmile_qr_scan"}}, {"name": "b259c8c069b6983dd0ec04ace58eaf35", "fusion_lat": 0.0, "type": "electric_scooter", "lat": 38.919451, "is_reserved": 0, "is_disabled": 0, "fusion_lon": 0.0, "bike_id": "b259c8c069b6983dd0ec04ace58eaf35", "lon": -77.01389333333333, "rental_uris": {"ios": "https://dc.lft.to/lastmile_qr_scan", "android": "https://dc.lft.to/lastmile_qr_scan"}}, {"name": "c4708717f1164bb13f3141ec7cf6ad63", "fusion_lat": 0.0, "type": "electric_bike", "lat": 38.86592916666667, "is_reserved": 0, "is_disabled": 0, "fusion_lon": 0.0, "bike_id": "c4708717f1164bb13f3141ec7cf6ad63", "lon": -76.93227516666667, "rental_uris": {"ios": "https://dc.lft.to/lastmile_qr_scan", "android": "https://dc.lft.to/lastmile_qr_scan"}}, {"name": "6c231e2790ffc096eb523a5f1912da8e", "fusion_lat": 0.0, "type": "electric_scooter", "lat": 38.87838266666667, "is_reserved": 0, "is_disabled": 0, "fusion_lon": 0.0, "bike_id": "6c231e2790ffc096eb523a5f1912da8e", "lon": -77.02279766666666, "rental_uris": {"ios": "https://dc.lft.to/lastmile_qr_scan", "android": "https://dc.lft.to/lastmile_qr_scan"}}, {"name": "37faecffdfbf0898781ce81bd9d6c716", "fusion_lat": 0.0, "type": "electric_scooter", "lat": 38.939094, "is_reserved": 0, "is_disabled": 0, "fusion_lon": 0.0, "bike_id": "37faecffdfbf0898781ce81bd9d6c716", "lon": -77.036581, "rental_uris": {"ios": "https://dc.lft.to/lastmile_qr_scan", "android": "https://dc.lft.to/lastmile_qr_scan"}}, {"name": "4a679a8635822fcce15f7f9467081c73", "fusion_lat": 0.0, "type": "electric_scooter", "lat": 38.927542833333334, "is_reserved": 0, "is_disabled": 0, "fusion_lon": 0.0, "bike_id": "4a679a8635822fcce15f7f9467081c73", "lon": -77.032712, "rental_uris": {"ios": "https://dc.lft.to/lastmile_qr_scan", "android": "https://dc.lft.to/lastmile_qr_scan"}}, {"name": "00ba144f4c0fe6dd559861b8aa1135ac", "fusion_lat": 0.0, "type": "electric_scooter", "lat": 38.87621983333333, "is_reserved": 0, "is_disabled": 0, "fusion_lon": 0.0, "bike_id": "00ba144f4c0fe6dd559861b8aa1135ac", "lon": -77.01476166666667, "rental_uris": {"ios": "https://dc.lft.to/lastmile_qr_scan", "android": "https://dc.lft.to/lastmile_qr_scan"}}, {"name": "4a8432fc22c857fb85f4eea18d158537", "fusion_lat": 0.0, "type": "electric_scooter", "lat": 38.9387045, "is_reserved": 0, "is_disabled": 0, "fusion_lon": 0.0, "bike_id": "4a8432fc22c857fb85f4eea18d158537", "lon": -77.02215616666666, "rental_uris": {"ios": "https://dc.lft.to/lastmile_qr_scan", "android": "https://dc.lft.to/lastmile_qr_scan"}}, {"name": "3f47d385a81fb3d116338e2619fac27d", "fusion_lat": 0.0, "type": "electric_scooter", "lat": 38.914016333333336, "is_reserved": 0, "is_disabled": 0, "fusion_lon": 0.0, "bike_id": "3f47d385a81fb3d116338e2619fac27d", "lon": -77.039495, "rental_uris": {"ios": "https://dc.lft.to/lastmile_qr_scan", "android": "https://dc.lft.to/lastmile_qr_scan"}}, {"name": "937a66e29cd00bb52f6fd6647efdfe2f", "fusion_lat": 0.0, "type": "electric_scooter", "lat": 38.902552666666665, "is_reserved": 0, "is_disabled": 0, "fusion_lon": 0.0, "bike_id": "937a66e29cd00bb52f6fd6647efdfe2f", "lon": -77.00569616666667, "rental_uris": {"ios": "https://dc.lft.to/lastmile_qr_scan", "android": "https://dc.lft.to/lastmile_qr_scan"}}, {"name": "4da46d97d8ce786c6bb22c93a59f736a", "fusion_lat": 0.0, "type": "electric_scooter", "lat": 38.86822766666667, "is_reserved": 0, "is_disabled": 0, "fusion_lon": 0.0, "bike_id": "4da46d97d8ce786c6bb22c93a59f736a", "lon": -76.98612983333334, "rental_uris": {"ios": "https://dc.lft.to/lastmile_qr_scan", "android": "https://dc.lft.to/lastmile_qr_scan"}}, {"name": "559ca183d72053cccd89d3e346f1e720", "fusion_lat": 0.0, "type": "electric_scooter", "lat": 38.915151333333334, "is_reserved": 0, "is_disabled": 0, "fusion_lon": 0.0, "bike_id": "559ca183d72053cccd89d3e346f1e720", "lon": -77.04607833333333, "rental_uris": {"ios": "https://dc.lft.to/lastmile_qr_scan", "android": "https://dc.lft.to/lastmile_qr_scan"}}, {"name": "8bca1d50ea58193dec9334fe1f81d8b9", "fusion_lat": 0.0, "type": "electric_scooter", "lat": 38.927895166666666, "is_reserved": 0, "is_disabled": 0, "fusion_lon": 0.0, "bike_id": "8bca1d50ea58193dec9334fe1f81d8b9", "lon": -77.01411583333334, "rental_uris": {"ios": "https://dc.lft.to/lastmile_qr_scan", "android": "https://dc.lft.to/lastmile_qr_scan"}}, {"name": "a9c32b87e3ac1cbed4c0124f3e5a7f06", "fusion_lat": 0.0, "type": "electric_scooter", "lat": 38.9056215, "is_reserved": 0, "is_disabled": 0, "fusion_lon": 0.0, "bike_id": "a9c32b87e3ac1cbed4c0124f3e5a7f06", "lon": -77.037058, "rental_uris": {"ios": "https://dc.lft.to/lastmile_qr_scan", "android": "https://dc.lft.to/lastmile_qr_scan"}}, {"name": "294ddb435ede2d2bf6d9abe59083c61b", "fusion_lat": 0.0, "type": "electric_scooter", "lat": 38.915916333333335, "is_reserved": 0, "is_disabled": 0, "fusion_lon": 0.0, "bike_id": "294ddb435ede2d2bf6d9abe59083c61b", "lon": -77.04256483333333, "rental_uris": {"ios": "https://dc.lft.to/lastmile_qr_scan", "android": "https://dc.lft.to/lastmile_qr_scan"}}, {"name": "3f273d13baf77f6c0cb9503d6494ee3b", "fusion_lat": 0.0, "type": "electric_scooter", "lat": 38.91689233333334, "is_reserved": 0, "is_disabled": 0, "fusion_lon": 0.0, "bike_id": "3f273d13baf77f6c0cb9503d6494ee3b", "lon": -77.02592966666667, "rental_uris": {"ios": "https://dc.lft.to/lastmile_qr_scan", "android": "https://dc.lft.to/lastmile_qr_scan"}}, {"name": "8f780733b5b1f6808cedefaf54ac6e5a", "fusion_lat": 0.0, "type": "electric_scooter", "lat": 38.866606, "is_reserved": 0, "is_disabled": 0, "fusion_lon": 0.0, "bike_id": "8f780733b5b1f6808cedefaf54ac6e5a", "lon": -76.98880683333333, "rental_uris": {"ios": "https://dc.lft.to/lastmile_qr_scan", "android": "https://dc.lft.to/lastmile_qr_scan"}}, {"name": "a7ef9f2c3fc967a99e06ebde34e60d12", "fusion_lat": 0.0, "type": "electric_scooter", "lat": 38.907862, "is_reserved": 0, "is_disabled": 0, "fusion_lon": 0.0, "bike_id": "a7ef9f2c3fc967a99e06ebde34e60d12", "lon": -76.98030183333333, "rental_uris": {"ios": "https://dc.lft.to/lastmile_qr_scan", "android": "https://dc.lft.to/lastmile_qr_scan"}}, {"name": "5622411b086363fd0c882139f01c17b4", "fusion_lat": 0.0, "type": "electric_scooter", "lat": 38.912591666666664, "is_reserved": 0, "is_disabled": 0, "fusion_lon": 0.0, "bike_id": "5622411b086363fd0c882139f01c17b4", "lon": -77.03632133333333, "rental_uris": {"ios": "https://dc.lft.to/lastmile_qr_scan", "android": "https://dc.lft.to/lastmile_qr_scan"}}, {"name": "bde4b592cd254971cc0db202279350e1", "fusion_lat": 0.0, "type": "electric_scooter", "lat": 38.90671233333333, "is_reserved": 0, "is_disabled": 0, "fusion_lon": 0.0, "bike_id": "bde4b592cd254971cc0db202279350e1", "lon": -77.027102, "rental_uris": {"ios": "https://dc.lft.to/lastmile_qr_scan", "android": "https://dc.lft.to/lastmile_qr_scan"}}, {"name": "e14c8ba567c8a21f32c2afe451bac2c2", "fusion_lat": 0.0, "type": "electric_scooter", "lat": 38.881218833333335, "is_reserved": 0, "is_disabled": 0, "fusion_lon": 0.0, "bike_id": "e14c8ba567c8a21f32c2afe451bac2c2", "lon": -77.01333933333333, "rental_uris": {"ios": "https://dc.lft.to/lastmile_qr_scan", "android": "https://dc.lft.to/lastmile_qr_scan"}}, {"name": "da2086fdfe4ef37f36e1826fa6279db4", "fusion_lat": 0.0, "type": "electric_scooter", "lat": 38.899842, "is_reserved": 0, "is_disabled": 0, "fusion_lon": 0.0, "bike_id": "da2086fdfe4ef37f36e1826fa6279db4", "lon": -77.0318505, "rental_uris": {"ios": "https://dc.lft.to/lastmile_qr_scan", "android": "https://dc.lft.to/lastmile_qr_scan"}}, {"name": "7e25a9994fc4cff7d4a9720b312e29a3", "fusion_lat": 0.0, "type": "electric_bike", "lat": 38.9279735, "is_reserved": 0, "is_disabled": 0, "fusion_lon": 0.0, "bike_id": "7e25a9994fc4cff7d4a9720b312e29a3", "lon": -77.04368133333334, "rental_uris": {"ios": "https://dc.lft.to/lastmile_qr_scan", "android": "https://dc.lft.to/lastmile_qr_scan"}}, {"name": "99db8bb38a2c60b55726cc8c69e5a3bf", "fusion_lat": 0.0, "type": "electric_scooter", "lat": 38.91057416666666, "is_reserved": 0, "is_disabled": 0, "fusion_lon": 0.0, "bike_id": "99db8bb38a2c60b55726cc8c69e5a3bf", "lon": -77.02197633333333, "rental_uris": {"ios": "https://dc.lft.to/lastmile_qr_scan", "android": "https://dc.lft.to/lastmile_qr_scan"}}, {"name": "57d4bd9c3d31b7452cee5b49d6e7a541", "fusion_lat": 0.0, "type": "electric_scooter", "lat": 38.915653, "is_reserved": 0, "is_disabled": 0, "fusion_lon": 0.0, "bike_id": "57d4bd9c3d31b7452cee5b49d6e7a541", "lon": -77.01197133333334, "rental_uris": {"ios": "https://dc.lft.to/lastmile_qr_scan", "android": "https://dc.lft.to/lastmile_qr_scan"}}, {"name": "261de858feb7faa405f2efa7a4b8fb89", "fusion_lat": 0.0, "type": "electric_bike", "lat": 38.93969633333333, "is_reserved": 0, "is_disabled": 0, "fusion_lon": 0.0, "bike_id": "261de858feb7faa405f2efa7a4b8fb89", "lon": -76.9548785, "rental_uris": {"ios": "https://dc.lft.to/lastmile_qr_scan", "android": "https://dc.lft.to/lastmile_qr_scan"}}, {"name": "8171d2b62caa46c2a0110ec71778c2c1", "fusion_lat": 0.0, "type": "electric_scooter", "lat": 38.96151, "is_reserved": 0, "is_disabled": 0, "fusion_lon": 0.0, "bike_id": "8171d2b62caa46c2a0110ec71778c2c1", "lon": -77.02780916666667, "rental_uris": {"ios": "https://dc.lft.to/lastmile_qr_scan", "android": "https://dc.lft.to/lastmile_qr_scan"}}, {"name": "d67c9f8a4c83fe7b5f811cff5732166e", "fusion_lat": 0.0, "type": "electric_bike", "lat": 38.91901766666667, "is_reserved": 0, "is_disabled": 0, "fusion_lon": 0.0, "bike_id": "d67c9f8a4c83fe7b5f811cff5732166e", "lon": -77.03187666666666, "rental_uris": {"ios": "https://dc.lft.to/lastmile_qr_scan", "android": "https://dc.lft.to/lastmile_qr_scan"}}, {"name": "efc7b915ff498387c1bd19f4161cf27c", "fusion_lat": 0.0, "type": "electric_scooter", "lat": 38.941209666666666, "is_reserved": 0, "is_disabled": 0, "fusion_lon": 0.0, "bike_id": "efc7b915ff498387c1bd19f4161cf27c", "lon": -77.02047666666667, "rental_uris": {"ios": "https://dc.lft.to/lastmile_qr_scan", "android": "https://dc.lft.to/lastmile_qr_scan"}}, {"name": "e75110d48afd4ba9c4acfee665f914fd", "fusion_lat": 0.0, "type": "electric_scooter", "lat": 38.910358, "is_reserved": 0, "is_disabled": 0, "fusion_lon": 0.0, "bike_id": "e75110d48afd4ba9c4acfee665f914fd", "lon": -77.04822466666667, "rental_uris": {"ios": "https://dc.lft.to/lastmile_qr_scan", "android": "https://dc.lft.to/lastmile_qr_scan"}}, {"name": "fa26a7141f4bae60423941bdf33a2e4d", "fusion_lat": 0.0, "type": "electric_scooter", "lat": 38.90254616666667, "is_reserved": 0, "is_disabled": 0, "fusion_lon": 0.0, "bike_id": "fa26a7141f4bae60423941bdf33a2e4d", "lon": -77.04609116666667, "rental_uris": {"ios": "https://dc.lft.to/lastmile_qr_scan", "android": "https://dc.lft.to/lastmile_qr_scan"}}, {"name": "b0ed694190ec897345462f23531e6dce", "fusion_lat": 0.0, "type": "electric_scooter", "lat": 38.86352883333333, "is_reserved": 0, "is_disabled": 0, "fusion_lon": 0.0, "bike_id": "b0ed694190ec897345462f23531e6dce", "lon": -76.990609, "rental_uris": {"ios": "https://dc.lft.to/lastmile_qr_scan", "android": "https://dc.lft.to/lastmile_qr_scan"}}, {"name": "a07f0fb8d166749275abc8060e988963", "fusion_lat": 0.0, "type": "electric_scooter", "lat": 38.92147583333333, "is_reserved": 0, "is_disabled": 0, "fusion_lon": 0.0, "bike_id": "a07f0fb8d166749275abc8060e988963", "lon": -77.0350555, "rental_uris": {"ios": "https://dc.lft.to/lastmile_qr_scan", "android": "https://dc.lft.to/lastmile_qr_scan"}}, {"name": "bb5480a0b73f5de2a6794e2627fe3872", "fusion_lat": 0.0, "type": "electric_scooter", "lat": 38.90776816666666, "is_reserved": 0, "is_disabled": 0, "fusion_lon": 0.0, "bike_id": "bb5480a0b73f5de2a6794e2627fe3872", "lon": -77.07248966666667, "rental_uris": {"ios": "https://dc.lft.to/lastmile_qr_scan", "android": "https://dc.lft.to/lastmile_qr_scan"}}, {"name": "0247e975fbf9480a000ea97e5d48cdc3", "fusion_lat": 0.0, "type": "electric_bike", "lat": 38.959258, "is_reserved": 0, "is_disabled": 0, "fusion_lon": 0.0, "bike_id": "0247e975fbf9480a000ea97e5d48cdc3", "lon": -76.92535266666667, "rental_uris": {"ios": "https://dc.lft.to/lastmile_qr_scan", "android": "https://dc.lft.to/lastmile_qr_scan"}}, {"name": "fa22959eb390025d820fe9451b5b55d2", "fusion_lat": 0.0, "type": "electric_scooter", "lat": 38.91237066666667, "is_reserved": 0, "is_disabled": 0, "fusion_lon": 0.0, "bike_id": "fa22959eb390025d820fe9451b5b55d2", "lon": -77.04875883333334, "rental_uris": {"ios": "https://dc.lft.to/lastmile_qr_scan", "android": "https://dc.lft.to/lastmile_qr_scan"}}, {"name": "4c10b454394675c5838bef28466283ba", "fusion_lat": 0.0, "type": "electric_scooter", "lat": 38.89891266666667, "is_reserved": 0, "is_disabled": 0, "fusion_lon": 0.0, "bike_id": "4c10b454394675c5838bef28466283ba", "lon": -77.03279716666667, "rental_uris": {"ios": "https://dc.lft.to/lastmile_qr_scan", "android": "https://dc.lft.to/lastmile_qr_scan"}}, {"name": "9c612c57c5bbf1b2b4406c33771b04ac", "fusion_lat": 0.0, "type": "electric_scooter", "lat": 38.928226333333335, "is_reserved": 0, "is_disabled": 0, "fusion_lon": 0.0, "bike_id": "9c612c57c5bbf1b2b4406c33771b04ac", "lon": -77.022584, "rental_uris": {"ios": "https://dc.lft.to/lastmile_qr_scan", "android": "https://dc.lft.to/lastmile_qr_scan"}}, {"name": "b8f51a918e9f69c451d6c772e9f73f4a", "fusion_lat": 0.0, "type": "electric_scooter", "lat": 38.89549566666667, "is_reserved": 0, "is_disabled": 0, "fusion_lon": 0.0, "bike_id": "b8f51a918e9f69c451d6c772e9f73f4a", "lon": -76.94875583333334, "rental_uris": {"ios": "https://dc.lft.to/lastmile_qr_scan", "android": "https://dc.lft.to/lastmile_qr_scan"}}, {"name": "d646cf97d962e6d8ba39ee9d264988b0", "fusion_lat": 0.0, "type": "electric_bike", "lat": 38.92688783333333, "is_reserved": 0, "is_disabled": 0, "fusion_lon": 0.0, "bike_id": "d646cf97d962e6d8ba39ee9d264988b0", "lon": -77.00782416666667, "rental_uris": {"ios": "https://dc.lft.to/lastmile_qr_scan", "android": "https://dc.lft.to/lastmile_qr_scan"}}, {"name": "8fa765c1ad46e054dbdc2beed733a79a", "fusion_lat": 0.0, "type": "electric_bike", "lat": 38.9395235, "is_reserved": 0, "is_disabled": 0, "fusion_lon": 0.0, "bike_id": "8fa765c1ad46e054dbdc2beed733a79a", "lon": -77.36095883333333, "rental_uris": {"ios": "https://dc.lft.to/lastmile_qr_scan", "android": "https://dc.lft.to/lastmile_qr_scan"}}, {"name": "8c8b1e9777c30f66782c3a236b58d301", "fusion_lat": 0.0, "type": "electric_scooter", "lat": 38.90358333333333, "is_reserved": 0, "is_disabled": 0, "fusion_lon": 0.0, "bike_id": "8c8b1e9777c30f66782c3a236b58d301", "lon": -77.04489266666667, "rental_uris": {"ios": "https://dc.lft.to/lastmile_qr_scan", "android": "https://dc.lft.to/lastmile_qr_scan"}}, {"name": "d281e0689d7a76116a9f80127a31013b", "fusion_lat": 0.0, "type": "electric_bike", "lat": 38.877498, "is_reserved": 0, "is_disabled": 0, "fusion_lon": 0.0, "bike_id": "d281e0689d7a76116a9f80127a31013b", "lon": -76.97985766666666, "rental_uris": {"ios": "https://dc.lft.to/lastmile_qr_scan", "android": "https://dc.lft.to/lastmile_qr_scan"}}, {"name": "f469c673f5dd209f373baaea49eba153", "fusion_lat": 0.0, "type": "electric_scooter", "lat": 38.9133185, "is_reserved": 0, "is_disabled": 0, "fusion_lon": 0.0, "bike_id": "f469c673f5dd209f373baaea49eba153", "lon": -77.03183266666667, "rental_uris": {"ios": "https://dc.lft.to/lastmile_qr_scan", "android": "https://dc.lft.to/lastmile_qr_scan"}}, {"name": "48fa859c2d481e8728059ab6e45f1a00", "fusion_lat": 0.0, "type": "electric_scooter", "lat": 38.931209, "is_reserved": 0, "is_disabled": 0, "fusion_lon": 0.0, "bike_id": "48fa859c2d481e8728059ab6e45f1a00", "lon": -77.0386135, "rental_uris": {"ios": "https://dc.lft.to/lastmile_qr_scan", "android": "https://dc.lft.to/lastmile_qr_scan"}}, {"name": "cb8b50844cb0ab7540deef1736be6887", "fusion_lat": 0.0, "type": "electric_scooter", "lat": 38.90814966666667, "is_reserved": 0, "is_disabled": 0, "fusion_lon": 0.0, "bike_id": "cb8b50844cb0ab7540deef1736be6887", "lon": -77.0390535, "rental_uris": {"ios": "https://dc.lft.to/lastmile_qr_scan", "android": "https://dc.lft.to/lastmile_qr_scan"}}, {"name": "435e2fc61171765c369d99aec133affb", "fusion_lat": 0.0, "type": "electric_bike", "lat": 38.84589666666667, "is_reserved": 0, "is_disabled": 0, "fusion_lon": 0.0, "bike_id": "435e2fc61171765c369d99aec133affb", "lon": -76.96879816666667, "rental_uris": {"ios": "https://dc.lft.to/lastmile_qr_scan", "android": "https://dc.lft.to/lastmile_qr_scan"}}, {"name": "f97a97033f26255a2a29f052f303a000", "fusion_lat": 0.0, "type": "electric_scooter", "lat": 38.90954833333333, "is_reserved": 0, "is_disabled": 0, "fusion_lon": 0.0, "bike_id": "f97a97033f26255a2a29f052f303a000", "lon": -77.0342185, "rental_uris": {"ios": "https://dc.lft.to/lastmile_qr_scan", "android": "https://dc.lft.to/lastmile_qr_scan"}}, {"name": "bea8be8bfd6633c279c382c0d702473e", "fusion_lat": 0.0, "type": "electric_scooter", "lat": 38.9002055, "is_reserved": 0, "is_disabled": 0, "fusion_lon": 0.0, "bike_id": "bea8be8bfd6633c279c382c0d702473e", "lon": -77.0532595, "rental_uris": {"ios": "https://dc.lft.to/lastmile_qr_scan", "android": "https://dc.lft.to/lastmile_qr_scan"}}, {"name": "1bbe9c74b106418c6224c678f722b215", "fusion_lat": 0.0, "type": "electric_scooter", "lat": 38.923386, "is_reserved": 0, "is_disabled": 0, "fusion_lon": 0.0, "bike_id": "1bbe9c74b106418c6224c678f722b215", "lon": -77.05116666666666, "rental_uris": {"ios": "https://dc.lft.to/lastmile_qr_scan", "android": "https://dc.lft.to/lastmile_qr_scan"}}, {"name": "c3499407cabed84d33f781bbb0ea17c3", "fusion_lat": 0.0, "type": "electric_scooter", "lat": 38.8935, "is_reserved": 0, "is_disabled": 0, "fusion_lon": 0.0, "bike_id": "c3499407cabed84d33f781bbb0ea17c3", "lon": -77.003302, "rental_uris": {"ios": "https://dc.lft.to/lastmile_qr_scan", "android": "https://dc.lft.to/lastmile_qr_scan"}},