{"data": {"bikes": [{"bike_id": "f92146647ee64f509793c5d2369464d4", "lat": 38.87785216666666, "is_reserved": 0, "fusion_lat": 0.0, "rental_uris": {"android": "https://dc.lft.to/lastmile_qr_scan", "ios": "https://dc.lft.to/lastmile_qr_scan"}, "fusion_lon": 0.0, "name": "f92146647ee64f509793c5d2369464d4", "lon": -76.99408816666667, "is_disabled": 0, "type": "electric_scooter"}, {"bike_id": "ac70ee890e5565d1e1ffd70b7fe0a62a", "lat": 38.91504033333333, "is_reserved": 0, "fusion_lat": 0.0, "rental_uris": {"android": "https://dc.lft.to/lastmile_qr_scan", "ios": "https://dc.lft.to/lastmile_qr_scan"}, "fusion_lon": 0.0, "name": "ac70ee890e5565d1e1ffd70b7fe0a62a", "lon": -77.01775833333333, "is_disabled": 0, "type": "electric_scooter"}, {"bike_id": "5ad3c4678ded56636d652e953c7b597d", "lat": 38.915659833333336, "is_reserved": 0, "fusion_lat": 0.0, "rental_uris": {"android": "https://dc.lft.to/lastmile_qr_scan", "ios": "https://dc.lft.to/lastmile_qr_scan"}, "fusion_lon": 0.0, "name": "5ad3c4678ded56636d652e953c7b597d", "lon": -77.02002266666666, "is_disabled": 0, "type": "electric_scooter"}, {"bike_id": "311f90dcf58343ee75b741a422f3abd3", "lat": 38.95635933333333, "is_reserved": 0, "fusion_lat": 0.0, "rental_uris": {"android": "https://dc.lft.to/lastmile_qr_scan", "ios": "https://dc.lft.to/lastmile_qr_scan"}, "fusion_lon": 0.0, "name": "311f90dcf58343ee75b741a422f3abd3", "lon": -77.01159233333334, "is_disabled": 0, "type": "electric_scooter"}, {"bike_id": "c3328b4bae6a6a77f0f808ff5215885f", "lat": 38.93724133333333, "is_reserved": 0, "fusion_lat": 0.0, "rental_uris": {"android": "https://dc.lft.to/lastmile_qr_scan", "ios": "https://dc.lft.to/lastmile_qr_scan"}, "fusion_lon": 0.0, "name": "c3328b4bae6a6a77f0f808ff5215885f", "lon": -77.03270716666667, "is_disabled": 0, "type": "electric_scooter"}, {"bike_id": "3aae147ffe8fcfa008969e9b14f14318", "lat": 38.95654716666667, "is_reserved": 0, "fusion_lat": 0.0, "rental_uris": {"android": "https://dc.lft.to/lastmile_qr_scan", "ios": "https://dc.lft.to/lastmile_qr_scan"}, "fusion_lon": 0.0, "name": "3aae147ffe8fcfa008969e9b14f14318", "lon": -77.0100275, "is_disabled": 0, "type": "electric_scooter"}, {"bike_id": "eba0b96cc9d07e69594ee4673e12db8b", "lat": 38.92452183333333, "is_reserved": 0, "fusion_lat": 0.0, "rental_uris": {"android": "https://dc.lft.to/lastmile_qr_scan", "ios": "https://dc.lft.to/lastmile_qr_scan"}, "fusion_lon": 0.0, "name": "eba0b96cc9d07e69594ee4673e12db8b", "lon": -77.04400166666667, "is_disabled": 0, "type": "electric_scooter"}, {"bike_id": "c0b7116c761fe7ce71f99b489ccd68be", "lat": 38.89887316666667, "is_reserved": 0, "fusion_lat": 0.0, "rental_uris": {"android": "https://dc.lft.to/lastmile_qr_scan", "ios": "https://dc.lft.to/lastmile_qr_scan"}, "fusion_lon": 0.0, "name": "c0b7116c761fe7ce71f99b489ccd68be", "lon": -77.039418, "is_disabled": 0, "type": "electric_scooter"}, {"bike_id": "82f614bbbd552351b61d58b7e3e81a44", "lat": 38.916272, "is_reserved": 0, "fusion_lat": 0.0, "rental_uris": {"android": "https://dc.lft.to/lastmile_qr_scan", "ios": "https://dc.lft.to/lastmile_qr_scan"}, "fusion_lon": 0.0, "name": "82f614bbbd552351b61d58b7e3e81a44", "lon": -77.030113, "is_disabled": 0, "type": "electric_scooter"}, {"bike_id": "7851eac3e0f5ea66eb7e4e33bfbc39e7", "lat": 38.92334833333334, "is_reserved": 0, "fusion_lat": 0.0, "rental_uris": {"android": "https://dc.lft.to/lastmile_qr_scan", "ios": "https://dc.lft.to/lastmile_qr_scan"}, "fusion_lon": 0.0, "name": "7851eac3e0f5ea66eb7e4e33bfbc39e7", "lon": -77.034966, "is_disabled": 0, "type": "electric_scooter"}, {"bike_id": "9569840e3e9ee19f12ddc4734a527db5", "lat": 38.7985585, "is_reserved": 0, "fusion_lat": 0.0, "rental_uris": {"android": "https://dc.lft.to/lastmile_qr_scan", "ios": "https://dc.lft.to/lastmile_qr_scan"}, "fusion_lon": 0.0, "name": "9569840e3e9ee19f12ddc4734a527db5", "lon": -77.06309616666667, "is_disabled": 0, "type": "electric_bike"}, {"bike_id": "39f88c2fbba36047d9643227ba116f5c", "lat": 38.907266166666666, "is_reserved": 0, "fusion_lat": 0.0, "rental_uris": {"android": "https://dc.lft.to/lastmile_qr_scan", "ios": "https://dc.lft.to/lastmile_qr_scan"}, "fusion_lon": 0.0, "name": "39f88c2fbba36047d9643227ba116f5c", "lon": -76.998172, "is_disabled": 0, "type": "electric_scooter"}, {"bike_id": "6468e741604ca11158ffd1e4d389704a", "lat": 38.89519133333334, "is_reserved": 0, "fusion_lat": 0.0, "rental_uris": {"android": "https://dc.lft.to/lastmile_qr_scan", "ios": "https://dc.lft.to/lastmile_qr_scan"}, "fusion_lon": 0.0, "name": "6468e741604ca11158ffd1e4d389704a", "lon": -77.02275983333334, "is_disabled": 0, "type": "electric_scooter"}, {"bike_id": "b384e48e8d3375f1a59d39b812a1bacc", "lat": 38.886577333333335, "is_reserved": 0, "fusion_lat": 0.0, "rental_uris": {"android": "https://dc.lft.to/lastmile_qr_scan", "ios": "https://dc.lft.to/lastmile_qr_scan"}, "fusion_lon": 0.0, "name": "b384e48e8d3375f1a59d39b812a1bacc", "lon": -77.00108016666667, "is_disabled": 0, "type": "electric_scooter"}, {"bike_id": "bf970617d9c5a012febf1edbc7ed0b6e", "lat": 38.901712833333335, "is_reserved": 0, "fusion_lat": 0.0, "rental_uris": {"android": "https://dc.lft.to/lastmile_qr_scan", "ios": "https://dc.lft.to/lastmile_qr_scan"}, "fusion_lon": 0.0, "name": "bf970617d9c5a012febf1edbc7ed0b6e", "lon": -76.93023816666667, "is_disabled": 0, "type": "electric_scooter"}, {"bike_id": "cce0c4a54d7a00e47626cb11d03cc755", "lat": 38.9195965, "is_reserved": 0, "fusion_lat": 0.0, "rental_uris": {"android": "https://dc.lft.to/lastmile_qr_scan", "ios": "https://dc.lft.to/lastmile_qr_scan"}, "fusion_lon": 0.0, "name": "cce0c4a54d7a00e47626cb11d03cc755", "lon": -77.0239935, "is_disabled": 0, "type": "electric_scooter"}, {"bike_id": "ee0316e0bf0300a9f14f85f62e277c49", "lat": 38.90555833333333, "is_reserved": 0, "fusion_lat": 0.0, "rental_uris": {"android": "https://dc.lft.to/lastmile_qr_scan", "ios": "https://dc.lft.to/lastmile_qr_scan"}, "fusion_lon": 0.0, "name": "ee0316e0bf0300a9f14f85f62e277c49", "lon": -77.025964, "is_disabled": 0, "type": "electric_scooter"}, {"bike_id": "12a75328ccb6eed88d00dd19fdcd6963", "lat": 39.0243735, "is_reserved": 0, "fusion_lat": 0.0, "rental_uris": {"android": "https://dc.lft.to/lastmile_qr_scan", "ios": "https://dc.lft.to/lastmile_qr_scan"}, "fusion_lon": 0.0, "name": "12a75328ccb6eed88d00dd19fdcd6963", "lon": -77.131006, "is_disabled": 0, "type": "electric_bike"}, {"bike_id": "2288cabc898ca332bbb60cb7273a78ab", "lat": 38.9314215, "is_reserved": 0, "fusion_lat": 0.0, "rental_uris": {"android": "https://dc.lft.to/lastmile_qr_scan", "ios": "https://dc.lft.to/lastmile_qr_scan"}, "fusion_lon": 0.0, "name": "2288cabc898ca332bbb60cb7273a78ab", "lon": -77.04246733333333, "is_disabled": 0, "type": "electric_scooter"}, {"bike_id": "7821848f700615b6c31a7717e3a25fe8", "lat": 38.911838, "is_reserved": 0, "fusion_lat": 0.0, "rental_uris": {"android": "https://dc.lft.to/lastmile_qr_scan", "ios": "https://dc.lft.to/lastmile_qr_scan"}, "fusion_lon": 0.0, "name": "7821848f700615b6c31a7717e3a25fe8", "lon": -77.03213933333333, "is_disabled": 0, "type": "electric_scooter"}, {"bike_id": "7abf363c2c1f58d5ff1a3601a3756b96", "lat": 38.91681, "is_reserved": 0, "fusion_lat": 0.0, "rental_uris": {"android": "https://dc.lft.to/lastmile_qr_scan", "ios": "https://dc.lft.to/lastmile_qr_scan"}, "fusion_lon": 0.0, "name": "7abf363c2c1f58d5ff1a3601a3756b96", "lon": -77.02884533333334, "is_disabled": 0, "type": "electric_scooter"}, {"bike_id": "78137b878285251f0106cc2e61a62cd4", "lat": 38.93959533333334, "is_reserved": 0, "fusion_lat": 0.0, "rental_uris": {"android": "https://dc.lft.to/lastmile_qr_scan", "ios": "https://dc.lft.to/lastmile_qr_scan"}, "fusion_lon": 0.0, "name": "78137b878285251f0106cc2e61a62cd4", "lon": -77.02750166666667, "is_disabled": 0, "type": "electric_scooter"}, {"bike_id": "25eaa0fb0d98ed9ac21921a2b79c2ddb", "lat": 38.86701716666666, "is_reserved": 0, "fusion_lat": 0.0, "rental_uris": {"android": "https://dc.lft.to/lastmile_qr_scan", "ios": "https://dc.lft.to/lastmile_qr_scan"}, "fusion_lon": 0.0, "name": "25eaa0fb0d98ed9ac21921a2b79c2ddb", "lon": -76.98706233333333, "is_disabled": 0, "type": "electric_scooter"}, {"bike_id": "a53976a927cbe154a8596e4d3cdf7813", "lat": 38.920496166666666, "is_reserved": 0, "fusion_lat": 0.0, "rental_uris": {"android": "https://dc.lft.to/lastmile_qr_scan", "ios": "https://dc.lft.to/lastmile_qr_scan"}, "fusion_lon": 0.0, "name": "a53976a927cbe154a8596e4d3cdf7813", "lon": -77.04191783333333, "is_disabled": 0, "type": "electric_scooter"}, {"bike_id": "899353e04f793e8f044ecc4510d427ce", "lat": 38.934590666666665, "is_reserved": 0, "fusion_lat": 0.0, "rental_uris": {"android": "https://dc.lft.to/lastmile_qr_scan", "ios": "https://dc.lft.to/lastmile_qr_scan"}, "fusion_lon": 0.0, "name": "899353e04f793e8f044ecc4510d427ce", "lon": -76.96441266666666, "is_disabled": 0, "type": "electric_scooter"}, {"bike_id": "4274673bef15962ee33731afc9d23c71", "lat": 38.898483666666664, "is_reserved": 0, "fusion_lat": 0.0, "rental_uris": {"android": "https://dc.lft.to/lastmile_qr_scan", "ios": "https://dc.lft.to/lastmile_qr_scan"}, "fusion_lon": 0.0, "name": "4274673bef15962ee33731afc9d23c71", "lon": -77.05302383333333, "is_disabled": 0, "type": "electric_bike"}, {"bike_id": "75df7db0f2ed783088fd8ba6c5c20ad0", "lat": 38.914775, "is_reserved": 0, "fusion_lat": 0.0, "rental_uris": {"android": "https://dc.lft.to/lastmile_qr_scan", "ios": "https://dc.lft.to/lastmile_qr_scan"}, "fusion_lon": 0.0, "name": "75df7db0f2ed783088fd8ba6c5c20ad0", "lon": -77.04535566666667, "is_disabled": 0, "type": "electric_scooter"}, {"bike_id": "085afadc0b460a15ba8f1371282a741f", "lat": 38.90450583333333, "is_reserved": 0, "fusion_lat": 0.0, "rental_uris": {"android": "https://dc.lft.to/lastmile_qr_scan", "ios": "https://dc.lft.to/lastmile_qr_scan"}, "fusion_lon": 0.0, "name": "085afadc0b460a15ba8f1371282a741f", "lon": -77.04859466666667, "is_disabled": 0, "type": "electric_scooter"}, {"bike_id": "3f031d3ee53b3673fcdb943db6a764e3", "lat": 38.8959575, "is_reserved": 0, "fusion_lat": 0.0, "rental_uris": {"android": "https://dc.lft.to/lastmile_qr_scan", "ios": "https://dc.lft.to/lastmile_qr_scan"}, "fusion_lon": 0.0, "name": "3f031d3ee53b3673fcdb943db6a764e3", "lon": -77.01140033333333, "is_disabled": 0, "type": "electric_scooter"}, {"bike_id": "39dd8c1b42caa918b83afbe8ca97b2d6", "lat": 38.930889666666666, "is_reserved": 0, "fusion_lat": 0.0, "rental_uris": {"android": "https://dc.lft.to/lastmile_qr_scan", "ios": "https://dc.lft.to/lastmile_qr_scan"}, "fusion_lon": 0.0, "name": "39dd8c1b42caa918b83afbe8ca97b2d6", "lon": -77.03746083333333, "is_disabled": 0, "type": "electric_scooter"}, {"bike_id": "9a532eadf1b7ff217fa2ede8ed860f0e", "lat": 38.894050166666666, "is_reserved": 0, "fusion_lat": 0.0, "rental_uris": {"android": "https://dc.lft.to/lastmile_qr_scan", "ios": "https://dc.lft.to/lastmile_qr_scan"}, "fusion_lon": 0.0, "name": "9a532eadf1b7ff217fa2ede8ed860f0e", "lon": -77.02125266666667, "is_disabled": 0, "type": "electric_scooter"}, {"bike_id": "5666838da59180b47adcbff3da0e2fca", "lat": 38.851289, "is_reserved": 0, "fusion_lat": 0.0, "rental_uris": {"android": "https://dc.lft.to/lastmile_qr_scan", "ios": "https://dc.lft.to/lastmile_qr_scan"}, "fusion_lon": 0.0, "name": "5666838da59180b47adcbff3da0e2fca", "lon": -76.971153, "is_disabled": 0, "type": "electric_scooter"}, {"bike_id": "fd519c3c7151fd77710d1918e99acd21", "lat": 38.92315, "is_reserved": 0, "fusion_lat": 0.0, "rental_uris": {"android": "https://dc.lft.to/lastmile_qr_scan", "ios": "https://dc.lft.to/lastmile_qr_scan"}, "fusion_lon": 0.0, "name": "fd519c3c7151fd77710d1918e99acd21", "lon": -77.04637533333333, "is_disabled": 0, "type": "electric_scooter"}, {"bike_id": "99534569b40819fd5979d48fe862cea0", "lat": 38.94194383333333, "is_reserved": 0, "fusion_lat": 0.0, "rental_uris": {"android": "https://dc.lft.to/lastmile_qr_scan", "ios": "https://dc.lft.to/lastmile_qr_scan"}, "fusion_lon": 0.0, "name": "99534569b40819fd5979d48fe862cea0", "lon": -77.0365715, "is_disabled": 0, "type": "electric_scooter"}, {"bike_id": "d8958cfa3dd2f5c97900e5547629cf10", "lat": 38.91109516666667, "is_reserved": 0, "fusion_lat": 0.0, "rental_uris": {"android": "https://dc.lft.to/lastmile_qr_scan", "ios": "https://dc.lft.to/lastmile_qr_scan"}, "fusion_lon": 0.0, "name": "d8958cfa3dd2f5c97900e5547629cf10", "lon": -77.04393333333333, "is_disabled": 0, "type": "electric_scooter"}, {"bike_id": "0fe55fb2f53214205d4ca6075f43404f", "lat": 38.915648833333336, "is_reserved": 0, "fusion_lat": 0.0, "rental_uris": {"android": "https://dc.lft.to/lastmile_qr_scan", "ios": "https://dc.lft.to/lastmile_qr_scan"}, "fusion_lon": 0.0, "name": "0fe55fb2f53214205d4ca6075f43404f", "lon": -77.025902, "is_disabled": 0, "type": "electric_scooter"}, {"bike_id": "575f1ce372bea177a05502aab8476eb7", "lat": 38.86870716666667, "is_reserved": 0, "fusion_lat": 0.0, "rental_uris": {"android": "https://dc.lft.to/lastmile_qr_scan", "ios": "https://dc.lft.to/lastmile_qr_scan"}, "fusion_lon": 0.0, "name": "575f1ce372bea177a05502aab8476eb7", "lon": -76.97087, "is_disabled": 0, "type": "electric_bike"}, {"bike_id": "1f757fb72740587233cbc008f3012420", "lat": 38.915735, "is_reserved": 0, "fusion_lat": 0.0, "rental_uris": {"android": "https://dc.lft.to/lastmile_qr_scan", "ios": "https://dc.lft.to/lastmile_qr_scan"}, "fusion_lon": 0.0, "name": "1f757fb72740587233cbc008f3012420", "lon": -77.01245533333334, "is_disabled": 0, "type": "electric_scooter"}, {"bike_id": "f9093a9a47338cbffb3785a55ecdeb1e", "lat": 38.900168, "is_reserved": 0, "fusion_lat": 0.0, "rental_uris": {"android": "https://dc.lft.to/lastmile_qr_scan", "ios": "https://dc.lft.to/lastmile_qr_scan"}, "fusion_lon": 0.0, "name": "f9093a9a47338cbffb3785a55ecdeb1e", "lon": -77.038113, "is_disabled": 0, "type": "electric_scooter"}, {"bike_id": "7157e2ba69868c0490faea18a0c3d4c6", "lat": 38.90556016666667, "is_reserved": 0, "fusion_lat": 0.0, "rental_uris": {"android": "https://dc.lft.to/lastmile_qr_scan", "ios": "https://dc.lft.to/lastmile_qr_scan"}, "fusion_lon": 0.0, "name": "7157e2ba69868c0490faea18a0c3d4c6", "lon": -77.04086916666667, "is_disabled": 0, "type": "electric_scooter"}, {"bike_id": "4890265496c64bb2503a77f65b17ba57", "lat": 38.92048116666667, "is_reserved": 0, "fusion_lat": 0.0, "rental_uris": {"android": "https://dc.lft.to/lastmile_qr_scan", "ios": "https://dc.lft.to/lastmile_qr_scan"}, "fusion_lon": 0.0, "name": "4890265496c64bb2503a77f65b17ba57", "lon": -77.03238833333333, "is_disabled": 0, "type": "electric_scooter"}, {"bike_id": "1b98b121e34c9a720f57d032c0b09014", "lat": 38.9388715, "is_reserved": 0, "fusion_lat": 0.0, "rental_uris": {"android": "https://dc.lft.to/lastmile_qr_scan", "ios": "https://dc.lft.to/lastmile_qr_scan"}, "fusion_lon": 0.0, "name": "1b98b121e34c9a720f57d032c0b09014", "lon": -77.02459933333333, "is_disabled": 0, "type": "electric_scooter"}, {"bike_id": "519a4e688beb9d61531fedd3cb255a16", "lat": 38.905413333333335, "is_reserved": 0, "fusion_lat": 0.0, "rental_uris": {"android": "https://dc.lft.to/lastmile_qr_scan", "ios": "https://dc.lft.to/lastmile_qr_scan"}, "fusion_lon": 0.0, "name": "519a4e688beb9d61531fedd3cb255a16", "lon": -77.046811, "is_disabled": 0, "type": "electric_scooter"}, {"bike_id": "1a0bb343ef4eb1215dfacc8a4005e71f", "lat": 38.8431865, "is_reserved": 0, "fusion_lat": 0.0, "rental_uris": {"android": "https://dc.lft.to/lastmile_qr_scan", "ios": "https://dc.lft.to/lastmile_qr_scan"}, "fusion_lon": 0.0, "name": "1a0bb343ef4eb1215dfacc8a4005e71f", "lon": -76.99911883333333, "is_disabled": 0, "type": "electric_scooter"}, {"bike_id": "abb3196f79df302d90c588bb419e8d23", "lat": 38.899542333333336, "is_reserved": 0, "fusion_lat": 0.0, "rental_uris": {"android": "https://dc.lft.to/lastmile_qr_scan", "ios": "https://dc.lft.to/lastmile_qr_scan"}, "fusion_lon": 0.0, "name": "abb3196f79df302d90c588bb419e8d23", "lon": -77.04535833333334, "is_disabled": 0, "type": "electric_scooter"}, {"bike_id": "1d35d06f38d6711f68aed43f7ad70f50", "lat": 38.90269283333333, "is_reserved": 0, "fusion_lat": 0.0, "rental_uris": {"android": "https://dc.lft.to/lastmile_qr_scan", "ios": "https://dc.lft.to/lastmile_qr_scan"}, "fusion_lon": 0.0, "name": "1d35d06f38d6711f68aed43f7ad70f50", "lon": -77.00594766666667, "is_disabled": 0, "type": "electric_scooter"}, {"bike_id": "70189cc1d912eed44a84a7e8e6a49587", "lat": 38.947975, "is_reserved": 0, "fusion_lat": 0.0, "rental_uris": {"android": "https://dc.lft.to/lastmile_qr_scan", "ios": "https://dc.lft.to/lastmile_qr_scan"}, "fusion_lon": 0.0, "name": "70189cc1d912eed44a84a7e8e6a49587", "lon": -76.95540416666667, "is_disabled": 0, "type": "electric_bike"}, {"bike_id": "42b064a008a1bb4bb51096d56fd9a278", "lat": 38.880011, "is_reserved": 0, "fusion_lat": 0.0, "rental_uris": {"android": "https://dc.lft.to/lastmile_qr_scan", "ios": "https://dc.lft.to/lastmile_qr_scan"}, "fusion_lon": 0.0, "name": "42b064a008a1bb4bb51096d56fd9a278", "lon": -76.98543383333333, "is_disabled": 0, "type": "electric_scooter"}, {"bike_id": "1c31de938ad72ee347d7abb18dfd04f3", "lat": 38.905015166666665, "is_reserved": 0, "fusion_lat": 0.0, "rental_uris": {"android": "https://dc.lft.to/lastmile_qr_scan", "ios": "https://dc.lft.to/lastmile_qr_scan"}, "fusion_lon": 0.0, "name": "1c31de938ad72ee347d7abb18dfd04f3", "lon": -77.06018133333333, "is_disabled": 0, "type": "electric_scooter"}, {"bike_id": "6c2fb97b5ed1680f2866b1ce8788d617", "lat": 38.94793466666667, "is_reserved": 0, "fusion_lat": 0.0, "rental_uris": {"android": "https://dc.lft.to/lastmile_qr_scan", "ios": "https://dc.lft.to/lastmile_qr_scan"}, "fusion_lon": 0.0, "name": "6c2fb97b5ed1680f2866b1ce8788d617", "lon": -77.02136616666667, "is_disabled": 0, "type": "electric_scooter"}, {"bike_id": "bdb6f9a81fb13bb9de8a9a2f18346452", "lat": 38.89705433333334, "is_reserved": 0, "fusion_lat": 0.0, "rental_uris": {"android": "https://dc.lft.to/lastmile_qr_scan", "ios": "https://dc.lft.to/lastmile_qr_scan"}, "fusion_lon": 0.0, "name": "bdb6f9a81fb13bb9de8a9a2f18346452", "lon": -77.04876483333334, "is_disabled": 0, "type": "electric_scooter"}, {"bike_id": "5bb206eb935cf78cb2c04a3738a955f2", "lat": 38.9003235, "is_reserved": 0, "fusion_lat": 0.0, "rental_uris": {"android": "https://dc.lft.to/lastmile_qr_scan", "ios": "https://dc.lft.to/lastmile_qr_scan"}, "fusion_lon": 0.0, "name": "5bb206eb935cf78cb2c04a3738a955f2", "lon": -76.99583566666666, "is_disabled": 0, "type": "electric_scooter"}, {"bike_id": "6febea2da1fd464d108b6cc8890c45bb", "lat": 38.8993655, "is_reserved": 0, "fusion_lat": 0.0, "rental_uris": {"android": "https://dc.lft.to/lastmile_qr_scan", "ios": "https://dc.lft.to/lastmile_qr_scan"}, "fusion_lon": 0.0, "name": "6febea2da1fd464d108b6cc8890c45bb", "lon": -77.014844, "is_disabled": 0, "type": "electric_bike"}, {"bike_id": "502aad3269ea6d326127dce8983e829a", "lat": 38.905915, "is_reserved": 0, "fusion_lat": 0.0, "rental_uris": {"android": "https://dc.lft.to/lastmile_qr_scan", "ios": "https://dc.lft.to/lastmile_qr_scan"}, "fusion_lon": 0.0, "name": "502aad3269ea6d326127dce8983e829a", "lon": -77.04042366666667, "is_disabled": 0, "type": "electric_scooter"}, {"bike_id": "459c795398c3f6a297bc7595f21a1b30", "lat": 38.8936685, "is_reserved": 0, "fusion_lat": 0.0, "rental_uris": {"android": "https://dc.lft.to/lastmile_qr_scan", "ios": "https://dc.lft.to/lastmile_qr_scan"}, "fusion_lon": 0.0, "name": "459c795398c3f6a297bc7595f21a1b30", "lon": -76.94703483333333, "is_disabled": 0, "type": "electric_scooter"}, {"bike_id": "011f809b22b7a3b80f95cc2340924189", "lat": 38.913992, "is_reserved": 0, "fusion_lat": 0.0, "rental_uris": {"android": "https://dc.lft.to/lastmile_qr_scan", "ios": "https://dc.lft.to/lastmile_qr_scan"}, "fusion_lon": 0.0, "name": "011f809b22b7a3b80f95cc2340924189", "lon": -77.01795633333333, "is_disabled": 0, "type": "electric_scooter"}, {"bike_id": "da13bc2363409f560d59cdb119ff9d77", "lat": 38.9056635, "is_reserved": 0, "fusion_lat": 0.0, "rental_uris": {"android": "https://dc.lft.to/lastmile_qr_scan", "ios": "https://dc.lft.to/lastmile_qr_scan"}, "fusion_lon": 0.0, "name": "da13bc2363409f560d59cdb119ff9d77", "lon": -77.02812133333333, "is_disabled": 0, "type": "electric_scooter"}, {"bike_id": "d65eed3c1e056fda3e648e771bdc6a67", "lat": 38.91296166666667, "is_reserved": 0, "fusion_lat": 0.0, "rental_uris": {"android": "https://dc.lft.to/lastmile_qr_scan", "ios": "https://dc.lft.to/lastmile_qr_scan"}, "fusion_lon": 0.0, "name": "d65eed3c1e056fda3e648e771bdc6a67", "lon": -77.02972433333333, "is_disabled": 0, "type": "electric_scooter"}, {"bike_id": "b3bebdb5d0a0f4ef01be0e364142f8f8", "lat": 38.9160335, "is_reserved": 0, "fusion_lat": 0.0, "rental_uris": {"android": "https://dc.lft.to/lastmile_qr_scan", "ios": "https://dc.lft.to/lastmile_qr_scan"}, "fusion_lon": 0.0, "name": "b3bebdb5d0a0f4ef01be0e364142f8f8", "lon": -77.03131866666666, "is_disabled": 0, "type": "electric_scooter"}, {"bike_id": "1599ce8a7ea5f1047c933453258e3812", "lat": 38.892205833333335, "is_reserved": 0, "fusion_lat": 0.0, "rental_uris": {"android": "https://dc.lft.to/lastmile_qr_scan", "ios": "https://dc.lft.to/lastmile_qr_scan"}, "fusion_lon": 0.0, "name": "1599ce8a7ea5f1047c933453258e3812", "lon": -77.0222815, "is_disabled": 0, "type": "electric_scooter"}, {"bike_id": "61a9166336da750dad55d89fbffcbeeb", "lat": 38.92793366666667, "is_reserved": 0, "fusion_lat": 0.0, "rental_uris": {"android": "https://dc.lft.to/lastmile_qr_scan", "ios": "https://dc.lft.to/lastmile_qr_scan"}, "fusion_lon": 0.0, "name": "61a9166336da750dad55d89fbffcbeeb", "lon": -77.05360866666666, "is_disabled": 0, "type": "electric_scooter"}, {"bike_id": "a182b1457a23b1abc8a8b0a54da546a2", "lat": 38.961936333333334, "is_reserved": 0, "fusion_lat": 0.0, "rental_uris": {"android": "https://dc.lft.to/lastmile_qr_scan", "ios": "https://dc.lft.to/lastmile_qr_scan"}, "fusion_lon": 0.0, "name": "a182b1457a23b1abc8a8b0a54da546a2", "lon": -77.01028966666667, "is_disabled": 0, "type": "electric_scooter"}, {"bike_id": "b3153b0a7a46d1fcb27b427dd4e07c88", "lat": 38.907743333333336, "is_reserved": 0, "fusion_lat": 0.0, "rental_uris": {"android": "https://dc.lft.to/lastmile_qr_scan", "ios": "https://dc.lft.to/lastmile_qr_scan"}, "fusion_lon": 0.0, "name": "b3153b0a7a46d1fcb27b427dd4e07c88", "lon": -77.04354216666667, "is_disabled": 0, "type": "electric_scooter"}, {"bike_id": "9b5abc03bb4c4e447f3b07ffa305418b", "lat": 38.929174, "is_reserved": 0, "fusion_lat": 0.0, "rental_uris": {"android": "https://dc.lft.to/lastmile_qr_scan", "ios": "https://dc.lft.to/lastmile_qr_scan"}, "fusion_lon": 0.0, "name": "9b5abc03bb4c4e447f3b07ffa305418b", "lon": -77.03282466666667, "is_disabled": 0, "type": "electric_scooter"}, {"bike_id": "b49bdbf04a26e9044bc5ef717593a79f", "lat": 38.920333, "is_reserved": 0, "fusion_lat": 0.0, "rental_uris": {"android": "https://dc.lft.to/lastmile_qr_scan", "ios": "https://dc.lft.to/lastmile_qr_scan"}, "fusion_lon": 0.0, "name": "b49bdbf04a26e9044bc5ef717593a79f", "lon": -77.03124316666667, "is_disabled": 0, "type": "electric_scooter"}, {"bike_id": "8d24f4e87446c71266bd235800c9c60a", "lat": 38.866483833333334, "is_reserved": 0, "fusion_lat": 0.0, "rental_uris": {"android": "https://dc.lft.to/lastmile_qr_scan", "ios": "https://dc.lft.to/lastmile_qr_scan"}, "fusion_lon": 0.0, "name": "8d24f4e87446c71266bd235800c9c60a", "lon": -76.988198, "is_disabled": 0, "type": "electric_scooter"}, {"bike_id": "43746fe896b0d77902f59b6600fe8dd1", "lat": 38.866820833333335, "is_reserved": 0, "fusion_lat": 0.0, "rental_uris": {"android": "https://dc.lft.to/lastmile_qr_scan", "ios": "https://dc.lft.to/lastmile_qr_scan"}, "fusion_lon": 0.0, "name": "43746fe896b0d77902f59b6600fe8dd1", "lon": -76.98574733333334, "is_disabled": 0, "type": "electric_scooter"}, {"bike_id": "43d526ee0cc1879e2201df25ead921d5", "lat": 38.8928375, "is_reserved": 0, "fusion_lat": 0.0, "rental_uris": {"android": "https://dc.lft.to/lastmile_qr_scan", "ios": "https://dc.lft.to/lastmile_qr_scan"}, "fusion_lon": 0.0, "name": "43d526ee0cc1879e2201df25ead921d5", "lon": -77.01981816666667, "is_disabled": 0, "type": "electric_scooter"}, {"bike_id": "3d9b5345dce3184e7663fff88f05f0f7", "lat": 38.984617166666666, "is_reserved": 0, "fusion_lat": 0.0, "rental_uris": {"android": "https://dc.lft.to/lastmile_qr_scan", "ios": "https://dc.lft.to/lastmile_qr_scan"}, "fusion_lon": 0.0, "name": "3d9b5345dce3184e7663fff88f05f0f7", "lon": -76.970517, "is_disabled": 0, "type": "electric_bike"}, {"bike_id": "9a73fedadaba321879444253bcd9c4e5", "lat": 38.95255366666667, "is_reserved": 0, "fusion_lat": 0.0, "rental_uris": {"android": "https://dc.lft.to/lastmile_qr_scan", "ios": "https://dc.lft.to/lastmile_qr_scan"}, "fusion_lon": 0.0, "name": "9a73fedadaba321879444253bcd9c4e5", "lon": -77.01963216666667, "is_disabled": 0, "type": "electric_scooter"}, {"bike_id": "f57e3ea24d23a872f331ab8b4a0ea2ed", "lat": 38.91386283333333, "is_reserved": 0, "fusion_lat": 0.0, "rental_uris": {"android": "https://dc.lft.to/lastmile_qr_scan", "ios": "https://dc.lft.to/lastmile_qr_scan"}, "fusion_lon": 0.0, "name": "f57e3ea24d23a872f331ab8b4a0ea2ed", "lon": -77.01704983333333, "is_disabled": 0, "type": "electric_scooter"}, {"bike_id": "2427e3bf70ba9dce58c6102db8f7c643", "lat": 38.91696266666667, "is_reserved": 0, "fusion_lat": 0.0, "rental_uris": {"android": "https://dc.lft.to/lastmile_qr_scan", "ios": "https://dc.lft.to/lastmile_qr_scan"}, "fusion_lon": 0.0, "name": "2427e3bf70ba9dce58c6102db8f7c643", "lon": -77.04110966666667, "is_disabled": 0, "type": "electric_scooter"}, {"bike_id": "9ec567e107be462a95a6bbb6ae841635", "lat": 38.903325833333334, "is_reserved": 0, "fusion_lat": 0.0, "rental_uris": {"android": "https://dc.lft.to/lastmile_qr_scan", "ios": "https://dc.lft.to/lastmile_qr_scan"}, "fusion_lon": 0.0, "name": "9ec567e107be462a95a6bbb6ae841635", "lon": -77.0384075, "is_disabled": 0, "type": "electric_scooter"}, {"bike_id": "d94989a2bbcf437dcf30344d30932ebf", "lat": 38.923078, "is_reserved": 0, "fusion_lat": 0.0, "rental_uris": {"android": "https://dc.lft.to/lastmile_qr_scan", "ios": "https://dc.lft.to/lastmile_qr_scan"}, "fusion_lon": 0.0, "name": "d94989a2bbcf437dcf30344d30932ebf", "lon": -77.02963616666666, "is_disabled": 0, "type": "electric_scooter"}, {"bike_id": "d791fd9b8325bfed671ad435206be64b", "lat": 38.955244, "is_reserved": 0, "fusion_lat": 0.0, "rental_uris": {"android": "https://dc.lft.to/lastmile_qr_scan", "ios": "https://dc.lft.to/lastmile_qr_scan"}, "fusion_lon": 0.0, "name": "d791fd9b8325bfed671ad435206be64b", "lon": -77.02313283333334, "is_disabled": 0, "type": "electric_scooter"}, {"bike_id": "9aaa43d19329bce702bb8c1c6f37fc8b", "lat": 38.923298833333334, "is_reserved": 0, "fusion_lat": 0.0, "rental_uris": {"android": "https://dc.lft.to/lastmile_qr_scan", "ios": "https://dc.lft.to/lastmile_qr_scan"}, "fusion_lon": 0.0, "name": "9aaa43d19329bce702bb8c1c6f37fc8b", "lon": -77.03679716666667, "is_disabled": 0, "type": "electric_scooter"}, {"bike_id": "bed620274aca53e5d2fb80c3c4f29825", "lat": 38.90529383333333, "is_reserved": 0, "fusion_lat": 0.0, "rental_uris": {"android": "https://dc.lft.to/lastmile_qr_scan", "ios": "https://dc.lft.to/lastmile_qr_scan"}, "fusion_lon": 0.0, "name": "bed620274aca53e5d2fb80c3c4f29825", "lon": -77.070282, "is_disabled": 0, "type": "electric_scooter"}, {"bike_id": "1576fd267a3cf39630be28771bbce003", "lat": 38.91121166666667, "is_reserved": 0, "fusion_lat": 0.0, "rental_uris": {"android": "https://dc.lft.to/lastmile_qr_scan", "ios": "https://dc.lft.to/lastmile_qr_scan"}, "fusion_lon": 0.0, "name": "1576fd267a3cf39630be28771bbce003", "lon": -77.02205583333334, "is_disabled": 0, "type": "electric_scooter"}, {"bike_id": "468e50ee63c644fa933ce61753926971", "lat": 38.898859333333334, "is_reserved": 0, "fusion_lat": 0.0, "rental_uris": {"android": "https://dc.lft.to/lastmile_qr_scan", "ios": "https://dc.lft.to/lastmile_qr_scan"}, "fusion_lon": 0.0, "name": "468e50ee63c644fa933ce61753926971", "lon": -76.9322655, "is_disabled": 0, "type": "electric_scooter"}, {"bike_id": "b76df2ae84204f621c80b6a2611bb992", "lat": 38.916298, "is_reserved": 0, "fusion_lat": 0.0, "rental_uris": {"android": "https://dc.lft.to/lastmile_qr_scan", "ios": "https://dc.lft.to/lastmile_qr_scan"}, "fusion_lon": 0.0, "name": "b76df2ae84204f621c80b6a2611bb992", "lon": -77.03209116666666, "is_disabled": 0, "type": "electric_scooter"}, {"bike_id": "118602a0dba0dfe934a181fd0d1215c9", "lat": 38.89221966666667, "is_reserved": 0, "fusion_lat": 0.0, "rental_uris": {"android": "https://dc.lft.to/lastmile_qr_scan", "ios": "https://dc.lft.to/lastmile_qr_scan"}, "fusion_lon": 0.0, "name": "118602a0dba0dfe934a181fd0d1215c9", "lon": -77.00341183333333, "is_disabled": 0, "type": "electric_scooter"}, {"bike_id": "9855fca31a345cf73549220cb3c88ae2", "lat": 38.903816666666664, "is_reserved": 0, "fusion_lat": 0.0, "rental_uris": {"android": "https://dc.lft.to/lastmile_qr_scan", "ios": "https://dc.lft.to/lastmile_qr_scan"}, "fusion_lon": 0.0, "name": "9855fca31a345cf73549220cb3c88ae2", "lon": -77.03478616666666, "is_disabled": 0, "type": "electric_scooter"}, {"bike_id": "859b92b20c5325043bbadc9fb46cd2c1", "lat": 38.9448925, "is_reserved": 0, "fusion_lat": 0.0, "rental_uris": {"android": "https://dc.lft.to/lastmile_qr_scan", "ios": "https://dc.lft.to/lastmile_qr_scan"}, "fusion_lon": 0.0, "name": "859b92b20c5325043bbadc9fb46cd2c1", "lon": -77.09441316666667, "is_disabled": 0, "type": "electric_scooter"}, {"bike_id": "6e2cfae4e7fa8cd115fd7b5977b48953", "lat": 38.8737765, "is_reserved": 0, "fusion_lat": 0.0, "rental_uris": {"android": "https://dc.lft.to/lastmile_qr_scan", "ios": "https://dc.lft.to/lastmile_qr_scan"}, "fusion_lon": 0.0, "name": "6e2cfae4e7fa8cd115fd7b5977b48953", "lon": -77.00043383333333, "is_disabled": 0, "type": "electric_scooter"}, {"bike_id": "8b251ab94e62b7bff905895b7933221b", "lat": 38.916696, "is_reserved": 0, "fusion_lat": 0.0, "rental_uris": {"android": "https://dc.lft.to/lastmile_qr_scan", "ios": "https://dc.lft.to/lastmile_qr_scan"}, "fusion_lon": 0.0, "name": "8b251ab94e62b7bff905895b7933221b", "lon": -77.02320266666666, "is_disabled": 0, "type": "electric_scooter"}, {"bike_id": "4d13d8cb0facb6d3fdd41fee676fc7f5", "lat": 38.8871875, "is_reserved": 0, "fusion_lat": 0.0, "rental_uris": {"android": "https://dc.lft.to/lastmile_qr_scan", "ios": "https://dc.lft.to/lastmile_qr_scan"}, "fusion_lon": 0.0, "name": "4d13d8cb0facb6d3fdd41fee676fc7f5", "lon": -77.022043, "is_disabled": 0, "type": "electric_scooter"}, {"bike_id": "2057d377ec9e0e93669db0c47b891a6a", "lat": 38.9631855, "is_reserved": 0, "fusion_lat": 0.0, "rental_uris": {"android": "https://dc.lft.to/lastmile_qr_scan", "ios": "https://dc.lft.to/lastmile_qr_scan"}, "fusion_lon": 0.0, "name": "2057d377ec9e0e93669db0c47b891a6a", "lon": -76.97369216666667, "is_disabled": 0, "type": "electric_bike"}, {"bike_id": "67d47d7cfe910fae1e96d9626ee9c22b", "lat": 38.914137333333336, "is_reserved": 0, "fusion_lat": 0.0, "rental_uris": {"android": "https://dc.lft.to/lastmile_qr_scan", "ios": "https://dc.lft.to/lastmile_qr_scan"}, "fusion_lon": 0.0, "name": "67d47d7cfe910fae1e96d9626ee9c22b", "lon": -77.04497283333333, "is_disabled": 0, "type": "electric_scooter"}, {"bike_id": "3a25444f7b247a2ad5e676715cf1c7fc", "lat": 38.90749483333333, "is_reserved": 0, "fusion_lat": 0.0, "rental_uris": {"android": "https://dc.lft.to/lastmile_qr_scan", "ios": "https://dc.lft.to/lastmile_qr_scan"}, "fusion_lon": 0.0, "name": "3a25444f7b247a2ad5e676715cf1c7fc", "lon": -77.03205883333334, "is_disabled": 0, "type": "electric_scooter"}, {"bike_id": "2d3485e3ad5570c8aefdc7e105b76c42", "lat": 38.874752, "is_reserved": 0, "fusion_lat": 0.0, "rental_uris": {"android": "https://dc.lft.to/lastmile_qr_scan", "ios": "https://dc.lft.to/lastmile_qr_scan"}, "fusion_lon": 0.0, "name": "2d3485e3ad5570c8aefdc7e105b76c42", "lon": -77.01069316666667, "is_disabled": 0, "type": "electric_scooter"}, {"bike_id": "788ed50ffbe5c1ade1a3b8b9da72579d", "lat": 38.89885133333333, "is_reserved": 0, "fusion_lat": 0.0, "rental_uris": {"android": "https://dc.lft.to/lastmile_qr_scan", "ios": "https://dc.lft.to/lastmile_qr_scan"}, "fusion_lon": 0.0, "name": "788ed50ffbe5c1ade1a3b8b9da72579d", "lon": -76.93178133333333, "is_disabled": 0, "type": "electric_scooter"}, {"bike_id": "0d1234ca4e93b4eac8c3d5ccb316be37", "lat": 38.918508833333334, "is_reserved": 0, "fusion_lat": 0.0, "rental_uris": {"android": "https://dc.lft.to/lastmile_qr_scan", "ios": "https://dc.lft.to/lastmile_qr_scan"}, "fusion_lon": 0.0, "name": "0d1234ca4e93b4eac8c3d5ccb316be37", "lon": -77.0317925, "is_disabled": 0, "type": "electric_scooter"}, {"bike_id": "2bf557d4bbcc723f3319cb120fc25e72", "lat": 38.93319733333333, "is_reserved": 0, "fusion_lat": 0.0, "rental_uris": {"android": "https://dc.lft.to/lastmile_qr_scan", "ios": "https://dc.lft.to/lastmile_qr_scan"}, "fusion_lon": 0.0, "name": "2bf557d4bbcc723f3319cb120fc25e72", "lon": -77.029267, "is_disabled": 0, "type": "electric_scooter"}, {"bike_id": "94b235d0a87f990967f0f64a170bcb8a", "lat": 38.907455, "is_reserved": 0, "fusion_lat": 0.0, "rental_uris": {"android": "https://dc.lft.to/lastmile_qr_scan", "ios": "https://dc.lft.to/lastmile_qr_scan"}, "fusion_lon": 0.0, "name": "94b235d0a87f990967f0f64a170bcb8a", "lon": -77.041454, "is_disabled": 0, "type": "electric_scooter"}, {"bike_id": "2a6347ca188eee74c374d747863b76f7", "lat": 38.9033225, "is_reserved": 0, "fusion_lat": 0.0, "rental_uris": {"android": "https://dc.lft.to/lastmile_qr_scan", "ios": "https://dc.lft.to/lastmile_qr_scan"}, "fusion_lon": 0.0, "name": "2a6347ca188eee74c374d747863b76f7", "lon": -77.02889466666667, "is_disabled": 0, "type": "electric_scooter"}, {"bike_id": "3d62a126f12a3b8d60591bf7698c78c7", "lat": 38.90551966666666, "is_reserved": 0, "fusion_lat": 0.0, "rental_uris": {"android": "https://dc.lft.to/lastmile_qr_scan", "ios": "https://dc.lft.to/lastmile_qr_scan"}, "fusion_lon": 0.0, "name": "3d62a126f12a3b8d60591bf7698c78c7", "lon": -77.00285983333333, "is_disabled": 0, "type": "electric_scooter"}, {"bike_id": "6b6868fece4ef285fdc049c2c93db450", "lat": 38.87884183333333, "is_reserved": 0, "fusion_lat": 0.0, "rental_uris": {"android": "https://dc.lft.to/lastmile_qr_scan", "ios": "https://dc.lft.to/lastmile_qr_scan"}, "fusion_lon": 0.0, "name": "6b6868fece4ef285fdc049c2c93db450", "lon": -77.09613466666667, "is_disabled": 0, "type": "electric_bike"}, {"bike_id": "1900f32ed8f8a3fc6c66578dc3c2f6f3", "lat": 38.929669, "is_reserved": 0, "fusion_lat": 0.0, "rental_uris": {"android": "https://dc.lft.to/lastmile_qr_scan", "ios": "https://dc.lft.to/lastmile_qr_scan"}, "fusion_lon": 0.0, "name": "1900f32ed8f8a3fc6c66578dc3c2f6f3", "lon": -77.02793166666666, "is_disabled": 0, "type": "electric_scooter"}, {"bike_id": "54572e1570825478d373dbc47e8d1d03", "lat": 38.92090616666667, "is_reserved": 0, "fusion_lat": 0.0, "rental_uris": {"android": "https://dc.lft.to/lastmile_qr_scan", "ios": "https://dc.lft.to/lastmile_qr_scan"}, "fusion_lon": 0.0, "name": "54572e1570825478d373dbc47e8d1d03", "lon": -77.02044866666667, "is_disabled": 0, "type": "electric_scooter"}, {"bike_id": "5cc5f365543a1e5ea64ce5c99d1586df", "lat": 38.90391833333334, "is_reserved": 0, "fusion_lat": 0.0, "rental_uris": {"android": "https://dc.lft.to/lastmile_qr_scan", "ios": "https://dc.lft.to/lastmile_qr_scan"}, "fusion_lon": 0.0, "name": "5cc5f365543a1e5ea64ce5c99d1586df", "lon": -77.04827283333333, "is_disabled": 0, "type": "electric_scooter"}, {"bike_id": "6c7d9c64580c5fb4e46d3468fcafe8e0", "lat": 38.900625166666664, "is_reserved": 0, "fusion_lat": 0.0, "rental_uris": {"android": "https://dc.lft.to/lastmile_qr_scan", "ios": "https://dc.lft.to/lastmile_qr_scan"}, "fusion_lon": 0.0, "name": "6c7d9c64580c5fb4e46d3468fcafe8e0", "lon": -76.93383366666667, "is_disabled": 0, "type": "electric_scooter"}, {"bike_id": "dcbf946525f2aee9b938417cf4b50e75", "lat": 38.9285315, "is_reserved": 0, "fusion_lat": 0.0, "rental_uris": {"android": "https://dc.lft.to/lastmile_qr_scan", "ios": "https://dc.lft.to/lastmile_qr_scan"}, "fusion_lon": 0.0, "name": "dcbf946525f2aee9b938417cf4b50e75", "lon": -77.036095, "is_disabled": 0, "type": "electric_scooter"}, {"bike_id": "bd9b8ea04eb149d620b2a185d2d1a2ce", "lat": 38.904566833333334, "is_reserved": 0, "fusion_lat": 0.0, "rental_uris": {"android": "https://dc.lft.to/lastmile_qr_scan", "ios": "https://dc.lft.to/lastmile_qr_scan"}, "fusion_lon": 0.0, "name": "bd9b8ea04eb149d620b2a185d2d1a2ce", "lon": -77.04352366666667, "is_disabled": 0, "type": "electric_scooter"}, {"bike_id": "14b7275b17410aed09c67a99d75d2b52", "lat": 38.901427, "is_reserved": 0, "fusion_lat": 0.0, "rental_uris": {"android": "https://dc.lft.to/lastmile_qr_scan", "ios": "https://dc.lft.to/lastmile_qr_scan"}, "fusion_lon": 0.0, "name": "14b7275b17410aed09c67a99d75d2b52", "lon": -77.014943, "is_disabled": 0, "type": "electric_scooter"}, {"bike_id": "37d1040cdc1262371becbc5b6bcff8aa", "lat": 38.9248155, "is_reserved": 0, "fusion_lat": 0.0, "rental_uris": {"android": "https://dc.lft.to/lastmile_qr_scan", "ios": "https://dc.lft.to/lastmile_qr_scan"}, "fusion_lon": 0.0, "name": "37d1040cdc1262371becbc5b6bcff8aa", "lon": -77.03107766666666, "is_disabled": 0, "type": "electric_scooter"}, {"bike_id": "b8166022b87ce6f505c81408ad460c06", "lat": 38.905945833333334, "is_reserved": 0, "fusion_lat": 0.0, "rental_uris": {"android": "https://dc.lft.to/lastmile_qr_scan", "ios": "https://dc.lft.to/lastmile_qr_scan"}, "fusion_lon": 0.0, "name": "b8166022b87ce6f505c81408ad460c06", "lon": -77.04119283333333, "is_disabled": 0, "type": "electric_scooter"}, {"bike_id": "ad1c965343ed9b2b83df7c064fc72127", "lat": 38.91274933333333, "is_reserved": 0, "fusion_lat": 0.0, "rental_uris": {"android": "https://dc.lft.to/lastmile_qr_scan", "ios": "https://dc.lft.to/lastmile_qr_scan"}, "fusion_lon": 0.0, "name": "ad1c965343ed9b2b83df7c064fc72127", "lon": -77.02955883333334, "is_disabled": 0, "type": "electric_scooter"}, {"bike_id": "ea8fa17623a886470ef4fe04dddfaa56", "lat": 38.915554666666665, "is_reserved": 0, "fusion_lat": 0.0, "rental_uris": {"android": "https://dc.lft.to/lastmile_qr_scan", "ios": "https://dc.lft.to/lastmile_qr_scan"}, "fusion_lon": 0.0, "name": "ea8fa17623a886470ef4fe04dddfaa56", "lon": -77.02208566666667, "is_disabled": 0, "type": "electric_scooter"}, {"bike_id": "fe18f1680c7da72aaa3d154e9137c4a0", "lat": 38.87101966666667, "is_reserved": 0, "fusion_lat": 0.0, "rental_uris": {"android": "https://dc.lft.to/lastmile_qr_scan", "ios": "https://dc.lft.to/lastmile_qr_scan"}, "fusion_lon": 0.0, "name": "fe18f1680c7da72aaa3d154e9137c4a0", "lon": -77.01209016666667, "is_disabled": 0, "type": "electric_scooter"}, {"bike_id": "704a65a477614b0e4d8e77496c4f7157", "lat": 38.916884, "is_reserved": 0, "fusion_lat": 0.0, "rental_uris": {"android": "https://dc.lft.to/lastmile_qr_scan", "ios": "https://dc.lft.to/lastmile_qr_scan"}, "fusion_lon": 0.0, "name": "704a65a477614b0e4d8e77496c4f7157", "lon": -77.02374566666667, "is_disabled": 0, "type": "electric_scooter"}, {"bike_id": "c62ea6352f02ec23816154022fa359fc", "lat": 38.956344666666666, "is_reserved": 0, "fusion_lat": 0.0, "rental_uris": {"android": "https://dc.lft.to/lastmile_qr_scan", "ios": "https://dc.lft.to/lastmile_qr_scan"}, "fusion_lon": 0.0, "name": "c62ea6352f02ec23816154022fa359fc", "lon": -76.93878833333333, "is_disabled": 0, "type": "electric_bike"}, {"bike_id": "4d178f998de65cbcda6e353e89110b44", "lat": 38.914714333333336, "is_reserved": 0, "fusion_lat": 0.0, "rental_uris": {"android": "https://dc.lft.to/lastmile_qr_scan", "ios": "https://dc.lft.to/lastmile_qr_scan"}, "fusion_lon": 0.0, "name": "4d178f998de65cbcda6e353e89110b44", "lon": -77.04554366666666, "is_disabled": 0, "type": "electric_scooter"}, {"bike_id": "afe42efd2977eef7c2ac0733b9d8e7c6", "lat": 38.90571716666667, "is_reserved": 0, "fusion_lat": 0.0, "rental_uris": {"android": "https://dc.lft.to/lastmile_qr_scan", "ios": "https://dc.lft.to/lastmile_qr_scan"}, "fusion_lon": 0.0, "name": "afe42efd2977eef7c2ac0733b9d8e7c6", "lon": -76.97624016666667, "is_disabled": 0, "type": "electric_scooter"}, {"bike_id": "d14117bebe92a56022f0f6125af6af16", "lat": 38.923392666666665, "is_reserved": 0, "fusion_lat": 0.0, "rental_uris": {"android": "https://dc.lft.to/lastmile_qr_scan", "ios": "https://dc.lft.to/lastmile_qr_scan"}, "fusion_lon": 0.0, "name": "d14117bebe92a56022f0f6125af6af16", "lon": -77.01908916666666, "is_disabled": 0, "type": "electric_scooter"}, {"bike_id": "0a746455e96a1f6c039a7bc6e60e6cad", "lat": 38.8852215, "is_reserved": 0, "fusion_lat": 0.0, "rental_uris": {"android": "https://dc.lft.to/lastmile_qr_scan", "ios": "https://dc.lft.to/lastmile_qr_scan"}, "fusion_lon": 0.0, "name": "0a746455e96a1f6c039a7bc6e60e6cad", "lon": -76.9770795, "is_disabled": 0, "type": "electric_scooter"}, {"bike_id": "e8b0beb926b3c53295aa61ddafdfa1df", "lat": 38.91326733333333, "is_reserved": 0, "fusion_lat": 0.0, "rental_uris": {"android": "https://dc.lft.to/lastmile_qr_scan", "ios": "https://dc.lft.to/lastmile_qr_scan"}, "fusion_lon": 0.0, "name": "e8b0beb926b3c53295aa61ddafdfa1df", "lon": -77.03179233333333, "is_disabled": 0, "type": "electric_scooter"}, {"bike_id": "9af80f4d1c2ab0266a59edd25f953436", "lat": 38.9153265, "is_reserved": 0, "fusion_lat": 0.0, "rental_uris": {"android": "https://dc.lft.to/lastmile_qr_scan", "ios": "https://dc.lft.to/lastmile_qr_scan"}, "fusion_lon": 0.0, "name": "9af80f4d1c2ab0266a59edd25f953436", "lon": -76.98354633333334, "is_disabled": 0, "type": "electric_scooter"}, {"bike_id": "4a19d614e33e613e6c5225a1cc550a0c", "lat": 38.90527183333333, "is_reserved": 0, "fusion_lat": 0.0, "rental_uris": {"android": "https://dc.lft.to/lastmile_qr_scan", "ios": "https://dc.lft.to/lastmile_qr_scan"}, "fusion_lon": 0.0, "name": "4a19d614e33e613e6c5225a1cc550a0c", "lon": -77.06023583333334, "is_disabled": 0, "type": "electric_scooter"}, {"bike_id": "237495cb250a819bde6378cde22ec536", "lat": 38.920502166666665, "is_reserved": 0, "fusion_lat": 0.0, "rental_uris": {"android": "https://dc.lft.to/lastmile_qr_scan", "ios": "https://dc.lft.to/lastmile_qr_scan"}, "fusion_lon": 0.0, "name": "237495cb250a819bde6378cde22ec536", "lon": -77.04185516666666, "is_disabled": 0, "type": "electric_scooter"}, {"bike_id": "f9e87a05b536aa33ef7dac44b42f3e1e", "lat": 38.894848333333336, "is_reserved": 0, "fusion_lat": 0.0, "rental_uris": {"android": "https://dc.lft.to/lastmile_qr_scan", "ios": "https://dc.lft.to/lastmile_qr_scan"}, "fusion_lon": 0.0, "name": "f9e87a05b536aa33ef7dac44b42f3e1e", "lon": -77.02301433333334, "is_disabled": 0, "type": "electric_scooter"}, {"bike_id": "a3b11905dca453f55860ecf4e653e40a", "lat": 38.914206666666665, "is_reserved": 0, "fusion_lat": 0.0, "rental_uris": {"android": "https://dc.lft.to/lastmile_qr_scan", "ios": "https://dc.lft.to/lastmile_qr_scan"}, "fusion_lon": 0.0, "name": "a3b11905dca453f55860ecf4e653e40a", "lon": -77.0198615, "is_disabled": 0, "type": "electric_scooter"}, {"bike_id": "1756fa1f1563f50f67f879476edc4778", "lat": 38.92003316666667, "is_reserved": 0, "fusion_lat": 0.0, "rental_uris": {"android": "https://dc.lft.to/lastmile_qr_scan", "ios": "https://dc.lft.to/lastmile_qr_scan"}, "fusion_lon": 0.0, "name": "1756fa1f1563f50f67f879476edc4778", "lon": -77.08188166666666, "is_disabled": 0, "type": "electric_scooter"}, {"bike_id": "e4e2a24ae8a986752d09d98283f85661", "lat": 38.9082665, "is_reserved": 0, "fusion_lat": 0.0, "rental_uris": {"android": "https://dc.lft.to/lastmile_qr_scan", "ios": "https://dc.lft.to/lastmile_qr_scan"}, "fusion_lon": 0.0, "name": "e4e2a24ae8a986752d09d98283f85661", "lon": -77.03187133333333, "is_disabled": 0, "type": "electric_scooter"}, {"bike_id": "582983728bacecb6babac69cd26229d8", "lat": 38.8953115, "is_reserved": 0, "fusion_lat": 0.0, "rental_uris": {"android": "https://dc.lft.to/lastmile_qr_scan", "ios": "https://dc.lft.to/lastmile_qr_scan"}, "fusion_lon": 0.0, "name": "582983728bacecb6babac69cd26229d8", "lon": -77.02810466666666, "is_disabled": 0, "type": "electric_scooter"}, {"bike_id": "135197d197747ba44aef3fe6cb82cea0", "lat": 38.95566266666667, "is_reserved": 0, "fusion_lat": 0.0, "rental_uris": {"android": "https://dc.lft.to/lastmile_qr_scan", "ios": "https://dc.lft.to/lastmile_qr_scan"}, "fusion_lon": 0.0, "name": "135197d197747ba44aef3fe6cb82cea0", "lon": -77.02719, "is_disabled": 0, "type": "electric_scooter"}, {"bike_id": "053d5ea57044c7eb9d41c9f6a2df1351", "lat": 38.923300833333336, "is_reserved": 0, "fusion_lat": 0.0, "rental_uris": {"android": "https://dc.lft.to/lastmile_qr_scan", "ios": "https://dc.lft.to/lastmile_qr_scan"}, "fusion_lon": 0.0, "name": "053d5ea57044c7eb9d41c9f6a2df1351", "lon": -77.03680933333334, "is_disabled": 0, "type": "electric_scooter"}, {"bike_id": "deff5e0ec839aa9005ea79450accc412", "lat": 38.923285166666666, "is_reserved": 0, "fusion_lat": 0.0, "rental_uris": {"android": "https://dc.lft.to/lastmile_qr_scan", "ios": "https://dc.lft.to/lastmile_qr_scan"}, "fusion_lon": 0.0, "name": "deff5e0ec839aa9005ea79450accc412", "lon": -77.03674683333334, "is_disabled": 0, "type": "electric_scooter"}, {"bike_id": "4f4c3620734e540385a9276ad0121f9b", "lat": 38.89858316666667, "is_reserved": 0, "fusion_lat": 0.0, "rental_uris": {"android": "https://dc.lft.to/lastmile_qr_scan", "ios": "https://dc.lft.to/lastmile_qr_scan"}, "fusion_lon": 0.0, "name": "4f4c3620734e540385a9276ad0121f9b", "lon": -77.02734816666667, "is_disabled": 0, "type": "electric_scooter"}, {"bike_id": "6760c4c02535a1656e5c7b60effe0a9c", "lat": 38.86507666666667, "is_reserved": 0, "fusion_lat": 0.0, "rental_uris": {"android": "https://dc.lft.to/lastmile_qr_scan", "ios": "https://dc.lft.to/lastmile_qr_scan"}, "fusion_lon": 0.0, "name": "6760c4c02535a1656e5c7b60effe0a9c", "lon": -76.99011183333333, "is_disabled": 0, "type": "electric_scooter"}, {"bike_id": "937a0dabfdd6f2b118bf0ac76d5a4ea5", "lat": 38.92272216666667, "is_reserved": 0, "fusion_lat": 0.0, "rental_uris": {"android": "https://dc.lft.to/lastmile_qr_scan", "ios": "https://dc.lft.to/lastmile_qr_scan"}, "fusion_lon": 0.0, "name": "937a0dabfdd6f2b118bf0ac76d5a4ea5", "lon": -77.04230233333334, "is_disabled": 0, "type": "electric_scooter"}, {"bike_id": "2a28310f135a5a65e3643f466d621452", "lat": 38.90042433333333, "is_reserved": 0, "fusion_lat": 0.0, "rental_uris": {"android": "https://dc.lft.to/lastmile_qr_scan", "ios": "https://dc.lft.to/lastmile_qr_scan"}, "fusion_lon": 0.0, "name": "2a28310f135a5a65e3643f466d621452", "lon": -76.991526, "is_disabled": 0, "type": "electric_scooter"}, {"bike_id": "19dc617bb71e6ace287a2b8771c311ed", "lat": 38.9171715, "is_reserved": 0, "fusion_lat": 0.0, "rental_uris": {"android": "https://dc.lft.to/lastmile_qr_scan", "ios": "https://dc.lft.to/lastmile_qr_scan"}, "fusion_lon": 0.0, "name": "19dc617bb71e6ace287a2b8771c311ed", "lon": -77.02900266666667, "is_disabled": 0, "type": "electric_scooter"}, {"bike_id": "53215f17af02741f6926bcf5b5210da8", "lat": 38.915569166666664, "is_reserved": 0, "fusion_lat": 0.0, "rental_uris": {"android": "https://dc.lft.to/lastmile_qr_scan", "ios": "https://dc.lft.to/lastmile_qr_scan"}, "fusion_lon": 0.0, "name": "53215f17af02741f6926bcf5b5210da8", "lon": -77.02567166666667, "is_disabled": 0, "type": "electric_scooter"}, {"bike_id": "f56af9f760a6988a82b43c5e28b72718", "lat": 38.95745383333333, "is_reserved": 0, "fusion_lat": 0.0, "rental_uris": {"android": "https://dc.lft.to/lastmile_qr_scan", "ios": "https://dc.lft.to/lastmile_qr_scan"}, "fusion_lon": 0.0, "name": "f56af9f760a6988a82b43c5e28b72718", "lon": -77.02169733333334, "is_disabled": 0, "type": "electric_bike"}, {"bike_id": "d6857874291dfa22db14a7bfbb4a2fa2", "lat": 38.853536, "is_reserved": 0, "fusion_lat": 0.0, "rental_uris": {"android": "https://dc.lft.to/lastmile_qr_scan", "ios": "https://dc.lft.to/lastmile_qr_scan"}, "fusion_lon": 0.0, "name": "d6857874291dfa22db14a7bfbb4a2fa2", "lon": -77.086869, "is_disabled": 0, "type": "electric_bike"}, {"bike_id": "2c8108bbd82dcc32636962685ebf39c7", "lat": 38.88489366666667, "is_reserved": 0, "fusion_lat": 0.0, "rental_uris": {"android": "https://dc.lft.to/lastmile_qr_scan", "ios": "https://dc.lft.to/lastmile_qr_scan"}, "fusion_lon": 0.0, "name": "2c8108bbd82dcc32636962685ebf39c7", "lon": -77.03476283333333, "is_disabled": 0, "type": "electric_scooter"}, {"bike_id": "1f1c97fcfe0719eeaee4452078bcea39", "lat": 38.93243416666667, "is_reserved": 0, "fusion_lat": 0.0, "rental_uris": {"android": "https://dc.lft.to/lastmile_qr_scan", "ios": "https://dc.lft.to/lastmile_qr_scan"}, "fusion_lon": 0.0, "name": "1f1c97fcfe0719eeaee4452078bcea39", "lon": -77.02964, "is_disabled": 0, "type": "electric_scooter"}, {"bike_id": "b5d957ec1696c1ea0fb9400a62bf6395", "lat": 38.90418, "is_reserved": 0, "fusion_lat": 0.0, "rental_uris": {"android": "https://dc.lft.to/lastmile_qr_scan", "ios": "https://dc.lft.to/lastmile_qr_scan"}, "fusion_lon": 0.0, "name": "b5d957ec1696c1ea0fb9400a62bf6395", "lon": -77.04872433333334, "is_disabled": 0, "type": "electric_scooter"}, {"bike_id": "0bf9ef9731941eca2edcef9b6677e89f", "lat": 38.9183495, "is_reserved": 0, "fusion_lat": 0.0, "rental_uris": {"android": "https://dc.lft.to/lastmile_qr_scan", "ios": "https://dc.lft.to/lastmile_qr_scan"}, "fusion_lon": 0.0, "name": "0bf9ef9731941eca2edcef9b6677e89f", "lon": -77.03941933333333, "is_disabled": 0, "type": "electric_scooter"}, {"bike_id": "0b9945e416e71975de97db6a634d0afc", "lat": 38.9221455, "is_reserved": 0, "fusion_lat": 0.0, "rental_uris": {"android": "https://dc.lft.to/lastmile_qr_scan", "ios": "https://dc.lft.to/lastmile_qr_scan"}, "fusion_lon": 0.0, "name": "0b9945e416e71975de97db6a634d0afc", "lon": -77.04250466666667, "is_disabled": 0, "type": "electric_scooter"}, {"bike_id": "28c7ad9be5c286075cb43c0fc837119c", "lat": 38.907278833333336, "is_reserved": 0, "fusion_lat": 0.0, "rental_uris": {"android": "https://dc.lft.to/lastmile_qr_scan", "ios": "https://dc.lft.to/lastmile_qr_scan"}, "fusion_lon": 0.0, "name": "28c7ad9be5c286075cb43c0fc837119c", "lon": -77.002325, "is_disabled": 0, "type": "electric_scooter"}, {"bike_id": "19f52978cc822f1de7e2cc4cbd6d8c20", "lat": 38.91264833333334, "is_reserved": 0, "fusion_lat": 0.0, "rental_uris": {"android": "https://dc.lft.to/lastmile_qr_scan", "ios": "https://dc.lft.to/lastmile_qr_scan"}, "fusion_lon": 0.0, "name": "19f52978cc822f1de7e2cc4cbd6d8c20", "lon": -77.04357566666667, "is_disabled": 0, "type": "electric_scooter"}, {"bike_id": "2aa0a4e3d35f774010deb573604aa39e", "lat": 38.9198865, "is_reserved": 0, "fusion_lat": 0.0, "rental_uris": {"android": "https://dc.lft.to/lastmile_qr_scan", "ios": "https://dc.lft.to/lastmile_qr_scan"}, "fusion_lon": 0.0, "name": "2aa0a4e3d35f774010deb573604aa39e", "lon": -77.01789316666667, "is_disabled": 0, "type": "electric_scooter"}, {"bike_id": "bcbce9092b0a0ad21ffdcec124cb4f45", "lat": 38.9381815, "is_reserved": 0, "fusion_lat": 0.0, "rental_uris": {"android": "https://dc.lft.to/lastmile_qr_scan", "ios": "https://dc.lft.to/lastmile_qr_scan"}, "fusion_lon": 0.0, "name": "bcbce9092b0a0ad21ffdcec124cb4f45", "lon": -77.05991466666667, "is_disabled": 0, "type": "electric_scooter"}, {"bike_id": "349eafd576f70bc2a707a3b5667ece91", "lat": 38.96406183333333, "is_reserved": 0, "fusion_lat": 0.0, "rental_uris": {"android": "https://dc.lft.to/lastmile_qr_scan", "ios": "https://dc.lft.to/lastmile_qr_scan"}, "fusion_lon": 0.0, "name": "349eafd576f70bc2a707a3b5667ece91", "lon": -76.99990666666666, "is_disabled": 0, "type": "electric_bike"}, {"bike_id": "d3f8ae251ef6eb497d07aa705782e44d", "lat": 38.89552916666667, "is_reserved": 0, "fusion_lat": 0.0, "rental_uris": {"android": "https://dc.lft.to/lastmile_qr_scan", "ios": "https://dc.lft.to/lastmile_qr_scan"}, "fusion_lon": 0.0, "name": "d3f8ae251ef6eb497d07aa705782e44d", "lon": -77.04686666666667, "is_disabled": 0, "type": "electric_scooter"}, {"bike_id": "fa3ac23f2606ec541c330482604a8cde", "lat": 38.897388666666664, "is_reserved": 0, "fusion_lat": 0.0, "rental_uris": {"android": "https://dc.lft.to/lastmile_qr_scan", "ios": "https://dc.lft.to/lastmile_qr_scan"}, "fusion_lon": 0.0, "name": "fa3ac23f2606ec541c330482604a8cde", "lon": -77.02728816666666, "is_disabled": 0, "type": "electric_scooter"}, {"bike_id": "c05896d500762764f98c4e6cd5875eb9", "lat": 38.91417966666667, "is_reserved": 0, "fusion_lat": 0.0, "rental_uris": {"android": "https://dc.lft.to/lastmile_qr_scan", "ios": "https://dc.lft.to/lastmile_qr_scan"}, "fusion_lon": 0.0, "name": "c05896d500762764f98c4e6cd5875eb9", "lon": -77.01801, "is_disabled": 0, "type": "electric_scooter"}, {"bike_id": "5d3a065a22d4c8f948c5a9b6b2119b08", "lat": 38.91269583333333, "is_reserved": 0, "fusion_lat": 0.0, "rental_uris": {"android": "https://dc.lft.to/lastmile_qr_scan", "ios": "https://dc.lft.to/lastmile_qr_scan"}, "fusion_lon": 0.0, "name": "5d3a065a22d4c8f948c5a9b6b2119b08", "lon": -77.04494983333333, "is_disabled": 0, "type": "electric_scooter"}, {"bike_id": "fb2409ccfc87b37bdd07c72c9d677f95", "lat": 38.92395233333333, "is_reserved": 0, "fusion_lat": 0.0, "rental_uris": {"android": "https://dc.lft.to/lastmile_qr_scan", "ios": "https://dc.lft.to/lastmile_qr_scan"}, "fusion_lon": 0.0, "name": "fb2409ccfc87b37bdd07c72c9d677f95", "lon": -77.0445295, "is_disabled": 0, "type": "electric_scooter"}, {"bike_id": "5f7b321c37908272306c05df55f636d8", "lat": 38.924458666666666, "is_reserved": 0, "fusion_lat": 0.0, "rental_uris": {"android": "https://dc.lft.to/lastmile_qr_scan", "ios": "https://dc.lft.to/lastmile_qr_scan"}, "fusion_lon": 0.0, "name": "5f7b321c37908272306c05df55f636d8", "lon": -77.03337383333333, "is_disabled": 0, "type": "electric_scooter"}, {"bike_id": "85e3898dc5930fb6c8ff7d2347c09bdf", "lat": 38.90717433333333, "is_reserved": 0, "fusion_lat": 0.0, "rental_uris": {"android": "https://dc.lft.to/lastmile_qr_scan", "ios": "https://dc.lft.to/lastmile_qr_scan"}, "fusion_lon": 0.0, "name": "85e3898dc5930fb6c8ff7d2347c09bdf", "lon": -77.0216975, "is_disabled": 0, "type": "electric_scooter"}, {"bike_id": "1bf25e323da86e70b426e2924ec96c7d", "lat": 38.81508916666667, "is_reserved": 0, "fusion_lat": 0.0, "rental_uris": {"android": "https://dc.lft.to/lastmile_qr_scan", "ios": "https://dc.lft.to/lastmile_qr_scan"}, "fusion_lon": 0.0, "name": "1bf25e323da86e70b426e2924ec96c7d", "lon": -77.12657516666667, "is_disabled": 0, "type": "electric_bike"}, {"bike_id": "77cb7398ca0fb9d73d9eab86c5b675f6", "lat": 38.873780833333335, "is_reserved": 0, "fusion_lat": 0.0, "rental_uris": {"android": "https://dc.lft.to/lastmile_qr_scan", "ios": "https://dc.lft.to/lastmile_qr_scan"}, "fusion_lon": 0.0, "name": "77cb7398ca0fb9d73d9eab86c5b675f6", "lon": -77.000419, "is_disabled": 0, "type": "electric_scooter"}, {"bike_id": "fb72990a71f7842ea55fd74048207f4a", "lat": 38.9184515, "is_reserved": 0, "fusion_lat": 0.0, "rental_uris": {"android": "https://dc.lft.to/lastmile_qr_scan", "ios": "https://dc.lft.to/lastmile_qr_scan"}, "fusion_lon": 0.0, "name": "fb72990a71f7842ea55fd74048207f4a", "lon": -77.03183633333333, "is_disabled": 0, "type": "electric_scooter"}, {"bike_id": "bc5ca9048c74552fc75d5a9d4add24ee", "lat": 38.898615166666666, "is_reserved": 0, "fusion_lat": 0.0, "rental_uris": {"android": "https://dc.lft.to/lastmile_qr_scan", "ios": "https://dc.lft.to/lastmile_qr_scan"}, "fusion_lon": 0.0, "name": "bc5ca9048c74552fc75d5a9d4add24ee", "lon": -76.946373, "is_disabled": 0, "type": "electric_scooter"}, {"bike_id": "2bf4c2cde56c9fe18e2c22fe05f8df1e", "lat": 38.904137, "is_reserved": 0, "fusion_lat": 0.0, "rental_uris": {"android": "https://dc.lft.to/lastmile_qr_scan", "ios": "https://dc.lft.to/lastmile_qr_scan"}, "fusion_lon": 0.0, "name": "2bf4c2cde56c9fe18e2c22fe05f8df1e", "lon": -77.024943, "is_disabled": 0, "type": "electric_scooter"}, {"bike_id": "b451f563017f3a6da5d11f69b682943d", "lat": 38.7960485, "is_reserved": 0, "fusion_lat": 0.0, "rental_uris": {"android": "https://dc.lft.to/lastmile_qr_scan", "ios": "https://dc.lft.to/lastmile_qr_scan"}, "fusion_lon": 0.0, "name": "b451f563017f3a6da5d11f69b682943d", "lon": -76.99746066666667, "is_disabled": 0, "type": "electric_bike"}, {"bike_id": "5adb57a623079a75394b15630db0deb7", "lat": 38.9233515, "is_reserved": 0, "fusion_lat": 0.0, "rental_uris": {"android": "https://dc.lft.to/lastmile_qr_scan", "ios": "https://dc.lft.to/lastmile_qr_scan"}, "fusion_lon": 0.0, "name": "5adb57a623079a75394b15630db0deb7", "lon": -77.05423483333334, "is_disabled": 0, "type": "electric_scooter"}, {"bike_id": "e8382134006c3cf75939e4930b4eb243", "lat": 38.930301666666665, "is_reserved": 0, "fusion_lat": 0.0, "rental_uris": {"android": "https://dc.lft.to/lastmile_qr_scan", "ios": "https://dc.lft.to/lastmile_qr_scan"}, "fusion_lon": 0.0, "name": "e8382134006c3cf75939e4930b4eb243", "lon": -77.02337116666666, "is_disabled": 0, "type": "electric_scooter"}, {"bike_id": "77ceb56de84f362cd227f52be0b652f8", "lat": 38.89462866666667, "is_reserved": 0, "fusion_lat": 0.0, "rental_uris": {"android": "https://dc.lft.to/lastmile_qr_scan", "ios": "https://dc.lft.to/lastmile_qr_scan"}, "fusion_lon": 0.0, "name": "77ceb56de84f362cd227f52be0b652f8", "lon": -77.02384716666667, "is_disabled": 0, "type": "electric_scooter"}, {"bike_id": "fd9325a44b24c922a0b40252ae5b6bd1", "lat": 38.8923435, "is_reserved": 0, "fusion_lat": 0.0, "rental_uris": {"android": "https://dc.lft.to/lastmile_qr_scan", "ios": "https://dc.lft.to/lastmile_qr_scan"}, "fusion_lon": 0.0, "name": "fd9325a44b24c922a0b40252ae5b6bd1", "lon": -77.04151816666666, "is_disabled": 0, "type": "electric_scooter"}, {"bike_id": "3dcceab4c8c9bc997193a0767e4e8021", "lat": 38.922065833333335, "is_reserved": 0, "fusion_lat": 0.0, "rental_uris": {"android": "https://dc.lft.to/lastmile_qr_scan", "ios": "https://dc.lft.to/lastmile_qr_scan"}, "fusion_lon": 0.0, "name": "3dcceab4c8c9bc997193a0767e4e8021", "lon": -77.0340435, "is_disabled": 0, "type": "electric_scooter"}, {"bike_id": "1e826c2dea54944c34c742469cd496c3", "lat": 38.9024305, "is_reserved": 0, "fusion_lat": 0.0, "rental_uris": {"android": "https://dc.lft.to/lastmile_qr_scan", "ios": "https://dc.lft.to/lastmile_qr_scan"}, "fusion_lon": 0.0, "name": "1e826c2dea54944c34c742469cd496c3", "lon": -77.0451125, "is_disabled": 0, "type": "electric_scooter"}, {"bike_id": "6a1f751857256b9d6f73f3a329599879", "lat": 38.938940333333335, "is_reserved": 0, "fusion_lat": 0.0, "rental_uris": {"android": "https://dc.lft.to/lastmile_qr_scan", "ios": "https://dc.lft.to/lastmile_qr_scan"}, "fusion_lon": 0.0, "name": "6a1f751857256b9d6f73f3a329599879", "lon": -77.03324283333333, "is_disabled": 0, "type": "electric_scooter"}, {"bike_id": "743632360d20bab37cec2b5c4a2713f7", "lat": 38.9037635, "is_reserved": 0, "fusion_lat": 0.0, "rental_uris": {"android": "https://dc.lft.to/lastmile_qr_scan", "ios": "https://dc.lft.to/lastmile_qr_scan"}, "fusion_lon": 0.0, "name": "743632360d20bab37cec2b5c4a2713f7", "lon": -77.0466245, "is_disabled": 0, "type": "electric_scooter"}, {"bike_id": "f0fbc28224cfe6853ac57e42f0672cc3", "lat": 38.916253, "is_reserved": 0, "fusion_lat": 0.0, "rental_uris": {"android": "https://dc.lft.to/lastmile_qr_scan", "ios": "https://dc.lft.to/lastmile_qr_scan"}, "fusion_lon": 0.0, "name": "f0fbc28224cfe6853ac57e42f0672cc3", "lon": -77.03045533333334, "is_disabled": 0, "type": "electric_scooter"}, {"bike_id": "a7bf822984d15682c3634b508a248708", "lat": 38.92512766666667, "is_reserved": 0, "fusion_lat": 0.0, "rental_uris": {"android": "https://dc.lft.to/lastmile_qr_scan", "ios": "https://dc.lft.to/lastmile_qr_scan"}, "fusion_lon": 0.0, "name": "a7bf822984d15682c3634b508a248708", "lon": -77.023613, "is_disabled": 0, "type": "electric_scooter"}, {"bike_id": "48bced1fad1055a106db324e7eada8a0", "lat": 38.93511383333333, "is_reserved": 0, "fusion_lat": 0.0, "rental_uris": {"android": "https://dc.lft.to/lastmile_qr_scan", "ios": "https://dc.lft.to/lastmile_qr_scan"}, "fusion_lon": 0.0, "name": "48bced1fad1055a106db324e7eada8a0", "lon": -77.019622, "is_disabled": 0, "type": "electric_scooter"}, {"bike_id": "8425f6b3481b51d3d809d8195395087d", "lat": 38.920660833333336, "is_reserved": 0, "fusion_lat": 0.0, "rental_uris": {"android": "https://dc.lft.to/lastmile_qr_scan", "ios": "https://dc.lft.to/lastmile_qr_scan"}, "fusion_lon": 0.0, "name": "8425f6b3481b51d3d809d8195395087d", "lon": -77.01477983333334, "is_disabled": 0, "type": "electric_scooter"}, {"bike_id": "93e54d62ec19c9c736291cee1e10acee", "lat": 38.873552333333336, "is_reserved": 0, "fusion_lat": 0.0, "rental_uris": {"android": "https://dc.lft.to/lastmile_qr_scan", "ios": "https://dc.lft.to/lastmile_qr_scan"}, "fusion_lon": 0.0, "name": "93e54d62ec19c9c736291cee1e10acee", "lon": -77.0005125, "is_disabled": 0, "type": "electric_scooter"}, {"bike_id": "9b6ee6256cf1b618de260cf16673b7bd", "lat": 38.925369333333336, "is_reserved": 0, "fusion_lat": 0.0, "rental_uris": {"android": "https://dc.lft.to/lastmile_qr_scan", "ios": "https://dc.lft.to/lastmile_qr_scan"}, "fusion_lon": 0.0, "name": "9b6ee6256cf1b618de260cf16673b7bd", "lon": -77.03382383333333, "is_disabled": 0, "type": "electric_scooter"}, {"bike_id": "d706b9835f372b64ae35eadeb37d7447", "lat": 38.90335, "is_reserved": 0, "fusion_lat": 0.0, "rental_uris": {"android": "https://dc.lft.to/lastmile_qr_scan", "ios": "https://dc.lft.to/lastmile_qr_scan"}, "fusion_lon": 0.0, "name": "d706b9835f372b64ae35eadeb37d7447", "lon": -77.03840183333334, "is_disabled": 0, "type": "electric_scooter"}, {"bike_id": "05d74de0df6cdb3f9dfda209604fad2a", "lat": 38.97197283333333, "is_reserved": 0, "fusion_lat": 0.0, "rental_uris": {"android": "https://dc.lft.to/lastmile_qr_scan", "ios": "https://dc.lft.to/lastmile_qr_scan"}, "fusion_lon": 0.0, "name": "05d74de0df6cdb3f9dfda209604fad2a", "lon": -77.026512, "is_disabled": 0, "type": "electric_scooter"}, {"bike_id": "c2293d2313f6ccc91e8d84714f8dee7c", "lat": 38.8662705, "is_reserved": 0, "fusion_lat": 0.0, "rental_uris": {"android": "https://dc.lft.to/lastmile_qr_scan", "ios": "https://dc.lft.to/lastmile_qr_scan"}, "fusion_lon": 0.0, "name": "c2293d2313f6ccc91e8d84714f8dee7c", "lon": -76.987175, "is_disabled": 0, "type": "electric_scooter"}, {"bike_id": "269a535599f88857294644e7581fb261", "lat": 38.90726816666667, "is_reserved": 0, "fusion_lat": 0.0, "rental_uris": {"android": "https://dc.lft.to/lastmile_qr_scan", "ios": "https://dc.lft.to/lastmile_qr_scan"}, "fusion_lon": 0.0, "name": "269a535599f88857294644e7581fb261", "lon": -77.02518266666667, "is_disabled": 0, "type": "electric_scooter"}, {"bike_id": "137f6cbb12f45404f8082919e8daf8c5", "lat": 38.8969405, "is_reserved": 0, "fusion_lat": 0.0, "rental_uris": {"android": "https://dc.lft.to/lastmile_qr_scan", "ios": "https://dc.lft.to/lastmile_qr_scan"}, "fusion_lon": 0.0, "name": "137f6cbb12f45404f8082919e8daf8c5", "lon": -77.02291133333334, "is_disabled": 0, "type": "electric_scooter"}, {"bike_id": "c6b20b40c8384330d13fc46f6df98691", "lat": 38.93360416666667, "is_reserved": 0, "fusion_lat": 0.0, "rental_uris": {"android": "https://dc.lft.to/lastmile_qr_scan", "ios": "https://dc.lft.to/lastmile_qr_scan"}, "fusion_lon": 0.0, "name": "c6b20b40c8384330d13fc46f6df98691", "lon": -77.08854566666666, "is_disabled": 0, "type": "electric_scooter"}, {"bike_id": "9be893b48c2d1b7ce3dd9c6906450d19", "lat": 38.88483316666667, "is_reserved": 0, "fusion_lat": 0.0, "rental_uris": {"android": "https://dc.lft.to/lastmile_qr_scan", "ios": "https://dc.lft.to/lastmile_qr_scan"}, "fusion_lon": 0.0, "name": "9be893b48c2d1b7ce3dd9c6906450d19", "lon": -77.12772766666667, "is_disabled": 0, "type": "electric_bike"}, {"bike_id": "d50a0c3d05f73f2361ae9af5baace2d5", "lat": 38.8911695, "is_reserved": 0, "fusion_lat": 0.0, "rental_uris": {"android": "https://dc.lft.to/lastmile_qr_scan", "ios": "https://dc.lft.to/lastmile_qr_scan"}, "fusion_lon": 0.0, "name": "d50a0c3d05f73f2361ae9af5baace2d5", "lon": -77.08561683333333, "is_disabled": 0, "type": "electric_bike"}, {"bike_id": "05176e82e914ac6b6d3f2a260adbf887", "lat": 38.88715066666666, "is_reserved": 0, "fusion_lat": 0.0, "rental_uris": {"android": "https://dc.lft.to/lastmile_qr_scan", "ios": "https://dc.lft.to/lastmile_qr_scan"}, "fusion_lon": 0.0, "name": "05176e82e914ac6b6d3f2a260adbf887", "lon": -77.02185016666667, "is_disabled": 0, "type": "electric_scooter"}, {"bike_id": "124181dfdbd120223484a78b88b0c1ae", "lat": 38.913219166666664, "is_reserved": 0, "fusion_lat": 0.0, "rental_uris": {"android": "https://dc.lft.to/lastmile_qr_scan", "ios": "https://dc.lft.to/lastmile_qr_scan"}, "fusion_lon": 0.0, "name": "124181dfdbd120223484a78b88b0c1ae", "lon": -77.03186816666667, "is_disabled": 0, "type": "electric_scooter"}, {"bike_id": "45c9e38e51d7cd01711d8c860a28c870", "lat": 38.9055785, "is_reserved": 0, "fusion_lat": 0.0, "rental_uris": {"android": "https://dc.lft.to/lastmile_qr_scan", "ios": "https://dc.lft.to/lastmile_qr_scan"}, "fusion_lon": 0.0, "name": "45c9e38e51d7cd01711d8c860a28c870", "lon": -77.00584216666667, "is_disabled": 0, "type": "electric_scooter"}, {"bike_id": "28aaa12a301f43b1d9bfbd5b1f7d7f70", "lat": 38.8950265, "is_reserved": 0, "fusion_lat": 0.0, "rental_uris": {"android": "https://dc.lft.to/lastmile_qr_scan", "ios": "https://dc.lft.to/lastmile_qr_scan"}, "fusion_lon": 0.0, "name": "28aaa12a301f43b1d9bfbd5b1f7d7f70", "lon": -77.02195983333333, "is_disabled": 0, "type": "electric_scooter"}, {"bike_id": "907d9b7a48f3a5716c8d2d79255d9396", "lat": 38.90535116666667, "is_reserved": 0, "fusion_lat": 0.0, "rental_uris": {"android": "https://dc.lft.to/lastmile_qr_scan", "ios": "https://dc.lft.to/lastmile_qr_scan"}, "fusion_lon": 0.0, "name": "907d9b7a48f3a5716c8d2d79255d9396", "lon": -77.04672633333334, "is_disabled": 0, "type": "electric_scooter"}, {"bike_id": "f5b0f6f186e8b5141f14628ded6eaeb2", "lat": 38.908335, "is_reserved": 0, "fusion_lat": 0.0, "rental_uris": {"android": "https://dc.lft.to/lastmile_qr_scan", "ios": "https://dc.lft.to/lastmile_qr_scan"}, "fusion_lon": 0.0, "name": "f5b0f6f186e8b5141f14628ded6eaeb2", "lon": -76.997012, "is_disabled": 0, "type": "electric_scooter"}, {"bike_id": "5ed1e2d0ca09bc9d276b34af046caa1e", "lat": 38.924655, "is_reserved": 0, "fusion_lat": 0.0, "rental_uris": {"android": "https://dc.lft.to/lastmile_qr_scan", "ios": "https://dc.lft.to/lastmile_qr_scan"}, "fusion_lon": 0.0, "name": "5ed1e2d0ca09bc9d276b34af046caa1e", "lon": -77.0523465, "is_disabled": 0, "type": "electric_scooter"}, {"bike_id": "26d7ccebe1c95c2c814cdfff61ae968a", "lat": 38.8675425, "is_reserved": 0, "fusion_lat": 0.0, "rental_uris": {"android": "https://dc.lft.to/lastmile_qr_scan", "ios": "https://dc.lft.to/lastmile_qr_scan"}, "fusion_lon": 0.0, "name": "26d7ccebe1c95c2c814cdfff61ae968a", "lon": -76.945322, "is_disabled": 0, "type": "electric_bike"}, {"bike_id": "27ca50710b56ba26fe8b8062b156fb46", "lat": 38.93889766666667, "is_reserved": 0, "fusion_lat": 0.0, "rental_uris": {"android": "https://dc.lft.to/lastmile_qr_scan", "ios": "https://dc.lft.to/lastmile_qr_scan"}, "fusion_lon": 0.0, "name": "27ca50710b56ba26fe8b8062b156fb46", "lon": -77.0333775, "is_disabled": 0, "type": "electric_scooter"}, {"bike_id": "41db1fb778f2f32a9765093a4914c15a", "lat": 38.9291645, "is_reserved": 0, "fusion_lat": 0.0, "rental_uris": {"android": "https://dc.lft.to/lastmile_qr_scan", "ios": "https://dc.lft.to/lastmile_qr_scan"}, "fusion_lon": 0.0, "name": "41db1fb778f2f32a9765093a4914c15a", "lon": -77.02092183333333, "is_disabled": 0, "type": "electric_scooter"}, {"bike_id": "bf4cb1f094694e518741b64e6530ad4d", "lat": 38.90140866666667, "is_reserved": 0, "fusion_lat": 0.0, "rental_uris": {"android": "https://dc.lft.to/lastmile_qr_scan", "ios": "https://dc.lft.to/lastmile_qr_scan"}, "fusion_lon": 0.0, "name": "bf4cb1f094694e518741b64e6530ad4d", "lon": -77.02945366666667, "is_disabled": 0, "type": "electric_scooter"}, {"bike_id": "1f0848892ae0dc523b410ff81f17187f", "lat": 38.93724233333333, "is_reserved": 0, "fusion_lat": 0.0, "rental_uris": {"android": "https://dc.lft.to/lastmile_qr_scan", "ios": "https://dc.lft.to/lastmile_qr_scan"}, "fusion_lon": 0.0, "name": "1f0848892ae0dc523b410ff81f17187f", "lon": -77.0326725, "is_disabled": 0, "type": "electric_scooter"}, {"bike_id": "fcac5d8eac7f479e9bec96cf75eadd78", "lat": 38.9087265, "is_reserved": 0, "fusion_lat": 0.0, "rental_uris": {"android": "https://dc.lft.to/lastmile_qr_scan", "ios": "https://dc.lft.to/lastmile_qr_scan"}, "fusion_lon": 0.0, "name": "fcac5d8eac7f479e9bec96cf75eadd78", "lon": -76.9978615, "is_disabled": 0, "type": "electric_scooter"}, {"bike_id": "7f98594f33e5d66616720b64e1dcae29", "lat": 38.92768733333333, "is_reserved": 0, "fusion_lat": 0.0, "rental_uris": {"android": "https://dc.lft.to/lastmile_qr_scan", "ios": "https://dc.lft.to/lastmile_qr_scan"}, "fusion_lon": 0.0, "name": "7f98594f33e5d66616720b64e1dcae29", "lon": -77.02780366666667, "is_disabled": 0, "type": "electric_scooter"}, {"bike_id": "84f40502866e42fdeafad2a70acb21df", "lat": 38.90340583333333, "is_reserved": 0, "fusion_lat": 0.0, "rental_uris": {"android": "https://dc.lft.to/lastmile_qr_scan", "ios": "https://dc.lft.to/lastmile_qr_scan"}, "fusion_lon": 0.0, "name": "84f40502866e42fdeafad2a70acb21df", "lon": -77.06189016666667, "is_disabled": 0, "type": "electric_scooter"}, {"bike_id": "b08cad0257c4fb3ab2e404ddbaa32b2c", "lat": 38.89883116666667, "is_reserved": 0, "fusion_lat": 0.0, "rental_uris": {"android": "https://dc.lft.to/lastmile_qr_scan", "ios": "https://dc.lft.to/lastmile_qr_scan"}, "fusion_lon": 0.0, "name": "b08cad0257c4fb3ab2e404ddbaa32b2c", "lon": -76.9317745, "is_disabled": 0, "type": "electric_scooter"}, {"bike_id": "48ff63d1ae8a5fe87d9f4758d36bddfc", "lat": 38.88505466666667, "is_reserved": 0, "fusion_lat": 0.0, "rental_uris": {"android": "https://dc.lft.to/lastmile_qr_scan", "ios": "https://dc.lft.to/lastmile_qr_scan"}, "fusion_lon": 0.0, "name": "48ff63d1ae8a5fe87d9f4758d36bddfc", "lon": -77.00568966666667, "is_disabled": 0, "type": "electric_scooter"}, {"bike_id": "6f5c887f1bf8144b4c43c4674ed6f482", "lat": 38.858886166666665, "is_reserved": 0, "fusion_lat": 0.0, "rental_uris": {"android": "https://dc.lft.to/lastmile_qr_scan", "ios": "https://dc.lft.to/lastmile_qr_scan"}, "fusion_lon": 0.0, "name": "6f5c887f1bf8144b4c43c4674ed6f482", "lon": -76.99553533333334, "is_disabled": 0, "type": "electric_scooter"}, {"bike_id": "58b12cf1214fbe7eda49963126c39bfe", "lat": 38.887466333333336, "is_reserved": 0, "fusion_lat": 0.0, "rental_uris": {"android": "https://dc.lft.to/lastmile_qr_scan", "ios": "https://dc.lft.to/lastmile_qr_scan"}, "fusion_lon": 0.0, "name": "58b12cf1214fbe7eda49963126c39bfe", "lon": -77.031651, "is_disabled": 0, "type": "electric_scooter"}, {"bike_id": "150d760bf80e38e8cc020b8ad7ef6a24", "lat": 38.922845, "is_reserved": 0, "fusion_lat": 0.0, "rental_uris": {"android": "https://dc.lft.to/lastmile_qr_scan", "ios": "https://dc.lft.to/lastmile_qr_scan"}, "fusion_lon": 0.0, "name": "150d760bf80e38e8cc020b8ad7ef6a24", "lon": -77.02969616666667, "is_disabled": 0, "type": "electric_scooter"}, {"bike_id": "ed3738ff542ee833c5d084d2afcba624", "lat": 38.89222216666667, "is_reserved": 0, "fusion_lat": 0.0, "rental_uris": {"android": "https://dc.lft.to/lastmile_qr_scan", "ios": "https://dc.lft.to/lastmile_qr_scan"}, "fusion_lon": 0.0, "name": "ed3738ff542ee833c5d084d2afcba624", "lon": -77.03975366666667, "is_disabled": 0, "type": "electric_scooter"}, {"bike_id": "3d4f465aa71fceb90aba4a70b291cad5", "lat": 38.90086083333333, "is_reserved": 0, "fusion_lat": 0.0, "rental_uris": {"android": "https://dc.lft.to/lastmile_qr_scan", "ios": "https://dc.lft.to/lastmile_qr_scan"}, "fusion_lon": 0.0, "name": "3d4f465aa71fceb90aba4a70b291cad5", "lon": -77.04874, "is_disabled": 0, "type": "electric_scooter"}, {"bike_id": "5538c13739bb47ec23d11c3dfa9f164a", "lat": 38.8999475, "is_reserved": 0, "fusion_lat": 0.0, "rental_uris": {"android": "https://dc.lft.to/lastmile_qr_scan", "ios": "https://dc.lft.to/lastmile_qr_scan"}, "fusion_lon": 0.0, "name": "5538c13739bb47ec23d11c3dfa9f164a", "lon": -77.02698866666667, "is_disabled": 0, "type": "electric_scooter"}, {"bike_id": "44f8c34acc1e93c339345603f1863859", "lat": 38.9397215, "is_reserved": 0, "fusion_lat": 0.0, "rental_uris": {"android": "https://dc.lft.to/lastmile_qr_scan", "ios": "https://dc.lft.to/lastmile_qr_scan"}, "fusion_lon": 0.0, "name": "44f8c34acc1e93c339345603f1863859", "lon": -77.02732283333333, "is_disabled": 0, "type": "electric_scooter"}, {"bike_id": "5143e4c5b389cde993d2295422343809", "lat": 38.899984, "is_reserved": 0, "fusion_lat": 0.0, "rental_uris": {"android": "https://dc.lft.to/lastmile_qr_scan", "ios": "https://dc.lft.to/lastmile_qr_scan"}, "fusion_lon": 0.0, "name": "5143e4c5b389cde993d2295422343809", "lon": -77.02582783333334, "is_disabled": 0, "type": "electric_scooter"}, {"bike_id": "ac59be0d02609a338651722e325339fa", "lat": 38.90371866666667, "is_reserved": 0, "fusion_lat": 0.0, "rental_uris": {"android": "https://dc.lft.to/lastmile_qr_scan", "ios": "https://dc.lft.to/lastmile_qr_scan"}, "fusion_lon": 0.0, "name": "ac59be0d02609a338651722e325339fa", "lon": -77.04505483333334, "is_disabled": 0, "type": "electric_scooter"}, {"bike_id": "e05a727bcf41ee39635a2e813eb658ed", "lat": 38.9073335, "is_reserved": 0, "fusion_lat": 0.0, "rental_uris": {"android": "https://dc.lft.to/lastmile_qr_scan", "ios": "https://dc.lft.to/lastmile_qr_scan"}, "fusion_lon": 0.0, "name": "e05a727bcf41ee39635a2e813eb658ed", "lon": -77.032077, "is_disabled": 0, "type": "electric_scooter"}, {"bike_id": "44888af2921e4f18904f33b7abde5eac", "lat": 38.90732283333333, "is_reserved": 0, "fusion_lat": 0.0, "rental_uris": {"android": "https://dc.lft.to/lastmile_qr_scan", "ios": "https://dc.lft.to/lastmile_qr_scan"}, "fusion_lon": 0.0, "name": "44888af2921e4f18904f33b7abde5eac", "lon": -77.03986816666666, "is_disabled": 0, "type": "electric_scooter"}, {"bike_id": "528e3c2c27250250441327f3afce37d9", "lat": 38.8966815, "is_reserved": 0, "fusion_lat": 0.0, "rental_uris": {"android": "https://dc.lft.to/lastmile_qr_scan", "ios": "https://dc.lft.to/lastmile_qr_scan"}, "fusion_lon": 0.0, "name": "528e3c2c27250250441327f3afce37d9", "lon": -76.93211616666666, "is_disabled": 0, "type": "electric_scooter"}, {"bike_id": "f26ff16dd7b652056f61ac65939c6f35", "lat": 38.918181, "is_reserved": 0, "fusion_lat": 0.0, "rental_uris": {"android": "https://dc.lft.to/lastmile_qr_scan", "ios": "https://dc.lft.to/lastmile_qr_scan"}, "fusion_lon": 0.0, "name": "f26ff16dd7b652056f61ac65939c6f35", "lon": -77.01209316666667, "is_disabled": 0, "type": "electric_scooter"}, {"bike_id": "8e5ec708edfcca5df7efa4a787f89507", "lat": 38.90502683333333, "is_reserved": 0, "fusion_lat": 0.0, "rental_uris": {"android": "https://dc.lft.to/lastmile_qr_scan", "ios": "https://dc.lft.to/lastmile_qr_scan"}, "fusion_lon": 0.0, "name": "8e5ec708edfcca5df7efa4a787f89507", "lon": -77.06013166666666, "is_disabled": 0, "type": "electric_scooter"}, {"bike_id": "e971db627f7a188d3656e3033bebc8da", "lat": 38.9339895, "is_reserved": 0, "fusion_lat": 0.0, "rental_uris": {"android": "https://dc.lft.to/lastmile_qr_scan", "ios": "https://dc.lft.to/lastmile_qr_scan"}, "fusion_lon": 0.0, "name": "e971db627f7a188d3656e3033bebc8da", "lon": -77.0220925, "is_disabled": 0, "type": "electric_scooter"}, {"bike_id": "fb2e0ae651a1172047a5835b2f35e5f7", "lat": 38.8665675, "is_reserved": 0, "fusion_lat": 0.0, "rental_uris": {"android": "https://dc.lft.to/lastmile_qr_scan", "ios": "https://dc.lft.to/lastmile_qr_scan"}, "fusion_lon": 0.0, "name": "fb2e0ae651a1172047a5835b2f35e5f7", "lon": -76.98879966666667, "is_disabled": 0, "type": "electric_scooter"}, {"bike_id": "597bec31ed198097244fcd7b83b84d85", "lat": 38.924500333333334, "is_reserved": 0, "fusion_lat": 0.0, "rental_uris": {"android": "https://dc.lft.to/lastmile_qr_scan", "ios": "https://dc.lft.to/lastmile_qr_scan"}, "fusion_lon": 0.0, "name": "597bec31ed198097244fcd7b83b84d85", "lon": -77.04113116666667, "is_disabled": 0, "type": "electric_scooter"}, {"bike_id": "e5baeb69f91e6b9470b148716cb37c45", "lat": 38.897754, "is_reserved": 0, "fusion_lat": 0.0, "rental_uris": {"android": "https://dc.lft.to/lastmile_qr_scan", "ios": "https://dc.lft.to/lastmile_qr_scan"}, "fusion_lon": 0.0, "name": "e5baeb69f91e6b9470b148716cb37c45", "lon": -77.0014945, "is_disabled": 0, "type": "electric_scooter"}, {"bike_id": "43f012e87d8ba45c12101e25d0f4fd76", "lat": 38.87256283333333, "is_reserved": 0, "fusion_lat": 0.0, "rental_uris": {"android": "https://dc.lft.to/lastmile_qr_scan", "ios": "https://dc.lft.to/lastmile_qr_scan"}, "fusion_lon": 0.0, "name": "43f012e87d8ba45c12101e25d0f4fd76", "lon": -77.232628, "is_disabled": 0, "type": "electric_bike"}, {"bike_id": "fb3a01bbc7d83352c4f2faf37e0e1b82", "lat": 38.900205166666666, "is_reserved": 0, "fusion_lat": 0.0, "rental_uris": {"android": "https://dc.lft.to/lastmile_qr_scan", "ios": "https://dc.lft.to/lastmile_qr_scan"}, "fusion_lon": 0.0, "name": "fb3a01bbc7d83352c4f2faf37e0e1b82", "lon": -76.98649516666667, "is_disabled": 0, "type": "electric_scooter"}, {"bike_id": "6de27d60c1c8ca728b88525b6e0baacc", "lat": 38.90496566666667, "is_reserved": 0, "fusion_lat": 0.0, "rental_uris": {"android": "https://dc.lft.to/lastmile_qr_scan", "ios": "https://dc.lft.to/lastmile_qr_scan"}, "fusion_lon": 0.0, "name": "6de27d60c1c8ca728b88525b6e0baacc", "lon": -77.06933966666666, "is_disabled": 0, "type": "electric_bike"}, {"bike_id": "0e517b533133d232bd134c50024bee05", "lat": 38.90501716666667, "is_reserved": 0, "fusion_lat": 0.0, "rental_uris": {"android": "https://dc.lft.to/lastmile_qr_scan", "ios": "https://dc.lft.to/lastmile_qr_scan"}, "fusion_lon": 0.0, "name": "0e517b533133d232bd134c50024bee05", "lon": -77.06012866666667, "is_disabled": 0, "type": "electric_scooter"}, {"bike_id": "db997db9832d2507de0add1837dd9fdf", "lat": 38.8696685, "is_reserved": 0, "fusion_lat": 0.0, "rental_uris": {"android": "https://dc.lft.to/lastmile_qr_scan", "ios": "https://dc.lft.to/lastmile_qr_scan"}, "fusion_lon": 0.0, "name": "db997db9832d2507de0add1837dd9fdf", "lon": -76.981809, "is_disabled": 0, "type": "electric_scooter"}, {"bike_id": "104a17281f9e3af9875365e3953f443a", "lat": 38.910159666666665, "is_reserved": 0, "fusion_lat": 0.0, "rental_uris": {"android": "https://dc.lft.to/lastmile_qr_scan", "ios": "https://dc.lft.to/lastmile_qr_scan"}, "fusion_lon": 0.0, "name": "104a17281f9e3af9875365e3953f443a", "lon": -77.22799683333334, "is_disabled": 0, "type": "electric_bike"}, {"bike_id": "56fa2ab6899e947b3502e3e31d44b10c", "lat": 38.91420316666667, "is_reserved": 0, "fusion_lat": 0.0, "rental_uris": {"android": "https://dc.lft.to/lastmile_qr_scan", "ios": "https://dc.lft.to/lastmile_qr_scan"}, "fusion_lon": 0.0, "name": "56fa2ab6899e947b3502e3e31d44b10c", "lon": -77.04810483333333, "is_disabled": 0, "type": "electric_scooter"}, {"bike_id": "ee1a15d52b096750fb9a4600cd01f301", "lat": 38.90615366666667, "is_reserved": 0, "fusion_lat": 0.0, "rental_uris": {"android": "https://dc.lft.to/lastmile_qr_scan", "ios": "https://dc.lft.to/lastmile_qr_scan"}, "fusion_lon": 0.0, "name": "ee1a15d52b096750fb9a4600cd01f301", "lon": -77.01488683333334, "is_disabled": 0, "type": "electric_scooter"}, {"bike_id": "9b89b3af54caf638c6e013bb2f1defa9", "lat": 38.9053075, "is_reserved": 0, "fusion_lat": 0.0, "rental_uris": {"android": "https://dc.lft.to/lastmile_qr_scan", "ios": "https://dc.lft.to/lastmile_qr_scan"}, "fusion_lon": 0.0, "name": "9b89b3af54caf638c6e013bb2f1defa9", "lon": -77.053246, "is_disabled": 0, "type": "electric_scooter"}, {"bike_id": "98f1b93bd8c93985685abf06919f4b72", "lat": 38.90556133333333, "is_reserved": 0, "fusion_lat": 0.0, "rental_uris": {"android": "https://dc.lft.to/lastmile_qr_scan", "ios": "https://dc.lft.to/lastmile_qr_scan"}, "fusion_lon": 0.0, "name": "98f1b93bd8c93985685abf06919f4b72", "lon": -77.04187166666667, "is_disabled": 0, "type": "electric_scooter"}, {"bike_id": "93ce1d34d3f0a87e4f3123076268f893", "lat": 38.88495133333333, "is_reserved": 0, "fusion_lat": 0.0, "rental_uris": {"android": "https://dc.lft.to/lastmile_qr_scan", "ios": "https://dc.lft.to/lastmile_qr_scan"}, "fusion_lon": 0.0, "name": "93ce1d34d3f0a87e4f3123076268f893", "lon": -77.0072305, "is_disabled": 0, "type": "electric_scooter"}, {"bike_id": "2216e2cd94ccee289ddb675b8fa8cd3a", "lat": 38.908421, "is_reserved": 0, "fusion_lat": 0.0, "rental_uris": {"android": "https://dc.lft.to/lastmile_qr_scan", "ios": "https://dc.lft.to/lastmile_qr_scan"}, "fusion_lon": 0.0, "name": "2216e2cd94ccee289ddb675b8fa8cd3a", "lon": -77.04290333333333, "is_disabled": 0, "type": "electric_scooter"}, {"bike_id": "e312c4aef655578267e0a4bdddabdab7", "lat": 38.934872166666665, "is_reserved": 0, "fusion_lat": 0.0, "rental_uris": {"android": "https://dc.lft.to/lastmile_qr_scan", "ios": "https://dc.lft.to/lastmile_qr_scan"}, "fusion_lon": 0.0, "name": "e312c4aef655578267e0a4bdddabdab7", "lon": -77.03278483333334, "is_disabled": 0, "type": "electric_scooter"}, {"bike_id": "1d77846ea3d76b87b17388f49b27b955", "lat": 38.911165, "is_reserved": 0, "fusion_lat": 0.0, "rental_uris": {"android": "https://dc.lft.to/lastmile_qr_scan", "ios": "https://dc.lft.to/lastmile_qr_scan"}, "fusion_lon": 0.0, "name": "1d77846ea3d76b87b17388f49b27b955", "lon": -77.011936, "is_disabled": 0, "type": "electric_scooter"}, {"bike_id": "b9686f47855bbd5e6f8a6fd328802040", "lat": 38.918382666666666, "is_reserved": 0, "fusion_lat": 0.0, "rental_uris": {"android": "https://dc.lft.to/lastmile_qr_scan", "ios": "https://dc.lft.to/lastmile_qr_scan"}, "fusion_lon": 0.0, "name": "b9686f47855bbd5e6f8a6fd328802040", "lon": -77.02528383333333, "is_disabled": 0, "type": "electric_scooter"}, {"bike_id": "394ed3f418e880404025f963315b292e", "lat": 38.9267675, "is_reserved": 0, "fusion_lat": 0.0, "rental_uris": {"android": "https://dc.lft.to/lastmile_qr_scan", "ios": "https://dc.lft.to/lastmile_qr_scan"}, "fusion_lon": 0.0, "name": "394ed3f418e880404025f963315b292e", "lon": -77.02781783333333, "is_disabled": 0, "type": "electric_scooter"}, {"bike_id": "4892fbd0298391c1223b62bd6c10de3c", "lat": 38.8947715, "is_reserved": 0, "fusion_lat": 0.0, "rental_uris": {"android": "https://dc.lft.to/lastmile_qr_scan", "ios": "https://dc.lft.to/lastmile_qr_scan"}, "fusion_lon": 0.0, "name": "4892fbd0298391c1223b62bd6c10de3c", "lon": -77.02181616666667, "is_disabled": 0, "type": "electric_scooter"}, {"bike_id": "23ff060c87136ac43f3eae0542a8d73c", "lat": 38.90277183333333, "is_reserved": 0, "fusion_lat": 0.0, "rental_uris": {"android": "https://dc.lft.to/lastmile_qr_scan", "ios": "https://dc.lft.to/lastmile_qr_scan"}, "fusion_lon": 0.0, "name": "23ff060c87136ac43f3eae0542a8d73c", "lon": -77.03465033333333, "is_disabled": 0, "type": "electric_scooter"}, {"bike_id": "61a8b7e69ce356ea09d1157a099d1254", "lat": 39.0373745, "is_reserved": 0, "fusion_lat": 0.0, "rental_uris": {"android": "https://dc.lft.to/lastmile_qr_scan", "ios": "https://dc.lft.to/lastmile_qr_scan"}, "fusion_lon": 0.0, "name": "61a8b7e69ce356ea09d1157a099d1254", "lon": -77.05482, "is_disabled": 0, "type": "electric_bike"}, {"bike_id": "01d9bb59b580f798c90e4136a49f9a75", "lat": 39.0549805, "is_reserved": 0, "fusion_lat": 0.0, "rental_uris": {"android": "https://dc.lft.to/lastmile_qr_scan", "ios": "https://dc.lft.to/lastmile_qr_scan"}, "fusion_lon": 0.0, "name": "01d9bb59b580f798c90e4136a49f9a75", "lon": -77.11791533333333, "is_disabled": 0, "type": "electric_bike"}, {"bike_id": "01fcf484819b03900b5085dde7bbecfa", "lat": 38.90693316666667, "is_reserved": 0, "fusion_lat": 0.0, "rental_uris": {"android": "https://dc.lft.to/lastmile_qr_scan", "ios": "https://dc.lft.to/lastmile_qr_scan"}, "fusion_lon": 0.0, "name": "01fcf484819b03900b5085dde7bbecfa", "lon": -76.95254983333334, "is_disabled": 0, "type": "electric_bike"}, {"bike_id": "24509581827ac139fcf2c6ac63493caf", "lat": 38.89737016666667, "is_reserved": 0, "fusion_lat": 0.0, "rental_uris": {"android": "https://dc.lft.to/lastmile_qr_scan", "ios": "https://dc.lft.to/lastmile_qr_scan"}, "fusion_lon": 0.0, "name": "24509581827ac139fcf2c6ac63493caf", "lon": -77.04694316666667, "is_disabled": 0, "type": "electric_scooter"}, {"bike_id": "178687c0e36ffd2e60adbacf3ed87671", "lat": 38.90836733333333, "is_reserved": 0, "fusion_lat": 0.0, "rental_uris": {"android": "https://dc.lft.to/lastmile_qr_scan", "ios": "https://dc.lft.to/lastmile_qr_scan"}, "fusion_lon": 0.0, "name": "178687c0e36ffd2e60adbacf3ed87671", "lon": -77.02201816666667, "is_disabled": 0, "type": "electric_scooter"}, {"bike_id": "d8baad1dbc6f4c35a2061ef064219709", "lat": 38.868296666666666, "is_reserved": 0, "fusion_lat": 0.0, "rental_uris": {"android": "https://dc.lft.to/lastmile_qr_scan", "ios": "https://dc.lft.to/lastmile_qr_scan"}, "fusion_lon": 0.0, "name": "d8baad1dbc6f4c35a2061ef064219709", "lon": -77.01148583333334, "is_disabled": 0, "type": "electric_scooter"}, {"bike_id": "8241d6b76338589127ce04b5e373b75d", "lat": 38.8962105, "is_reserved": 0, "fusion_lat": 0.0, "rental_uris": {"android": "https://dc.lft.to/lastmile_qr_scan", "ios": "https://dc.lft.to/lastmile_qr_scan"}, "fusion_lon": 0.0, "name": "8241d6b76338589127ce04b5e373b75d", "lon": -77.044944, "is_disabled": 0, "type": "electric_scooter"}, {"bike_id": "fe8fab8e2aa99a859531665174afff9b", "lat": 38.90398116666667, "is_reserved": 0, "fusion_lat": 0.0, "rental_uris": {"android": "https://dc.lft.to/lastmile_qr_scan", "ios": "https://dc.lft.to/lastmile_qr_scan"}, "fusion_lon": 0.0, "name": "fe8fab8e2aa99a859531665174afff9b", "lon": -77.0220635, "is_disabled": 0, "type": "electric_scooter"}, {"bike_id": "5ad1a1aae448c4b68c01a33930295163", "lat": 38.9660805, "is_reserved": 0, "fusion_lat": 0.0, "rental_uris": {"android": "https://dc.lft.to/lastmile_qr_scan", "ios": "https://dc.lft.to/lastmile_qr_scan"}, "fusion_lon": 0.0, "name": "5ad1a1aae448c4b68c01a33930295163", "lon": -77.0198135, "is_disabled": 0, "type": "electric_scooter"}, {"bike_id": "ae965faf2d136438ac028a0161e3a951", "lat": 38.899628166666666, "is_reserved": 0, "fusion_lat": 0.0, "rental_uris": {"android": "https://dc.lft.to/lastmile_qr_scan", "ios": "https://dc.lft.to/lastmile_qr_scan"}, "fusion_lon": 0.0, "name": "ae965faf2d136438ac028a0161e3a951", "lon": -77.0198645, "is_disabled": 0, "type": "electric_scooter"}, {"bike_id": "76b38863c800c7984a64490c0e9a6600", "lat": 38.9206965, "is_reserved": 0, "fusion_lat": 0.0, "rental_uris": {"android": "https://dc.lft.to/lastmile_qr_scan", "ios": "https://dc.lft.to/lastmile_qr_scan"}, "fusion_lon": 0.0, "name": "76b38863c800c7984a64490c0e9a6600", "lon": -77.0381365, "is_disabled": 0, "type": "electric_scooter"}, {"bike_id": "d6fdccb37aea2e7aa78c277384835799", "lat": 38.91423616666667, "is_reserved": 0, "fusion_lat": 0.0, "rental_uris": {"android": "https://dc.lft.to/lastmile_qr_scan", "ios": "https://dc.lft.to/lastmile_qr_scan"}, "fusion_lon": 0.0, "name": "d6fdccb37aea2e7aa78c277384835799", "lon": -77.02226466666667, "is_disabled": 0, "type": "electric_scooter"}, {"bike_id": "b1cd626f2f6f710453852159b915420e", "lat": 38.911922833333335, "is_reserved": 0, "fusion_lat": 0.0, "rental_uris": {"android": "https://dc.lft.to/lastmile_qr_scan", "ios": "https://dc.lft.to/lastmile_qr_scan"}, "fusion_lon": 0.0, "name": "b1cd626f2f6f710453852159b915420e", "lon": -77.03839, "is_disabled": 0, "type": "electric_scooter"}, {"bike_id": "9120606f175bc279ed72c5c0bb79cb25", "lat": 38.9239205, "is_reserved": 0, "fusion_lat": 0.0, "rental_uris": {"android": "https://dc.lft.to/lastmile_qr_scan", "ios": "https://dc.lft.to/lastmile_qr_scan"}, "fusion_lon": 0.0, "name": "9120606f175bc279ed72c5c0bb79cb25", "lon": -77.00066716666667, "is_disabled": 0, "type": "electric_scooter"}, {"bike_id": "57cd8b5a2a161a5ddd96069f12966a82", "lat": 38.9025365, "is_reserved": 0, "fusion_lat": 0.0, "rental_uris": {"android": "https://dc.lft.to/lastmile_qr_scan", "ios": "https://dc.lft.to/lastmile_qr_scan"}, "fusion_lon": 0.0, "name": "57cd8b5a2a161a5ddd96069f12966a82", "lon": -76.9867, "is_disabled": 0, "type": "electric_scooter"}, {"bike_id": "4dd68048b1ab09de3069974a7e2dca4b", "lat": 38.88371566666667, "is_reserved": 0, "fusion_lat": 0.0, "rental_uris": {"android": "https://dc.lft.to/lastmile_qr_scan", "ios": "https://dc.lft.to/lastmile_qr_scan"}, "fusion_lon": 0.0, "name": "4dd68048b1ab09de3069974a7e2dca4b", "lon": -77.02424966666666, "is_disabled": 0, "type": "electric_bike"}, {"bike_id": "0c9d3302a60085e1a4298aec04e7afd3", "lat": 38.87361966666667, "is_reserved": 0, "fusion_lat": 0.0, "rental_uris": {"android": "https://dc.lft.to/lastmile_qr_scan", "ios": "https://dc.lft.to/lastmile_qr_scan"}, "fusion_lon": 0.0, "name": "0c9d3302a60085e1a4298aec04e7afd3", "lon": -76.97030066666667, "is_disabled": 0, "type": "electric_scooter"}, {"bike_id": "b00c963ad00c693ddff2fdc90d75e9ba", "lat": 38.80707066666667, "is_reserved": 0, "fusion_lat": 0.0, "rental_uris": {"android": "https://dc.lft.to/lastmile_qr_scan", "ios": "https://dc.lft.to/lastmile_qr_scan"}, "fusion_lon": 0.0, "name": "b00c963ad00c693ddff2fdc90d75e9ba", "lon": -77.06174033333333, "is_disabled": 0, "type": "electric_bike"}, {"bike_id": "763fc939a99444db78d1539f628d4af9", "lat": 38.9332855, "is_reserved": 0, "fusion_lat": 0.0, "rental_uris": {"android": "https://dc.lft.to/lastmile_qr_scan", "ios": "https://dc.lft.to/lastmile_qr_scan"}, "fusion_lon": 0.0, "name": "763fc939a99444db78d1539f628d4af9", "lon": -77.0285265, "is_disabled": 0, "type": "electric_scooter"}, {"bike_id": "047c3c631e55f3f3c5f7b959b265ced7", "lat": 38.898858, "is_reserved": 0, "fusion_lat": 0.0, "rental_uris": {"android": "https://dc.lft.to/lastmile_qr_scan", "ios": "https://dc.lft.to/lastmile_qr_scan"}, "fusion_lon": 0.0, "name": "047c3c631e55f3f3c5f7b959b265ced7", "lon": -76.9317765, "is_disabled": 0, "type": "electric_scooter"}, {"bike_id": "36c73a7b8dc6b64c1f8e1a6e96a770a0", "lat": 38.880182166666664, "is_reserved": 0, "fusion_lat": 0.0, "rental_uris": {"android": "https://dc.lft.to/lastmile_qr_scan", "ios": "https://dc.lft.to/lastmile_qr_scan"}, "fusion_lon": 0.0, "name": "36c73a7b8dc6b64c1f8e1a6e96a770a0", "lon": -77.002458, "is_disabled": 0, "type": "electric_scooter"}, {"bike_id": "f73d1bfa79d4cfb6b1ae26f30007c5ce", "lat": 38.88745983333333, "is_reserved": 0, "fusion_lat": 0.0, "rental_uris": {"android": "https://dc.lft.to/lastmile_qr_scan", "ios": "https://dc.lft.to/lastmile_qr_scan"}, "fusion_lon": 0.0, "name": "f73d1bfa79d4cfb6b1ae26f30007c5ce", "lon": -77.0316635, "is_disabled": 0, "type": "electric_scooter"}, {"bike_id": "b691dff6a4af1f1388e7f2cf4e5609ac", "lat": 38.892405333333336, "is_reserved": 0, "fusion_lat": 0.0, "rental_uris": {"android": "https://dc.lft.to/lastmile_qr_scan", "ios": "https://dc.lft.to/lastmile_qr_scan"}, "fusion_lon": 0.0, "name": "b691dff6a4af1f1388e7f2cf4e5609ac", "lon": -77.04499416666667, "is_disabled": 0, "type": "electric_scooter"}, {"bike_id": "504b1e7c02aca4e944ca6bbc64f407f5", "lat": 38.8952305, "is_reserved": 0, "fusion_lat": 0.0, "rental_uris": {"android": "https://dc.lft.to/lastmile_qr_scan", "ios": "https://dc.lft.to/lastmile_qr_scan"}, "fusion_lon": 0.0, "name": "504b1e7c02aca4e944ca6bbc64f407f5", "lon": -77.022809, "is_disabled": 0, "type": "electric_scooter"}, {"bike_id": "061c440b3e5fca3e68a47d6cba31c68a", "lat": 38.9286175, "is_reserved": 0, "fusion_lat": 0.0, "rental_uris": {"android": "https://dc.lft.to/lastmile_qr_scan", "ios": "https://dc.lft.to/lastmile_qr_scan"}, "fusion_lon": 0.0, "name": "061c440b3e5fca3e68a47d6cba31c68a", "lon": -77.0337625, "is_disabled": 0, "type": "electric_scooter"}, {"bike_id": "2e35d9bc053a2f689846055e633dddda", "lat": 38.90961583333333, "is_reserved": 0, "fusion_lat": 0.0, "rental_uris": {"android": "https://dc.lft.to/lastmile_qr_scan", "ios": "https://dc.lft.to/lastmile_qr_scan"}, "fusion_lon": 0.0, "name": "2e35d9bc053a2f689846055e633dddda", "lon": -77.03284616666667, "is_disabled": 0, "type": "electric_scooter"}, {"bike_id": "9ecd2c4d0e5e5b180e41a0b5346497b9", "lat": 38.900459833333336, "is_reserved": 0, "fusion_lat": 0.0, "rental_uris": {"android": "https://dc.lft.to/lastmile_qr_scan", "ios": "https://dc.lft.to/lastmile_qr_scan"}, "fusion_lon": 0.0, "name": "9ecd2c4d0e5e5b180e41a0b5346497b9", "lon": -76.99146433333334, "is_disabled": 0, "type": "electric_scooter"}, {"bike_id": "6ece767a8b29db46305a82b7c49b2e11", "lat": 38.88494516666667, "is_reserved": 0, "fusion_lat": 0.0, "rental_uris": {"android": "https://dc.lft.to/lastmile_qr_scan", "ios": "https://dc.lft.to/lastmile_qr_scan"}, "fusion_lon": 0.0, "name": "6ece767a8b29db46305a82b7c49b2e11", "lon": -77.00730983333334, "is_disabled": 0, "type": "electric_scooter"}, {"bike_id": "6692acddaf7b9bfacde96cc83ba75e30", "lat": 38.91987566666667, "is_reserved": 0, "fusion_lat": 0.0, "rental_uris": {"android": "https://dc.lft.to/lastmile_qr_scan", "ios": "https://dc.lft.to/lastmile_qr_scan"}, "fusion_lon": 0.0, "name": "6692acddaf7b9bfacde96cc83ba75e30", "lon": -77.03197366666667, "is_disabled": 0, "type": "electric_scooter"}, {"bike_id": "0f4b6866eba338de3f571fd8843690ec", "lat": 38.942954666666665, "is_reserved": 0, "fusion_lat": 0.0, "rental_uris": {"android": "https://dc.lft.to/lastmile_qr_scan", "ios": "https://dc.lft.to/lastmile_qr_scan"}, "fusion_lon": 0.0, "name": "0f4b6866eba338de3f571fd8843690ec", "lon": -77.02176116666666, "is_disabled": 0, "type": "electric_scooter"}, {"bike_id": "beab89e955848c05d57f18c714296dbc", "lat": 38.902439333333334, "is_reserved": 0, "fusion_lat": 0.0, "rental_uris": {"android": "https://dc.lft.to/lastmile_qr_scan", "ios": "https://dc.lft.to/lastmile_qr_scan"}, "fusion_lon": 0.0, "name": "beab89e955848c05d57f18c714296dbc", "lon": -77.02653783333334, "is_disabled": 0, "type": "electric_scooter"}, {"bike_id": "3b9f8235ab4e4655ba4f4e5d769830d6", "lat": 38.93342533333333, "is_reserved": 0, "fusion_lat": 0.0, "rental_uris": {"android": "https://dc.lft.to/lastmile_qr_scan", "ios": "https://dc.lft.to/lastmile_qr_scan"}, "fusion_lon": 0.0, "name": "3b9f8235ab4e4655ba4f4e5d769830d6", "lon": -77.03986616666667, "is_disabled": 0, "type": "electric_scooter"}, {"bike_id": "29d1ebf58d1e4ba5a2af5d64a7148fbf", "lat": 38.92230566666667, "is_reserved": 0, "fusion_lat": 0.0, "rental_uris": {"android": "https://dc.lft.to/lastmile_qr_scan", "ios": "https://dc.lft.to/lastmile_qr_scan"}, "fusion_lon": 0.0, "name": "29d1ebf58d1e4ba5a2af5d64a7148fbf", "lon": -77.04266833333334, "is_disabled": 0, "type": "electric_scooter"}, {"bike_id": "1a8a16debbd96baf2541254c0a42de86", "lat": 38.89731883333333, "is_reserved": 0, "fusion_lat": 0.0, "rental_uris": {"android": "https://dc.lft.to/lastmile_qr_scan", "ios": "https://dc.lft.to/lastmile_qr_scan"}, "fusion_lon": 0.0, "name": "1a8a16debbd96baf2541254c0a42de86", "lon": -77.02458483333334, "is_disabled": 0, "type": "electric_scooter"}, {"bike_id": "27a8f1676f4cee298ccb9ebdab6443d9", "lat": 38.901215666666666, "is_reserved": 0, "fusion_lat": 0.0, "rental_uris": {"android": "https://dc.lft.to/lastmile_qr_scan", "ios": "https://dc.lft.to/lastmile_qr_scan"}, "fusion_lon": 0.0, "name": "27a8f1676f4cee298ccb9ebdab6443d9", "lon": -77.04475233333334, "is_disabled": 0, "type": "electric_scooter"}, {"bike_id": "ec56ace7554e9918e83951ce3db6ca50", "lat": 38.873751666666664, "is_reserved": 0, "fusion_lat": 0.0, "rental_uris": {"android": "https://dc.lft.to/lastmile_qr_scan", "ios": "https://dc.lft.to/lastmile_qr_scan"}, "fusion_lon": 0.0, "name": "ec56ace7554e9918e83951ce3db6ca50", "lon": -77.00113866666666, "is_disabled": 0, "type": "electric_scooter"}, {"bike_id": "92688516ddc4ce49c2d955fdd3300102", "lat": 38.89289183333333, "is_reserved": 0, "fusion_lat": 0.0, "rental_uris": {"android": "https://dc.lft.to/lastmile_qr_scan", "ios": "https://dc.lft.to/lastmile_qr_scan"}, "fusion_lon": 0.0, "name": "92688516ddc4ce49c2d955fdd3300102", "lon": -77.04486283333334, "is_disabled": 0, "type": "electric_scooter"}, {"bike_id": "6245b73d806ab490a099d0c2c81dd96c", "lat": 38.9189895, "is_reserved": 0, "fusion_lat": 0.0, "rental_uris": {"android": "https://dc.lft.to/lastmile_qr_scan", "ios": "https://dc.lft.to/lastmile_qr_scan"}, "fusion_lon": 0.0, "name": "6245b73d806ab490a099d0c2c81dd96c", "lon": -77.01687683333333, "is_disabled": 0, "type": "electric_scooter"}, {"bike_id": "a9aee14e5635d31eacb9713cd3d36227", "lat": 38.92039416666667, "is_reserved": 0, "fusion_lat": 0.0, "rental_uris": {"android": "https://dc.lft.to/lastmile_qr_scan", "ios": "https://dc.lft.to/lastmile_qr_scan"}, "fusion_lon": 0.0, "name": "a9aee14e5635d31eacb9713cd3d36227", "lon": -77.07147333333333, "is_disabled": 0, "type": "electric_scooter"}, {"bike_id": "257a59ff8ef364e809d69eaccf539db9", "lat": 38.903783833333335, "is_reserved": 0, "fusion_lat": 0.0, "rental_uris": {"android": "https://dc.lft.to/lastmile_qr_scan", "ios": "https://dc.lft.to/lastmile_qr_scan"}, "fusion_lon": 0.0, "name": "257a59ff8ef364e809d69eaccf539db9", "lon": -77.03637633333334, "is_disabled": 0, "type": "electric_scooter"}, {"bike_id": "f074a5b5335494a974806e90de7212b1", "lat": 38.91679333333333, "is_reserved": 0, "fusion_lat": 0.0, "rental_uris": {"android": "https://dc.lft.to/lastmile_qr_scan", "ios": "https://dc.lft.to/lastmile_qr_scan"}, "fusion_lon": 0.0, "name": "f074a5b5335494a974806e90de7212b1", "lon": -77.02315933333334, "is_disabled": 0, "type": "electric_scooter"}, {"bike_id": "20b87b3bda64332a83c0e5e835438bff", "lat": 38.84526966666667, "is_reserved": 0, "fusion_lat": 0.0, "rental_uris": {"android": "https://dc.lft.to/lastmile_qr_scan", "ios": "https://dc.lft.to/lastmile_qr_scan"}, "fusion_lon": 0.0, "name": "20b87b3bda64332a83c0e5e835438bff", "lon": -76.97398666666666, "is_disabled": 0, "type": "electric_bike"}, {"bike_id": "ee96d9184be6d62a769f146466633654", "lat": 38.92028033333333, "is_reserved": 0, "fusion_lat": 0.0, "rental_uris": {"android": "https://dc.lft.to/lastmile_qr_scan", "ios": "https://dc.lft.to/lastmile_qr_scan"}, "fusion_lon": 0.0, "name": "ee96d9184be6d62a769f146466633654", "lon": -77.0312355, "is_disabled": 0, "type": "electric_scooter"}, {"bike_id": "dbdbe0fcba61ee419e85d8fafed4e275", "lat": 38.89749316666666, "is_reserved": 0, "fusion_lat": 0.0, "rental_uris": {"android": "https://dc.lft.to/lastmile_qr_scan", "ios": "https://dc.lft.to/lastmile_qr_scan"}, "fusion_lon": 0.0, "name": "dbdbe0fcba61ee419e85d8fafed4e275", "lon": -77.03039266666667, "is_disabled": 0, "type": "electric_scooter"}, {"bike_id": "32703a52e612a219d3ce962ca778a739", "lat": 38.893195166666665, "is_reserved": 0, "fusion_lat": 0.0, "rental_uris": {"android": "https://dc.lft.to/lastmile_qr_scan", "ios": "https://dc.lft.to/lastmile_qr_scan"}, "fusion_lon": 0.0, "name": "32703a52e612a219d3ce962ca778a739", "lon": -77.03189883333333, "is_disabled": 0, "type": "electric_scooter"}, {"bike_id": "4b4a7cb1e32d21822c4cf6f6020aed83", "lat": 38.90274733333333, "is_reserved": 0, "fusion_lat": 0.0, "rental_uris": {"android": "https://dc.lft.to/lastmile_qr_scan", "ios": "https://dc.lft.to/lastmile_qr_scan"}, "fusion_lon": 0.0, "name": "4b4a7cb1e32d21822c4cf6f6020aed83", "lon": -77.0591535, "is_disabled": 0, "type": "electric_scooter"}, {"bike_id": "697df6283abdc42e4ce38ee545a2dc5d", "lat": 38.9152735, "is_reserved": 0, "fusion_lat": 0.0, "rental_uris": {"android": "https://dc.lft.to/lastmile_qr_scan", "ios": "https://dc.lft.to/lastmile_qr_scan"}, "fusion_lon": 0.0, "name": "697df6283abdc42e4ce38ee545a2dc5d", "lon": -76.98358183333333, "is_disabled": 0, "type": "electric_scooter"}, {"bike_id": "7a86532d6f2de07f33970ab9ffdc2177", "lat": 38.947872, "is_reserved": 0, "fusion_lat": 0.0, "rental_uris": {"android": "https://dc.lft.to/lastmile_qr_scan", "ios": "https://dc.lft.to/lastmile_qr_scan"}, "fusion_lon": 0.0, "name": "7a86532d6f2de07f33970ab9ffdc2177", "lon": -77.02134766666667, "is_disabled": 0, "type": "electric_scooter"}, {"bike_id": "f8138cf9869f25eb76b182d75f2df84b", "lat": 38.89222483333333, "is_reserved": 0, "fusion_lat": 0.0, "rental_uris": {"android": "https://dc.lft.to/lastmile_qr_scan", "ios": "https://dc.lft.to/lastmile_qr_scan"}, "fusion_lon": 0.0, "name": "f8138cf9869f25eb76b182d75f2df84b", "lon": -77.040092, "is_disabled": 0, "type": "electric_scooter"},