{"data": {"bikes": [{"is_disabled": 0, "fusion_lon": 0.0, "fusion_lat": 0.0, "lat": 38.913835666666664, "type": "electric_scooter", "lon": -77.02971566666666, "bike_id": "a01e6239f8832a782276a350991f8d64", "rental_uris": {"android": "https://dc.lft.to/lastmile_qr_scan", "ios": "https://dc.lft.to/lastmile_qr_scan"}, "name": "a01e6239f8832a782276a350991f8d64", "is_reserved": 0}, {"is_disabled": 0, "fusion_lon": 0.0, "fusion_lat": 0.0, "lat": 38.92127383333333, "type": "electric_scooter", "lon": -76.99582366666667, "bike_id": "b41aa8178934539ecf58a7b33638e613", "rental_uris": {"android": "https://dc.lft.to/lastmile_qr_scan", "ios": "https://dc.lft.to/lastmile_qr_scan"}, "name": "b41aa8178934539ecf58a7b33638e613", "is_reserved": 0}, {"is_disabled": 0, "fusion_lon": 0.0, "fusion_lat": 0.0, "lat": 38.842914, "type": "electric_scooter", "lon": -76.99946116666666, "bike_id": "5d8b7843bf9bddc8c07eb7e003946f83", "rental_uris": {"android": "https://dc.lft.to/lastmile_qr_scan", "ios": "https://dc.lft.to/lastmile_qr_scan"}, "name": "5d8b7843bf9bddc8c07eb7e003946f83", "is_reserved": 0}, {"is_disabled": 0, "fusion_lon": 0.0, "fusion_lat": 0.0, "lat": 38.952237833333335, "type": "electric_scooter", "lon": -77.00135916666666, "bike_id": "3df1fa1509e1edf133ab527f7c383d87", "rental_uris": {"android": "https://dc.lft.to/lastmile_qr_scan", "ios": "https://dc.lft.to/lastmile_qr_scan"}, "name": "3df1fa1509e1edf133ab527f7c383d87", "is_reserved": 0}, {"is_disabled": 0, "fusion_lon": 0.0, "fusion_lat": 0.0, "lat": 38.90396166666667, "type": "electric_scooter", "lon": -77.01851533333334, "bike_id": "bf19d45c633f81a0838df395cfc64042", "rental_uris": {"android": "https://dc.lft.to/lastmile_qr_scan", "ios": "https://dc.lft.to/lastmile_qr_scan"}, "name": "bf19d45c633f81a0838df395cfc64042", "is_reserved": 0}, {"is_disabled": 0, "fusion_lon": 0.0, "fusion_lat": 0.0, "lat": 38.900644166666666, "type": "electric_scooter", "lon": -76.98683533333333, "bike_id": "d550a0830cdc773d96bcf97f65702875", "rental_uris": {"android": "https://dc.lft.to/lastmile_qr_scan", "ios": "https://dc.lft.to/lastmile_qr_scan"}, "name": "d550a0830cdc773d96bcf97f65702875", "is_reserved": 0}, {"is_disabled": 0, "fusion_lon": 0.0, "fusion_lat": 0.0, "lat": 38.90563516666667, "type": "electric_scooter", "lon": -77.03842433333334, "bike_id": "04c3d0574276179e52f710cabf179f5c", "rental_uris": {"android": "https://dc.lft.to/lastmile_qr_scan", "ios": "https://dc.lft.to/lastmile_qr_scan"}, "name": "04c3d0574276179e52f710cabf179f5c", "is_reserved": 0}, {"is_disabled": 0, "fusion_lon": 0.0, "fusion_lat": 0.0, "lat": 38.914194, "type": "electric_scooter", "lon": -77.04245333333333, "bike_id": "d8f505dfa88683631d7e5d0e30f9b066", "rental_uris": {"android": "https://dc.lft.to/lastmile_qr_scan", "ios": "https://dc.lft.to/lastmile_qr_scan"}, "name": "d8f505dfa88683631d7e5d0e30f9b066", "is_reserved": 0}, {"is_disabled": 0, "fusion_lon": 0.0, "fusion_lat": 0.0, "lat": 38.905394666666666, "type": "electric_scooter", "lon": -77.02188416666667, "bike_id": "ba94b56ffc7e0209cc09817d33d90acf", "rental_uris": {"android": "https://dc.lft.to/lastmile_qr_scan", "ios": "https://dc.lft.to/lastmile_qr_scan"}, "name": "ba94b56ffc7e0209cc09817d33d90acf", "is_reserved": 0}, {"is_disabled": 0, "fusion_lon": 0.0, "fusion_lat": 0.0, "lat": 38.930004833333335, "type": "electric_scooter", "lon": -77.02406116666667, "bike_id": "46f97fe6085a3dc4ea5d50b4e6b7d694", "rental_uris": {"android": "https://dc.lft.to/lastmile_qr_scan", "ios": "https://dc.lft.to/lastmile_qr_scan"}, "name": "46f97fe6085a3dc4ea5d50b4e6b7d694", "is_reserved": 0}, {"is_disabled": 0, "fusion_lon": 0.0, "fusion_lat": 0.0, "lat": 38.90045816666667, "type": "electric_scooter", "lon": -76.98326966666667, "bike_id": "08a0257bd6d007e898dd5d602e3e1bf4", "rental_uris": {"android": "https://dc.lft.to/lastmile_qr_scan", "ios": "https://dc.lft.to/lastmile_qr_scan"}, "name": "08a0257bd6d007e898dd5d602e3e1bf4", "is_reserved": 0}, {"is_disabled": 0, "fusion_lon": 0.0, "fusion_lat": 0.0, "lat": 38.88748066666667, "type": "electric_scooter", "lon": -77.02626983333333, "bike_id": "ed170ce271a1e893b8d7c215f5d21f28", "rental_uris": {"android": "https://dc.lft.to/lastmile_qr_scan", "ios": "https://dc.lft.to/lastmile_qr_scan"}, "name": "ed170ce271a1e893b8d7c215f5d21f28", "is_reserved": 0}, {"is_disabled": 0, "fusion_lon": 0.0, "fusion_lat": 0.0, "lat": 38.921187, "type": "electric_scooter", "lon": -77.0120785, "bike_id": "7c1842f466f69d7846f683fb9026b053", "rental_uris": {"android": "https://dc.lft.to/lastmile_qr_scan", "ios": "https://dc.lft.to/lastmile_qr_scan"}, "name": "7c1842f466f69d7846f683fb9026b053", "is_reserved": 0}, {"is_disabled": 0, "fusion_lon": 0.0, "fusion_lat": 0.0, "lat": 38.90886016666666, "type": "electric_scooter", "lon": -77.0440815, "bike_id": "20bf05b7f22c1de5d2be189ebe8a085a", "rental_uris": {"android": "https://dc.lft.to/lastmile_qr_scan", "ios": "https://dc.lft.to/lastmile_qr_scan"}, "name": "20bf05b7f22c1de5d2be189ebe8a085a", "is_reserved": 0}, {"is_disabled": 0, "fusion_lon": 0.0, "fusion_lat": 0.0, "lat": 38.901236, "type": "electric_scooter", "lon": -77.023829, "bike_id": "02a091da8b6020184f0c19be83404a42", "rental_uris": {"android": "https://dc.lft.to/lastmile_qr_scan", "ios": "https://dc.lft.to/lastmile_qr_scan"}, "name": "02a091da8b6020184f0c19be83404a42", "is_reserved": 0}, {"is_disabled": 0, "fusion_lon": 0.0, "fusion_lat": 0.0, "lat": 38.923398, "type": "electric_scooter", "lon": -77.050576, "bike_id": "437a3561c27572777aa7413388a68ee2", "rental_uris": {"android": "https://dc.lft.to/lastmile_qr_scan", "ios": "https://dc.lft.to/lastmile_qr_scan"}, "name": "437a3561c27572777aa7413388a68ee2", "is_reserved": 0}, {"is_disabled": 0, "fusion_lon": 0.0, "fusion_lat": 0.0, "lat": 38.894998333333334, "type": "electric_scooter", "lon": -77.00950433333334, "bike_id": "8b63d195b0debe1fb3051309072b5c29", "rental_uris": {"android": "https://dc.lft.to/lastmile_qr_scan", "ios": "https://dc.lft.to/lastmile_qr_scan"}, "name": "8b63d195b0debe1fb3051309072b5c29", "is_reserved": 0}, {"is_disabled": 0, "fusion_lon": 0.0, "fusion_lat": 0.0, "lat": 38.901526, "type": "electric_scooter", "lon": -77.03980633333333, "bike_id": "71266f2747827b57b132eaa78609db96", "rental_uris": {"android": "https://dc.lft.to/lastmile_qr_scan", "ios": "https://dc.lft.to/lastmile_qr_scan"}, "name": "71266f2747827b57b132eaa78609db96", "is_reserved": 0}, {"is_disabled": 0, "fusion_lon": 0.0, "fusion_lat": 0.0, "lat": 38.874539, "type": "electric_scooter", "lon": -77.00486766666667, "bike_id": "498b3b5004b7a7669de8bc07954e9b93", "rental_uris": {"android": "https://dc.lft.to/lastmile_qr_scan", "ios": "https://dc.lft.to/lastmile_qr_scan"}, "name": "498b3b5004b7a7669de8bc07954e9b93", "is_reserved": 0}, {"is_disabled": 0, "fusion_lon": 0.0, "fusion_lat": 0.0, "lat": 38.88758516666667, "type": "electric_scooter", "lon": -77.00226866666667, "bike_id": "1e71a4db183e657b786718def9a73247", "rental_uris": {"android": "https://dc.lft.to/lastmile_qr_scan", "ios": "https://dc.lft.to/lastmile_qr_scan"}, "name": "1e71a4db183e657b786718def9a73247", "is_reserved": 0}, {"is_disabled": 0, "fusion_lon": 0.0, "fusion_lat": 0.0, "lat": 38.917319666666664, "type": "electric_scooter", "lon": -76.99179533333333, "bike_id": "96fbecf0c92a0252f2584ed68cba1d42", "rental_uris": {"android": "https://dc.lft.to/lastmile_qr_scan", "ios": "https://dc.lft.to/lastmile_qr_scan"}, "name": "96fbecf0c92a0252f2584ed68cba1d42", "is_reserved": 0}, {"is_disabled": 0, "fusion_lon": 0.0, "fusion_lat": 0.0, "lat": 38.92617, "type": "electric_scooter", "lon": -76.98202383333333, "bike_id": "132db81544238a4a44c921f007b8501a", "rental_uris": {"android": "https://dc.lft.to/lastmile_qr_scan", "ios": "https://dc.lft.to/lastmile_qr_scan"}, "name": "132db81544238a4a44c921f007b8501a", "is_reserved": 0}, {"is_disabled": 0, "fusion_lon": 0.0, "fusion_lat": 0.0, "lat": 38.92450933333333, "type": "electric_scooter", "lon": -77.03170716666666, "bike_id": "d6f57ce42368e828431ac5891dcce97c", "rental_uris": {"android": "https://dc.lft.to/lastmile_qr_scan", "ios": "https://dc.lft.to/lastmile_qr_scan"}, "name": "d6f57ce42368e828431ac5891dcce97c", "is_reserved": 0}, {"is_disabled": 0, "fusion_lon": 0.0, "fusion_lat": 0.0, "lat": 38.899217166666666, "type": "electric_scooter", "lon": -76.99157716666667, "bike_id": "dce53c6c86fb630b7f01c900967eb471", "rental_uris": {"android": "https://dc.lft.to/lastmile_qr_scan", "ios": "https://dc.lft.to/lastmile_qr_scan"}, "name": "dce53c6c86fb630b7f01c900967eb471", "is_reserved": 0}, {"is_disabled": 0, "fusion_lon": 0.0, "fusion_lat": 0.0, "lat": 38.90244766666667, "type": "electric_scooter", "lon": -77.05277216666667, "bike_id": "c9a008034af200b5a8b657e4e0e3a9f2", "rental_uris": {"android": "https://dc.lft.to/lastmile_qr_scan", "ios": "https://dc.lft.to/lastmile_qr_scan"}, "name": "c9a008034af200b5a8b657e4e0e3a9f2", "is_reserved": 0}, {"is_disabled": 0, "fusion_lon": 0.0, "fusion_lat": 0.0, "lat": 38.97051033333334, "type": "electric_bike", "lon": -76.96063716666667, "bike_id": "53a0e123a6dc25ae978876582c3c56de", "rental_uris": {"android": "https://dc.lft.to/lastmile_qr_scan", "ios": "https://dc.lft.to/lastmile_qr_scan"}, "name": "53a0e123a6dc25ae978876582c3c56de", "is_reserved": 0}, {"is_disabled": 0, "fusion_lon": 0.0, "fusion_lat": 0.0, "lat": 38.947780333333334, "type": "electric_bike", "lon": -76.9722175, "bike_id": "185d35c7dfeb07b1a7668c384f670b0a", "rental_uris": {"android": "https://dc.lft.to/lastmile_qr_scan", "ios": "https://dc.lft.to/lastmile_qr_scan"}, "name": "185d35c7dfeb07b1a7668c384f670b0a", "is_reserved": 0}, {"is_disabled": 0, "fusion_lon": 0.0, "fusion_lat": 0.0, "lat": 38.92564633333333, "type": "electric_scooter", "lon": -77.022823, "bike_id": "3bd1a9e9ff329080599793ee8a2d2b82", "rental_uris": {"android": "https://dc.lft.to/lastmile_qr_scan", "ios": "https://dc.lft.to/lastmile_qr_scan"}, "name": "3bd1a9e9ff329080599793ee8a2d2b82", "is_reserved": 0}, {"is_disabled": 0, "fusion_lon": 0.0, "fusion_lat": 0.0, "lat": 38.88010883333333, "type": "electric_bike", "lon": -76.9159345, "bike_id": "7120a1551d26ce53cb4536e85cffe7a3", "rental_uris": {"android": "https://dc.lft.to/lastmile_qr_scan", "ios": "https://dc.lft.to/lastmile_qr_scan"}, "name": "7120a1551d26ce53cb4536e85cffe7a3", "is_reserved": 0}, {"is_disabled": 0, "fusion_lon": 0.0, "fusion_lat": 0.0, "lat": 38.86249133333333, "type": "electric_scooter", "lon": -76.995016, "bike_id": "2c1ede29672c9d77df83b5f485d8ec3d", "rental_uris": {"android": "https://dc.lft.to/lastmile_qr_scan", "ios": "https://dc.lft.to/lastmile_qr_scan"}, "name": "2c1ede29672c9d77df83b5f485d8ec3d", "is_reserved": 0}, {"is_disabled": 0, "fusion_lon": 0.0, "fusion_lat": 0.0, "lat": 38.885995, "type": "electric_scooter", "lon": -76.99718966666667, "bike_id": "9660c3eca667be267d50dfa630e40d30", "rental_uris": {"android": "https://dc.lft.to/lastmile_qr_scan", "ios": "https://dc.lft.to/lastmile_qr_scan"}, "name": "9660c3eca667be267d50dfa630e40d30", "is_reserved": 0}, {"is_disabled": 0, "fusion_lon": 0.0, "fusion_lat": 0.0, "lat": 38.9945565, "type": "electric_bike", "lon": -76.90814816666666, "bike_id": "3ee214078feb3f7a24f3ac44e28e18db", "rental_uris": {"android": "https://dc.lft.to/lastmile_qr_scan", "ios": "https://dc.lft.to/lastmile_qr_scan"}, "name": "3ee214078feb3f7a24f3ac44e28e18db", "is_reserved": 0}, {"is_disabled": 0, "fusion_lon": 0.0, "fusion_lat": 0.0, "lat": 38.859886, "type": "electric_bike", "lon": -76.97054116666666, "bike_id": "f13690e82560fecb23a17a3f9598cc6d", "rental_uris": {"android": "https://dc.lft.to/lastmile_qr_scan", "ios": "https://dc.lft.to/lastmile_qr_scan"}, "name": "f13690e82560fecb23a17a3f9598cc6d", "is_reserved": 0}, {"is_disabled": 0, "fusion_lon": 0.0, "fusion_lat": 0.0, "lat": 38.900648333333336, "type": "electric_scooter", "lon": -77.04894483333334, "bike_id": "f897f61ee10c39ea26cbfdc91cb9c9ba", "rental_uris": {"android": "https://dc.lft.to/lastmile_qr_scan", "ios": "https://dc.lft.to/lastmile_qr_scan"}, "name": "f897f61ee10c39ea26cbfdc91cb9c9ba", "is_reserved": 0}, {"is_disabled": 0, "fusion_lon": 0.0, "fusion_lat": 0.0, "lat": 38.932559499999996, "type": "electric_scooter", "lon": -77.04010783333334, "bike_id": "9e5db3243329d48c1918a4c7c62a2344", "rental_uris": {"android": "https://dc.lft.to/lastmile_qr_scan", "ios": "https://dc.lft.to/lastmile_qr_scan"}, "name": "9e5db3243329d48c1918a4c7c62a2344", "is_reserved": 0}, {"is_disabled": 0, "fusion_lon": 0.0, "fusion_lat": 0.0, "lat": 38.91907283333333, "type": "electric_scooter", "lon": -77.02971283333333, "bike_id": "24880820d9cecfaf4188ca106d1f8ecd", "rental_uris": {"android": "https://dc.lft.to/lastmile_qr_scan", "ios": "https://dc.lft.to/lastmile_qr_scan"}, "name": "24880820d9cecfaf4188ca106d1f8ecd", "is_reserved": 0}, {"is_disabled": 0, "fusion_lon": 0.0, "fusion_lat": 0.0, "lat": 38.9192025, "type": "electric_scooter", "lon": -77.02409666666667, "bike_id": "5bb2ae332b1d535590b57b0bebe5060e", "rental_uris": {"android": "https://dc.lft.to/lastmile_qr_scan", "ios": "https://dc.lft.to/lastmile_qr_scan"}, "name": "5bb2ae332b1d535590b57b0bebe5060e", "is_reserved": 0}, {"is_disabled": 0, "fusion_lon": 0.0, "fusion_lat": 0.0, "lat": 38.93701333333333, "type": "electric_scooter", "lon": -77.05599266666667, "bike_id": "b14d3ef644a9b1931ff2f376e47c5876", "rental_uris": {"android": "https://dc.lft.to/lastmile_qr_scan", "ios": "https://dc.lft.to/lastmile_qr_scan"}, "name": "b14d3ef644a9b1931ff2f376e47c5876", "is_reserved": 0}, {"is_disabled": 0, "fusion_lon": 0.0, "fusion_lat": 0.0, "lat": 38.9323135, "type": "electric_scooter", "lon": -76.9993415, "bike_id": "2cffa7deb84e84bb6ffd1b420ca60742", "rental_uris": {"android": "https://dc.lft.to/lastmile_qr_scan", "ios": "https://dc.lft.to/lastmile_qr_scan"}, "name": "2cffa7deb84e84bb6ffd1b420ca60742", "is_reserved": 0}, {"is_disabled": 0, "fusion_lon": 0.0, "fusion_lat": 0.0, "lat": 38.90031783333333, "type": "electric_scooter", "lon": -77.025999, "bike_id": "9e45b3b080ce6d3aa8f224a4ab93058c", "rental_uris": {"android": "https://dc.lft.to/lastmile_qr_scan", "ios": "https://dc.lft.to/lastmile_qr_scan"}, "name": "9e45b3b080ce6d3aa8f224a4ab93058c", "is_reserved": 0}, {"is_disabled": 0, "fusion_lon": 0.0, "fusion_lat": 0.0, "lat": 38.95307016666667, "type": "electric_scooter", "lon": -77.06980983333334, "bike_id": "581ab27339617468a9c1b5f952bb721d", "rental_uris": {"android": "https://dc.lft.to/lastmile_qr_scan", "ios": "https://dc.lft.to/lastmile_qr_scan"}, "name": "581ab27339617468a9c1b5f952bb721d", "is_reserved": 0}, {"is_disabled": 0, "fusion_lon": 0.0, "fusion_lat": 0.0, "lat": 38.9489815, "type": "electric_bike", "lon": -76.9638135, "bike_id": "4321c78fd1cfd1ea739d5fac0c7c8e60", "rental_uris": {"android": "https://dc.lft.to/lastmile_qr_scan", "ios": "https://dc.lft.to/lastmile_qr_scan"}, "name": "4321c78fd1cfd1ea739d5fac0c7c8e60", "is_reserved": 0}, {"is_disabled": 0, "fusion_lon": 0.0, "fusion_lat": 0.0, "lat": 38.888346, "type": "electric_scooter", "lon": -76.91784433333333, "bike_id": "05d1c29c16dce18da76feffb7e6977e4", "rental_uris": {"android": "https://dc.lft.to/lastmile_qr_scan", "ios": "https://dc.lft.to/lastmile_qr_scan"}, "name": "05d1c29c16dce18da76feffb7e6977e4", "is_reserved": 0}, {"is_disabled": 0, "fusion_lon": 0.0, "fusion_lat": 0.0, "lat": 38.897209, "type": "electric_scooter", "lon": -77.02448116666666, "bike_id": "ccd28a306d53860ccf3da739eb5d6506", "rental_uris": {"android": "https://dc.lft.to/lastmile_qr_scan", "ios": "https://dc.lft.to/lastmile_qr_scan"}, "name": "ccd28a306d53860ccf3da739eb5d6506", "is_reserved": 0}, {"is_disabled": 0, "fusion_lon": 0.0, "fusion_lat": 0.0, "lat": 38.897757666666664, "type": "electric_scooter", "lon": -77.03364633333334, "bike_id": "0fe8f2aad237aa43802e0b7278b463e5", "rental_uris": {"android": "https://dc.lft.to/lastmile_qr_scan", "ios": "https://dc.lft.to/lastmile_qr_scan"}, "name": "0fe8f2aad237aa43802e0b7278b463e5", "is_reserved": 0}, {"is_disabled": 0, "fusion_lon": 0.0, "fusion_lat": 0.0, "lat": 38.9578225, "type": "electric_scooter", "lon": -77.02439216666667, "bike_id": "0f40d1b049cf7c17962c2b37d90d23a1", "rental_uris": {"android": "https://dc.lft.to/lastmile_qr_scan", "ios": "https://dc.lft.to/lastmile_qr_scan"}, "name": "0f40d1b049cf7c17962c2b37d90d23a1", "is_reserved": 0}, {"is_disabled": 0, "fusion_lon": 0.0, "fusion_lat": 0.0, "lat": 38.90538516666667, "type": "electric_scooter", "lon": -77.022109, "bike_id": "40be65becae13210302bd63df1c493f5", "rental_uris": {"android": "https://dc.lft.to/lastmile_qr_scan", "ios": "https://dc.lft.to/lastmile_qr_scan"}, "name": "40be65becae13210302bd63df1c493f5", "is_reserved": 0}, {"is_disabled": 0, "fusion_lon": 0.0, "fusion_lat": 0.0, "lat": 38.90565683333333, "type": "electric_scooter", "lon": -77.04080183333333, "bike_id": "83d84ce0b7cb275d0fdbc4ec96f84fd2", "rental_uris": {"android": "https://dc.lft.to/lastmile_qr_scan", "ios": "https://dc.lft.to/lastmile_qr_scan"}, "name": "83d84ce0b7cb275d0fdbc4ec96f84fd2", "is_reserved": 0}, {"is_disabled": 0, "fusion_lon": 0.0, "fusion_lat": 0.0, "lat": 38.836086, "type": "electric_bike", "lon": -77.00380983333334, "bike_id": "c76c7f18908d1cea0528dbe85f2ed81c", "rental_uris": {"android": "https://dc.lft.to/lastmile_qr_scan", "ios": "https://dc.lft.to/lastmile_qr_scan"}, "name": "c76c7f18908d1cea0528dbe85f2ed81c", "is_reserved": 0}, {"is_disabled": 0, "fusion_lon": 0.0, "fusion_lat": 0.0, "lat": 38.96921833333333, "type": "electric_bike", "lon": -77.02615483333334, "bike_id": "3a3c4374ba7f8bbddaa6709945d4993a", "rental_uris": {"android": "https://dc.lft.to/lastmile_qr_scan", "ios": "https://dc.lft.to/lastmile_qr_scan"}, "name": "3a3c4374ba7f8bbddaa6709945d4993a", "is_reserved": 0}, {"is_disabled": 0, "fusion_lon": 0.0, "fusion_lat": 0.0, "lat": 38.90265183333333, "type": "electric_scooter", "lon": -77.03440316666666, "bike_id": "c2ff58a2145203d9d764f78a96394eac", "rental_uris": {"android": "https://dc.lft.to/lastmile_qr_scan", "ios": "https://dc.lft.to/lastmile_qr_scan"}, "name": "c2ff58a2145203d9d764f78a96394eac", "is_reserved": 0}, {"is_disabled": 0, "fusion_lon": 0.0, "fusion_lat": 0.0, "lat": 38.918512666666665, "type": "electric_scooter", "lon": -77.02950716666666, "bike_id": "6b2ffc6970115f98ab2ed4a1643c21e3", "rental_uris": {"android": "https://dc.lft.to/lastmile_qr_scan", "ios": "https://dc.lft.to/lastmile_qr_scan"}, "name": "6b2ffc6970115f98ab2ed4a1643c21e3", "is_reserved": 0}, {"is_disabled": 0, "fusion_lon": 0.0, "fusion_lat": 0.0, "lat": 38.935081833333335, "type": "electric_scooter", "lon": -77.02414366666666, "bike_id": "4e81b4fa30b9187a702cd07133502d4e", "rental_uris": {"android": "https://dc.lft.to/lastmile_qr_scan", "ios": "https://dc.lft.to/lastmile_qr_scan"}, "name": "4e81b4fa30b9187a702cd07133502d4e", "is_reserved": 0}, {"is_disabled": 0, "fusion_lon": 0.0, "fusion_lat": 0.0, "lat": 38.902536, "type": "electric_scooter", "lon": -77.03435833333333, "bike_id": "6bb8ff7d6a0d59bd9e90abf2e17bdfac", "rental_uris": {"android": "https://dc.lft.to/lastmile_qr_scan", "ios": "https://dc.lft.to/lastmile_qr_scan"}, "name": "6bb8ff7d6a0d59bd9e90abf2e17bdfac", "is_reserved": 0}, {"is_disabled": 0, "fusion_lon": 0.0, "fusion_lat": 0.0, "lat": 38.899505833333336, "type": "electric_scooter", "lon": -77.03169416666667, "bike_id": "62ecab25c25bf8b5576acc41ba6a6306", "rental_uris": {"android": "https://dc.lft.to/lastmile_qr_scan", "ios": "https://dc.lft.to/lastmile_qr_scan"}, "name": "62ecab25c25bf8b5576acc41ba6a6306", "is_reserved": 0}, {"is_disabled": 0, "fusion_lon": 0.0, "fusion_lat": 0.0, "lat": 38.918457333333336, "type": "electric_scooter", "lon": -77.016411, "bike_id": "dd208b43bce8be4b467e53a6c72f7df8", "rental_uris": {"android": "https://dc.lft.to/lastmile_qr_scan", "ios": "https://dc.lft.to/lastmile_qr_scan"}, "name": "dd208b43bce8be4b467e53a6c72f7df8", "is_reserved": 0}, {"is_disabled": 0, "fusion_lon": 0.0, "fusion_lat": 0.0, "lat": 38.93575116666667, "type": "electric_scooter", "lon": -77.05876066666667, "bike_id": "4efbfbf2defa768d5a75472024d842e0", "rental_uris": {"android": "https://dc.lft.to/lastmile_qr_scan", "ios": "https://dc.lft.to/lastmile_qr_scan"}, "name": "4efbfbf2defa768d5a75472024d842e0", "is_reserved": 0}, {"is_disabled": 0, "fusion_lon": 0.0, "fusion_lat": 0.0, "lat": 38.9128995, "type": "electric_scooter", "lon": -76.98700766666667, "bike_id": "427f50293436a1c57ffd853d89fd8ebe", "rental_uris": {"android": "https://dc.lft.to/lastmile_qr_scan", "ios": "https://dc.lft.to/lastmile_qr_scan"}, "name": "427f50293436a1c57ffd853d89fd8ebe", "is_reserved": 0}, {"is_disabled": 0, "fusion_lon": 0.0, "fusion_lat": 0.0, "lat": 38.8991215, "type": "electric_scooter", "lon": -76.93390666666667, "bike_id": "9f6c61f27381d243aaf9c7d013bdb78f", "rental_uris": {"android": "https://dc.lft.to/lastmile_qr_scan", "ios": "https://dc.lft.to/lastmile_qr_scan"}, "name": "9f6c61f27381d243aaf9c7d013bdb78f", "is_reserved": 0}, {"is_disabled": 0, "fusion_lon": 0.0, "fusion_lat": 0.0, "lat": 38.89281066666667, "type": "electric_scooter", "lon": -77.050329, "bike_id": "a5d7466ea3ced1a3d9d6c3ba5434ce56", "rental_uris": {"android": "https://dc.lft.to/lastmile_qr_scan", "ios": "https://dc.lft.to/lastmile_qr_scan"}, "name": "a5d7466ea3ced1a3d9d6c3ba5434ce56", "is_reserved": 0}, {"is_disabled": 0, "fusion_lon": 0.0, "fusion_lat": 0.0, "lat": 38.852056166666664, "type": "electric_bike", "lon": -77.12755166666666, "bike_id": "d12ba0bc842b51dc2a0ac84159b45249", "rental_uris": {"android": "https://dc.lft.to/lastmile_qr_scan", "ios": "https://dc.lft.to/lastmile_qr_scan"}, "name": "d12ba0bc842b51dc2a0ac84159b45249", "is_reserved": 0}, {"is_disabled": 0, "fusion_lon": 0.0, "fusion_lat": 0.0, "lat": 38.938902, "type": "electric_scooter", "lon": -77.03313133333333, "bike_id": "74ffe9f56b06efce342bf1b96d3d68ea", "rental_uris": {"android": "https://dc.lft.to/lastmile_qr_scan", "ios": "https://dc.lft.to/lastmile_qr_scan"}, "name": "74ffe9f56b06efce342bf1b96d3d68ea", "is_reserved": 0}, {"is_disabled": 0, "fusion_lon": 0.0, "fusion_lat": 0.0, "lat": 38.89752383333333, "type": "electric_scooter", "lon": -77.05111083333334, "bike_id": "bbdb02acd5eb0f2af48c2fa326803db1", "rental_uris": {"android": "https://dc.lft.to/lastmile_qr_scan", "ios": "https://dc.lft.to/lastmile_qr_scan"}, "name": "bbdb02acd5eb0f2af48c2fa326803db1", "is_reserved": 0}, {"is_disabled": 0, "fusion_lon": 0.0, "fusion_lat": 0.0, "lat": 38.88493283333333, "type": "electric_scooter", "lon": -77.00726616666667, "bike_id": "c42181d09c7fddf53a2d9a47e441430f", "rental_uris": {"android": "https://dc.lft.to/lastmile_qr_scan", "ios": "https://dc.lft.to/lastmile_qr_scan"}, "name": "c42181d09c7fddf53a2d9a47e441430f", "is_reserved": 0}, {"is_disabled": 0, "fusion_lon": 0.0, "fusion_lat": 0.0, "lat": 38.88869666666667, "type": "electric_scooter", "lon": -77.03997166666667, "bike_id": "27fb69595f495e93552e0a3dc1cbab8b", "rental_uris": {"android": "https://dc.lft.to/lastmile_qr_scan", "ios": "https://dc.lft.to/lastmile_qr_scan"}, "name": "27fb69595f495e93552e0a3dc1cbab8b", "is_reserved": 0}, {"is_disabled": 0, "fusion_lon": 0.0, "fusion_lat": 0.0, "lat": 38.9203715, "type": "electric_scooter", "lon": -77.03170083333333, "bike_id": "03596ffaae68b7da93d4e11803545fb5", "rental_uris": {"android": "https://dc.lft.to/lastmile_qr_scan", "ios": "https://dc.lft.to/lastmile_qr_scan"}, "name": "03596ffaae68b7da93d4e11803545fb5", "is_reserved": 0}, {"is_disabled": 0, "fusion_lon": 0.0, "fusion_lat": 0.0, "lat": 38.887486833333334, "type": "electric_scooter", "lon": -77.015381, "bike_id": "21483a823fbcb452dc63423aedf0114f", "rental_uris": {"android": "https://dc.lft.to/lastmile_qr_scan", "ios": "https://dc.lft.to/lastmile_qr_scan"}, "name": "21483a823fbcb452dc63423aedf0114f", "is_reserved": 0}, {"is_disabled": 0, "fusion_lon": 0.0, "fusion_lat": 0.0, "lat": 38.89754933333333, "type": "electric_scooter", "lon": -77.0239635, "bike_id": "e70b57e78ec4bcc43000feb6508ade00", "rental_uris": {"android": "https://dc.lft.to/lastmile_qr_scan", "ios": "https://dc.lft.to/lastmile_qr_scan"}, "name": "e70b57e78ec4bcc43000feb6508ade00", "is_reserved": 0}, {"is_disabled": 0, "fusion_lon": 0.0, "fusion_lat": 0.0, "lat": 38.88504316666667, "type": "electric_scooter", "lon": -77.0032955, "bike_id": "760265140f91fdaa72988f9bcefffe48", "rental_uris": {"android": "https://dc.lft.to/lastmile_qr_scan", "ios": "https://dc.lft.to/lastmile_qr_scan"}, "name": "760265140f91fdaa72988f9bcefffe48", "is_reserved": 0}, {"is_disabled": 0, "fusion_lon": 0.0, "fusion_lat": 0.0, "lat": 38.9595655, "type": "electric_scooter", "lon": -77.0723235, "bike_id": "14137c12f80873826a0405315d55dcb3", "rental_uris": {"android": "https://dc.lft.to/lastmile_qr_scan", "ios": "https://dc.lft.to/lastmile_qr_scan"}, "name": "14137c12f80873826a0405315d55dcb3", "is_reserved": 0}, {"is_disabled": 0, "fusion_lon": 0.0, "fusion_lat": 0.0, "lat": 38.889669166666664, "type": "electric_scooter", "lon": -76.927356, "bike_id": "0f15cbd9f1583a191fdc115297e6b384", "rental_uris": {"android": "https://dc.lft.to/lastmile_qr_scan", "ios": "https://dc.lft.to/lastmile_qr_scan"}, "name": "0f15cbd9f1583a191fdc115297e6b384", "is_reserved": 0}, {"is_disabled": 0, "fusion_lon": 0.0, "fusion_lat": 0.0, "lat": 38.88097366666667, "type": "electric_scooter", "lon": -77.02593983333334, "bike_id": "811f6cdb48dd8071c02fb5f1e895bd71", "rental_uris": {"android": "https://dc.lft.to/lastmile_qr_scan", "ios": "https://dc.lft.to/lastmile_qr_scan"}, "name": "811f6cdb48dd8071c02fb5f1e895bd71", "is_reserved": 0}, {"is_disabled": 0, "fusion_lon": 0.0, "fusion_lat": 0.0, "lat": 38.919832666666665, "type": "electric_scooter", "lon": -77.02497583333333, "bike_id": "9a894b439f31737f037567c9a0a16ee7", "rental_uris": {"android": "https://dc.lft.to/lastmile_qr_scan", "ios": "https://dc.lft.to/lastmile_qr_scan"}, "name": "9a894b439f31737f037567c9a0a16ee7", "is_reserved": 0}, {"is_disabled": 0, "fusion_lon": 0.0, "fusion_lat": 0.0, "lat": 38.845166666666664, "type": "electric_scooter", "lon": -76.987891, "bike_id": "6f59df1b7efdcbcfa651b714b8087309", "rental_uris": {"android": "https://dc.lft.to/lastmile_qr_scan", "ios": "https://dc.lft.to/lastmile_qr_scan"}, "name": "6f59df1b7efdcbcfa651b714b8087309", "is_reserved": 0}, {"is_disabled": 0, "fusion_lon": 0.0, "fusion_lat": 0.0, "lat": 38.88723433333333, "type": "electric_scooter", "lon": -77.02205166666667, "bike_id": "d41b69ed76b71e980ca84e9a5cddcc83", "rental_uris": {"android": "https://dc.lft.to/lastmile_qr_scan", "ios": "https://dc.lft.to/lastmile_qr_scan"}, "name": "d41b69ed76b71e980ca84e9a5cddcc83", "is_reserved": 0}, {"is_disabled": 0, "fusion_lon": 0.0, "fusion_lat": 0.0, "lat": 38.900433666666665, "type": "electric_scooter", "lon": -77.01298483333333, "bike_id": "8d494a6e23915c85365b33cd1e5450d1", "rental_uris": {"android": "https://dc.lft.to/lastmile_qr_scan", "ios": "https://dc.lft.to/lastmile_qr_scan"}, "name": "8d494a6e23915c85365b33cd1e5450d1", "is_reserved": 0}, {"is_disabled": 0, "fusion_lon": 0.0, "fusion_lat": 0.0, "lat": 38.91101716666667, "type": "electric_scooter", "lon": -77.0272075, "bike_id": "ae9248b8dd45592cf5e0b0f678afdc16", "rental_uris": {"android": "https://dc.lft.to/lastmile_qr_scan", "ios": "https://dc.lft.to/lastmile_qr_scan"}, "name": "ae9248b8dd45592cf5e0b0f678afdc16", "is_reserved": 0}, {"is_disabled": 0, "fusion_lon": 0.0, "fusion_lat": 0.0, "lat": 38.897389833333335, "type": "electric_scooter", "lon": -77.02467483333334, "bike_id": "9ca006627d1cb1c8f46d12e5d1b5413e", "rental_uris": {"android": "https://dc.lft.to/lastmile_qr_scan", "ios": "https://dc.lft.to/lastmile_qr_scan"}, "name": "9ca006627d1cb1c8f46d12e5d1b5413e", "is_reserved": 0}, {"is_disabled": 0, "fusion_lon": 0.0, "fusion_lat": 0.0, "lat": 38.939609, "type": "electric_scooter", "lon": -77.03277383333334, "bike_id": "425000efb4c23b12af5b3e980e00dd75", "rental_uris": {"android": "https://dc.lft.to/lastmile_qr_scan", "ios": "https://dc.lft.to/lastmile_qr_scan"}, "name": "425000efb4c23b12af5b3e980e00dd75", "is_reserved": 0}, {"is_disabled": 0, "fusion_lon": 0.0, "fusion_lat": 0.0, "lat": 38.90647083333333, "type": "electric_scooter", "lon": -77.04145366666667, "bike_id": "4edf6d857918ee225edd66cbbbc94fbf", "rental_uris": {"android": "https://dc.lft.to/lastmile_qr_scan", "ios": "https://dc.lft.to/lastmile_qr_scan"}, "name": "4edf6d857918ee225edd66cbbbc94fbf", "is_reserved": 0}, {"is_disabled": 0, "fusion_lon": 0.0, "fusion_lat": 0.0, "lat": 38.93661083333333, "type": "electric_scooter", "lon": -77.03261633333334, "bike_id": "8c2f8d042617ec3be3d81a90c641aa86", "rental_uris": {"android": "https://dc.lft.to/lastmile_qr_scan", "ios": "https://dc.lft.to/lastmile_qr_scan"}, "name": "8c2f8d042617ec3be3d81a90c641aa86", "is_reserved": 0}, {"is_disabled": 0, "fusion_lon": 0.0, "fusion_lat": 0.0, "lat": 38.880512833333334, "type": "electric_scooter", "lon": -77.00371483333333, "bike_id": "73f392f91870166b6f0707a1fa0c1e33", "rental_uris": {"android": "https://dc.lft.to/lastmile_qr_scan", "ios": "https://dc.lft.to/lastmile_qr_scan"}, "name": "73f392f91870166b6f0707a1fa0c1e33", "is_reserved": 0}, {"is_disabled": 0, "fusion_lon": 0.0, "fusion_lat": 0.0, "lat": 38.905444333333335, "type": "electric_scooter", "lon": -77.02209733333333, "bike_id": "4ff7a44bc12ab1a9266164d25a5a9923", "rental_uris": {"android": "https://dc.lft.to/lastmile_qr_scan", "ios": "https://dc.lft.to/lastmile_qr_scan"}, "name": "4ff7a44bc12ab1a9266164d25a5a9923", "is_reserved": 0}, {"is_disabled": 0, "fusion_lon": 0.0, "fusion_lat": 0.0, "lat": 38.892202833333336, "type": "electric_scooter", "lon": -76.95742233333333, "bike_id": "c904c88f0b3057ea5e38c6e7639e2929", "rental_uris": {"android": "https://dc.lft.to/lastmile_qr_scan", "ios": "https://dc.lft.to/lastmile_qr_scan"}, "name": "c904c88f0b3057ea5e38c6e7639e2929", "is_reserved": 0}, {"is_disabled": 0, "fusion_lon": 0.0, "fusion_lat": 0.0, "lat": 38.897958333333335, "type": "electric_scooter", "lon": -77.0118955, "bike_id": "a122775ca395f83feaf21991a6d5eda5", "rental_uris": {"android": "https://dc.lft.to/lastmile_qr_scan", "ios": "https://dc.lft.to/lastmile_qr_scan"}, "name": "a122775ca395f83feaf21991a6d5eda5", "is_reserved": 0}, {"is_disabled": 0, "fusion_lon": 0.0, "fusion_lat": 0.0, "lat": 38.9010335, "type": "electric_scooter", "lon": -77.01999016666667, "bike_id": "35774608717344294fd0efd5e099c01c", "rental_uris": {"android": "https://dc.lft.to/lastmile_qr_scan", "ios": "https://dc.lft.to/lastmile_qr_scan"}, "name": "35774608717344294fd0efd5e099c01c", "is_reserved": 0}, {"is_disabled": 0, "fusion_lon": 0.0, "fusion_lat": 0.0, "lat": 38.907289166666665, "type": "electric_scooter", "lon": -77.00249783333334, "bike_id": "1ebfd7ee5d5b53c483e4f09672f7849c", "rental_uris": {"android": "https://dc.lft.to/lastmile_qr_scan", "ios": "https://dc.lft.to/lastmile_qr_scan"}, "name": "1ebfd7ee5d5b53c483e4f09672f7849c", "is_reserved": 0}, {"is_disabled": 0, "fusion_lon": 0.0, "fusion_lat": 0.0, "lat": 38.918991166666665, "type": "electric_scooter", "lon": -77.04463966666667, "bike_id": "535e8d807739b90a1514b880dddcb2fe", "rental_uris": {"android": "https://dc.lft.to/lastmile_qr_scan", "ios": "https://dc.lft.to/lastmile_qr_scan"}, "name": "535e8d807739b90a1514b880dddcb2fe", "is_reserved": 0}, {"is_disabled": 0, "fusion_lon": 0.0, "fusion_lat": 0.0, "lat": 38.923114166666664, "type": "electric_scooter", "lon": -77.03112916666667, "bike_id": "cdcbe50040e4ad43529007301ffa7cf8", "rental_uris": {"android": "https://dc.lft.to/lastmile_qr_scan", "ios": "https://dc.lft.to/lastmile_qr_scan"}, "name": "cdcbe50040e4ad43529007301ffa7cf8", "is_reserved": 0}, {"is_disabled": 0, "fusion_lon": 0.0, "fusion_lat": 0.0, "lat": 38.922691666666665, "type": "electric_scooter", "lon": -77.02958566666666, "bike_id": "bd3eb66f3794c3cf666f59f4c6e36f8c", "rental_uris": {"android": "https://dc.lft.to/lastmile_qr_scan", "ios": "https://dc.lft.to/lastmile_qr_scan"}, "name": "bd3eb66f3794c3cf666f59f4c6e36f8c", "is_reserved": 0}, {"is_disabled": 0, "fusion_lon": 0.0, "fusion_lat": 0.0, "lat": 38.923821333333336, "type": "electric_scooter", "lon": -77.03066916666667, "bike_id": "5df478748c02bd3e00ebe0d0a4649cd3", "rental_uris": {"android": "https://dc.lft.to/lastmile_qr_scan", "ios": "https://dc.lft.to/lastmile_qr_scan"}, "name": "5df478748c02bd3e00ebe0d0a4649cd3", "is_reserved": 0}, {"is_disabled": 0, "fusion_lon": 0.0, "fusion_lat": 0.0, "lat": 38.901605833333335, "type": "electric_scooter", "lon": -77.05901233333333, "bike_id": "cbf048e39244d0d4332bd35d4afaaed4", "rental_uris": {"android": "https://dc.lft.to/lastmile_qr_scan", "ios": "https://dc.lft.to/lastmile_qr_scan"}, "name": "cbf048e39244d0d4332bd35d4afaaed4", "is_reserved": 0}, {"is_disabled": 0, "fusion_lon": 0.0, "fusion_lat": 0.0, "lat": 38.944512, "type": "electric_scooter", "lon": -77.06169983333334, "bike_id": "f3c959f36117e18b58c82d3065a997a9", "rental_uris": {"android": "https://dc.lft.to/lastmile_qr_scan", "ios": "https://dc.lft.to/lastmile_qr_scan"}, "name": "f3c959f36117e18b58c82d3065a997a9", "is_reserved": 0}, {"is_disabled": 0, "fusion_lon": 0.0, "fusion_lat": 0.0, "lat": 38.910162666666665, "type": "electric_scooter", "lon": -77.027169, "bike_id": "d59f042834694c05b8daf79243985a75", "rental_uris": {"android": "https://dc.lft.to/lastmile_qr_scan", "ios": "https://dc.lft.to/lastmile_qr_scan"}, "name": "d59f042834694c05b8daf79243985a75", "is_reserved": 0}, {"is_disabled": 0, "fusion_lon": 0.0, "fusion_lat": 0.0, "lat": 38.90325683333333, "type": "electric_scooter", "lon": -77.028921, "bike_id": "1af895796ac4d48149602ed7ce86ce26", "rental_uris": {"android": "https://dc.lft.to/lastmile_qr_scan", "ios": "https://dc.lft.to/lastmile_qr_scan"}, "name": "1af895796ac4d48149602ed7ce86ce26", "is_reserved": 0}, {"is_disabled": 0, "fusion_lon": 0.0, "fusion_lat": 0.0, "lat": 38.90676633333333, "type": "electric_scooter", "lon": -77.0365145, "bike_id": "c1a321bb29896ce37a7802bd943c4d58", "rental_uris": {"android": "https://dc.lft.to/lastmile_qr_scan", "ios": "https://dc.lft.to/lastmile_qr_scan"}, "name": "c1a321bb29896ce37a7802bd943c4d58", "is_reserved": 0}, {"is_disabled": 0, "fusion_lon": 0.0, "fusion_lat": 0.0, "lat": 38.96559883333333, "type": "electric_bike", "lon": -77.02298033333334, "bike_id": "922697bbd1cff7945a53e7e2dddf2d07", "rental_uris": {"android": "https://dc.lft.to/lastmile_qr_scan", "ios": "https://dc.lft.to/lastmile_qr_scan"}, "name": "922697bbd1cff7945a53e7e2dddf2d07", "is_reserved": 0}, {"is_disabled": 0, "fusion_lon": 0.0, "fusion_lat": 0.0, "lat": 38.92369166666667, "type": "electric_scooter", "lon": -77.05029016666667, "bike_id": "f5aca8fe078d321be8149b42a7164e49", "rental_uris": {"android": "https://dc.lft.to/lastmile_qr_scan", "ios": "https://dc.lft.to/lastmile_qr_scan"}, "name": "f5aca8fe078d321be8149b42a7164e49", "is_reserved": 0}, {"is_disabled": 0, "fusion_lon": 0.0, "fusion_lat": 0.0, "lat": 38.89406666666667, "type": "electric_scooter", "lon": -77.02154466666667, "bike_id": "159d06e3b5ca9010af6383cba85eec03", "rental_uris": {"android": "https://dc.lft.to/lastmile_qr_scan", "ios": "https://dc.lft.to/lastmile_qr_scan"}, "name": "159d06e3b5ca9010af6383cba85eec03", "is_reserved": 0}, {"is_disabled": 0, "fusion_lon": 0.0, "fusion_lat": 0.0, "lat": 38.8765305, "type": "electric_scooter", "lon": -77.007359, "bike_id": "58016196c0262e29f5fb6409d075d7e7", "rental_uris": {"android": "https://dc.lft.to/lastmile_qr_scan", "ios": "https://dc.lft.to/lastmile_qr_scan"}, "name": "58016196c0262e29f5fb6409d075d7e7", "is_reserved": 0}, {"is_disabled": 0, "fusion_lon": 0.0, "fusion_lat": 0.0, "lat": 38.874338, "type": "electric_scooter", "lon": -77.000337, "bike_id": "4c2d93fbf9ec059fb9cc76c2eed46dff", "rental_uris": {"android": "https://dc.lft.to/lastmile_qr_scan", "ios": "https://dc.lft.to/lastmile_qr_scan"}, "name": "4c2d93fbf9ec059fb9cc76c2eed46dff", "is_reserved": 0}, {"is_disabled": 0, "fusion_lon": 0.0, "fusion_lat": 0.0, "lat": 38.941971, "type": "electric_scooter", "lon": -77.025794, "bike_id": "913a10b8e224ce841fec78f8b337ec32", "rental_uris": {"android": "https://dc.lft.to/lastmile_qr_scan", "ios": "https://dc.lft.to/lastmile_qr_scan"}, "name": "913a10b8e224ce841fec78f8b337ec32", "is_reserved": 0}, {"is_disabled": 0, "fusion_lon": 0.0, "fusion_lat": 0.0, "lat": 38.897345666666666, "type": "electric_scooter", "lon": -77.02711783333334, "bike_id": "3bd1120a5b6513357a63bfc0d62c00e1", "rental_uris": {"android": "https://dc.lft.to/lastmile_qr_scan", "ios": "https://dc.lft.to/lastmile_qr_scan"}, "name": "3bd1120a5b6513357a63bfc0d62c00e1", "is_reserved": 0}, {"is_disabled": 0, "fusion_lon": 0.0, "fusion_lat": 0.0, "lat": 38.8443505, "type": "electric_scooter", "lon": -76.99785816666666, "bike_id": "ff4dd32bee144f7b8a2921e97db267ef", "rental_uris": {"android": "https://dc.lft.to/lastmile_qr_scan", "ios": "https://dc.lft.to/lastmile_qr_scan"}, "name": "ff4dd32bee144f7b8a2921e97db267ef", "is_reserved": 0}, {"is_disabled": 0, "fusion_lon": 0.0, "fusion_lat": 0.0, "lat": 38.895028, "type": "electric_scooter", "lon": -76.9487875, "bike_id": "e157560514bc52c8440d9dac357ae2f5", "rental_uris": {"android": "https://dc.lft.to/lastmile_qr_scan", "ios": "https://dc.lft.to/lastmile_qr_scan"}, "name": "e157560514bc52c8440d9dac357ae2f5", "is_reserved": 0}, {"is_disabled": 0, "fusion_lon": 0.0, "fusion_lat": 0.0, "lat": 38.892768333333336, "type": "electric_scooter", "lon": -77.0103635, "bike_id": "6c42eea69352755c593a7a0ccbe7d8b3", "rental_uris": {"android": "https://dc.lft.to/lastmile_qr_scan", "ios": "https://dc.lft.to/lastmile_qr_scan"}, "name": "6c42eea69352755c593a7a0ccbe7d8b3", "is_reserved": 0}, {"is_disabled": 0, "fusion_lon": 0.0, "fusion_lat": 0.0, "lat": 38.959627, "type": "electric_scooter", "lon": -77.0211065, "bike_id": "e01cfe9ff90a495c7c8dff080c29733b", "rental_uris": {"android": "https://dc.lft.to/lastmile_qr_scan", "ios": "https://dc.lft.to/lastmile_qr_scan"}, "name": "e01cfe9ff90a495c7c8dff080c29733b", "is_reserved": 0}, {"is_disabled": 0, "fusion_lon": 0.0, "fusion_lat": 0.0, "lat": 38.898441166666665, "type": "electric_scooter", "lon": -77.03935, "bike_id": "7e48a0e555407db03703f33676cc7974", "rental_uris": {"android": "https://dc.lft.to/lastmile_qr_scan", "ios": "https://dc.lft.to/lastmile_qr_scan"}, "name": "7e48a0e555407db03703f33676cc7974", "is_reserved": 0}, {"is_disabled": 0, "fusion_lon": 0.0, "fusion_lat": 0.0, "lat": 38.88076216666666, "type": "electric_scooter", "lon": -76.9949995, "bike_id": "74663a59aae62b05ddcaa2f19d22e3fa", "rental_uris": {"android": "https://dc.lft.to/lastmile_qr_scan", "ios": "https://dc.lft.to/lastmile_qr_scan"}, "name": "74663a59aae62b05ddcaa2f19d22e3fa", "is_reserved": 0}, {"is_disabled": 0, "fusion_lon": 0.0, "fusion_lat": 0.0, "lat": 38.95405316666667, "type": "electric_scooter", "lon": -77.0275165, "bike_id": "76b1dd3ac98cacdaedd4eb2757ef4063", "rental_uris": {"android": "https://dc.lft.to/lastmile_qr_scan", "ios": "https://dc.lft.to/lastmile_qr_scan"}, "name": "76b1dd3ac98cacdaedd4eb2757ef4063", "is_reserved": 0}, {"is_disabled": 0, "fusion_lon": 0.0, "fusion_lat": 0.0, "lat": 38.898862666666666, "type": "electric_scooter", "lon": -77.027195, "bike_id": "c5a01f4d401da231513f16c60cd6dd80", "rental_uris": {"android": "https://dc.lft.to/lastmile_qr_scan", "ios": "https://dc.lft.to/lastmile_qr_scan"}, "name": "c5a01f4d401da231513f16c60cd6dd80", "is_reserved": 0}, {"is_disabled": 0, "fusion_lon": 0.0, "fusion_lat": 0.0, "lat": 38.935582833333335, "type": "electric_scooter", "lon": -77.07334883333333, "bike_id": "6136de63854fc8d3e80172ebe4f7d667", "rental_uris": {"android": "https://dc.lft.to/lastmile_qr_scan", "ios": "https://dc.lft.to/lastmile_qr_scan"}, "name": "6136de63854fc8d3e80172ebe4f7d667", "is_reserved": 0}, {"is_disabled": 0, "fusion_lon": 0.0, "fusion_lat": 0.0, "lat": 38.8460135, "type": "electric_bike", "lon": -76.9688155, "bike_id": "5a4d3c38ad185307d505ec82b3db28af", "rental_uris": {"android": "https://dc.lft.to/lastmile_qr_scan", "ios": "https://dc.lft.to/lastmile_qr_scan"}, "name": "5a4d3c38ad185307d505ec82b3db28af", "is_reserved": 0}, {"is_disabled": 0, "fusion_lon": 0.0, "fusion_lat": 0.0, "lat": 38.884054, "type": "electric_bike", "lon": -77.03079, "bike_id": "1bc1e8caa50cbdb1c5c2fd06bf8c8c4f", "rental_uris": {"android": "https://dc.lft.to/lastmile_qr_scan", "ios": "https://dc.lft.to/lastmile_qr_scan"}, "name": "1bc1e8caa50cbdb1c5c2fd06bf8c8c4f", "is_reserved": 0}, {"is_disabled": 0, "fusion_lon": 0.0, "fusion_lat": 0.0, "lat": 38.899100833333335, "type": "electric_scooter", "lon": -76.93391216666667, "bike_id": "a4477e034ae801a5e2175e65f27018f2", "rental_uris": {"android": "https://dc.lft.to/lastmile_qr_scan", "ios": "https://dc.lft.to/lastmile_qr_scan"}, "name": "a4477e034ae801a5e2175e65f27018f2", "is_reserved": 0}, {"is_disabled": 0, "fusion_lon": 0.0, "fusion_lat": 0.0, "lat": 38.9294095, "type": "electric_scooter", "lon": -77.03263516666667, "bike_id": "affa4b0144a3fcf93bce5b63847ebf7d", "rental_uris": {"android": "https://dc.lft.to/lastmile_qr_scan", "ios": "https://dc.lft.to/lastmile_qr_scan"}, "name": "affa4b0144a3fcf93bce5b63847ebf7d", "is_reserved": 0}, {"is_disabled": 0, "fusion_lon": 0.0, "fusion_lat": 0.0, "lat": 38.90865066666667, "type": "electric_scooter", "lon": -77.03221233333333, "bike_id": "142d88a3ceac902e5b3a7066be049181", "rental_uris": {"android": "https://dc.lft.to/lastmile_qr_scan", "ios": "https://dc.lft.to/lastmile_qr_scan"}, "name": "142d88a3ceac902e5b3a7066be049181", "is_reserved": 0}, {"is_disabled": 0, "fusion_lon": 0.0, "fusion_lat": 0.0, "lat": 38.926056, "type": "electric_scooter", "lon": -77.02155416666666, "bike_id": "fc14f505da1b0fca10cc2b889df54488", "rental_uris": {"android": "https://dc.lft.to/lastmile_qr_scan", "ios": "https://dc.lft.to/lastmile_qr_scan"}, "name": "fc14f505da1b0fca10cc2b889df54488", "is_reserved": 0}, {"is_disabled": 0, "fusion_lon": 0.0, "fusion_lat": 0.0, "lat": 38.859161, "type": "electric_scooter", "lon": -76.98783216666666, "bike_id": "22d2584b1995f9fce0682f2b8cdc056c", "rental_uris": {"android": "https://dc.lft.to/lastmile_qr_scan", "ios": "https://dc.lft.to/lastmile_qr_scan"}, "name": "22d2584b1995f9fce0682f2b8cdc056c", "is_reserved": 0}, {"is_disabled": 0, "fusion_lon": 0.0, "fusion_lat": 0.0, "lat": 38.8723755, "type": "electric_scooter", "lon": -77.00575083333334, "bike_id": "c36b639d6b98977e3551a1b9a4accc97", "rental_uris": {"android": "https://dc.lft.to/lastmile_qr_scan", "ios": "https://dc.lft.to/lastmile_qr_scan"}, "name": "c36b639d6b98977e3551a1b9a4accc97", "is_reserved": 0}, {"is_disabled": 0, "fusion_lon": 0.0, "fusion_lat": 0.0, "lat": 38.915498166666666, "type": "electric_scooter", "lon": -77.04159033333333, "bike_id": "33c6ae9528b58cb51b3d27b471aad313", "rental_uris": {"android": "https://dc.lft.to/lastmile_qr_scan", "ios": "https://dc.lft.to/lastmile_qr_scan"}, "name": "33c6ae9528b58cb51b3d27b471aad313", "is_reserved": 0}, {"is_disabled": 0, "fusion_lon": 0.0, "fusion_lat": 0.0, "lat": 38.92147083333333, "type": "electric_scooter", "lon": -77.04356183333333, "bike_id": "e1eacaefe58726a061993290516d69e9", "rental_uris": {"android": "https://dc.lft.to/lastmile_qr_scan", "ios": "https://dc.lft.to/lastmile_qr_scan"}, "name": "e1eacaefe58726a061993290516d69e9", "is_reserved": 0}, {"is_disabled": 0, "fusion_lon": 0.0, "fusion_lat": 0.0, "lat": 38.9297945, "type": "electric_scooter", "lon": -77.03468216666667, "bike_id": "b066652d064efb933f83f4fae4dbfc3d", "rental_uris": {"android": "https://dc.lft.to/lastmile_qr_scan", "ios": "https://dc.lft.to/lastmile_qr_scan"}, "name": "b066652d064efb933f83f4fae4dbfc3d", "is_reserved": 0}, {"is_disabled": 0, "fusion_lon": 0.0, "fusion_lat": 0.0, "lat": 38.928485, "type": "electric_scooter", "lon": -77.014204, "bike_id": "2bceff7116b1557dd00e69f2ff9059c7", "rental_uris": {"android": "https://dc.lft.to/lastmile_qr_scan", "ios": "https://dc.lft.to/lastmile_qr_scan"}, "name": "2bceff7116b1557dd00e69f2ff9059c7", "is_reserved": 0}, {"is_disabled": 0, "fusion_lon": 0.0, "fusion_lat": 0.0, "lat": 38.911214666666666, "type": "electric_scooter", "lon": -77.0472445, "bike_id": "0379c4cd1431bfcab20768d78442732e", "rental_uris": {"android": "https://dc.lft.to/lastmile_qr_scan", "ios": "https://dc.lft.to/lastmile_qr_scan"}, "name": "0379c4cd1431bfcab20768d78442732e", "is_reserved": 0}, {"is_disabled": 0, "fusion_lon": 0.0, "fusion_lat": 0.0, "lat": 38.902839666666665, "type": "electric_scooter", "lon": -77.0406275, "bike_id": "fb909d7a774f2ac0026c95e587ffbcff", "rental_uris": {"android": "https://dc.lft.to/lastmile_qr_scan", "ios": "https://dc.lft.to/lastmile_qr_scan"}, "name": "fb909d7a774f2ac0026c95e587ffbcff", "is_reserved": 0}, {"is_disabled": 0, "fusion_lon": 0.0, "fusion_lat": 0.0, "lat": 38.93757566666667, "type": "electric_scooter", "lon": -77.024977, "bike_id": "52003037fe7a0f72f386a9cc418ee2c2", "rental_uris": {"android": "https://dc.lft.to/lastmile_qr_scan", "ios": "https://dc.lft.to/lastmile_qr_scan"}, "name": "52003037fe7a0f72f386a9cc418ee2c2", "is_reserved": 0}, {"is_disabled": 0, "fusion_lon": 0.0, "fusion_lat": 0.0, "lat": 38.873213666666665, "type": "electric_scooter", "lon": -77.0018125, "bike_id": "30df07a42329823594a7c2c7e384511e", "rental_uris": {"android": "https://dc.lft.to/lastmile_qr_scan", "ios": "https://dc.lft.to/lastmile_qr_scan"}, "name": "30df07a42329823594a7c2c7e384511e", "is_reserved": 0}, {"is_disabled": 0, "fusion_lon": 0.0, "fusion_lat": 0.0, "lat": 38.90958366666667, "type": "electric_scooter", "lon": -77.04769283333333, "bike_id": "fb5ce76f59ab0000c3f8082a7e45e6bb", "rental_uris": {"android": "https://dc.lft.to/lastmile_qr_scan", "ios": "https://dc.lft.to/lastmile_qr_scan"}, "name": "fb5ce76f59ab0000c3f8082a7e45e6bb", "is_reserved": 0}, {"is_disabled": 0, "fusion_lon": 0.0, "fusion_lat": 0.0, "lat": 38.887321166666666, "type": "electric_scooter", "lon": -77.03218966666667, "bike_id": "f42837bb9b9cbacbc2369b0d3e387ef1", "rental_uris": {"android": "https://dc.lft.to/lastmile_qr_scan", "ios": "https://dc.lft.to/lastmile_qr_scan"}, "name": "f42837bb9b9cbacbc2369b0d3e387ef1", "is_reserved": 0}, {"is_disabled": 0, "fusion_lon": 0.0, "fusion_lat": 0.0, "lat": 38.90027883333333, "type": "electric_scooter", "lon": -77.03982633333334, "bike_id": "c88aff451a5cb407f0c6bcccf713cdff", "rental_uris": {"android": "https://dc.lft.to/lastmile_qr_scan", "ios": "https://dc.lft.to/lastmile_qr_scan"}, "name": "c88aff451a5cb407f0c6bcccf713cdff", "is_reserved": 0}, {"is_disabled": 0, "fusion_lon": 0.0, "fusion_lat": 0.0, "lat": 38.9109715, "type": "electric_scooter", "lon": -77.02199583333334, "bike_id": "3012fbd2b50bafa5e2971a68334c0c62", "rental_uris": {"android": "https://dc.lft.to/lastmile_qr_scan", "ios": "https://dc.lft.to/lastmile_qr_scan"}, "name": "3012fbd2b50bafa5e2971a68334c0c62", "is_reserved": 0}, {"is_disabled": 0, "fusion_lon": 0.0, "fusion_lat": 0.0, "lat": 38.902942, "type": "electric_scooter", "lon": -77.02118633333333, "bike_id": "28c87e857e444986050be764b0b39967", "rental_uris": {"android": "https://dc.lft.to/lastmile_qr_scan", "ios": "https://dc.lft.to/lastmile_qr_scan"}, "name": "28c87e857e444986050be764b0b39967", "is_reserved": 0}, {"is_disabled": 0, "fusion_lon": 0.0, "fusion_lat": 0.0, "lat": 38.93144433333333, "type": "electric_scooter", "lon": -77.03246683333333, "bike_id": "0a06dbf66fabfbab09329c77bf49fcdb", "rental_uris": {"android": "https://dc.lft.to/lastmile_qr_scan", "ios": "https://dc.lft.to/lastmile_qr_scan"}, "name": "0a06dbf66fabfbab09329c77bf49fcdb", "is_reserved": 0}, {"is_disabled": 0, "fusion_lon": 0.0, "fusion_lat": 0.0, "lat": 38.9188135, "type": "electric_scooter", "lon": -77.04317033333334, "bike_id": "3d1576fb03fcc3aa8159bf9ef0f694db", "rental_uris": {"android": "https://dc.lft.to/lastmile_qr_scan", "ios": "https://dc.lft.to/lastmile_qr_scan"}, "name": "3d1576fb03fcc3aa8159bf9ef0f694db", "is_reserved": 0}, {"is_disabled": 0, "fusion_lon": 0.0, "fusion_lat": 0.0, "lat": 38.91648133333333, "type": "electric_scooter", "lon": -77.02393133333334, "bike_id": "d2addd0317db3ae87c31b59814a2a977", "rental_uris": {"android": "https://dc.lft.to/lastmile_qr_scan", "ios": "https://dc.lft.to/lastmile_qr_scan"}, "name": "d2addd0317db3ae87c31b59814a2a977", "is_reserved": 0}, {"is_disabled": 0, "fusion_lon": 0.0, "fusion_lat": 0.0, "lat": 38.90030433333333, "type": "electric_scooter", "lon": -77.03973833333333, "bike_id": "8e7e81b870303d4329be6ea7e2b10ce3", "rental_uris": {"android": "https://dc.lft.to/lastmile_qr_scan", "ios": "https://dc.lft.to/lastmile_qr_scan"}, "name": "8e7e81b870303d4329be6ea7e2b10ce3", "is_reserved": 0}, {"is_disabled": 0, "fusion_lon": 0.0, "fusion_lat": 0.0, "lat": 38.90505666666667, "type": "electric_bike", "lon": -77.05683616666667, "bike_id": "3973cf1d84a0f422716b2950f6e9a778", "rental_uris": {"android": "https://dc.lft.to/lastmile_qr_scan", "ios": "https://dc.lft.to/lastmile_qr_scan"}, "name": "3973cf1d84a0f422716b2950f6e9a778", "is_reserved": 0}, {"is_disabled": 0, "fusion_lon": 0.0, "fusion_lat": 0.0, "lat": 38.9449265, "type": "electric_bike", "lon": -76.98657183333333, "bike_id": "aeabb41327f9f6a4e29074e28a325959", "rental_uris": {"android": "https://dc.lft.to/lastmile_qr_scan", "ios": "https://dc.lft.to/lastmile_qr_scan"}, "name": "aeabb41327f9f6a4e29074e28a325959", "is_reserved": 0}, {"is_disabled": 0, "fusion_lon": 0.0, "fusion_lat": 0.0, "lat": 38.925681833333336, "type": "electric_scooter", "lon": -77.03774283333334, "bike_id": "91cc6a52d4bb8051ea8b1d7fc0d5f881", "rental_uris": {"android": "https://dc.lft.to/lastmile_qr_scan", "ios": "https://dc.lft.to/lastmile_qr_scan"}, "name": "91cc6a52d4bb8051ea8b1d7fc0d5f881", "is_reserved": 0}, {"is_disabled": 0, "fusion_lon": 0.0, "fusion_lat": 0.0, "lat": 38.943023, "type": "electric_scooter", "lon": -77.02529933333334, "bike_id": "3360a34dca053dccc8e10e06559e8f6f", "rental_uris": {"android": "https://dc.lft.to/lastmile_qr_scan", "ios": "https://dc.lft.to/lastmile_qr_scan"}, "name": "3360a34dca053dccc8e10e06559e8f6f", "is_reserved": 0}, {"is_disabled": 0, "fusion_lon": 0.0, "fusion_lat": 0.0, "lat": 38.91726766666667, "type": "electric_scooter", "lon": -77.0297485, "bike_id": "197ce51ca1c7bf5876d57fe9bd1df2f1", "rental_uris": {"android": "https://dc.lft.to/lastmile_qr_scan", "ios": "https://dc.lft.to/lastmile_qr_scan"}, "name": "197ce51ca1c7bf5876d57fe9bd1df2f1", "is_reserved": 0}, {"is_disabled": 0, "fusion_lon": 0.0, "fusion_lat": 0.0, "lat": 38.909602166666666, "type": "electric_scooter", "lon": -77.04843433333333, "bike_id": "7f5af195c4e416ec28dd7c850470a54a", "rental_uris": {"android": "https://dc.lft.to/lastmile_qr_scan", "ios": "https://dc.lft.to/lastmile_qr_scan"}, "name": "7f5af195c4e416ec28dd7c850470a54a", "is_reserved": 0}, {"is_disabled": 0, "fusion_lon": 0.0, "fusion_lat": 0.0, "lat": 38.894738833333335, "type": "electric_scooter", "lon": -76.93303366666666, "bike_id": "ac115a66a18cddedf3529fe29acb3bd0", "rental_uris": {"android": "https://dc.lft.to/lastmile_qr_scan", "ios": "https://dc.lft.to/lastmile_qr_scan"}, "name": "ac115a66a18cddedf3529fe29acb3bd0", "is_reserved": 0}, {"is_disabled": 0, "fusion_lon": 0.0, "fusion_lat": 0.0, "lat": 38.89475316666667, "type": "electric_scooter", "lon": -77.02148816666667, "bike_id": "1be42cf81861e166bdd179f67ddcd49f", "rental_uris": {"android": "https://dc.lft.to/lastmile_qr_scan", "ios": "https://dc.lft.to/lastmile_qr_scan"}, "name": "1be42cf81861e166bdd179f67ddcd49f", "is_reserved": 0}, {"is_disabled": 0, "fusion_lon": 0.0, "fusion_lat": 0.0, "lat": 38.902856166666666, "type": "electric_scooter", "lon": -77.048857, "bike_id": "8b0338b67493c6aaf816c20df46279c8", "rental_uris": {"android": "https://dc.lft.to/lastmile_qr_scan", "ios": "https://dc.lft.to/lastmile_qr_scan"}, "name": "8b0338b67493c6aaf816c20df46279c8", "is_reserved": 0}, {"is_disabled": 0, "fusion_lon": 0.0, "fusion_lat": 0.0, "lat": 38.87896383333333, "type": "electric_scooter", "lon": -76.93523316666666, "bike_id": "16ff39ae72e458320a456de62fbf40a8", "rental_uris": {"android": "https://dc.lft.to/lastmile_qr_scan", "ios": "https://dc.lft.to/lastmile_qr_scan"}, "name": "16ff39ae72e458320a456de62fbf40a8", "is_reserved": 0}, {"is_disabled": 0, "fusion_lon": 0.0, "fusion_lat": 0.0, "lat": 38.88602, "type": "electric_scooter", "lon": -76.99722383333334, "bike_id": "4c0e487c792f6d22f2ad6431f44cb1ea", "rental_uris": {"android": "https://dc.lft.to/lastmile_qr_scan", "ios": "https://dc.lft.to/lastmile_qr_scan"}, "name": "4c0e487c792f6d22f2ad6431f44cb1ea", "is_reserved": 0}, {"is_disabled": 0, "fusion_lon": 0.0, "fusion_lat": 0.0, "lat": 38.884103333333336, "type": "electric_scooter", "lon": -77.01981016666667, "bike_id": "e160f382184d98f44daff35ad8c8b520", "rental_uris": {"android": "https://dc.lft.to/lastmile_qr_scan", "ios": "https://dc.lft.to/lastmile_qr_scan"}, "name": "e160f382184d98f44daff35ad8c8b520", "is_reserved": 0}, {"is_disabled": 0, "fusion_lon": 0.0, "fusion_lat": 0.0, "lat": 38.903561, "type": "electric_scooter", "lon": -77.02588616666667, "bike_id": "a036ae9cfbb9a298850a1fdfbd4d1ca0", "rental_uris": {"android": "https://dc.lft.to/lastmile_qr_scan", "ios": "https://dc.lft.to/lastmile_qr_scan"}, "name": "a036ae9cfbb9a298850a1fdfbd4d1ca0", "is_reserved": 0}, {"is_disabled": 0, "fusion_lon": 0.0, "fusion_lat": 0.0, "lat": 38.8874495, "type": "electric_scooter", "lon": -77.01540816666666, "bike_id": "a5759d24e3fe7325aed15988519b5d06", "rental_uris": {"android": "https://dc.lft.to/lastmile_qr_scan", "ios": "https://dc.lft.to/lastmile_qr_scan"}, "name": "a5759d24e3fe7325aed15988519b5d06", "is_reserved": 0}, {"is_disabled": 0, "fusion_lon": 0.0, "fusion_lat": 0.0, "lat": 38.88748533333333, "type": "electric_scooter", "lon": -77.01608166666666, "bike_id": "917547771eecdbfd71316b03270a2c46", "rental_uris": {"android": "https://dc.lft.to/lastmile_qr_scan", "ios": "https://dc.lft.to/lastmile_qr_scan"}, "name": "917547771eecdbfd71316b03270a2c46", "is_reserved": 0}, {"is_disabled": 0, "fusion_lon": 0.0, "fusion_lat": 0.0, "lat": 38.9063, "type": "electric_scooter", "lon": -77.02465016666666, "bike_id": "4b41cd8f586a8c6dac7c23a99f9fdf3f", "rental_uris": {"android": "https://dc.lft.to/lastmile_qr_scan", "ios": "https://dc.lft.to/lastmile_qr_scan"}, "name": "4b41cd8f586a8c6dac7c23a99f9fdf3f", "is_reserved": 0}, {"is_disabled": 0, "fusion_lon": 0.0, "fusion_lat": 0.0, "lat": 38.92794333333333, "type": "electric_bike", "lon": -77.03262233333334, "bike_id": "a177744bbddc620eeb15137f893ac81b", "rental_uris": {"android": "https://dc.lft.to/lastmile_qr_scan", "ios": "https://dc.lft.to/lastmile_qr_scan"}, "name": "a177744bbddc620eeb15137f893ac81b", "is_reserved": 0}, {"is_disabled": 0, "fusion_lon": 0.0, "fusion_lat": 0.0, "lat": 38.949736333333334, "type": "electric_scooter", "lon": -77.06698266666666, "bike_id": "99f8fbe2839393a01e204ba65f4af8c1", "rental_uris": {"android": "https://dc.lft.to/lastmile_qr_scan", "ios": "https://dc.lft.to/lastmile_qr_scan"}, "name": "99f8fbe2839393a01e204ba65f4af8c1", "is_reserved": 0}, {"is_disabled": 0, "fusion_lon": 0.0, "fusion_lat": 0.0, "lat": 38.923720333333335, "type": "electric_scooter", "lon": -77.02811416666667, "bike_id": "e57942501e3836b3dd1cd4ffeee41651", "rental_uris": {"android": "https://dc.lft.to/lastmile_qr_scan", "ios": "https://dc.lft.to/lastmile_qr_scan"}, "name": "e57942501e3836b3dd1cd4ffeee41651", "is_reserved": 0}, {"is_disabled": 0, "fusion_lon": 0.0, "fusion_lat": 0.0, "lat": 38.886559166666665, "type": "electric_bike", "lon": -77.1622635, "bike_id": "84269763e0f030b4413a8e1ddf843006", "rental_uris": {"android": "https://dc.lft.to/lastmile_qr_scan", "ios": "https://dc.lft.to/lastmile_qr_scan"}, "name": "84269763e0f030b4413a8e1ddf843006", "is_reserved": 0}, {"is_disabled": 0, "fusion_lon": 0.0, "fusion_lat": 0.0, "lat": 38.922648, "type": "electric_scooter", "lon": -77.04122716666667, "bike_id": "a7df44b27d88149328d93f270cac8a3a", "rental_uris": {"android": "https://dc.lft.to/lastmile_qr_scan", "ios": "https://dc.lft.to/lastmile_qr_scan"}, "name": "a7df44b27d88149328d93f270cac8a3a", "is_reserved": 0}, {"is_disabled": 0, "fusion_lon": 0.0, "fusion_lat": 0.0, "lat": 38.961248, "type": "electric_scooter", "lon": -77.08538166666666, "bike_id": "b2554026117e6746d072bb24036f5228", "rental_uris": {"android": "https://dc.lft.to/lastmile_qr_scan", "ios": "https://dc.lft.to/lastmile_qr_scan"}, "name": "b2554026117e6746d072bb24036f5228", "is_reserved": 0}, {"is_disabled": 0, "fusion_lon": 0.0, "fusion_lat": 0.0, "lat": 38.926060166666666, "type": "electric_scooter", "lon": -77.02309316666667, "bike_id": "d744c7f962dcc29356391b5bd03b8e3e", "rental_uris": {"android": "https://dc.lft.to/lastmile_qr_scan", "ios": "https://dc.lft.to/lastmile_qr_scan"}, "name": "d744c7f962dcc29356391b5bd03b8e3e", "is_reserved": 0}, {"is_disabled": 0, "fusion_lon": 0.0, "fusion_lat": 0.0, "lat": 38.93784, "type": "electric_scooter", "lon": -77.01880116666666, "bike_id": "509348ec433d873daa8a2bd24554c0e8", "rental_uris": {"android": "https://dc.lft.to/lastmile_qr_scan", "ios": "https://dc.lft.to/lastmile_qr_scan"}, "name": "509348ec433d873daa8a2bd24554c0e8", "is_reserved": 0}, {"is_disabled": 0, "fusion_lon": 0.0, "fusion_lat": 0.0, "lat": 38.9630835, "type": "electric_bike", "lon": -77.01102033333333, "bike_id": "75674999a35f48427bd9ceaf09a7e82d", "rental_uris": {"android": "https://dc.lft.to/lastmile_qr_scan", "ios": "https://dc.lft.to/lastmile_qr_scan"}, "name": "75674999a35f48427bd9ceaf09a7e82d", "is_reserved": 0}, {"is_disabled": 0, "fusion_lon": 0.0, "fusion_lat": 0.0, "lat": 38.9230695, "type": "electric_scooter", "lon": -77.04740683333333, "bike_id": "4d0980b2dd568daa1cb430309b15fcb8", "rental_uris": {"android": "https://dc.lft.to/lastmile_qr_scan", "ios": "https://dc.lft.to/lastmile_qr_scan"}, "name": "4d0980b2dd568daa1cb430309b15fcb8", "is_reserved": 0}, {"is_disabled": 0, "fusion_lon": 0.0, "fusion_lat": 0.0, "lat": 38.881298666666666, "type": "electric_scooter", "lon": -77.02712933333333, "bike_id": "7cd34d118480ce105ab8a4b661151d2f", "rental_uris": {"android": "https://dc.lft.to/lastmile_qr_scan", "ios": "https://dc.lft.to/lastmile_qr_scan"}, "name": "7cd34d118480ce105ab8a4b661151d2f", "is_reserved": 0}, {"is_disabled": 0, "fusion_lon": 0.0, "fusion_lat": 0.0, "lat": 38.935101333333336, "type": "electric_scooter", "lon": -77.08223466666666, "bike_id": "b3ef5a92796407d86129e57cf74e273a", "rental_uris": {"android": "https://dc.lft.to/lastmile_qr_scan", "ios": "https://dc.lft.to/lastmile_qr_scan"}, "name": "b3ef5a92796407d86129e57cf74e273a", "is_reserved": 0}, {"is_disabled": 0, "fusion_lon": 0.0, "fusion_lat": 0.0, "lat": 38.88688533333333, "type": "electric_scooter", "lon": -77.01371566666667, "bike_id": "6389decbea0763ebd77935952616c9e0", "rental_uris": {"android": "https://dc.lft.to/lastmile_qr_scan", "ios": "https://dc.lft.to/lastmile_qr_scan"}, "name": "6389decbea0763ebd77935952616c9e0", "is_reserved": 0}, {"is_disabled": 0, "fusion_lon": 0.0, "fusion_lat": 0.0, "lat": 38.8443375, "type": "electric_scooter", "lon": -76.997837, "bike_id": "0170f80596d1aa12d474e7c04fa1d5b7", "rental_uris": {"android": "https://dc.lft.to/lastmile_qr_scan", "ios": "https://dc.lft.to/lastmile_qr_scan"}, "name": "0170f80596d1aa12d474e7c04fa1d5b7", "is_reserved": 0}, {"is_disabled": 0, "fusion_lon": 0.0, "fusion_lat": 0.0, "lat": 38.927915666666664, "type": "electric_scooter", "lon": -77.0254795, "bike_id": "e2f8c2c7130e1b2324c7e1503cab3595", "rental_uris": {"android": "https://dc.lft.to/lastmile_qr_scan", "ios": "https://dc.lft.to/lastmile_qr_scan"}, "name": "e2f8c2c7130e1b2324c7e1503cab3595", "is_reserved": 0}, {"is_disabled": 0, "fusion_lon": 0.0, "fusion_lat": 0.0, "lat": 38.92880433333333, "type": "electric_scooter", "lon": -77.01425166666667, "bike_id": "31511fe02e769e3ed693dd4b8df2a93b", "rental_uris": {"android": "https://dc.lft.to/lastmile_qr_scan", "ios": "https://dc.lft.to/lastmile_qr_scan"}, "name": "31511fe02e769e3ed693dd4b8df2a93b", "is_reserved": 0}, {"is_disabled": 0, "fusion_lon": 0.0, "fusion_lat": 0.0, "lat": 38.946034, "type": "electric_scooter", "lon": -77.02978333333333, "bike_id": "5a9588ad2ff0ea122cefbc37f30ee2a7", "rental_uris": {"android": "https://dc.lft.to/lastmile_qr_scan", "ios": "https://dc.lft.to/lastmile_qr_scan"}, "name": "5a9588ad2ff0ea122cefbc37f30ee2a7", "is_reserved": 0}, {"is_disabled": 0, "fusion_lon": 0.0, "fusion_lat": 0.0, "lat": 38.91314966666667, "type": "electric_scooter", "lon": -77.03208633333334, "bike_id": "2210f33b81e1ef61c05d981cb1d6c276", "rental_uris": {"android": "https://dc.lft.to/lastmile_qr_scan", "ios": "https://dc.lft.to/lastmile_qr_scan"}, "name": "2210f33b81e1ef61c05d981cb1d6c276", "is_reserved": 0}, {"is_disabled": 0, "fusion_lon": 0.0, "fusion_lat": 0.0, "lat": 38.920387833333336, "type": "electric_bike", "lon": -77.02562333333333, "bike_id": "fb7a547299d8a9e2e01e3737afb2f0e1", "rental_uris": {"android": "https://dc.lft.to/lastmile_qr_scan", "ios": "https://dc.lft.to/lastmile_qr_scan"}, "name": "fb7a547299d8a9e2e01e3737afb2f0e1", "is_reserved": 0}, {"is_disabled": 0, "fusion_lon": 0.0, "fusion_lat": 0.0, "lat": 38.925746, "type": "electric_scooter", "lon": -77.03782616666666, "bike_id": "0c141cf921c0b7f680cfc6c78ee1a327", "rental_uris": {"android": "https://dc.lft.to/lastmile_qr_scan", "ios": "https://dc.lft.to/lastmile_qr_scan"}, "name": "0c141cf921c0b7f680cfc6c78ee1a327", "is_reserved": 0}, {"is_disabled": 0, "fusion_lon": 0.0, "fusion_lat": 0.0, "lat": 38.91267233333333, "type": "electric_scooter", "lon": -77.03368816666666, "bike_id": "1ed6110a0b4697e84d32b1938d839094", "rental_uris": {"android": "https://dc.lft.to/lastmile_qr_scan", "ios": "https://dc.lft.to/lastmile_qr_scan"}, "name": "1ed6110a0b4697e84d32b1938d839094", "is_reserved": 0}, {"is_disabled": 0, "fusion_lon": 0.0, "fusion_lat": 0.0, "lat": 38.91304183333333, "type": "electric_scooter", "lon": -77.00859616666666, "bike_id": "8a242020559c26461b559f9e5ebd7ac4", "rental_uris": {"android": "https://dc.lft.to/lastmile_qr_scan", "ios": "https://dc.lft.to/lastmile_qr_scan"}, "name": "8a242020559c26461b559f9e5ebd7ac4", "is_reserved": 0}, {"is_disabled": 0, "fusion_lon": 0.0, "fusion_lat": 0.0, "lat": 38.92239266666667, "type": "electric_scooter", "lon": -77.03346133333334, "bike_id": "145f9c36412bae2a18a74f8689180096", "rental_uris": {"android": "https://dc.lft.to/lastmile_qr_scan", "ios": "https://dc.lft.to/lastmile_qr_scan"}, "name": "145f9c36412bae2a18a74f8689180096", "is_reserved": 0}, {"is_disabled": 0, "fusion_lon": 0.0, "fusion_lat": 0.0, "lat": 38.989922, "type": "electric_scooter", "lon": -77.0336175, "bike_id": "a46b15ad7bd278194c71106c5bebee84", "rental_uris": {"android": "https://dc.lft.to/lastmile_qr_scan", "ios": "https://dc.lft.to/lastmile_qr_scan"}, "name": "a46b15ad7bd278194c71106c5bebee84", "is_reserved": 0}, {"is_disabled": 0, "fusion_lon": 0.0, "fusion_lat": 0.0, "lat": 38.878910833333336, "type": "electric_scooter", "lon": -77.02271833333333, "bike_id": "d3a0ae526157bd345fc03c1a3b80d2aa", "rental_uris": {"android": "https://dc.lft.to/lastmile_qr_scan", "ios": "https://dc.lft.to/lastmile_qr_scan"}, "name": "d3a0ae526157bd345fc03c1a3b80d2aa", "is_reserved": 0}, {"is_disabled": 0, "fusion_lon": 0.0, "fusion_lat": 0.0, "lat": 38.95728166666667, "type": "electric_scooter", "lon": -77.03100933333333, "bike_id": "068f2506d51ebb7f754602d7ecaa6193", "rental_uris": {"android": "https://dc.lft.to/lastmile_qr_scan", "ios": "https://dc.lft.to/lastmile_qr_scan"}, "name": "068f2506d51ebb7f754602d7ecaa6193", "is_reserved": 0}, {"is_disabled": 0, "fusion_lon": 0.0, "fusion_lat": 0.0, "lat": 38.899066166666664, "type": "electric_scooter", "lon": -77.01631666666667, "bike_id": "1425cced2dca82d69be1e6040865b71a", "rental_uris": {"android": "https://dc.lft.to/lastmile_qr_scan", "ios": "https://dc.lft.to/lastmile_qr_scan"}, "name": "1425cced2dca82d69be1e6040865b71a", "is_reserved": 0}, {"is_disabled": 0, "fusion_lon": 0.0, "fusion_lat": 0.0, "lat": 38.915416, "type": "electric_scooter", "lon": -77.03208966666666, "bike_id": "e7e9c33efa7e35f6f84c543e1a926fc6", "rental_uris": {"android": "https://dc.lft.to/lastmile_qr_scan", "ios": "https://dc.lft.to/lastmile_qr_scan"}, "name": "e7e9c33efa7e35f6f84c543e1a926fc6", "is_reserved": 0}, {"is_disabled": 0, "fusion_lon": 0.0, "fusion_lat": 0.0, "lat": 38.914077666666664, "type": "electric_scooter", "lon": -77.03223166666666, "bike_id": "d7c31e8eb21618c66293ecebb8a59d89", "rental_uris": {"android": "https://dc.lft.to/lastmile_qr_scan", "ios": "https://dc.lft.to/lastmile_qr_scan"}, "name": "d7c31e8eb21618c66293ecebb8a59d89", "is_reserved": 0}, {"is_disabled": 0, "fusion_lon": 0.0, "fusion_lat": 0.0, "lat": 38.88819383333333, "type": "electric_bike", "lon": -77.12736983333333, "bike_id": "39f21e0859ffc9a9cc1ca912c7c926a8", "rental_uris": {"android": "https://dc.lft.to/lastmile_qr_scan", "ios": "https://dc.lft.to/lastmile_qr_scan"}, "name": "39f21e0859ffc9a9cc1ca912c7c926a8", "is_reserved": 0}, {"is_disabled": 0, "fusion_lon": 0.0, "fusion_lat": 0.0, "lat": 38.975754, "type": "electric_bike", "lon": -76.96402583333334, "bike_id": "832db99a2da42599a8bba43c8022710f", "rental_uris": {"android": "https://dc.lft.to/lastmile_qr_scan", "ios": "https://dc.lft.to/lastmile_qr_scan"}, "name": "832db99a2da42599a8bba43c8022710f", "is_reserved": 0}, {"is_disabled": 0, "fusion_lon": 0.0, "fusion_lat": 0.0, "lat": 38.8946975, "type": "electric_scooter", "lon": -77.02122016666667, "bike_id": "6fc92d3ca8b66165ec2b61708d93ccdd", "rental_uris": {"android": "https://dc.lft.to/lastmile_qr_scan", "ios": "https://dc.lft.to/lastmile_qr_scan"}, "name": "6fc92d3ca8b66165ec2b61708d93ccdd", "is_reserved": 0}, {"is_disabled": 0, "fusion_lon": 0.0, "fusion_lat": 0.0, "lat": 38.85559766666667, "type": "electric_bike", "lon": -77.106898, "bike_id": "107acd0ddd273102ddc47fae53cfcc86", "rental_uris": {"android": "https://dc.lft.to/lastmile_qr_scan", "ios": "https://dc.lft.to/lastmile_qr_scan"}, "name": "107acd0ddd273102ddc47fae53cfcc86", "is_reserved": 0}, {"is_disabled": 0, "fusion_lon": 0.0, "fusion_lat": 0.0, "lat": 38.990933166666665, "type": "electric_bike", "lon": -76.87496183333333, "bike_id": "b664aacd29b47f45be8cf985c03b4b65", "rental_uris": {"android": "https://dc.lft.to/lastmile_qr_scan", "ios": "https://dc.lft.to/lastmile_qr_scan"}, "name": "b664aacd29b47f45be8cf985c03b4b65", "is_reserved": 0}, {"is_disabled": 0, "fusion_lon": 0.0, "fusion_lat": 0.0, "lat": 38.88966283333333, "type": "electric_bike", "lon": -76.948621, "bike_id": "6f4b7bf63135f6a30f1c038614bf6581", "rental_uris": {"android": "https://dc.lft.to/lastmile_qr_scan", "ios": "https://dc.lft.to/lastmile_qr_scan"}, "name": "6f4b7bf63135f6a30f1c038614bf6581", "is_reserved": 0}, {"is_disabled": 0, "fusion_lon": 0.0, "fusion_lat": 0.0, "lat": 38.905201166666664, "type": "electric_scooter", "lon": -77.051181, "bike_id": "93a068f73cb470703a3e6389b9aeaf1f", "rental_uris": {"android": "https://dc.lft.to/lastmile_qr_scan", "ios": "https://dc.lft.to/lastmile_qr_scan"}, "name": "93a068f73cb470703a3e6389b9aeaf1f", "is_reserved": 0}, {"is_disabled": 0, "fusion_lon": 0.0, "fusion_lat": 0.0, "lat": 38.907827833333336, "type": "electric_scooter", "lon": -77.03268, "bike_id": "bcdff9201711f7c89d370ad2d0bdcf54", "rental_uris": {"android": "https://dc.lft.to/lastmile_qr_scan", "ios": "https://dc.lft.to/lastmile_qr_scan"}, "name": "bcdff9201711f7c89d370ad2d0bdcf54", "is_reserved": 0}, {"is_disabled": 0, "fusion_lon": 0.0, "fusion_lat": 0.0, "lat": 38.8462225, "type": "electric_scooter", "lon": -76.99629366666667, "bike_id": "0d6cd7ea71d27b1e160d73c9e2baf108", "rental_uris": {"android": "https://dc.lft.to/lastmile_qr_scan", "ios": "https://dc.lft.to/lastmile_qr_scan"}, "name": "0d6cd7ea71d27b1e160d73c9e2baf108", "is_reserved": 0}, {"is_disabled": 0, "fusion_lon": 0.0, "fusion_lat": 0.0, "lat": 38.86522316666667, "type": "electric_scooter", "lon": -76.9896895, "bike_id": "bb37144d2f93cd3125a2415ffda49a77", "rental_uris": {"android": "https://dc.lft.to/lastmile_qr_scan", "ios": "https://dc.lft.to/lastmile_qr_scan"}, "name": "bb37144d2f93cd3125a2415ffda49a77", "is_reserved": 0}, {"is_disabled": 0, "fusion_lon": 0.0, "fusion_lat": 0.0, "lat": 38.9601785, "type": "electric_scooter", "lon": -77.03312916666667, "bike_id": "a34a6fbfc3ffa413066c9898f47f250e", "rental_uris": {"android": "https://dc.lft.to/lastmile_qr_scan", "ios": "https://dc.lft.to/lastmile_qr_scan"}, "name": "a34a6fbfc3ffa413066c9898f47f250e", "is_reserved": 0}, {"is_disabled": 0, "fusion_lon": 0.0, "fusion_lat": 0.0, "lat": 38.903349666666664, "type": "electric_scooter", "lon": -76.98018033333334, "bike_id": "7e3a3efbe7475031e7ec0500b20c314f", "rental_uris": {"android": "https://dc.lft.to/lastmile_qr_scan", "ios": "https://dc.lft.to/lastmile_qr_scan"}, "name": "7e3a3efbe7475031e7ec0500b20c314f", "is_reserved": 0}, {"is_disabled": 0, "fusion_lon": 0.0, "fusion_lat": 0.0, "lat": 38.920822333333334, "type": "electric_scooter", "lon": -77.04104683333334, "bike_id": "a63bf6f011372434bd223fe583307170", "rental_uris": {"android": "https://dc.lft.to/lastmile_qr_scan", "ios": "https://dc.lft.to/lastmile_qr_scan"}, "name": "a63bf6f011372434bd223fe583307170", "is_reserved": 0}, {"is_disabled": 0, "fusion_lon": 0.0, "fusion_lat": 0.0, "lat": 38.922604666666665, "type": "electric_bike", "lon": -77.0004625, "bike_id": "2f6868509f0d4904f2bce4359dc1ceed", "rental_uris": {"android": "https://dc.lft.to/lastmile_qr_scan", "ios": "https://dc.lft.to/lastmile_qr_scan"}, "name": "2f6868509f0d4904f2bce4359dc1ceed", "is_reserved": 0}, {"is_disabled": 0, "fusion_lon": 0.0, "fusion_lat": 0.0, "lat": 38.858085833333334, "type": "electric_scooter", "lon": -76.98654916666666, "bike_id": "06f7c05ecb53637354689965058507d6", "rental_uris": {"android": "https://dc.lft.to/lastmile_qr_scan", "ios": "https://dc.lft.to/lastmile_qr_scan"}, "name": "06f7c05ecb53637354689965058507d6", "is_reserved": 0}, {"is_disabled": 0, "fusion_lon": 0.0, "fusion_lat": 0.0, "lat": 38.9261065, "type": "electric_scooter", "lon": -77.0571005, "bike_id": "654dbedd591f66707c5c4e36e3b33e16", "rental_uris": {"android": "https://dc.lft.to/lastmile_qr_scan", "ios": "https://dc.lft.to/lastmile_qr_scan"}, "name": "654dbedd591f66707c5c4e36e3b33e16", "is_reserved": 0}, {"is_disabled": 0, "fusion_lon": 0.0, "fusion_lat": 0.0, "lat": 38.911858333333335, "type": "electric_scooter", "lon": -77.0350395, "bike_id": "b6b80bd598fc230aa3d5ec19133099df", "rental_uris": {"android": "https://dc.lft.to/lastmile_qr_scan", "ios": "https://dc.lft.to/lastmile_qr_scan"}, "name": "b6b80bd598fc230aa3d5ec19133099df", "is_reserved": 0}, {"is_disabled": 0, "fusion_lon": 0.0, "fusion_lat": 0.0, "lat": 38.90682733333333, "type": "electric_scooter", "lon": -76.98001883333333, "bike_id": "116e2fd056e1a2519e7f2da59f74a0fb", "rental_uris": {"android": "https://dc.lft.to/lastmile_qr_scan", "ios": "https://dc.lft.to/lastmile_qr_scan"}, "name": "116e2fd056e1a2519e7f2da59f74a0fb", "is_reserved": 0}, {"is_disabled": 0, "fusion_lon": 0.0, "fusion_lat": 0.0, "lat": 38.908732, "type": "electric_scooter", "lon": -77.035412, "bike_id": "229b7e8683573fdfa3b7ef6346270870", "rental_uris": {"android": "https://dc.lft.to/lastmile_qr_scan", "ios": "https://dc.lft.to/lastmile_qr_scan"}, "name": "229b7e8683573fdfa3b7ef6346270870", "is_reserved": 0}, {"is_disabled": 0, "fusion_lon": 0.0, "fusion_lat": 0.0, "lat": 38.92249433333333, "type": "electric_scooter", "lon": -77.03905683333333, "bike_id": "c8b43f5e9030b881195d317ca56506e9", "rental_uris": {"android": "https://dc.lft.to/lastmile_qr_scan", "ios": "https://dc.lft.to/lastmile_qr_scan"}, "name": "c8b43f5e9030b881195d317ca56506e9", "is_reserved": 0}, {"is_disabled": 0, "fusion_lon": 0.0, "fusion_lat": 0.0, "lat": 38.90146283333333, "type": "electric_scooter", "lon": -77.02283083333333, "bike_id": "9ea439878f53e2f7ce4558b60bf6a415", "rental_uris": {"android": "https://dc.lft.to/lastmile_qr_scan", "ios": "https://dc.lft.to/lastmile_qr_scan"}, "name": "9ea439878f53e2f7ce4558b60bf6a415", "is_reserved": 0}, {"is_disabled": 0, "fusion_lon": 0.0, "fusion_lat": 0.0, "lat": 38.86528766666667, "type": "electric_scooter", "lon": -76.989693, "bike_id": "3d7fd9398aa27587f6a63f8677302922", "rental_uris": {"android": "https://dc.lft.to/lastmile_qr_scan", "ios": "https://dc.lft.to/lastmile_qr_scan"}, "name": "3d7fd9398aa27587f6a63f8677302922", "is_reserved": 0}, {"is_disabled": 0, "fusion_lon": 0.0, "fusion_lat": 0.0, "lat": 38.896115333333334, "type": "electric_scooter", "lon": -77.0093235, "bike_id": "a1cbb69cfd840a8bccac1cdcd3e86de5", "rental_uris": {"android": "https://dc.lft.to/lastmile_qr_scan", "ios": "https://dc.lft.to/lastmile_qr_scan"}, "name": "a1cbb69cfd840a8bccac1cdcd3e86de5", "is_reserved": 0}, {"is_disabled": 0, "fusion_lon": 0.0, "fusion_lat": 0.0, "lat": 38.942054, "type": "electric_scooter", "lon": -77.025915, "bike_id": "72f635721b3821f54a7f91169021497b", "rental_uris": {"android": "https://dc.lft.to/lastmile_qr_scan", "ios": "https://dc.lft.to/lastmile_qr_scan"}, "name": "72f635721b3821f54a7f91169021497b", "is_reserved": 0}, {"is_disabled": 0, "fusion_lon": 0.0, "fusion_lat": 0.0, "lat": 38.95562016666667, "type": "electric_scooter", "lon": -77.07033033333333, "bike_id": "4ad7360793a821357c11af6fda10704b", "rental_uris": {"android": "https://dc.lft.to/lastmile_qr_scan", "ios": "https://dc.lft.to/lastmile_qr_scan"}, "name": "4ad7360793a821357c11af6fda10704b", "is_reserved": 0}, {"is_disabled": 0, "fusion_lon": 0.0, "fusion_lat": 0.0, "lat": 38.9161145, "type": "electric_scooter", "lon": -77.03129683333333, "bike_id": "c5efb0a790f314c8d393c734ff811c46", "rental_uris": {"android": "https://dc.lft.to/lastmile_qr_scan", "ios": "https://dc.lft.to/lastmile_qr_scan"}, "name": "c5efb0a790f314c8d393c734ff811c46", "is_reserved": 0}, {"is_disabled": 0, "fusion_lon": 0.0, "fusion_lat": 0.0, "lat": 38.927726666666665, "type": "electric_scooter", "lon": -77.02854616666667, "bike_id": "8a7ff4e05fc8637aa818a0aaece8e125", "rental_uris": {"android": "https://dc.lft.to/lastmile_qr_scan", "ios": "https://dc.lft.to/lastmile_qr_scan"}, "name": "8a7ff4e05fc8637aa818a0aaece8e125", "is_reserved": 0}, {"is_disabled": 0, "fusion_lon": 0.0, "fusion_lat": 0.0, "lat": 38.95954566666666, "type": "electric_bike", "lon": -77.025184, "bike_id": "adb63a17d6931f4cceddf602018c1611", "rental_uris": {"android": "https://dc.lft.to/lastmile_qr_scan", "ios": "https://dc.lft.to/lastmile_qr_scan"}, "name": "adb63a17d6931f4cceddf602018c1611", "is_reserved": 0}, {"is_disabled": 0, "fusion_lon": 0.0, "fusion_lat": 0.0, "lat": 38.92065733333333, "type": "electric_scooter", "lon": -77.04358816666667, "bike_id": "483112cb9ab58187e0ba9d0186a7d476", "rental_uris": {"android": "https://dc.lft.to/lastmile_qr_scan", "ios": "https://dc.lft.to/lastmile_qr_scan"}, "name": "483112cb9ab58187e0ba9d0186a7d476", "is_reserved": 0}, {"is_disabled": 0, "fusion_lon": 0.0, "fusion_lat": 0.0, "lat": 38.900202166666666, "type": "electric_scooter", "lon": -77.02671916666667, "bike_id": "2088406ab3f1a75d82bc07069014dc65", "rental_uris": {"android": "https://dc.lft.to/lastmile_qr_scan", "ios": "https://dc.lft.to/lastmile_qr_scan"}, "name": "2088406ab3f1a75d82bc07069014dc65", "is_reserved": 0}, {"is_disabled": 0, "fusion_lon": 0.0, "fusion_lat": 0.0, "lat": 38.90796233333333, "type": "electric_scooter", "lon": -77.03196283333334, "bike_id": "7bcd9bf6c8723bc50016e9d619e6e7cd", "rental_uris": {"android": "https://dc.lft.to/lastmile_qr_scan", "ios": "https://dc.lft.to/lastmile_qr_scan"}, "name": "7bcd9bf6c8723bc50016e9d619e6e7cd", "is_reserved": 0}, {"is_disabled": 0, "fusion_lon": 0.0, "fusion_lat": 0.0, "lat": 38.92382216666667, "type": "electric_scooter", "lon": -77.02888733333333, "bike_id": "3742c008769e44f669253bdfb98485e7", "rental_uris": {"android": "https://dc.lft.to/lastmile_qr_scan", "ios": "https://dc.lft.to/lastmile_qr_scan"}, "name": "3742c008769e44f669253bdfb98485e7", "is_reserved": 0}, {"is_disabled": 0, "fusion_lon": 0.0, "fusion_lat": 0.0, "lat": 38.9298065, "type": "electric_scooter", "lon": -77.04147916666666, "bike_id": "1c555d46c9f17cbe1bfaaee8be0a873f", "rental_uris": {"android": "https://dc.lft.to/lastmile_qr_scan", "ios": "https://dc.lft.to/lastmile_qr_scan"}, "name": "1c555d46c9f17cbe1bfaaee8be0a873f", "is_reserved": 0}, {"is_disabled": 0, "fusion_lon": 0.0, "fusion_lat": 0.0, "lat": 38.9498415, "type": "electric_scooter", "lon": -77.02703316666667, "bike_id": "52cbbddd3082330118a64dc067b3333c", "rental_uris": {"android": "https://dc.lft.to/lastmile_qr_scan", "ios": "https://dc.lft.to/lastmile_qr_scan"}, "name": "52cbbddd3082330118a64dc067b3333c", "is_reserved": 0}, {"is_disabled": 0, "fusion_lon": 0.0, "fusion_lat": 0.0, "lat": 38.91644266666667, "type": "electric_scooter", "lon": -77.02276633333334, "bike_id": "8762d99598e2d0554252c0197cc4681b", "rental_uris": {"android": "https://dc.lft.to/lastmile_qr_scan", "ios": "https://dc.lft.to/lastmile_qr_scan"}, "name": "8762d99598e2d0554252c0197cc4681b", "is_reserved": 0}, {"is_disabled": 0, "fusion_lon": 0.0, "fusion_lat": 0.0, "lat": 38.91488416666667, "type": "electric_scooter", "lon": -77.04081416666666, "bike_id": "83fe51fe16a51907b0eda340bef6aa90", "rental_uris": {"android": "https://dc.lft.to/lastmile_qr_scan", "ios": "https://dc.lft.to/lastmile_qr_scan"}, "name": "83fe51fe16a51907b0eda340bef6aa90", "is_reserved": 0}, {"is_disabled": 0, "fusion_lon": 0.0, "fusion_lat": 0.0, "lat": 38.91383783333333, "type": "electric_scooter", "lon": -77.02970316666666, "bike_id": "3895ecff6b5c3cf3c3725547e682ffff", "rental_uris": {"android": "https://dc.lft.to/lastmile_qr_scan", "ios": "https://dc.lft.to/lastmile_qr_scan"}, "name": "3895ecff6b5c3cf3c3725547e682ffff", "is_reserved": 0}, {"is_disabled": 0, "fusion_lon": 0.0, "fusion_lat": 0.0, "lat": 38.9303285, "type": "electric_scooter", "lon": -77.05554916666667, "bike_id": "98266bd23b05f938f8cb86bf6a07978d", "rental_uris": {"android": "https://dc.lft.to/lastmile_qr_scan", "ios": "https://dc.lft.to/lastmile_qr_scan"}, "name": "98266bd23b05f938f8cb86bf6a07978d", "is_reserved": 0}, {"is_disabled": 0, "fusion_lon": 0.0, "fusion_lat": 0.0, "lat": 38.88759183333333, "type": "electric_scooter", "lon": -77.00223566666666, "bike_id": "9157fcfa1ef6a3a5ab96795e2f06210d", "rental_uris": {"android": "https://dc.lft.to/lastmile_qr_scan", "ios": "https://dc.lft.to/lastmile_qr_scan"}, "name": "9157fcfa1ef6a3a5ab96795e2f06210d", "is_reserved": 0}, {"is_disabled": 0, "fusion_lon": 0.0, "fusion_lat": 0.0, "lat": 38.898759166666665, "type": "electric_scooter", "lon": -76.9316065, "bike_id": "052b08530cd412845cda2591c5761cc6", "rental_uris": {"android": "https://dc.lft.to/lastmile_qr_scan", "ios": "https://dc.lft.to/lastmile_qr_scan"}, "name": "052b08530cd412845cda2591c5761cc6", "is_reserved": 0}, {"is_disabled": 0, "fusion_lon": 0.0, "fusion_lat": 0.0, "lat": 38.909604333333334, "type": "electric_scooter", "lon": -77.048437, "bike_id": "6866a471e3e94eb36630b92421b1a786", "rental_uris": {"android": "https://dc.lft.to/lastmile_qr_scan", "ios": "https://dc.lft.to/lastmile_qr_scan"}, "name": "6866a471e3e94eb36630b92421b1a786", "is_reserved": 0}, {"is_disabled": 0, "fusion_lon": 0.0, "fusion_lat": 0.0, "lat": 38.95227166666667, "type": "electric_scooter", "lon": -77.02762583333333, "bike_id": "a9cc594dd1fa7ff93cb6bffa10e16ce0", "rental_uris": {"android": "https://dc.lft.to/lastmile_qr_scan", "ios": "https://dc.lft.to/lastmile_qr_scan"}, "name": "a9cc594dd1fa7ff93cb6bffa10e16ce0", "is_reserved": 0}, {"is_disabled": 0, "fusion_lon": 0.0, "fusion_lat": 0.0, "lat": 38.899776, "type": "electric_scooter", "lon": -77.052229, "bike_id": "2f0be8ece65d2de971da042cd6d204c9", "rental_uris": {"android": "https://dc.lft.to/lastmile_qr_scan", "ios": "https://dc.lft.to/lastmile_qr_scan"}, "name": "2f0be8ece65d2de971da042cd6d204c9", "is_reserved": 0}, {"is_disabled": 0, "fusion_lon": 0.0, "fusion_lat": 0.0, "lat": 38.905463, "type": "electric_scooter", "lon": -77.05802566666667, "bike_id": "fe4c6160ab1736880a0f2ee23f21c06c", "rental_uris": {"android": "https://dc.lft.to/lastmile_qr_scan", "ios": "https://dc.lft.to/lastmile_qr_scan"}, "name": "fe4c6160ab1736880a0f2ee23f21c06c", "is_reserved": 0}, {"is_disabled": 0, "fusion_lon": 0.0, "fusion_lat": 0.0, "lat": 38.86061333333333, "type": "electric_scooter", "lon": -76.98511016666667, "bike_id": "83b1c51e5817b4a7b03c5e02619ca718", "rental_uris": {"android": "https://dc.lft.to/lastmile_qr_scan", "ios": "https://dc.lft.to/lastmile_qr_scan"}, "name": "83b1c51e5817b4a7b03c5e02619ca718", "is_reserved": 0}, {"is_disabled": 0, "fusion_lon": 0.0, "fusion_lat": 0.0, "lat": 38.92882066666667, "type": "electric_scooter", "lon": -77.0413005, "bike_id": "ea8df272208f2ea78002438b353a336f", "rental_uris": {"android": "https://dc.lft.to/lastmile_qr_scan", "ios": "https://dc.lft.to/lastmile_qr_scan"}, "name": "ea8df272208f2ea78002438b353a336f", "is_reserved": 0}, {"is_disabled": 0, "fusion_lon": 0.0, "fusion_lat": 0.0, "lat": 38.90969783333333, "type": "electric_scooter", "lon": -77.04797, "bike_id": "663a5102791b8c619314dc7bee8f89a6", "rental_uris": {"android": "https://dc.lft.to/lastmile_qr_scan", "ios": "https://dc.lft.to/lastmile_qr_scan"}, "name": "663a5102791b8c619314dc7bee8f89a6", "is_reserved": 0}, {"is_disabled": 0, "fusion_lon": 0.0, "fusion_lat": 0.0, "lat": 38.87975183333333, "type": "electric_scooter", "lon": -76.993693, "bike_id": "2ef842f66151b4c5ad2907c8b95facb5", "rental_uris": {"android": "https://dc.lft.to/lastmile_qr_scan", "ios": "https://dc.lft.to/lastmile_qr_scan"}, "name": "2ef842f66151b4c5ad2907c8b95facb5", "is_reserved": 0}, {"is_disabled": 0, "fusion_lon": 0.0, "fusion_lat": 0.0, "lat": 38.985012166666664, "type": "electric_bike", "lon": -76.98198966666666, "bike_id": "0c2fea5e0c0007c110bde7ff2fe435d5", "rental_uris": {"android": "https://dc.lft.to/lastmile_qr_scan", "ios": "https://dc.lft.to/lastmile_qr_scan"}, "name": "0c2fea5e0c0007c110bde7ff2fe435d5", "is_reserved": 0}, {"is_disabled": 0, "fusion_lon": 0.0, "fusion_lat": 0.0, "lat": 38.91465216666667, "type": "electric_scooter", "lon": -77.03186616666666, "bike_id": "fd27c1b11fc9d4d0c65638b61e3ff0cd", "rental_uris": {"android": "https://dc.lft.to/lastmile_qr_scan", "ios": "https://dc.lft.to/lastmile_qr_scan"}, "name": "fd27c1b11fc9d4d0c65638b61e3ff0cd", "is_reserved": 0}, {"is_disabled": 0, "fusion_lon": 0.0, "fusion_lat": 0.0, "lat": 38.92558316666667, "type": "electric_scooter", "lon": -77.037784, "bike_id": "0d732c588fc08df075976d689c5bd0e5", "rental_uris": {"android": "https://dc.lft.to/lastmile_qr_scan", "ios": "https://dc.lft.to/lastmile_qr_scan"}, "name": "0d732c588fc08df075976d689c5bd0e5", "is_reserved": 0}, {"is_disabled": 0, "fusion_lon": 0.0, "fusion_lat": 0.0, "lat": 38.892308166666666, "type": "electric_scooter", "lon": -77.04648016666667, "bike_id": "6265d877bfe4984d59356691c2518dd4", "rental_uris": {"android": "https://dc.lft.to/lastmile_qr_scan", "ios": "https://dc.lft.to/lastmile_qr_scan"}, "name": "6265d877bfe4984d59356691c2518dd4", "is_reserved": 0}, {"is_disabled": 0, "fusion_lon": 0.0, "fusion_lat": 0.0, "lat": 38.908568833333334, "type": "electric_scooter", "lon": -77.032584, "bike_id": "023c168e8300188b75b41167007f69cf", "rental_uris": {"android": "https://dc.lft.to/lastmile_qr_scan", "ios": "https://dc.lft.to/lastmile_qr_scan"}, "name": "023c168e8300188b75b41167007f69cf", "is_reserved": 0}, {"is_disabled": 0, "fusion_lon": 0.0, "fusion_lat": 0.0, "lat": 38.91706683333334, "type": "electric_scooter", "lon": -77.00114066666667, "bike_id": "033cf87430f33fa6c523a862d53f923d", "rental_uris": {"android": "https://dc.lft.to/lastmile_qr_scan", "ios": "https://dc.lft.to/lastmile_qr_scan"}, "name": "033cf87430f33fa6c523a862d53f923d", "is_reserved": 0}, {"is_disabled": 0, "fusion_lon": 0.0, "fusion_lat": 0.0, "lat": 38.9217045, "type": "electric_scooter", "lon": -77.03835933333333, "bike_id": "dabfa01d60a26190796d1c9eec048ea4", "rental_uris": {"android": "https://dc.lft.to/lastmile_qr_scan", "ios": "https://dc.lft.to/lastmile_qr_scan"}, "name": "dabfa01d60a26190796d1c9eec048ea4", "is_reserved": 0}, {"is_disabled": 0, "fusion_lon": 0.0, "fusion_lat": 0.0, "lat": 38.906356, "type": "electric_bike", "lon": -77.0702975, "bike_id": "d47cd4e6302aff141139331e45dfac56", "rental_uris": {"android": "https://dc.lft.to/lastmile_qr_scan", "ios": "https://dc.lft.to/lastmile_qr_scan"}, "name": "d47cd4e6302aff141139331e45dfac56", "is_reserved": 0}, {"is_disabled": 0, "fusion_lon": 0.0, "fusion_lat": 0.0, "lat": 38.88457066666667, "type": "electric_bike", "lon": -76.91636316666667, "bike_id": "8d8db05c2e4fc0a2d3b515f847ebf8f4", "rental_uris": {"android": "https://dc.lft.to/lastmile_qr_scan", "ios": "https://dc.lft.to/lastmile_qr_scan"}, "name": "8d8db05c2e4fc0a2d3b515f847ebf8f4", "is_reserved": 0}, {"is_disabled": 0, "fusion_lon": 0.0, "fusion_lat": 0.0, "lat": 38.91698133333333, "type": "electric_scooter", "lon": -77.03627433333334, "bike_id": "f91c87d0a767aef9515aad31e3bc439c", "rental_uris": {"android": "https://dc.lft.to/lastmile_qr_scan", "ios": "https://dc.lft.to/lastmile_qr_scan"}, "name": "f91c87d0a767aef9515aad31e3bc439c", "is_reserved": 0}, {"is_disabled": 0, "fusion_lon": 0.0, "fusion_lat": 0.0, "lat": 38.91710333333333, "type": "electric_scooter", "lon": -77.001114, "bike_id": "c6a8bacf1b90795ccc3a7cd37c251d68", "rental_uris": {"android": "https://dc.lft.to/lastmile_qr_scan", "ios": "https://dc.lft.to/lastmile_qr_scan"}, "name": "c6a8bacf1b90795ccc3a7cd37c251d68", "is_reserved": 0}, {"is_disabled": 0, "fusion_lon": 0.0, "fusion_lat": 0.0, "lat": 38.937030166666666, "type": "electric_scooter", "lon": -77.0559995, "bike_id": "36570f986aae58d6053169c5b0480641", "rental_uris": {"android": "https://dc.lft.to/lastmile_qr_scan", "ios": "https://dc.lft.to/lastmile_qr_scan"}, "name": "36570f986aae58d6053169c5b0480641", "is_reserved": 0}, {"is_disabled": 0, "fusion_lon": 0.0, "fusion_lat": 0.0, "lat": 38.917884666666666, "type": "electric_scooter", "lon": -77.017787, "bike_id": "4193e5a2229af05ed87f30a5497eae3c", "rental_uris": {"android": "https://dc.lft.to/lastmile_qr_scan", "ios": "https://dc.lft.to/lastmile_qr_scan"}, "name": "4193e5a2229af05ed87f30a5497eae3c", "is_reserved": 0}, {"is_disabled": 0, "fusion_lon": 0.0, "fusion_lat": 0.0, "lat": 38.94896933333333, "type": "electric_bike", "lon": -76.96373133333333, "bike_id": "d097f2f060c6e161107e0416f58cf546", "rental_uris": {"android": "https://dc.lft.to/lastmile_qr_scan", "ios": "https://dc.lft.to/lastmile_qr_scan"}, "name": "d097f2f060c6e161107e0416f58cf546", "is_reserved": 0}, {"is_disabled": 0, "fusion_lon": 0.0, "fusion_lat": 0.0, "lat": 38.9121235, "type": "electric_scooter", "lon": -77.038425, "bike_id": "deaf393b9982e577b7d87bb0c5b07186", "rental_uris": {"android": "https://dc.lft.to/lastmile_qr_scan", "ios": "https://dc.lft.to/lastmile_qr_scan"}, "name": "deaf393b9982e577b7d87bb0c5b07186", "is_reserved": 0}, {"is_disabled": 0, "fusion_lon": 0.0, "fusion_lat": 0.0, "lat": 39.05266616666667, "type": "electric_bike", "lon": -77.04384216666666, "bike_id": "c02da04a7747ba15e7afd65be5715b0a", "rental_uris": {"android": "https://dc.lft.to/lastmile_qr_scan", "ios": "https://dc.lft.to/lastmile_qr_scan"}, "name": "c02da04a7747ba15e7afd65be5715b0a", "is_reserved": 0}, {"is_disabled": 0, "fusion_lon": 0.0, "fusion_lat": 0.0, "lat": 38.900265833333336, "type": "electric_scooter", "lon": -77.01188366666666, "bike_id": "c87628e451b0da16421f89afb66a41f4", "rental_uris": {"android": "https://dc.lft.to/lastmile_qr_scan", "ios": "https://dc.lft.to/lastmile_qr_scan"}, "name": "c87628e451b0da16421f89afb66a41f4", "is_reserved": 0}, {"is_disabled": 0, "fusion_lon": 0.0, "fusion_lat": 0.0, "lat": 38.91986883333333, "type": "electric_scooter", "lon": -77.04161966666666, "bike_id": "3cc3274698c28f3f97230df296803d82", "rental_uris": {"android": "https://dc.lft.to/lastmile_qr_scan", "ios": "https://dc.lft.to/lastmile_qr_scan"}, "name": "3cc3274698c28f3f97230df296803d82", "is_reserved": 0}, {"is_disabled": 0, "fusion_lon": 0.0, "fusion_lat": 0.0, "lat": 38.9190845, "type": "electric_scooter", "lon": -77.02971166666667, "bike_id": "293864b8a4ca2d380136e4c4b573eed6", "rental_uris": {"android": "https://dc.lft.to/lastmile_qr_scan", "ios": "https://dc.lft.to/lastmile_qr_scan"}, "name": "293864b8a4ca2d380136e4c4b573eed6", "is_reserved": 0}, {"is_disabled": 0, "fusion_lon": 0.0, "fusion_lat": 0.0, "lat": 38.898328666666664, "type": "electric_scooter", "lon": -76.94631516666666, "bike_id": "bc4b00057a7fc486029b2dadefafe801", "rental_uris": {"android": "https://dc.lft.to/lastmile_qr_scan", "ios": "https://dc.lft.to/lastmile_qr_scan"}, "name": "bc4b00057a7fc486029b2dadefafe801", "is_reserved": 0}, {"is_disabled": 0, "fusion_lon": 0.0, "fusion_lat": 0.0, "lat": 38.9493205, "type": "electric_scooter", "lon": -77.01933333333334, "bike_id": "56c8ff624ece2bf64ad97241adc239e0", "rental_uris": {"android": "https://dc.lft.to/lastmile_qr_scan", "ios": "https://dc.lft.to/lastmile_qr_scan"}, "name": "56c8ff624ece2bf64ad97241adc239e0", "is_reserved": 0}, {"is_disabled": 0, "fusion_lon": 0.0, "fusion_lat": 0.0, "lat": 38.913851, "type": "electric_scooter", "lon": -77.02967833333334, "bike_id": "1d67c0cdc0833670e670e8fc7d294596", "rental_uris": {"android": "https://dc.lft.to/lastmile_qr_scan", "ios": "https://dc.lft.to/lastmile_qr_scan"}, "name": "1d67c0cdc0833670e670e8fc7d294596", "is_reserved": 0}, {"is_disabled": 0, "fusion_lon": 0.0, "fusion_lat": 0.0, "lat": 38.923918666666665, "type": "electric_scooter", "lon": -77.04473216666666, "bike_id": "3b73f87dcdc910511a93f5268313227b", "rental_uris": {"android": "https://dc.lft.to/lastmile_qr_scan", "ios": "https://dc.lft.to/lastmile_qr_scan"}, "name": "3b73f87dcdc910511a93f5268313227b", "is_reserved": 0}, {"is_disabled": 0, "fusion_lon": 0.0, "fusion_lat": 0.0, "lat": 38.905073, "type": "electric_scooter", "lon": -77.060228, "bike_id": "83758e23100d6cd26b068c4fcc78ad61", "rental_uris": {"android": "https://dc.lft.to/lastmile_qr_scan", "ios": "https://dc.lft.to/lastmile_qr_scan"}, "name": "83758e23100d6cd26b068c4fcc78ad61", "is_reserved": 0}, {"is_disabled": 0, "fusion_lon": 0.0, "fusion_lat": 0.0, "lat": 38.91663633333334, "type": "electric_scooter", "lon": -77.0224925, "bike_id": "b635416ba5d6c98a20c071e470f6e261", "rental_uris": {"android": "https://dc.lft.to/lastmile_qr_scan", "ios": "https://dc.lft.to/lastmile_qr_scan"}, "name": "b635416ba5d6c98a20c071e470f6e261", "is_reserved": 0}, {"is_disabled": 0, "fusion_lon": 0.0, "fusion_lat": 0.0, "lat": 38.849362166666666, "type": "electric_bike", "lon": -77.100107, "bike_id": "5706448d087068e34e70ed48c12c8c2d", "rental_uris": {"android": "https://dc.lft.to/lastmile_qr_scan", "ios": "https://dc.lft.to/lastmile_qr_scan"}, "name": "5706448d087068e34e70ed48c12c8c2d", "is_reserved": 0}, {"is_disabled": 0, "fusion_lon": 0.0, "fusion_lat": 0.0, "lat": 38.8861715, "type": "electric_scooter", "lon": -77.00569833333333, "bike_id": "35cd8a8191cfea5141db1cbc140aa35f", "rental_uris": {"android": "https://dc.lft.to/lastmile_qr_scan", "ios": "https://dc.lft.to/lastmile_qr_scan"}, "name": "35cd8a8191cfea5141db1cbc140aa35f", "is_reserved": 0}, {"is_disabled": 0, "fusion_lon": 0.0, "fusion_lat": 0.0, "lat": 38.9170745, "type": "electric_scooter", "lon": -77.01166966666666, "bike_id": "2f418f039e73e5385c96dbc0f3013464", "rental_uris": {"android": "https://dc.lft.to/lastmile_qr_scan", "ios": "https://dc.lft.to/lastmile_qr_scan"}, "name": "2f418f039e73e5385c96dbc0f3013464", "is_reserved": 0}, {"is_disabled": 0, "fusion_lon": 0.0, "fusion_lat": 0.0, "lat": 38.870587666666665, "type": "electric_scooter", "lon": -76.980785, "bike_id": "2c88dde99317a002debf174d985d56d9", "rental_uris": {"android": "https://dc.lft.to/lastmile_qr_scan", "ios": "https://dc.lft.to/lastmile_qr_scan"}, "name": "2c88dde99317a002debf174d985d56d9", "is_reserved": 0}, {"is_disabled": 0, "fusion_lon": 0.0, "fusion_lat": 0.0, "lat": 38.8887315, "type": "electric_scooter", "lon": -77.03995916666666, "bike_id": "3403f30ed4e1f31b4b3f3a2e8af4b2d0", "rental_uris": {"android": "https://dc.lft.to/lastmile_qr_scan", "ios": "https://dc.lft.to/lastmile_qr_scan"}, "name": "3403f30ed4e1f31b4b3f3a2e8af4b2d0", "is_reserved": 0}, {"is_disabled": 0, "fusion_lon": 0.0, "fusion_lat": 0.0, "lat": 38.90137383333333, "type": "electric_scooter", "lon": -77.0488615, "bike_id": "dc96bdec57d930b4cb7acb91cd4a397d", "rental_uris": {"android": "https://dc.lft.to/lastmile_qr_scan", "ios": "https://dc.lft.to/lastmile_qr_scan"}, "name": "dc96bdec57d930b4cb7acb91cd4a397d", "is_reserved": 0}, {"is_disabled": 0, "fusion_lon": 0.0, "fusion_lat": 0.0, "lat": 38.91655183333334, "type": "electric_scooter", "lon": -77.021811, "bike_id": "72e185c00f877966969404190f75e472", "rental_uris": {"android": "https://dc.lft.to/lastmile_qr_scan", "ios": "https://dc.lft.to/lastmile_qr_scan"}, "name": "72e185c00f877966969404190f75e472", "is_reserved": 0}, {"is_disabled": 0, "fusion_lon": 0.0, "fusion_lat": 0.0, "lat": 38.85652566666667, "type": "electric_bike", "lon": -77.085293, "bike_id": "9f577c440b6e5b22233b9a5d203019ba", "rental_uris": {"android": "https://dc.lft.to/lastmile_qr_scan", "ios": "https://dc.lft.to/lastmile_qr_scan"}, "name": "9f577c440b6e5b22233b9a5d203019ba", "is_reserved": 0}, {"is_disabled": 0, "fusion_lon": 0.0, "fusion_lat": 0.0, "lat": 38.95639966666667, "type": "electric_scooter", "lon": -77.09098516666667, "bike_id": "e167245e4bec5b29e11a1e04aa439d27", "rental_uris": {"android": "https://dc.lft.to/lastmile_qr_scan", "ios": "https://dc.lft.to/lastmile_qr_scan"}, "name": "e167245e4bec5b29e11a1e04aa439d27", "is_reserved": 0}, {"is_disabled": 0, "fusion_lon": 0.0, "fusion_lat": 0.0, "lat": 38.920399833333335, "type": "electric_scooter", "lon": -77.018175, "bike_id": "e183a6d515fc5ad273b4db163d7b995c", "rental_uris": {"android": "https://dc.lft.to/lastmile_qr_scan", "ios": "https://dc.lft.to/lastmile_qr_scan"}, "name": "e183a6d515fc5ad273b4db163d7b995c", "is_reserved": 0}, {"is_disabled": 0, "fusion_lon": 0.0, "fusion_lat": 0.0, "lat": 38.9191235, "type": "electric_scooter", "lon": -77.02409566666667, "bike_id": "a933386499c960962382ef26b47b2e81", "rental_uris": {"android": "https://dc.lft.to/lastmile_qr_scan", "ios": "https://dc.lft.to/lastmile_qr_scan"}, "name": "a933386499c960962382ef26b47b2e81", "is_reserved": 0}, {"is_disabled": 0, "fusion_lon": 0.0, "fusion_lat": 0.0, "lat": 38.8700405, "type": "electric_scooter", "lon": -77.01377216666667, "bike_id": "f6ad5448a9612006de8740f37afd92fc", "rental_uris": {"android": "https://dc.lft.to/lastmile_qr_scan", "ios": "https://dc.lft.to/lastmile_qr_scan"}, "name": "f6ad5448a9612006de8740f37afd92fc", "is_reserved": 0}, {"is_disabled": 0, "fusion_lon": 0.0, "fusion_lat": 0.0, "lat": 38.9498345, "type": "electric_scooter", "lon": -77.02702266666667, "bike_id": "980e9bec826121a76e00a0c124c1b0f1", "rental_uris": {"android": "https://dc.lft.to/lastmile_qr_scan", "ios": "https://dc.lft.to/lastmile_qr_scan"}, "name": "980e9bec826121a76e00a0c124c1b0f1", "is_reserved": 0}, {"is_disabled": 0, "fusion_lon": 0.0, "fusion_lat": 0.0, "lat": 38.909547, "type": "electric_scooter", "lon": -77.0288365, "bike_id": "9b3cb945b6ef303750d01c4feafbf874", "rental_uris": {"android": "https://dc.lft.to/lastmile_qr_scan", "ios": "https://dc.lft.to/lastmile_qr_scan"}, "name": "9b3cb945b6ef303750d01c4feafbf874", "is_reserved": 0}, {"is_disabled": 0, "fusion_lon": 0.0, "fusion_lat": 0.0, "lat": 38.91192083333333, "type": "electric_scooter", "lon": -77.02976933333333, "bike_id": "1b63616fc05b4c5befa7042ec6bbd550", "rental_uris": {"android": "https://dc.lft.to/lastmile_qr_scan", "ios": "https://dc.lft.to/lastmile_qr_scan"}, "name": "1b63616fc05b4c5befa7042ec6bbd550", "is_reserved": 0}, {"is_disabled": 0, "fusion_lon": 0.0, "fusion_lat": 0.0, "lat": 38.94250266666667, "type": "electric_scooter", "lon": -77.0216665, "bike_id": "06378975eff64ecb8369e2e008815dac", "rental_uris": {"android": "https://dc.lft.to/lastmile_qr_scan", "ios": "https://dc.lft.to/lastmile_qr_scan"}, "name": "06378975eff64ecb8369e2e008815dac", "is_reserved": 0}, {"is_disabled": 0, "fusion_lon": 0.0, "fusion_lat": 0.0, "lat": 38.898498333333336, "type": "electric_scooter", "lon": -77.02174133333334, "bike_id": "d46b1ede76603218607bfa7653cba481", "rental_uris": {"android": "https://dc.lft.to/lastmile_qr_scan", "ios": "https://dc.lft.to/lastmile_qr_scan"}, "name": "d46b1ede76603218607bfa7653cba481", "is_reserved": 0}, {"is_disabled": 0, "fusion_lon": 0.0, "fusion_lat": 0.0, "lat": 38.89797866666667, "type": "electric_scooter", "lon": -76.930551, "bike_id": "647e77e9ee8c084f84fcc8a4ed3a5a12", "rental_uris": {"android": "https://dc.lft.to/lastmile_qr_scan", "ios": "https://dc.lft.to/lastmile_qr_scan"}, "name": "647e77e9ee8c084f84fcc8a4ed3a5a12", "is_reserved": 0}, {"is_disabled": 0, "fusion_lon": 0.0, "fusion_lat": 0.0, "lat": 38.93544833333333, "type": "electric_scooter", "lon": -77.05768866666666, "bike_id": "3b36e60f454b15792d179f313a246292", "rental_uris": {"android": "https://dc.lft.to/lastmile_qr_scan", "ios": "https://dc.lft.to/lastmile_qr_scan"}, "name": "3b36e60f454b15792d179f313a246292", "is_reserved": 0}, {"is_disabled": 0, "fusion_lon": 0.0, "fusion_lat": 0.0, "lat": 38.86746, "type": "electric_scooter", "lon": -76.98852566666666, "bike_id": "994d85e1cb8f8167ae582bdc04845836", "rental_uris": {"android": "https://dc.lft.to/lastmile_qr_scan", "ios": "https://dc.lft.to/lastmile_qr_scan"}, "name": "994d85e1cb8f8167ae582bdc04845836", "is_reserved": 0}, {"is_disabled": 0, "fusion_lon": 0.0, "fusion_lat": 0.0, "lat": 38.83153316666667, "type": "electric_bike", "lon": -76.99689916666667, "bike_id": "adfa3ed2680e5cf99f94022416bdd734", "rental_uris": {"android": "https://dc.lft.to/lastmile_qr_scan", "ios": "https://dc.lft.to/lastmile_qr_scan"}, "name": "adfa3ed2680e5cf99f94022416bdd734", "is_reserved": 0}, {"is_disabled": 0, "fusion_lon": 0.0, "fusion_lat": 0.0, "lat": 38.92889366666667, "type": "electric_scooter", "lon": -77.03234366666666, "bike_id": "afbaa2461c829272368bac416bbb87c8", "rental_uris": {"android": "https://dc.lft.to/lastmile_qr_scan", "ios": "https://dc.lft.to/lastmile_qr_scan"}, "name": "afbaa2461c829272368bac416bbb87c8", "is_reserved": 0}, {"is_disabled": 0, "fusion_lon": 0.0, "fusion_lat": 0.0, "lat": 38.913923833333335, "type": "electric_scooter", "lon": -77.0004625, "bike_id": "f3f16df37613ec71b3465d1f2f2f3b9b", "rental_uris": {"android": "https://dc.lft.to/lastmile_qr_scan", "ios": "https://dc.lft.to/lastmile_qr_scan"}, "name": "f3f16df37613ec71b3465d1f2f2f3b9b", "is_reserved": 0}, {"is_disabled": 0, "fusion_lon": 0.0, "fusion_lat": 0.0, "lat": 38.935357833333335, "type": "electric_scooter", "lon": -77.02071966666666, "bike_id": "e6b3ef95b514625089bec6b330cbaebb", "rental_uris": {"android": "https://dc.lft.to/lastmile_qr_scan", "ios": "https://dc.lft.to/lastmile_qr_scan"}, "name": "e6b3ef95b514625089bec6b330cbaebb", "is_reserved": 0}, {"is_disabled": 0, "fusion_lon": 0.0, "fusion_lat": 0.0, "lat": 38.8972415, "type": "electric_scooter", "lon": -77.02738666666667, "bike_id": "0935b0f8dd971f19ccf432d91473408a", "rental_uris": {"android": "https://dc.lft.to/lastmile_qr_scan", "ios": "https://dc.lft.to/lastmile_qr_scan"}, "name": "0935b0f8dd971f19ccf432d91473408a", "is_reserved": 0}, {"is_disabled": 0, "fusion_lon": 0.0, "fusion_lat": 0.0, "lat": 38.95632783333333, "type": "electric_scooter", "lon": -77.01151466666667, "bike_id": "baba653a03a25ff648f73ec5f9379e18", "rental_uris": {"android": "https://dc.lft.to/lastmile_qr_scan", "ios": "https://dc.lft.to/lastmile_qr_scan"}, "name": "baba653a03a25ff648f73ec5f9379e18", "is_reserved": 0}, {"is_disabled": 0, "fusion_lon": 0.0, "fusion_lat": 0.0, "lat": 38.92204016666667, "type": "electric_scooter", "lon": -77.0425775, "bike_id": "55dcd18792751af1c169fa9ac725ffb8", "rental_uris": {"android": "https://dc.lft.to/lastmile_qr_scan", "ios": "https://dc.lft.to/lastmile_qr_scan"}, "name": "55dcd18792751af1c169fa9ac725ffb8", "is_reserved": 0},