{"data": {"bikes": [{"fusion_lat": 0.0, "name": "8effb0188f1eb0c99ca2ddc6d9882319", "is_disabled": 0, "rental_uris": {"android": "https://dc.lft.to/lastmile_qr_scan", "ios": "https://dc.lft.to/lastmile_qr_scan"}, "fusion_lon": 0.0, "lat": 38.894951, "bike_id": "8effb0188f1eb0c99ca2ddc6d9882319", "type": "electric_scooter", "is_reserved": 0, "lon": -77.00302366666666}, {"fusion_lat": 0.0, "name": "a170cc5ddc81bffe897e76543d5a06ce", "is_disabled": 0, "rental_uris": {"android": "https://dc.lft.to/lastmile_qr_scan", "ios": "https://dc.lft.to/lastmile_qr_scan"}, "fusion_lon": 0.0, "lat": 38.89485366666667, "bike_id": "a170cc5ddc81bffe897e76543d5a06ce", "type": "electric_scooter", "is_reserved": 0, "lon": -77.02012783333333}, {"fusion_lat": 0.0, "name": "d7510a06d910b76e651691fecbbe3c83", "is_disabled": 0, "rental_uris": {"android": "https://dc.lft.to/lastmile_qr_scan", "ios": "https://dc.lft.to/lastmile_qr_scan"}, "fusion_lon": 0.0, "lat": 38.921503666666666, "bike_id": "d7510a06d910b76e651691fecbbe3c83", "type": "electric_scooter", "is_reserved": 0, "lon": -77.02426866666667}, {"fusion_lat": 0.0, "name": "d8edd52ec2a4a88e4c8ff178b21a0431", "is_disabled": 0, "rental_uris": {"android": "https://dc.lft.to/lastmile_qr_scan", "ios": "https://dc.lft.to/lastmile_qr_scan"}, "fusion_lon": 0.0, "lat": 38.867659, "bike_id": "d8edd52ec2a4a88e4c8ff178b21a0431", "type": "electric_scooter", "is_reserved": 0, "lon": -76.98268716666666}, {"fusion_lat": 0.0, "name": "db6dd5dfbca7656376791568a6fc7ab8", "is_disabled": 0, "rental_uris": {"android": "https://dc.lft.to/lastmile_qr_scan", "ios": "https://dc.lft.to/lastmile_qr_scan"}, "fusion_lon": 0.0, "lat": 38.88987216666666, "bike_id": "db6dd5dfbca7656376791568a6fc7ab8", "type": "electric_scooter", "is_reserved": 0, "lon": -76.97788816666667}, {"fusion_lat": 0.0, "name": "a64b04100eda062f8c05bd976eedc142", "is_disabled": 0, "rental_uris": {"android": "https://dc.lft.to/lastmile_qr_scan", "ios": "https://dc.lft.to/lastmile_qr_scan"}, "fusion_lon": 0.0, "lat": 38.88714266666667, "bike_id": "a64b04100eda062f8c05bd976eedc142", "type": "electric_scooter", "is_reserved": 0, "lon": -77.01772833333334}, {"fusion_lat": 0.0, "name": "138a642ccc54de27ce9dbec2af4fd009", "is_disabled": 0, "rental_uris": {"android": "https://dc.lft.to/lastmile_qr_scan", "ios": "https://dc.lft.to/lastmile_qr_scan"}, "fusion_lon": 0.0, "lat": 38.87387116666667, "bike_id": "138a642ccc54de27ce9dbec2af4fd009", "type": "electric_scooter", "is_reserved": 0, "lon": -77.00131433333334}, {"fusion_lat": 0.0, "name": "abcd7d4252b8d1c5d16f3f0020b9a18c", "is_disabled": 0, "rental_uris": {"android": "https://dc.lft.to/lastmile_qr_scan", "ios": "https://dc.lft.to/lastmile_qr_scan"}, "fusion_lon": 0.0, "lat": 38.88795016666667, "bike_id": "abcd7d4252b8d1c5d16f3f0020b9a18c", "type": "electric_bike", "is_reserved": 0, "lon": -76.92996583333333}, {"fusion_lat": 0.0, "name": "be9c2d6df7e067e3523534d4dd46aa61", "is_disabled": 0, "rental_uris": {"android": "https://dc.lft.to/lastmile_qr_scan", "ios": "https://dc.lft.to/lastmile_qr_scan"}, "fusion_lon": 0.0, "lat": 38.856982, "bike_id": "be9c2d6df7e067e3523534d4dd46aa61", "type": "electric_scooter", "is_reserved": 0, "lon": -76.995989}, {"fusion_lat": 0.0, "name": "ececc59eb5ae4184b327d22c4ab4017e", "is_disabled": 0, "rental_uris": {"android": "https://dc.lft.to/lastmile_qr_scan", "ios": "https://dc.lft.to/lastmile_qr_scan"}, "fusion_lon": 0.0, "lat": 38.9062915, "bike_id": "ececc59eb5ae4184b327d22c4ab4017e", "type": "electric_scooter", "is_reserved": 0, "lon": -77.03966366666667}, {"fusion_lat": 0.0, "name": "8a37ec09e9defacbca27db5b4722fa22", "is_disabled": 0, "rental_uris": {"android": "https://dc.lft.to/lastmile_qr_scan", "ios": "https://dc.lft.to/lastmile_qr_scan"}, "fusion_lon": 0.0, "lat": 38.88989733333333, "bike_id": "8a37ec09e9defacbca27db5b4722fa22", "type": "electric_scooter", "is_reserved": 0, "lon": -76.98416433333334}, {"fusion_lat": 0.0, "name": "9f5cda479545ea26be7fc11b54af244c", "is_disabled": 0, "rental_uris": {"android": "https://dc.lft.to/lastmile_qr_scan", "ios": "https://dc.lft.to/lastmile_qr_scan"}, "fusion_lon": 0.0, "lat": 38.9279515, "bike_id": "9f5cda479545ea26be7fc11b54af244c", "type": "electric_scooter", "is_reserved": 0, "lon": -77.05529566666667}, {"fusion_lat": 0.0, "name": "02621e076b5ae2fcbf62732bed14478e", "is_disabled": 0, "rental_uris": {"android": "https://dc.lft.to/lastmile_qr_scan", "ios": "https://dc.lft.to/lastmile_qr_scan"}, "fusion_lon": 0.0, "lat": 38.916887, "bike_id": "02621e076b5ae2fcbf62732bed14478e", "type": "electric_scooter", "is_reserved": 0, "lon": -77.03770016666667}, {"fusion_lat": 0.0, "name": "fe2ee109c6db4328840a3661ee188fa6", "is_disabled": 0, "rental_uris": {"android": "https://dc.lft.to/lastmile_qr_scan", "ios": "https://dc.lft.to/lastmile_qr_scan"}, "fusion_lon": 0.0, "lat": 38.9242125, "bike_id": "fe2ee109c6db4328840a3661ee188fa6", "type": "electric_scooter", "is_reserved": 0, "lon": -77.0195195}, {"fusion_lat": 0.0, "name": "f36ce52f8a84cc882bd9be4477686306", "is_disabled": 0, "rental_uris": {"android": "https://dc.lft.to/lastmile_qr_scan", "ios": "https://dc.lft.to/lastmile_qr_scan"}, "fusion_lon": 0.0, "lat": 38.92613, "bike_id": "f36ce52f8a84cc882bd9be4477686306", "type": "electric_scooter", "is_reserved": 0, "lon": -77.02170416666667}, {"fusion_lat": 0.0, "name": "37ff8b55155e65d6da7f888c89da9196", "is_disabled": 0, "rental_uris": {"android": "https://dc.lft.to/lastmile_qr_scan", "ios": "https://dc.lft.to/lastmile_qr_scan"}, "fusion_lon": 0.0, "lat": 38.925763, "bike_id": "37ff8b55155e65d6da7f888c89da9196", "type": "electric_scooter", "is_reserved": 0, "lon": -77.052625}, {"fusion_lat": 0.0, "name": "d28ca095bcd727e34698bf421aebe9bd", "is_disabled": 0, "rental_uris": {"android": "https://dc.lft.to/lastmile_qr_scan", "ios": "https://dc.lft.to/lastmile_qr_scan"}, "fusion_lon": 0.0, "lat": 38.9130685, "bike_id": "d28ca095bcd727e34698bf421aebe9bd", "type": "electric_scooter", "is_reserved": 0, "lon": -77.02136566666667}, {"fusion_lat": 0.0, "name": "db335013ba0238cd6355b0ab9eb6cc3f", "is_disabled": 0, "rental_uris": {"android": "https://dc.lft.to/lastmile_qr_scan", "ios": "https://dc.lft.to/lastmile_qr_scan"}, "fusion_lon": 0.0, "lat": 38.9211005, "bike_id": "db335013ba0238cd6355b0ab9eb6cc3f", "type": "electric_scooter", "is_reserved": 0, "lon": -77.04390533333333}, {"fusion_lat": 0.0, "name": "c463c178e9dfa70de1a025d55cc8d011", "is_disabled": 0, "rental_uris": {"android": "https://dc.lft.to/lastmile_qr_scan", "ios": "https://dc.lft.to/lastmile_qr_scan"}, "fusion_lon": 0.0, "lat": 38.8818045, "bike_id": "c463c178e9dfa70de1a025d55cc8d011", "type": "electric_scooter", "is_reserved": 0, "lon": -77.02805216666667}, {"fusion_lat": 0.0, "name": "c6c2e01d14cd32b4bd70e1d3d73a9360", "is_disabled": 0, "rental_uris": {"android": "https://dc.lft.to/lastmile_qr_scan", "ios": "https://dc.lft.to/lastmile_qr_scan"}, "fusion_lon": 0.0, "lat": 38.91418983333333, "bike_id": "c6c2e01d14cd32b4bd70e1d3d73a9360", "type": "electric_scooter", "is_reserved": 0, "lon": -77.03173616666666}, {"fusion_lat": 0.0, "name": "4d7e28a0a5c3234aff41aea68628d430", "is_disabled": 0, "rental_uris": {"android": "https://dc.lft.to/lastmile_qr_scan", "ios": "https://dc.lft.to/lastmile_qr_scan"}, "fusion_lon": 0.0, "lat": 38.87964433333333, "bike_id": "4d7e28a0a5c3234aff41aea68628d430", "type": "electric_bike", "is_reserved": 0, "lon": -76.91616633333334}, {"fusion_lat": 0.0, "name": "8691ce25b8616739955046d51ccfbb86", "is_disabled": 0, "rental_uris": {"android": "https://dc.lft.to/lastmile_qr_scan", "ios": "https://dc.lft.to/lastmile_qr_scan"}, "fusion_lon": 0.0, "lat": 38.91563, "bike_id": "8691ce25b8616739955046d51ccfbb86", "type": "electric_scooter", "is_reserved": 0, "lon": -77.031501}, {"fusion_lat": 0.0, "name": "c27abb915ed8db1ab18e04cf79e69696", "is_disabled": 0, "rental_uris": {"android": "https://dc.lft.to/lastmile_qr_scan", "ios": "https://dc.lft.to/lastmile_qr_scan"}, "fusion_lon": 0.0, "lat": 38.907683166666665, "bike_id": "c27abb915ed8db1ab18e04cf79e69696", "type": "electric_scooter", "is_reserved": 0, "lon": -77.0320405}, {"fusion_lat": 0.0, "name": "ce68b4cda327b958214f10a24d0f69c4", "is_disabled": 0, "rental_uris": {"android": "https://dc.lft.to/lastmile_qr_scan", "ios": "https://dc.lft.to/lastmile_qr_scan"}, "fusion_lon": 0.0, "lat": 38.900473166666664, "bike_id": "ce68b4cda327b958214f10a24d0f69c4", "type": "electric_scooter", "is_reserved": 0, "lon": -77.02598316666666}, {"fusion_lat": 0.0, "name": "eab4f871d7bf403b08b6238c529411cb", "is_disabled": 0, "rental_uris": {"android": "https://dc.lft.to/lastmile_qr_scan", "ios": "https://dc.lft.to/lastmile_qr_scan"}, "fusion_lon": 0.0, "lat": 38.93052866666667, "bike_id": "eab4f871d7bf403b08b6238c529411cb", "type": "electric_scooter", "is_reserved": 0, "lon": -77.04064033333333}, {"fusion_lat": 0.0, "name": "eb54617c69aa0497be440328c01336ac", "is_disabled": 0, "rental_uris": {"android": "https://dc.lft.to/lastmile_qr_scan", "ios": "https://dc.lft.to/lastmile_qr_scan"}, "fusion_lon": 0.0, "lat": 38.901497166666665, "bike_id": "eb54617c69aa0497be440328c01336ac", "type": "electric_scooter", "is_reserved": 0, "lon": -77.03313866666667}, {"fusion_lat": 0.0, "name": "1376c1a9cc6842bbcb34e4d0a9f3210a", "is_disabled": 0, "rental_uris": {"android": "https://dc.lft.to/lastmile_qr_scan", "ios": "https://dc.lft.to/lastmile_qr_scan"}, "fusion_lon": 0.0, "lat": 38.89957416666667, "bike_id": "1376c1a9cc6842bbcb34e4d0a9f3210a", "type": "electric_scooter", "is_reserved": 0, "lon": -77.015091}, {"fusion_lat": 0.0, "name": "ad15e06cc0779692d41a6f59f8ec2d71", "is_disabled": 0, "rental_uris": {"android": "https://dc.lft.to/lastmile_qr_scan", "ios": "https://dc.lft.to/lastmile_qr_scan"}, "fusion_lon": 0.0, "lat": 38.92413066666667, "bike_id": "ad15e06cc0779692d41a6f59f8ec2d71", "type": "electric_scooter", "is_reserved": 0, "lon": -77.02010933333334}, {"fusion_lat": 0.0, "name": "5a0c96bd6d250551adaa927cb20c41a9", "is_disabled": 0, "rental_uris": {"android": "https://dc.lft.to/lastmile_qr_scan", "ios": "https://dc.lft.to/lastmile_qr_scan"}, "fusion_lon": 0.0, "lat": 38.923574333333335, "bike_id": "5a0c96bd6d250551adaa927cb20c41a9", "type": "electric_scooter", "is_reserved": 0, "lon": -77.01943216666666}, {"fusion_lat": 0.0, "name": "f10c4eb4e716754777ea7b142a4cd3ce", "is_disabled": 0, "rental_uris": {"android": "https://dc.lft.to/lastmile_qr_scan", "ios": "https://dc.lft.to/lastmile_qr_scan"}, "fusion_lon": 0.0, "lat": 39.010767333333334, "bike_id": "f10c4eb4e716754777ea7b142a4cd3ce", "type": "electric_bike", "is_reserved": 0, "lon": -76.91065733333333}, {"fusion_lat": 0.0, "name": "4dbe1aa18d024ad65d9b7775cfa83e43", "is_disabled": 0, "rental_uris": {"android": "https://dc.lft.to/lastmile_qr_scan", "ios": "https://dc.lft.to/lastmile_qr_scan"}, "fusion_lon": 0.0, "lat": 38.922049, "bike_id": "4dbe1aa18d024ad65d9b7775cfa83e43", "type": "electric_scooter", "is_reserved": 0, "lon": -77.04138616666667}, {"fusion_lat": 0.0, "name": "2885889ad8b32b7b60bec71382d8233d", "is_disabled": 0, "rental_uris": {"android": "https://dc.lft.to/lastmile_qr_scan", "ios": "https://dc.lft.to/lastmile_qr_scan"}, "fusion_lon": 0.0, "lat": 38.938042333333335, "bike_id": "2885889ad8b32b7b60bec71382d8233d", "type": "electric_scooter", "is_reserved": 0, "lon": -77.06862016666666}, {"fusion_lat": 0.0, "name": "bfacd3866f57fc9c25f6659a173b20e9", "is_disabled": 0, "rental_uris": {"android": "https://dc.lft.to/lastmile_qr_scan", "ios": "https://dc.lft.to/lastmile_qr_scan"}, "fusion_lon": 0.0, "lat": 38.94231966666667, "bike_id": "bfacd3866f57fc9c25f6659a173b20e9", "type": "electric_scooter", "is_reserved": 0, "lon": -77.02327}, {"fusion_lat": 0.0, "name": "ccdaae6246d263069a62b3d7e319f489", "is_disabled": 0, "rental_uris": {"android": "https://dc.lft.to/lastmile_qr_scan", "ios": "https://dc.lft.to/lastmile_qr_scan"}, "fusion_lon": 0.0, "lat": 38.919252666666665, "bike_id": "ccdaae6246d263069a62b3d7e319f489", "type": "electric_scooter", "is_reserved": 0, "lon": -77.0098105}, {"fusion_lat": 0.0, "name": "4ce1833ff20c7514cd05bcf9133bcf31", "is_disabled": 0, "rental_uris": {"android": "https://dc.lft.to/lastmile_qr_scan", "ios": "https://dc.lft.to/lastmile_qr_scan"}, "fusion_lon": 0.0, "lat": 38.86448433333333, "bike_id": "4ce1833ff20c7514cd05bcf9133bcf31", "type": "electric_bike", "is_reserved": 0, "lon": -77.1068785}, {"fusion_lat": 0.0, "name": "b39dbab66a67cae95bfd0fb19f3a8b3e", "is_disabled": 0, "rental_uris": {"android": "https://dc.lft.to/lastmile_qr_scan", "ios": "https://dc.lft.to/lastmile_qr_scan"}, "fusion_lon": 0.0, "lat": 38.902431166666666, "bike_id": "b39dbab66a67cae95bfd0fb19f3a8b3e", "type": "electric_scooter", "is_reserved": 0, "lon": -77.0020115}, {"fusion_lat": 0.0, "name": "91df9f60167818f82ca9f84cc0826f90", "is_disabled": 0, "rental_uris": {"android": "https://dc.lft.to/lastmile_qr_scan", "ios": "https://dc.lft.to/lastmile_qr_scan"}, "fusion_lon": 0.0, "lat": 38.908536, "bike_id": "91df9f60167818f82ca9f84cc0826f90", "type": "electric_scooter", "is_reserved": 0, "lon": -77.02405066666667}, {"fusion_lat": 0.0, "name": "0c6a47b3a782476db0e3efc360a0bbef", "is_disabled": 0, "rental_uris": {"android": "https://dc.lft.to/lastmile_qr_scan", "ios": "https://dc.lft.to/lastmile_qr_scan"}, "fusion_lon": 0.0, "lat": 38.9057225, "bike_id": "0c6a47b3a782476db0e3efc360a0bbef", "type": "electric_scooter", "is_reserved": 0, "lon": -77.03067916666667}, {"fusion_lat": 0.0, "name": "6518fd5f0455246df74ed48ea79f2cc0", "is_disabled": 0, "rental_uris": {"android": "https://dc.lft.to/lastmile_qr_scan", "ios": "https://dc.lft.to/lastmile_qr_scan"}, "fusion_lon": 0.0, "lat": 38.887270666666666, "bike_id": "6518fd5f0455246df74ed48ea79f2cc0", "type": "electric_scooter", "is_reserved": 0, "lon": -77.01767166666667}, {"fusion_lat": 0.0, "name": "7728b46c4e2d00be2e88b0c3fed0f6de", "is_disabled": 0, "rental_uris": {"android": "https://dc.lft.to/lastmile_qr_scan", "ios": "https://dc.lft.to/lastmile_qr_scan"}, "fusion_lon": 0.0, "lat": 38.91802916666666, "bike_id": "7728b46c4e2d00be2e88b0c3fed0f6de", "type": "electric_scooter", "is_reserved": 0, "lon": -77.03209416666667}, {"fusion_lat": 0.0, "name": "6ecbbd21c07e12640b24fdf159945000", "is_disabled": 0, "rental_uris": {"android": "https://dc.lft.to/lastmile_qr_scan", "ios": "https://dc.lft.to/lastmile_qr_scan"}, "fusion_lon": 0.0, "lat": 38.902556, "bike_id": "6ecbbd21c07e12640b24fdf159945000", "type": "electric_scooter", "is_reserved": 0, "lon": -77.01800166666666}, {"fusion_lat": 0.0, "name": "23841f0bb1dc8035256bbeb776a5e7b6", "is_disabled": 0, "rental_uris": {"android": "https://dc.lft.to/lastmile_qr_scan", "ios": "https://dc.lft.to/lastmile_qr_scan"}, "fusion_lon": 0.0, "lat": 38.900749166666664, "bike_id": "23841f0bb1dc8035256bbeb776a5e7b6", "type": "electric_scooter", "is_reserved": 0, "lon": -77.0490645}, {"fusion_lat": 0.0, "name": "8cc1af8c39a4d3f0ba58e5ac84009268", "is_disabled": 0, "rental_uris": {"android": "https://dc.lft.to/lastmile_qr_scan", "ios": "https://dc.lft.to/lastmile_qr_scan"}, "fusion_lon": 0.0, "lat": 38.90383166666667, "bike_id": "8cc1af8c39a4d3f0ba58e5ac84009268", "type": "electric_scooter", "is_reserved": 0, "lon": -77.035685}, {"fusion_lat": 0.0, "name": "a73396b537a6766920a4e156a70ddfdb", "is_disabled": 0, "rental_uris": {"android": "https://dc.lft.to/lastmile_qr_scan", "ios": "https://dc.lft.to/lastmile_qr_scan"}, "fusion_lon": 0.0, "lat": 38.92557383333333, "bike_id": "a73396b537a6766920a4e156a70ddfdb", "type": "electric_scooter", "is_reserved": 0, "lon": -77.02289083333334}, {"fusion_lat": 0.0, "name": "def535e467337b64d6ca512e241189b7", "is_disabled": 0, "rental_uris": {"android": "https://dc.lft.to/lastmile_qr_scan", "ios": "https://dc.lft.to/lastmile_qr_scan"}, "fusion_lon": 0.0, "lat": 38.899987833333334, "bike_id": "def535e467337b64d6ca512e241189b7", "type": "electric_scooter", "is_reserved": 0, "lon": -77.01630033333333}, {"fusion_lat": 0.0, "name": "bb116c2a39651e6317d568fae04c4dba", "is_disabled": 0, "rental_uris": {"android": "https://dc.lft.to/lastmile_qr_scan", "ios": "https://dc.lft.to/lastmile_qr_scan"}, "fusion_lon": 0.0, "lat": 38.91576, "bike_id": "bb116c2a39651e6317d568fae04c4dba", "type": "electric_scooter", "is_reserved": 0, "lon": -77.05011133333333}, {"fusion_lat": 0.0, "name": "d8d4d9373b8af2318fc466e513119646", "is_disabled": 0, "rental_uris": {"android": "https://dc.lft.to/lastmile_qr_scan", "ios": "https://dc.lft.to/lastmile_qr_scan"}, "fusion_lon": 0.0, "lat": 38.90957866666667, "bike_id": "d8d4d9373b8af2318fc466e513119646", "type": "electric_bike", "is_reserved": 0, "lon": -77.22893516666667}, {"fusion_lat": 0.0, "name": "bfd3af033f7cc40f6e7c7d9e0f01f87f", "is_disabled": 0, "rental_uris": {"android": "https://dc.lft.to/lastmile_qr_scan", "ios": "https://dc.lft.to/lastmile_qr_scan"}, "fusion_lon": 0.0, "lat": 38.88439616666667, "bike_id": "bfd3af033f7cc40f6e7c7d9e0f01f87f", "type": "electric_scooter", "is_reserved": 0, "lon": -76.92960566666666}, {"fusion_lat": 0.0, "name": "5893bb49b934afdf59b2b8584db2d2d1", "is_disabled": 0, "rental_uris": {"android": "https://dc.lft.to/lastmile_qr_scan", "ios": "https://dc.lft.to/lastmile_qr_scan"}, "fusion_lon": 0.0, "lat": 38.9250055, "bike_id": "5893bb49b934afdf59b2b8584db2d2d1", "type": "electric_scooter", "is_reserved": 0, "lon": -77.038002}, {"fusion_lat": 0.0, "name": "27d523d2f91606793bc3fe36bad7d900", "is_disabled": 0, "rental_uris": {"android": "https://dc.lft.to/lastmile_qr_scan", "ios": "https://dc.lft.to/lastmile_qr_scan"}, "fusion_lon": 0.0, "lat": 38.88894066666667, "bike_id": "27d523d2f91606793bc3fe36bad7d900", "type": "electric_bike", "is_reserved": 0, "lon": -77.115268}, {"fusion_lat": 0.0, "name": "508cbf40cf9269534571eace727a38ca", "is_disabled": 0, "rental_uris": {"android": "https://dc.lft.to/lastmile_qr_scan", "ios": "https://dc.lft.to/lastmile_qr_scan"}, "fusion_lon": 0.0, "lat": 38.9324255, "bike_id": "508cbf40cf9269534571eace727a38ca", "type": "electric_scooter", "is_reserved": 0, "lon": -77.0406745}, {"fusion_lat": 0.0, "name": "ed562bb068f92c5664fc2b5689c7720a", "is_disabled": 0, "rental_uris": {"android": "https://dc.lft.to/lastmile_qr_scan", "ios": "https://dc.lft.to/lastmile_qr_scan"}, "fusion_lon": 0.0, "lat": 38.91624433333333, "bike_id": "ed562bb068f92c5664fc2b5689c7720a", "type": "electric_scooter", "is_reserved": 0, "lon": -77.02209166666667}, {"fusion_lat": 0.0, "name": "d11b31376036cb270fea08b23336c17d", "is_disabled": 0, "rental_uris": {"android": "https://dc.lft.to/lastmile_qr_scan", "ios": "https://dc.lft.to/lastmile_qr_scan"}, "fusion_lon": 0.0, "lat": 38.8984905, "bike_id": "d11b31376036cb270fea08b23336c17d", "type": "electric_scooter", "is_reserved": 0, "lon": -76.9927455}, {"fusion_lat": 0.0, "name": "9b5ca5ea6ba0d0b06d4f1a4ec9312a78", "is_disabled": 0, "rental_uris": {"android": "https://dc.lft.to/lastmile_qr_scan", "ios": "https://dc.lft.to/lastmile_qr_scan"}, "fusion_lon": 0.0, "lat": 38.887224, "bike_id": "9b5ca5ea6ba0d0b06d4f1a4ec9312a78", "type": "electric_scooter", "is_reserved": 0, "lon": -77.01979616666667}, {"fusion_lat": 0.0, "name": "c653a5243c5ea3cc8f2233f9b20f7433", "is_disabled": 0, "rental_uris": {"android": "https://dc.lft.to/lastmile_qr_scan", "ios": "https://dc.lft.to/lastmile_qr_scan"}, "fusion_lon": 0.0, "lat": 38.92083783333333, "bike_id": "c653a5243c5ea3cc8f2233f9b20f7433", "type": "electric_scooter", "is_reserved": 0, "lon": -77.024015}, {"fusion_lat": 0.0, "name": "01f187f2f3b77e33732d7d49e408f165", "is_disabled": 0, "rental_uris": {"android": "https://dc.lft.to/lastmile_qr_scan", "ios": "https://dc.lft.to/lastmile_qr_scan"}, "fusion_lon": 0.0, "lat": 38.913992, "bike_id": "01f187f2f3b77e33732d7d49e408f165", "type": "electric_scooter", "is_reserved": 0, "lon": -77.0317955}, {"fusion_lat": 0.0, "name": "c447595c208fab3b19b593975ce09c20", "is_disabled": 0, "rental_uris": {"android": "https://dc.lft.to/lastmile_qr_scan", "ios": "https://dc.lft.to/lastmile_qr_scan"}, "fusion_lon": 0.0, "lat": 38.90507933333333, "bike_id": "c447595c208fab3b19b593975ce09c20", "type": "electric_bike", "is_reserved": 0, "lon": -77.06621483333333}, {"fusion_lat": 0.0, "name": "431a38c0c324cfc6fd49fb1fb9b17209", "is_disabled": 0, "rental_uris": {"android": "https://dc.lft.to/lastmile_qr_scan", "ios": "https://dc.lft.to/lastmile_qr_scan"}, "fusion_lon": 0.0, "lat": 38.91268216666667, "bike_id": "431a38c0c324cfc6fd49fb1fb9b17209", "type": "electric_scooter", "is_reserved": 0, "lon": -77.03328166666667}, {"fusion_lat": 0.0, "name": "64759094796ab9a03896ea1a5a9926c6", "is_disabled": 0, "rental_uris": {"android": "https://dc.lft.to/lastmile_qr_scan", "ios": "https://dc.lft.to/lastmile_qr_scan"}, "fusion_lon": 0.0, "lat": 38.90883566666667, "bike_id": "64759094796ab9a03896ea1a5a9926c6", "type": "electric_scooter", "is_reserved": 0, "lon": -77.043235}, {"fusion_lat": 0.0, "name": "6fdf004eb4671857208234fb6431e2de", "is_disabled": 0, "rental_uris": {"android": "https://dc.lft.to/lastmile_qr_scan", "ios": "https://dc.lft.to/lastmile_qr_scan"}, "fusion_lon": 0.0, "lat": 38.907276, "bike_id": "6fdf004eb4671857208234fb6431e2de", "type": "electric_scooter", "is_reserved": 0, "lon": -77.03858566666666}, {"fusion_lat": 0.0, "name": "5a943beb235b3738b84e84e755e08782", "is_disabled": 0, "rental_uris": {"android": "https://dc.lft.to/lastmile_qr_scan", "ios": "https://dc.lft.to/lastmile_qr_scan"}, "fusion_lon": 0.0, "lat": 38.903645833333336, "bike_id": "5a943beb235b3738b84e84e755e08782", "type": "electric_scooter", "is_reserved": 0, "lon": -77.03294216666667}, {"fusion_lat": 0.0, "name": "c88a2db46bb0d0f122877c6cd20a1913", "is_disabled": 0, "rental_uris": {"android": "https://dc.lft.to/lastmile_qr_scan", "ios": "https://dc.lft.to/lastmile_qr_scan"}, "fusion_lon": 0.0, "lat": 38.9349005, "bike_id": "c88a2db46bb0d0f122877c6cd20a1913", "type": "electric_scooter", "is_reserved": 0, "lon": -77.03082366666666}, {"fusion_lat": 0.0, "name": "ef701028c34a6cc4879115387d3d983b", "is_disabled": 0, "rental_uris": {"android": "https://dc.lft.to/lastmile_qr_scan", "ios": "https://dc.lft.to/lastmile_qr_scan"}, "fusion_lon": 0.0, "lat": 38.915537, "bike_id": "ef701028c34a6cc4879115387d3d983b", "type": "electric_scooter", "is_reserved": 0, "lon": -77.0324185}, {"fusion_lat": 0.0, "name": "742912a36e6e8e49afd7901daa8e4d39", "is_disabled": 0, "rental_uris": {"android": "https://dc.lft.to/lastmile_qr_scan", "ios": "https://dc.lft.to/lastmile_qr_scan"}, "fusion_lon": 0.0, "lat": 38.92033583333333, "bike_id": "742912a36e6e8e49afd7901daa8e4d39", "type": "electric_scooter", "is_reserved": 0, "lon": -77.03071083333333}, {"fusion_lat": 0.0, "name": "dcd6b4ac073e055fca8f05b8ae86542b", "is_disabled": 0, "rental_uris": {"android": "https://dc.lft.to/lastmile_qr_scan", "ios": "https://dc.lft.to/lastmile_qr_scan"}, "fusion_lon": 0.0, "lat": 38.9020445, "bike_id": "dcd6b4ac073e055fca8f05b8ae86542b", "type": "electric_scooter", "is_reserved": 0, "lon": -77.02365316666666}, {"fusion_lat": 0.0, "name": "21f6d3b558d0037063606d4e1c8ea972", "is_disabled": 0, "rental_uris": {"android": "https://dc.lft.to/lastmile_qr_scan", "ios": "https://dc.lft.to/lastmile_qr_scan"}, "fusion_lon": 0.0, "lat": 38.967542333333334, "bike_id": "21f6d3b558d0037063606d4e1c8ea972", "type": "electric_bike", "is_reserved": 0, "lon": -77.027998}, {"fusion_lat": 0.0, "name": "42c8a6f29e50be7815a674a37879dcd5", "is_disabled": 0, "rental_uris": {"android": "https://dc.lft.to/lastmile_qr_scan", "ios": "https://dc.lft.to/lastmile_qr_scan"}, "fusion_lon": 0.0, "lat": 38.907301333333336, "bike_id": "42c8a6f29e50be7815a674a37879dcd5", "type": "electric_scooter", "is_reserved": 0, "lon": -77.04513516666667}, {"fusion_lat": 0.0, "name": "191c498dbc28e836c90fc08489d0bdde", "is_disabled": 0, "rental_uris": {"android": "https://dc.lft.to/lastmile_qr_scan", "ios": "https://dc.lft.to/lastmile_qr_scan"}, "fusion_lon": 0.0, "lat": 38.890074166666665, "bike_id": "191c498dbc28e836c90fc08489d0bdde", "type": "electric_scooter", "is_reserved": 0, "lon": -76.93737066666667}, {"fusion_lat": 0.0, "name": "6a8247df8c5ad72b4741f89ec27037eb", "is_disabled": 0, "rental_uris": {"android": "https://dc.lft.to/lastmile_qr_scan", "ios": "https://dc.lft.to/lastmile_qr_scan"}, "fusion_lon": 0.0, "lat": 38.922587166666666, "bike_id": "6a8247df8c5ad72b4741f89ec27037eb", "type": "electric_bike", "is_reserved": 0, "lon": -77.07026866666666}, {"fusion_lat": 0.0, "name": "06db02b392c928bad91d8f4b1d3294b4", "is_disabled": 0, "rental_uris": {"android": "https://dc.lft.to/lastmile_qr_scan", "ios": "https://dc.lft.to/lastmile_qr_scan"}, "fusion_lon": 0.0, "lat": 38.9245655, "bike_id": "06db02b392c928bad91d8f4b1d3294b4", "type": "electric_scooter", "is_reserved": 0, "lon": -77.02408533333333}, {"fusion_lat": 0.0, "name": "a49cdaa451946b08562c15398218a966", "is_disabled": 0, "rental_uris": {"android": "https://dc.lft.to/lastmile_qr_scan", "ios": "https://dc.lft.to/lastmile_qr_scan"}, "fusion_lon": 0.0, "lat": 38.90187233333333, "bike_id": "a49cdaa451946b08562c15398218a966", "type": "electric_scooter", "is_reserved": 0, "lon": -77.05917066666666}, {"fusion_lat": 0.0, "name": "8fd5da394788803ccd7ab3700b904540", "is_disabled": 0, "rental_uris": {"android": "https://dc.lft.to/lastmile_qr_scan", "ios": "https://dc.lft.to/lastmile_qr_scan"}, "fusion_lon": 0.0, "lat": 38.9086355, "bike_id": "8fd5da394788803ccd7ab3700b904540", "type": "electric_scooter", "is_reserved": 0, "lon": -76.9995865}, {"fusion_lat": 0.0, "name": "e68a420e0da435d4cc4c967ffda6dbca", "is_disabled": 0, "rental_uris": {"android": "https://dc.lft.to/lastmile_qr_scan", "ios": "https://dc.lft.to/lastmile_qr_scan"}, "fusion_lon": 0.0, "lat": 38.9141425, "bike_id": "e68a420e0da435d4cc4c967ffda6dbca", "type": "electric_scooter", "is_reserved": 0, "lon": -77.03173433333333}, {"fusion_lat": 0.0, "name": "1a8dd5998708f2085a0b30ce31ea28f7", "is_disabled": 0, "rental_uris": {"android": "https://dc.lft.to/lastmile_qr_scan", "ios": "https://dc.lft.to/lastmile_qr_scan"}, "fusion_lon": 0.0, "lat": 38.934619166666664, "bike_id": "1a8dd5998708f2085a0b30ce31ea28f7", "type": "electric_scooter", "is_reserved": 0, "lon": -77.0577885}, {"fusion_lat": 0.0, "name": "f5392e78fd0db11bcbafe5a1a8c60fb3", "is_disabled": 0, "rental_uris": {"android": "https://dc.lft.to/lastmile_qr_scan", "ios": "https://dc.lft.to/lastmile_qr_scan"}, "fusion_lon": 0.0, "lat": 38.92067816666667, "bike_id": "f5392e78fd0db11bcbafe5a1a8c60fb3", "type": "electric_scooter", "is_reserved": 0, "lon": -77.0285195}, {"fusion_lat": 0.0, "name": "f28ed3cfaed4db0657ba9757f7885bb7", "is_disabled": 0, "rental_uris": {"android": "https://dc.lft.to/lastmile_qr_scan", "ios": "https://dc.lft.to/lastmile_qr_scan"}, "fusion_lon": 0.0, "lat": 38.91982816666667, "bike_id": "f28ed3cfaed4db0657ba9757f7885bb7", "type": "electric_scooter", "is_reserved": 0, "lon": -77.02411416666666}, {"fusion_lat": 0.0, "name": "38628ef203264a7200bd7fc12516c314", "is_disabled": 0, "rental_uris": {"android": "https://dc.lft.to/lastmile_qr_scan", "ios": "https://dc.lft.to/lastmile_qr_scan"}, "fusion_lon": 0.0, "lat": 38.90222416666667, "bike_id": "38628ef203264a7200bd7fc12516c314", "type": "electric_scooter", "is_reserved": 0, "lon": -77.022713}, {"fusion_lat": 0.0, "name": "be7b75c80f7d195f61ad7f762a0d06a5", "is_disabled": 0, "rental_uris": {"android": "https://dc.lft.to/lastmile_qr_scan", "ios": "https://dc.lft.to/lastmile_qr_scan"}, "fusion_lon": 0.0, "lat": 38.94164333333333, "bike_id": "be7b75c80f7d195f61ad7f762a0d06a5", "type": "electric_scooter", "is_reserved": 0, "lon": -77.025115}, {"fusion_lat": 0.0, "name": "e4a6ede57a1a95e35b8b24da970bab1e", "is_disabled": 0, "rental_uris": {"android": "https://dc.lft.to/lastmile_qr_scan", "ios": "https://dc.lft.to/lastmile_qr_scan"}, "fusion_lon": 0.0, "lat": 38.92683783333333, "bike_id": "e4a6ede57a1a95e35b8b24da970bab1e", "type": "electric_scooter", "is_reserved": 0, "lon": -77.03146916666667}, {"fusion_lat": 0.0, "name": "85a10007062a727a9b2ca899380261e7", "is_disabled": 0, "rental_uris": {"android": "https://dc.lft.to/lastmile_qr_scan", "ios": "https://dc.lft.to/lastmile_qr_scan"}, "fusion_lon": 0.0, "lat": 38.916924333333334, "bike_id": "85a10007062a727a9b2ca899380261e7", "type": "electric_scooter", "is_reserved": 0, "lon": -77.02846766666667}, {"fusion_lat": 0.0, "name": "c4442114c85097cc2c1bfd366c1990d3", "is_disabled": 0, "rental_uris": {"android": "https://dc.lft.to/lastmile_qr_scan", "ios": "https://dc.lft.to/lastmile_qr_scan"}, "fusion_lon": 0.0, "lat": 38.92235933333333, "bike_id": "c4442114c85097cc2c1bfd366c1990d3", "type": "electric_scooter", "is_reserved": 0, "lon": -77.03526166666667}, {"fusion_lat": 0.0, "name": "a77802337267b5bfb3bcceca9a469b29", "is_disabled": 0, "rental_uris": {"android": "https://dc.lft.to/lastmile_qr_scan", "ios": "https://dc.lft.to/lastmile_qr_scan"}, "fusion_lon": 0.0, "lat": 38.91270866666667, "bike_id": "a77802337267b5bfb3bcceca9a469b29", "type": "electric_scooter", "is_reserved": 0, "lon": -77.032355}, {"fusion_lat": 0.0, "name": "748ec67a43705abf538fde2ec55fefe9", "is_disabled": 0, "rental_uris": {"android": "https://dc.lft.to/lastmile_qr_scan", "ios": "https://dc.lft.to/lastmile_qr_scan"}, "fusion_lon": 0.0, "lat": 38.91340916666667, "bike_id": "748ec67a43705abf538fde2ec55fefe9", "type": "electric_bike", "is_reserved": 0, "lon": -76.98898833333334}, {"fusion_lat": 0.0, "name": "4f13ca27536f945542b508ed68fbaf68", "is_disabled": 0, "rental_uris": {"android": "https://dc.lft.to/lastmile_qr_scan", "ios": "https://dc.lft.to/lastmile_qr_scan"}, "fusion_lon": 0.0, "lat": 38.8983035, "bike_id": "4f13ca27536f945542b508ed68fbaf68", "type": "electric_scooter", "is_reserved": 0, "lon": -77.0240405}, {"fusion_lat": 0.0, "name": "71988d4c52506069fd0e16521563a031", "is_disabled": 0, "rental_uris": {"android": "https://dc.lft.to/lastmile_qr_scan", "ios": "https://dc.lft.to/lastmile_qr_scan"}, "fusion_lon": 0.0, "lat": 38.8881355, "bike_id": "71988d4c52506069fd0e16521563a031", "type": "electric_scooter", "is_reserved": 0, "lon": -76.98353733333333}, {"fusion_lat": 0.0, "name": "946798cce56b1ff6d78fc3ad430a8388", "is_disabled": 0, "rental_uris": {"android": "https://dc.lft.to/lastmile_qr_scan", "ios": "https://dc.lft.to/lastmile_qr_scan"}, "fusion_lon": 0.0, "lat": 38.9140645, "bike_id": "946798cce56b1ff6d78fc3ad430a8388", "type": "electric_scooter", "is_reserved": 0, "lon": -77.0322435}, {"fusion_lat": 0.0, "name": "25115ef7e7fdaed62de5046f6b9588a2", "is_disabled": 0, "rental_uris": {"android": "https://dc.lft.to/lastmile_qr_scan", "ios": "https://dc.lft.to/lastmile_qr_scan"}, "fusion_lon": 0.0, "lat": 38.89881416666667, "bike_id": "25115ef7e7fdaed62de5046f6b9588a2", "type": "electric_scooter", "is_reserved": 0, "lon": -77.032774}, {"fusion_lat": 0.0, "name": "bf188cbd754ba21c65b1840843eb5375", "is_disabled": 0, "rental_uris": {"android": "https://dc.lft.to/lastmile_qr_scan", "ios": "https://dc.lft.to/lastmile_qr_scan"}, "fusion_lon": 0.0, "lat": 38.90035016666667, "bike_id": "bf188cbd754ba21c65b1840843eb5375", "type": "electric_scooter", "is_reserved": 0, "lon": -77.01227}, {"fusion_lat": 0.0, "name": "67c1529c2927582c175c66db5656850e", "is_disabled": 0, "rental_uris": {"android": "https://dc.lft.to/lastmile_qr_scan", "ios": "https://dc.lft.to/lastmile_qr_scan"}, "fusion_lon": 0.0, "lat": 38.8846975, "bike_id": "67c1529c2927582c175c66db5656850e", "type": "electric_scooter", "is_reserved": 0, "lon": -76.94972533333333}, {"fusion_lat": 0.0, "name": "ccdf9a7898fdbddc0ac36f6c61093983", "is_disabled": 0, "rental_uris": {"android": "https://dc.lft.to/lastmile_qr_scan", "ios": "https://dc.lft.to/lastmile_qr_scan"}, "fusion_lon": 0.0, "lat": 38.96128733333333, "bike_id": "ccdf9a7898fdbddc0ac36f6c61093983", "type": "electric_bike", "is_reserved": 0, "lon": -77.03276166666667}, {"fusion_lat": 0.0, "name": "99a43e3f64686b1949ae51832c6f1514", "is_disabled": 0, "rental_uris": {"android": "https://dc.lft.to/lastmile_qr_scan", "ios": "https://dc.lft.to/lastmile_qr_scan"}, "fusion_lon": 0.0, "lat": 38.87637, "bike_id": "99a43e3f64686b1949ae51832c6f1514", "type": "electric_scooter", "is_reserved": 0, "lon": -77.0010895}, {"fusion_lat": 0.0, "name": "c44f7da44b2fbb0c04b3e1f27b19270f", "is_disabled": 0, "rental_uris": {"android": "https://dc.lft.to/lastmile_qr_scan", "ios": "https://dc.lft.to/lastmile_qr_scan"}, "fusion_lon": 0.0, "lat": 38.884739833333335, "bike_id": "c44f7da44b2fbb0c04b3e1f27b19270f", "type": "electric_scooter", "is_reserved": 0, "lon": -76.929349}, {"fusion_lat": 0.0, "name": "6b4427a6ff8d6c41aaa471befc55c857", "is_disabled": 0, "rental_uris": {"android": "https://dc.lft.to/lastmile_qr_scan", "ios": "https://dc.lft.to/lastmile_qr_scan"}, "fusion_lon": 0.0, "lat": 38.909671, "bike_id": "6b4427a6ff8d6c41aaa471befc55c857", "type": "electric_scooter", "is_reserved": 0, "lon": -77.04813716666666}, {"fusion_lat": 0.0, "name": "23c1d7892977caf6b76a97d0e775ebb5", "is_disabled": 0, "rental_uris": {"android": "https://dc.lft.to/lastmile_qr_scan", "ios": "https://dc.lft.to/lastmile_qr_scan"}, "fusion_lon": 0.0, "lat": 38.9162885, "bike_id": "23c1d7892977caf6b76a97d0e775ebb5", "type": "electric_scooter", "is_reserved": 0, "lon": -77.0293915}, {"fusion_lat": 0.0, "name": "3c77919afc0278c5dd5f13d4ef78395d", "is_disabled": 0, "rental_uris": {"android": "https://dc.lft.to/lastmile_qr_scan", "ios": "https://dc.lft.to/lastmile_qr_scan"}, "fusion_lon": 0.0, "lat": 38.9009955, "bike_id": "3c77919afc0278c5dd5f13d4ef78395d", "type": "electric_scooter", "is_reserved": 0, "lon": -77.05809833333333}, {"fusion_lat": 0.0, "name": "89a52f45085a4ff41c4f895319f1828e", "is_disabled": 0, "rental_uris": {"android": "https://dc.lft.to/lastmile_qr_scan", "ios": "https://dc.lft.to/lastmile_qr_scan"}, "fusion_lon": 0.0, "lat": 38.92154583333333, "bike_id": "89a52f45085a4ff41c4f895319f1828e", "type": "electric_scooter", "is_reserved": 0, "lon": -77.04333566666666}, {"fusion_lat": 0.0, "name": "3cd6a47065fc35db2f2d5827c2e440e9", "is_disabled": 0, "rental_uris": {"android": "https://dc.lft.to/lastmile_qr_scan", "ios": "https://dc.lft.to/lastmile_qr_scan"}, "fusion_lon": 0.0, "lat": 38.946335166666664, "bike_id": "3cd6a47065fc35db2f2d5827c2e440e9", "type": "electric_scooter", "is_reserved": 0, "lon": -77.09542016666667}, {"fusion_lat": 0.0, "name": "fdb228a91676b48e5b2e534c145987a0", "is_disabled": 0, "rental_uris": {"android": "https://dc.lft.to/lastmile_qr_scan", "ios": "https://dc.lft.to/lastmile_qr_scan"}, "fusion_lon": 0.0, "lat": 38.873696333333335, "bike_id": "fdb228a91676b48e5b2e534c145987a0", "type": "electric_scooter", "is_reserved": 0, "lon": -77.00096583333334}, {"fusion_lat": 0.0, "name": "900f923ff8d768b1669a8c79d564b689", "is_disabled": 0, "rental_uris": {"android": "https://dc.lft.to/lastmile_qr_scan", "ios": "https://dc.lft.to/lastmile_qr_scan"}, "fusion_lon": 0.0, "lat": 38.861684833333335, "bike_id": "900f923ff8d768b1669a8c79d564b689", "type": "electric_scooter", "is_reserved": 0, "lon": -76.98369866666667}, {"fusion_lat": 0.0, "name": "7b394b46725a83280e151a740ca65bd7", "is_disabled": 0, "rental_uris": {"android": "https://dc.lft.to/lastmile_qr_scan", "ios": "https://dc.lft.to/lastmile_qr_scan"}, "fusion_lon": 0.0, "lat": 38.8928795, "bike_id": "7b394b46725a83280e151a740ca65bd7", "type": "electric_scooter", "is_reserved": 0, "lon": -76.98310983333333}, {"fusion_lat": 0.0, "name": "1cba5584295155fb9160896cc6beafe1", "is_disabled": 0, "rental_uris": {"android": "https://dc.lft.to/lastmile_qr_scan", "ios": "https://dc.lft.to/lastmile_qr_scan"}, "fusion_lon": 0.0, "lat": 38.94896816666667, "bike_id": "1cba5584295155fb9160896cc6beafe1", "type": "electric_bike", "is_reserved": 0, "lon": -76.96372983333333}, {"fusion_lat": 0.0, "name": "cbcc7ee46030d25b0a477a4364a181f3", "is_disabled": 0, "rental_uris": {"android": "https://dc.lft.to/lastmile_qr_scan", "ios": "https://dc.lft.to/lastmile_qr_scan"}, "fusion_lon": 0.0, "lat": 38.904509, "bike_id": "cbcc7ee46030d25b0a477a4364a181f3", "type": "electric_scooter", "is_reserved": 0, "lon": -77.0321785}, {"fusion_lat": 0.0, "name": "33b9799e79b366e651c75eb3bb9989d1", "is_disabled": 0, "rental_uris": {"android": "https://dc.lft.to/lastmile_qr_scan", "ios": "https://dc.lft.to/lastmile_qr_scan"}, "fusion_lon": 0.0, "lat": 38.920704666666666, "bike_id": "33b9799e79b366e651c75eb3bb9989d1", "type": "electric_scooter", "is_reserved": 0, "lon": -77.00215466666667}, {"fusion_lat": 0.0, "name": "57dd24ff14eebf5d0fb1e84a65354855", "is_disabled": 0, "rental_uris": {"android": "https://dc.lft.to/lastmile_qr_scan", "ios": "https://dc.lft.to/lastmile_qr_scan"}, "fusion_lon": 0.0, "lat": 38.90877316666667, "bike_id": "57dd24ff14eebf5d0fb1e84a65354855", "type": "electric_scooter", "is_reserved": 0, "lon": -77.032781}, {"fusion_lat": 0.0, "name": "62e93ad08a27c7ab403de673bb42c39a", "is_disabled": 0, "rental_uris": {"android": "https://dc.lft.to/lastmile_qr_scan", "ios": "https://dc.lft.to/lastmile_qr_scan"}, "fusion_lon": 0.0, "lat": 38.90642, "bike_id": "62e93ad08a27c7ab403de673bb42c39a", "type": "electric_scooter", "is_reserved": 0, "lon": -77.017974}, {"fusion_lat": 0.0, "name": "f9ddb6d9b71c83662d6967de960c85e4", "is_disabled": 0, "rental_uris": {"android": "https://dc.lft.to/lastmile_qr_scan", "ios": "https://dc.lft.to/lastmile_qr_scan"}, "fusion_lon": 0.0, "lat": 38.908176, "bike_id": "f9ddb6d9b71c83662d6967de960c85e4", "type": "electric_scooter", "is_reserved": 0, "lon": -76.99989533333333}, {"fusion_lat": 0.0, "name": "11359f417fa96baf719fe50a77226473", "is_disabled": 0, "rental_uris": {"android": "https://dc.lft.to/lastmile_qr_scan", "ios": "https://dc.lft.to/lastmile_qr_scan"}, "fusion_lon": 0.0, "lat": 38.927960166666665, "bike_id": "11359f417fa96baf719fe50a77226473", "type": "electric_scooter", "is_reserved": 0, "lon": -77.03217266666667}, {"fusion_lat": 0.0, "name": "6707d5b352cec0db11809bd855b88812", "is_disabled": 0, "rental_uris": {"android": "https://dc.lft.to/lastmile_qr_scan", "ios": "https://dc.lft.to/lastmile_qr_scan"}, "fusion_lon": 0.0, "lat": 38.91297333333333, "bike_id": "6707d5b352cec0db11809bd855b88812", "type": "electric_scooter", "is_reserved": 0, "lon": -77.04878133333334}, {"fusion_lat": 0.0, "name": "86b4ff084101f058f62668456bebdf49", "is_disabled": 0, "rental_uris": {"android": "https://dc.lft.to/lastmile_qr_scan", "ios": "https://dc.lft.to/lastmile_qr_scan"}, "fusion_lon": 0.0, "lat": 38.91764516666667, "bike_id": "86b4ff084101f058f62668456bebdf49", "type": "electric_scooter", "is_reserved": 0, "lon": -77.03641683333333}, {"fusion_lat": 0.0, "name": "3c422c41a90c2265ad74439d93cc858e", "is_disabled": 0, "rental_uris": {"android": "https://dc.lft.to/lastmile_qr_scan", "ios": "https://dc.lft.to/lastmile_qr_scan"}, "fusion_lon": 0.0, "lat": 38.80492116666667, "bike_id": "3c422c41a90c2265ad74439d93cc858e", "type": "electric_bike", "is_reserved": 0, "lon": -77.10162733333334}, {"fusion_lat": 0.0, "name": "5f2d7e392f7abc9c2a7e1a269c23720c", "is_disabled": 0, "rental_uris": {"android": "https://dc.lft.to/lastmile_qr_scan", "ios": "https://dc.lft.to/lastmile_qr_scan"}, "fusion_lon": 0.0, "lat": 38.919673, "bike_id": "5f2d7e392f7abc9c2a7e1a269c23720c", "type": "electric_scooter", "is_reserved": 0, "lon": -77.07085033333334}, {"fusion_lat": 0.0, "name": "a9858c9b23398391fe2c7c3cf43486dd", "is_disabled": 0, "rental_uris": {"android": "https://dc.lft.to/lastmile_qr_scan", "ios": "https://dc.lft.to/lastmile_qr_scan"}, "fusion_lon": 0.0, "lat": 38.92088016666666, "bike_id": "a9858c9b23398391fe2c7c3cf43486dd", "type": "electric_scooter", "is_reserved": 0, "lon": -76.99450116666667}, {"fusion_lat": 0.0, "name": "7eb2f603e6c8b615d04b20f785040aa4", "is_disabled": 0, "rental_uris": {"android": "https://dc.lft.to/lastmile_qr_scan", "ios": "https://dc.lft.to/lastmile_qr_scan"}, "fusion_lon": 0.0, "lat": 38.89339, "bike_id": "7eb2f603e6c8b615d04b20f785040aa4", "type": "electric_scooter", "is_reserved": 0, "lon": -77.04675616666667}, {"fusion_lat": 0.0, "name": "f0b1b237322afc9956f563e76e331811", "is_disabled": 0, "rental_uris": {"android": "https://dc.lft.to/lastmile_qr_scan", "ios": "https://dc.lft.to/lastmile_qr_scan"}, "fusion_lon": 0.0, "lat": 38.8984665, "bike_id": "f0b1b237322afc9956f563e76e331811", "type": "electric_scooter", "is_reserved": 0, "lon": -77.00744766666666}, {"fusion_lat": 0.0, "name": "9072d22fdf9432acbee55a47c8722990", "is_disabled": 0, "rental_uris": {"android": "https://dc.lft.to/lastmile_qr_scan", "ios": "https://dc.lft.to/lastmile_qr_scan"}, "fusion_lon": 0.0, "lat": 38.920000333333334, "bike_id": "9072d22fdf9432acbee55a47c8722990", "type": "electric_scooter", "is_reserved": 0, "lon": -77.071886}, {"fusion_lat": 0.0, "name": "cbd62dc22b25e090310798464c388901", "is_disabled": 0, "rental_uris": {"android": "https://dc.lft.to/lastmile_qr_scan", "ios": "https://dc.lft.to/lastmile_qr_scan"}, "fusion_lon": 0.0, "lat": 38.883809666666664, "bike_id": "cbd62dc22b25e090310798464c388901", "type": "electric_scooter", "is_reserved": 0, "lon": -77.046105}, {"fusion_lat": 0.0, "name": "f3f3491ccb75419084145fc5175f1702", "is_disabled": 0, "rental_uris": {"android": "https://dc.lft.to/lastmile_qr_scan", "ios": "https://dc.lft.to/lastmile_qr_scan"}, "fusion_lon": 0.0, "lat": 38.90153083333333, "bike_id": "f3f3491ccb75419084145fc5175f1702", "type": "electric_scooter", "is_reserved": 0, "lon": -77.054052}, {"fusion_lat": 0.0, "name": "e8079bb63d24d61a861920e23735f5e4", "is_disabled": 0, "rental_uris": {"android": "https://dc.lft.to/lastmile_qr_scan", "ios": "https://dc.lft.to/lastmile_qr_scan"}, "fusion_lon": 0.0, "lat": 38.854146166666666, "bike_id": "e8079bb63d24d61a861920e23735f5e4", "type": "electric_bike", "is_reserved": 0, "lon": -77.120745}, {"fusion_lat": 0.0, "name": "628128f43fdd4671845cd8920e17a00e", "is_disabled": 0, "rental_uris": {"android": "https://dc.lft.to/lastmile_qr_scan", "ios": "https://dc.lft.to/lastmile_qr_scan"}, "fusion_lon": 0.0, "lat": 38.98545716666667, "bike_id": "628128f43fdd4671845cd8920e17a00e", "type": "electric_bike", "is_reserved": 0, "lon": -77.00401583333333}, {"fusion_lat": 0.0, "name": "cf37b0dfe2127e48616c940ca0a60035", "is_disabled": 0, "rental_uris": {"android": "https://dc.lft.to/lastmile_qr_scan", "ios": "https://dc.lft.to/lastmile_qr_scan"}, "fusion_lon": 0.0, "lat": 38.89838366666667, "bike_id": "cf37b0dfe2127e48616c940ca0a60035", "type": "electric_scooter", "is_reserved": 0, "lon": -77.01342466666667}, {"fusion_lat": 0.0, "name": "650ddb059979b6357223f2ede0abfaae", "is_disabled": 0, "rental_uris": {"android": "https://dc.lft.to/lastmile_qr_scan", "ios": "https://dc.lft.to/lastmile_qr_scan"}, "fusion_lon": 0.0, "lat": 38.8829945, "bike_id": "650ddb059979b6357223f2ede0abfaae", "type": "electric_scooter", "is_reserved": 0, "lon": -76.94852916666666}, {"fusion_lat": 0.0, "name": "1ebdd5ea6aa780fd5b584eb0cc5b53e3", "is_disabled": 0, "rental_uris": {"android": "https://dc.lft.to/lastmile_qr_scan", "ios": "https://dc.lft.to/lastmile_qr_scan"}, "fusion_lon": 0.0, "lat": 38.884251166666665, "bike_id": "1ebdd5ea6aa780fd5b584eb0cc5b53e3", "type": "electric_scooter", "is_reserved": 0, "lon": -76.95756433333334}, {"fusion_lat": 0.0, "name": "c76c8677925f980571af58608ff816c5", "is_disabled": 0, "rental_uris": {"android": "https://dc.lft.to/lastmile_qr_scan", "ios": "https://dc.lft.to/lastmile_qr_scan"}, "fusion_lon": 0.0, "lat": 38.92416683333333, "bike_id": "c76c8677925f980571af58608ff816c5", "type": "electric_scooter", "is_reserved": 0, "lon": -76.99625083333333}, {"fusion_lat": 0.0, "name": "ba0494a1222d786bf3efe58ae027c1de", "is_disabled": 0, "rental_uris": {"android": "https://dc.lft.to/lastmile_qr_scan", "ios": "https://dc.lft.to/lastmile_qr_scan"}, "fusion_lon": 0.0, "lat": 38.916024, "bike_id": "ba0494a1222d786bf3efe58ae027c1de", "type": "electric_scooter", "is_reserved": 0, "lon": -77.0320295}, {"fusion_lat": 0.0, "name": "8bcd71108cb631e567defc149dfda41d", "is_disabled": 0, "rental_uris": {"android": "https://dc.lft.to/lastmile_qr_scan", "ios": "https://dc.lft.to/lastmile_qr_scan"}, "fusion_lon": 0.0, "lat": 38.92513683333333, "bike_id": "8bcd71108cb631e567defc149dfda41d", "type": "electric_scooter", "is_reserved": 0, "lon": -77.022863}, {"fusion_lat": 0.0, "name": "ce735137fbe8104d2a8750f14a77464e", "is_disabled": 0, "rental_uris": {"android": "https://dc.lft.to/lastmile_qr_scan", "ios": "https://dc.lft.to/lastmile_qr_scan"}, "fusion_lon": 0.0, "lat": 38.93577116666667, "bike_id": "ce735137fbe8104d2a8750f14a77464e", "type": "electric_scooter", "is_reserved": 0, "lon": -77.02848066666667}, {"fusion_lat": 0.0, "name": "07854b780543bb1d8328f53b1575b842", "is_disabled": 0, "rental_uris": {"android": "https://dc.lft.to/lastmile_qr_scan", "ios": "https://dc.lft.to/lastmile_qr_scan"}, "fusion_lon": 0.0, "lat": 38.952231833333336, "bike_id": "07854b780543bb1d8328f53b1575b842", "type": "electric_scooter", "is_reserved": 0, "lon": -77.08218033333333}, {"fusion_lat": 0.0, "name": "8f5ecea9f1f52b135fe40b5467314b17", "is_disabled": 0, "rental_uris": {"android": "https://dc.lft.to/lastmile_qr_scan", "ios": "https://dc.lft.to/lastmile_qr_scan"}, "fusion_lon": 0.0, "lat": 38.845909666666664, "bike_id": "8f5ecea9f1f52b135fe40b5467314b17", "type": "electric_bike", "is_reserved": 0, "lon": -76.98162833333333}, {"fusion_lat": 0.0, "name": "88243452cd859e2556c5a539455dd827", "is_disabled": 0, "rental_uris": {"android": "https://dc.lft.to/lastmile_qr_scan", "ios": "https://dc.lft.to/lastmile_qr_scan"}, "fusion_lon": 0.0, "lat": 38.927704, "bike_id": "88243452cd859e2556c5a539455dd827", "type": "electric_scooter", "is_reserved": 0, "lon": -77.0278145}, {"fusion_lat": 0.0, "name": "fa4fccc10822c05c46fe08a7183bf9c9", "is_disabled": 0, "rental_uris": {"android": "https://dc.lft.to/lastmile_qr_scan", "ios": "https://dc.lft.to/lastmile_qr_scan"}, "fusion_lon": 0.0, "lat": 38.89979866666667, "bike_id": "fa4fccc10822c05c46fe08a7183bf9c9", "type": "electric_scooter", "is_reserved": 0, "lon": -77.040455}, {"fusion_lat": 0.0, "name": "c4bd687469438ffe878496611c1b912d", "is_disabled": 0, "rental_uris": {"android": "https://dc.lft.to/lastmile_qr_scan", "ios": "https://dc.lft.to/lastmile_qr_scan"}, "fusion_lon": 0.0, "lat": 38.92379483333333, "bike_id": "c4bd687469438ffe878496611c1b912d", "type": "electric_scooter", "is_reserved": 0, "lon": -77.0754075}, {"fusion_lat": 0.0, "name": "1a58aa93ccb0ab81fc53851e27f0db7c", "is_disabled": 0, "rental_uris": {"android": "https://dc.lft.to/lastmile_qr_scan", "ios": "https://dc.lft.to/lastmile_qr_scan"}, "fusion_lon": 0.0, "lat": 38.941878333333335, "bike_id": "1a58aa93ccb0ab81fc53851e27f0db7c", "type": "electric_scooter", "is_reserved": 0, "lon": -77.02408733333333}, {"fusion_lat": 0.0, "name": "a6e96d00d4a8bc8a0afcf54781283111", "is_disabled": 0, "rental_uris": {"android": "https://dc.lft.to/lastmile_qr_scan", "ios": "https://dc.lft.to/lastmile_qr_scan"}, "fusion_lon": 0.0, "lat": 38.921283833333334, "bike_id": "a6e96d00d4a8bc8a0afcf54781283111", "type": "electric_scooter", "is_reserved": 0, "lon": -77.04420366666666}, {"fusion_lat": 0.0, "name": "a7a0f2a8c8c9c6d20c1d946ebde69f58", "is_disabled": 0, "rental_uris": {"android": "https://dc.lft.to/lastmile_qr_scan", "ios": "https://dc.lft.to/lastmile_qr_scan"}, "fusion_lon": 0.0, "lat": 38.918011666666665, "bike_id": "a7a0f2a8c8c9c6d20c1d946ebde69f58", "type": "electric_scooter", "is_reserved": 0, "lon": -77.03660266666667}, {"fusion_lat": 0.0, "name": "0586a248f4228f50564ecd8787a6ad3b", "is_disabled": 0, "rental_uris": {"android": "https://dc.lft.to/lastmile_qr_scan", "ios": "https://dc.lft.to/lastmile_qr_scan"}, "fusion_lon": 0.0, "lat": 38.904164333333334, "bike_id": "0586a248f4228f50564ecd8787a6ad3b", "type": "electric_scooter", "is_reserved": 0, "lon": -77.02387816666666}, {"fusion_lat": 0.0, "name": "ec57d60941e2081d60528abb36103fad", "is_disabled": 0, "rental_uris": {"android": "https://dc.lft.to/lastmile_qr_scan", "ios": "https://dc.lft.to/lastmile_qr_scan"}, "fusion_lon": 0.0, "lat": 38.90029366666667, "bike_id": "ec57d60941e2081d60528abb36103fad", "type": "electric_scooter", "is_reserved": 0, "lon": -77.012241}, {"fusion_lat": 0.0, "name": "05a086d743c7d17074f7d937c8d03a3d", "is_disabled": 0, "rental_uris": {"android": "https://dc.lft.to/lastmile_qr_scan", "ios": "https://dc.lft.to/lastmile_qr_scan"}, "fusion_lon": 0.0, "lat": 38.91177116666667, "bike_id": "05a086d743c7d17074f7d937c8d03a3d", "type": "electric_scooter", "is_reserved": 0, "lon": -77.004721}, {"fusion_lat": 0.0, "name": "83af42a43a5903ec9aecfff65e62fb55", "is_disabled": 0, "rental_uris": {"android": "https://dc.lft.to/lastmile_qr_scan", "ios": "https://dc.lft.to/lastmile_qr_scan"}, "fusion_lon": 0.0, "lat": 38.915253166666666, "bike_id": "83af42a43a5903ec9aecfff65e62fb55", "type": "electric_scooter", "is_reserved": 0, "lon": -77.0727115}, {"fusion_lat": 0.0, "name": "a492537a7b5523e22874be65b8d2fff5", "is_disabled": 0, "rental_uris": {"android": "https://dc.lft.to/lastmile_qr_scan", "ios": "https://dc.lft.to/lastmile_qr_scan"}, "fusion_lon": 0.0, "lat": 38.924512, "bike_id": "a492537a7b5523e22874be65b8d2fff5", "type": "electric_scooter", "is_reserved": 0, "lon": -77.02402883333333}, {"fusion_lat": 0.0, "name": "a87398260b37b74534abce5c2b9f1885", "is_disabled": 0, "rental_uris": {"android": "https://dc.lft.to/lastmile_qr_scan", "ios": "https://dc.lft.to/lastmile_qr_scan"}, "fusion_lon": 0.0, "lat": 38.9234825, "bike_id": "a87398260b37b74534abce5c2b9f1885", "type": "electric_scooter", "is_reserved": 0, "lon": -77.02016183333333}, {"fusion_lat": 0.0, "name": "18ae1a8352d3bfa12dac85ebd35ece08", "is_disabled": 0, "rental_uris": {"android": "https://dc.lft.to/lastmile_qr_scan", "ios": "https://dc.lft.to/lastmile_qr_scan"}, "fusion_lon": 0.0, "lat": 38.90718733333333, "bike_id": "18ae1a8352d3bfa12dac85ebd35ece08", "type": "electric_scooter", "is_reserved": 0, "lon": -77.027162}, {"fusion_lat": 0.0, "name": "2bb8411d9313723bd79c828a1fac2cd2", "is_disabled": 0, "rental_uris": {"android": "https://dc.lft.to/lastmile_qr_scan", "ios": "https://dc.lft.to/lastmile_qr_scan"}, "fusion_lon": 0.0, "lat": 38.96935716666667, "bike_id": "2bb8411d9313723bd79c828a1fac2cd2", "type": "electric_bike", "is_reserved": 0, "lon": -76.95544133333334}, {"fusion_lat": 0.0, "name": "b82cafd7498e8d965521044da3be028c", "is_disabled": 0, "rental_uris": {"android": "https://dc.lft.to/lastmile_qr_scan", "ios": "https://dc.lft.to/lastmile_qr_scan"}, "fusion_lon": 0.0, "lat": 38.89727766666667, "bike_id": "b82cafd7498e8d965521044da3be028c", "type": "electric_scooter", "is_reserved": 0, "lon": -77.01968233333334}, {"fusion_lat": 0.0, "name": "edecaad0b88e8498ce490d6f22f74828", "is_disabled": 0, "rental_uris": {"android": "https://dc.lft.to/lastmile_qr_scan", "ios": "https://dc.lft.to/lastmile_qr_scan"}, "fusion_lon": 0.0, "lat": 38.934799166666664, "bike_id": "edecaad0b88e8498ce490d6f22f74828", "type": "electric_scooter", "is_reserved": 0, "lon": -77.04533233333333}, {"fusion_lat": 0.0, "name": "1a5c7364b070b8e35f9e0a9f62826de6", "is_disabled": 0, "rental_uris": {"android": "https://dc.lft.to/lastmile_qr_scan", "ios": "https://dc.lft.to/lastmile_qr_scan"}, "fusion_lon": 0.0, "lat": 38.909339833333334, "bike_id": "1a5c7364b070b8e35f9e0a9f62826de6", "type": "electric_scooter", "is_reserved": 0, "lon": -77.06270366666666}, {"fusion_lat": 0.0, "name": "a1afef6b4846e83b69bef180efb58a2e", "is_disabled": 0, "rental_uris": {"android": "https://dc.lft.to/lastmile_qr_scan", "ios": "https://dc.lft.to/lastmile_qr_scan"}, "fusion_lon": 0.0, "lat": 38.8966775, "bike_id": "a1afef6b4846e83b69bef180efb58a2e", "type": "electric_scooter", "is_reserved": 0, "lon": -76.93213233333333}, {"fusion_lat": 0.0, "name": "b082909ed68650130c9752cca4e4e555", "is_disabled": 0, "rental_uris": {"android": "https://dc.lft.to/lastmile_qr_scan", "ios": "https://dc.lft.to/lastmile_qr_scan"}, "fusion_lon": 0.0, "lat": 38.902258833333335, "bike_id": "b082909ed68650130c9752cca4e4e555", "type": "electric_scooter", "is_reserved": 0, "lon": -77.0607155}, {"fusion_lat": 0.0, "name": "670a53d7e96a4ea29e5104a18552ff3f", "is_disabled": 0, "rental_uris": {"android": "https://dc.lft.to/lastmile_qr_scan", "ios": "https://dc.lft.to/lastmile_qr_scan"}, "fusion_lon": 0.0, "lat": 38.902316666666664, "bike_id": "670a53d7e96a4ea29e5104a18552ff3f", "type": "electric_scooter", "is_reserved": 0, "lon": -77.05908416666666}, {"fusion_lat": 0.0, "name": "441a56cbd71e9b2564e0cbd8d2073a06", "is_disabled": 0, "rental_uris": {"android": "https://dc.lft.to/lastmile_qr_scan", "ios": "https://dc.lft.to/lastmile_qr_scan"}, "fusion_lon": 0.0, "lat": 38.8717555, "bike_id": "441a56cbd71e9b2564e0cbd8d2073a06", "type": "electric_scooter", "is_reserved": 0, "lon": -77.00617083333333}, {"fusion_lat": 0.0, "name": "89f2e07b1acb4eb93b8a4416dd9dca8d", "is_disabled": 0, "rental_uris": {"android": "https://dc.lft.to/lastmile_qr_scan", "ios": "https://dc.lft.to/lastmile_qr_scan"}, "fusion_lon": 0.0, "lat": 38.90303466666667, "bike_id": "89f2e07b1acb4eb93b8a4416dd9dca8d", "type": "electric_scooter", "is_reserved": 0, "lon": -76.97507183333333}, {"fusion_lat": 0.0, "name": "c5ad27583cc8482a96383bfba20d227a", "is_disabled": 0, "rental_uris": {"android": "https://dc.lft.to/lastmile_qr_scan", "ios": "https://dc.lft.to/lastmile_qr_scan"}, "fusion_lon": 0.0, "lat": 38.92390733333333, "bike_id": "c5ad27583cc8482a96383bfba20d227a", "type": "electric_scooter", "is_reserved": 0, "lon": -77.03051666666667}, {"fusion_lat": 0.0, "name": "d3c336a9469d38bdec6712d03a2930c7", "is_disabled": 0, "rental_uris": {"android": "https://dc.lft.to/lastmile_qr_scan", "ios": "https://dc.lft.to/lastmile_qr_scan"}, "fusion_lon": 0.0, "lat": 38.92089883333333, "bike_id": "d3c336a9469d38bdec6712d03a2930c7", "type": "electric_scooter", "is_reserved": 0, "lon": -77.02435066666666}, {"fusion_lat": 0.0, "name": "12e20786044c837f5e8fc3d360bcb317", "is_disabled": 0, "rental_uris": {"android": "https://dc.lft.to/lastmile_qr_scan", "ios": "https://dc.lft.to/lastmile_qr_scan"}, "fusion_lon": 0.0, "lat": 38.984759333333336, "bike_id": "12e20786044c837f5e8fc3d360bcb317", "type": "electric_scooter", "is_reserved": 0, "lon": -77.0264145}, {"fusion_lat": 0.0, "name": "bda2547a7f6d18308e6474ba7e936132", "is_disabled": 0, "rental_uris": {"android": "https://dc.lft.to/lastmile_qr_scan", "ios": "https://dc.lft.to/lastmile_qr_scan"}, "fusion_lon": 0.0, "lat": 38.917034666666666, "bike_id": "bda2547a7f6d18308e6474ba7e936132", "type": "electric_scooter", "is_reserved": 0, "lon": -77.0286965}, {"fusion_lat": 0.0, "name": "0ae292faf5a501b76a75c4160d8b62cf", "is_disabled": 0, "rental_uris": {"android": "https://dc.lft.to/lastmile_qr_scan", "ios": "https://dc.lft.to/lastmile_qr_scan"}, "fusion_lon": 0.0, "lat": 38.887609833333336, "bike_id": "0ae292faf5a501b76a75c4160d8b62cf", "type": "electric_scooter", "is_reserved": 0, "lon": -76.99470233333334}, {"fusion_lat": 0.0, "name": "56710d9ad683fb76b658afe0169163cb", "is_disabled": 0, "rental_uris": {"android": "https://dc.lft.to/lastmile_qr_scan", "ios": "https://dc.lft.to/lastmile_qr_scan"}, "fusion_lon": 0.0, "lat": 38.92160833333333, "bike_id": "56710d9ad683fb76b658afe0169163cb", "type": "electric_scooter", "is_reserved": 0, "lon": -77.03671116666666}, {"fusion_lat": 0.0, "name": "214f181a76b2b68c6bca72093376dbd1", "is_disabled": 0, "rental_uris": {"android": "https://dc.lft.to/lastmile_qr_scan", "ios": "https://dc.lft.to/lastmile_qr_scan"}, "fusion_lon": 0.0, "lat": 38.8985395, "bike_id": "214f181a76b2b68c6bca72093376dbd1", "type": "electric_scooter", "is_reserved": 0, "lon": -77.021954}, {"fusion_lat": 0.0, "name": "04d8511e63a5082c42b4baa771107114", "is_disabled": 0, "rental_uris": {"android": "https://dc.lft.to/lastmile_qr_scan", "ios": "https://dc.lft.to/lastmile_qr_scan"}, "fusion_lon": 0.0, "lat": 38.91701366666667, "bike_id": "04d8511e63a5082c42b4baa771107114", "type": "electric_scooter", "is_reserved": 0, "lon": -77.027354}, {"fusion_lat": 0.0, "name": "46c10d00f5a68b3120bee0b3a5ee543f", "is_disabled": 0, "rental_uris": {"android": "https://dc.lft.to/lastmile_qr_scan", "ios": "https://dc.lft.to/lastmile_qr_scan"}, "fusion_lon": 0.0, "lat": 38.90365516666667, "bike_id": "46c10d00f5a68b3120bee0b3a5ee543f", "type": "electric_scooter", "is_reserved": 0, "lon": -77.03879683333334}, {"fusion_lat": 0.0, "name": "96395f52f031213315c93839d1049882", "is_disabled": 0, "rental_uris": {"android": "https://dc.lft.to/lastmile_qr_scan", "ios": "https://dc.lft.to/lastmile_qr_scan"}, "fusion_lon": 0.0, "lat": 38.918507166666664, "bike_id": "96395f52f031213315c93839d1049882", "type": "electric_scooter", "is_reserved": 0, "lon": -76.9654735}, {"fusion_lat": 0.0, "name": "56115f93d9b4be75a20f017f4655b8e0", "is_disabled": 0, "rental_uris": {"android": "https://dc.lft.to/lastmile_qr_scan", "ios": "https://dc.lft.to/lastmile_qr_scan"}, "fusion_lon": 0.0, "lat": 38.9166005, "bike_id": "56115f93d9b4be75a20f017f4655b8e0", "type": "electric_scooter", "is_reserved": 0, "lon": -77.02813216666667}, {"fusion_lat": 0.0, "name": "7b0b8fdb0e61e205d0d7ca07828b9dd2", "is_disabled": 0, "rental_uris": {"android": "https://dc.lft.to/lastmile_qr_scan", "ios": "https://dc.lft.to/lastmile_qr_scan"}, "fusion_lon": 0.0, "lat": 38.958299833333335, "bike_id": "7b0b8fdb0e61e205d0d7ca07828b9dd2", "type": "electric_bike", "is_reserved": 0, "lon": -77.01518933333334}, {"fusion_lat": 0.0, "name": "c43c21231ea3e0d4ce2d74409608693f", "is_disabled": 0, "rental_uris": {"android": "https://dc.lft.to/lastmile_qr_scan", "ios": "https://dc.lft.to/lastmile_qr_scan"}, "fusion_lon": 0.0, "lat": 38.90721333333333, "bike_id": "c43c21231ea3e0d4ce2d74409608693f", "type": "electric_scooter", "is_reserved": 0, "lon": -77.0037535}, {"fusion_lat": 0.0, "name": "b297fe8bba718077465716012a67a8e1", "is_disabled": 0, "rental_uris": {"android": "https://dc.lft.to/lastmile_qr_scan", "ios": "https://dc.lft.to/lastmile_qr_scan"}, "fusion_lon": 0.0, "lat": 38.897458, "bike_id": "b297fe8bba718077465716012a67a8e1", "type": "electric_scooter", "is_reserved": 0, "lon": -77.04619316666667}, {"fusion_lat": 0.0, "name": "1e3a4b2022acdd2f998796cde1f28d65", "is_disabled": 0, "rental_uris": {"android": "https://dc.lft.to/lastmile_qr_scan", "ios": "https://dc.lft.to/lastmile_qr_scan"}, "fusion_lon": 0.0, "lat": 38.90204083333333, "bike_id": "1e3a4b2022acdd2f998796cde1f28d65", "type": "electric_scooter", "is_reserved": 0, "lon": -77.02365766666667}, {"fusion_lat": 0.0, "name": "ed9f52338bfc941806adc6ae24db5871", "is_disabled": 0, "rental_uris": {"android": "https://dc.lft.to/lastmile_qr_scan", "ios": "https://dc.lft.to/lastmile_qr_scan"}, "fusion_lon": 0.0, "lat": 38.91018, "bike_id": "ed9f52338bfc941806adc6ae24db5871", "type": "electric_scooter", "is_reserved": 0, "lon": -77.0385755}, {"fusion_lat": 0.0, "name": "8a9c20b15b053378235018e6d94583fa", "is_disabled": 0, "rental_uris": {"android": "https://dc.lft.to/lastmile_qr_scan", "ios": "https://dc.lft.to/lastmile_qr_scan"}, "fusion_lon": 0.0, "lat": 38.939024, "bike_id": "8a9c20b15b053378235018e6d94583fa", "type": "electric_scooter", "is_reserved": 0, "lon": -77.03321716666666}, {"fusion_lat": 0.0, "name": "12ab59f5c589246595e5d7c55005bd61", "is_disabled": 0, "rental_uris": {"android": "https://dc.lft.to/lastmile_qr_scan", "ios": "https://dc.lft.to/lastmile_qr_scan"}, "fusion_lon": 0.0, "lat": 38.95631733333333, "bike_id": "12ab59f5c589246595e5d7c55005bd61", "type": "electric_scooter", "is_reserved": 0, "lon": -77.0330785}, {"fusion_lat": 0.0, "name": "126429f28643c050bce6b4681b426941", "is_disabled": 0, "rental_uris": {"android": "https://dc.lft.to/lastmile_qr_scan", "ios": "https://dc.lft.to/lastmile_qr_scan"}, "fusion_lon": 0.0, "lat": 38.9145775, "bike_id": "126429f28643c050bce6b4681b426941", "type": "electric_scooter", "is_reserved": 0, "lon": -77.00217616666667}, {"fusion_lat": 0.0, "name": "3aa3d289295fe7eb87ca63c3dfe25784", "is_disabled": 0, "rental_uris": {"android": "https://dc.lft.to/lastmile_qr_scan", "ios": "https://dc.lft.to/lastmile_qr_scan"}, "fusion_lon": 0.0, "lat": 38.9081395, "bike_id": "3aa3d289295fe7eb87ca63c3dfe25784", "type": "electric_scooter", "is_reserved": 0, "lon": -77.03856966666666}, {"fusion_lat": 0.0, "name": "1e2d32dd56ff1bf932668115806f4dc6", "is_disabled": 0, "rental_uris": {"android": "https://dc.lft.to/lastmile_qr_scan", "ios": "https://dc.lft.to/lastmile_qr_scan"}, "fusion_lon": 0.0, "lat": 38.92120716666667, "bike_id": "1e2d32dd56ff1bf932668115806f4dc6", "type": "electric_scooter", "is_reserved": 0, "lon": -77.01762466666666}, {"fusion_lat": 0.0, "name": "30fd9a40e494ff9971f1c7247b1241c3", "is_disabled": 0, "rental_uris": {"android": "https://dc.lft.to/lastmile_qr_scan", "ios": "https://dc.lft.to/lastmile_qr_scan"}, "fusion_lon": 0.0, "lat": 38.90790416666667, "bike_id": "30fd9a40e494ff9971f1c7247b1241c3", "type": "electric_scooter", "is_reserved": 0, "lon": -77.04283883333333}, {"fusion_lat": 0.0, "name": "b4955df89196b7afa1e654a06b57a2a2", "is_disabled": 0, "rental_uris": {"android": "https://dc.lft.to/lastmile_qr_scan", "ios": "https://dc.lft.to/lastmile_qr_scan"}, "fusion_lon": 0.0, "lat": 38.89608533333333, "bike_id": "b4955df89196b7afa1e654a06b57a2a2", "type": "electric_scooter", "is_reserved": 0, "lon": -77.00924916666666}, {"fusion_lat": 0.0, "name": "e5be548e2b554824f3bcbbf854c7fadd", "is_disabled": 0, "rental_uris": {"android": "https://dc.lft.to/lastmile_qr_scan", "ios": "https://dc.lft.to/lastmile_qr_scan"}, "fusion_lon": 0.0, "lat": 38.900132, "bike_id": "e5be548e2b554824f3bcbbf854c7fadd", "type": "electric_scooter", "is_reserved": 0, "lon": -76.98770883333333}, {"fusion_lat": 0.0, "name": "c3852391c39103224a106aa329f26808", "is_disabled": 0, "rental_uris": {"android": "https://dc.lft.to/lastmile_qr_scan", "ios": "https://dc.lft.to/lastmile_qr_scan"}, "fusion_lon": 0.0, "lat": 38.87709616666667, "bike_id": "c3852391c39103224a106aa329f26808", "type": "electric_scooter", "is_reserved": 0, "lon": -76.993823}, {"fusion_lat": 0.0, "name": "d83a646df4587d7145a618a40efb5491", "is_disabled": 0, "rental_uris": {"android": "https://dc.lft.to/lastmile_qr_scan", "ios": "https://dc.lft.to/lastmile_qr_scan"}, "fusion_lon": 0.0, "lat": 38.8987575, "bike_id": "d83a646df4587d7145a618a40efb5491", "type": "electric_scooter", "is_reserved": 0, "lon": -76.9318505}, {"fusion_lat": 0.0, "name": "f2d07334c35067abdf4c4edb8fc8fbe1", "is_disabled": 0, "rental_uris": {"android": "https://dc.lft.to/lastmile_qr_scan", "ios": "https://dc.lft.to/lastmile_qr_scan"}, "fusion_lon": 0.0, "lat": 38.88616183333333, "bike_id": "f2d07334c35067abdf4c4edb8fc8fbe1", "type": "electric_scooter", "is_reserved": 0, "lon": -77.01558266666666}, {"fusion_lat": 0.0, "name": "1fec90559f7abbc27727130518ad4862", "is_disabled": 0, "rental_uris": {"android": "https://dc.lft.to/lastmile_qr_scan", "ios": "https://dc.lft.to/lastmile_qr_scan"}, "fusion_lon": 0.0, "lat": 38.9199775, "bike_id": "1fec90559f7abbc27727130518ad4862", "type": "electric_scooter", "is_reserved": 0, "lon": -77.02175066666666}, {"fusion_lat": 0.0, "name": "fd4dffc7f852b9d830802901c74452cf", "is_disabled": 0, "rental_uris": {"android": "https://dc.lft.to/lastmile_qr_scan", "ios": "https://dc.lft.to/lastmile_qr_scan"}, "fusion_lon": 0.0, "lat": 38.9293185, "bike_id": "fd4dffc7f852b9d830802901c74452cf", "type": "electric_scooter", "is_reserved": 0, "lon": -77.03750016666666}, {"fusion_lat": 0.0, "name": "abacb550e2285bc2a62dd0f0335f7ab7", "is_disabled": 0, "rental_uris": {"android": "https://dc.lft.to/lastmile_qr_scan", "ios": "https://dc.lft.to/lastmile_qr_scan"}, "fusion_lon": 0.0, "lat": 38.900067, "bike_id": "abacb550e2285bc2a62dd0f0335f7ab7", "type": "electric_scooter", "is_reserved": 0, "lon": -77.01122383333333}, {"fusion_lat": 0.0, "name": "84bce7e2ccb009a4086f8183b6097594", "is_disabled": 0, "rental_uris": {"android": "https://dc.lft.to/lastmile_qr_scan", "ios": "https://dc.lft.to/lastmile_qr_scan"}, "fusion_lon": 0.0, "lat": 38.856028, "bike_id": "84bce7e2ccb009a4086f8183b6097594", "type": "electric_scooter", "is_reserved": 0, "lon": -76.972614}, {"fusion_lat": 0.0, "name": "30ef48dc7863b7c94c0568a6268d6f9b", "is_disabled": 0, "rental_uris": {"android": "https://dc.lft.to/lastmile_qr_scan", "ios": "https://dc.lft.to/lastmile_qr_scan"}, "fusion_lon": 0.0, "lat": 38.863332, "bike_id": "30ef48dc7863b7c94c0568a6268d6f9b", "type": "electric_bike", "is_reserved": 0, "lon": -76.98724616666667}, {"fusion_lat": 0.0, "name": "cbf9e2caedd61f1feff5b7130229e6aa", "is_disabled": 0, "rental_uris": {"android": "https://dc.lft.to/lastmile_qr_scan", "ios": "https://dc.lft.to/lastmile_qr_scan"}, "fusion_lon": 0.0, "lat": 38.930098666666666, "bike_id": "cbf9e2caedd61f1feff5b7130229e6aa", "type": "electric_scooter", "is_reserved": 0, "lon": -77.03253133333334}, {"fusion_lat": 0.0, "name": "7ba3e7b9267146112c72bdcf5c724836", "is_disabled": 0, "rental_uris": {"android": "https://dc.lft.to/lastmile_qr_scan", "ios": "https://dc.lft.to/lastmile_qr_scan"}, "fusion_lon": 0.0, "lat": 38.9261065, "bike_id": "7ba3e7b9267146112c72bdcf5c724836", "type": "electric_scooter", "is_reserved": 0, "lon": -77.03958116666666}, {"fusion_lat": 0.0, "name": "3ec420ee15d2cb11c34bbf2ca6080c1a", "is_disabled": 0, "rental_uris": {"android": "https://dc.lft.to/lastmile_qr_scan", "ios": "https://dc.lft.to/lastmile_qr_scan"}, "fusion_lon": 0.0, "lat": 38.88303366666667, "bike_id": "3ec420ee15d2cb11c34bbf2ca6080c1a", "type": "electric_scooter", "is_reserved": 0, "lon": -76.948587}, {"fusion_lat": 0.0, "name": "f80b0f51599afc007314a0b3c2001d12", "is_disabled": 0, "rental_uris": {"android": "https://dc.lft.to/lastmile_qr_scan", "ios": "https://dc.lft.to/lastmile_qr_scan"}, "fusion_lon": 0.0, "lat": 38.91688116666667, "bike_id": "f80b0f51599afc007314a0b3c2001d12", "type": "electric_scooter", "is_reserved": 0, "lon": -77.02308716666667}, {"fusion_lat": 0.0, "name": "7e3fe01212946c3566e33d44a9b4897f", "is_disabled": 0, "rental_uris": {"android": "https://dc.lft.to/lastmile_qr_scan", "ios": "https://dc.lft.to/lastmile_qr_scan"}, "fusion_lon": 0.0, "lat": 38.80755716666667, "bike_id": "7e3fe01212946c3566e33d44a9b4897f", "type": "electric_bike", "is_reserved": 0, "lon": -77.094515}, {"fusion_lat": 0.0, "name": "09e0233a71629e7563c17e4351c487a7", "is_disabled": 0, "rental_uris": {"android": "https://dc.lft.to/lastmile_qr_scan", "ios": "https://dc.lft.to/lastmile_qr_scan"}, "fusion_lon": 0.0, "lat": 38.8877625, "bike_id": "09e0233a71629e7563c17e4351c487a7", "type": "electric_scooter", "is_reserved": 0, "lon": -77.01505666666667}, {"fusion_lat": 0.0, "name": "810b1252b565b474c0f5e65887bce61e", "is_disabled": 0, "rental_uris": {"android": "https://dc.lft.to/lastmile_qr_scan", "ios": "https://dc.lft.to/lastmile_qr_scan"}, "fusion_lon": 0.0, "lat": 38.9241605, "bike_id": "810b1252b565b474c0f5e65887bce61e", "type": "electric_scooter", "is_reserved": 0, "lon": -77.0200675}, {"fusion_lat": 0.0, "name": "0152ed8e45be6a3a43fa8bcd433c5714", "is_disabled": 0, "rental_uris": {"android": "https://dc.lft.to/lastmile_qr_scan", "ios": "https://dc.lft.to/lastmile_qr_scan"}, "fusion_lon": 0.0, "lat": 38.91115, "bike_id": "0152ed8e45be6a3a43fa8bcd433c5714", "type": "electric_scooter", "is_reserved": 0, "lon": -77.0224465}, {"fusion_lat": 0.0, "name": "4f5f0fe86d8f7ec473192e6cd0061f54", "is_disabled": 0, "rental_uris": {"android": "https://dc.lft.to/lastmile_qr_scan", "ios": "https://dc.lft.to/lastmile_qr_scan"}, "fusion_lon": 0.0, "lat": 38.944509333333336, "bike_id": "4f5f0fe86d8f7ec473192e6cd0061f54", "type": "electric_scooter", "is_reserved": 0, "lon": -77.02343566666667}, {"fusion_lat": 0.0, "name": "542c4b6f1bbe28720aba633025c027e3", "is_disabled": 0, "rental_uris": {"android": "https://dc.lft.to/lastmile_qr_scan", "ios": "https://dc.lft.to/lastmile_qr_scan"}, "fusion_lon": 0.0, "lat": 38.88731933333333, "bike_id": "542c4b6f1bbe28720aba633025c027e3", "type": "electric_scooter", "is_reserved": 0, "lon": -76.98354933333333}, {"fusion_lat": 0.0, "name": "6d2568914700dd1322b7a320a345819b", "is_disabled": 0, "rental_uris": {"android": "https://dc.lft.to/lastmile_qr_scan", "ios": "https://dc.lft.to/lastmile_qr_scan"}, "fusion_lon": 0.0, "lat": 38.9314205, "bike_id": "6d2568914700dd1322b7a320a345819b", "type": "electric_scooter", "is_reserved": 0, "lon": -77.07846533333333}, {"fusion_lat": 0.0, "name": "3a3156caee23dc5276380a8b452e45d9", "is_disabled": 0, "rental_uris": {"android": "https://dc.lft.to/lastmile_qr_scan", "ios": "https://dc.lft.to/lastmile_qr_scan"}, "fusion_lon": 0.0, "lat": 38.911098333333335, "bike_id": "3a3156caee23dc5276380a8b452e45d9", "type": "electric_scooter", "is_reserved": 0, "lon": -77.0175615}, {"fusion_lat": 0.0, "name": "f0f9f11d7dd84e68e1bb85b1707943b6", "is_disabled": 0, "rental_uris": {"android": "https://dc.lft.to/lastmile_qr_scan", "ios": "https://dc.lft.to/lastmile_qr_scan"}, "fusion_lon": 0.0, "lat": 38.902548, "bike_id": "f0f9f11d7dd84e68e1bb85b1707943b6", "type": "electric_scooter", "is_reserved": 0, "lon": -77.0435785}, {"fusion_lat": 0.0, "name": "ac5ba5ed55d1dfdff763e3b477648d8a", "is_disabled": 0, "rental_uris": {"android": "https://dc.lft.to/lastmile_qr_scan", "ios": "https://dc.lft.to/lastmile_qr_scan"}, "fusion_lon": 0.0, "lat": 38.9008805, "bike_id": "ac5ba5ed55d1dfdff763e3b477648d8a", "type": "electric_scooter", "is_reserved": 0, "lon": -77.05834433333334}, {"fusion_lat": 0.0, "name": "15841e157f5235c57baaef4f0514ee89", "is_disabled": 0, "rental_uris": {"android": "https://dc.lft.to/lastmile_qr_scan", "ios": "https://dc.lft.to/lastmile_qr_scan"}, "fusion_lon": 0.0, "lat": 38.866269333333335, "bike_id": "15841e157f5235c57baaef4f0514ee89", "type": "electric_scooter", "is_reserved": 0, "lon": -76.987155}, {"fusion_lat": 0.0, "name": "649516ab520d17f8e0ecc20660017573", "is_disabled": 0, "rental_uris": {"android": "https://dc.lft.to/lastmile_qr_scan", "ios": "https://dc.lft.to/lastmile_qr_scan"}, "fusion_lon": 0.0, "lat": 38.915890833333336, "bike_id": "649516ab520d17f8e0ecc20660017573", "type": "electric_scooter", "is_reserved": 0, "lon": -77.03217366666667}, {"fusion_lat": 0.0, "name": "3f750da968b02d3fd439dd2cb0a845db", "is_disabled": 0, "rental_uris": {"android": "https://dc.lft.to/lastmile_qr_scan", "ios": "https://dc.lft.to/lastmile_qr_scan"}, "fusion_lon": 0.0, "lat": 38.91550933333333, "bike_id": "3f750da968b02d3fd439dd2cb0a845db", "type": "electric_scooter", "is_reserved": 0, "lon": -77.01201016666667}, {"fusion_lat": 0.0, "name": "00a58e77773f19feb659e316f22af66b", "is_disabled": 0, "rental_uris": {"android": "https://dc.lft.to/lastmile_qr_scan", "ios": "https://dc.lft.to/lastmile_qr_scan"}, "fusion_lon": 0.0, "lat": 38.907174, "bike_id": "00a58e77773f19feb659e316f22af66b", "type": "electric_scooter", "is_reserved": 0, "lon": -77.03439033333333}, {"fusion_lat": 0.0, "name": "91beb404549491883a26473b1d563b7d", "is_disabled": 0, "rental_uris": {"android": "https://dc.lft.to/lastmile_qr_scan", "ios": "https://dc.lft.to/lastmile_qr_scan"}, "fusion_lon": 0.0, "lat": 38.897894, "bike_id": "91beb404549491883a26473b1d563b7d", "type": "electric_scooter", "is_reserved": 0, "lon": -77.03349566666667}, {"fusion_lat": 0.0, "name": "dd76b11a064aa22ba62507ca287d4380", "is_disabled": 0, "rental_uris": {"android": "https://dc.lft.to/lastmile_qr_scan", "ios": "https://dc.lft.to/lastmile_qr_scan"}, "fusion_lon": 0.0, "lat": 38.905653, "bike_id": "dd76b11a064aa22ba62507ca287d4380", "type": "electric_scooter", "is_reserved": 0, "lon": -77.03860633333333}, {"fusion_lat": 0.0, "name": "3edabbe559d670b11ea473b6c2635de6", "is_disabled": 0, "rental_uris": {"android": "https://dc.lft.to/lastmile_qr_scan", "ios": "https://dc.lft.to/lastmile_qr_scan"}, "fusion_lon": 0.0, "lat": 38.94183833333334, "bike_id": "3edabbe559d670b11ea473b6c2635de6", "type": "electric_scooter", "is_reserved": 0, "lon": -77.02497666666666}, {"fusion_lat": 0.0, "name": "9ccdd8014ac631db0ba2941097488c57", "is_disabled": 0, "rental_uris": {"android": "https://dc.lft.to/lastmile_qr_scan", "ios": "https://dc.lft.to/lastmile_qr_scan"}, "fusion_lon": 0.0, "lat": 38.906522833333334, "bike_id": "9ccdd8014ac631db0ba2941097488c57", "type": "electric_scooter", "is_reserved": 0, "lon": -77.02950316666667}, {"fusion_lat": 0.0, "name": "52cf1facae88c14676884a00d2084930", "is_disabled": 0, "rental_uris": {"android": "https://dc.lft.to/lastmile_qr_scan", "ios": "https://dc.lft.to/lastmile_qr_scan"}, "fusion_lon": 0.0, "lat": 38.922200333333336, "bike_id": "52cf1facae88c14676884a00d2084930", "type": "electric_scooter", "is_reserved": 0, "lon": -77.01811766666667}, {"fusion_lat": 0.0, "name": "3407876214ed8ba88b797f05fc32f370", "is_disabled": 0, "rental_uris": {"android": "https://dc.lft.to/lastmile_qr_scan", "ios": "https://dc.lft.to/lastmile_qr_scan"}, "fusion_lon": 0.0, "lat": 38.9006395, "bike_id": "3407876214ed8ba88b797f05fc32f370", "type": "electric_scooter", "is_reserved": 0, "lon": -76.933872}, {"fusion_lat": 0.0, "name": "eb851742d9d2a2314807343eae265bf5", "is_disabled": 0, "rental_uris": {"android": "https://dc.lft.to/lastmile_qr_scan", "ios": "https://dc.lft.to/lastmile_qr_scan"}, "fusion_lon": 0.0, "lat": 38.934535333333336, "bike_id": "eb851742d9d2a2314807343eae265bf5", "type": "electric_scooter", "is_reserved": 0, "lon": -77.02353833333333}, {"fusion_lat": 0.0, "name": "7479a9c391081f6fdacd5bfeee1da537", "is_disabled": 0, "rental_uris": {"android": "https://dc.lft.to/lastmile_qr_scan", "ios": "https://dc.lft.to/lastmile_qr_scan"}, "fusion_lon": 0.0, "lat": 38.845079, "bike_id": "7479a9c391081f6fdacd5bfeee1da537", "type": "electric_bike", "is_reserved": 0, "lon": -76.99352116666667}, {"fusion_lat": 0.0, "name": "947b1a1b6d2676e7621202e90f414c6c", "is_disabled": 0, "rental_uris": {"android": "https://dc.lft.to/lastmile_qr_scan", "ios": "https://dc.lft.to/lastmile_qr_scan"}, "fusion_lon": 0.0, "lat": 38.956239833333335, "bike_id": "947b1a1b6d2676e7621202e90f414c6c", "type": "electric_scooter", "is_reserved": 0, "lon": -77.02836983333333}, {"fusion_lat": 0.0, "name": "9795649bdf10f12ab75234f967403ba3", "is_disabled": 0, "rental_uris": {"android": "https://dc.lft.to/lastmile_qr_scan", "ios": "https://dc.lft.to/lastmile_qr_scan"}, "fusion_lon": 0.0, "lat": 38.92014116666667, "bike_id": "9795649bdf10f12ab75234f967403ba3", "type": "electric_scooter", "is_reserved": 0, "lon": -77.02505483333333}, {"fusion_lat": 0.0, "name": "9cb6b347e59dbdac348b465051b0d6a6", "is_disabled": 0, "rental_uris": {"android": "https://dc.lft.to/lastmile_qr_scan", "ios": "https://dc.lft.to/lastmile_qr_scan"}, "fusion_lon": 0.0, "lat": 38.857834833333335, "bike_id": "9cb6b347e59dbdac348b465051b0d6a6", "type": "electric_scooter", "is_reserved": 0, "lon": -76.97296666666666}, {"fusion_lat": 0.0, "name": "7ac5d3ab46697fb93efead92c29250bc", "is_disabled": 0, "rental_uris": {"android": "https://dc.lft.to/lastmile_qr_scan", "ios": "https://dc.lft.to/lastmile_qr_scan"}, "fusion_lon": 0.0, "lat": 38.93750333333333, "bike_id": "7ac5d3ab46697fb93efead92c29250bc", "type": "electric_scooter", "is_reserved": 0, "lon": -77.02528283333334}, {"fusion_lat": 0.0, "name": "a8f5710ba756340e7096feca6cd767ad", "is_disabled": 0, "rental_uris": {"android": "https://dc.lft.to/lastmile_qr_scan", "ios": "https://dc.lft.to/lastmile_qr_scan"}, "fusion_lon": 0.0, "lat": 38.90388983333333, "bike_id": "a8f5710ba756340e7096feca6cd767ad", "type": "electric_scooter", "is_reserved": 0, "lon": -77.06127583333334}, {"fusion_lat": 0.0, "name": "013da7a5a29870a0ba21e41523a9aadd", "is_disabled": 0, "rental_uris": {"android": "https://dc.lft.to/lastmile_qr_scan", "ios": "https://dc.lft.to/lastmile_qr_scan"}, "fusion_lon": 0.0, "lat": 38.90072166666667, "bike_id": "013da7a5a29870a0ba21e41523a9aadd", "type": "electric_scooter", "is_reserved": 0, "lon": -77.047925}, {"fusion_lat": 0.0, "name": "c6c79685acb76db68becd2fe18ac62d4", "is_disabled": 0, "rental_uris": {"android": "https://dc.lft.to/lastmile_qr_scan", "ios": "https://dc.lft.to/lastmile_qr_scan"}, "fusion_lon": 0.0, "lat": 38.89565316666667, "bike_id": "c6c79685acb76db68becd2fe18ac62d4", "type": "electric_bike", "is_reserved": 0, "lon": -77.12738066666667}, {"fusion_lat": 0.0, "name": "0301560fe623c0d4156933709caf4ced", "is_disabled": 0, "rental_uris": {"android": "https://dc.lft.to/lastmile_qr_scan", "ios": "https://dc.lft.to/lastmile_qr_scan"}, "fusion_lon": 0.0, "lat": 38.90388466666667, "bike_id": "0301560fe623c0d4156933709caf4ced", "type": "electric_scooter", "is_reserved": 0, "lon": -77.0177445}, {"fusion_lat": 0.0, "name": "71d7a767841afca9756f17a94b767789", "is_disabled": 0, "rental_uris": {"android": "https://dc.lft.to/lastmile_qr_scan", "ios": "https://dc.lft.to/lastmile_qr_scan"}, "fusion_lon": 0.0, "lat": 38.943743166666664, "bike_id": "71d7a767841afca9756f17a94b767789", "type": "electric_scooter", "is_reserved": 0, "lon": -77.06347516666666}, {"fusion_lat": 0.0, "name": "66eb28c6bf42ea10ea513b181c7fbec1", "is_disabled": 0, "rental_uris": {"android": "https://dc.lft.to/lastmile_qr_scan", "ios": "https://dc.lft.to/lastmile_qr_scan"}, "fusion_lon": 0.0, "lat": 38.90890133333333, "bike_id": "66eb28c6bf42ea10ea513b181c7fbec1", "type": "electric_scooter", "is_reserved": 0, "lon": -77.06425016666667}, {"fusion_lat": 0.0, "name": "137ff4723b58d118b3527de0c8addd7b", "is_disabled": 0, "rental_uris": {"android": "https://dc.lft.to/lastmile_qr_scan", "ios": "https://dc.lft.to/lastmile_qr_scan"}, "fusion_lon": 0.0, "lat": 38.90032583333333, "bike_id": "137ff4723b58d118b3527de0c8addd7b", "type": "electric_scooter", "is_reserved": 0, "lon": -77.00181533333334}, {"fusion_lat": 0.0, "name": "ad012d6f3122099410796b5965846241", "is_disabled": 0, "rental_uris": {"android": "https://dc.lft.to/lastmile_qr_scan", "ios": "https://dc.lft.to/lastmile_qr_scan"}, "fusion_lon": 0.0, "lat": 38.91802416666667, "bike_id": "ad012d6f3122099410796b5965846241", "type": "electric_scooter", "is_reserved": 0, "lon": -77.03661933333333}, {"fusion_lat": 0.0, "name": "372e5abf0e548e187e36d21118b98402", "is_disabled": 0, "rental_uris": {"android": "https://dc.lft.to/lastmile_qr_scan", "ios": "https://dc.lft.to/lastmile_qr_scan"}, "fusion_lon": 0.0, "lat": 38.907224, "bike_id": "372e5abf0e548e187e36d21118b98402", "type": "electric_scooter", "is_reserved": 0, "lon": -76.99832416666666}, {"fusion_lat": 0.0, "name": "dd87854a92fcf454f5e0d21e1cdca319", "is_disabled": 0, "rental_uris": {"android": "https://dc.lft.to/lastmile_qr_scan", "ios": "https://dc.lft.to/lastmile_qr_scan"}, "fusion_lon": 0.0, "lat": 38.9168915, "bike_id": "dd87854a92fcf454f5e0d21e1cdca319", "type": "electric_scooter", "is_reserved": 0, "lon": -77.0376405}, {"fusion_lat": 0.0, "name": "192e74da45c57504eadb713df220c9d0", "is_disabled": 0, "rental_uris": {"android": "https://dc.lft.to/lastmile_qr_scan", "ios": "https://dc.lft.to/lastmile_qr_scan"}, "fusion_lon": 0.0, "lat": 38.842811833333336, "bike_id": "192e74da45c57504eadb713df220c9d0", "type": "electric_bike", "is_reserved": 0, "lon": -77.04503083333333}, {"fusion_lat": 0.0, "name": "096aa6ea5806112d06660e143f371af3", "is_disabled": 0, "rental_uris": {"android": "https://dc.lft.to/lastmile_qr_scan", "ios": "https://dc.lft.to/lastmile_qr_scan"}, "fusion_lon": 0.0, "lat": 38.910973166666665, "bike_id": "096aa6ea5806112d06660e143f371af3", "type": "electric_scooter", "is_reserved": 0, "lon": -77.03207133333333}, {"fusion_lat": 0.0, "name": "3ebcaad6b65f6867fdf0fbdf24bbd0a1", "is_disabled": 0, "rental_uris": {"android": "https://dc.lft.to/lastmile_qr_scan", "ios": "https://dc.lft.to/lastmile_qr_scan"}, "fusion_lon": 0.0, "lat": 38.886587666666664, "bike_id": "3ebcaad6b65f6867fdf0fbdf24bbd0a1", "type": "electric_bike", "is_reserved": 0, "lon": -77.1623665}, {"fusion_lat": 0.0, "name": "a618b86d0d6a4ee7096b9dd41f144d87", "is_disabled": 0, "rental_uris": {"android": "https://dc.lft.to/lastmile_qr_scan", "ios": "https://dc.lft.to/lastmile_qr_scan"}, "fusion_lon": 0.0, "lat": 38.909572833333335, "bike_id": "a618b86d0d6a4ee7096b9dd41f144d87", "type": "electric_scooter", "is_reserved": 0, "lon": -77.02492466666666}, {"fusion_lat": 0.0, "name": "33017ae625f2200151b3548fd90fbc96", "is_disabled": 0, "rental_uris": {"android": "https://dc.lft.to/lastmile_qr_scan", "ios": "https://dc.lft.to/lastmile_qr_scan"}, "fusion_lon": 0.0, "lat": 38.91744, "bike_id": "33017ae625f2200151b3548fd90fbc96", "type": "electric_scooter", "is_reserved": 0, "lon": -77.04163}, {"fusion_lat": 0.0, "name": "f90819e0e17962845b1c645bc5e8f5d7", "is_disabled": 0, "rental_uris": {"android": "https://dc.lft.to/lastmile_qr_scan", "ios": "https://dc.lft.to/lastmile_qr_scan"}, "fusion_lon": 0.0, "lat": 38.92944266666667, "bike_id": "f90819e0e17962845b1c645bc5e8f5d7", "type": "electric_scooter", "is_reserved": 0, "lon": -77.03468616666666}, {"fusion_lat": 0.0, "name": "6712a3ad8611a8f883bdb046b77ef023", "is_disabled": 0, "rental_uris": {"android": "https://dc.lft.to/lastmile_qr_scan", "ios": "https://dc.lft.to/lastmile_qr_scan"}, "fusion_lon": 0.0, "lat": 38.8530855, "bike_id": "6712a3ad8611a8f883bdb046b77ef023", "type": "electric_bike", "is_reserved": 0, "lon": -77.0460015}, {"fusion_lat": 0.0, "name": "13fde7ac50568ce2ed194103f06870d4", "is_disabled": 0, "rental_uris": {"android": "https://dc.lft.to/lastmile_qr_scan", "ios": "https://dc.lft.to/lastmile_qr_scan"}, "fusion_lon": 0.0, "lat": 38.89730866666667, "bike_id": "13fde7ac50568ce2ed194103f06870d4", "type": "electric_scooter", "is_reserved": 0, "lon": -77.04354233333333}, {"fusion_lat": 0.0, "name": "3e81b4259c1a58aee37567d4c48555d2", "is_disabled": 0, "rental_uris": {"android": "https://dc.lft.to/lastmile_qr_scan", "ios": "https://dc.lft.to/lastmile_qr_scan"}, "fusion_lon": 0.0, "lat": 38.92819633333333, "bike_id": "3e81b4259c1a58aee37567d4c48555d2", "type": "electric_scooter", "is_reserved": 0, "lon": -77.0327865}, {"fusion_lat": 0.0, "name": "3d93fc6bd2d35992691fe38d3fcd7a3d", "is_disabled": 0, "rental_uris": {"android": "https://dc.lft.to/lastmile_qr_scan", "ios": "https://dc.lft.to/lastmile_qr_scan"}, "fusion_lon": 0.0, "lat": 38.906352, "bike_id": "3d93fc6bd2d35992691fe38d3fcd7a3d", "type": "electric_scooter", "is_reserved": 0, "lon": -77.03150933333333}, {"fusion_lat": 0.0, "name": "f222b5697da471cfab9603f5026d2b36", "is_disabled": 0, "rental_uris": {"android": "https://dc.lft.to/lastmile_qr_scan", "ios": "https://dc.lft.to/lastmile_qr_scan"}, "fusion_lon": 0.0, "lat": 38.90380116666667, "bike_id": "f222b5697da471cfab9603f5026d2b36", "type": "electric_scooter", "is_reserved": 0, "lon": -77.061123}, {"fusion_lat": 0.0, "name": "166ea4c003128bdd4f9485269f410961", "is_disabled": 0, "rental_uris": {"android": "https://dc.lft.to/lastmile_qr_scan", "ios": "https://dc.lft.to/lastmile_qr_scan"}, "fusion_lon": 0.0, "lat": 38.8872625, "bike_id": "166ea4c003128bdd4f9485269f410961", "type": "electric_scooter", "is_reserved": 0, "lon": -76.98356383333333}, {"fusion_lat": 0.0, "name": "cfdaa8b5dd8b2123170bf8dda218963c", "is_disabled": 0, "rental_uris": {"android": "https://dc.lft.to/lastmile_qr_scan", "ios": "https://dc.lft.to/lastmile_qr_scan"}, "fusion_lon": 0.0, "lat": 38.9318765, "bike_id": "cfdaa8b5dd8b2123170bf8dda218963c", "type": "electric_scooter", "is_reserved": 0, "lon": -77.04294983333334}, {"fusion_lat": 0.0, "name": "07c2f422eb8ead538412c5903b9a5122", "is_disabled": 0, "rental_uris": {"android": "https://dc.lft.to/lastmile_qr_scan", "ios": "https://dc.lft.to/lastmile_qr_scan"}, "fusion_lon": 0.0, "lat": 38.904014, "bike_id": "07c2f422eb8ead538412c5903b9a5122", "type": "electric_scooter", "is_reserved": 0, "lon": -76.980882}, {"fusion_lat": 0.0, "name": "94524ca12c60f6174c1d5e3782c2d715", "is_disabled": 0, "rental_uris": {"android": "https://dc.lft.to/lastmile_qr_scan", "ios": "https://dc.lft.to/lastmile_qr_scan"}, "fusion_lon": 0.0, "lat": 38.88755883333333, "bike_id": "94524ca12c60f6174c1d5e3782c2d715", "type": "electric_scooter", "is_reserved": 0, "lon": -77.0025675}, {"fusion_lat": 0.0, "name": "4aba30d4e805fe0500697bf2c1b10db4", "is_disabled": 0, "rental_uris": {"android": "https://dc.lft.to/lastmile_qr_scan", "ios": "https://dc.lft.to/lastmile_qr_scan"}, "fusion_lon": 0.0, "lat": 38.9243685, "bike_id": "4aba30d4e805fe0500697bf2c1b10db4", "type": "electric_scooter", "is_reserved": 0, "lon": -77.000686}, {"fusion_lat": 0.0, "name": "63f939a1766044c3fecf7d5c5a3d1e56", "is_disabled": 0, "rental_uris": {"android": "https://dc.lft.to/lastmile_qr_scan", "ios": "https://dc.lft.to/lastmile_qr_scan"}, "fusion_lon": 0.0, "lat": 38.84135633333333, "bike_id": "63f939a1766044c3fecf7d5c5a3d1e56", "type": "electric_bike", "is_reserved": 0, "lon": -76.94762233333333}, {"fusion_lat": 0.0, "name": "e439a373728ada6d2ca58235e63a8302", "is_disabled": 0, "rental_uris": {"android": "https://dc.lft.to/lastmile_qr_scan", "ios": "https://dc.lft.to/lastmile_qr_scan"}, "fusion_lon": 0.0, "lat": 38.92194383333333, "bike_id": "e439a373728ada6d2ca58235e63a8302", "type": "electric_scooter", "is_reserved": 0, "lon": -77.0504985}, {"fusion_lat": 0.0, "name": "3501f535e016b99ac6a43ee18c741ae3", "is_disabled": 0, "rental_uris": {"android": "https://dc.lft.to/lastmile_qr_scan", "ios": "https://dc.lft.to/lastmile_qr_scan"}, "fusion_lon": 0.0, "lat": 38.90557033333333, "bike_id": "3501f535e016b99ac6a43ee18c741ae3", "type": "electric_scooter", "is_reserved": 0, "lon": -77.062585}, {"fusion_lat": 0.0, "name": "2abf6ee9b66d576804836bb5778eb21c", "is_disabled": 0, "rental_uris": {"android": "https://dc.lft.to/lastmile_qr_scan", "ios": "https://dc.lft.to/lastmile_qr_scan"}, "fusion_lon": 0.0, "lat": 38.911175166666666, "bike_id": "2abf6ee9b66d576804836bb5778eb21c", "type": "electric_scooter", "is_reserved": 0, "lon": -77.03172566666667}, {"fusion_lat": 0.0, "name": "17e16ced32e1d9a22a3bdd19dfdeefaa", "is_disabled": 0, "rental_uris": {"android": "https://dc.lft.to/lastmile_qr_scan", "ios": "https://dc.lft.to/lastmile_qr_scan"}, "fusion_lon": 0.0, "lat": 38.88508916666667, "bike_id": "17e16ced32e1d9a22a3bdd19dfdeefaa", "type": "electric_scooter", "is_reserved": 0, "lon": -77.02086116666666}, {"fusion_lat": 0.0, "name": "14d0159bfc6d947ee6e52aaa24182a1f", "is_disabled": 0, "rental_uris": {"android": "https://dc.lft.to/lastmile_qr_scan", "ios": "https://dc.lft.to/lastmile_qr_scan"}, "fusion_lon": 0.0, "lat": 38.87635066666667, "bike_id": "14d0159bfc6d947ee6e52aaa24182a1f", "type": "electric_scooter", "is_reserved": 0, "lon": -77.00913233333333}, {"fusion_lat": 0.0, "name": "62bed0685713ea87ba2a9f52390e1506", "is_disabled": 0, "rental_uris": {"android": "https://dc.lft.to/lastmile_qr_scan", "ios": "https://dc.lft.to/lastmile_qr_scan"}, "fusion_lon": 0.0, "lat": 38.91859983333333, "bike_id": "62bed0685713ea87ba2a9f52390e1506", "type": "electric_scooter", "is_reserved": 0, "lon": -77.036558}, {"fusion_lat": 0.0, "name": "878bd9906e251e6e8ba09da73a4b649b", "is_disabled": 0, "rental_uris": {"android": "https://dc.lft.to/lastmile_qr_scan", "ios": "https://dc.lft.to/lastmile_qr_scan"}, "fusion_lon": 0.0, "lat": 38.93584416666667, "bike_id": "878bd9906e251e6e8ba09da73a4b649b", "type": "electric_scooter", "is_reserved": 0, "lon": -77.03358783333333}, {"fusion_lat": 0.0, "name": "7cd7a6eb65fd5c27f652a32608c28bef", "is_disabled": 0, "rental_uris": {"android": "https://dc.lft.to/lastmile_qr_scan", "ios": "https://dc.lft.to/lastmile_qr_scan"}, "fusion_lon": 0.0, "lat": 38.92881216666667, "bike_id": "7cd7a6eb65fd5c27f652a32608c28bef", "type": "electric_scooter", "is_reserved": 0, "lon": -77.0326795}, {"fusion_lat": 0.0, "name": "34168f3d365a8e939341bc5050f88a1c", "is_disabled": 0, "rental_uris": {"android": "https://dc.lft.to/lastmile_qr_scan", "ios": "https://dc.lft.to/lastmile_qr_scan"}, "fusion_lon": 0.0, "lat": 39.03884333333333, "bike_id": "34168f3d365a8e939341bc5050f88a1c", "type": "electric_bike", "is_reserved": 0, "lon": -77.05055166666666}, {"fusion_lat": 0.0, "name": "6e3da2e9fd90d3b4735aac608125712e", "is_disabled": 0, "rental_uris": {"android": "https://dc.lft.to/lastmile_qr_scan", "ios": "https://dc.lft.to/lastmile_qr_scan"}, "fusion_lon": 0.0, "lat": 38.90501833333333, "bike_id": "6e3da2e9fd90d3b4735aac608125712e", "type": "electric_scooter", "is_reserved": 0, "lon": -77.06768616666666}, {"fusion_lat": 0.0, "name": "84464dc16f938c199aa20007715cf9d2", "is_disabled": 0, "rental_uris": {"android": "https://dc.lft.to/lastmile_qr_scan", "ios": "https://dc.lft.to/lastmile_qr_scan"}, "fusion_lon": 0.0, "lat": 38.89932833333334, "bike_id": "84464dc16f938c199aa20007715cf9d2", "type": "electric_scooter", "is_reserved": 0, "lon": -76.99727933333334}, {"fusion_lat": 0.0, "name": "207d6b721d199242eb3d0c9c76f8b460", "is_disabled": 0, "rental_uris": {"android": "https://dc.lft.to/lastmile_qr_scan", "ios": "https://dc.lft.to/lastmile_qr_scan"}, "fusion_lon": 0.0, "lat": 38.89677233333333, "bike_id": "207d6b721d199242eb3d0c9c76f8b460", "type": "electric_scooter", "is_reserved": 0, "lon": -77.05099116666666}, {"fusion_lat": 0.0, "name": "8b8acf882a218e1c4f37daad547b3663", "is_disabled": 0, "rental_uris": {"android": "https://dc.lft.to/lastmile_qr_scan", "ios": "https://dc.lft.to/lastmile_qr_scan"}, "fusion_lon": 0.0, "lat": 38.92449333333333, "bike_id": "8b8acf882a218e1c4f37daad547b3663", "type": "electric_scooter", "is_reserved": 0, "lon": -77.008775}, {"fusion_lat": 0.0, "name": "29b6a36dfc47296aadf27611eb8dcbb2", "is_disabled": 0, "rental_uris": {"android": "https://dc.lft.to/lastmile_qr_scan", "ios": "https://dc.lft.to/lastmile_qr_scan"}, "fusion_lon": 0.0, "lat": 38.905317833333335, "bike_id": "29b6a36dfc47296aadf27611eb8dcbb2", "type": "electric_scooter", "is_reserved": 0, "lon": -77.0219325}, {"fusion_lat": 0.0, "name": "076c049373bd368cc885f42b33341eda", "is_disabled": 0, "rental_uris": {"android": "https://dc.lft.to/lastmile_qr_scan", "ios": "https://dc.lft.to/lastmile_qr_scan"}, "fusion_lon": 0.0, "lat": 38.929861333333335, "bike_id": "076c049373bd368cc885f42b33341eda", "type": "electric_scooter", "is_reserved": 0, "lon": -77.03238183333333}, {"fusion_lat": 0.0, "name": "9bbd9d6784b3db1232767714827effcf", "is_disabled": 0, "rental_uris": {"android": "https://dc.lft.to/lastmile_qr_scan", "ios": "https://dc.lft.to/lastmile_qr_scan"}, "fusion_lon": 0.0, "lat": 38.9024275, "bike_id": "9bbd9d6784b3db1232767714827effcf", "type": "electric_scooter", "is_reserved": 0, "lon": -77.043658}, {"fusion_lat": 0.0, "name": "6f9d14c5054b48ae7fff8136de41fd8d", "is_disabled": 0, "rental_uris": {"android": "https://dc.lft.to/lastmile_qr_scan", "ios": "https://dc.lft.to/lastmile_qr_scan"}, "fusion_lon": 0.0, "lat": 38.883056833333335, "bike_id": "6f9d14c5054b48ae7fff8136de41fd8d", "type": "electric_scooter", "is_reserved": 0, "lon": -77.01389916666666}, {"fusion_lat": 0.0, "name": "668f73212959d04e7d78f9de8ac3b5db", "is_disabled": 0, "rental_uris": {"android": "https://dc.lft.to/lastmile_qr_scan", "ios": "https://dc.lft.to/lastmile_qr_scan"}, "fusion_lon": 0.0, "lat": 38.95232983333333, "bike_id": "668f73212959d04e7d78f9de8ac3b5db", "type": "electric_scooter", "is_reserved": 0, "lon": -76.99008133333334}, {"fusion_lat": 0.0, "name": "036c33766032820590a2197d646cde7c", "is_disabled": 0, "rental_uris": {"android": "https://dc.lft.to/lastmile_qr_scan", "ios": "https://dc.lft.to/lastmile_qr_scan"}, "fusion_lon": 0.0, "lat": 38.86015883333334, "bike_id": "036c33766032820590a2197d646cde7c", "type": "electric_bike", "is_reserved": 0, "lon": -77.12806166666667}, {"fusion_lat": 0.0, "name": "65573156c0259a9f08317d2ea2eea99e", "is_disabled": 0, "rental_uris": {"android": "https://dc.lft.to/lastmile_qr_scan", "ios": "https://dc.lft.to/lastmile_qr_scan"}, "fusion_lon": 0.0, "lat": 38.90409916666667, "bike_id": "65573156c0259a9f08317d2ea2eea99e", "type": "electric_scooter", "is_reserved": 0, "lon": -77.02063933333334}, {"fusion_lat": 0.0, "name": "928714281bf526c6c14545abf168baa7", "is_disabled": 0, "rental_uris": {"android": "https://dc.lft.to/lastmile_qr_scan", "ios": "https://dc.lft.to/lastmile_qr_scan"}, "fusion_lon": 0.0, "lat": 38.929516666666665, "bike_id": "928714281bf526c6c14545abf168baa7", "type": "electric_scooter", "is_reserved": 0, "lon": -77.028804}, {"fusion_lat": 0.0, "name": "16acc9a80ced97224d00cce016764e61", "is_disabled": 0, "rental_uris": {"android": "https://dc.lft.to/lastmile_qr_scan", "ios": "https://dc.lft.to/lastmile_qr_scan"}, "fusion_lon": 0.0, "lat": 38.930786166666664, "bike_id": "16acc9a80ced97224d00cce016764e61", "type": "electric_scooter", "is_reserved": 0, "lon": -77.07762866666667}, {"fusion_lat": 0.0, "name": "4ee6ecf002dd8d7d9d1646dfae5fd179", "is_disabled": 0, "rental_uris": {"android": "https://dc.lft.to/lastmile_qr_scan", "ios": "https://dc.lft.to/lastmile_qr_scan"}, "fusion_lon": 0.0, "lat": 38.904101833333335, "bike_id": "4ee6ecf002dd8d7d9d1646dfae5fd179", "type": "electric_scooter", "is_reserved": 0, "lon": -76.97330683333334}, {"fusion_lat": 0.0, "name": "048a11a690d5211e07bc8a936e6b44b8", "is_disabled": 0, "rental_uris": {"android": "https://dc.lft.to/lastmile_qr_scan", "ios": "https://dc.lft.to/lastmile_qr_scan"}, "fusion_lon": 0.0, "lat": 38.901537833333336, "bike_id": "048a11a690d5211e07bc8a936e6b44b8", "type": "electric_scooter", "is_reserved": 0, "lon": -77.03321116666666}, {"fusion_lat": 0.0, "name": "616014b00f8ba01dd1d1a18d854faf82", "is_disabled": 0, "rental_uris": {"android": "https://dc.lft.to/lastmile_qr_scan", "ios": "https://dc.lft.to/lastmile_qr_scan"}, "fusion_lon": 0.0, "lat": 38.90562883333333, "bike_id": "616014b00f8ba01dd1d1a18d854faf82", "type": "electric_scooter", "is_reserved": 0, "lon": -77.0345995}, {"fusion_lat": 0.0, "name": "0bb0076f9f39a413aadfd8c4b46aec7c", "is_disabled": 0, "rental_uris": {"android": "https://dc.lft.to/lastmile_qr_scan", "ios": "https://dc.lft.to/lastmile_qr_scan"}, "fusion_lon": 0.0, "lat": 38.907320166666665, "bike_id": "0bb0076f9f39a413aadfd8c4b46aec7c", "type": "electric_scooter", "is_reserved": 0, "lon": -77.01211266666667}, {"fusion_lat": 0.0, "name": "71c5af157fe135a9e0dae2109ae35d41", "is_disabled": 0, "rental_uris": {"android": "https://dc.lft.to/lastmile_qr_scan", "ios": "https://dc.lft.to/lastmile_qr_scan"}, "fusion_lon": 0.0, "lat": 38.90154233333333, "bike_id": "71c5af157fe135a9e0dae2109ae35d41", "type": "electric_scooter", "is_reserved": 0, "lon": -77.03227366666667}, {"fusion_lat": 0.0, "name": "0663af9da8c4b969c3c756edb6cf0716", "is_disabled": 0, "rental_uris": {"android": "https://dc.lft.to/lastmile_qr_scan", "ios": "https://dc.lft.to/lastmile_qr_scan"}, "fusion_lon": 0.0, "lat": 38.90259283333333, "bike_id": "0663af9da8c4b969c3c756edb6cf0716", "type": "electric_scooter", "is_reserved": 0, "lon": -76.97449816666666}, {"fusion_lat": 0.0, "name": "5bc85412a6cbecdd6fc2ca50c3d6b81e", "is_disabled": 0, "rental_uris": {"android": "https://dc.lft.to/lastmile_qr_scan", "ios": "https://dc.lft.to/lastmile_qr_scan"}, "fusion_lon": 0.0, "lat": 38.8962385, "bike_id": "5bc85412a6cbecdd6fc2ca50c3d6b81e", "type": "electric_scooter", "is_reserved": 0, "lon": -77.00901283333333}, {"fusion_lat": 0.0, "name": "c2841083ec44bd75d555741a6c3b6742", "is_disabled": 0, "rental_uris": {"android": "https://dc.lft.to/lastmile_qr_scan", "ios": "https://dc.lft.to/lastmile_qr_scan"}, "fusion_lon": 0.0, "lat": 38.93526166666667, "bike_id": "c2841083ec44bd75d555741a6c3b6742", "type": "electric_scooter", "is_reserved": 0, "lon": -77.0726465}, {"fusion_lat": 0.0, "name": "68ebbc8b76b29784e9c0b1c19a643a97", "is_disabled": 0, "rental_uris": {"android": "https://dc.lft.to/lastmile_qr_scan", "ios": "https://dc.lft.to/lastmile_qr_scan"}, "fusion_lon": 0.0, "lat": 38.87889916666666, "bike_id": "68ebbc8b76b29784e9c0b1c19a643a97", "type": "electric_scooter", "is_reserved": 0, "lon": -77.0225325}, {"fusion_lat": 0.0, "name": "70ad6b69f69fb4a6ba478afcd07afc69", "is_disabled": 0, "rental_uris": {"android": "https://dc.lft.to/lastmile_qr_scan", "ios": "https://dc.lft.to/lastmile_qr_scan"}, "fusion_lon": 0.0, "lat": 39.05252083333333, "bike_id": "70ad6b69f69fb4a6ba478afcd07afc69", "type": "electric_bike", "is_reserved": 0, "lon": -77.08068916666667}, {"fusion_lat": 0.0, "name": "c5ab72648ea4e0c1c34998e91d214798", "is_disabled": 0, "rental_uris": {"android": "https://dc.lft.to/lastmile_qr_scan", "ios": "https://dc.lft.to/lastmile_qr_scan"}, "fusion_lon": 0.0, "lat": 38.898743833333334, "bike_id": "c5ab72648ea4e0c1c34998e91d214798", "type": "electric_scooter", "is_reserved": 0, "lon": -76.9318685}, {"fusion_lat": 0.0, "name": "4ba2cb6410d8cc7e8950f5e3affc5edc", "is_disabled": 0, "rental_uris": {"android": "https://dc.lft.to/lastmile_qr_scan", "ios": "https://dc.lft.to/lastmile_qr_scan"}, "fusion_lon": 0.0, "lat": 38.9053445, "bike_id": "4ba2cb6410d8cc7e8950f5e3affc5edc", "type": "electric_scooter", "is_reserved": 0, "lon": -77.02197983333333}, {"fusion_lat": 0.0, "name": "f6ec9dbc3b7ff07556a7ca157d2cc334", "is_disabled": 0, "rental_uris": {"android": "https://dc.lft.to/lastmile_qr_scan", "ios": "https://dc.lft.to/lastmile_qr_scan"}, "fusion_lon": 0.0, "lat": 38.883324333333334, "bike_id": "f6ec9dbc3b7ff07556a7ca157d2cc334", "type": "electric_scooter", "is_reserved": 0, "lon": -77.01721733333333}, {"fusion_lat": 0.0, "name": "ff1f00f7a19ca0b307b843f22911a0f5", "is_disabled": 0, "rental_uris": {"android": "https://dc.lft.to/lastmile_qr_scan", "ios": "https://dc.lft.to/lastmile_qr_scan"}, "fusion_lon": 0.0, "lat": 38.847551333333335, "bike_id": "ff1f00f7a19ca0b307b843f22911a0f5", "type": "electric_scooter", "is_reserved": 0, "lon": -76.99500116666667}, {"fusion_lat": 0.0, "name": "3b149a71e92fa689497be6010e4cdab9", "is_disabled": 0, "rental_uris": {"android": "https://dc.lft.to/lastmile_qr_scan", "ios": "https://dc.lft.to/lastmile_qr_scan"}, "fusion_lon": 0.0, "lat": 38.87404216666667, "bike_id": "3b149a71e92fa689497be6010e4cdab9", "type": "electric_scooter", "is_reserved": 0, "lon": -77.00000783333333}, {"fusion_lat": 0.0, "name": "77e42f8416fa408fb4f7c449928ad771", "is_disabled": 0, "rental_uris": {"android": "https://dc.lft.to/lastmile_qr_scan", "ios": "https://dc.lft.to/lastmile_qr_scan"}, "fusion_lon": 0.0, "lat": 38.91471516666667, "bike_id": "77e42f8416fa408fb4f7c449928ad771", "type": "electric_scooter", "is_reserved": 0, "lon": -77.02398933333333}, {"fusion_lat": 0.0, "name": "1ed63e4907897238d5e23efe0ca641ae", "is_disabled": 0, "rental_uris": {"android": "https://dc.lft.to/lastmile_qr_scan", "ios": "https://dc.lft.to/lastmile_qr_scan"}, "fusion_lon": 0.0, "lat": 38.91693583333333, "bike_id": "1ed63e4907897238d5e23efe0ca641ae", "type": "electric_scooter", "is_reserved": 0, "lon": -77.0289285}, {"fusion_lat": 0.0, "name": "883126635bca2757faaaf577687d1a49", "is_disabled": 0, "rental_uris": {"android": "https://dc.lft.to/lastmile_qr_scan", "ios": "https://dc.lft.to/lastmile_qr_scan"}, "fusion_lon": 0.0, "lat": 38.903962166666666, "bike_id": "883126635bca2757faaaf577687d1a49", "type": "electric_scooter", "is_reserved": 0, "lon": -77.02361866666666}, {"fusion_lat": 0.0, "name": "9ed92eb9947ed65d051f781961e63ec6", "is_disabled": 0, "rental_uris": {"android": "https://dc.lft.to/lastmile_qr_scan", "ios": "https://dc.lft.to/lastmile_qr_scan"}, "fusion_lon": 0.0, "lat": 38.87931866666667, "bike_id": "9ed92eb9947ed65d051f781961e63ec6", "type": "electric_scooter", "is_reserved": 0, "lon": -77.02391883333334}, {"fusion_lat": 0.0, "name": "9ac2cd05a54ef0062969f7a12d4987c4", "is_disabled": 0, "rental_uris": {"android": "https://dc.lft.to/lastmile_qr_scan", "ios": "https://dc.lft.to/lastmile_qr_scan"}, "fusion_lon": 0.0, "lat": 38.92164566666667, "bike_id": "9ac2cd05a54ef0062969f7a12d4987c4", "type": "electric_scooter", "is_reserved": 0, "lon": -76.99808466666667}, {"fusion_lat": 0.0, "name": "b0d514d8363b119e600eccfb44b4eea5", "is_disabled": 0, "rental_uris": {"android": "https://dc.lft.to/lastmile_qr_scan", "ios": "https://dc.lft.to/lastmile_qr_scan"}, "fusion_lon": 0.0, "lat": 38.909302333333336, "bike_id": "b0d514d8363b119e600eccfb44b4eea5", "type": "electric_scooter", "is_reserved": 0, "lon": -77.04579016666666},