{"data": {"bikes": [{"fusion_lon": 0.0, "bike_id": "c87b40cea7955d0106a612616e0da62d", "name": "c87b40cea7955d0106a612616e0da62d", "type": "electric_scooter", "lon": -76.98711316666666, "rental_uris": {"android": "https://dc.lft.to/lastmile_qr_scan", "ios": "https://dc.lft.to/lastmile_qr_scan"}, "lat": 38.866993666666666, "is_reserved": 0, "is_disabled": 0, "fusion_lat": 0.0}, {"fusion_lon": 0.0, "bike_id": "b610e310b97c46874129520225303c2f", "name": "b610e310b97c46874129520225303c2f", "type": "electric_scooter", "lon": -76.94993816666667, "rental_uris": {"android": "https://dc.lft.to/lastmile_qr_scan", "ios": "https://dc.lft.to/lastmile_qr_scan"}, "lat": 38.893886333333334, "is_reserved": 0, "is_disabled": 0, "fusion_lat": 0.0}, {"fusion_lon": 0.0, "bike_id": "b7a51426f2d73eaa94ea2994db428fc1", "name": "b7a51426f2d73eaa94ea2994db428fc1", "type": "electric_bike", "lon": -76.9756395, "rental_uris": {"android": "https://dc.lft.to/lastmile_qr_scan", "ios": "https://dc.lft.to/lastmile_qr_scan"}, "lat": 38.92456933333333, "is_reserved": 0, "is_disabled": 0, "fusion_lat": 0.0}, {"fusion_lon": 0.0, "bike_id": "50ed0dbb3baaefaa1b3bbc1abaa53ee6", "name": "50ed0dbb3baaefaa1b3bbc1abaa53ee6", "type": "electric_scooter", "lon": -76.96502933333333, "rental_uris": {"android": "https://dc.lft.to/lastmile_qr_scan", "ios": "https://dc.lft.to/lastmile_qr_scan"}, "lat": 38.876477666666666, "is_reserved": 0, "is_disabled": 0, "fusion_lat": 0.0}, {"fusion_lon": 0.0, "bike_id": "31b0a9aa82bc5551324b75d61bab1549", "name": "31b0a9aa82bc5551324b75d61bab1549", "type": "electric_scooter", "lon": -76.98594933333334, "rental_uris": {"android": "https://dc.lft.to/lastmile_qr_scan", "ios": "https://dc.lft.to/lastmile_qr_scan"}, "lat": 38.906479, "is_reserved": 0, "is_disabled": 0, "fusion_lat": 0.0}, {"fusion_lon": 0.0, "bike_id": "f00ae277433197707bcb1ef30e179bfc", "name": "f00ae277433197707bcb1ef30e179bfc", "type": "electric_scooter", "lon": -77.03863016666666, "rental_uris": {"android": "https://dc.lft.to/lastmile_qr_scan", "ios": "https://dc.lft.to/lastmile_qr_scan"}, "lat": 38.907863166666665, "is_reserved": 0, "is_disabled": 0, "fusion_lat": 0.0}, {"fusion_lon": 0.0, "bike_id": "76a4662413b370de8e6a08d20ce97146", "name": "76a4662413b370de8e6a08d20ce97146", "type": "electric_scooter", "lon": -77.03212333333333, "rental_uris": {"android": "https://dc.lft.to/lastmile_qr_scan", "ios": "https://dc.lft.to/lastmile_qr_scan"}, "lat": 38.909705833333334, "is_reserved": 0, "is_disabled": 0, "fusion_lat": 0.0}, {"fusion_lon": 0.0, "bike_id": "8651d5d6fc536cb643a5c6a5579a537c", "name": "8651d5d6fc536cb643a5c6a5579a537c", "type": "electric_scooter", "lon": -77.04630983333334, "rental_uris": {"android": "https://dc.lft.to/lastmile_qr_scan", "ios": "https://dc.lft.to/lastmile_qr_scan"}, "lat": 38.90411733333333, "is_reserved": 0, "is_disabled": 0, "fusion_lat": 0.0}, {"fusion_lon": 0.0, "bike_id": "18f54e318d399d21ccd621aa971d75dd", "name": "18f54e318d399d21ccd621aa971d75dd", "type": "electric_scooter", "lon": -77.05098966666667, "rental_uris": {"android": "https://dc.lft.to/lastmile_qr_scan", "ios": "https://dc.lft.to/lastmile_qr_scan"}, "lat": 38.90536483333333, "is_reserved": 0, "is_disabled": 0, "fusion_lat": 0.0}, {"fusion_lon": 0.0, "bike_id": "560d7c2ba2638558282af7af68055530", "name": "560d7c2ba2638558282af7af68055530", "type": "electric_scooter", "lon": -77.03216283333333, "rental_uris": {"android": "https://dc.lft.to/lastmile_qr_scan", "ios": "https://dc.lft.to/lastmile_qr_scan"}, "lat": 38.892200833333334, "is_reserved": 0, "is_disabled": 0, "fusion_lat": 0.0}, {"fusion_lon": 0.0, "bike_id": "cc67ee43fbd0f83146331d32cc962d3a", "name": "cc67ee43fbd0f83146331d32cc962d3a", "type": "electric_scooter", "lon": -77.04394983333333, "rental_uris": {"android": "https://dc.lft.to/lastmile_qr_scan", "ios": "https://dc.lft.to/lastmile_qr_scan"}, "lat": 38.922775333333334, "is_reserved": 0, "is_disabled": 0, "fusion_lat": 0.0}, {"fusion_lon": 0.0, "bike_id": "94335ae9ec05ffe6f7ff4388134fe753", "name": "94335ae9ec05ffe6f7ff4388134fe753", "type": "electric_scooter", "lon": -77.008292, "rental_uris": {"android": "https://dc.lft.to/lastmile_qr_scan", "ios": "https://dc.lft.to/lastmile_qr_scan"}, "lat": 38.8764245, "is_reserved": 0, "is_disabled": 0, "fusion_lat": 0.0}, {"fusion_lon": 0.0, "bike_id": "2205f300efd88c082158243fd1ac687a", "name": "2205f300efd88c082158243fd1ac687a", "type": "electric_scooter", "lon": -76.9984495, "rental_uris": {"android": "https://dc.lft.to/lastmile_qr_scan", "ios": "https://dc.lft.to/lastmile_qr_scan"}, "lat": 38.900225666666664, "is_reserved": 0, "is_disabled": 0, "fusion_lat": 0.0}, {"fusion_lon": 0.0, "bike_id": "6441986cee1bcb05919e650fd6768fed", "name": "6441986cee1bcb05919e650fd6768fed", "type": "electric_scooter", "lon": -76.99253666666667, "rental_uris": {"android": "https://dc.lft.to/lastmile_qr_scan", "ios": "https://dc.lft.to/lastmile_qr_scan"}, "lat": 38.923215666666664, "is_reserved": 0, "is_disabled": 0, "fusion_lat": 0.0}, {"fusion_lon": 0.0, "bike_id": "17d636e598c7463d64fdfa8e6d15a56b", "name": "17d636e598c7463d64fdfa8e6d15a56b", "type": "electric_scooter", "lon": -77.04891133333334, "rental_uris": {"android": "https://dc.lft.to/lastmile_qr_scan", "ios": "https://dc.lft.to/lastmile_qr_scan"}, "lat": 38.892459, "is_reserved": 0, "is_disabled": 0, "fusion_lat": 0.0}, {"fusion_lon": 0.0, "bike_id": "c6d19d4d967bb6737ed8ab42773a8168", "name": "c6d19d4d967bb6737ed8ab42773a8168", "type": "electric_scooter", "lon": -77.01558416666667, "rental_uris": {"android": "https://dc.lft.to/lastmile_qr_scan", "ios": "https://dc.lft.to/lastmile_qr_scan"}, "lat": 38.91370583333333, "is_reserved": 0, "is_disabled": 0, "fusion_lat": 0.0}, {"fusion_lon": 0.0, "bike_id": "a6ebd231babf9ff14ca1dcb9ce112bb1", "name": "a6ebd231babf9ff14ca1dcb9ce112bb1", "type": "electric_scooter", "lon": -76.99206516666666, "rental_uris": {"android": "https://dc.lft.to/lastmile_qr_scan", "ios": "https://dc.lft.to/lastmile_qr_scan"}, "lat": 38.895116, "is_reserved": 0, "is_disabled": 0, "fusion_lat": 0.0}, {"fusion_lon": 0.0, "bike_id": "d0a799f50a8a6b6ef87a0a0942755df0", "name": "d0a799f50a8a6b6ef87a0a0942755df0", "type": "electric_scooter", "lon": -77.065981, "rental_uris": {"android": "https://dc.lft.to/lastmile_qr_scan", "ios": "https://dc.lft.to/lastmile_qr_scan"}, "lat": 38.9045375, "is_reserved": 0, "is_disabled": 0, "fusion_lat": 0.0}, {"fusion_lon": 0.0, "bike_id": "65295506098df6860679f985bcd8250e", "name": "65295506098df6860679f985bcd8250e", "type": "electric_scooter", "lon": -77.02105616666667, "rental_uris": {"android": "https://dc.lft.to/lastmile_qr_scan", "ios": "https://dc.lft.to/lastmile_qr_scan"}, "lat": 38.89753616666667, "is_reserved": 0, "is_disabled": 0, "fusion_lat": 0.0}, {"fusion_lon": 0.0, "bike_id": "26ca9b656bdfd5f15c954fae72c16803", "name": "26ca9b656bdfd5f15c954fae72c16803", "type": "electric_scooter", "lon": -77.031851, "rental_uris": {"android": "https://dc.lft.to/lastmile_qr_scan", "ios": "https://dc.lft.to/lastmile_qr_scan"}, "lat": 38.91353266666667, "is_reserved": 0, "is_disabled": 0, "fusion_lat": 0.0}, {"fusion_lon": 0.0, "bike_id": "39b75fdf3f4e3a3fec0c076008975766", "name": "39b75fdf3f4e3a3fec0c076008975766", "type": "electric_scooter", "lon": -77.0054245, "rental_uris": {"android": "https://dc.lft.to/lastmile_qr_scan", "ios": "https://dc.lft.to/lastmile_qr_scan"}, "lat": 38.9027105, "is_reserved": 0, "is_disabled": 0, "fusion_lat": 0.0}, {"fusion_lon": 0.0, "bike_id": "683ae6c0dd1e19ebd910bde05863d406", "name": "683ae6c0dd1e19ebd910bde05863d406", "type": "electric_scooter", "lon": -77.01382366666667, "rental_uris": {"android": "https://dc.lft.to/lastmile_qr_scan", "ios": "https://dc.lft.to/lastmile_qr_scan"}, "lat": 38.910072, "is_reserved": 0, "is_disabled": 0, "fusion_lat": 0.0}, {"fusion_lon": 0.0, "bike_id": "8c0ae91a83fb1c59460472ea45f5ee28", "name": "8c0ae91a83fb1c59460472ea45f5ee28", "type": "electric_scooter", "lon": -77.021826, "rental_uris": {"android": "https://dc.lft.to/lastmile_qr_scan", "ios": "https://dc.lft.to/lastmile_qr_scan"}, "lat": 38.87918783333333, "is_reserved": 0, "is_disabled": 0, "fusion_lat": 0.0}, {"fusion_lon": 0.0, "bike_id": "e4cafcb29566977c5bf560b246ba5870", "name": "e4cafcb29566977c5bf560b246ba5870", "type": "electric_scooter", "lon": -77.02947516666667, "rental_uris": {"android": "https://dc.lft.to/lastmile_qr_scan", "ios": "https://dc.lft.to/lastmile_qr_scan"}, "lat": 38.907127333333335, "is_reserved": 0, "is_disabled": 0, "fusion_lat": 0.0}, {"fusion_lon": 0.0, "bike_id": "7535aae49ec5ed3c88dabb0fb4753956", "name": "7535aae49ec5ed3c88dabb0fb4753956", "type": "electric_scooter", "lon": -77.02154316666666, "rental_uris": {"android": "https://dc.lft.to/lastmile_qr_scan", "ios": "https://dc.lft.to/lastmile_qr_scan"}, "lat": 38.9260165, "is_reserved": 0, "is_disabled": 0, "fusion_lat": 0.0}, {"fusion_lon": 0.0, "bike_id": "c47c011afb2b5484eda12ba7dfc34d13", "name": "c47c011afb2b5484eda12ba7dfc34d13", "type": "electric_scooter", "lon": -77.03264916666667, "rental_uris": {"android": "https://dc.lft.to/lastmile_qr_scan", "ios": "https://dc.lft.to/lastmile_qr_scan"}, "lat": 38.932148166666664, "is_reserved": 0, "is_disabled": 0, "fusion_lat": 0.0}, {"fusion_lon": 0.0, "bike_id": "1b2dd2aa17c29d31bcad7fe13ea6ffa2", "name": "1b2dd2aa17c29d31bcad7fe13ea6ffa2", "type": "electric_scooter", "lon": -77.05427216666666, "rental_uris": {"android": "https://dc.lft.to/lastmile_qr_scan", "ios": "https://dc.lft.to/lastmile_qr_scan"}, "lat": 38.928012, "is_reserved": 0, "is_disabled": 0, "fusion_lat": 0.0}, {"fusion_lon": 0.0, "bike_id": "f9e3bbdf75e61099aa0c2385a44e12e7", "name": "f9e3bbdf75e61099aa0c2385a44e12e7", "type": "electric_scooter", "lon": -77.006412, "rental_uris": {"android": "https://dc.lft.to/lastmile_qr_scan", "ios": "https://dc.lft.to/lastmile_qr_scan"}, "lat": 38.91174766666666, "is_reserved": 0, "is_disabled": 0, "fusion_lat": 0.0}, {"fusion_lon": 0.0, "bike_id": "94e38d5652da5e022c5f4999ac97fcfa", "name": "94e38d5652da5e022c5f4999ac97fcfa", "type": "electric_scooter", "lon": -77.02585, "rental_uris": {"android": "https://dc.lft.to/lastmile_qr_scan", "ios": "https://dc.lft.to/lastmile_qr_scan"}, "lat": 38.9421165, "is_reserved": 0, "is_disabled": 0, "fusion_lat": 0.0}, {"fusion_lon": 0.0, "bike_id": "ee1d7c3d6af5affd445cb2666eaa191c", "name": "ee1d7c3d6af5affd445cb2666eaa191c", "type": "electric_scooter", "lon": -77.03152916666667, "rental_uris": {"android": "https://dc.lft.to/lastmile_qr_scan", "ios": "https://dc.lft.to/lastmile_qr_scan"}, "lat": 38.92721683333333, "is_reserved": 0, "is_disabled": 0, "fusion_lat": 0.0}, {"fusion_lon": 0.0, "bike_id": "b5d52ba6100c06dbe6b8fa4d66da73d1", "name": "b5d52ba6100c06dbe6b8fa4d66da73d1", "type": "electric_bike", "lon": -76.9819075, "rental_uris": {"android": "https://dc.lft.to/lastmile_qr_scan", "ios": "https://dc.lft.to/lastmile_qr_scan"}, "lat": 38.98494516666667, "is_reserved": 0, "is_disabled": 0, "fusion_lat": 0.0}, {"fusion_lon": 0.0, "bike_id": "8a109fc3bcce24e49718d3cd1fe6ad59", "name": "8a109fc3bcce24e49718d3cd1fe6ad59", "type": "electric_scooter", "lon": -77.0386215, "rental_uris": {"android": "https://dc.lft.to/lastmile_qr_scan", "ios": "https://dc.lft.to/lastmile_qr_scan"}, "lat": 38.918065166666665, "is_reserved": 0, "is_disabled": 0, "fusion_lat": 0.0}, {"fusion_lon": 0.0, "bike_id": "dee462e5c2858585d51cc03715e362d4", "name": "dee462e5c2858585d51cc03715e362d4", "type": "electric_scooter", "lon": -77.00734866666667, "rental_uris": {"android": "https://dc.lft.to/lastmile_qr_scan", "ios": "https://dc.lft.to/lastmile_qr_scan"}, "lat": 38.876479, "is_reserved": 0, "is_disabled": 0, "fusion_lat": 0.0}, {"fusion_lon": 0.0, "bike_id": "55d5cbfa15e68acb9d9d7dc0d5f7f274", "name": "55d5cbfa15e68acb9d9d7dc0d5f7f274", "type": "electric_scooter", "lon": -77.02690983333333, "rental_uris": {"android": "https://dc.lft.to/lastmile_qr_scan", "ios": "https://dc.lft.to/lastmile_qr_scan"}, "lat": 38.907380833333335, "is_reserved": 0, "is_disabled": 0, "fusion_lat": 0.0}, {"fusion_lon": 0.0, "bike_id": "4532b14a5bd64e6476f659f6f0c3d80b", "name": "4532b14a5bd64e6476f659f6f0c3d80b", "type": "electric_scooter", "lon": -77.00516783333333, "rental_uris": {"android": "https://dc.lft.to/lastmile_qr_scan", "ios": "https://dc.lft.to/lastmile_qr_scan"}, "lat": 38.8747145, "is_reserved": 0, "is_disabled": 0, "fusion_lat": 0.0}, {"fusion_lon": 0.0, "bike_id": "5af88cd28dc1801c6f762b51633d6300", "name": "5af88cd28dc1801c6f762b51633d6300", "type": "electric_scooter", "lon": -77.04647383333334, "rental_uris": {"android": "https://dc.lft.to/lastmile_qr_scan", "ios": "https://dc.lft.to/lastmile_qr_scan"}, "lat": 38.91486316666666, "is_reserved": 0, "is_disabled": 0, "fusion_lat": 0.0}, {"fusion_lon": 0.0, "bike_id": "b596f86a88dd695ee653408bcb7c8b91", "name": "b596f86a88dd695ee653408bcb7c8b91", "type": "electric_bike", "lon": -77.09166383333333, "rental_uris": {"android": "https://dc.lft.to/lastmile_qr_scan", "ios": "https://dc.lft.to/lastmile_qr_scan"}, "lat": 38.967649333333334, "is_reserved": 0, "is_disabled": 0, "fusion_lat": 0.0}, {"fusion_lon": 0.0, "bike_id": "15f491a2d2e67a9ee185f2a2ef726a15", "name": "15f491a2d2e67a9ee185f2a2ef726a15", "type": "electric_scooter", "lon": -77.037404, "rental_uris": {"android": "https://dc.lft.to/lastmile_qr_scan", "ios": "https://dc.lft.to/lastmile_qr_scan"}, "lat": 38.918224333333335, "is_reserved": 0, "is_disabled": 0, "fusion_lat": 0.0}, {"fusion_lon": 0.0, "bike_id": "4b0b34cf59907c3c18ca75a06e096889", "name": "4b0b34cf59907c3c18ca75a06e096889", "type": "electric_scooter", "lon": -77.02378366666667, "rental_uris": {"android": "https://dc.lft.to/lastmile_qr_scan", "ios": "https://dc.lft.to/lastmile_qr_scan"}, "lat": 38.91955516666667, "is_reserved": 0, "is_disabled": 0, "fusion_lat": 0.0}, {"fusion_lon": 0.0, "bike_id": "2b37557835cd78990167f73319fbed42", "name": "2b37557835cd78990167f73319fbed42", "type": "electric_scooter", "lon": -77.048656, "rental_uris": {"android": "https://dc.lft.to/lastmile_qr_scan", "ios": "https://dc.lft.to/lastmile_qr_scan"}, "lat": 38.90575966666667, "is_reserved": 0, "is_disabled": 0, "fusion_lat": 0.0}, {"fusion_lon": 0.0, "bike_id": "26382e23cf58a3b5f5eb94592fa65082", "name": "26382e23cf58a3b5f5eb94592fa65082", "type": "electric_scooter", "lon": -77.03651883333333, "rental_uris": {"android": "https://dc.lft.to/lastmile_qr_scan", "ios": "https://dc.lft.to/lastmile_qr_scan"}, "lat": 38.941780666666666, "is_reserved": 0, "is_disabled": 0, "fusion_lat": 0.0}, {"fusion_lon": 0.0, "bike_id": "0e078f8c79c76322a91d35b66a96899b", "name": "0e078f8c79c76322a91d35b66a96899b", "type": "electric_scooter", "lon": -77.02071183333334, "rental_uris": {"android": "https://dc.lft.to/lastmile_qr_scan", "ios": "https://dc.lft.to/lastmile_qr_scan"}, "lat": 38.94902666666667, "is_reserved": 0, "is_disabled": 0, "fusion_lat": 0.0}, {"fusion_lon": 0.0, "bike_id": "6f7cbc149c27b7ba5bfcea517b4a5959", "name": "6f7cbc149c27b7ba5bfcea517b4a5959", "type": "electric_scooter", "lon": -77.043815, "rental_uris": {"android": "https://dc.lft.to/lastmile_qr_scan", "ios": "https://dc.lft.to/lastmile_qr_scan"}, "lat": 38.87451083333333, "is_reserved": 0, "is_disabled": 0, "fusion_lat": 0.0}, {"fusion_lon": 0.0, "bike_id": "aa0b2ccce997dcf26876a5fb9d9c3952", "name": "aa0b2ccce997dcf26876a5fb9d9c3952", "type": "electric_scooter", "lon": -76.996971, "rental_uris": {"android": "https://dc.lft.to/lastmile_qr_scan", "ios": "https://dc.lft.to/lastmile_qr_scan"}, "lat": 38.838702, "is_reserved": 0, "is_disabled": 0, "fusion_lat": 0.0}, {"fusion_lon": 0.0, "bike_id": "64b2cc388bc3f53cb88d34276e3345a3", "name": "64b2cc388bc3f53cb88d34276e3345a3", "type": "electric_scooter", "lon": -77.04654466666666, "rental_uris": {"android": "https://dc.lft.to/lastmile_qr_scan", "ios": "https://dc.lft.to/lastmile_qr_scan"}, "lat": 38.892973833333336, "is_reserved": 0, "is_disabled": 0, "fusion_lat": 0.0}, {"fusion_lon": 0.0, "bike_id": "550f51be2efe7ae4d8e5c98580c38caf", "name": "550f51be2efe7ae4d8e5c98580c38caf", "type": "electric_scooter", "lon": -76.9722255, "rental_uris": {"android": "https://dc.lft.to/lastmile_qr_scan", "ios": "https://dc.lft.to/lastmile_qr_scan"}, "lat": 38.85449216666667, "is_reserved": 0, "is_disabled": 0, "fusion_lat": 0.0}, {"fusion_lon": 0.0, "bike_id": "1a07cd7c3e1aed32c10ca3572c7c57cb", "name": "1a07cd7c3e1aed32c10ca3572c7c57cb", "type": "electric_scooter", "lon": -76.947843, "rental_uris": {"android": "https://dc.lft.to/lastmile_qr_scan", "ios": "https://dc.lft.to/lastmile_qr_scan"}, "lat": 38.88464333333334, "is_reserved": 0, "is_disabled": 0, "fusion_lat": 0.0}, {"fusion_lon": 0.0, "bike_id": "88b4f6ba3a50e6bc863da6f84940c452", "name": "88b4f6ba3a50e6bc863da6f84940c452", "type": "electric_scooter", "lon": -77.06488766666666, "rental_uris": {"android": "https://dc.lft.to/lastmile_qr_scan", "ios": "https://dc.lft.to/lastmile_qr_scan"}, "lat": 38.96494883333333, "is_reserved": 0, "is_disabled": 0, "fusion_lat": 0.0}, {"fusion_lon": 0.0, "bike_id": "6c4fc032a4f96f11bf5c8ca28e206aa4", "name": "6c4fc032a4f96f11bf5c8ca28e206aa4", "type": "electric_scooter", "lon": -76.9738255, "rental_uris": {"android": "https://dc.lft.to/lastmile_qr_scan", "ios": "https://dc.lft.to/lastmile_qr_scan"}, "lat": 38.88377066666666, "is_reserved": 0, "is_disabled": 0, "fusion_lat": 0.0}, {"fusion_lon": 0.0, "bike_id": "780f9cd0526100231a9e5fe65e16e085", "name": "780f9cd0526100231a9e5fe65e16e085", "type": "electric_scooter", "lon": -77.00313983333334, "rental_uris": {"android": "https://dc.lft.to/lastmile_qr_scan", "ios": "https://dc.lft.to/lastmile_qr_scan"}, "lat": 38.8403205, "is_reserved": 0, "is_disabled": 0, "fusion_lat": 0.0}, {"fusion_lon": 0.0, "bike_id": "c2b58afd05dca00baf8d2deb4b042707", "name": "c2b58afd05dca00baf8d2deb4b042707", "type": "electric_scooter", "lon": -77.0176865, "rental_uris": {"android": "https://dc.lft.to/lastmile_qr_scan", "ios": "https://dc.lft.to/lastmile_qr_scan"}, "lat": 38.921330166666664, "is_reserved": 0, "is_disabled": 0, "fusion_lat": 0.0}, {"fusion_lon": 0.0, "bike_id": "9564eaf64d513422a7bc77046306aa2f", "name": "9564eaf64d513422a7bc77046306aa2f", "type": "electric_scooter", "lon": -77.0366125, "rental_uris": {"android": "https://dc.lft.to/lastmile_qr_scan", "ios": "https://dc.lft.to/lastmile_qr_scan"}, "lat": 38.921381333333336, "is_reserved": 0, "is_disabled": 0, "fusion_lat": 0.0}, {"fusion_lon": 0.0, "bike_id": "e034e9503424d36ef1d5eb74bc1231e8", "name": "e034e9503424d36ef1d5eb74bc1231e8", "type": "electric_scooter", "lon": -77.04069433333333, "rental_uris": {"android": "https://dc.lft.to/lastmile_qr_scan", "ios": "https://dc.lft.to/lastmile_qr_scan"}, "lat": 38.8961405, "is_reserved": 0, "is_disabled": 0, "fusion_lat": 0.0}, {"fusion_lon": 0.0, "bike_id": "9eb611ac1bb4bd2c24b318b76ad9e71b", "name": "9eb611ac1bb4bd2c24b318b76ad9e71b", "type": "electric_scooter", "lon": -76.94896383333334, "rental_uris": {"android": "https://dc.lft.to/lastmile_qr_scan", "ios": "https://dc.lft.to/lastmile_qr_scan"}, "lat": 38.89525233333333, "is_reserved": 0, "is_disabled": 0, "fusion_lat": 0.0}, {"fusion_lon": 0.0, "bike_id": "3f5299ca76d764ca1cb9d60847c03585", "name": "3f5299ca76d764ca1cb9d60847c03585", "type": "electric_scooter", "lon": -77.0341835, "rental_uris": {"android": "https://dc.lft.to/lastmile_qr_scan", "ios": "https://dc.lft.to/lastmile_qr_scan"}, "lat": 38.90706433333333, "is_reserved": 0, "is_disabled": 0, "fusion_lat": 0.0}, {"fusion_lon": 0.0, "bike_id": "ad1e86b8a238907328a7f549158948e6", "name": "ad1e86b8a238907328a7f549158948e6", "type": "electric_scooter", "lon": -77.029568, "rental_uris": {"android": "https://dc.lft.to/lastmile_qr_scan", "ios": "https://dc.lft.to/lastmile_qr_scan"}, "lat": 38.905063, "is_reserved": 0, "is_disabled": 0, "fusion_lat": 0.0}, {"fusion_lon": 0.0, "bike_id": "d3733966f70cb83b4917274df82152ea", "name": "d3733966f70cb83b4917274df82152ea", "type": "electric_scooter", "lon": -77.0136905, "rental_uris": {"android": "https://dc.lft.to/lastmile_qr_scan", "ios": "https://dc.lft.to/lastmile_qr_scan"}, "lat": 38.892221166666666, "is_reserved": 0, "is_disabled": 0, "fusion_lat": 0.0}, {"fusion_lon": 0.0, "bike_id": "cc8581cd8873d270e55d4257d88aad67", "name": "cc8581cd8873d270e55d4257d88aad67", "type": "electric_scooter", "lon": -77.0320525, "rental_uris": {"android": "https://dc.lft.to/lastmile_qr_scan", "ios": "https://dc.lft.to/lastmile_qr_scan"}, "lat": 38.9174675, "is_reserved": 0, "is_disabled": 0, "fusion_lat": 0.0}, {"fusion_lon": 0.0, "bike_id": "b1a0abb45ba6ca014a6d185ef405d5ff", "name": "b1a0abb45ba6ca014a6d185ef405d5ff", "type": "electric_scooter", "lon": -77.04402383333333, "rental_uris": {"android": "https://dc.lft.to/lastmile_qr_scan", "ios": "https://dc.lft.to/lastmile_qr_scan"}, "lat": 38.893990333333335, "is_reserved": 0, "is_disabled": 0, "fusion_lat": 0.0}, {"fusion_lon": 0.0, "bike_id": "1cc2059781a78e48644e96d3a92f8c05", "name": "1cc2059781a78e48644e96d3a92f8c05", "type": "electric_scooter", "lon": -77.0460335, "rental_uris": {"android": "https://dc.lft.to/lastmile_qr_scan", "ios": "https://dc.lft.to/lastmile_qr_scan"}, "lat": 38.900598333333335, "is_reserved": 0, "is_disabled": 0, "fusion_lat": 0.0}, {"fusion_lon": 0.0, "bike_id": "919f494c76f8de65a13194fe0c1fb7f4", "name": "919f494c76f8de65a13194fe0c1fb7f4", "type": "electric_scooter", "lon": -77.03711733333333, "rental_uris": {"android": "https://dc.lft.to/lastmile_qr_scan", "ios": "https://dc.lft.to/lastmile_qr_scan"}, "lat": 38.92634366666667, "is_reserved": 0, "is_disabled": 0, "fusion_lat": 0.0}, {"fusion_lon": 0.0, "bike_id": "3647c43251efcad98f9d195840c2d115", "name": "3647c43251efcad98f9d195840c2d115", "type": "electric_bike", "lon": -76.989583, "rental_uris": {"android": "https://dc.lft.to/lastmile_qr_scan", "ios": "https://dc.lft.to/lastmile_qr_scan"}, "lat": 38.88914283333333, "is_reserved": 0, "is_disabled": 0, "fusion_lat": 0.0}, {"fusion_lon": 0.0, "bike_id": "7b9a64cff0086c9799f28e4eabb661c9", "name": "7b9a64cff0086c9799f28e4eabb661c9", "type": "electric_scooter", "lon": -77.0049325, "rental_uris": {"android": "https://dc.lft.to/lastmile_qr_scan", "ios": "https://dc.lft.to/lastmile_qr_scan"}, "lat": 38.87939633333333, "is_reserved": 0, "is_disabled": 0, "fusion_lat": 0.0}, {"fusion_lon": 0.0, "bike_id": "c2a7f224b9d6a6f31a5ccef4d8e17ea6", "name": "c2a7f224b9d6a6f31a5ccef4d8e17ea6", "type": "electric_scooter", "lon": -77.02033, "rental_uris": {"android": "https://dc.lft.to/lastmile_qr_scan", "ios": "https://dc.lft.to/lastmile_qr_scan"}, "lat": 38.88127583333333, "is_reserved": 0, "is_disabled": 0, "fusion_lat": 0.0}, {"fusion_lon": 0.0, "bike_id": "85811fd74dce8c8586fa5e0cbc42bc88", "name": "85811fd74dce8c8586fa5e0cbc42bc88", "type": "electric_scooter", "lon": -77.0258795, "rental_uris": {"android": "https://dc.lft.to/lastmile_qr_scan", "ios": "https://dc.lft.to/lastmile_qr_scan"}, "lat": 38.904920833333335, "is_reserved": 0, "is_disabled": 0, "fusion_lat": 0.0}, {"fusion_lon": 0.0, "bike_id": "96869bd01f1dccb8723cd307b021d847", "name": "96869bd01f1dccb8723cd307b021d847", "type": "electric_scooter", "lon": -76.98685266666666, "rental_uris": {"android": "https://dc.lft.to/lastmile_qr_scan", "ios": "https://dc.lft.to/lastmile_qr_scan"}, "lat": 38.88530766666667, "is_reserved": 0, "is_disabled": 0, "fusion_lat": 0.0}, {"fusion_lon": 0.0, "bike_id": "7c243319f64a93126a4593996ebb4674", "name": "7c243319f64a93126a4593996ebb4674", "type": "electric_scooter", "lon": -77.03483166666666, "rental_uris": {"android": "https://dc.lft.to/lastmile_qr_scan", "ios": "https://dc.lft.to/lastmile_qr_scan"}, "lat": 38.92481266666667, "is_reserved": 0, "is_disabled": 0, "fusion_lat": 0.0}, {"fusion_lon": 0.0, "bike_id": "dfefdd804bdd8e12bcbdf9a4ab4b9c3f", "name": "dfefdd804bdd8e12bcbdf9a4ab4b9c3f", "type": "electric_bike", "lon": -76.97193933333334, "rental_uris": {"android": "https://dc.lft.to/lastmile_qr_scan", "ios": "https://dc.lft.to/lastmile_qr_scan"}, "lat": 38.892482333333334, "is_reserved": 0, "is_disabled": 0, "fusion_lat": 0.0}, {"fusion_lon": 0.0, "bike_id": "d90028af01f198a758349740d4b960ca", "name": "d90028af01f198a758349740d4b960ca", "type": "electric_bike", "lon": -77.049805, "rental_uris": {"android": "https://dc.lft.to/lastmile_qr_scan", "ios": "https://dc.lft.to/lastmile_qr_scan"}, "lat": 38.992463, "is_reserved": 0, "is_disabled": 0, "fusion_lat": 0.0}, {"fusion_lon": 0.0, "bike_id": "7ddbc135e300970199e75242ce31230a", "name": "7ddbc135e300970199e75242ce31230a", "type": "electric_bike", "lon": -76.96697416666666, "rental_uris": {"android": "https://dc.lft.to/lastmile_qr_scan", "ios": "https://dc.lft.to/lastmile_qr_scan"}, "lat": 38.86841733333333, "is_reserved": 0, "is_disabled": 0, "fusion_lat": 0.0}, {"fusion_lon": 0.0, "bike_id": "b0d86a66d00e6188b9e4157e6c9edebf", "name": "b0d86a66d00e6188b9e4157e6c9edebf", "type": "electric_bike", "lon": -77.19546416666667, "rental_uris": {"android": "https://dc.lft.to/lastmile_qr_scan", "ios": "https://dc.lft.to/lastmile_qr_scan"}, "lat": 39.1150665, "is_reserved": 0, "is_disabled": 0, "fusion_lat": 0.0}, {"fusion_lon": 0.0, "bike_id": "8b4973dacb33b0b1e3237e749eeebfcd", "name": "8b4973dacb33b0b1e3237e749eeebfcd", "type": "electric_scooter", "lon": -76.9465175, "rental_uris": {"android": "https://dc.lft.to/lastmile_qr_scan", "ios": "https://dc.lft.to/lastmile_qr_scan"}, "lat": 38.89824216666667, "is_reserved": 0, "is_disabled": 0, "fusion_lat": 0.0}, {"fusion_lon": 0.0, "bike_id": "196c67e5755a643ec8b7ed23a9f06232", "name": "196c67e5755a643ec8b7ed23a9f06232", "type": "electric_scooter", "lon": -77.0176265, "rental_uris": {"android": "https://dc.lft.to/lastmile_qr_scan", "ios": "https://dc.lft.to/lastmile_qr_scan"}, "lat": 38.877247833333335, "is_reserved": 0, "is_disabled": 0, "fusion_lat": 0.0}, {"fusion_lon": 0.0, "bike_id": "546d9d6c1f4f60d16d8a6df9de96a912", "name": "546d9d6c1f4f60d16d8a6df9de96a912", "type": "electric_scooter", "lon": -76.99409466666667, "rental_uris": {"android": "https://dc.lft.to/lastmile_qr_scan", "ios": "https://dc.lft.to/lastmile_qr_scan"}, "lat": 38.877835833333336, "is_reserved": 0, "is_disabled": 0, "fusion_lat": 0.0}, {"fusion_lon": 0.0, "bike_id": "516bc9ab68820e560a83b71a89a60830", "name": "516bc9ab68820e560a83b71a89a60830", "type": "electric_scooter", "lon": -77.04668266666667, "rental_uris": {"android": "https://dc.lft.to/lastmile_qr_scan", "ios": "https://dc.lft.to/lastmile_qr_scan"}, "lat": 38.91566233333333, "is_reserved": 0, "is_disabled": 0, "fusion_lat": 0.0}, {"fusion_lon": 0.0, "bike_id": "d2c0400ea7f0815c022da05793197bb4", "name": "d2c0400ea7f0815c022da05793197bb4", "type": "electric_scooter", "lon": -77.055987, "rental_uris": {"android": "https://dc.lft.to/lastmile_qr_scan", "ios": "https://dc.lft.to/lastmile_qr_scan"}, "lat": 38.9369295, "is_reserved": 0, "is_disabled": 0, "fusion_lat": 0.0}, {"fusion_lon": 0.0, "bike_id": "87d9d70115263890a28cd7d1d4260189", "name": "87d9d70115263890a28cd7d1d4260189", "type": "electric_bike", "lon": -77.112189, "rental_uris": {"android": "https://dc.lft.to/lastmile_qr_scan", "ios": "https://dc.lft.to/lastmile_qr_scan"}, "lat": 38.82873583333333, "is_reserved": 0, "is_disabled": 0, "fusion_lat": 0.0}, {"fusion_lon": 0.0, "bike_id": "cc81597fe44639599a01c92414f5950f", "name": "cc81597fe44639599a01c92414f5950f", "type": "electric_bike", "lon": -76.87495883333334, "rental_uris": {"android": "https://dc.lft.to/lastmile_qr_scan", "ios": "https://dc.lft.to/lastmile_qr_scan"}, "lat": 38.99089566666667, "is_reserved": 0, "is_disabled": 0, "fusion_lat": 0.0}, {"fusion_lon": 0.0, "bike_id": "6ac27370e1c179d87547466dcceac0ab", "name": "6ac27370e1c179d87547466dcceac0ab", "type": "electric_scooter", "lon": -77.033412, "rental_uris": {"android": "https://dc.lft.to/lastmile_qr_scan", "ios": "https://dc.lft.to/lastmile_qr_scan"}, "lat": 38.919087833333336, "is_reserved": 0, "is_disabled": 0, "fusion_lat": 0.0}, {"fusion_lon": 0.0, "bike_id": "f44c396f0ea7fbe39f3c8e6ef8e9effb", "name": "f44c396f0ea7fbe39f3c8e6ef8e9effb", "type": "electric_scooter", "lon": -77.02457833333334, "rental_uris": {"android": "https://dc.lft.to/lastmile_qr_scan", "ios": "https://dc.lft.to/lastmile_qr_scan"}, "lat": 38.90321216666667, "is_reserved": 0, "is_disabled": 0, "fusion_lat": 0.0}, {"fusion_lon": 0.0, "bike_id": "297cfb4dd1ae107dde3f0f9db996d1fe", "name": "297cfb4dd1ae107dde3f0f9db996d1fe", "type": "electric_scooter", "lon": -76.9790465, "rental_uris": {"android": "https://dc.lft.to/lastmile_qr_scan", "ios": "https://dc.lft.to/lastmile_qr_scan"}, "lat": 38.907269, "is_reserved": 0, "is_disabled": 0, "fusion_lat": 0.0}, {"fusion_lon": 0.0, "bike_id": "d4a70d2c0ae38a6c649602a02b571e5a", "name": "d4a70d2c0ae38a6c649602a02b571e5a", "type": "electric_scooter", "lon": -76.98183033333333, "rental_uris": {"android": "https://dc.lft.to/lastmile_qr_scan", "ios": "https://dc.lft.to/lastmile_qr_scan"}, "lat": 38.9020655, "is_reserved": 0, "is_disabled": 0, "fusion_lat": 0.0}, {"fusion_lon": 0.0, "bike_id": "b8d518070206000471c198743c9cb304", "name": "b8d518070206000471c198743c9cb304", "type": "electric_scooter", "lon": -77.01610883333333, "rental_uris": {"android": "https://dc.lft.to/lastmile_qr_scan", "ios": "https://dc.lft.to/lastmile_qr_scan"}, "lat": 38.89963766666666, "is_reserved": 0, "is_disabled": 0, "fusion_lat": 0.0}, {"fusion_lon": 0.0, "bike_id": "3d15b28d79fdc3774a846d5d4077b7ea", "name": "3d15b28d79fdc3774a846d5d4077b7ea", "type": "electric_scooter", "lon": -77.01816716666667, "rental_uris": {"android": "https://dc.lft.to/lastmile_qr_scan", "ios": "https://dc.lft.to/lastmile_qr_scan"}, "lat": 38.92204266666667, "is_reserved": 0, "is_disabled": 0, "fusion_lat": 0.0}, {"fusion_lon": 0.0, "bike_id": "7b0d2bfa7f9511c69ab7fa98520d374f", "name": "7b0d2bfa7f9511c69ab7fa98520d374f", "type": "electric_bike", "lon": -77.0430435, "rental_uris": {"android": "https://dc.lft.to/lastmile_qr_scan", "ios": "https://dc.lft.to/lastmile_qr_scan"}, "lat": 39.05447816666667, "is_reserved": 0, "is_disabled": 0, "fusion_lat": 0.0}, {"fusion_lon": 0.0, "bike_id": "d4ef677609e82aee4fa6f5f8e2b2840a", "name": "d4ef677609e82aee4fa6f5f8e2b2840a", "type": "electric_scooter", "lon": -76.99860316666667, "rental_uris": {"android": "https://dc.lft.to/lastmile_qr_scan", "ios": "https://dc.lft.to/lastmile_qr_scan"}, "lat": 38.908952, "is_reserved": 0, "is_disabled": 0, "fusion_lat": 0.0}, {"fusion_lon": 0.0, "bike_id": "b47e35659780f6005abd80c80e04d472", "name": "b47e35659780f6005abd80c80e04d472", "type": "electric_scooter", "lon": -77.00570066666667, "rental_uris": {"android": "https://dc.lft.to/lastmile_qr_scan", "ios": "https://dc.lft.to/lastmile_qr_scan"}, "lat": 38.905494, "is_reserved": 0, "is_disabled": 0, "fusion_lat": 0.0}, {"fusion_lon": 0.0, "bike_id": "83ae62ee35342030c03a6102f2f4e120", "name": "83ae62ee35342030c03a6102f2f4e120", "type": "electric_bike", "lon": -77.1784805, "rental_uris": {"android": "https://dc.lft.to/lastmile_qr_scan", "ios": "https://dc.lft.to/lastmile_qr_scan"}, "lat": 39.089045, "is_reserved": 0, "is_disabled": 0, "fusion_lat": 0.0}, {"fusion_lon": 0.0, "bike_id": "f919c57c8a1223dc8acfef7156e91519", "name": "f919c57c8a1223dc8acfef7156e91519", "type": "electric_scooter", "lon": -76.98659066666667, "rental_uris": {"android": "https://dc.lft.to/lastmile_qr_scan", "ios": "https://dc.lft.to/lastmile_qr_scan"}, "lat": 38.901475833333336, "is_reserved": 0, "is_disabled": 0, "fusion_lat": 0.0}, {"fusion_lon": 0.0, "bike_id": "6931736e492c956cfa53640371da213a", "name": "6931736e492c956cfa53640371da213a", "type": "electric_scooter", "lon": -77.04208116666666, "rental_uris": {"android": "https://dc.lft.to/lastmile_qr_scan", "ios": "https://dc.lft.to/lastmile_qr_scan"}, "lat": 38.917032166666665, "is_reserved": 0, "is_disabled": 0, "fusion_lat": 0.0}, {"fusion_lon": 0.0, "bike_id": "d024cd3bf1a63a3c7b1fb2a9efb3e30f", "name": "d024cd3bf1a63a3c7b1fb2a9efb3e30f", "type": "electric_scooter", "lon": -77.07298966666667, "rental_uris": {"android": "https://dc.lft.to/lastmile_qr_scan", "ios": "https://dc.lft.to/lastmile_qr_scan"}, "lat": 38.921573, "is_reserved": 0, "is_disabled": 0, "fusion_lat": 0.0}, {"fusion_lon": 0.0, "bike_id": "c1c302a65b20ba468555b2bfc701967d", "name": "c1c302a65b20ba468555b2bfc701967d", "type": "electric_scooter", "lon": -77.04117816666667, "rental_uris": {"android": "https://dc.lft.to/lastmile_qr_scan", "ios": "https://dc.lft.to/lastmile_qr_scan"}, "lat": 38.91040383333333, "is_reserved": 0, "is_disabled": 0, "fusion_lat": 0.0}, {"fusion_lon": 0.0, "bike_id": "a03510a69ff2cdc4338161502e7802cd", "name": "a03510a69ff2cdc4338161502e7802cd", "type": "electric_scooter", "lon": -76.97666933333333, "rental_uris": {"android": "https://dc.lft.to/lastmile_qr_scan", "ios": "https://dc.lft.to/lastmile_qr_scan"}, "lat": 38.84053566666667, "is_reserved": 0, "is_disabled": 0, "fusion_lat": 0.0}, {"fusion_lon": 0.0, "bike_id": "c1a4caa59929ae41ab437a20b5929650", "name": "c1a4caa59929ae41ab437a20b5929650", "type": "electric_scooter", "lon": -77.01114133333333, "rental_uris": {"android": "https://dc.lft.to/lastmile_qr_scan", "ios": "https://dc.lft.to/lastmile_qr_scan"}, "lat": 38.92029433333333, "is_reserved": 0, "is_disabled": 0, "fusion_lat": 0.0}, {"fusion_lon": 0.0, "bike_id": "2c08ad4051481e2ab0a8cbbc1570bc48", "name": "2c08ad4051481e2ab0a8cbbc1570bc48", "type": "electric_scooter", "lon": -76.98334233333334, "rental_uris": {"android": "https://dc.lft.to/lastmile_qr_scan", "ios": "https://dc.lft.to/lastmile_qr_scan"}, "lat": 38.90750833333333, "is_reserved": 0, "is_disabled": 0, "fusion_lat": 0.0}, {"fusion_lon": 0.0, "bike_id": "55c337d29bab4ba81eecb0014db344e6", "name": "55c337d29bab4ba81eecb0014db344e6", "type": "electric_scooter", "lon": -77.04861783333334, "rental_uris": {"android": "https://dc.lft.to/lastmile_qr_scan", "ios": "https://dc.lft.to/lastmile_qr_scan"}, "lat": 38.89223283333333, "is_reserved": 0, "is_disabled": 0, "fusion_lat": 0.0}, {"fusion_lon": 0.0, "bike_id": "062c5369c8bf0076a1ce6b93b7b687e3", "name": "062c5369c8bf0076a1ce6b93b7b687e3", "type": "electric_scooter", "lon": -76.98695866666667, "rental_uris": {"android": "https://dc.lft.to/lastmile_qr_scan", "ios": "https://dc.lft.to/lastmile_qr_scan"}, "lat": 38.90704783333334, "is_reserved": 0, "is_disabled": 0, "fusion_lat": 0.0}, {"fusion_lon": 0.0, "bike_id": "d35c702e370dbce7cfb8f3be5f087642", "name": "d35c702e370dbce7cfb8f3be5f087642", "type": "electric_scooter", "lon": -77.00902, "rental_uris": {"android": "https://dc.lft.to/lastmile_qr_scan", "ios": "https://dc.lft.to/lastmile_qr_scan"}, "lat": 38.9128765, "is_reserved": 0, "is_disabled": 0, "fusion_lat": 0.0}, {"fusion_lon": 0.0, "bike_id": "98f0bdfd223f0e4dc683f38a41dfb9b6", "name": "98f0bdfd223f0e4dc683f38a41dfb9b6", "type": "electric_scooter", "lon": -77.01981966666666, "rental_uris": {"android": "https://dc.lft.to/lastmile_qr_scan", "ios": "https://dc.lft.to/lastmile_qr_scan"}, "lat": 38.902543666666666, "is_reserved": 0, "is_disabled": 0, "fusion_lat": 0.0}, {"fusion_lon": 0.0, "bike_id": "c84a1024880c94e9f446095fa0a08cd7", "name": "c84a1024880c94e9f446095fa0a08cd7", "type": "electric_scooter", "lon": -77.0357095, "rental_uris": {"android": "https://dc.lft.to/lastmile_qr_scan", "ios": "https://dc.lft.to/lastmile_qr_scan"}, "lat": 38.88180283333333, "is_reserved": 0, "is_disabled": 0, "fusion_lat": 0.0}, {"fusion_lon": 0.0, "bike_id": "88b410bf98f95d664ecf87358bcc6c3c", "name": "88b410bf98f95d664ecf87358bcc6c3c", "type": "electric_scooter", "lon": -77.038852, "rental_uris": {"android": "https://dc.lft.to/lastmile_qr_scan", "ios": "https://dc.lft.to/lastmile_qr_scan"}, "lat": 38.92021366666667, "is_reserved": 0, "is_disabled": 0, "fusion_lat": 0.0}, {"fusion_lon": 0.0, "bike_id": "60805e4cb2581fb3a824f4364eabbc7a", "name": "60805e4cb2581fb3a824f4364eabbc7a", "type": "electric_scooter", "lon": -76.97905916666667, "rental_uris": {"android": "https://dc.lft.to/lastmile_qr_scan", "ios": "https://dc.lft.to/lastmile_qr_scan"}, "lat": 38.89432883333333, "is_reserved": 0, "is_disabled": 0, "fusion_lat": 0.0}, {"fusion_lon": 0.0, "bike_id": "4de91306bdb3888eeb32f67baaa189a6", "name": "4de91306bdb3888eeb32f67baaa189a6", "type": "electric_scooter", "lon": -77.013985, "rental_uris": {"android": "https://dc.lft.to/lastmile_qr_scan", "ios": "https://dc.lft.to/lastmile_qr_scan"}, "lat": 38.880302666666665, "is_reserved": 0, "is_disabled": 0, "fusion_lat": 0.0}, {"fusion_lon": 0.0, "bike_id": "246708a0bacd39bc4eadc9ca2e64a6b6", "name": "246708a0bacd39bc4eadc9ca2e64a6b6", "type": "electric_scooter", "lon": -77.04166783333334, "rental_uris": {"android": "https://dc.lft.to/lastmile_qr_scan", "ios": "https://dc.lft.to/lastmile_qr_scan"}, "lat": 38.913435166666666, "is_reserved": 0, "is_disabled": 0, "fusion_lat": 0.0}, {"fusion_lon": 0.0, "bike_id": "02a78d468455960d4384fff938dd5c3e", "name": "02a78d468455960d4384fff938dd5c3e", "type": "electric_bike", "lon": -76.987582, "rental_uris": {"android": "https://dc.lft.to/lastmile_qr_scan", "ios": "https://dc.lft.to/lastmile_qr_scan"}, "lat": 38.85786433333333, "is_reserved": 0, "is_disabled": 0, "fusion_lat": 0.0}, {"fusion_lon": 0.0, "bike_id": "22ebd62bf2409a8f4e170f5e29467b27", "name": "22ebd62bf2409a8f4e170f5e29467b27", "type": "electric_bike", "lon": -77.10684733333333, "rental_uris": {"android": "https://dc.lft.to/lastmile_qr_scan", "ios": "https://dc.lft.to/lastmile_qr_scan"}, "lat": 38.93581966666667, "is_reserved": 0, "is_disabled": 0, "fusion_lat": 0.0}, {"fusion_lon": 0.0, "bike_id": "60345940b620d40c4761a29f6acffabc", "name": "60345940b620d40c4761a29f6acffabc", "type": "electric_scooter", "lon": -77.0146595, "rental_uris": {"android": "https://dc.lft.to/lastmile_qr_scan", "ios": "https://dc.lft.to/lastmile_qr_scan"}, "lat": 38.917646500000004, "is_reserved": 0, "is_disabled": 0, "fusion_lat": 0.0}, {"fusion_lon": 0.0, "bike_id": "55ea9e9da0aa71801fc4822c3fc3ecaf", "name": "55ea9e9da0aa71801fc4822c3fc3ecaf", "type": "electric_scooter", "lon": -77.031008, "rental_uris": {"android": "https://dc.lft.to/lastmile_qr_scan", "ios": "https://dc.lft.to/lastmile_qr_scan"}, "lat": 38.925697666666665, "is_reserved": 0, "is_disabled": 0, "fusion_lat": 0.0}, {"fusion_lon": 0.0, "bike_id": "ede95c99f2fb154c3b06c17414ab8be0", "name": "ede95c99f2fb154c3b06c17414ab8be0", "type": "electric_scooter", "lon": -77.0209675, "rental_uris": {"android": "https://dc.lft.to/lastmile_qr_scan", "ios": "https://dc.lft.to/lastmile_qr_scan"}, "lat": 38.911109833333335, "is_reserved": 0, "is_disabled": 0, "fusion_lat": 0.0}, {"fusion_lon": 0.0, "bike_id": "deed6133f45b7e41b1093dee7ce29c7b", "name": "deed6133f45b7e41b1093dee7ce29c7b", "type": "electric_scooter", "lon": -77.05055833333333, "rental_uris": {"android": "https://dc.lft.to/lastmile_qr_scan", "ios": "https://dc.lft.to/lastmile_qr_scan"}, "lat": 38.90082483333333, "is_reserved": 0, "is_disabled": 0, "fusion_lat": 0.0}, {"fusion_lon": 0.0, "bike_id": "4575a90f37f94f7ece1b4651c64b6619", "name": "4575a90f37f94f7ece1b4651c64b6619", "type": "electric_scooter", "lon": -77.00968216666666, "rental_uris": {"android": "https://dc.lft.to/lastmile_qr_scan", "ios": "https://dc.lft.to/lastmile_qr_scan"}, "lat": 38.9079035, "is_reserved": 0, "is_disabled": 0, "fusion_lat": 0.0}, {"fusion_lon": 0.0, "bike_id": "3f762df606bc0a44446b98b7ec2f5e36", "name": "3f762df606bc0a44446b98b7ec2f5e36", "type": "electric_scooter", "lon": -77.00074916666667, "rental_uris": {"android": "https://dc.lft.to/lastmile_qr_scan", "ios": "https://dc.lft.to/lastmile_qr_scan"}, "lat": 38.90141583333333, "is_reserved": 0, "is_disabled": 0, "fusion_lat": 0.0}, {"fusion_lon": 0.0, "bike_id": "cc72e38a15d569722a1adbd76e0f3db9", "name": "cc72e38a15d569722a1adbd76e0f3db9", "type": "electric_scooter", "lon": -77.05919583333333, "rental_uris": {"android": "https://dc.lft.to/lastmile_qr_scan", "ios": "https://dc.lft.to/lastmile_qr_scan"}, "lat": 38.900837, "is_reserved": 0, "is_disabled": 0, "fusion_lat": 0.0}, {"fusion_lon": 0.0, "bike_id": "7e5b33d9e422250095df47ef588a61a5", "name": "7e5b33d9e422250095df47ef588a61a5", "type": "electric_scooter", "lon": -77.01218966666667, "rental_uris": {"android": "https://dc.lft.to/lastmile_qr_scan", "ios": "https://dc.lft.to/lastmile_qr_scan"}, "lat": 38.913449166666666, "is_reserved": 0, "is_disabled": 0, "fusion_lat": 0.0}, {"fusion_lon": 0.0, "bike_id": "a326b99e9d7d9841e687b87493822b9f", "name": "a326b99e9d7d9841e687b87493822b9f", "type": "electric_scooter", "lon": -76.99611416666667, "rental_uris": {"android": "https://dc.lft.to/lastmile_qr_scan", "ios": "https://dc.lft.to/lastmile_qr_scan"}, "lat": 38.90122566666667, "is_reserved": 0, "is_disabled": 0, "fusion_lat": 0.0}, {"fusion_lon": 0.0, "bike_id": "8d65359e9356a331e2c3d3ac6cb1d212", "name": "8d65359e9356a331e2c3d3ac6cb1d212", "type": "electric_scooter", "lon": -77.036384, "rental_uris": {"android": "https://dc.lft.to/lastmile_qr_scan", "ios": "https://dc.lft.to/lastmile_qr_scan"}, "lat": 38.91842483333333, "is_reserved": 0, "is_disabled": 0, "fusion_lat": 0.0}, {"fusion_lon": 0.0, "bike_id": "c1524947df242ed22f4827e2b6a203f1", "name": "c1524947df242ed22f4827e2b6a203f1", "type": "electric_scooter", "lon": -77.02443083333333, "rental_uris": {"android": "https://dc.lft.to/lastmile_qr_scan", "ios": "https://dc.lft.to/lastmile_qr_scan"}, "lat": 38.93590983333333, "is_reserved": 0, "is_disabled": 0, "fusion_lat": 0.0}, {"fusion_lon": 0.0, "bike_id": "da1b11471fb3c79dd80da42b53ab25cb", "name": "da1b11471fb3c79dd80da42b53ab25cb", "type": "electric_scooter", "lon": -76.99693133333334, "rental_uris": {"android": "https://dc.lft.to/lastmile_qr_scan", "ios": "https://dc.lft.to/lastmile_qr_scan"}, "lat": 38.88424366666667, "is_reserved": 0, "is_disabled": 0, "fusion_lat": 0.0}, {"fusion_lon": 0.0, "bike_id": "e374ed2c05d72554a8ebd0ba69607a0d", "name": "e374ed2c05d72554a8ebd0ba69607a0d", "type": "electric_scooter", "lon": -77.03592833333333, "rental_uris": {"android": "https://dc.lft.to/lastmile_qr_scan", "ios": "https://dc.lft.to/lastmile_qr_scan"}, "lat": 38.90685233333333, "is_reserved": 0, "is_disabled": 0, "fusion_lat": 0.0}, {"fusion_lon": 0.0, "bike_id": "8cdc38eabd260f1717dc055bc9cdcf64", "name": "8cdc38eabd260f1717dc055bc9cdcf64", "type": "electric_scooter", "lon": -77.04012933333334, "rental_uris": {"android": "https://dc.lft.to/lastmile_qr_scan", "ios": "https://dc.lft.to/lastmile_qr_scan"}, "lat": 38.916350333333334, "is_reserved": 0, "is_disabled": 0, "fusion_lat": 0.0}, {"fusion_lon": 0.0, "bike_id": "b1005d21206386cc6ab77491f7383652", "name": "b1005d21206386cc6ab77491f7383652", "type": "electric_scooter", "lon": -77.03443483333334, "rental_uris": {"android": "https://dc.lft.to/lastmile_qr_scan", "ios": "https://dc.lft.to/lastmile_qr_scan"}, "lat": 38.91585166666667, "is_reserved": 0, "is_disabled": 0, "fusion_lat": 0.0}, {"fusion_lon": 0.0, "bike_id": "c62b75e4eda6d7f487c871402fdd21c0", "name": "c62b75e4eda6d7f487c871402fdd21c0", "type": "electric_scooter", "lon": -76.98469616666667, "rental_uris": {"android": "https://dc.lft.to/lastmile_qr_scan", "ios": "https://dc.lft.to/lastmile_qr_scan"}, "lat": 38.89350733333333, "is_reserved": 0, "is_disabled": 0, "fusion_lat": 0.0}, {"fusion_lon": 0.0, "bike_id": "c2e0c3cc7c761e0f8f4b79cb46da8420", "name": "c2e0c3cc7c761e0f8f4b79cb46da8420", "type": "electric_scooter", "lon": -76.9800185, "rental_uris": {"android": "https://dc.lft.to/lastmile_qr_scan", "ios": "https://dc.lft.to/lastmile_qr_scan"}, "lat": 38.888698833333336, "is_reserved": 0, "is_disabled": 0, "fusion_lat": 0.0}, {"fusion_lon": 0.0, "bike_id": "0fe7a76190c5a1a8a8f5622fa88025e7", "name": "0fe7a76190c5a1a8a8f5622fa88025e7", "type": "electric_scooter", "lon": -77.03614633333333, "rental_uris": {"android": "https://dc.lft.to/lastmile_qr_scan", "ios": "https://dc.lft.to/lastmile_qr_scan"}, "lat": 38.919085, "is_reserved": 0, "is_disabled": 0, "fusion_lat": 0.0}, {"fusion_lon": 0.0, "bike_id": "22155c256ca5e9d0d13e9876fe7200c8", "name": "22155c256ca5e9d0d13e9876fe7200c8", "type": "electric_scooter", "lon": -77.04274966666667, "rental_uris": {"android": "https://dc.lft.to/lastmile_qr_scan", "ios": "https://dc.lft.to/lastmile_qr_scan"}, "lat": 38.91697, "is_reserved": 0, "is_disabled": 0, "fusion_lat": 0.0}, {"fusion_lon": 0.0, "bike_id": "8c3681562cbdd1e4a56cc757e7f45e6a", "name": "8c3681562cbdd1e4a56cc757e7f45e6a", "type": "electric_scooter", "lon": -77.022331, "rental_uris": {"android": "https://dc.lft.to/lastmile_qr_scan", "ios": "https://dc.lft.to/lastmile_qr_scan"}, "lat": 38.91411766666667, "is_reserved": 0, "is_disabled": 0, "fusion_lat": 0.0}, {"fusion_lon": 0.0, "bike_id": "4bafeefb5c41e6e896e9c0cbd2d5ef80", "name": "4bafeefb5c41e6e896e9c0cbd2d5ef80", "type": "electric_scooter", "lon": -77.03115133333333, "rental_uris": {"android": "https://dc.lft.to/lastmile_qr_scan", "ios": "https://dc.lft.to/lastmile_qr_scan"}, "lat": 38.90549766666667, "is_reserved": 0, "is_disabled": 0, "fusion_lat": 0.0}, {"fusion_lon": 0.0, "bike_id": "e8e2841fa04f707ee401e009aff935fd", "name": "e8e2841fa04f707ee401e009aff935fd", "type": "electric_scooter", "lon": -77.03963083333333, "rental_uris": {"android": "https://dc.lft.to/lastmile_qr_scan", "ios": "https://dc.lft.to/lastmile_qr_scan"}, "lat": 38.91979216666667, "is_reserved": 0, "is_disabled": 0, "fusion_lat": 0.0}, {"fusion_lon": 0.0, "bike_id": "43fb01c57ae4c23a16a549df8660570a", "name": "43fb01c57ae4c23a16a549df8660570a", "type": "electric_scooter", "lon": -77.07379683333333, "rental_uris": {"android": "https://dc.lft.to/lastmile_qr_scan", "ios": "https://dc.lft.to/lastmile_qr_scan"}, "lat": 38.933548, "is_reserved": 0, "is_disabled": 0, "fusion_lat": 0.0}, {"fusion_lon": 0.0, "bike_id": "bfc5d667e3fbe1e635e65f0e81d4b029", "name": "bfc5d667e3fbe1e635e65f0e81d4b029", "type": "electric_scooter", "lon": -76.99078733333333, "rental_uris": {"android": "https://dc.lft.to/lastmile_qr_scan", "ios": "https://dc.lft.to/lastmile_qr_scan"}, "lat": 38.90424933333333, "is_reserved": 0, "is_disabled": 0, "fusion_lat": 0.0}, {"fusion_lon": 0.0, "bike_id": "72e101742cbb007b179bc5c8a6bdd877", "name": "72e101742cbb007b179bc5c8a6bdd877", "type": "electric_scooter", "lon": -77.05437283333333, "rental_uris": {"android": "https://dc.lft.to/lastmile_qr_scan", "ios": "https://dc.lft.to/lastmile_qr_scan"}, "lat": 38.89605516666666, "is_reserved": 0, "is_disabled": 0, "fusion_lat": 0.0}, {"fusion_lon": 0.0, "bike_id": "247a6eaa9b7732c58f176587ab5ac429", "name": "247a6eaa9b7732c58f176587ab5ac429", "type": "electric_scooter", "lon": -77.01750116666666, "rental_uris": {"android": "https://dc.lft.to/lastmile_qr_scan", "ios": "https://dc.lft.to/lastmile_qr_scan"}, "lat": 38.87465066666667, "is_reserved": 0, "is_disabled": 0, "fusion_lat": 0.0}, {"fusion_lon": 0.0, "bike_id": "7decb4bcfb1b200aa2a076ce0a3cefb2", "name": "7decb4bcfb1b200aa2a076ce0a3cefb2", "type": "electric_scooter", "lon": -77.00866816666667, "rental_uris": {"android": "https://dc.lft.to/lastmile_qr_scan", "ios": "https://dc.lft.to/lastmile_qr_scan"}, "lat": 38.90561866666667, "is_reserved": 0, "is_disabled": 0, "fusion_lat": 0.0}, {"fusion_lon": 0.0, "bike_id": "ca1a18f6b9db483eab0db3fbb7680f11", "name": "ca1a18f6b9db483eab0db3fbb7680f11", "type": "electric_scooter", "lon": -77.00757666666667, "rental_uris": {"android": "https://dc.lft.to/lastmile_qr_scan", "ios": "https://dc.lft.to/lastmile_qr_scan"}, "lat": 38.87655066666667, "is_reserved": 0, "is_disabled": 0, "fusion_lat": 0.0}, {"fusion_lon": 0.0, "bike_id": "7a07186c74166d987a5f3ad2c8f5b09c", "name": "7a07186c74166d987a5f3ad2c8f5b09c", "type": "electric_scooter", "lon": -77.03365766666667, "rental_uris": {"android": "https://dc.lft.to/lastmile_qr_scan", "ios": "https://dc.lft.to/lastmile_qr_scan"}, "lat": 38.911949166666666, "is_reserved": 0, "is_disabled": 0, "fusion_lat": 0.0}, {"fusion_lon": 0.0, "bike_id": "c6a0fbc48eb8ba670e79f48dc218cae8", "name": "c6a0fbc48eb8ba670e79f48dc218cae8", "type": "electric_scooter", "lon": -76.98073116666667, "rental_uris": {"android": "https://dc.lft.to/lastmile_qr_scan", "ios": "https://dc.lft.to/lastmile_qr_scan"}, "lat": 38.916731666666664, "is_reserved": 0, "is_disabled": 0, "fusion_lat": 0.0}, {"fusion_lon": 0.0, "bike_id": "ebe11d2b08f647cfec19fd1bd475a25c", "name": "ebe11d2b08f647cfec19fd1bd475a25c", "type": "electric_bike", "lon": -77.02496083333334, "rental_uris": {"android": "https://dc.lft.to/lastmile_qr_scan", "ios": "https://dc.lft.to/lastmile_qr_scan"}, "lat": 38.974131166666666, "is_reserved": 0, "is_disabled": 0, "fusion_lat": 0.0}, {"fusion_lon": 0.0, "bike_id": "a1f55d27a1b7974cfd8f593aa9b395b3", "name": "a1f55d27a1b7974cfd8f593aa9b395b3", "type": "electric_scooter", "lon": -77.02313583333333, "rental_uris": {"android": "https://dc.lft.to/lastmile_qr_scan", "ios": "https://dc.lft.to/lastmile_qr_scan"}, "lat": 38.92069433333333, "is_reserved": 0, "is_disabled": 0, "fusion_lat": 0.0}, {"fusion_lon": 0.0, "bike_id": "3e92558794ab55284e0edd9ce08e724f", "name": "3e92558794ab55284e0edd9ce08e724f", "type": "electric_bike", "lon": -77.000798, "rental_uris": {"android": "https://dc.lft.to/lastmile_qr_scan", "ios": "https://dc.lft.to/lastmile_qr_scan"}, "lat": 38.8859915, "is_reserved": 0, "is_disabled": 0, "fusion_lat": 0.0}, {"fusion_lon": 0.0, "bike_id": "86cbec931d5053707f6d23f9ffddcdf9", "name": "86cbec931d5053707f6d23f9ffddcdf9", "type": "electric_scooter", "lon": -77.02171333333334, "rental_uris": {"android": "https://dc.lft.to/lastmile_qr_scan", "ios": "https://dc.lft.to/lastmile_qr_scan"}, "lat": 38.94293016666666, "is_reserved": 0, "is_disabled": 0, "fusion_lat": 0.0}, {"fusion_lon": 0.0, "bike_id": "06719084edb2e2008746698a3c5c16fb", "name": "06719084edb2e2008746698a3c5c16fb", "type": "electric_scooter", "lon": -77.02845983333333, "rental_uris": {"android": "https://dc.lft.to/lastmile_qr_scan", "ios": "https://dc.lft.to/lastmile_qr_scan"}, "lat": 38.923827, "is_reserved": 0, "is_disabled": 0, "fusion_lat": 0.0}, {"fusion_lon": 0.0, "bike_id": "11e5140956b662f09fbaac16dc194e81", "name": "11e5140956b662f09fbaac16dc194e81", "type": "electric_scooter", "lon": -77.00605916666666, "rental_uris": {"android": "https://dc.lft.to/lastmile_qr_scan", "ios": "https://dc.lft.to/lastmile_qr_scan"}, "lat": 38.91121833333333, "is_reserved": 0, "is_disabled": 0, "fusion_lat": 0.0}, {"fusion_lon": 0.0, "bike_id": "ab78e8c3fc04b04efa3ea4fc0a77019c", "name": "ab78e8c3fc04b04efa3ea4fc0a77019c", "type": "electric_scooter", "lon": -77.03769316666667, "rental_uris": {"android": "https://dc.lft.to/lastmile_qr_scan", "ios": "https://dc.lft.to/lastmile_qr_scan"}, "lat": 38.935952, "is_reserved": 0, "is_disabled": 0, "fusion_lat": 0.0}, {"fusion_lon": 0.0, "bike_id": "eaf2e0b5c3cc74590588b09cf0d345ec", "name": "eaf2e0b5c3cc74590588b09cf0d345ec", "type": "electric_scooter", "lon": -77.00190016666667, "rental_uris": {"android": "https://dc.lft.to/lastmile_qr_scan", "ios": "https://dc.lft.to/lastmile_qr_scan"}, "lat": 38.9003835, "is_reserved": 0, "is_disabled": 0, "fusion_lat": 0.0}, {"fusion_lon": 0.0, "bike_id": "7c9a4b06ec56009c57e572896b6b2b79", "name": "7c9a4b06ec56009c57e572896b6b2b79", "type": "electric_scooter", "lon": -76.98884633333333, "rental_uris": {"android": "https://dc.lft.to/lastmile_qr_scan", "ios": "https://dc.lft.to/lastmile_qr_scan"}, "lat": 38.866739833333334, "is_reserved": 0, "is_disabled": 0, "fusion_lat": 0.0}, {"fusion_lon": 0.0, "bike_id": "3524e1facf66f8754dc928da28842d88", "name": "3524e1facf66f8754dc928da28842d88", "type": "electric_scooter", "lon": -76.9485125, "rental_uris": {"android": "https://dc.lft.to/lastmile_qr_scan", "ios": "https://dc.lft.to/lastmile_qr_scan"}, "lat": 38.88300366666667, "is_reserved": 0, "is_disabled": 0, "fusion_lat": 0.0}, {"fusion_lon": 0.0, "bike_id": "31262c4398ac2165b5f8fb5d89fbb074", "name": "31262c4398ac2165b5f8fb5d89fbb074", "type": "electric_scooter", "lon": -76.99028416666667, "rental_uris": {"android": "https://dc.lft.to/lastmile_qr_scan", "ios": "https://dc.lft.to/lastmile_qr_scan"}, "lat": 38.8607605, "is_reserved": 0, "is_disabled": 0, "fusion_lat": 0.0}, {"fusion_lon": 0.0, "bike_id": "1cfded4d0e3df5fa48bc29f7eb7cb345", "name": "1cfded4d0e3df5fa48bc29f7eb7cb345", "type": "electric_scooter", "lon": -77.0176705, "rental_uris": {"android": "https://dc.lft.to/lastmile_qr_scan", "ios": "https://dc.lft.to/lastmile_qr_scan"}, "lat": 38.902503333333335, "is_reserved": 0, "is_disabled": 0, "fusion_lat": 0.0}, {"fusion_lon": 0.0, "bike_id": "38e53d7b968472db6d945272ec62c5e8", "name": "38e53d7b968472db6d945272ec62c5e8", "type": "electric_scooter", "lon": -77.061879, "rental_uris": {"android": "https://dc.lft.to/lastmile_qr_scan", "ios": "https://dc.lft.to/lastmile_qr_scan"}, "lat": 38.93013166666667, "is_reserved": 0, "is_disabled": 0, "fusion_lat": 0.0}, {"fusion_lon": 0.0, "bike_id": "543bccccd77e7124ab7ba184e4c7d95e", "name": "543bccccd77e7124ab7ba184e4c7d95e", "type": "electric_scooter", "lon": -77.03520083333333, "rental_uris": {"android": "https://dc.lft.to/lastmile_qr_scan", "ios": "https://dc.lft.to/lastmile_qr_scan"}, "lat": 38.927314333333335, "is_reserved": 0, "is_disabled": 0, "fusion_lat": 0.0}, {"fusion_lon": 0.0, "bike_id": "2ca2139fe085423735e84174fdba2ce6", "name": "2ca2139fe085423735e84174fdba2ce6", "type": "electric_scooter", "lon": -77.013718, "rental_uris": {"android": "https://dc.lft.to/lastmile_qr_scan", "ios": "https://dc.lft.to/lastmile_qr_scan"}, "lat": 38.88637766666667, "is_reserved": 0, "is_disabled": 0, "fusion_lat": 0.0}, {"fusion_lon": 0.0, "bike_id": "8e81794b51316df20cd8a81dbb28939a", "name": "8e81794b51316df20cd8a81dbb28939a", "type": "electric_scooter", "lon": -77.03412216666666, "rental_uris": {"android": "https://dc.lft.to/lastmile_qr_scan", "ios": "https://dc.lft.to/lastmile_qr_scan"}, "lat": 38.91926866666667, "is_reserved": 0, "is_disabled": 0, "fusion_lat": 0.0}, {"fusion_lon": 0.0, "bike_id": "cfe7641224da439c8d8a7a73cac96529", "name": "cfe7641224da439c8d8a7a73cac96529", "type": "electric_bike", "lon": -77.14324066666667, "rental_uris": {"android": "https://dc.lft.to/lastmile_qr_scan", "ios": "https://dc.lft.to/lastmile_qr_scan"}, "lat": 39.05456183333333, "is_reserved": 0, "is_disabled": 0, "fusion_lat": 0.0}, {"fusion_lon": 0.0, "bike_id": "56731cceaaa959383de8a038f312c887", "name": "56731cceaaa959383de8a038f312c887", "type": "electric_bike", "lon": -77.34404383333333, "rental_uris": {"android": "https://dc.lft.to/lastmile_qr_scan", "ios": "https://dc.lft.to/lastmile_qr_scan"}, "lat": 38.94582533333333, "is_reserved": 0, "is_disabled": 0, "fusion_lat": 0.0}, {"fusion_lon": 0.0, "bike_id": "0bcc0fba8d51d9ff150f4d4e87508310", "name": "0bcc0fba8d51d9ff150f4d4e87508310", "type": "electric_scooter", "lon": -77.03867483333333, "rental_uris": {"android": "https://dc.lft.to/lastmile_qr_scan", "ios": "https://dc.lft.to/lastmile_qr_scan"}, "lat": 38.91558633333333, "is_reserved": 0, "is_disabled": 0, "fusion_lat": 0.0}, {"fusion_lon": 0.0, "bike_id": "b467ef0762af89d59031291a2369ef42", "name": "b467ef0762af89d59031291a2369ef42", "type": "electric_scooter", "lon": -77.03802616666667, "rental_uris": {"android": "https://dc.lft.to/lastmile_qr_scan", "ios": "https://dc.lft.to/lastmile_qr_scan"}, "lat": 38.91038483333333, "is_reserved": 0, "is_disabled": 0, "fusion_lat": 0.0}, {"fusion_lon": 0.0, "bike_id": "7ba8d2733362ad33d7205bd05f41c5dd", "name": "7ba8d2733362ad33d7205bd05f41c5dd", "type": "electric_scooter", "lon": -77.0231575, "rental_uris": {"android": "https://dc.lft.to/lastmile_qr_scan", "ios": "https://dc.lft.to/lastmile_qr_scan"}, "lat": 38.917660166666664, "is_reserved": 0, "is_disabled": 0, "fusion_lat": 0.0}, {"fusion_lon": 0.0, "bike_id": "99a65c6992d389d51ee9bdbc617e61a8", "name": "99a65c6992d389d51ee9bdbc617e61a8", "type": "electric_scooter", "lon": -77.04236683333333, "rental_uris": {"android": "https://dc.lft.to/lastmile_qr_scan", "ios": "https://dc.lft.to/lastmile_qr_scan"}, "lat": 38.92152866666667, "is_reserved": 0, "is_disabled": 0, "fusion_lat": 0.0}, {"fusion_lon": 0.0, "bike_id": "1e08ef18ab38e05b9f94c0182106f88e", "name": "1e08ef18ab38e05b9f94c0182106f88e", "type": "electric_scooter", "lon": -77.01853216666666, "rental_uris": {"android": "https://dc.lft.to/lastmile_qr_scan", "ios": "https://dc.lft.to/lastmile_qr_scan"}, "lat": 38.90246916666667, "is_reserved": 0, "is_disabled": 0, "fusion_lat": 0.0}, {"fusion_lon": 0.0, "bike_id": "6190a190b2aab5b3c74140cd56b2042d", "name": "6190a190b2aab5b3c74140cd56b2042d", "type": "electric_scooter", "lon": -77.03522633333333, "rental_uris": {"android": "https://dc.lft.to/lastmile_qr_scan", "ios": "https://dc.lft.to/lastmile_qr_scan"}, "lat": 38.932816333333335, "is_reserved": 0, "is_disabled": 0, "fusion_lat": 0.0}, {"fusion_lon": 0.0, "bike_id": "9a7cd7d92046c82137c0c5250611ff3c", "name": "9a7cd7d92046c82137c0c5250611ff3c", "type": "electric_bike", "lon": -77.10129183333333, "rental_uris": {"android": "https://dc.lft.to/lastmile_qr_scan", "ios": "https://dc.lft.to/lastmile_qr_scan"}, "lat": 38.8521405, "is_reserved": 0, "is_disabled": 0, "fusion_lat": 0.0}, {"fusion_lon": 0.0, "bike_id": "99a26c8e09f34012f15aa2a8aad26802", "name": "99a26c8e09f34012f15aa2a8aad26802", "type": "electric_scooter", "lon": -77.04506066666667, "rental_uris": {"android": "https://dc.lft.to/lastmile_qr_scan", "ios": "https://dc.lft.to/lastmile_qr_scan"}, "lat": 38.886050833333336, "is_reserved": 0, "is_disabled": 0, "fusion_lat": 0.0}, {"fusion_lon": 0.0, "bike_id": "743bafda32a63afec8b1b757a4d07407", "name": "743bafda32a63afec8b1b757a4d07407", "type": "electric_bike", "lon": -76.9076145, "rental_uris": {"android": "https://dc.lft.to/lastmile_qr_scan", "ios": "https://dc.lft.to/lastmile_qr_scan"}, "lat": 38.924379333333334, "is_reserved": 0, "is_disabled": 0, "fusion_lat": 0.0}, {"fusion_lon": 0.0, "bike_id": "5e448dfd59f60823bdfc7e3941f64d28", "name": "5e448dfd59f60823bdfc7e3941f64d28", "type": "electric_scooter", "lon": -77.03188483333334, "rental_uris": {"android": "https://dc.lft.to/lastmile_qr_scan", "ios": "https://dc.lft.to/lastmile_qr_scan"}, "lat": 38.90772066666667, "is_reserved": 0, "is_disabled": 0, "fusion_lat": 0.0}, {"fusion_lon": 0.0, "bike_id": "964f3046fc4a8e34f1522075d91a3a07", "name": "964f3046fc4a8e34f1522075d91a3a07", "type": "electric_scooter", "lon": -77.0365705, "rental_uris": {"android": "https://dc.lft.to/lastmile_qr_scan", "ios": "https://dc.lft.to/lastmile_qr_scan"}, "lat": 38.91132783333333, "is_reserved": 0, "is_disabled": 0, "fusion_lat": 0.0}, {"fusion_lon": 0.0, "bike_id": "7a7c998d789b14acb7b9fdcd4935e401", "name": "7a7c998d789b14acb7b9fdcd4935e401", "type": "electric_scooter", "lon": -77.03961883333334, "rental_uris": {"android": "https://dc.lft.to/lastmile_qr_scan", "ios": "https://dc.lft.to/lastmile_qr_scan"}, "lat": 38.926107333333334, "is_reserved": 0, "is_disabled": 0, "fusion_lat": 0.0}, {"fusion_lon": 0.0, "bike_id": "b25eb60281e207015c85a0d007a36439", "name": "b25eb60281e207015c85a0d007a36439", "type": "electric_scooter", "lon": -77.0044635, "rental_uris": {"android": "https://dc.lft.to/lastmile_qr_scan", "ios": "https://dc.lft.to/lastmile_qr_scan"}, "lat": 38.928928666666664, "is_reserved": 0, "is_disabled": 0, "fusion_lat": 0.0}, {"fusion_lon": 0.0, "bike_id": "47a8be07d18f67ec565b2b592380f70f", "name": "47a8be07d18f67ec565b2b592380f70f", "type": "electric_scooter", "lon": -77.03262866666667, "rental_uris": {"android": "https://dc.lft.to/lastmile_qr_scan", "ios": "https://dc.lft.to/lastmile_qr_scan"}, "lat": 38.93523716666667, "is_reserved": 0, "is_disabled": 0, "fusion_lat": 0.0}, {"fusion_lon": 0.0, "bike_id": "ede550165bec2692cfc93885abd39cc0", "name": "ede550165bec2692cfc93885abd39cc0", "type": "electric_scooter", "lon": -77.0476955, "rental_uris": {"android": "https://dc.lft.to/lastmile_qr_scan", "ios": "https://dc.lft.to/lastmile_qr_scan"}, "lat": 38.89774233333333, "is_reserved": 0, "is_disabled": 0, "fusion_lat": 0.0}, {"fusion_lon": 0.0, "bike_id": "138dacceb30fec8511606b1482f93f4c", "name": "138dacceb30fec8511606b1482f93f4c", "type": "electric_scooter", "lon": -77.03632016666667, "rental_uris": {"android": "https://dc.lft.to/lastmile_qr_scan", "ios": "https://dc.lft.to/lastmile_qr_scan"}, "lat": 38.936626833333335, "is_reserved": 0, "is_disabled": 0, "fusion_lat": 0.0}, {"fusion_lon": 0.0, "bike_id": "d7adc12bc0710ba8d6ca8baea89a4c66", "name": "d7adc12bc0710ba8d6ca8baea89a4c66", "type": "electric_scooter", "lon": -77.04680833333333, "rental_uris": {"android": "https://dc.lft.to/lastmile_qr_scan", "ios": "https://dc.lft.to/lastmile_qr_scan"}, "lat": 38.915804333333334, "is_reserved": 0, "is_disabled": 0, "fusion_lat": 0.0}, {"fusion_lon": 0.0, "bike_id": "b3e7e2203b148c80c6933ddf184fc677", "name": "b3e7e2203b148c80c6933ddf184fc677", "type": "electric_scooter", "lon": -77.03256683333333, "rental_uris": {"android": "https://dc.lft.to/lastmile_qr_scan", "ios": "https://dc.lft.to/lastmile_qr_scan"}, "lat": 38.914859, "is_reserved": 0, "is_disabled": 0, "fusion_lat": 0.0}, {"fusion_lon": 0.0, "bike_id": "9e4a57b15c5e3b92fd204e832842a8dc", "name": "9e4a57b15c5e3b92fd204e832842a8dc", "type": "electric_scooter", "lon": -77.02793283333334, "rental_uris": {"android": "https://dc.lft.to/lastmile_qr_scan", "ios": "https://dc.lft.to/lastmile_qr_scan"}, "lat": 38.91212866666667, "is_reserved": 0, "is_disabled": 0, "fusion_lat": 0.0}, {"fusion_lon": 0.0, "bike_id": "4db9987f5c0b2f3b47cdf56e799ca3c3", "name": "4db9987f5c0b2f3b47cdf56e799ca3c3", "type": "electric_scooter", "lon": -77.03183066666666, "rental_uris": {"android": "https://dc.lft.to/lastmile_qr_scan", "ios": "https://dc.lft.to/lastmile_qr_scan"}, "lat": 38.893308833333336, "is_reserved": 0, "is_disabled": 0, "fusion_lat": 0.0}, {"fusion_lon": 0.0, "bike_id": "59baaa8a2ed13223e237a19dddec5d91", "name": "59baaa8a2ed13223e237a19dddec5d91", "type": "electric_scooter", "lon": -77.07806416666666, "rental_uris": {"android": "https://dc.lft.to/lastmile_qr_scan", "ios": "https://dc.lft.to/lastmile_qr_scan"}, "lat": 38.92459683333333, "is_reserved": 0, "is_disabled": 0, "fusion_lat": 0.0}, {"fusion_lon": 0.0, "bike_id": "ab2c9ba362b1cd2e003fb479676e5199", "name": "ab2c9ba362b1cd2e003fb479676e5199", "type": "electric_scooter", "lon": -77.02203516666667, "rental_uris": {"android": "https://dc.lft.to/lastmile_qr_scan", "ios": "https://dc.lft.to/lastmile_qr_scan"}, "lat": 38.9153225, "is_reserved": 0, "is_disabled": 0, "fusion_lat": 0.0}, {"fusion_lon": 0.0, "bike_id": "1158f54390eadccffaecd6bb9b92a8ea", "name": "1158f54390eadccffaecd6bb9b92a8ea", "type": "electric_scooter", "lon": -77.02127233333333, "rental_uris": {"android": "https://dc.lft.to/lastmile_qr_scan", "ios": "https://dc.lft.to/lastmile_qr_scan"}, "lat": 38.8995115, "is_reserved": 0, "is_disabled": 0, "fusion_lat": 0.0}, {"fusion_lon": 0.0, "bike_id": "52bbe2697113ab589116acd822c099aa", "name": "52bbe2697113ab589116acd822c099aa", "type": "electric_scooter", "lon": -77.00577016666666, "rental_uris": {"android": "https://dc.lft.to/lastmile_qr_scan", "ios": "https://dc.lft.to/lastmile_qr_scan"}, "lat": 38.87170666666667, "is_reserved": 0, "is_disabled": 0, "fusion_lat": 0.0}, {"fusion_lon": 0.0, "bike_id": "c25b263be15b76f8e14486960fc88e93", "name": "c25b263be15b76f8e14486960fc88e93", "type": "electric_scooter", "lon": -77.02533783333334, "rental_uris": {"android": "https://dc.lft.to/lastmile_qr_scan", "ios": "https://dc.lft.to/lastmile_qr_scan"}, "lat": 38.930869333333334, "is_reserved": 0, "is_disabled": 0, "fusion_lat": 0.0}, {"fusion_lon": 0.0, "bike_id": "0e0ab219341f22388e8dfec4a324976a", "name": "0e0ab219341f22388e8dfec4a324976a", "type": "electric_scooter", "lon": -77.01407283333333, "rental_uris": {"android": "https://dc.lft.to/lastmile_qr_scan", "ios": "https://dc.lft.to/lastmile_qr_scan"}, "lat": 38.87909, "is_reserved": 0, "is_disabled": 0, "fusion_lat": 0.0}, {"fusion_lon": 0.0, "bike_id": "ef2f7bb6c9b242beb6c366b13e65d507", "name": "ef2f7bb6c9b242beb6c366b13e65d507", "type": "electric_scooter", "lon": -77.0227855, "rental_uris": {"android": "https://dc.lft.to/lastmile_qr_scan", "ios": "https://dc.lft.to/lastmile_qr_scan"}, "lat": 38.9166205, "is_reserved": 0, "is_disabled": 0, "fusion_lat": 0.0}, {"fusion_lon": 0.0, "bike_id": "bce592e872e00fbb005b03f27bb7b7c2", "name": "bce592e872e00fbb005b03f27bb7b7c2", "type": "electric_scooter", "lon": -77.03161783333333, "rental_uris": {"android": "https://dc.lft.to/lastmile_qr_scan", "ios": "https://dc.lft.to/lastmile_qr_scan"}, "lat": 38.927222666666665, "is_reserved": 0, "is_disabled": 0, "fusion_lat": 0.0}, {"fusion_lon": 0.0, "bike_id": "dae33862ea09dbacf20c6118ee5bb878", "name": "dae33862ea09dbacf20c6118ee5bb878", "type": "electric_scooter", "lon": -77.0359615, "rental_uris": {"android": "https://dc.lft.to/lastmile_qr_scan", "ios": "https://dc.lft.to/lastmile_qr_scan"}, "lat": 38.928549333333336, "is_reserved": 0, "is_disabled": 0, "fusion_lat": 0.0}, {"fusion_lon": 0.0, "bike_id": "d886a4596930328f548a6e33d0d4eb74", "name": "d886a4596930328f548a6e33d0d4eb74", "type": "electric_bike", "lon": -77.36087566666667, "rental_uris": {"android": "https://dc.lft.to/lastmile_qr_scan", "ios": "https://dc.lft.to/lastmile_qr_scan"}, "lat": 38.939619, "is_reserved": 0, "is_disabled": 0, "fusion_lat": 0.0}, {"fusion_lon": 0.0, "bike_id": "9bc022f73d730a64772dce7b6a06ca3e", "name": "9bc022f73d730a64772dce7b6a06ca3e", "type": "electric_bike", "lon": -76.97993966666667, "rental_uris": {"android": "https://dc.lft.to/lastmile_qr_scan", "ios": "https://dc.lft.to/lastmile_qr_scan"}, "lat": 38.877593, "is_reserved": 0, "is_disabled": 0, "fusion_lat": 0.0}, {"fusion_lon": 0.0, "bike_id": "e22c16493e6d43b44c994ac31c2693a7", "name": "e22c16493e6d43b44c994ac31c2693a7", "type": "electric_scooter", "lon": -77.0420025, "rental_uris": {"android": "https://dc.lft.to/lastmile_qr_scan", "ios": "https://dc.lft.to/lastmile_qr_scan"}, "lat": 38.92315416666667, "is_reserved": 0, "is_disabled": 0, "fusion_lat": 0.0}, {"fusion_lon": 0.0, "bike_id": "597f951526e4870dc5979fb123c32dac", "name": "597f951526e4870dc5979fb123c32dac", "type": "electric_scooter", "lon": -76.99959266666667, "rental_uris": {"android": "https://dc.lft.to/lastmile_qr_scan", "ios": "https://dc.lft.to/lastmile_qr_scan"}, "lat": 38.893195666666664, "is_reserved": 0, "is_disabled": 0, "fusion_lat": 0.0}, {"fusion_lon": 0.0, "bike_id": "189ba1c81ae7bf3367965fed709515ee", "name": "189ba1c81ae7bf3367965fed709515ee", "type": "electric_scooter", "lon": -76.98588333333333, "rental_uris": {"android": "https://dc.lft.to/lastmile_qr_scan", "ios": "https://dc.lft.to/lastmile_qr_scan"}, "lat": 38.884029166666664, "is_reserved": 0, "is_disabled": 0, "fusion_lat": 0.0}, {"fusion_lon": 0.0, "bike_id": "aef754b8816cb754348002100b6ca0e2", "name": "aef754b8816cb754348002100b6ca0e2", "type": "electric_scooter", "lon": -77.04170966666666, "rental_uris": {"android": "https://dc.lft.to/lastmile_qr_scan", "ios": "https://dc.lft.to/lastmile_qr_scan"}, "lat": 38.91548816666667, "is_reserved": 0, "is_disabled": 0, "fusion_lat": 0.0}, {"fusion_lon": 0.0, "bike_id": "ae48df9942351dfa4d2bef65a2a94757", "name": "ae48df9942351dfa4d2bef65a2a94757", "type": "electric_scooter", "lon": -77.01696616666666, "rental_uris": {"android": "https://dc.lft.to/lastmile_qr_scan", "ios": "https://dc.lft.to/lastmile_qr_scan"}, "lat": 38.974959, "is_reserved": 0, "is_disabled": 0, "fusion_lat": 0.0}, {"fusion_lon": 0.0, "bike_id": "b47beb9ddc89e126fa854f8d7dfdcb5f", "name": "b47beb9ddc89e126fa854f8d7dfdcb5f", "type": "electric_scooter", "lon": -77.03319466666666, "rental_uris": {"android": "https://dc.lft.to/lastmile_qr_scan", "ios": "https://dc.lft.to/lastmile_qr_scan"}, "lat": 38.90038883333333, "is_reserved": 0, "is_disabled": 0, "fusion_lat": 0.0}, {"fusion_lon": 0.0, "bike_id": "8ca408d15442ea05162091606f7e5ebe", "name": "8ca408d15442ea05162091606f7e5ebe", "type": "electric_scooter", "lon": -77.03183783333333, "rental_uris": {"android": "https://dc.lft.to/lastmile_qr_scan", "ios": "https://dc.lft.to/lastmile_qr_scan"}, "lat": 38.913535333333336, "is_reserved": 0, "is_disabled": 0, "fusion_lat": 0.0}, {"fusion_lon": 0.0, "bike_id": "6da0b43803a37ed6d6d708fbdae733cc", "name": "6da0b43803a37ed6d6d708fbdae733cc", "type": "electric_scooter", "lon": -77.02222983333333, "rental_uris": {"android": "https://dc.lft.to/lastmile_qr_scan", "ios": "https://dc.lft.to/lastmile_qr_scan"}, "lat": 38.892224166666665, "is_reserved": 0, "is_disabled": 0, "fusion_lat": 0.0}, {"fusion_lon": 0.0, "bike_id": "7f4d1b1e7663d47be2deb76039f99a28", "name": "7f4d1b1e7663d47be2deb76039f99a28", "type": "electric_scooter", "lon": -77.0379635, "rental_uris": {"android": "https://dc.lft.to/lastmile_qr_scan", "ios": "https://dc.lft.to/lastmile_qr_scan"}, "lat": 38.92629733333333, "is_reserved": 0, "is_disabled": 0, "fusion_lat": 0.0}, {"fusion_lon": 0.0, "bike_id": "881f513ed652f0103ff2f1718993ed8f", "name": "881f513ed652f0103ff2f1718993ed8f", "type": "electric_scooter", "lon": -77.02173783333333, "rental_uris": {"android": "https://dc.lft.to/lastmile_qr_scan", "ios": "https://dc.lft.to/lastmile_qr_scan"}, "lat": 38.942910166666664, "is_reserved": 0, "is_disabled": 0, "fusion_lat": 0.0}, {"fusion_lon": 0.0, "bike_id": "620ea799853063f385edc2e4996061c3", "name": "620ea799853063f385edc2e4996061c3", "type": "electric_scooter", "lon": -77.030493, "rental_uris": {"android": "https://dc.lft.to/lastmile_qr_scan", "ios": "https://dc.lft.to/lastmile_qr_scan"}, "lat": 38.939822666666664, "is_reserved": 0, "is_disabled": 0, "fusion_lat": 0.0}, {"fusion_lon": 0.0, "bike_id": "94b77f542aeb404301a495c901985a1f", "name": "94b77f542aeb404301a495c901985a1f", "type": "electric_scooter", "lon": -77.034444, "rental_uris": {"android": "https://dc.lft.to/lastmile_qr_scan", "ios": "https://dc.lft.to/lastmile_qr_scan"}, "lat": 38.907338, "is_reserved": 0, "is_disabled": 0, "fusion_lat": 0.0}, {"fusion_lon": 0.0, "bike_id": "6161361744b217566f2a4978591b294c", "name": "6161361744b217566f2a4978591b294c", "type": "electric_scooter", "lon": -77.07994233333334, "rental_uris": {"android": "https://dc.lft.to/lastmile_qr_scan", "ios": "https://dc.lft.to/lastmile_qr_scan"}, "lat": 38.92366116666667, "is_reserved": 0, "is_disabled": 0, "fusion_lat": 0.0}, {"fusion_lon": 0.0, "bike_id": "7a0316e79cea8140955aca607a013d1b", "name": "7a0316e79cea8140955aca607a013d1b", "type": "electric_bike", "lon": -77.01306183333334, "rental_uris": {"android": "https://dc.lft.to/lastmile_qr_scan", "ios": "https://dc.lft.to/lastmile_qr_scan"}, "lat": 38.88140883333333, "is_reserved": 0, "is_disabled": 0, "fusion_lat": 0.0}, {"fusion_lon": 0.0, "bike_id": "6f79f351fd69047cc17eea246ba40e04", "name": "6f79f351fd69047cc17eea246ba40e04", "type": "electric_scooter", "lon": -77.00198633333333, "rental_uris": {"android": "https://dc.lft.to/lastmile_qr_scan", "ios": "https://dc.lft.to/lastmile_qr_scan"}, "lat": 38.9022965, "is_reserved": 0, "is_disabled": 0, "fusion_lat": 0.0}, {"fusion_lon": 0.0, "bike_id": "9f0812358efe01431fa1fd34684b822e", "name": "9f0812358efe01431fa1fd34684b822e", "type": "electric_scooter", "lon": -77.05095783333333, "rental_uris": {"android": "https://dc.lft.to/lastmile_qr_scan", "ios": "https://dc.lft.to/lastmile_qr_scan"}, "lat": 38.923437666666665, "is_reserved": 0, "is_disabled": 0, "fusion_lat": 0.0}, {"fusion_lon": 0.0, "bike_id": "dda5bf67b817baa9755f861e15a05a85", "name": "dda5bf67b817baa9755f861e15a05a85", "type": "electric_scooter", "lon": -77.03829383333333, "rental_uris": {"android": "https://dc.lft.to/lastmile_qr_scan", "ios": "https://dc.lft.to/lastmile_qr_scan"}, "lat": 38.9100805, "is_reserved": 0, "is_disabled": 0, "fusion_lat": 0.0}, {"fusion_lon": 0.0, "bike_id": "722b57559ecc1036d602a348c4df4c62", "name": "722b57559ecc1036d602a348c4df4c62", "type": "electric_scooter", "lon": -77.04021466666667, "rental_uris": {"android": "https://dc.lft.to/lastmile_qr_scan", "ios": "https://dc.lft.to/lastmile_qr_scan"}, "lat": 38.92201133333333, "is_reserved": 0, "is_disabled": 0, "fusion_lat": 0.0}, {"fusion_lon": 0.0, "bike_id": "2df9a242bc318b59cd684186116b884f", "name": "2df9a242bc318b59cd684186116b884f", "type": "electric_scooter", "lon": -77.02628483333334, "rental_uris": {"android": "https://dc.lft.to/lastmile_qr_scan", "ios": "https://dc.lft.to/lastmile_qr_scan"}, "lat": 38.932768333333335, "is_reserved": 0, "is_disabled": 0, "fusion_lat": 0.0}, {"fusion_lon": 0.0, "bike_id": "f40ab3631a5193d4c22a87efde22f684", "name": "f40ab3631a5193d4c22a87efde22f684", "type": "electric_scooter", "lon": -77.04651916666667, "rental_uris": {"android": "https://dc.lft.to/lastmile_qr_scan", "ios": "https://dc.lft.to/lastmile_qr_scan"}, "lat": 38.9036865, "is_reserved": 0, "is_disabled": 0, "fusion_lat": 0.0}, {"fusion_lon": 0.0, "bike_id": "b55cbbf68e66d002d4e29f241188ee7d", "name": "b55cbbf68e66d002d4e29f241188ee7d", "type": "electric_scooter", "lon": -77.00834283333333, "rental_uris": {"android": "https://dc.lft.to/lastmile_qr_scan", "ios": "https://dc.lft.to/lastmile_qr_scan"}, "lat": 38.90694533333333, "is_reserved": 0, "is_disabled": 0, "fusion_lat": 0.0}, {"fusion_lon": 0.0, "bike_id": "5c050a5d88a195f37081a00025ca1bda", "name": "5c050a5d88a195f37081a00025ca1bda", "type": "electric_scooter", "lon": -76.99480183333333, "rental_uris": {"android": "https://dc.lft.to/lastmile_qr_scan", "ios": "https://dc.lft.to/lastmile_qr_scan"}, "lat": 38.862160833333334, "is_reserved": 0, "is_disabled": 0, "fusion_lat": 0.0}, {"fusion_lon": 0.0, "bike_id": "49b756965a09ec75c55251f155ee028f", "name": "49b756965a09ec75c55251f155ee028f", "type": "electric_scooter", "lon": -77.02449116666666, "rental_uris": {"android": "https://dc.lft.to/lastmile_qr_scan", "ios": "https://dc.lft.to/lastmile_qr_scan"}, "lat": 38.923775666666664, "is_reserved": 0, "is_disabled": 0, "fusion_lat": 0.0}, {"fusion_lon": 0.0, "bike_id": "29331efd264b8c4c8cc8dcc50ca2370b", "name": "29331efd264b8c4c8cc8dcc50ca2370b", "type": "electric_bike", "lon": -76.97328416666667, "rental_uris": {"android": "https://dc.lft.to/lastmile_qr_scan", "ios": "https://dc.lft.to/lastmile_qr_scan"}, "lat": 38.85063783333333, "is_reserved": 0, "is_disabled": 0, "fusion_lat": 0.0}, {"fusion_lon": 0.0, "bike_id": "4354603fa74e233d2a08066e59af320c", "name": "4354603fa74e233d2a08066e59af320c", "type": "electric_scooter", "lon": -77.0248505, "rental_uris": {"android": "https://dc.lft.to/lastmile_qr_scan", "ios": "https://dc.lft.to/lastmile_qr_scan"}, "lat": 38.91619166666667, "is_reserved": 0, "is_disabled": 0, "fusion_lat": 0.0}, {"fusion_lon": 0.0, "bike_id": "9ee199b2c297f91589feff5878a2e293", "name": "9ee199b2c297f91589feff5878a2e293", "type": "electric_scooter", "lon": -77.00940933333334, "rental_uris": {"android": "https://dc.lft.to/lastmile_qr_scan", "ios": "https://dc.lft.to/lastmile_qr_scan"}, "lat": 38.87661333333333, "is_reserved": 0, "is_disabled": 0, "fusion_lat": 0.0}, {"fusion_lon": 0.0, "bike_id": "a58503e888fe27be1ade81dd38a2b029", "name": "a58503e888fe27be1ade81dd38a2b029", "type": "electric_scooter", "lon": -76.98845466666667, "rental_uris": {"android": "https://dc.lft.to/lastmile_qr_scan", "ios": "https://dc.lft.to/lastmile_qr_scan"}, "lat": 38.90027116666667, "is_reserved": 0, "is_disabled": 0, "fusion_lat": 0.0}, {"fusion_lon": 0.0, "bike_id": "d5781b099f968a7dfad6865b4844a153", "name": "d5781b099f968a7dfad6865b4844a153", "type": "electric_scooter", "lon": -77.0259245, "rental_uris": {"android": "https://dc.lft.to/lastmile_qr_scan", "ios": "https://dc.lft.to/lastmile_qr_scan"}, "lat": 38.91276233333333, "is_reserved": 0, "is_disabled": 0, "fusion_lat": 0.0}, {"fusion_lon": 0.0, "bike_id": "9aa9f758e9a00b04624f325333371e5b", "name": "9aa9f758e9a00b04624f325333371e5b", "type": "electric_scooter", "lon": -76.98371466666667, "rental_uris": {"android": "https://dc.lft.to/lastmile_qr_scan", "ios": "https://dc.lft.to/lastmile_qr_scan"}, "lat": 38.90650183333333, "is_reserved": 0, "is_disabled": 0, "fusion_lat": 0.0}, {"fusion_lon": 0.0, "bike_id": "65554a0af14283da4576e03386261c13", "name": "65554a0af14283da4576e03386261c13", "type": "electric_scooter", "lon": -76.93533783333334, "rental_uris": {"android": "https://dc.lft.to/lastmile_qr_scan", "ios": "https://dc.lft.to/lastmile_qr_scan"}, "lat": 38.896814166666665, "is_reserved": 0, "is_disabled": 0, "fusion_lat": 0.0}, {"fusion_lon": 0.0, "bike_id": "ba7cf8eb983a8a03ab87976a8779e144", "name": "ba7cf8eb983a8a03ab87976a8779e144", "type": "electric_bike", "lon": -76.981203, "rental_uris": {"android": "https://dc.lft.to/lastmile_qr_scan", "ios": "https://dc.lft.to/lastmile_qr_scan"}, "lat": 38.89668016666667, "is_reserved": 0, "is_disabled": 0, "fusion_lat": 0.0}, {"fusion_lon": 0.0, "bike_id": "da341e89ff97ef8cc77db85046dc4e0b", "name": "da341e89ff97ef8cc77db85046dc4e0b", "type": "electric_bike", "lon": -77.10187266666667, "rental_uris": {"android": "https://dc.lft.to/lastmile_qr_scan", "ios": "https://dc.lft.to/lastmile_qr_scan"}, "lat": 38.9181115, "is_reserved": 0, "is_disabled": 0, "fusion_lat": 0.0}, {"fusion_lon": 0.0, "bike_id": "a7d215e5bdecae703265e42044dbe38b", "name": "a7d215e5bdecae703265e42044dbe38b", "type": "electric_scooter", "lon": -77.02152733333334, "rental_uris": {"android": "https://dc.lft.to/lastmile_qr_scan", "ios": "https://dc.lft.to/lastmile_qr_scan"}, "lat": 38.92602883333333, "is_reserved": 0, "is_disabled": 0, "fusion_lat": 0.0}, {"fusion_lon": 0.0, "bike_id": "2397d039c956522e600796f5e09cf6bc", "name": "2397d039c956522e600796f5e09cf6bc", "type": "electric_scooter", "lon": -76.996174, "rental_uris": {"android": "https://dc.lft.to/lastmile_qr_scan", "ios": "https://dc.lft.to/lastmile_qr_scan"}, "lat": 38.886163, "is_reserved": 0, "is_disabled": 0, "fusion_lat": 0.0}, {"fusion_lon": 0.0, "bike_id": "98f3e298d86b17b4d408b83008a17614", "name": "98f3e298d86b17b4d408b83008a17614", "type": "electric_bike", "lon": -76.9832955, "rental_uris": {"android": "https://dc.lft.to/lastmile_qr_scan", "ios": "https://dc.lft.to/lastmile_qr_scan"}, "lat": 38.966058, "is_reserved": 0, "is_disabled": 0, "fusion_lat": 0.0}, {"fusion_lon": 0.0, "bike_id": "6c1a0d11ed43ca8a49b292d22535d390", "name": "6c1a0d11ed43ca8a49b292d22535d390", "type": "electric_scooter", "lon": -77.03264716666666, "rental_uris": {"android": "https://dc.lft.to/lastmile_qr_scan", "ios": "https://dc.lft.to/lastmile_qr_scan"}, "lat": 38.933304666666665, "is_reserved": 0, "is_disabled": 0, "fusion_lat": 0.0}, {"fusion_lon": 0.0, "bike_id": "9fe0b984b7913254457aea79f0a617e5", "name": "9fe0b984b7913254457aea79f0a617e5", "type": "electric_bike", "lon": -77.1121325, "rental_uris": {"android": "https://dc.lft.to/lastmile_qr_scan", "ios": "https://dc.lft.to/lastmile_qr_scan"}, "lat": 38.8120525, "is_reserved": 0, "is_disabled": 0, "fusion_lat": 0.0}, {"fusion_lon": 0.0, "bike_id": "89fe81243386d7602e95217395cb3612", "name": "89fe81243386d7602e95217395cb3612", "type": "electric_scooter", "lon": -77.0724405, "rental_uris": {"android": "https://dc.lft.to/lastmile_qr_scan", "ios": "https://dc.lft.to/lastmile_qr_scan"}, "lat": 38.922644166666664, "is_reserved": 0, "is_disabled": 0, "fusion_lat": 0.0}, {"fusion_lon": 0.0, "bike_id": "fac610afb3bcae6be8020d989c6af13e", "name": "fac610afb3bcae6be8020d989c6af13e", "type": "electric_scooter", "lon": -77.064098, "rental_uris": {"android": "https://dc.lft.to/lastmile_qr_scan", "ios": "https://dc.lft.to/lastmile_qr_scan"}, "lat": 38.94324833333334, "is_reserved": 0, "is_disabled": 0, "fusion_lat": 0.0}, {"fusion_lon": 0.0, "bike_id": "23f477a32f0948ca058507a17de579d3", "name": "23f477a32f0948ca058507a17de579d3", "type": "electric_scooter", "lon": -77.03144333333333, "rental_uris": {"android": "https://dc.lft.to/lastmile_qr_scan", "ios": "https://dc.lft.to/lastmile_qr_scan"}, "lat": 38.93183416666667, "is_reserved": 0, "is_disabled": 0, "fusion_lat": 0.0}, {"fusion_lon": 0.0, "bike_id": "35b77fd5af0be1c733d13814ba240c6c", "name": "35b77fd5af0be1c733d13814ba240c6c", "type": "electric_scooter", "lon": -76.93750583333333, "rental_uris": {"android": "https://dc.lft.to/lastmile_qr_scan", "ios": "https://dc.lft.to/lastmile_qr_scan"}, "lat": 38.89035, "is_reserved": 0, "is_disabled": 0, "fusion_lat": 0.0}, {"fusion_lon": 0.0, "bike_id": "98063c129ba6381a95b85944a72091b6", "name": "98063c129ba6381a95b85944a72091b6", "type": "electric_scooter", "lon": -76.99628333333334, "rental_uris": {"android": "https://dc.lft.to/lastmile_qr_scan", "ios": "https://dc.lft.to/lastmile_qr_scan"}, "lat": 38.846187666666665, "is_reserved": 0, "is_disabled": 0, "fusion_lat": 0.0}, {"fusion_lon": 0.0, "bike_id": "9142bb0343280635084eb1321685acb1", "name": "9142bb0343280635084eb1321685acb1", "type": "electric_scooter", "lon": -76.97797916666667, "rental_uris": {"android": "https://dc.lft.to/lastmile_qr_scan", "ios": "https://dc.lft.to/lastmile_qr_scan"}, "lat": 38.903139333333336, "is_reserved": 0, "is_disabled": 0, "fusion_lat": 0.0}, {"fusion_lon": 0.0, "bike_id": "646191955c21dfec541b02af3b44854f", "name": "646191955c21dfec541b02af3b44854f", "type": "electric_scooter", "lon": -77.0465285, "rental_uris": {"android": "https://dc.lft.to/lastmile_qr_scan", "ios": "https://dc.lft.to/lastmile_qr_scan"}, "lat": 38.8923285, "is_reserved": 0, "is_disabled": 0, "fusion_lat": 0.0}, {"fusion_lon": 0.0, "bike_id": "b7d41ff9b574b897bf15e32a914ac544", "name": "b7d41ff9b574b897bf15e32a914ac544", "type": "electric_scooter", "lon": -77.03181666666667, "rental_uris": {"android": "https://dc.lft.to/lastmile_qr_scan", "ios": "https://dc.lft.to/lastmile_qr_scan"}, "lat": 38.91801183333333, "is_reserved": 0, "is_disabled": 0, "fusion_lat": 0.0}, {"fusion_lon": 0.0, "bike_id": "0b52c5ad86657f72b85009ab0cc2ce47", "name": "0b52c5ad86657f72b85009ab0cc2ce47", "type": "electric_scooter", "lon": -77.01190483333333, "rental_uris": {"android": "https://dc.lft.to/lastmile_qr_scan", "ios": "https://dc.lft.to/lastmile_qr_scan"}, "lat": 38.895205, "is_reserved": 0, "is_disabled": 0, "fusion_lat": 0.0}, {"fusion_lon": 0.0, "bike_id": "e176506da6dcea228a3093362956593f", "name": "e176506da6dcea228a3093362956593f", "type": "electric_scooter", "lon": -77.0506465, "rental_uris": {"android": "https://dc.lft.to/lastmile_qr_scan", "ios": "https://dc.lft.to/lastmile_qr_scan"}, "lat": 38.90094716666667, "is_reserved": 0, "is_disabled": 0, "fusion_lat": 0.0}, {"fusion_lon": 0.0, "bike_id": "66fef39d50b79ae15fb7200d5b007d6a", "name": "66fef39d50b79ae15fb7200d5b007d6a", "type": "electric_bike", "lon": -76.98751283333333, "rental_uris": {"android": "https://dc.lft.to/lastmile_qr_scan", "ios": "https://dc.lft.to/lastmile_qr_scan"}, "lat": 38.98822966666667, "is_reserved": 0, "is_disabled": 0, "fusion_lat": 0.0}, {"fusion_lon": 0.0, "bike_id": "504b06c846ba90c72c9f6f43af2f1bc3", "name": "504b06c846ba90c72c9f6f43af2f1bc3", "type": "electric_scooter", "lon": -77.01777933333334, "rental_uris": {"android": "https://dc.lft.to/lastmile_qr_scan", "ios": "https://dc.lft.to/lastmile_qr_scan"}, "lat": 38.92115183333333, "is_reserved": 0, "is_disabled": 0, "fusion_lat": 0.0}, {"fusion_lon": 0.0, "bike_id": "91e2eef9916ae5a5ffb48ce2806bf855", "name": "91e2eef9916ae5a5ffb48ce2806bf855", "type": "electric_scooter", "lon": -77.03153433333334, "rental_uris": {"android": "https://dc.lft.to/lastmile_qr_scan", "ios": "https://dc.lft.to/lastmile_qr_scan"}, "lat": 38.92810333333333, "is_reserved": 0, "is_disabled": 0, "fusion_lat": 0.0}, {"fusion_lon": 0.0, "bike_id": "30d19a9db711864e7b19f11f9ddd8b25", "name": "30d19a9db711864e7b19f11f9ddd8b25", "type": "electric_scooter", "lon": -77.00515833333333, "rental_uris": {"android": "https://dc.lft.to/lastmile_qr_scan", "ios": "https://dc.lft.to/lastmile_qr_scan"}, "lat": 38.874726833333334, "is_reserved": 0, "is_disabled": 0, "fusion_lat": 0.0}, {"fusion_lon": 0.0, "bike_id": "52c334af478c3a35d660555c3a6ea9b6", "name": "52c334af478c3a35d660555c3a6ea9b6", "type": "electric_bike", "lon": -76.93615716666666, "rental_uris": {"android": "https://dc.lft.to/lastmile_qr_scan", "ios": "https://dc.lft.to/lastmile_qr_scan"}, "lat": 38.9704755, "is_reserved": 0, "is_disabled": 0, "fusion_lat": 0.0}, {"fusion_lon": 0.0, "bike_id": "59106afdadbd814b1b43dde67908d6b5", "name": "59106afdadbd814b1b43dde67908d6b5", "type": "electric_scooter", "lon": -77.01436533333333, "rental_uris": {"android": "https://dc.lft.to/lastmile_qr_scan", "ios": "https://dc.lft.to/lastmile_qr_scan"}, "lat": 38.877804166666664, "is_reserved": 0, "is_disabled": 0, "fusion_lat": 0.0}, {"fusion_lon": 0.0, "bike_id": "9be263f90db0a27d000aa0335c7e6028", "name": "9be263f90db0a27d000aa0335c7e6028", "type": "electric_bike", "lon": -77.06171783333333, "rental_uris": {"android": "https://dc.lft.to/lastmile_qr_scan", "ios": "https://dc.lft.to/lastmile_qr_scan"}, "lat": 38.81270166666667, "is_reserved": 0, "is_disabled": 0, "fusion_lat": 0.0}, {"fusion_lon": 0.0, "bike_id": "31851bb25c24ce63d27c3b1aa512c1e3", "name": "31851bb25c24ce63d27c3b1aa512c1e3", "type": "electric_bike", "lon": -76.9446805, "rental_uris": {"android": "https://dc.lft.to/lastmile_qr_scan", "ios": "https://dc.lft.to/lastmile_qr_scan"}, "lat": 38.94558966666666, "is_reserved": 0, "is_disabled": 0, "fusion_lat": 0.0}, {"fusion_lon": 0.0, "bike_id": "2b7af151b147b84fc7bf6830adf845c0", "name": "2b7af151b147b84fc7bf6830adf845c0", "type": "electric_scooter", "lon": -77.04198666666667, "rental_uris": {"android": "https://dc.lft.to/lastmile_qr_scan", "ios": "https://dc.lft.to/lastmile_qr_scan"}, "lat": 38.918678166666666, "is_reserved": 0, "is_disabled": 0, "fusion_lat": 0.0}, {"fusion_lon": 0.0, "bike_id": "e2d59cbeb721ef0846c2c71e6a7382b2", "name": "e2d59cbeb721ef0846c2c71e6a7382b2", "type": "electric_scooter", "lon": -77.01012366666667, "rental_uris": {"android": "https://dc.lft.to/lastmile_qr_scan", "ios": "https://dc.lft.to/lastmile_qr_scan"}, "lat": 38.8797165, "is_reserved": 0, "is_disabled": 0, "fusion_lat": 0.0}, {"fusion_lon": 0.0, "bike_id": "96a85e91f73ed6baff5e4c39c97a12ff", "name": "96a85e91f73ed6baff5e4c39c97a12ff", "type": "electric_scooter", "lon": -77.008771, "rental_uris": {"android": "https://dc.lft.to/lastmile_qr_scan", "ios": "https://dc.lft.to/lastmile_qr_scan"}, "lat": 38.90580633333333, "is_reserved": 0, "is_disabled": 0, "fusion_lat": 0.0}, {"fusion_lon": 0.0, "bike_id": "654086f223b552fb547ea93735ab439f", "name": "654086f223b552fb547ea93735ab439f", "type": "electric_bike", "lon": -77.07901983333333, "rental_uris": {"android": "https://dc.lft.to/lastmile_qr_scan", "ios": "https://dc.lft.to/lastmile_qr_scan"}, "lat": 38.839298, "is_reserved": 0, "is_disabled": 0, "fusion_lat": 0.0}, {"fusion_lon": 0.0, "bike_id": "7db8240fde484ddf7c1786ff587be5e1", "name": "7db8240fde484ddf7c1786ff587be5e1", "type": "electric_scooter", "lon": -77.03398533333333, "rental_uris": {"android": "https://dc.lft.to/lastmile_qr_scan", "ios": "https://dc.lft.to/lastmile_qr_scan"}, "lat": 38.91966683333333, "is_reserved": 0, "is_disabled": 0, "fusion_lat": 0.0}, {"fusion_lon": 0.0, "bike_id": "75fa2314a36f41c2a22abf9d8887f171", "name": "75fa2314a36f41c2a22abf9d8887f171", "type": "electric_scooter", "lon": -77.0227295, "rental_uris": {"android": "https://dc.lft.to/lastmile_qr_scan", "ios": "https://dc.lft.to/lastmile_qr_scan"}, "lat": 38.91742166666667, "is_reserved": 0, "is_disabled": 0, "fusion_lat": 0.0}, {"fusion_lon": 0.0, "bike_id": "e530caf20db16916b18f7a3558d5abd6", "name": "e530caf20db16916b18f7a3558d5abd6", "type": "electric_scooter", "lon": -77.02533, "rental_uris": {"android": "https://dc.lft.to/lastmile_qr_scan", "ios": "https://dc.lft.to/lastmile_qr_scan"}, "lat": 38.90733633333333, "is_reserved": 0, "is_disabled": 0, "fusion_lat": 0.0}, {"fusion_lon": 0.0, "bike_id": "568e2a01ff326819526a07b770eaa2d7", "name": "568e2a01ff326819526a07b770eaa2d7", "type": "electric_bike", "lon": -77.11430983333334, "rental_uris": {"android": "https://dc.lft.to/lastmile_qr_scan", "ios": "https://dc.lft.to/lastmile_qr_scan"}, "lat": 38.84313216666666, "is_reserved": 0, "is_disabled": 0, "fusion_lat": 0.0}, {"fusion_lon": 0.0, "bike_id": "23f5dd5f11f3eaa34356df642476d439", "name": "23f5dd5f11f3eaa34356df642476d439", "type": "electric_scooter", "lon": -77.0329635, "rental_uris": {"android": "https://dc.lft.to/lastmile_qr_scan", "ios": "https://dc.lft.to/lastmile_qr_scan"}, "lat": 38.92256733333333, "is_reserved": 0, "is_disabled": 0, "fusion_lat": 0.0}, {"fusion_lon": 0.0, "bike_id": "32c70715867b593ff2af7f49ed028586", "name": "32c70715867b593ff2af7f49ed028586", "type": "electric_scooter", "lon": -77.04236916666666, "rental_uris": {"android": "https://dc.lft.to/lastmile_qr_scan", "ios": "https://dc.lft.to/lastmile_qr_scan"}, "lat": 38.94550916666667, "is_reserved": 0, "is_disabled": 0, "fusion_lat": 0.0}, {"fusion_lon": 0.0, "bike_id": "ac4ea5424a20804122ea29f729af1a36", "name": "ac4ea5424a20804122ea29f729af1a36", "type": "electric_scooter", "lon": -76.94633583333334, "rental_uris": {"android": "https://dc.lft.to/lastmile_qr_scan", "ios": "https://dc.lft.to/lastmile_qr_scan"}, "lat": 38.898354166666664, "is_reserved": 0, "is_disabled": 0, "fusion_lat": 0.0}, {"fusion_lon": 0.0, "bike_id": "4c9226d7f96f12ac5d78a9082feaf495", "name": "4c9226d7f96f12ac5d78a9082feaf495", "type": "electric_scooter", "lon": -76.9985415, "rental_uris": {"android": "https://dc.lft.to/lastmile_qr_scan", "ios": "https://dc.lft.to/lastmile_qr_scan"}, "lat": 38.90883783333334, "is_reserved": 0, "is_disabled": 0, "fusion_lat": 0.0}, {"fusion_lon": 0.0, "bike_id": "fc8e8c6aecf42325926f82f3f54b7acc", "name": "fc8e8c6aecf42325926f82f3f54b7acc", "type": "electric_scooter", "lon": -77.02436716666666, "rental_uris": {"android": "https://dc.lft.to/lastmile_qr_scan", "ios": "https://dc.lft.to/lastmile_qr_scan"}, "lat": 38.92659666666667, "is_reserved": 0, "is_disabled": 0, "fusion_lat": 0.0}, {"fusion_lon": 0.0, "bike_id": "96bb138da65b6a34bb4df4115e3d112a", "name": "96bb138da65b6a34bb4df4115e3d112a", "type": "electric_scooter", "lon": -77.0347865, "rental_uris": {"android": "https://dc.lft.to/lastmile_qr_scan", "ios": "https://dc.lft.to/lastmile_qr_scan"}, "lat": 38.92875333333333, "is_reserved": 0, "is_disabled": 0, "fusion_lat": 0.0}, {"fusion_lon": 0.0, "bike_id": "ea8a0466ac9e827fd2bf43ac4f1c0173", "name": "ea8a0466ac9e827fd2bf43ac4f1c0173", "type": "electric_scooter", "lon": -77.0638945, "rental_uris": {"android": "https://dc.lft.to/lastmile_qr_scan", "ios": "https://dc.lft.to/lastmile_qr_scan"}, "lat": 38.92907816666666, "is_reserved": 0, "is_disabled": 0, "fusion_lat": 0.0}, {"fusion_lon": 0.0, "bike_id": "9d52cd36d563a9babde1640b0f6c66c9", "name": "9d52cd36d563a9babde1640b0f6c66c9", "type": "electric_scooter", "lon": -77.02756466666666, "rental_uris": {"android": "https://dc.lft.to/lastmile_qr_scan", "ios": "https://dc.lft.to/lastmile_qr_scan"}, "lat": 38.95415833333333, "is_reserved": 0, "is_disabled": 0, "fusion_lat": 0.0}, {"fusion_lon": 0.0, "bike_id": "00456c939666d8f3754a7be1e95c99cb", "name": "00456c939666d8f3754a7be1e95c99cb", "type": "electric_scooter", "lon": -77.00702816666667, "rental_uris": {"android": "https://dc.lft.to/lastmile_qr_scan", "ios": "https://dc.lft.to/lastmile_qr_scan"}, "lat": 38.896735666666665, "is_reserved": 0, "is_disabled": 0, "fusion_lat": 0.0}, {"fusion_lon": 0.0, "bike_id": "2e3b1f06edb844f2b7eab7457494bebd", "name": "2e3b1f06edb844f2b7eab7457494bebd", "type": "electric_scooter", "lon": -77.04503566666666, "rental_uris": {"android": "https://dc.lft.to/lastmile_qr_scan", "ios": "https://dc.lft.to/lastmile_qr_scan"}, "lat": 38.91277066666667, "is_reserved": 0, "is_disabled": 0, "fusion_lat": 0.0}, {"fusion_lon": 0.0, "bike_id": "dfbe419762aafd49979ba44250f3bfb1", "name": "dfbe419762aafd49979ba44250f3bfb1", "type": "electric_scooter", "lon": -77.02287116666666, "rental_uris": {"android": "https://dc.lft.to/lastmile_qr_scan", "ios": "https://dc.lft.to/lastmile_qr_scan"}, "lat": 38.91615083333333, "is_reserved": 0, "is_disabled": 0, "fusion_lat": 0.0}, {"fusion_lon": 0.0, "bike_id": "684eb5c08c9680337b574573694eacde", "name": "684eb5c08c9680337b574573694eacde", "type": "electric_scooter", "lon": -77.06044533333333, "rental_uris": {"android": "https://dc.lft.to/lastmile_qr_scan", "ios": "https://dc.lft.to/lastmile_qr_scan"}, "lat": 38.939141166666666, "is_reserved": 0, "is_disabled": 0, "fusion_lat": 0.0}, {"fusion_lon": 0.0, "bike_id": "2c6cdf9d48c043e5be1415986d380d07", "name": "2c6cdf9d48c043e5be1415986d380d07", "type": "electric_scooter", "lon": -77.02711166666667, "rental_uris": {"android": "https://dc.lft.to/lastmile_qr_scan", "ios": "https://dc.lft.to/lastmile_qr_scan"}, "lat": 38.918038833333334, "is_reserved": 0, "is_disabled": 0, "fusion_lat": 0.0}, {"fusion_lon": 0.0, "bike_id": "cd294cd9286eade88e8fb72835c74cfc", "name": "cd294cd9286eade88e8fb72835c74cfc", "type": "electric_scooter", "lon": -77.03260283333333, "rental_uris": {"android": "https://dc.lft.to/lastmile_qr_scan", "ios": "https://dc.lft.to/lastmile_qr_scan"}, "lat": 38.937514166666666, "is_reserved": 0, "is_disabled": 0, "fusion_lat": 0.0}, {"fusion_lon": 0.0, "bike_id": "8c7e02961c1514663b002cd74d691924", "name": "8c7e02961c1514663b002cd74d691924", "type": "electric_scooter", "lon": -77.04390016666666, "rental_uris": {"android": "https://dc.lft.to/lastmile_qr_scan", "ios": "https://dc.lft.to/lastmile_qr_scan"}, "lat": 38.90884333333333, "is_reserved": 0, "is_disabled": 0, "fusion_lat": 0.0}, {"fusion_lon": 0.0, "bike_id": "aae88f8e47c0cb397d5f4a378199f3b9", "name": "aae88f8e47c0cb397d5f4a378199f3b9", "type": "electric_scooter", "lon": -77.03461883333334, "rental_uris": {"android": "https://dc.lft.to/lastmile_qr_scan", "ios": "https://dc.lft.to/lastmile_qr_scan"}, "lat": 38.921602166666666, "is_reserved": 0, "is_disabled": 0, "fusion_lat": 0.0}, {"fusion_lon": 0.0, "bike_id": "0ebe4ba0bb57389eac04585310375337", "name": "0ebe4ba0bb57389eac04585310375337", "type": "electric_scooter", "lon": -77.01479483333334, "rental_uris": {"android": "https://dc.lft.to/lastmile_qr_scan", "ios": "https://dc.lft.to/lastmile_qr_scan"}, "lat": 38.87632633333333, "is_reserved": 0, "is_disabled": 0, "fusion_lat": 0.0}, {"fusion_lon": 0.0, "bike_id": "25eddbc5dd18cd0d24c1abe74549e98f", "name": "25eddbc5dd18cd0d24c1abe74549e98f", "type": "electric_scooter", "lon": -76.9797615, "rental_uris": {"android": "https://dc.lft.to/lastmile_qr_scan", "ios": "https://dc.lft.to/lastmile_qr_scan"}, "lat": 38.887657, "is_reserved": 0, "is_disabled": 0, "fusion_lat": 0.0}, {"fusion_lon": 0.0, "bike_id": "0afde6638500dadb00faa7f82dfa30ab", "name": "0afde6638500dadb00faa7f82dfa30ab", "type": "electric_scooter", "lon": -77.01782233333333, "rental_uris": {"android": "https://dc.lft.to/lastmile_qr_scan", "ios": "https://dc.lft.to/lastmile_qr_scan"}, "lat": 38.90262966666667, "is_reserved": 0, "is_disabled": 0, "fusion_lat": 0.0}, {"fusion_lon": 0.0, "bike_id": "f12228c8a2a7df4df58ae25c6916caa3", "name": "f12228c8a2a7df4df58ae25c6916caa3", "type": "electric_scooter", "lon": -77.0436295, "rental_uris": {"android": "https://dc.lft.to/lastmile_qr_scan", "ios": "https://dc.lft.to/lastmile_qr_scan"}, "lat": 38.910494, "is_reserved": 0, "is_disabled": 0, "fusion_lat": 0.0}, {"fusion_lon": 0.0, "bike_id": "ecc788914148538b5337c11113f02d4d", "name": "ecc788914148538b5337c11113f02d4d", "type": "electric_scooter", "lon": -77.00231083333334, "rental_uris": {"android": "https://dc.lft.to/lastmile_qr_scan", "ios": "https://dc.lft.to/lastmile_qr_scan"}, "lat": 38.890929166666666, "is_reserved": 0, "is_disabled": 0, "fusion_lat": 0.0}, {"fusion_lon": 0.0, "bike_id": "ed9be237c1df874f144670d689c997eb", "name": "ed9be237c1df874f144670d689c997eb", "type": "electric_scooter", "lon": -77.02703633333333, "rental_uris": {"android": "https://dc.lft.to/lastmile_qr_scan", "ios": "https://dc.lft.to/lastmile_qr_scan"}, "lat": 38.896178, "is_reserved": 0, "is_disabled": 0, "fusion_lat": 0.0}, {"fusion_lon": 0.0, "bike_id": "e61a8a04079f2263a8ee1107433d4a32", "name": "e61a8a04079f2263a8ee1107433d4a32", "type": "electric_scooter", "lon": -77.06179083333333, "rental_uris": {"android": "https://dc.lft.to/lastmile_qr_scan", "ios": "https://dc.lft.to/lastmile_qr_scan"}, "lat": 38.94089783333333, "is_reserved": 0, "is_disabled": 0, "fusion_lat": 0.0}, {"fusion_lon": 0.0, "bike_id": "04db5d7bd1b5a6f0ac58c207c11941f3", "name": "04db5d7bd1b5a6f0ac58c207c11941f3", "type": "electric_scooter", "lon": -77.01602116666666, "rental_uris": {"android": "https://dc.lft.to/lastmile_qr_scan", "ios": "https://dc.lft.to/lastmile_qr_scan"}, "lat": 38.899727, "is_reserved": 0, "is_disabled": 0, "fusion_lat": 0.0}, {"fusion_lon": 0.0, "bike_id": "24f1b047d6e590baaebe30943fa053a5", "name": "24f1b047d6e590baaebe30943fa053a5", "type": "electric_scooter", "lon": -77.00968183333333, "rental_uris": {"android": "https://dc.lft.to/lastmile_qr_scan", "ios": "https://dc.lft.to/lastmile_qr_scan"}, "lat": 38.90782216666667, "is_reserved": 0, "is_disabled": 0, "fusion_lat": 0.0}, {"fusion_lon": 0.0, "bike_id": "214528758d47b332407a371346c8713a", "name": "214528758d47b332407a371346c8713a", "type": "electric_scooter", "lon": -77.01926983333334, "rental_uris": {"android": "https://dc.lft.to/lastmile_qr_scan", "ios": "https://dc.lft.to/lastmile_qr_scan"}, "lat": 38.94479483333333, "is_reserved": 0, "is_disabled": 0, "fusion_lat": 0.0}, {"fusion_lon": 0.0, "bike_id": "46e27b32160862e529075175c306d516", "name": "46e27b32160862e529075175c306d516", "type": "electric_scooter", "lon": -77.06852383333333, "rental_uris": {"android": "https://dc.lft.to/lastmile_qr_scan", "ios": "https://dc.lft.to/lastmile_qr_scan"}, "lat": 38.9520165, "is_reserved": 0, "is_disabled": 0, "fusion_lat": 0.0}, {"fusion_lon": 0.0, "bike_id": "d2cbba12e14571bddb80c6a1a21dd56b", "name": "d2cbba12e14571bddb80c6a1a21dd56b", "type": "electric_scooter", "lon": -77.04155866666666, "rental_uris": {"android": "https://dc.lft.to/lastmile_qr_scan", "ios": "https://dc.lft.to/lastmile_qr_scan"}, "lat": 38.9147595, "is_reserved": 0, "is_disabled": 0, "fusion_lat": 0.0}, {"fusion_lon": 0.0, "bike_id": "3454184b4724e71e8cd93de7969dfaae", "name": "3454184b4724e71e8cd93de7969dfaae", "type": "electric_scooter", "lon": -77.04868283333333, "rental_uris": {"android": "https://dc.lft.to/lastmile_qr_scan", "ios": "https://dc.lft.to/lastmile_qr_scan"}, "lat": 38.90196433333333, "is_reserved": 0, "is_disabled": 0, "fusion_lat": 0.0}, {"fusion_lon": 0.0, "bike_id": "db60dc25493a9295d12e632470bcb20f", "name": "db60dc25493a9295d12e632470bcb20f", "type": "electric_scooter", "lon": -77.01081233333333, "rental_uris": {"android": "https://dc.lft.to/lastmile_qr_scan", "ios": "https://dc.lft.to/lastmile_qr_scan"}, "lat": 38.896172166666666, "is_reserved": 0, "is_disabled": 0, "fusion_lat": 0.0}, {"fusion_lon": 0.0, "bike_id": "2b05828ddf763899262be32e6ef69e23", "name": "2b05828ddf763899262be32e6ef69e23", "type": "electric_scooter", "lon": -77.042395, "rental_uris": {"android": "https://dc.lft.to/lastmile_qr_scan", "ios": "https://dc.lft.to/lastmile_qr_scan"}, "lat": 38.91918833333333, "is_reserved": 0, "is_disabled": 0, "fusion_lat": 0.0}, {"fusion_lon": 0.0, "bike_id": "e4234bdd2e6e8545c840e0dcffb67dc1", "name": "e4234bdd2e6e8545c840e0dcffb67dc1", "type": "electric_scooter", "lon": -76.9964375, "rental_uris": {"android": "https://dc.lft.to/lastmile_qr_scan", "ios": "https://dc.lft.to/lastmile_qr_scan"}, "lat": 38.88719666666667, "is_reserved": 0, "is_disabled": 0, "fusion_lat": 0.0}, {"fusion_lon": 0.0, "bike_id": "e24584d3f9413dfa78786b7fa28ee2bd", "name": "e24584d3f9413dfa78786b7fa28ee2bd", "type": "electric_scooter", "lon": -77.02113866666667, "rental_uris": {"android": "https://dc.lft.to/lastmile_qr_scan", "ios": "https://dc.lft.to/lastmile_qr_scan"}, "lat": 38.897460833333334, "is_reserved": 0, "is_disabled": 0, "fusion_lat": 0.0},