{"data": {"bikes": [{"fusion_lat": 0.0, "type": "electric_scooter", "name": "97bc39c903466eef7f0e4da7e8a4f700", "fusion_lon": 0.0, "bike_id": "97bc39c903466eef7f0e4da7e8a4f700", "is_reserved": 0, "rental_uris": {"android": "https://dc.lft.to/lastmile_qr_scan", "ios": "https://dc.lft.to/lastmile_qr_scan"}, "lat": 38.93770516666667, "is_disabled": 0, "lon": -77.02266783333333}, {"fusion_lat": 0.0, "type": "electric_scooter", "name": "a765c1b5c4b9ffef40c0709ee5ae9a9f", "fusion_lon": 0.0, "bike_id": "a765c1b5c4b9ffef40c0709ee5ae9a9f", "is_reserved": 0, "rental_uris": {"android": "https://dc.lft.to/lastmile_qr_scan", "ios": "https://dc.lft.to/lastmile_qr_scan"}, "lat": 38.9126165, "is_disabled": 0, "lon": -77.04471616666666}, {"fusion_lat": 0.0, "type": "electric_scooter", "name": "0470335271de0c255a789b1e1e53e49f", "fusion_lon": 0.0, "bike_id": "0470335271de0c255a789b1e1e53e49f", "is_reserved": 0, "rental_uris": {"android": "https://dc.lft.to/lastmile_qr_scan", "ios": "https://dc.lft.to/lastmile_qr_scan"}, "lat": 38.91413416666666, "is_disabled": 0, "lon": -77.03835466666666}, {"fusion_lat": 0.0, "type": "electric_scooter", "name": "b2e371500cdac958e0017b5b9021eeeb", "fusion_lon": 0.0, "bike_id": "b2e371500cdac958e0017b5b9021eeeb", "is_reserved": 0, "rental_uris": {"android": "https://dc.lft.to/lastmile_qr_scan", "ios": "https://dc.lft.to/lastmile_qr_scan"}, "lat": 38.907344333333334, "is_disabled": 0, "lon": -77.02977866666667}, {"fusion_lat": 0.0, "type": "electric_scooter", "name": "c0a013d5c760e9080d0d2f351376784b", "fusion_lon": 0.0, "bike_id": "c0a013d5c760e9080d0d2f351376784b", "is_reserved": 0, "rental_uris": {"android": "https://dc.lft.to/lastmile_qr_scan", "ios": "https://dc.lft.to/lastmile_qr_scan"}, "lat": 38.924408666666665, "is_disabled": 0, "lon": -77.040265}, {"fusion_lat": 0.0, "type": "electric_scooter", "name": "c6e9517e4b683a9419d045ca189f25e8", "fusion_lon": 0.0, "bike_id": "c6e9517e4b683a9419d045ca189f25e8", "is_reserved": 0, "rental_uris": {"android": "https://dc.lft.to/lastmile_qr_scan", "ios": "https://dc.lft.to/lastmile_qr_scan"}, "lat": 38.89896183333333, "is_disabled": 0, "lon": -77.0259845}, {"fusion_lat": 0.0, "type": "electric_bike", "name": "a9736159e79e80cf9e9fa0cd98ada3f7", "fusion_lon": 0.0, "bike_id": "a9736159e79e80cf9e9fa0cd98ada3f7", "is_reserved": 0, "rental_uris": {"android": "https://dc.lft.to/lastmile_qr_scan", "ios": "https://dc.lft.to/lastmile_qr_scan"}, "lat": 38.85528883333333, "is_disabled": 0, "lon": -76.98447016666667}, {"fusion_lat": 0.0, "type": "electric_scooter", "name": "08f92babeef904411c2dc5291446c491", "fusion_lon": 0.0, "bike_id": "08f92babeef904411c2dc5291446c491", "is_reserved": 0, "rental_uris": {"android": "https://dc.lft.to/lastmile_qr_scan", "ios": "https://dc.lft.to/lastmile_qr_scan"}, "lat": 38.90640666666667, "is_disabled": 0, "lon": -77.01136733333334}, {"fusion_lat": 0.0, "type": "electric_scooter", "name": "f0e19ff60673df83241815b0d29aa55a", "fusion_lon": 0.0, "bike_id": "f0e19ff60673df83241815b0d29aa55a", "is_reserved": 0, "rental_uris": {"android": "https://dc.lft.to/lastmile_qr_scan", "ios": "https://dc.lft.to/lastmile_qr_scan"}, "lat": 38.90951166666667, "is_disabled": 0, "lon": -77.02717516666667}, {"fusion_lat": 0.0, "type": "electric_scooter", "name": "c9f09e4c99b8dd361e3e34492c0c5808", "fusion_lon": 0.0, "bike_id": "c9f09e4c99b8dd361e3e34492c0c5808", "is_reserved": 0, "rental_uris": {"android": "https://dc.lft.to/lastmile_qr_scan", "ios": "https://dc.lft.to/lastmile_qr_scan"}, "lat": 38.902628, "is_disabled": 0, "lon": -77.00577183333333}, {"fusion_lat": 0.0, "type": "electric_scooter", "name": "d21dbca320832435f0683daf6a4e8a61", "fusion_lon": 0.0, "bike_id": "d21dbca320832435f0683daf6a4e8a61", "is_reserved": 0, "rental_uris": {"android": "https://dc.lft.to/lastmile_qr_scan", "ios": "https://dc.lft.to/lastmile_qr_scan"}, "lat": 38.91213183333333, "is_disabled": 0, "lon": -77.03459283333333}, {"fusion_lat": 0.0, "type": "electric_scooter", "name": "522a812bc09bfc0a59c0bcdaa0aba98b", "fusion_lon": 0.0, "bike_id": "522a812bc09bfc0a59c0bcdaa0aba98b", "is_reserved": 0, "rental_uris": {"android": "https://dc.lft.to/lastmile_qr_scan", "ios": "https://dc.lft.to/lastmile_qr_scan"}, "lat": 38.91111566666667, "is_disabled": 0, "lon": -77.03828633333333}, {"fusion_lat": 0.0, "type": "electric_scooter", "name": "e3fe7a61358b13e13835481d416d5fd7", "fusion_lon": 0.0, "bike_id": "e3fe7a61358b13e13835481d416d5fd7", "is_reserved": 0, "rental_uris": {"android": "https://dc.lft.to/lastmile_qr_scan", "ios": "https://dc.lft.to/lastmile_qr_scan"}, "lat": 38.874671, "is_disabled": 0, "lon": -77.005152}, {"fusion_lat": 0.0, "type": "electric_scooter", "name": "bb85cad26f9716452dee4aee142f3b2c", "fusion_lon": 0.0, "bike_id": "bb85cad26f9716452dee4aee142f3b2c", "is_reserved": 0, "rental_uris": {"android": "https://dc.lft.to/lastmile_qr_scan", "ios": "https://dc.lft.to/lastmile_qr_scan"}, "lat": 38.92175316666667, "is_disabled": 0, "lon": -77.04230283333334}, {"fusion_lat": 0.0, "type": "electric_scooter", "name": "0853ecbf04fa00d0d83ee5edcbe83cd9", "fusion_lon": 0.0, "bike_id": "0853ecbf04fa00d0d83ee5edcbe83cd9", "is_reserved": 0, "rental_uris": {"android": "https://dc.lft.to/lastmile_qr_scan", "ios": "https://dc.lft.to/lastmile_qr_scan"}, "lat": 38.863571666666665, "is_disabled": 0, "lon": -76.9906725}, {"fusion_lat": 0.0, "type": "electric_scooter", "name": "adec02d68927ac90ccc11eab124eba36", "fusion_lon": 0.0, "bike_id": "adec02d68927ac90ccc11eab124eba36", "is_reserved": 0, "rental_uris": {"android": "https://dc.lft.to/lastmile_qr_scan", "ios": "https://dc.lft.to/lastmile_qr_scan"}, "lat": 38.93101983333333, "is_disabled": 0, "lon": -77.0363795}, {"fusion_lat": 0.0, "type": "electric_scooter", "name": "4a4da0737a747f9d868c6a636b35d7a0", "fusion_lon": 0.0, "bike_id": "4a4da0737a747f9d868c6a636b35d7a0", "is_reserved": 0, "rental_uris": {"android": "https://dc.lft.to/lastmile_qr_scan", "ios": "https://dc.lft.to/lastmile_qr_scan"}, "lat": 38.872050333333334, "is_disabled": 0, "lon": -76.978372}, {"fusion_lat": 0.0, "type": "electric_bike", "name": "c3320a1ecfed6aa81160709483461eba", "fusion_lon": 0.0, "bike_id": "c3320a1ecfed6aa81160709483461eba", "is_reserved": 0, "rental_uris": {"android": "https://dc.lft.to/lastmile_qr_scan", "ios": "https://dc.lft.to/lastmile_qr_scan"}, "lat": 38.916455, "is_disabled": 0, "lon": -76.97309383333334}, {"fusion_lat": 0.0, "type": "electric_scooter", "name": "ed8750c7cdab739db43d6c98a20c73a5", "fusion_lon": 0.0, "bike_id": "ed8750c7cdab739db43d6c98a20c73a5", "is_reserved": 0, "rental_uris": {"android": "https://dc.lft.to/lastmile_qr_scan", "ios": "https://dc.lft.to/lastmile_qr_scan"}, "lat": 38.85533933333333, "is_disabled": 0, "lon": -76.98420116666667}, {"fusion_lat": 0.0, "type": "electric_scooter", "name": "7a855dc2d6b7525a4c5d44d5993ccbbc", "fusion_lon": 0.0, "bike_id": "7a855dc2d6b7525a4c5d44d5993ccbbc", "is_reserved": 0, "rental_uris": {"android": "https://dc.lft.to/lastmile_qr_scan", "ios": "https://dc.lft.to/lastmile_qr_scan"}, "lat": 38.93574566666667, "is_disabled": 0, "lon": -77.08113083333333}, {"fusion_lat": 0.0, "type": "electric_scooter", "name": "2477cc133c3b637f91894623aea10c8f", "fusion_lon": 0.0, "bike_id": "2477cc133c3b637f91894623aea10c8f", "is_reserved": 0, "rental_uris": {"android": "https://dc.lft.to/lastmile_qr_scan", "ios": "https://dc.lft.to/lastmile_qr_scan"}, "lat": 38.950653833333334, "is_disabled": 0, "lon": -77.08015166666667}, {"fusion_lat": 0.0, "type": "electric_scooter", "name": "6ec942553d6106deb679b723c7390df4", "fusion_lon": 0.0, "bike_id": "6ec942553d6106deb679b723c7390df4", "is_reserved": 0, "rental_uris": {"android": "https://dc.lft.to/lastmile_qr_scan", "ios": "https://dc.lft.to/lastmile_qr_scan"}, "lat": 38.88482, "is_disabled": 0, "lon": -76.92619816666667}, {"fusion_lat": 0.0, "type": "electric_scooter", "name": "065811e65ae2cef48ef9c7aa0bf07936", "fusion_lon": 0.0, "bike_id": "065811e65ae2cef48ef9c7aa0bf07936", "is_reserved": 0, "rental_uris": {"android": "https://dc.lft.to/lastmile_qr_scan", "ios": "https://dc.lft.to/lastmile_qr_scan"}, "lat": 38.897080833333334, "is_disabled": 0, "lon": -77.02744516666667}, {"fusion_lat": 0.0, "type": "electric_bike", "name": "337e98c0297fc7655fa0b9189c2a2924", "fusion_lon": 0.0, "bike_id": "337e98c0297fc7655fa0b9189c2a2924", "is_reserved": 0, "rental_uris": {"android": "https://dc.lft.to/lastmile_qr_scan", "ios": "https://dc.lft.to/lastmile_qr_scan"}, "lat": 38.92251566666667, "is_disabled": 0, "lon": -77.03071966666667}, {"fusion_lat": 0.0, "type": "electric_scooter", "name": "b146d376a71963b6e81d1dcbc56b9b43", "fusion_lon": 0.0, "bike_id": "b146d376a71963b6e81d1dcbc56b9b43", "is_reserved": 0, "rental_uris": {"android": "https://dc.lft.to/lastmile_qr_scan", "ios": "https://dc.lft.to/lastmile_qr_scan"}, "lat": 38.9271945, "is_disabled": 0, "lon": -77.0207255}, {"fusion_lat": 0.0, "type": "electric_scooter", "name": "a452c43118dd66ae841083b85b513f92", "fusion_lon": 0.0, "bike_id": "a452c43118dd66ae841083b85b513f92", "is_reserved": 0, "rental_uris": {"android": "https://dc.lft.to/lastmile_qr_scan", "ios": "https://dc.lft.to/lastmile_qr_scan"}, "lat": 38.9443185, "is_disabled": 0, "lon": -77.026021}, {"fusion_lat": 0.0, "type": "electric_scooter", "name": "784e9cd478e6a2c10e3c1e1f4e2c123b", "fusion_lon": 0.0, "bike_id": "784e9cd478e6a2c10e3c1e1f4e2c123b", "is_reserved": 0, "rental_uris": {"android": "https://dc.lft.to/lastmile_qr_scan", "ios": "https://dc.lft.to/lastmile_qr_scan"}, "lat": 38.89228383333333, "is_disabled": 0, "lon": -77.031862}, {"fusion_lat": 0.0, "type": "electric_scooter", "name": "3f222c07aa321234ff93c1da97b63906", "fusion_lon": 0.0, "bike_id": "3f222c07aa321234ff93c1da97b63906", "is_reserved": 0, "rental_uris": {"android": "https://dc.lft.to/lastmile_qr_scan", "ios": "https://dc.lft.to/lastmile_qr_scan"}, "lat": 38.931708, "is_disabled": 0, "lon": -77.071061}, {"fusion_lat": 0.0, "type": "electric_scooter", "name": "5a650fc2d636b08cb3b1cc2caf453544", "fusion_lon": 0.0, "bike_id": "5a650fc2d636b08cb3b1cc2caf453544", "is_reserved": 0, "rental_uris": {"android": "https://dc.lft.to/lastmile_qr_scan", "ios": "https://dc.lft.to/lastmile_qr_scan"}, "lat": 38.89272116666667, "is_disabled": 0, "lon": -77.048783}, {"fusion_lat": 0.0, "type": "electric_scooter", "name": "f1fc03e8c0a769d39eb8a7537a0c2106", "fusion_lon": 0.0, "bike_id": "f1fc03e8c0a769d39eb8a7537a0c2106", "is_reserved": 0, "rental_uris": {"android": "https://dc.lft.to/lastmile_qr_scan", "ios": "https://dc.lft.to/lastmile_qr_scan"}, "lat": 38.900839500000004, "is_disabled": 0, "lon": -76.93021483333334}, {"fusion_lat": 0.0, "type": "electric_scooter", "name": "752d309c1217c577891a607ad47e0dad", "fusion_lon": 0.0, "bike_id": "752d309c1217c577891a607ad47e0dad", "is_reserved": 0, "rental_uris": {"android": "https://dc.lft.to/lastmile_qr_scan", "ios": "https://dc.lft.to/lastmile_qr_scan"}, "lat": 38.921901166666665, "is_disabled": 0, "lon": -76.98877333333333}, {"fusion_lat": 0.0, "type": "electric_scooter", "name": "c82cc9f02b7a849d28745e5a8c5e08c6", "fusion_lon": 0.0, "bike_id": "c82cc9f02b7a849d28745e5a8c5e08c6", "is_reserved": 0, "rental_uris": {"android": "https://dc.lft.to/lastmile_qr_scan", "ios": "https://dc.lft.to/lastmile_qr_scan"}, "lat": 38.926725, "is_disabled": 0, "lon": -77.02211966666667}, {"fusion_lat": 0.0, "type": "electric_scooter", "name": "dceb41b6763298edf022e71988a797f4", "fusion_lon": 0.0, "bike_id": "dceb41b6763298edf022e71988a797f4", "is_reserved": 0, "rental_uris": {"android": "https://dc.lft.to/lastmile_qr_scan", "ios": "https://dc.lft.to/lastmile_qr_scan"}, "lat": 38.920437166666666, "is_disabled": 0, "lon": -77.02355633333333}, {"fusion_lat": 0.0, "type": "electric_scooter", "name": "c7634167824d46cb48cb9ff71b7ad2bf", "fusion_lon": 0.0, "bike_id": "c7634167824d46cb48cb9ff71b7ad2bf", "is_reserved": 0, "rental_uris": {"android": "https://dc.lft.to/lastmile_qr_scan", "ios": "https://dc.lft.to/lastmile_qr_scan"}, "lat": 38.89707716666667, "is_disabled": 0, "lon": -77.030686}, {"fusion_lat": 0.0, "type": "electric_scooter", "name": "e1dd3b37ea4f1cf1a4868bb3c93edb68", "fusion_lon": 0.0, "bike_id": "e1dd3b37ea4f1cf1a4868bb3c93edb68", "is_reserved": 0, "rental_uris": {"android": "https://dc.lft.to/lastmile_qr_scan", "ios": "https://dc.lft.to/lastmile_qr_scan"}, "lat": 38.9281555, "is_disabled": 0, "lon": -77.03364516666667}, {"fusion_lat": 0.0, "type": "electric_bike", "name": "fa35a90311664e73eb35382e35d89790", "fusion_lon": 0.0, "bike_id": "fa35a90311664e73eb35382e35d89790", "is_reserved": 0, "rental_uris": {"android": "https://dc.lft.to/lastmile_qr_scan", "ios": "https://dc.lft.to/lastmile_qr_scan"}, "lat": 38.996330666666665, "is_disabled": 0, "lon": -77.039991}, {"fusion_lat": 0.0, "type": "electric_scooter", "name": "2749e0fc0e2767d3e25f900795e4a866", "fusion_lon": 0.0, "bike_id": "2749e0fc0e2767d3e25f900795e4a866", "is_reserved": 0, "rental_uris": {"android": "https://dc.lft.to/lastmile_qr_scan", "ios": "https://dc.lft.to/lastmile_qr_scan"}, "lat": 38.9362595, "is_disabled": 0, "lon": -77.08168266666667}, {"fusion_lat": 0.0, "type": "electric_scooter", "name": "fef527b067ff32b76667fe6bc0bceafc", "fusion_lon": 0.0, "bike_id": "fef527b067ff32b76667fe6bc0bceafc", "is_reserved": 0, "rental_uris": {"android": "https://dc.lft.to/lastmile_qr_scan", "ios": "https://dc.lft.to/lastmile_qr_scan"}, "lat": 38.9008605, "is_disabled": 0, "lon": -76.93875933333334}, {"fusion_lat": 0.0, "type": "electric_scooter", "name": "9275be41e8009444eb9a2bfe637ad1bd", "fusion_lon": 0.0, "bike_id": "9275be41e8009444eb9a2bfe637ad1bd", "is_reserved": 0, "rental_uris": {"android": "https://dc.lft.to/lastmile_qr_scan", "ios": "https://dc.lft.to/lastmile_qr_scan"}, "lat": 38.918023, "is_disabled": 0, "lon": -77.0337925}, {"fusion_lat": 0.0, "type": "electric_scooter", "name": "a9d823ca5bf96b20d05f8a460e00bf0e", "fusion_lon": 0.0, "bike_id": "a9d823ca5bf96b20d05f8a460e00bf0e", "is_reserved": 0, "rental_uris": {"android": "https://dc.lft.to/lastmile_qr_scan", "ios": "https://dc.lft.to/lastmile_qr_scan"}, "lat": 38.91427983333333, "is_disabled": 0, "lon": -77.039228}, {"fusion_lat": 0.0, "type": "electric_scooter", "name": "6ed5f4a931497e02c549682fe610d810", "fusion_lon": 0.0, "bike_id": "6ed5f4a931497e02c549682fe610d810", "is_reserved": 0, "rental_uris": {"android": "https://dc.lft.to/lastmile_qr_scan", "ios": "https://dc.lft.to/lastmile_qr_scan"}, "lat": 38.91406583333333, "is_disabled": 0, "lon": -77.04550483333334}, {"fusion_lat": 0.0, "type": "electric_scooter", "name": "dc3bd4a9b5a0598173be6206bc247091", "fusion_lon": 0.0, "bike_id": "dc3bd4a9b5a0598173be6206bc247091", "is_reserved": 0, "rental_uris": {"android": "https://dc.lft.to/lastmile_qr_scan", "ios": "https://dc.lft.to/lastmile_qr_scan"}, "lat": 38.911007166666664, "is_disabled": 0, "lon": -77.04350466666666}, {"fusion_lat": 0.0, "type": "electric_bike", "name": "2e76ef7118ec73968bd9f8bcea1176fc", "fusion_lon": 0.0, "bike_id": "2e76ef7118ec73968bd9f8bcea1176fc", "is_reserved": 0, "rental_uris": {"android": "https://dc.lft.to/lastmile_qr_scan", "ios": "https://dc.lft.to/lastmile_qr_scan"}, "lat": 38.947540833333335, "is_disabled": 0, "lon": -77.02367833333334}, {"fusion_lat": 0.0, "type": "electric_scooter", "name": "9b8f00fb0b50ea98c0a8794ac2d357d3", "fusion_lon": 0.0, "bike_id": "9b8f00fb0b50ea98c0a8794ac2d357d3", "is_reserved": 0, "rental_uris": {"android": "https://dc.lft.to/lastmile_qr_scan", "ios": "https://dc.lft.to/lastmile_qr_scan"}, "lat": 38.914755, "is_disabled": 0, "lon": -77.03835416666666}, {"fusion_lat": 0.0, "type": "electric_scooter", "name": "5a379b0dc44b47514d90550f65aafb68", "fusion_lon": 0.0, "bike_id": "5a379b0dc44b47514d90550f65aafb68", "is_reserved": 0, "rental_uris": {"android": "https://dc.lft.to/lastmile_qr_scan", "ios": "https://dc.lft.to/lastmile_qr_scan"}, "lat": 38.8650645, "is_disabled": 0, "lon": -76.99006483333334}, {"fusion_lat": 0.0, "type": "electric_scooter", "name": "f1c4bc347663bf68ff07f6a02980775b", "fusion_lon": 0.0, "bike_id": "f1c4bc347663bf68ff07f6a02980775b", "is_reserved": 0, "rental_uris": {"android": "https://dc.lft.to/lastmile_qr_scan", "ios": "https://dc.lft.to/lastmile_qr_scan"}, "lat": 38.874783666666666, "is_disabled": 0, "lon": -77.00872833333334}, {"fusion_lat": 0.0, "type": "electric_scooter", "name": "65926e32c6ffe2fba5b225d50cf3f00f", "fusion_lon": 0.0, "bike_id": "65926e32c6ffe2fba5b225d50cf3f00f", "is_reserved": 0, "rental_uris": {"android": "https://dc.lft.to/lastmile_qr_scan", "ios": "https://dc.lft.to/lastmile_qr_scan"}, "lat": 38.930477, "is_disabled": 0, "lon": -77.0333695}, {"fusion_lat": 0.0, "type": "electric_scooter", "name": "8aa96e923fea128b75a71ecdd6379185", "fusion_lon": 0.0, "bike_id": "8aa96e923fea128b75a71ecdd6379185", "is_reserved": 0, "rental_uris": {"android": "https://dc.lft.to/lastmile_qr_scan", "ios": "https://dc.lft.to/lastmile_qr_scan"}, "lat": 38.93954733333333, "is_disabled": 0, "lon": -77.0724325}, {"fusion_lat": 0.0, "type": "electric_bike", "name": "3ebc544090d67507506b6ac77d227d44", "fusion_lon": 0.0, "bike_id": "3ebc544090d67507506b6ac77d227d44", "is_reserved": 0, "rental_uris": {"android": "https://dc.lft.to/lastmile_qr_scan", "ios": "https://dc.lft.to/lastmile_qr_scan"}, "lat": 38.86514016666667, "is_disabled": 0, "lon": -76.97337383333333}, {"fusion_lat": 0.0, "type": "electric_scooter", "name": "84338309c7c81fdeeac55d136e1db200", "fusion_lon": 0.0, "bike_id": "84338309c7c81fdeeac55d136e1db200", "is_reserved": 0, "rental_uris": {"android": "https://dc.lft.to/lastmile_qr_scan", "ios": "https://dc.lft.to/lastmile_qr_scan"}, "lat": 38.942051166666666, "is_disabled": 0, "lon": -77.02502583333333}, {"fusion_lat": 0.0, "type": "electric_scooter", "name": "54f011e7d1c2aa300ce1a7dcdc5b59b6", "fusion_lon": 0.0, "bike_id": "54f011e7d1c2aa300ce1a7dcdc5b59b6", "is_reserved": 0, "rental_uris": {"android": "https://dc.lft.to/lastmile_qr_scan", "ios": "https://dc.lft.to/lastmile_qr_scan"}, "lat": 38.939235333333336, "is_disabled": 0, "lon": -77.02468883333333}, {"fusion_lat": 0.0, "type": "electric_scooter", "name": "9aa6f67fc7c8d4c1c2df7ba133650324", "fusion_lon": 0.0, "bike_id": "9aa6f67fc7c8d4c1c2df7ba133650324", "is_reserved": 0, "rental_uris": {"android": "https://dc.lft.to/lastmile_qr_scan", "ios": "https://dc.lft.to/lastmile_qr_scan"}, "lat": 38.88744766666667, "is_disabled": 0, "lon": -77.0273465}, {"fusion_lat": 0.0, "type": "electric_scooter", "name": "4f2533b11176122a8075bbba7a6344bb", "fusion_lon": 0.0, "bike_id": "4f2533b11176122a8075bbba7a6344bb", "is_reserved": 0, "rental_uris": {"android": "https://dc.lft.to/lastmile_qr_scan", "ios": "https://dc.lft.to/lastmile_qr_scan"}, "lat": 38.96050116666667, "is_disabled": 0, "lon": -77.08535833333333}, {"fusion_lat": 0.0, "type": "electric_scooter", "name": "ba49fec6fe2e9d0d02283cf3be053e2f", "fusion_lon": 0.0, "bike_id": "ba49fec6fe2e9d0d02283cf3be053e2f", "is_reserved": 0, "rental_uris": {"android": "https://dc.lft.to/lastmile_qr_scan", "ios": "https://dc.lft.to/lastmile_qr_scan"}, "lat": 38.929223, "is_disabled": 0, "lon": -77.03753666666667}, {"fusion_lat": 0.0, "type": "electric_scooter", "name": "261cbdc36362136f344b53a693f623b2", "fusion_lon": 0.0, "bike_id": "261cbdc36362136f344b53a693f623b2", "is_reserved": 0, "rental_uris": {"android": "https://dc.lft.to/lastmile_qr_scan", "ios": "https://dc.lft.to/lastmile_qr_scan"}, "lat": 38.905574, "is_disabled": 0, "lon": -77.04639583333334}, {"fusion_lat": 0.0, "type": "electric_bike", "name": "4d8a88930f68d46d3e6eb53a2eb1ad3c", "fusion_lon": 0.0, "bike_id": "4d8a88930f68d46d3e6eb53a2eb1ad3c", "is_reserved": 0, "rental_uris": {"android": "https://dc.lft.to/lastmile_qr_scan", "ios": "https://dc.lft.to/lastmile_qr_scan"}, "lat": 38.954224833333335, "is_disabled": 0, "lon": -76.93277766666667}, {"fusion_lat": 0.0, "type": "electric_scooter", "name": "169b983e864b098f0bd43c4998a73750", "fusion_lon": 0.0, "bike_id": "169b983e864b098f0bd43c4998a73750", "is_reserved": 0, "rental_uris": {"android": "https://dc.lft.to/lastmile_qr_scan", "ios": "https://dc.lft.to/lastmile_qr_scan"}, "lat": 38.91108233333333, "is_disabled": 0, "lon": -77.03846466666667}, {"fusion_lat": 0.0, "type": "electric_bike", "name": "caac15a217296d3f2bb6da7da81bcfae", "fusion_lon": 0.0, "bike_id": "caac15a217296d3f2bb6da7da81bcfae", "is_reserved": 0, "rental_uris": {"android": "https://dc.lft.to/lastmile_qr_scan", "ios": "https://dc.lft.to/lastmile_qr_scan"}, "lat": 38.86583566666667, "is_disabled": 0, "lon": -77.04762883333333}, {"fusion_lat": 0.0, "type": "electric_scooter", "name": "092fbe3555e370d0b7ca4afd83921185", "fusion_lon": 0.0, "bike_id": "092fbe3555e370d0b7ca4afd83921185", "is_reserved": 0, "rental_uris": {"android": "https://dc.lft.to/lastmile_qr_scan", "ios": "https://dc.lft.to/lastmile_qr_scan"}, "lat": 38.918146, "is_disabled": 0, "lon": -77.02477816666666}, {"fusion_lat": 0.0, "type": "electric_scooter", "name": "e5f1de4c7666da317de8d4fbedaa9f81", "fusion_lon": 0.0, "bike_id": "e5f1de4c7666da317de8d4fbedaa9f81", "is_reserved": 0, "rental_uris": {"android": "https://dc.lft.to/lastmile_qr_scan", "ios": "https://dc.lft.to/lastmile_qr_scan"}, "lat": 38.90894133333333, "is_disabled": 0, "lon": -77.0188595}, {"fusion_lat": 0.0, "type": "electric_scooter", "name": "088cca735862064723f97f423e08bf67", "fusion_lon": 0.0, "bike_id": "088cca735862064723f97f423e08bf67", "is_reserved": 0, "rental_uris": {"android": "https://dc.lft.to/lastmile_qr_scan", "ios": "https://dc.lft.to/lastmile_qr_scan"}, "lat": 38.92256033333334, "is_disabled": 0, "lon": -77.04300366666666}, {"fusion_lat": 0.0, "type": "electric_scooter", "name": "3b3a1aec8cf58979eb36cd225b13977f", "fusion_lon": 0.0, "bike_id": "3b3a1aec8cf58979eb36cd225b13977f", "is_reserved": 0, "rental_uris": {"android": "https://dc.lft.to/lastmile_qr_scan", "ios": "https://dc.lft.to/lastmile_qr_scan"}, "lat": 38.949886, "is_disabled": 0, "lon": -77.02707516666666}, {"fusion_lat": 0.0, "type": "electric_scooter", "name": "70b320881c76b74cf66ecaf046f2b514", "fusion_lon": 0.0, "bike_id": "70b320881c76b74cf66ecaf046f2b514", "is_reserved": 0, "rental_uris": {"android": "https://dc.lft.to/lastmile_qr_scan", "ios": "https://dc.lft.to/lastmile_qr_scan"}, "lat": 38.906513333333336, "is_disabled": 0, "lon": -77.0099795}, {"fusion_lat": 0.0, "type": "electric_scooter", "name": "8c27363defcb33724cb3eaa2f0ec1a77", "fusion_lon": 0.0, "bike_id": "8c27363defcb33724cb3eaa2f0ec1a77", "is_reserved": 0, "rental_uris": {"android": "https://dc.lft.to/lastmile_qr_scan", "ios": "https://dc.lft.to/lastmile_qr_scan"}, "lat": 38.866618, "is_disabled": 0, "lon": -76.985094}, {"fusion_lat": 0.0, "type": "electric_scooter", "name": "38b83f929fdc308c4d5c47ff9f65caf5", "fusion_lon": 0.0, "bike_id": "38b83f929fdc308c4d5c47ff9f65caf5", "is_reserved": 0, "rental_uris": {"android": "https://dc.lft.to/lastmile_qr_scan", "ios": "https://dc.lft.to/lastmile_qr_scan"}, "lat": 38.8979865, "is_disabled": 0, "lon": -76.991638}, {"fusion_lat": 0.0, "type": "electric_bike", "name": "c56302227fcae2873b22194039514783", "fusion_lon": 0.0, "bike_id": "c56302227fcae2873b22194039514783", "is_reserved": 0, "rental_uris": {"android": "https://dc.lft.to/lastmile_qr_scan", "ios": "https://dc.lft.to/lastmile_qr_scan"}, "lat": 38.8381065, "is_disabled": 0, "lon": -77.09524366666666}, {"fusion_lat": 0.0, "type": "electric_bike", "name": "44f0214c3271064aec116d8ebd0bc47e", "fusion_lon": 0.0, "bike_id": "44f0214c3271064aec116d8ebd0bc47e", "is_reserved": 0, "rental_uris": {"android": "https://dc.lft.to/lastmile_qr_scan", "ios": "https://dc.lft.to/lastmile_qr_scan"}, "lat": 38.8651975, "is_disabled": 0, "lon": -76.97339633333333}, {"fusion_lat": 0.0, "type": "electric_scooter", "name": "fa967c757451be135144d7cee52645e2", "fusion_lon": 0.0, "bike_id": "fa967c757451be135144d7cee52645e2", "is_reserved": 0, "rental_uris": {"android": "https://dc.lft.to/lastmile_qr_scan", "ios": "https://dc.lft.to/lastmile_qr_scan"}, "lat": 38.975313666666665, "is_disabled": 0, "lon": -77.01690116666667}, {"fusion_lat": 0.0, "type": "electric_scooter", "name": "07fd8a78bbc0eed5c6f2cb3e745daff9", "fusion_lon": 0.0, "bike_id": "07fd8a78bbc0eed5c6f2cb3e745daff9", "is_reserved": 0, "rental_uris": {"android": "https://dc.lft.to/lastmile_qr_scan", "ios": "https://dc.lft.to/lastmile_qr_scan"}, "lat": 38.892180333333336, "is_disabled": 0, "lon": -77.031647}, {"fusion_lat": 0.0, "type": "electric_scooter", "name": "4e993baaac5934133951e45504f78874", "fusion_lon": 0.0, "bike_id": "4e993baaac5934133951e45504f78874", "is_reserved": 0, "rental_uris": {"android": "https://dc.lft.to/lastmile_qr_scan", "ios": "https://dc.lft.to/lastmile_qr_scan"}, "lat": 38.89742716666667, "is_disabled": 0, "lon": -76.989817}, {"fusion_lat": 0.0, "type": "electric_scooter", "name": "1f2262e3c1cc43f7dc9e0b707ca41c5d", "fusion_lon": 0.0, "bike_id": "1f2262e3c1cc43f7dc9e0b707ca41c5d", "is_reserved": 0, "rental_uris": {"android": "https://dc.lft.to/lastmile_qr_scan", "ios": "https://dc.lft.to/lastmile_qr_scan"}, "lat": 38.9281525, "is_disabled": 0, "lon": -77.05445016666667}, {"fusion_lat": 0.0, "type": "electric_scooter", "name": "d7c7af6e0ceb2044bc3bcd07eba06677", "fusion_lon": 0.0, "bike_id": "d7c7af6e0ceb2044bc3bcd07eba06677", "is_reserved": 0, "rental_uris": {"android": "https://dc.lft.to/lastmile_qr_scan", "ios": "https://dc.lft.to/lastmile_qr_scan"}, "lat": 38.866624, "is_disabled": 0, "lon": -76.98512183333334}, {"fusion_lat": 0.0, "type": "electric_bike", "name": "fedddd59c681b0576a4ba57923b071b8", "fusion_lon": 0.0, "bike_id": "fedddd59c681b0576a4ba57923b071b8", "is_reserved": 0, "rental_uris": {"android": "https://dc.lft.to/lastmile_qr_scan", "ios": "https://dc.lft.to/lastmile_qr_scan"}, "lat": 38.896151, "is_disabled": 0, "lon": -76.90744316666667}, {"fusion_lat": 0.0, "type": "electric_scooter", "name": "dcf2b9c3d2176e3ca2d446eeee87a1f6", "fusion_lon": 0.0, "bike_id": "dcf2b9c3d2176e3ca2d446eeee87a1f6", "is_reserved": 0, "rental_uris": {"android": "https://dc.lft.to/lastmile_qr_scan", "ios": "https://dc.lft.to/lastmile_qr_scan"}, "lat": 38.902503333333335, "is_disabled": 0, "lon": -76.97409533333334}, {"fusion_lat": 0.0, "type": "electric_scooter", "name": "56032cbf297ca0cc226848e1cb60329d", "fusion_lon": 0.0, "bike_id": "56032cbf297ca0cc226848e1cb60329d", "is_reserved": 0, "rental_uris": {"android": "https://dc.lft.to/lastmile_qr_scan", "ios": "https://dc.lft.to/lastmile_qr_scan"}, "lat": 38.912370833333334, "is_disabled": 0, "lon": -77.00918933333334}, {"fusion_lat": 0.0, "type": "electric_scooter", "name": "9de754494d412cbefe686bff69020f54", "fusion_lon": 0.0, "bike_id": "9de754494d412cbefe686bff69020f54", "is_reserved": 0, "rental_uris": {"android": "https://dc.lft.to/lastmile_qr_scan", "ios": "https://dc.lft.to/lastmile_qr_scan"}, "lat": 38.92245533333333, "is_disabled": 0, "lon": -77.02861366666667}, {"fusion_lat": 0.0, "type": "electric_scooter", "name": "527e15a56c68a23d3771c547c1ca23d0", "fusion_lon": 0.0, "bike_id": "527e15a56c68a23d3771c547c1ca23d0", "is_reserved": 0, "rental_uris": {"android": "https://dc.lft.to/lastmile_qr_scan", "ios": "https://dc.lft.to/lastmile_qr_scan"}, "lat": 38.9085445, "is_disabled": 0, "lon": -77.02366683333334}, {"fusion_lat": 0.0, "type": "electric_scooter", "name": "dd12a9f38b0121d49e571a88c1bcd4b0", "fusion_lon": 0.0, "bike_id": "dd12a9f38b0121d49e571a88c1bcd4b0", "is_reserved": 0, "rental_uris": {"android": "https://dc.lft.to/lastmile_qr_scan", "ios": "https://dc.lft.to/lastmile_qr_scan"}, "lat": 38.8746785, "is_disabled": 0, "lon": -77.01594}, {"fusion_lat": 0.0, "type": "electric_scooter", "name": "dbc7883bc40844afa3abc604bb181152", "fusion_lon": 0.0, "bike_id": "dbc7883bc40844afa3abc604bb181152", "is_reserved": 0, "rental_uris": {"android": "https://dc.lft.to/lastmile_qr_scan", "ios": "https://dc.lft.to/lastmile_qr_scan"}, "lat": 38.89780783333333, "is_disabled": 0, "lon": -77.05481166666667}, {"fusion_lat": 0.0, "type": "electric_scooter", "name": "5b760695da38b1607c6b4af6d5bd4e46", "fusion_lon": 0.0, "bike_id": "5b760695da38b1607c6b4af6d5bd4e46", "is_reserved": 0, "rental_uris": {"android": "https://dc.lft.to/lastmile_qr_scan", "ios": "https://dc.lft.to/lastmile_qr_scan"}, "lat": 38.94387616666667, "is_disabled": 0, "lon": -77.02684016666667}, {"fusion_lat": 0.0, "type": "electric_scooter", "name": "f1bb8d87437f4b6dac885fd6fbe80659", "fusion_lon": 0.0, "bike_id": "f1bb8d87437f4b6dac885fd6fbe80659", "is_reserved": 0, "rental_uris": {"android": "https://dc.lft.to/lastmile_qr_scan", "ios": "https://dc.lft.to/lastmile_qr_scan"}, "lat": 38.928237333333335, "is_disabled": 0, "lon": -77.02258316666666}, {"fusion_lat": 0.0, "type": "electric_scooter", "name": "0141020eb41f428b4109eb7982999492", "fusion_lon": 0.0, "bike_id": "0141020eb41f428b4109eb7982999492", "is_reserved": 0, "rental_uris": {"android": "https://dc.lft.to/lastmile_qr_scan", "ios": "https://dc.lft.to/lastmile_qr_scan"}, "lat": 38.918992833333334, "is_disabled": 0, "lon": -77.00317583333333}, {"fusion_lat": 0.0, "type": "electric_scooter", "name": "ebaf4efaaabba4409f59a97ecd1a1705", "fusion_lon": 0.0, "bike_id": "ebaf4efaaabba4409f59a97ecd1a1705", "is_reserved": 0, "rental_uris": {"android": "https://dc.lft.to/lastmile_qr_scan", "ios": "https://dc.lft.to/lastmile_qr_scan"}, "lat": 38.948391, "is_disabled": 0, "lon": -77.02547166666666}, {"fusion_lat": 0.0, "type": "electric_scooter", "name": "79d472ae66b043ae370d47f4f94cba5c", "fusion_lon": 0.0, "bike_id": "79d472ae66b043ae370d47f4f94cba5c", "is_reserved": 0, "rental_uris": {"android": "https://dc.lft.to/lastmile_qr_scan", "ios": "https://dc.lft.to/lastmile_qr_scan"}, "lat": 38.89735666666667, "is_disabled": 0, "lon": -76.94724666666667}, {"fusion_lat": 0.0, "type": "electric_scooter", "name": "242c87efd0048fdea6686e4fc0ac1f46", "fusion_lon": 0.0, "bike_id": "242c87efd0048fdea6686e4fc0ac1f46", "is_reserved": 0, "rental_uris": {"android": "https://dc.lft.to/lastmile_qr_scan", "ios": "https://dc.lft.to/lastmile_qr_scan"}, "lat": 38.927532166666666, "is_disabled": 0, "lon": -77.02308233333333}, {"fusion_lat": 0.0, "type": "electric_scooter", "name": "05fc75ed4afe76916d6ebe64e829fde2", "fusion_lon": 0.0, "bike_id": "05fc75ed4afe76916d6ebe64e829fde2", "is_reserved": 0, "rental_uris": {"android": "https://dc.lft.to/lastmile_qr_scan", "ios": "https://dc.lft.to/lastmile_qr_scan"}, "lat": 38.911152666666666, "is_disabled": 0, "lon": -77.03842916666666}, {"fusion_lat": 0.0, "type": "electric_scooter", "name": "43f5206e4bf62e012ffe46dc2317ac17", "fusion_lon": 0.0, "bike_id": "43f5206e4bf62e012ffe46dc2317ac17", "is_reserved": 0, "rental_uris": {"android": "https://dc.lft.to/lastmile_qr_scan", "ios": "https://dc.lft.to/lastmile_qr_scan"}, "lat": 38.904887, "is_disabled": 0, "lon": -77.02603083333334}, {"fusion_lat": 0.0, "type": "electric_scooter", "name": "eec864b0d5a81ed2a8c6791e8fa9ae06", "fusion_lon": 0.0, "bike_id": "eec864b0d5a81ed2a8c6791e8fa9ae06", "is_reserved": 0, "rental_uris": {"android": "https://dc.lft.to/lastmile_qr_scan", "ios": "https://dc.lft.to/lastmile_qr_scan"}, "lat": 38.911023, "is_disabled": 0, "lon": -77.04670616666667}, {"fusion_lat": 0.0, "type": "electric_scooter", "name": "8a77b2b0ce4ccfc2b31b4e60cb1e1eac", "fusion_lon": 0.0, "bike_id": "8a77b2b0ce4ccfc2b31b4e60cb1e1eac", "is_reserved": 0, "rental_uris": {"android": "https://dc.lft.to/lastmile_qr_scan", "ios": "https://dc.lft.to/lastmile_qr_scan"}, "lat": 38.908268666666665, "is_disabled": 0, "lon": -77.04357116666667}, {"fusion_lat": 0.0, "type": "electric_scooter", "name": "8c69bc523579bd5be15d3817584a68fd", "fusion_lon": 0.0, "bike_id": "8c69bc523579bd5be15d3817584a68fd", "is_reserved": 0, "rental_uris": {"android": "https://dc.lft.to/lastmile_qr_scan", "ios": "https://dc.lft.to/lastmile_qr_scan"}, "lat": 38.9124245, "is_disabled": 0, "lon": -77.04486316666667}, {"fusion_lat": 0.0, "type": "electric_scooter", "name": "fe3cd37e6b122a5642e8af90076ae0b7", "fusion_lon": 0.0, "bike_id": "fe3cd37e6b122a5642e8af90076ae0b7", "is_reserved": 0, "rental_uris": {"android": "https://dc.lft.to/lastmile_qr_scan", "ios": "https://dc.lft.to/lastmile_qr_scan"}, "lat": 38.9495385, "is_disabled": 0, "lon": -77.02721766666667}, {"fusion_lat": 0.0, "type": "electric_scooter", "name": "04659520be0a81c9281313321da9d725", "fusion_lon": 0.0, "bike_id": "04659520be0a81c9281313321da9d725", "is_reserved": 0, "rental_uris": {"android": "https://dc.lft.to/lastmile_qr_scan", "ios": "https://dc.lft.to/lastmile_qr_scan"}, "lat": 38.91321166666667, "is_disabled": 0, "lon": -77.015141}, {"fusion_lat": 0.0, "type": "electric_scooter", "name": "e46f7f1a6affefd8ffc3aab38fc2faa7", "fusion_lon": 0.0, "bike_id": "e46f7f1a6affefd8ffc3aab38fc2faa7", "is_reserved": 0, "rental_uris": {"android": "https://dc.lft.to/lastmile_qr_scan", "ios": "https://dc.lft.to/lastmile_qr_scan"}, "lat": 38.91935466666666, "is_disabled": 0, "lon": -77.04565783333334}, {"fusion_lat": 0.0, "type": "electric_scooter", "name": "06e372dffca289bbffbdee089ae1d77b", "fusion_lon": 0.0, "bike_id": "06e372dffca289bbffbdee089ae1d77b", "is_reserved": 0, "rental_uris": {"android": "https://dc.lft.to/lastmile_qr_scan", "ios": "https://dc.lft.to/lastmile_qr_scan"}, "lat": 38.8442625, "is_disabled": 0, "lon": -76.99777366666666}, {"fusion_lat": 0.0, "type": "electric_scooter", "name": "286a29bc03796994fd208cf029555933", "fusion_lon": 0.0, "bike_id": "286a29bc03796994fd208cf029555933", "is_reserved": 0, "rental_uris": {"android": "https://dc.lft.to/lastmile_qr_scan", "ios": "https://dc.lft.to/lastmile_qr_scan"}, "lat": 38.87986883333333, "is_disabled": 0, "lon": -77.01382166666667}, {"fusion_lat": 0.0, "type": "electric_scooter", "name": "943e6e22426c2ad063054a0b34739795", "fusion_lon": 0.0, "bike_id": "943e6e22426c2ad063054a0b34739795", "is_reserved": 0, "rental_uris": {"android": "https://dc.lft.to/lastmile_qr_scan", "ios": "https://dc.lft.to/lastmile_qr_scan"}, "lat": 38.9221705, "is_disabled": 0, "lon": -77.03892916666666}, {"fusion_lat": 0.0, "type": "electric_scooter", "name": "c6b2e210b42ca0c8c970dbe7ffe989c3", "fusion_lon": 0.0, "bike_id": "c6b2e210b42ca0c8c970dbe7ffe989c3", "is_reserved": 0, "rental_uris": {"android": "https://dc.lft.to/lastmile_qr_scan", "ios": "https://dc.lft.to/lastmile_qr_scan"}, "lat": 38.9244775, "is_disabled": 0, "lon": -77.041217}, {"fusion_lat": 0.0, "type": "electric_scooter", "name": "245ea1340cdbb62d1e92428fd70eb2b7", "fusion_lon": 0.0, "bike_id": "245ea1340cdbb62d1e92428fd70eb2b7", "is_reserved": 0, "rental_uris": {"android": "https://dc.lft.to/lastmile_qr_scan", "ios": "https://dc.lft.to/lastmile_qr_scan"}, "lat": 38.923891, "is_disabled": 0, "lon": -77.07321866666666}, {"fusion_lat": 0.0, "type": "electric_scooter", "name": "7dd16c64e10e2fdc9dbae0b1ae0f81be", "fusion_lon": 0.0, "bike_id": "7dd16c64e10e2fdc9dbae0b1ae0f81be", "is_reserved": 0, "rental_uris": {"android": "https://dc.lft.to/lastmile_qr_scan", "ios": "https://dc.lft.to/lastmile_qr_scan"}, "lat": 38.90568866666667, "is_disabled": 0, "lon": -77.02775466666667}, {"fusion_lat": 0.0, "type": "electric_scooter", "name": "bb97b96d2230afe5ff3a102f4b499d0c", "fusion_lon": 0.0, "bike_id": "bb97b96d2230afe5ff3a102f4b499d0c", "is_reserved": 0, "rental_uris": {"android": "https://dc.lft.to/lastmile_qr_scan", "ios": "https://dc.lft.to/lastmile_qr_scan"}, "lat": 38.923363, "is_disabled": 0, "lon": -77.03612283333334}, {"fusion_lat": 0.0, "type": "electric_scooter", "name": "6b35cd233cd609524292dee7fbd1dc0c", "fusion_lon": 0.0, "bike_id": "6b35cd233cd609524292dee7fbd1dc0c", "is_reserved": 0, "rental_uris": {"android": "https://dc.lft.to/lastmile_qr_scan", "ios": "https://dc.lft.to/lastmile_qr_scan"}, "lat": 38.887688, "is_disabled": 0, "lon": -77.01773783333333}, {"fusion_lat": 0.0, "type": "electric_scooter", "name": "05dbd5ac3533019ac8340ff37e01cae2", "fusion_lon": 0.0, "bike_id": "05dbd5ac3533019ac8340ff37e01cae2", "is_reserved": 0, "rental_uris": {"android": "https://dc.lft.to/lastmile_qr_scan", "ios": "https://dc.lft.to/lastmile_qr_scan"}, "lat": 38.892236, "is_disabled": 0, "lon": -77.033385}, {"fusion_lat": 0.0, "type": "electric_scooter", "name": "c09fb9b43f4315d8a7cf7434577058d2", "fusion_lon": 0.0, "bike_id": "c09fb9b43f4315d8a7cf7434577058d2", "is_reserved": 0, "rental_uris": {"android": "https://dc.lft.to/lastmile_qr_scan", "ios": "https://dc.lft.to/lastmile_qr_scan"}, "lat": 38.90872183333333, "is_disabled": 0, "lon": -77.08596033333333}, {"fusion_lat": 0.0, "type": "electric_bike", "name": "6001bd59fb345c6819ff3714ed393825", "fusion_lon": 0.0, "bike_id": "6001bd59fb345c6819ff3714ed393825", "is_reserved": 0, "rental_uris": {"android": "https://dc.lft.to/lastmile_qr_scan", "ios": "https://dc.lft.to/lastmile_qr_scan"}, "lat": 38.866166666666665, "is_disabled": 0, "lon": -76.945772}, {"fusion_lat": 0.0, "type": "electric_bike", "name": "f197fdbc0ffc038c34eb44465500ec95", "fusion_lon": 0.0, "bike_id": "f197fdbc0ffc038c34eb44465500ec95", "is_reserved": 0, "rental_uris": {"android": "https://dc.lft.to/lastmile_qr_scan", "ios": "https://dc.lft.to/lastmile_qr_scan"}, "lat": 38.963163333333334, "is_disabled": 0, "lon": -76.973575}, {"fusion_lat": 0.0, "type": "electric_scooter", "name": "0f6c500aa09711a7b6675397eba814bc", "fusion_lon": 0.0, "bike_id": "0f6c500aa09711a7b6675397eba814bc", "is_reserved": 0, "rental_uris": {"android": "https://dc.lft.to/lastmile_qr_scan", "ios": "https://dc.lft.to/lastmile_qr_scan"}, "lat": 38.923427, "is_disabled": 0, "lon": -77.03416916666667}, {"fusion_lat": 0.0, "type": "electric_scooter", "name": "7cd471d4a0250fcdfaca310efa299405", "fusion_lon": 0.0, "bike_id": "7cd471d4a0250fcdfaca310efa299405", "is_reserved": 0, "rental_uris": {"android": "https://dc.lft.to/lastmile_qr_scan", "ios": "https://dc.lft.to/lastmile_qr_scan"}, "lat": 38.9205085, "is_disabled": 0, "lon": -77.03404583333334}, {"fusion_lat": 0.0, "type": "electric_scooter", "name": "b0b18542d2d638135e42b89e11f4e0e7", "fusion_lon": 0.0, "bike_id": "b0b18542d2d638135e42b89e11f4e0e7", "is_reserved": 0, "rental_uris": {"android": "https://dc.lft.to/lastmile_qr_scan", "ios": "https://dc.lft.to/lastmile_qr_scan"}, "lat": 38.92249283333334, "is_disabled": 0, "lon": -77.030873}, {"fusion_lat": 0.0, "type": "electric_bike", "name": "c40c52f56bee1c3b1748ef28b50350e6", "fusion_lon": 0.0, "bike_id": "c40c52f56bee1c3b1748ef28b50350e6", "is_reserved": 0, "rental_uris": {"android": "https://dc.lft.to/lastmile_qr_scan", "ios": "https://dc.lft.to/lastmile_qr_scan"}, "lat": 38.969016333333336, "is_disabled": 0, "lon": -76.99496766666667}, {"fusion_lat": 0.0, "type": "electric_scooter", "name": "463f8b4a59a3cd8216622ef8156f1ff6", "fusion_lon": 0.0, "bike_id": "463f8b4a59a3cd8216622ef8156f1ff6", "is_reserved": 0, "rental_uris": {"android": "https://dc.lft.to/lastmile_qr_scan", "ios": "https://dc.lft.to/lastmile_qr_scan"}, "lat": 38.93374983333333, "is_disabled": 0, "lon": -77.029674}, {"fusion_lat": 0.0, "type": "electric_scooter", "name": "a113862a33da51553cb8693d8b60a32e", "fusion_lon": 0.0, "bike_id": "a113862a33da51553cb8693d8b60a32e", "is_reserved": 0, "rental_uris": {"android": "https://dc.lft.to/lastmile_qr_scan", "ios": "https://dc.lft.to/lastmile_qr_scan"}, "lat": 38.917106, "is_disabled": 0, "lon": -77.03416233333333}, {"fusion_lat": 0.0, "type": "electric_scooter", "name": "dc26f5fafa3c994f6229ddeeb3c7b704", "fusion_lon": 0.0, "bike_id": "dc26f5fafa3c994f6229ddeeb3c7b704", "is_reserved": 0, "rental_uris": {"android": "https://dc.lft.to/lastmile_qr_scan", "ios": "https://dc.lft.to/lastmile_qr_scan"}, "lat": 38.9242865, "is_disabled": 0, "lon": -77.05181133333333}, {"fusion_lat": 0.0, "type": "electric_scooter", "name": "3d8cbf4eb6c23d98b793c80355aaad23", "fusion_lon": 0.0, "bike_id": "3d8cbf4eb6c23d98b793c80355aaad23", "is_reserved": 0, "rental_uris": {"android": "https://dc.lft.to/lastmile_qr_scan", "ios": "https://dc.lft.to/lastmile_qr_scan"}, "lat": 38.925844833333336, "is_disabled": 0, "lon": -77.03984866666667}, {"fusion_lat": 0.0, "type": "electric_scooter", "name": "373d85d8e442664ed8d3f18e2259e12b", "fusion_lon": 0.0, "bike_id": "373d85d8e442664ed8d3f18e2259e12b", "is_reserved": 0, "rental_uris": {"android": "https://dc.lft.to/lastmile_qr_scan", "ios": "https://dc.lft.to/lastmile_qr_scan"}, "lat": 38.93446566666667, "is_disabled": 0, "lon": -77.02978283333333}, {"fusion_lat": 0.0, "type": "electric_scooter", "name": "d65a3b08285efed14ca8837b44013c4c", "fusion_lon": 0.0, "bike_id": "d65a3b08285efed14ca8837b44013c4c", "is_reserved": 0, "rental_uris": {"android": "https://dc.lft.to/lastmile_qr_scan", "ios": "https://dc.lft.to/lastmile_qr_scan"}, "lat": 38.92875733333333, "is_disabled": 0, "lon": -77.036494}, {"fusion_lat": 0.0, "type": "electric_scooter", "name": "e2c1901c79dd0914e7301846a6c4ae3a", "fusion_lon": 0.0, "bike_id": "e2c1901c79dd0914e7301846a6c4ae3a", "is_reserved": 0, "rental_uris": {"android": "https://dc.lft.to/lastmile_qr_scan", "ios": "https://dc.lft.to/lastmile_qr_scan"}, "lat": 38.905738666666664, "is_disabled": 0, "lon": -77.02202883333334}, {"fusion_lat": 0.0, "type": "electric_scooter", "name": "e604c8c77f77b6077f8346743350cb82", "fusion_lon": 0.0, "bike_id": "e604c8c77f77b6077f8346743350cb82", "is_reserved": 0, "rental_uris": {"android": "https://dc.lft.to/lastmile_qr_scan", "ios": "https://dc.lft.to/lastmile_qr_scan"}, "lat": 38.905412, "is_disabled": 0, "lon": -77.05042716666667}, {"fusion_lat": 0.0, "type": "electric_bike", "name": "94cbef74dc7a0f8e1c59a9b634a1fb8b", "fusion_lon": 0.0, "bike_id": "94cbef74dc7a0f8e1c59a9b634a1fb8b", "is_reserved": 0, "rental_uris": {"android": "https://dc.lft.to/lastmile_qr_scan", "ios": "https://dc.lft.to/lastmile_qr_scan"}, "lat": 38.88045233333333, "is_disabled": 0, "lon": -77.01129366666666}, {"fusion_lat": 0.0, "type": "electric_scooter", "name": "a95c6afd16df957a59abff1045606e45", "fusion_lon": 0.0, "bike_id": "a95c6afd16df957a59abff1045606e45", "is_reserved": 0, "rental_uris": {"android": "https://dc.lft.to/lastmile_qr_scan", "ios": "https://dc.lft.to/lastmile_qr_scan"}, "lat": 38.916820666666666, "is_disabled": 0, "lon": -77.02949566666666}, {"fusion_lat": 0.0, "type": "electric_scooter", "name": "9b836379ef8340cb5e0f5cc037d6777e", "fusion_lon": 0.0, "bike_id": "9b836379ef8340cb5e0f5cc037d6777e", "is_reserved": 0, "rental_uris": {"android": "https://dc.lft.to/lastmile_qr_scan", "ios": "https://dc.lft.to/lastmile_qr_scan"}, "lat": 38.9318345, "is_disabled": 0, "lon": -77.03840233333334}, {"fusion_lat": 0.0, "type": "electric_scooter", "name": "ff48289ca4c59594a19b46d1bd5239a0", "fusion_lon": 0.0, "bike_id": "ff48289ca4c59594a19b46d1bd5239a0", "is_reserved": 0, "rental_uris": {"android": "https://dc.lft.to/lastmile_qr_scan", "ios": "https://dc.lft.to/lastmile_qr_scan"}, "lat": 38.866969833333336, "is_disabled": 0, "lon": -76.987106}, {"fusion_lat": 0.0, "type": "electric_scooter", "name": "723052a115a6f0f00af2dd23f2168716", "fusion_lon": 0.0, "bike_id": "723052a115a6f0f00af2dd23f2168716", "is_reserved": 0, "rental_uris": {"android": "https://dc.lft.to/lastmile_qr_scan", "ios": "https://dc.lft.to/lastmile_qr_scan"}, "lat": 38.8922905, "is_disabled": 0, "lon": -77.03182783333334}, {"fusion_lat": 0.0, "type": "electric_scooter", "name": "3cd5417b2ce9cc556d00f2e89160f70f", "fusion_lon": 0.0, "bike_id": "3cd5417b2ce9cc556d00f2e89160f70f", "is_reserved": 0, "rental_uris": {"android": "https://dc.lft.to/lastmile_qr_scan", "ios": "https://dc.lft.to/lastmile_qr_scan"}, "lat": 38.883503833333336, "is_disabled": 0, "lon": -76.9949475}, {"fusion_lat": 0.0, "type": "electric_scooter", "name": "bc301db5ced5fb9d3db0fdfabfda395f", "fusion_lon": 0.0, "bike_id": "bc301db5ced5fb9d3db0fdfabfda395f", "is_reserved": 0, "rental_uris": {"android": "https://dc.lft.to/lastmile_qr_scan", "ios": "https://dc.lft.to/lastmile_qr_scan"}, "lat": 38.90457083333333, "is_disabled": 0, "lon": -77.03900366666667}, {"fusion_lat": 0.0, "type": "electric_scooter", "name": "ccc81a0ec68e58e0b6fe77e5c2ae5e4a", "fusion_lon": 0.0, "bike_id": "ccc81a0ec68e58e0b6fe77e5c2ae5e4a", "is_reserved": 0, "rental_uris": {"android": "https://dc.lft.to/lastmile_qr_scan", "ios": "https://dc.lft.to/lastmile_qr_scan"}, "lat": 38.92198883333333, "is_disabled": 0, "lon": -77.02980566666666}, {"fusion_lat": 0.0, "type": "electric_scooter", "name": "dcea83a356e37d6dd100d28c175fb6ee", "fusion_lon": 0.0, "bike_id": "dcea83a356e37d6dd100d28c175fb6ee", "is_reserved": 0, "rental_uris": {"android": "https://dc.lft.to/lastmile_qr_scan", "ios": "https://dc.lft.to/lastmile_qr_scan"}, "lat": 38.913404666666665, "is_disabled": 0, "lon": -77.00923716666667}, {"fusion_lat": 0.0, "type": "electric_scooter", "name": "8b76d89c6d030b0f66ae4745d4ed8f6a", "fusion_lon": 0.0, "bike_id": "8b76d89c6d030b0f66ae4745d4ed8f6a", "is_reserved": 0, "rental_uris": {"android": "https://dc.lft.to/lastmile_qr_scan", "ios": "https://dc.lft.to/lastmile_qr_scan"}, "lat": 38.892261833333336, "is_disabled": 0, "lon": -77.03187316666667}, {"fusion_lat": 0.0, "type": "electric_scooter", "name": "540f42bfec5bc761ec533c44edba890d", "fusion_lon": 0.0, "bike_id": "540f42bfec5bc761ec533c44edba890d", "is_reserved": 0, "rental_uris": {"android": "https://dc.lft.to/lastmile_qr_scan", "ios": "https://dc.lft.to/lastmile_qr_scan"}, "lat": 38.921422166666666, "is_disabled": 0, "lon": -77.03503916666666}, {"fusion_lat": 0.0, "type": "electric_scooter", "name": "c36a91cf1d6637ed628eafa7a7b6060d", "fusion_lon": 0.0, "bike_id": "c36a91cf1d6637ed628eafa7a7b6060d", "is_reserved": 0, "rental_uris": {"android": "https://dc.lft.to/lastmile_qr_scan", "ios": "https://dc.lft.to/lastmile_qr_scan"}, "lat": 38.911210833333335, "is_disabled": 0, "lon": -77.02080766666667}, {"fusion_lat": 0.0, "type": "electric_scooter", "name": "2b13d4f905773255e94be2b8d8273ff7", "fusion_lon": 0.0, "bike_id": "2b13d4f905773255e94be2b8d8273ff7", "is_reserved": 0, "rental_uris": {"android": "https://dc.lft.to/lastmile_qr_scan", "ios": "https://dc.lft.to/lastmile_qr_scan"}, "lat": 38.907212, "is_disabled": 0, "lon": -77.07439983333333}, {"fusion_lat": 0.0, "type": "electric_scooter", "name": "49e39603d4606af719aa6a105e9b2024", "fusion_lon": 0.0, "bike_id": "49e39603d4606af719aa6a105e9b2024", "is_reserved": 0, "rental_uris": {"android": "https://dc.lft.to/lastmile_qr_scan", "ios": "https://dc.lft.to/lastmile_qr_scan"}, "lat": 38.917135, "is_disabled": 0, "lon": -77.03860883333333}, {"fusion_lat": 0.0, "type": "electric_scooter", "name": "01355f8fad40491d714a33e48b50fc7e", "fusion_lon": 0.0, "bike_id": "01355f8fad40491d714a33e48b50fc7e", "is_reserved": 0, "rental_uris": {"android": "https://dc.lft.to/lastmile_qr_scan", "ios": "https://dc.lft.to/lastmile_qr_scan"}, "lat": 38.90584533333333, "is_disabled": 0, "lon": -77.0025685}, {"fusion_lat": 0.0, "type": "electric_scooter", "name": "789ab5da20e8406e87351a229e47e048", "fusion_lon": 0.0, "bike_id": "789ab5da20e8406e87351a229e47e048", "is_reserved": 0, "rental_uris": {"android": "https://dc.lft.to/lastmile_qr_scan", "ios": "https://dc.lft.to/lastmile_qr_scan"}, "lat": 38.909355166666664, "is_disabled": 0, "lon": -77.04483183333333}, {"fusion_lat": 0.0, "type": "electric_scooter", "name": "9feee1172e971a159cd884a327f4e81b", "fusion_lon": 0.0, "bike_id": "9feee1172e971a159cd884a327f4e81b", "is_reserved": 0, "rental_uris": {"android": "https://dc.lft.to/lastmile_qr_scan", "ios": "https://dc.lft.to/lastmile_qr_scan"}, "lat": 38.92614483333333, "is_disabled": 0, "lon": -77.04334916666667}, {"fusion_lat": 0.0, "type": "electric_scooter", "name": "9c537085556ec8e8f49d69cad37fe723", "fusion_lon": 0.0, "bike_id": "9c537085556ec8e8f49d69cad37fe723", "is_reserved": 0, "rental_uris": {"android": "https://dc.lft.to/lastmile_qr_scan", "ios": "https://dc.lft.to/lastmile_qr_scan"}, "lat": 38.90343383333333, "is_disabled": 0, "lon": -76.98271716666666}, {"fusion_lat": 0.0, "type": "electric_scooter", "name": "1de5088741b2bdb69875e40a0c1788de", "fusion_lon": 0.0, "bike_id": "1de5088741b2bdb69875e40a0c1788de", "is_reserved": 0, "rental_uris": {"android": "https://dc.lft.to/lastmile_qr_scan", "ios": "https://dc.lft.to/lastmile_qr_scan"}, "lat": 38.957302, "is_disabled": 0, "lon": -77.02409833333333}, {"fusion_lat": 0.0, "type": "electric_scooter", "name": "7799d9a4a9e707d85a6dea53f89711a8", "fusion_lon": 0.0, "bike_id": "7799d9a4a9e707d85a6dea53f89711a8", "is_reserved": 0, "rental_uris": {"android": "https://dc.lft.to/lastmile_qr_scan", "ios": "https://dc.lft.to/lastmile_qr_scan"}, "lat": 38.91555283333334, "is_disabled": 0, "lon": -77.02428583333334}, {"fusion_lat": 0.0, "type": "electric_scooter", "name": "b67659018a63747c08c0d768a4e2c1b0", "fusion_lon": 0.0, "bike_id": "b67659018a63747c08c0d768a4e2c1b0", "is_reserved": 0, "rental_uris": {"android": "https://dc.lft.to/lastmile_qr_scan", "ios": "https://dc.lft.to/lastmile_qr_scan"}, "lat": 38.90053, "is_disabled": 0, "lon": -77.048836}, {"fusion_lat": 0.0, "type": "electric_scooter", "name": "0f40a388d47039d909a3e8a53866b5a4", "fusion_lon": 0.0, "bike_id": "0f40a388d47039d909a3e8a53866b5a4", "is_reserved": 0, "rental_uris": {"android": "https://dc.lft.to/lastmile_qr_scan", "ios": "https://dc.lft.to/lastmile_qr_scan"}, "lat": 38.9110785, "is_disabled": 0, "lon": -77.03148416666667}, {"fusion_lat": 0.0, "type": "electric_scooter", "name": "b17587d886df1a2ed1f4b39f651f492e", "fusion_lon": 0.0, "bike_id": "b17587d886df1a2ed1f4b39f651f492e", "is_reserved": 0, "rental_uris": {"android": "https://dc.lft.to/lastmile_qr_scan", "ios": "https://dc.lft.to/lastmile_qr_scan"}, "lat": 38.93473, "is_disabled": 0, "lon": -77.08661983333333}, {"fusion_lat": 0.0, "type": "electric_scooter", "name": "10678c22c800f7252506bef44357c5d8", "fusion_lon": 0.0, "bike_id": "10678c22c800f7252506bef44357c5d8", "is_reserved": 0, "rental_uris": {"android": "https://dc.lft.to/lastmile_qr_scan", "ios": "https://dc.lft.to/lastmile_qr_scan"}, "lat": 38.89247316666667, "is_disabled": 0, "lon": -77.046597}, {"fusion_lat": 0.0, "type": "electric_scooter", "name": "4a9836e6203f8ebab40b7114478b437c", "fusion_lon": 0.0, "bike_id": "4a9836e6203f8ebab40b7114478b437c", "is_reserved": 0, "rental_uris": {"android": "https://dc.lft.to/lastmile_qr_scan", "ios": "https://dc.lft.to/lastmile_qr_scan"}, "lat": 38.917085, "is_disabled": 0, "lon": -77.0386815}, {"fusion_lat": 0.0, "type": "electric_scooter", "name": "fdd0ea97827640ebd3342d1147588331", "fusion_lon": 0.0, "bike_id": "fdd0ea97827640ebd3342d1147588331", "is_reserved": 0, "rental_uris": {"android": "https://dc.lft.to/lastmile_qr_scan", "ios": "https://dc.lft.to/lastmile_qr_scan"}, "lat": 38.908324, "is_disabled": 0, "lon": -77.043463}, {"fusion_lat": 0.0, "type": "electric_scooter", "name": "432c16268b5e26c8e31feafd304e171c", "fusion_lon": 0.0, "bike_id": "432c16268b5e26c8e31feafd304e171c", "is_reserved": 0, "rental_uris": {"android": "https://dc.lft.to/lastmile_qr_scan", "ios": "https://dc.lft.to/lastmile_qr_scan"}, "lat": 38.94901633333333, "is_disabled": 0, "lon": -77.02074583333334}, {"fusion_lat": 0.0, "type": "electric_scooter", "name": "c6a3e284b67ec8c9b8ac3116038b7461", "fusion_lon": 0.0, "bike_id": "c6a3e284b67ec8c9b8ac3116038b7461", "is_reserved": 0, "rental_uris": {"android": "https://dc.lft.to/lastmile_qr_scan", "ios": "https://dc.lft.to/lastmile_qr_scan"}, "lat": 38.87182033333333, "is_disabled": 0, "lon": -77.00593483333333}, {"fusion_lat": 0.0, "type": "electric_scooter", "name": "e773503d11d6d5ac1d8a4446a508d8f4", "fusion_lon": 0.0, "bike_id": "e773503d11d6d5ac1d8a4446a508d8f4", "is_reserved": 0, "rental_uris": {"android": "https://dc.lft.to/lastmile_qr_scan", "ios": "https://dc.lft.to/lastmile_qr_scan"}, "lat": 38.892223, "is_disabled": 0, "lon": -77.0431185}, {"fusion_lat": 0.0, "type": "electric_scooter", "name": "af2097a2b2a78a4171054d5f4a3ea22c", "fusion_lon": 0.0, "bike_id": "af2097a2b2a78a4171054d5f4a3ea22c", "is_reserved": 0, "rental_uris": {"android": "https://dc.lft.to/lastmile_qr_scan", "ios": "https://dc.lft.to/lastmile_qr_scan"}, "lat": 38.88138283333333, "is_disabled": 0, "lon": -77.016861}, {"fusion_lat": 0.0, "type": "electric_scooter", "name": "e194c5c0b32e654c5356bd27dd2da382", "fusion_lon": 0.0, "bike_id": "e194c5c0b32e654c5356bd27dd2da382", "is_reserved": 0, "rental_uris": {"android": "https://dc.lft.to/lastmile_qr_scan", "ios": "https://dc.lft.to/lastmile_qr_scan"}, "lat": 38.899757, "is_disabled": 0, "lon": -77.03326733333333}, {"fusion_lat": 0.0, "type": "electric_scooter", "name": "d6090ddfac023175a0b76a86492cf578", "fusion_lon": 0.0, "bike_id": "d6090ddfac023175a0b76a86492cf578", "is_reserved": 0, "rental_uris": {"android": "https://dc.lft.to/lastmile_qr_scan", "ios": "https://dc.lft.to/lastmile_qr_scan"}, "lat": 38.91256633333333, "is_disabled": 0, "lon": -77.0307735}, {"fusion_lat": 0.0, "type": "electric_scooter", "name": "cf40ae6eaf9e676fac8290ee50460c20", "fusion_lon": 0.0, "bike_id": "cf40ae6eaf9e676fac8290ee50460c20", "is_reserved": 0, "rental_uris": {"android": "https://dc.lft.to/lastmile_qr_scan", "ios": "https://dc.lft.to/lastmile_qr_scan"}, "lat": 38.90181416666667, "is_disabled": 0, "lon": -77.0216605}, {"fusion_lat": 0.0, "type": "electric_scooter", "name": "9fd37804b3e90d729bbc77c2878fdc93", "fusion_lon": 0.0, "bike_id": "9fd37804b3e90d729bbc77c2878fdc93", "is_reserved": 0, "rental_uris": {"android": "https://dc.lft.to/lastmile_qr_scan", "ios": "https://dc.lft.to/lastmile_qr_scan"}, "lat": 38.9074755, "is_disabled": 0, "lon": -77.00315716666667}, {"fusion_lat": 0.0, "type": "electric_scooter", "name": "bbe1feaac65995e156fcef803b97aed6", "fusion_lon": 0.0, "bike_id": "bbe1feaac65995e156fcef803b97aed6", "is_reserved": 0, "rental_uris": {"android": "https://dc.lft.to/lastmile_qr_scan", "ios": "https://dc.lft.to/lastmile_qr_scan"}, "lat": 38.885532833333336, "is_disabled": 0, "lon": -77.01994766666667}, {"fusion_lat": 0.0, "type": "electric_scooter", "name": "2b1f2f384bf38778a558d35bd1d7bf7d", "fusion_lon": 0.0, "bike_id": "2b1f2f384bf38778a558d35bd1d7bf7d", "is_reserved": 0, "rental_uris": {"android": "https://dc.lft.to/lastmile_qr_scan", "ios": "https://dc.lft.to/lastmile_qr_scan"}, "lat": 38.9222205, "is_disabled": 0, "lon": -77.04243}, {"fusion_lat": 0.0, "type": "electric_scooter", "name": "722040c3148cf0557f7bd6dd52e6f336", "fusion_lon": 0.0, "bike_id": "722040c3148cf0557f7bd6dd52e6f336", "is_reserved": 0, "rental_uris": {"android": "https://dc.lft.to/lastmile_qr_scan", "ios": "https://dc.lft.to/lastmile_qr_scan"}, "lat": 38.89227616666667, "is_disabled": 0, "lon": -77.03107633333333}, {"fusion_lat": 0.0, "type": "electric_bike", "name": "3a0f1e20dc6f34d4230883d81897606c", "fusion_lon": 0.0, "bike_id": "3a0f1e20dc6f34d4230883d81897606c", "is_reserved": 0, "rental_uris": {"android": "https://dc.lft.to/lastmile_qr_scan", "ios": "https://dc.lft.to/lastmile_qr_scan"}, "lat": 38.852122, "is_disabled": 0, "lon": -77.10132316666666}, {"fusion_lat": 0.0, "type": "electric_scooter", "name": "4a2ef186ce7ba0ad70094785b434db1a", "fusion_lon": 0.0, "bike_id": "4a2ef186ce7ba0ad70094785b434db1a", "is_reserved": 0, "rental_uris": {"android": "https://dc.lft.to/lastmile_qr_scan", "ios": "https://dc.lft.to/lastmile_qr_scan"}, "lat": 38.924699333333336, "is_disabled": 0, "lon": -77.02990333333334}, {"fusion_lat": 0.0, "type": "electric_scooter", "name": "76d34679e1f8f80018ddd65f2ef0732d", "fusion_lon": 0.0, "bike_id": "76d34679e1f8f80018ddd65f2ef0732d", "is_reserved": 0, "rental_uris": {"android": "https://dc.lft.to/lastmile_qr_scan", "ios": "https://dc.lft.to/lastmile_qr_scan"}, "lat": 38.899165333333336, "is_disabled": 0, "lon": -76.93366333333333}, {"fusion_lat": 0.0, "type": "electric_scooter", "name": "b0a0aa5c66d75266c2aa67991e72bb9c", "fusion_lon": 0.0, "bike_id": "b0a0aa5c66d75266c2aa67991e72bb9c", "is_reserved": 0, "rental_uris": {"android": "https://dc.lft.to/lastmile_qr_scan", "ios": "https://dc.lft.to/lastmile_qr_scan"}, "lat": 38.91711566666667, "is_disabled": 0, "lon": -77.03417233333333}, {"fusion_lat": 0.0, "type": "electric_scooter", "name": "56c60d96d7254ede68718f5c3cce7cfd", "fusion_lon": 0.0, "bike_id": "56c60d96d7254ede68718f5c3cce7cfd", "is_reserved": 0, "rental_uris": {"android": "https://dc.lft.to/lastmile_qr_scan", "ios": "https://dc.lft.to/lastmile_qr_scan"}, "lat": 38.89365766666667, "is_disabled": 0, "lon": -76.94992266666667}, {"fusion_lat": 0.0, "type": "electric_scooter", "name": "328df25fc1d6c22c8d9152116b2bd812", "fusion_lon": 0.0, "bike_id": "328df25fc1d6c22c8d9152116b2bd812", "is_reserved": 0, "rental_uris": {"android": "https://dc.lft.to/lastmile_qr_scan", "ios": "https://dc.lft.to/lastmile_qr_scan"}, "lat": 38.935705666666664, "is_disabled": 0, "lon": -77.02125366666667}, {"fusion_lat": 0.0, "type": "electric_scooter", "name": "09bf107024ee3c2907edd3817a1e9934", "fusion_lon": 0.0, "bike_id": "09bf107024ee3c2907edd3817a1e9934", "is_reserved": 0, "rental_uris": {"android": "https://dc.lft.to/lastmile_qr_scan", "ios": "https://dc.lft.to/lastmile_qr_scan"}, "lat": 38.90783716666667, "is_disabled": 0, "lon": -77.045061}, {"fusion_lat": 0.0, "type": "electric_scooter", "name": "148ad79942d498c362956804867d8f7a", "fusion_lon": 0.0, "bike_id": "148ad79942d498c362956804867d8f7a", "is_reserved": 0, "rental_uris": {"android": "https://dc.lft.to/lastmile_qr_scan", "ios": "https://dc.lft.to/lastmile_qr_scan"}, "lat": 38.921459166666665, "is_disabled": 0, "lon": -77.03509516666666}, {"fusion_lat": 0.0, "type": "electric_scooter", "name": "7ae2a8e2b0bab0eaab3194dd8c5e6679", "fusion_lon": 0.0, "bike_id": "7ae2a8e2b0bab0eaab3194dd8c5e6679", "is_reserved": 0, "rental_uris": {"android": "https://dc.lft.to/lastmile_qr_scan", "ios": "https://dc.lft.to/lastmile_qr_scan"}, "lat": 38.887099666666664, "is_disabled": 0, "lon": -77.022047}, {"fusion_lat": 0.0, "type": "electric_bike", "name": "88ce9bfddbaa521a46e0dbc882d7e917", "fusion_lon": 0.0, "bike_id": "88ce9bfddbaa521a46e0dbc882d7e917", "is_reserved": 0, "rental_uris": {"android": "https://dc.lft.to/lastmile_qr_scan", "ios": "https://dc.lft.to/lastmile_qr_scan"}, "lat": 38.946698833333336, "is_disabled": 0, "lon": -76.983098}, {"fusion_lat": 0.0, "type": "electric_scooter", "name": "633336a5130b54214d089be08fd898b5", "fusion_lon": 0.0, "bike_id": "633336a5130b54214d089be08fd898b5", "is_reserved": 0, "rental_uris": {"android": "https://dc.lft.to/lastmile_qr_scan", "ios": "https://dc.lft.to/lastmile_qr_scan"}, "lat": 38.904155333333335, "is_disabled": 0, "lon": -77.02978766666666}, {"fusion_lat": 0.0, "type": "electric_scooter", "name": "4de0b9b8fac086dbc64ebd4b3ac05ffb", "fusion_lon": 0.0, "bike_id": "4de0b9b8fac086dbc64ebd4b3ac05ffb", "is_reserved": 0, "rental_uris": {"android": "https://dc.lft.to/lastmile_qr_scan", "ios": "https://dc.lft.to/lastmile_qr_scan"}, "lat": 38.9562825, "is_disabled": 0, "lon": -77.02459433333334}, {"fusion_lat": 0.0, "type": "electric_scooter", "name": "4dbb39327fe4eb0fccd21e5a9725fbdf", "fusion_lon": 0.0, "bike_id": "4dbb39327fe4eb0fccd21e5a9725fbdf", "is_reserved": 0, "rental_uris": {"android": "https://dc.lft.to/lastmile_qr_scan", "ios": "https://dc.lft.to/lastmile_qr_scan"}, "lat": 38.9198745, "is_disabled": 0, "lon": -77.02374516666667}, {"fusion_lat": 0.0, "type": "electric_scooter", "name": "645926379bbb69e475f08de0493a72c9", "fusion_lon": 0.0, "bike_id": "645926379bbb69e475f08de0493a72c9", "is_reserved": 0, "rental_uris": {"android": "https://dc.lft.to/lastmile_qr_scan", "ios": "https://dc.lft.to/lastmile_qr_scan"}, "lat": 38.9112045, "is_disabled": 0, "lon": -77.04368916666667}, {"fusion_lat": 0.0, "type": "electric_scooter", "name": "5af087262848b28ebbd0e6460795197f", "fusion_lon": 0.0, "bike_id": "5af087262848b28ebbd0e6460795197f", "is_reserved": 0, "rental_uris": {"android": "https://dc.lft.to/lastmile_qr_scan", "ios": "https://dc.lft.to/lastmile_qr_scan"}, "lat": 38.91779583333334, "is_disabled": 0, "lon": -77.02309516666666}, {"fusion_lat": 0.0, "type": "electric_scooter", "name": "ad4310cf740200bfdbeba8696b103f09", "fusion_lon": 0.0, "bike_id": "ad4310cf740200bfdbeba8696b103f09", "is_reserved": 0, "rental_uris": {"android": "https://dc.lft.to/lastmile_qr_scan", "ios": "https://dc.lft.to/lastmile_qr_scan"}, "lat": 38.898318833333335, "is_disabled": 0, "lon": -77.03313733333333}, {"fusion_lat": 0.0, "type": "electric_bike", "name": "c770dde046115d4ac9149b88ebe27643", "fusion_lon": 0.0, "bike_id": "c770dde046115d4ac9149b88ebe27643", "is_reserved": 0, "rental_uris": {"android": "https://dc.lft.to/lastmile_qr_scan", "ios": "https://dc.lft.to/lastmile_qr_scan"}, "lat": 38.9220585, "is_disabled": 0, "lon": -77.08198016666667}, {"fusion_lat": 0.0, "type": "electric_scooter", "name": "f9ed23207850c8e4cce2431e55552839", "fusion_lon": 0.0, "bike_id": "f9ed23207850c8e4cce2431e55552839", "is_reserved": 0, "rental_uris": {"android": "https://dc.lft.to/lastmile_qr_scan", "ios": "https://dc.lft.to/lastmile_qr_scan"}, "lat": 38.91879983333333, "is_disabled": 0, "lon": -77.037667}, {"fusion_lat": 0.0, "type": "electric_scooter", "name": "d8e94ec11077fae6a2f7419956d01aeb", "fusion_lon": 0.0, "bike_id": "d8e94ec11077fae6a2f7419956d01aeb", "is_reserved": 0, "rental_uris": {"android": "https://dc.lft.to/lastmile_qr_scan", "ios": "https://dc.lft.to/lastmile_qr_scan"}, "lat": 38.887427333333335, "is_disabled": 0, "lon": -77.027331}, {"fusion_lat": 0.0, "type": "electric_scooter", "name": "4d95c6199fe9b4940ca44ec897b02ce5", "fusion_lon": 0.0, "bike_id": "4d95c6199fe9b4940ca44ec897b02ce5", "is_reserved": 0, "rental_uris": {"android": "https://dc.lft.to/lastmile_qr_scan", "ios": "https://dc.lft.to/lastmile_qr_scan"}, "lat": 38.85722716666667, "is_disabled": 0, "lon": -76.9894985}, {"fusion_lat": 0.0, "type": "electric_scooter", "name": "0490617cdc47d6f95df9474bac1f34ef", "fusion_lon": 0.0, "bike_id": "0490617cdc47d6f95df9474bac1f34ef", "is_reserved": 0, "rental_uris": {"android": "https://dc.lft.to/lastmile_qr_scan", "ios": "https://dc.lft.to/lastmile_qr_scan"}, "lat": 38.90761333333333, "is_disabled": 0, "lon": -76.99304016666666}, {"fusion_lat": 0.0, "type": "electric_scooter", "name": "75520a7697156480265cbec98395801c", "fusion_lon": 0.0, "bike_id": "75520a7697156480265cbec98395801c", "is_reserved": 0, "rental_uris": {"android": "https://dc.lft.to/lastmile_qr_scan", "ios": "https://dc.lft.to/lastmile_qr_scan"}, "lat": 38.877816, "is_disabled": 0, "lon": -76.993588}, {"fusion_lat": 0.0, "type": "electric_scooter", "name": "9406291ad0c67016ce15684dd8845182", "fusion_lon": 0.0, "bike_id": "9406291ad0c67016ce15684dd8845182", "is_reserved": 0, "rental_uris": {"android": "https://dc.lft.to/lastmile_qr_scan", "ios": "https://dc.lft.to/lastmile_qr_scan"}, "lat": 38.922806333333334, "is_disabled": 0, "lon": -77.03906533333334}, {"fusion_lat": 0.0, "type": "electric_scooter", "name": "c9201acd58d994a936799807f5e70d6f", "fusion_lon": 0.0, "bike_id": "c9201acd58d994a936799807f5e70d6f", "is_reserved": 0, "rental_uris": {"android": "https://dc.lft.to/lastmile_qr_scan", "ios": "https://dc.lft.to/lastmile_qr_scan"}, "lat": 38.874636, "is_disabled": 0, "lon": -77.01129866666666}, {"fusion_lat": 0.0, "type": "electric_scooter", "name": "eed4755e5c58a99971cec61959253663", "fusion_lon": 0.0, "bike_id": "eed4755e5c58a99971cec61959253663", "is_reserved": 0, "rental_uris": {"android": "https://dc.lft.to/lastmile_qr_scan", "ios": "https://dc.lft.to/lastmile_qr_scan"}, "lat": 38.876575333333335, "is_disabled": 0, "lon": -76.99453083333333}, {"fusion_lat": 0.0, "type": "electric_scooter", "name": "36755a08becca20b03f9f37f37d5a4f0", "fusion_lon": 0.0, "bike_id": "36755a08becca20b03f9f37f37d5a4f0", "is_reserved": 0, "rental_uris": {"android": "https://dc.lft.to/lastmile_qr_scan", "ios": "https://dc.lft.to/lastmile_qr_scan"}, "lat": 38.914492, "is_disabled": 0, "lon": -77.02198783333333}, {"fusion_lat": 0.0, "type": "electric_scooter", "name": "4cf511b83bc65b3e43c477034cc7c1af", "fusion_lon": 0.0, "bike_id": "4cf511b83bc65b3e43c477034cc7c1af", "is_reserved": 0, "rental_uris": {"android": "https://dc.lft.to/lastmile_qr_scan", "ios": "https://dc.lft.to/lastmile_qr_scan"}, "lat": 38.90016816666667, "is_disabled": 0, "lon": -77.01851766666667}, {"fusion_lat": 0.0, "type": "electric_scooter", "name": "8786869d413e74f1a84ba0b3448807ca", "fusion_lon": 0.0, "bike_id": "8786869d413e74f1a84ba0b3448807ca", "is_reserved": 0, "rental_uris": {"android": "https://dc.lft.to/lastmile_qr_scan", "ios": "https://dc.lft.to/lastmile_qr_scan"}, "lat": 38.94902066666667, "is_disabled": 0, "lon": -77.00648316666667}, {"fusion_lat": 0.0, "type": "electric_scooter", "name": "01b6898bd12cdad3a302fbf4e49ccbf0", "fusion_lon": 0.0, "bike_id": "01b6898bd12cdad3a302fbf4e49ccbf0", "is_reserved": 0, "rental_uris": {"android": "https://dc.lft.to/lastmile_qr_scan", "ios": "https://dc.lft.to/lastmile_qr_scan"}, "lat": 38.892231333333335, "is_disabled": 0, "lon": -77.02342966666667}, {"fusion_lat": 0.0, "type": "electric_scooter", "name": "e55b00f22727f239c10149d306d8aeb1", "fusion_lon": 0.0, "bike_id": "e55b00f22727f239c10149d306d8aeb1", "is_reserved": 0, "rental_uris": {"android": "https://dc.lft.to/lastmile_qr_scan", "ios": "https://dc.lft.to/lastmile_qr_scan"}, "lat": 38.920914833333335, "is_disabled": 0, "lon": -77.0316505}, {"fusion_lat": 0.0, "type": "electric_scooter", "name": "0b0771cf665d488754271b8a2c86c23b", "fusion_lon": 0.0, "bike_id": "0b0771cf665d488754271b8a2c86c23b", "is_reserved": 0, "rental_uris": {"android": "https://dc.lft.to/lastmile_qr_scan", "ios": "https://dc.lft.to/lastmile_qr_scan"}, "lat": 38.900720666666665, "is_disabled": 0, "lon": -77.04782133333333}, {"fusion_lat": 0.0, "type": "electric_scooter", "name": "5dac5adc44f0ba96de8be38fe6b7b052", "fusion_lon": 0.0, "bike_id": "5dac5adc44f0ba96de8be38fe6b7b052", "is_reserved": 0, "rental_uris": {"android": "https://dc.lft.to/lastmile_qr_scan", "ios": "https://dc.lft.to/lastmile_qr_scan"}, "lat": 38.909617, "is_disabled": 0, "lon": -77.0321185}, {"fusion_lat": 0.0, "type": "electric_scooter", "name": "1a3baa822f79aa78e226b6438ec56164", "fusion_lon": 0.0, "bike_id": "1a3baa822f79aa78e226b6438ec56164", "is_reserved": 0, "rental_uris": {"android": "https://dc.lft.to/lastmile_qr_scan", "ios": "https://dc.lft.to/lastmile_qr_scan"}, "lat": 38.8922465, "is_disabled": 0, "lon": -77.022387}, {"fusion_lat": 0.0, "type": "electric_scooter", "name": "75584614055879b35c44b09dd7b1a361", "fusion_lon": 0.0, "bike_id": "75584614055879b35c44b09dd7b1a361", "is_reserved": 0, "rental_uris": {"android": "https://dc.lft.to/lastmile_qr_scan", "ios": "https://dc.lft.to/lastmile_qr_scan"}, "lat": 38.887251666666664, "is_disabled": 0, "lon": -77.02830683333333}, {"fusion_lat": 0.0, "type": "electric_scooter", "name": "3efc8c2527dc7ed61661eb523c3e3e46", "fusion_lon": 0.0, "bike_id": "3efc8c2527dc7ed61661eb523c3e3e46", "is_reserved": 0, "rental_uris": {"android": "https://dc.lft.to/lastmile_qr_scan", "ios": "https://dc.lft.to/lastmile_qr_scan"}, "lat": 38.9224915, "is_disabled": 0, "lon": -77.02124616666667}, {"fusion_lat": 0.0, "type": "electric_scooter", "name": "d570785f86785466892b3efa10e1e8c7", "fusion_lon": 0.0, "bike_id": "d570785f86785466892b3efa10e1e8c7", "is_reserved": 0, "rental_uris": {"android": "https://dc.lft.to/lastmile_qr_scan", "ios": "https://dc.lft.to/lastmile_qr_scan"}, "lat": 38.865408333333335, "is_disabled": 0, "lon": -76.98711133333333}, {"fusion_lat": 0.0, "type": "electric_bike", "name": "ad03a052d1fd5fc629806414f861fb75", "fusion_lon": 0.0, "bike_id": "ad03a052d1fd5fc629806414f861fb75", "is_reserved": 0, "rental_uris": {"android": "https://dc.lft.to/lastmile_qr_scan", "ios": "https://dc.lft.to/lastmile_qr_scan"}, "lat": 38.9101465, "is_disabled": 0, "lon": -77.22802133333333}, {"fusion_lat": 0.0, "type": "electric_scooter", "name": "e07fecbb93364f3ccf099e8894bd127e", "fusion_lon": 0.0, "bike_id": "e07fecbb93364f3ccf099e8894bd127e", "is_reserved": 0, "rental_uris": {"android": "https://dc.lft.to/lastmile_qr_scan", "ios": "https://dc.lft.to/lastmile_qr_scan"}, "lat": 38.892970166666665, "is_disabled": 0, "lon": -77.01238433333333}, {"fusion_lat": 0.0, "type": "electric_scooter", "name": "af5d6088b564895013b67f8a80e512c6", "fusion_lon": 0.0, "bike_id": "af5d6088b564895013b67f8a80e512c6", "is_reserved": 0, "rental_uris": {"android": "https://dc.lft.to/lastmile_qr_scan", "ios": "https://dc.lft.to/lastmile_qr_scan"}, "lat": 38.94201783333333, "is_disabled": 0, "lon": -77.02505416666666}, {"fusion_lat": 0.0, "type": "electric_bike", "name": "1d2703402647afa1e387635a5b43f13c", "fusion_lon": 0.0, "bike_id": "1d2703402647afa1e387635a5b43f13c", "is_reserved": 0, "rental_uris": {"android": "https://dc.lft.to/lastmile_qr_scan", "ios": "https://dc.lft.to/lastmile_qr_scan"}, "lat": 38.87273183333333, "is_disabled": 0, "lon": -77.2331865}, {"fusion_lat": 0.0, "type": "electric_scooter", "name": "9bba9c029a0e113b56a6d0b2657947e5", "fusion_lon": 0.0, "bike_id": "9bba9c029a0e113b56a6d0b2657947e5", "is_reserved": 0, "rental_uris": {"android": "https://dc.lft.to/lastmile_qr_scan", "ios": "https://dc.lft.to/lastmile_qr_scan"}, "lat": 38.918564833333335, "is_disabled": 0, "lon": -77.01665666666666}, {"fusion_lat": 0.0, "type": "electric_scooter", "name": "928b70c5a1a0386018f143b4e996a8be", "fusion_lon": 0.0, "bike_id": "928b70c5a1a0386018f143b4e996a8be", "is_reserved": 0, "rental_uris": {"android": "https://dc.lft.to/lastmile_qr_scan", "ios": "https://dc.lft.to/lastmile_qr_scan"}, "lat": 38.92749766666667, "is_disabled": 0, "lon": -77.03558283333334}, {"fusion_lat": 0.0, "type": "electric_scooter", "name": "8f4d8b1f11e2075d82d12df9e096d163", "fusion_lon": 0.0, "bike_id": "8f4d8b1f11e2075d82d12df9e096d163", "is_reserved": 0, "rental_uris": {"android": "https://dc.lft.to/lastmile_qr_scan", "ios": "https://dc.lft.to/lastmile_qr_scan"}, "lat": 38.9215225, "is_disabled": 0, "lon": -77.04208983333334}, {"fusion_lat": 0.0, "type": "electric_bike", "name": "a78d1c5d84c84c6f75b9ef078fcd8811", "fusion_lon": 0.0, "bike_id": "a78d1c5d84c84c6f75b9ef078fcd8811", "is_reserved": 0, "rental_uris": {"android": "https://dc.lft.to/lastmile_qr_scan", "ios": "https://dc.lft.to/lastmile_qr_scan"}, "lat": 38.942279, "is_disabled": 0, "lon": -76.96620933333334}, {"fusion_lat": 0.0, "type": "electric_scooter", "name": "8ff4850c1742de6934430d952664f2f7", "fusion_lon": 0.0, "bike_id": "8ff4850c1742de6934430d952664f2f7", "is_reserved": 0, "rental_uris": {"android": "https://dc.lft.to/lastmile_qr_scan", "ios": "https://dc.lft.to/lastmile_qr_scan"}, "lat": 38.8669715, "is_disabled": 0, "lon": -76.98589933333334}, {"fusion_lat": 0.0, "type": "electric_scooter", "name": "5329cadbb6c70cc51044fb41fe829e08", "fusion_lon": 0.0, "bike_id": "5329cadbb6c70cc51044fb41fe829e08", "is_reserved": 0, "rental_uris": {"android": "https://dc.lft.to/lastmile_qr_scan", "ios": "https://dc.lft.to/lastmile_qr_scan"}, "lat": 38.9248005, "is_disabled": 0, "lon": -77.02146883333333}, {"fusion_lat": 0.0, "type": "electric_scooter", "name": "01b2d1913b5e9058285d8fd33424b280", "fusion_lon": 0.0, "bike_id": "01b2d1913b5e9058285d8fd33424b280", "is_reserved": 0, "rental_uris": {"android": "https://dc.lft.to/lastmile_qr_scan", "ios": "https://dc.lft.to/lastmile_qr_scan"}, "lat": 38.911814666666665, "is_disabled": 0, "lon": -77.03520066666667}, {"fusion_lat": 0.0, "type": "electric_scooter", "name": "f7fb1406cf63d52637481e9191f5c8dc", "fusion_lon": 0.0, "bike_id": "f7fb1406cf63d52637481e9191f5c8dc", "is_reserved": 0, "rental_uris": {"android": "https://dc.lft.to/lastmile_qr_scan", "ios": "https://dc.lft.to/lastmile_qr_scan"}, "lat": 38.910107333333336, "is_disabled": 0, "lon": -77.020998}, {"fusion_lat": 0.0, "type": "electric_scooter", "name": "d49a02fdc0a5660dbdc9bd2ca53db5f8", "fusion_lon": 0.0, "bike_id": "d49a02fdc0a5660dbdc9bd2ca53db5f8", "is_reserved": 0, "rental_uris": {"android": "https://dc.lft.to/lastmile_qr_scan", "ios": "https://dc.lft.to/lastmile_qr_scan"}, "lat": 38.892234333333334, "is_disabled": 0, "lon": -77.04896933333333}, {"fusion_lat": 0.0, "type": "electric_scooter", "name": "3d814d6ef7c857167118718dcb012ced", "fusion_lon": 0.0, "bike_id": "3d814d6ef7c857167118718dcb012ced", "is_reserved": 0, "rental_uris": {"android": "https://dc.lft.to/lastmile_qr_scan", "ios": "https://dc.lft.to/lastmile_qr_scan"}, "lat": 38.91305833333333, "is_disabled": 0, "lon": -77.0385255}, {"fusion_lat": 0.0, "type": "electric_scooter", "name": "59e4cf88fcd69deade9ce9d91985f50b", "fusion_lon": 0.0, "bike_id": "59e4cf88fcd69deade9ce9d91985f50b", "is_reserved": 0, "rental_uris": {"android": "https://dc.lft.to/lastmile_qr_scan", "ios": "https://dc.lft.to/lastmile_qr_scan"}, "lat": 38.908862, "is_disabled": 0, "lon": -76.99854233333333}, {"fusion_lat": 0.0, "type": "electric_scooter", "name": "e594e95fb880803a2399afe1c3d17d3f", "fusion_lon": 0.0, "bike_id": "e594e95fb880803a2399afe1c3d17d3f", "is_reserved": 0, "rental_uris": {"android": "https://dc.lft.to/lastmile_qr_scan", "ios": "https://dc.lft.to/lastmile_qr_scan"}, "lat": 38.84991816666667, "is_disabled": 0, "lon": -76.98347733333334}, {"fusion_lat": 0.0, "type": "electric_scooter", "name": "aacd0aec9da0c399124c67f344b5b13f", "fusion_lon": 0.0, "bike_id": "aacd0aec9da0c399124c67f344b5b13f", "is_reserved": 0, "rental_uris": {"android": "https://dc.lft.to/lastmile_qr_scan", "ios": "https://dc.lft.to/lastmile_qr_scan"}, "lat": 38.86683166666667, "is_disabled": 0, "lon": -76.98595683333333}, {"fusion_lat": 0.0, "type": "electric_bike", "name": "6f29a9ca8faa2a1c6d662aeafa099a5f", "fusion_lon": 0.0, "bike_id": "6f29a9ca8faa2a1c6d662aeafa099a5f", "is_reserved": 0, "rental_uris": {"android": "https://dc.lft.to/lastmile_qr_scan", "ios": "https://dc.lft.to/lastmile_qr_scan"}, "lat": 38.92745333333333, "is_disabled": 0, "lon": -77.03634066666666}, {"fusion_lat": 0.0, "type": "electric_scooter", "name": "2ab4c2c3de4189782f1b720c1a6672df", "fusion_lon": 0.0, "bike_id": "2ab4c2c3de4189782f1b720c1a6672df", "is_reserved": 0, "rental_uris": {"android": "https://dc.lft.to/lastmile_qr_scan", "ios": "https://dc.lft.to/lastmile_qr_scan"}, "lat": 38.90767316666667, "is_disabled": 0, "lon": -77.07313}, {"fusion_lat": 0.0, "type": "electric_scooter", "name": "82c6e1b855c91f509224fa92bb97fa8e", "fusion_lon": 0.0, "bike_id": "82c6e1b855c91f509224fa92bb97fa8e", "is_reserved": 0, "rental_uris": {"android": "https://dc.lft.to/lastmile_qr_scan", "ios": "https://dc.lft.to/lastmile_qr_scan"}, "lat": 38.909564833333334, "is_disabled": 0, "lon": -77.0470515}, {"fusion_lat": 0.0, "type": "electric_scooter", "name": "b464dfcb55a3de77ef12ff1bcf48852f", "fusion_lon": 0.0, "bike_id": "b464dfcb55a3de77ef12ff1bcf48852f", "is_reserved": 0, "rental_uris": {"android": "https://dc.lft.to/lastmile_qr_scan", "ios": "https://dc.lft.to/lastmile_qr_scan"}, "lat": 38.902671833333336, "is_disabled": 0, "lon": -77.03964683333334}, {"fusion_lat": 0.0, "type": "electric_scooter", "name": "2af212107fa4b3bf7f9dd0b4c33f39f8", "fusion_lon": 0.0, "bike_id": "2af212107fa4b3bf7f9dd0b4c33f39f8", "is_reserved": 0, "rental_uris": {"android": "https://dc.lft.to/lastmile_qr_scan", "ios": "https://dc.lft.to/lastmile_qr_scan"}, "lat": 38.93087833333333, "is_disabled": 0, "lon": -77.02499083333333}, {"fusion_lat": 0.0, "type": "electric_scooter", "name": "a1d73310df81a13bf7c4bb3096c59c9b", "fusion_lon": 0.0, "bike_id": "a1d73310df81a13bf7c4bb3096c59c9b", "is_reserved": 0, "rental_uris": {"android": "https://dc.lft.to/lastmile_qr_scan", "ios": "https://dc.lft.to/lastmile_qr_scan"}, "lat": 38.90176, "is_disabled": 0, "lon": -76.92865416666666}, {"fusion_lat": 0.0, "type": "electric_scooter", "name": "45f888d80603b73000a9de9f5546b775", "fusion_lon": 0.0, "bike_id": "45f888d80603b73000a9de9f5546b775", "is_reserved": 0, "rental_uris": {"android": "https://dc.lft.to/lastmile_qr_scan", "ios": "https://dc.lft.to/lastmile_qr_scan"}, "lat": 38.926802333333335, "is_disabled": 0, "lon": -77.02254816666667}, {"fusion_lat": 0.0, "type": "electric_scooter", "name": "3c474b149d3e0383e9760f91ab8eb009", "fusion_lon": 0.0, "bike_id": "3c474b149d3e0383e9760f91ab8eb009", "is_reserved": 0, "rental_uris": {"android": "https://dc.lft.to/lastmile_qr_scan", "ios": "https://dc.lft.to/lastmile_qr_scan"}, "lat": 38.907246, "is_disabled": 0, "lon": -77.03449933333333}, {"fusion_lat": 0.0, "type": "electric_scooter", "name": "47330fc4368231bedca4cb22aafada7e", "fusion_lon": 0.0, "bike_id": "47330fc4368231bedca4cb22aafada7e", "is_reserved": 0, "rental_uris": {"android": "https://dc.lft.to/lastmile_qr_scan", "ios": "https://dc.lft.to/lastmile_qr_scan"}, "lat": 38.8871875, "is_disabled": 0, "lon": -76.983565}, {"fusion_lat": 0.0, "type": "electric_scooter", "name": "15b07cb67e44d6f17f475e346760738a", "fusion_lon": 0.0, "bike_id": "15b07cb67e44d6f17f475e346760738a", "is_reserved": 0, "rental_uris": {"android": "https://dc.lft.to/lastmile_qr_scan", "ios": "https://dc.lft.to/lastmile_qr_scan"}, "lat": 38.907341, "is_disabled": 0, "lon": -77.00165183333333}, {"fusion_lat": 0.0, "type": "electric_scooter", "name": "0ab3d68cf3e7af95673f55a4a26213f4", "fusion_lon": 0.0, "bike_id": "0ab3d68cf3e7af95673f55a4a26213f4", "is_reserved": 0, "rental_uris": {"android": "https://dc.lft.to/lastmile_qr_scan", "ios": "https://dc.lft.to/lastmile_qr_scan"}, "lat": 38.92800966666667, "is_disabled": 0, "lon": -77.02479666666666}, {"fusion_lat": 0.0, "type": "electric_scooter", "name": "6396e607a8bffb4662f4d69259d12297", "fusion_lon": 0.0, "bike_id": "6396e607a8bffb4662f4d69259d12297", "is_reserved": 0, "rental_uris": {"android": "https://dc.lft.to/lastmile_qr_scan", "ios": "https://dc.lft.to/lastmile_qr_scan"}, "lat": 38.92059883333334, "is_disabled": 0, "lon": -77.0399175}, {"fusion_lat": 0.0, "type": "electric_bike", "name": "cb52b9f5c694481d90d4acb8894267a3", "fusion_lon": 0.0, "bike_id": "cb52b9f5c694481d90d4acb8894267a3", "is_reserved": 0, "rental_uris": {"android": "https://dc.lft.to/lastmile_qr_scan", "ios": "https://dc.lft.to/lastmile_qr_scan"}, "lat": 38.934029333333335, "is_disabled": 0, "lon": -77.03543333333333}, {"fusion_lat": 0.0, "type": "electric_scooter", "name": "cc87bfc18bda2561b9c525ed0e9a5a0f", "fusion_lon": 0.0, "bike_id": "cc87bfc18bda2561b9c525ed0e9a5a0f", "is_reserved": 0, "rental_uris": {"android": "https://dc.lft.to/lastmile_qr_scan", "ios": "https://dc.lft.to/lastmile_qr_scan"}, "lat": 38.97370633333333, "is_disabled": 0, "lon": -77.01865233333334}, {"fusion_lat": 0.0, "type": "electric_scooter", "name": "9369307e02df55645a8c8e1d9ddfc1af", "fusion_lon": 0.0, "bike_id": "9369307e02df55645a8c8e1d9ddfc1af", "is_reserved": 0, "rental_uris": {"android": "https://dc.lft.to/lastmile_qr_scan", "ios": "https://dc.lft.to/lastmile_qr_scan"}, "lat": 38.93334433333333, "is_disabled": 0, "lon": -77.0571325}, {"fusion_lat": 0.0, "type": "electric_scooter", "name": "5a9d22e342c5953959c9ea6403a5bb8d", "fusion_lon": 0.0, "bike_id": "5a9d22e342c5953959c9ea6403a5bb8d", "is_reserved": 0, "rental_uris": {"android": "https://dc.lft.to/lastmile_qr_scan", "ios": "https://dc.lft.to/lastmile_qr_scan"}, "lat": 38.870728, "is_disabled": 0, "lon": -76.98919516666666}, {"fusion_lat": 0.0, "type": "electric_scooter", "name": "b88c4671426affb81d74357f6421371e", "fusion_lon": 0.0, "bike_id": "b88c4671426affb81d74357f6421371e", "is_reserved": 0, "rental_uris": {"android": "https://dc.lft.to/lastmile_qr_scan", "ios": "https://dc.lft.to/lastmile_qr_scan"}, "lat": 38.9010275, "is_disabled": 0, "lon": -77.0431885}, {"fusion_lat": 0.0, "type": "electric_scooter", "name": "9601ade1cc375ff1b167daf8aa84c387", "fusion_lon": 0.0, "bike_id": "9601ade1cc375ff1b167daf8aa84c387", "is_reserved": 0, "rental_uris": {"android": "https://dc.lft.to/lastmile_qr_scan", "ios": "https://dc.lft.to/lastmile_qr_scan"}, "lat": 38.88574416666667, "is_disabled": 0, "lon": -77.017271}, {"fusion_lat": 0.0, "type": "electric_scooter", "name": "703c7f6b00bdabaffc8467aceb72eae9", "fusion_lon": 0.0, "bike_id": "703c7f6b00bdabaffc8467aceb72eae9", "is_reserved": 0, "rental_uris": {"android": "https://dc.lft.to/lastmile_qr_scan", "ios": "https://dc.lft.to/lastmile_qr_scan"}, "lat": 38.9584365, "is_disabled": 0, "lon": -77.06858116666666}, {"fusion_lat": 0.0, "type": "electric_scooter", "name": "9884baa5cc05b48afdf939e5423bead2", "fusion_lon": 0.0, "bike_id": "9884baa5cc05b48afdf939e5423bead2", "is_reserved": 0, "rental_uris": {"android": "https://dc.lft.to/lastmile_qr_scan", "ios": "https://dc.lft.to/lastmile_qr_scan"}, "lat": 38.916797833333334, "is_disabled": 0, "lon": -77.03222883333333}, {"fusion_lat": 0.0, "type": "electric_scooter", "name": "47f5ba1a34b490b901c0e323e051e749", "fusion_lon": 0.0, "bike_id": "47f5ba1a34b490b901c0e323e051e749", "is_reserved": 0, "rental_uris": {"android": "https://dc.lft.to/lastmile_qr_scan", "ios": "https://dc.lft.to/lastmile_qr_scan"}, "lat": 38.906704166666664, "is_disabled": 0, "lon": -77.005684}, {"fusion_lat": 0.0, "type": "electric_scooter", "name": "ef4a321669097a6d692561ea71ee3a91", "fusion_lon": 0.0, "bike_id": "ef4a321669097a6d692561ea71ee3a91", "is_reserved": 0, "rental_uris": {"android": "https://dc.lft.to/lastmile_qr_scan", "ios": "https://dc.lft.to/lastmile_qr_scan"}, "lat": 38.920288666666664, "is_disabled": 0, "lon": -77.011227}, {"fusion_lat": 0.0, "type": "electric_bike", "name": "c5b92273f2dec63af367bd7f9c7b606d", "fusion_lon": 0.0, "bike_id": "c5b92273f2dec63af367bd7f9c7b606d", "is_reserved": 0, "rental_uris": {"android": "https://dc.lft.to/lastmile_qr_scan", "ios": "https://dc.lft.to/lastmile_qr_scan"}, "lat": 38.87836516666667, "is_disabled": 0, "lon": -76.98374033333333}, {"fusion_lat": 0.0, "type": "electric_bike", "name": "945f1bfefdfcfd4e84e636012a4849e2", "fusion_lon": 0.0, "bike_id": "945f1bfefdfcfd4e84e636012a4849e2", "is_reserved": 0, "rental_uris": {"android": "https://dc.lft.to/lastmile_qr_scan", "ios": "https://dc.lft.to/lastmile_qr_scan"}, "lat": 38.936547, "is_disabled": 0, "lon": -77.036868}, {"fusion_lat": 0.0, "type": "electric_scooter", "name": "418e45088a70e01e3e8b54d31df124eb", "fusion_lon": 0.0, "bike_id": "418e45088a70e01e3e8b54d31df124eb", "is_reserved": 0, "rental_uris": {"android": "https://dc.lft.to/lastmile_qr_scan", "ios": "https://dc.lft.to/lastmile_qr_scan"}, "lat": 38.9286095, "is_disabled": 0, "lon": -77.03086433333333}, {"fusion_lat": 0.0, "type": "electric_scooter", "name": "a0ca0207d47e6b39b69187c3cc001440", "fusion_lon": 0.0, "bike_id": "a0ca0207d47e6b39b69187c3cc001440", "is_reserved": 0, "rental_uris": {"android": "https://dc.lft.to/lastmile_qr_scan", "ios": "https://dc.lft.to/lastmile_qr_scan"}, "lat": 38.9148785, "is_disabled": 0, "lon": -77.02585983333333}, {"fusion_lat": 0.0, "type": "electric_bike", "name": "07a88d825753a244441a203d576e1d3b", "fusion_lon": 0.0, "bike_id": "07a88d825753a244441a203d576e1d3b", "is_reserved": 0, "rental_uris": {"android": "https://dc.lft.to/lastmile_qr_scan", "ios": "https://dc.lft.to/lastmile_qr_scan"}, "lat": 38.85426533333333, "is_disabled": 0, "lon": -77.12077966666666}, {"fusion_lat": 0.0, "type": "electric_scooter", "name": "2e4addf7e232267ac72749eee16ae743", "fusion_lon": 0.0, "bike_id": "2e4addf7e232267ac72749eee16ae743", "is_reserved": 0, "rental_uris": {"android": "https://dc.lft.to/lastmile_qr_scan", "ios": "https://dc.lft.to/lastmile_qr_scan"}, "lat": 38.905584833333336, "is_disabled": 0, "lon": -76.97392116666667}, {"fusion_lat": 0.0, "type": "electric_scooter", "name": "cccbbc28f057012164d4918c1f255caa", "fusion_lon": 0.0, "bike_id": "cccbbc28f057012164d4918c1f255caa", "is_reserved": 0, "rental_uris": {"android": "https://dc.lft.to/lastmile_qr_scan", "ios": "https://dc.lft.to/lastmile_qr_scan"}, "lat": 38.901929, "is_disabled": 0, "lon": -77.0217915}, {"fusion_lat": 0.0, "type": "electric_scooter", "name": "9e9a67788ca1439ccd0dfa8b2e98a6be", "fusion_lon": 0.0, "bike_id": "9e9a67788ca1439ccd0dfa8b2e98a6be", "is_reserved": 0, "rental_uris": {"android": "https://dc.lft.to/lastmile_qr_scan", "ios": "https://dc.lft.to/lastmile_qr_scan"}, "lat": 38.92460783333333, "is_disabled": 0, "lon": -77.07817416666667}, {"fusion_lat": 0.0, "type": "electric_bike", "name": "30dc09db9f4ab26fb16fa37c110a34ca", "fusion_lon": 0.0, "bike_id": "30dc09db9f4ab26fb16fa37c110a34ca", "is_reserved": 0, "rental_uris": {"android": "https://dc.lft.to/lastmile_qr_scan", "ios": "https://dc.lft.to/lastmile_qr_scan"}, "lat": 38.8935255, "is_disabled": 0, "lon": -77.187406}, {"fusion_lat": 0.0, "type": "electric_scooter", "name": "1aa80779dd3b9e0b8407b4a26921d960", "fusion_lon": 0.0, "bike_id": "1aa80779dd3b9e0b8407b4a26921d960", "is_reserved": 0, "rental_uris": {"android": "https://dc.lft.to/lastmile_qr_scan", "ios": "https://dc.lft.to/lastmile_qr_scan"}, "lat": 38.921701166666665, "is_disabled": 0, "lon": -77.038453}, {"fusion_lat": 0.0, "type": "electric_scooter", "name": "762ddfaa5458772850e4477cb6393b94", "fusion_lon": 0.0, "bike_id": "762ddfaa5458772850e4477cb6393b94", "is_reserved": 0, "rental_uris": {"android": "https://dc.lft.to/lastmile_qr_scan", "ios": "https://dc.lft.to/lastmile_qr_scan"}, "lat": 38.899172166666666, "is_disabled": 0, "lon": -76.933803}, {"fusion_lat": 0.0, "type": "electric_scooter", "name": "37ac7ddba1b92667186a40510b1e7914", "fusion_lon": 0.0, "bike_id": "37ac7ddba1b92667186a40510b1e7914", "is_reserved": 0, "rental_uris": {"android": "https://dc.lft.to/lastmile_qr_scan", "ios": "https://dc.lft.to/lastmile_qr_scan"}, "lat": 38.902596, "is_disabled": 0, "lon": -77.02656983333334}, {"fusion_lat": 0.0, "type": "electric_scooter", "name": "b9fb11bfa19ae949e0241382244f9f8a", "fusion_lon": 0.0, "bike_id": "b9fb11bfa19ae949e0241382244f9f8a", "is_reserved": 0, "rental_uris": {"android": "https://dc.lft.to/lastmile_qr_scan", "ios": "https://dc.lft.to/lastmile_qr_scan"}, "lat": 38.911751333333335, "is_disabled": 0, "lon": -77.04917516666667}, {"fusion_lat": 0.0, "type": "electric_scooter", "name": "25d84572f58887ba0caff30287fea80c", "fusion_lon": 0.0, "bike_id": "25d84572f58887ba0caff30287fea80c", "is_reserved": 0, "rental_uris": {"android": "https://dc.lft.to/lastmile_qr_scan", "ios": "https://dc.lft.to/lastmile_qr_scan"}, "lat": 38.91226916666667, "is_disabled": 0, "lon": -77.022713}, {"fusion_lat": 0.0, "type": "electric_scooter", "name": "b329d62ecf22ab8d41b7c5b445da86f2", "fusion_lon": 0.0, "bike_id": "b329d62ecf22ab8d41b7c5b445da86f2", "is_reserved": 0, "rental_uris": {"android": "https://dc.lft.to/lastmile_qr_scan", "ios": "https://dc.lft.to/lastmile_qr_scan"}, "lat": 38.89323733333333, "is_disabled": 0, "lon": -76.9438105}, {"fusion_lat": 0.0, "type": "electric_scooter", "name": "9369d334c0b02aaecf4fca4dc6e35b6b", "fusion_lon": 0.0, "bike_id": "9369d334c0b02aaecf4fca4dc6e35b6b", "is_reserved": 0, "rental_uris": {"android": "https://dc.lft.to/lastmile_qr_scan", "ios": "https://dc.lft.to/lastmile_qr_scan"}, "lat": 38.92364716666667, "is_disabled": 0, "lon": -77.0505135}, {"fusion_lat": 0.0, "type": "electric_scooter", "name": "ce7165a12e9466bfc85b48de9503f0e2", "fusion_lon": 0.0, "bike_id": "ce7165a12e9466bfc85b48de9503f0e2", "is_reserved": 0, "rental_uris": {"android": "https://dc.lft.to/lastmile_qr_scan", "ios": "https://dc.lft.to/lastmile_qr_scan"}, "lat": 38.9324765, "is_disabled": 0, "lon": -77.03415166666667}, {"fusion_lat": 0.0, "type": "electric_scooter", "name": "073a252cb2bf9e0dd228025e52fbe712", "fusion_lon": 0.0, "bike_id": "073a252cb2bf9e0dd228025e52fbe712", "is_reserved": 0, "rental_uris": {"android": "https://dc.lft.to/lastmile_qr_scan", "ios": "https://dc.lft.to/lastmile_qr_scan"}, "lat": 38.920570833333336, "is_disabled": 0, "lon": -77.03346716666667}, {"fusion_lat": 0.0, "type": "electric_scooter", "name": "a452952b5aac0e26333f8526b57bb76d", "fusion_lon": 0.0, "bike_id": "a452952b5aac0e26333f8526b57bb76d", "is_reserved": 0, "rental_uris": {"android": "https://dc.lft.to/lastmile_qr_scan", "ios": "https://dc.lft.to/lastmile_qr_scan"}, "lat": 38.88749516666667, "is_disabled": 0, "lon": -77.00881183333334}, {"fusion_lat": 0.0, "type": "electric_scooter", "name": "394bf74b11e847a7d2ffd80c2c9c696d", "fusion_lon": 0.0, "bike_id": "394bf74b11e847a7d2ffd80c2c9c696d", "is_reserved": 0, "rental_uris": {"android": "https://dc.lft.to/lastmile_qr_scan", "ios": "https://dc.lft.to/lastmile_qr_scan"}, "lat": 38.90504133333334, "is_disabled": 0, "lon": -76.97924066666667}, {"fusion_lat": 0.0, "type": "electric_scooter", "name": "b6263dfb67b6994d46eea54e3083725a", "fusion_lon": 0.0, "bike_id": "b6263dfb67b6994d46eea54e3083725a", "is_reserved": 0, "rental_uris": {"android": "https://dc.lft.to/lastmile_qr_scan", "ios": "https://dc.lft.to/lastmile_qr_scan"}, "lat": 38.91843466666667, "is_disabled": 0, "lon": -77.04487216666666}, {"fusion_lat": 0.0, "type": "electric_scooter", "name": "0067f5304f9930065c912b5e527df185", "fusion_lon": 0.0, "bike_id": "0067f5304f9930065c912b5e527df185", "is_reserved": 0, "rental_uris": {"android": "https://dc.lft.to/lastmile_qr_scan", "ios": "https://dc.lft.to/lastmile_qr_scan"}, "lat": 38.876780333333336, "is_disabled": 0, "lon": -76.998276}, {"fusion_lat": 0.0, "type": "electric_scooter", "name": "08847553a05966fc69dd132edc93e568", "fusion_lon": 0.0, "bike_id": "08847553a05966fc69dd132edc93e568", "is_reserved": 0, "rental_uris": {"android": "https://dc.lft.to/lastmile_qr_scan", "ios": "https://dc.lft.to/lastmile_qr_scan"}, "lat": 38.9417955, "is_disabled": 0, "lon": -77.02533566666666}, {"fusion_lat": 0.0, "type": "electric_scooter", "name": "50d420a8ab1cacd6ba80cdaf1ca98244", "fusion_lon": 0.0, "bike_id": "50d420a8ab1cacd6ba80cdaf1ca98244", "is_reserved": 0, "rental_uris": {"android": "https://dc.lft.to/lastmile_qr_scan", "ios": "https://dc.lft.to/lastmile_qr_scan"}, "lat": 38.91610383333333, "is_disabled": 0, "lon": -77.0315615}, {"fusion_lat": 0.0, "type": "electric_scooter", "name": "e98588e63373b31123a19571cf56aa5b", "fusion_lon": 0.0, "bike_id": "e98588e63373b31123a19571cf56aa5b", "is_reserved": 0, "rental_uris": {"android": "https://dc.lft.to/lastmile_qr_scan", "ios": "https://dc.lft.to/lastmile_qr_scan"}, "lat": 38.9168325, "is_disabled": 0, "lon": -77.02816783333333}, {"fusion_lat": 0.0, "type": "electric_bike", "name": "37643a0cf549080d744e2977a2a1a09b", "fusion_lon": 0.0, "bike_id": "37643a0cf549080d744e2977a2a1a09b", "is_reserved": 0, "rental_uris": {"android": "https://dc.lft.to/lastmile_qr_scan", "ios": "https://dc.lft.to/lastmile_qr_scan"}, "lat": 38.902716833333336, "is_disabled": 0, "lon": -76.92926816666667}, {"fusion_lat": 0.0, "type": "electric_scooter", "name": "086168280e08aa4b1e54669b3642b4f6", "fusion_lon": 0.0, "bike_id": "086168280e08aa4b1e54669b3642b4f6", "is_reserved": 0, "rental_uris": {"android": "https://dc.lft.to/lastmile_qr_scan", "ios": "https://dc.lft.to/lastmile_qr_scan"}, "lat": 38.909552833333336, "is_disabled": 0, "lon": -77.0548425}, {"fusion_lat": 0.0, "type": "electric_scooter", "name": "55de6fd266f3cee3b7d8c7ace2c22a80", "fusion_lon": 0.0, "bike_id": "55de6fd266f3cee3b7d8c7ace2c22a80", "is_reserved": 0, "rental_uris": {"android": "https://dc.lft.to/lastmile_qr_scan", "ios": "https://dc.lft.to/lastmile_qr_scan"}, "lat": 38.911756, "is_disabled": 0, "lon": -77.0295415}, {"fusion_lat": 0.0, "type": "electric_scooter", "name": "9b89f083a21edea2d5163ca83149be74", "fusion_lon": 0.0, "bike_id": "9b89f083a21edea2d5163ca83149be74", "is_reserved": 0, "rental_uris": {"android": "https://dc.lft.to/lastmile_qr_scan", "ios": "https://dc.lft.to/lastmile_qr_scan"}, "lat": 38.913467833333335, "is_disabled": 0, "lon": -77.03190316666667}, {"fusion_lat": 0.0, "type": "electric_scooter", "name": "d86ed96a8c9c920ce4300516d4f939c1", "fusion_lon": 0.0, "bike_id": "d86ed96a8c9c920ce4300516d4f939c1", "is_reserved": 0, "rental_uris": {"android": "https://dc.lft.to/lastmile_qr_scan", "ios": "https://dc.lft.to/lastmile_qr_scan"}, "lat": 38.8922275, "is_disabled": 0, "lon": -77.043785}, {"fusion_lat": 0.0, "type": "electric_bike", "name": "0614c2bc55397fe27daa034ff3337ba9", "fusion_lon": 0.0, "bike_id": "0614c2bc55397fe27daa034ff3337ba9", "is_reserved": 0, "rental_uris": {"android": "https://dc.lft.to/lastmile_qr_scan", "ios": "https://dc.lft.to/lastmile_qr_scan"}, "lat": 39.042402833333334, "is_disabled": 0, "lon": -76.997367}, {"fusion_lat": 0.0, "type": "electric_scooter", "name": "2faa26cfe29a724534ecbd78bce25e93", "fusion_lon": 0.0, "bike_id": "2faa26cfe29a724534ecbd78bce25e93", "is_reserved": 0, "rental_uris": {"android": "https://dc.lft.to/lastmile_qr_scan", "ios": "https://dc.lft.to/lastmile_qr_scan"}, "lat": 38.909588166666666, "is_disabled": 0, "lon": -77.00806933333334}, {"fusion_lat": 0.0, "type": "electric_scooter", "name": "c9312cfcbc4c907d375165ea91d9e0b9", "fusion_lon": 0.0, "bike_id": "c9312cfcbc4c907d375165ea91d9e0b9", "is_reserved": 0, "rental_uris": {"android": "https://dc.lft.to/lastmile_qr_scan", "ios": "https://dc.lft.to/lastmile_qr_scan"}, "lat": 38.90039433333333, "is_disabled": 0, "lon": -77.02964383333334}, {"fusion_lat": 0.0, "type": "electric_scooter", "name": "3ba49a20ed3be4c0a51bc1a68afba083", "fusion_lon": 0.0, "bike_id": "3ba49a20ed3be4c0a51bc1a68afba083", "is_reserved": 0, "rental_uris": {"android": "https://dc.lft.to/lastmile_qr_scan", "ios": "https://dc.lft.to/lastmile_qr_scan"}, "lat": 38.941768, "is_disabled": 0, "lon": -77.0274605}, {"fusion_lat": 0.0, "type": "electric_scooter", "name": "60df3703255c54bf3a94c403c9a6dc98", "fusion_lon": 0.0, "bike_id": "60df3703255c54bf3a94c403c9a6dc98", "is_reserved": 0, "rental_uris": {"android": "https://dc.lft.to/lastmile_qr_scan", "ios": "https://dc.lft.to/lastmile_qr_scan"}, "lat": 38.90824216666667, "is_disabled": 0, "lon": -77.0023505}, {"fusion_lat": 0.0, "type": "electric_scooter", "name": "4eb66302b4d23bf20cf88abe70aaaf81", "fusion_lon": 0.0, "bike_id": "4eb66302b4d23bf20cf88abe70aaaf81", "is_reserved": 0, "rental_uris": {"android": "https://dc.lft.to/lastmile_qr_scan", "ios": "https://dc.lft.to/lastmile_qr_scan"}, "lat": 38.92044033333333, "is_disabled": 0, "lon": -77.02341016666666}, {"fusion_lat": 0.0, "type": "electric_scooter", "name": "e468808a49cd7589bbbd15febbed1ccd", "fusion_lon": 0.0, "bike_id": "e468808a49cd7589bbbd15febbed1ccd", "is_reserved": 0, "rental_uris": {"android": "https://dc.lft.to/lastmile_qr_scan", "ios": "https://dc.lft.to/lastmile_qr_scan"}, "lat": 38.920109, "is_disabled": 0, "lon": -77.0321435}, {"fusion_lat": 0.0, "type": "electric_scooter", "name": "7a44f7dc558f53a6aa27e04a8a5198f7", "fusion_lon": 0.0, "bike_id": "7a44f7dc558f53a6aa27e04a8a5198f7", "is_reserved": 0, "rental_uris": {"android": "https://dc.lft.to/lastmile_qr_scan", "ios": "https://dc.lft.to/lastmile_qr_scan"}, "lat": 38.893535666666665, "is_disabled": 0, "lon": -77.003325}, {"fusion_lat": 0.0, "type": "electric_scooter", "name": "160a220db483c961eab6bbf94495b09f", "fusion_lon": 0.0, "bike_id": "160a220db483c961eab6bbf94495b09f", "is_reserved": 0, "rental_uris": {"android": "https://dc.lft.to/lastmile_qr_scan", "ios": "https://dc.lft.to/lastmile_qr_scan"}, "lat": 38.94081383333334, "is_disabled": 0, "lon": -77.02718483333334}, {"fusion_lat": 0.0, "type": "electric_bike", "name": "b6cd1b085cb15c5419b6f5b6255c5400", "fusion_lon": 0.0, "bike_id": "b6cd1b085cb15c5419b6f5b6255c5400", "is_reserved": 0, "rental_uris": {"android": "https://dc.lft.to/lastmile_qr_scan", "ios": "https://dc.lft.to/lastmile_qr_scan"}, "lat": 38.91953566666667, "is_disabled": 0, "lon": -77.045175}, {"fusion_lat": 0.0, "type": "electric_scooter", "name": "ad39dd16ee25e0c4aafff947c94a3cc8", "fusion_lon": 0.0, "bike_id": "ad39dd16ee25e0c4aafff947c94a3cc8", "is_reserved": 0, "rental_uris": {"android": "https://dc.lft.to/lastmile_qr_scan", "ios": "https://dc.lft.to/lastmile_qr_scan"}, "lat": 38.91677583333333, "is_disabled": 0, "lon": -77.03688383333333}, {"fusion_lat": 0.0, "type": "electric_scooter", "name": "09af33e9c7789ddc26aea4c29a9bdb1f", "fusion_lon": 0.0, "bike_id": "09af33e9c7789ddc26aea4c29a9bdb1f", "is_reserved": 0, "rental_uris": {"android": "https://dc.lft.to/lastmile_qr_scan", "ios": "https://dc.lft.to/lastmile_qr_scan"}, "lat": 38.8917225, "is_disabled": 0, "lon": -77.01553866666667}, {"fusion_lat": 0.0, "type": "electric_scooter", "name": "a7d4e0cbbb35c0499a35f846749f78b2", "fusion_lon": 0.0, "bike_id": "a7d4e0cbbb35c0499a35f846749f78b2", "is_reserved": 0, "rental_uris": {"android": "https://dc.lft.to/lastmile_qr_scan", "ios": "https://dc.lft.to/lastmile_qr_scan"}, "lat": 38.906398833333334, "is_disabled": 0, "lon": -77.04826383333334}, {"fusion_lat": 0.0, "type": "electric_scooter", "name": "40a33e394bb77fe806c2c2ed81bf66ed", "fusion_lon": 0.0, "bike_id": "40a33e394bb77fe806c2c2ed81bf66ed", "is_reserved": 0, "rental_uris": {"android": "https://dc.lft.to/lastmile_qr_scan", "ios": "https://dc.lft.to/lastmile_qr_scan"}, "lat": 38.9371185, "is_disabled": 0, "lon": -77.03637833333333}, {"fusion_lat": 0.0, "type": "electric_scooter", "name": "7685e17d7d0e43af646b0d7663581a69", "fusion_lon": 0.0, "bike_id": "7685e17d7d0e43af646b0d7663581a69", "is_reserved": 0, "rental_uris": {"android": "https://dc.lft.to/lastmile_qr_scan", "ios": "https://dc.lft.to/lastmile_qr_scan"}, "lat": 38.92142666666667, "is_disabled": 0, "lon": -76.9957355}, {"fusion_lat": 0.0, "type": "electric_scooter", "name": "a9a99ded947dd09c82701076e5e3b611", "fusion_lon": 0.0, "bike_id": "a9a99ded947dd09c82701076e5e3b611", "is_reserved": 0, "rental_uris": {"android": "https://dc.lft.to/lastmile_qr_scan", "ios": "https://dc.lft.to/lastmile_qr_scan"}, "lat": 38.924003166666665, "is_disabled": 0, "lon": -77.02546233333334}, {"fusion_lat": 0.0, "type": "electric_scooter", "name": "b70bb82bac2144c726a8ad1680bcb0bf", "fusion_lon": 0.0, "bike_id": "b70bb82bac2144c726a8ad1680bcb0bf", "is_reserved": 0, "rental_uris": {"android": "https://dc.lft.to/lastmile_qr_scan", "ios": "https://dc.lft.to/lastmile_qr_scan"}, "lat": 38.9321295, "is_disabled": 0, "lon": -77.02824066666666}, {"fusion_lat": 0.0, "type": "electric_scooter", "name": "5f1c18c1f9da19ef5e2c67b8f59a93f7", "fusion_lon": 0.0, "bike_id": "5f1c18c1f9da19ef5e2c67b8f59a93f7", "is_reserved": 0, "rental_uris": {"android": "https://dc.lft.to/lastmile_qr_scan", "ios": "https://dc.lft.to/lastmile_qr_scan"}, "lat": 38.9070905, "is_disabled": 0, "lon": -77.03263866666667}, {"fusion_lat": 0.0, "type": "electric_scooter", "name": "33d1963cd2d6b7053e266d6c0f5f9675", "fusion_lon": 0.0, "bike_id": "33d1963cd2d6b7053e266d6c0f5f9675", "is_reserved": 0, "rental_uris": {"android": "https://dc.lft.to/lastmile_qr_scan", "ios": "https://dc.lft.to/lastmile_qr_scan"}, "lat": 38.8915285, "is_disabled": 0, "lon": -77.00579533333334}, {"fusion_lat": 0.0, "type": "electric_bike", "name": "842f8d11514391cb73467fbc3842c69e", "fusion_lon": 0.0, "bike_id": "842f8d11514391cb73467fbc3842c69e", "is_reserved": 0, "rental_uris": {"android": "https://dc.lft.to/lastmile_qr_scan", "ios": "https://dc.lft.to/lastmile_qr_scan"}, "lat": 38.903152, "is_disabled": 0, "lon": -76.91217033333334}, {"fusion_lat": 0.0, "type": "electric_scooter", "name": "2e291ff147925e559d428d96f62a61a5", "fusion_lon": 0.0, "bike_id": "2e291ff147925e559d428d96f62a61a5", "is_reserved": 0, "rental_uris": {"android": "https://dc.lft.to/lastmile_qr_scan", "ios": "https://dc.lft.to/lastmile_qr_scan"}, "lat": 38.867016166666666, "is_disabled": 0, "lon": -76.98717416666666}, {"fusion_lat": 0.0, "type": "electric_scooter", "name": "ae5b89539ab2e41603da6c801283d59f", "fusion_lon": 0.0, "bike_id": "ae5b89539ab2e41603da6c801283d59f", "is_reserved": 0, "rental_uris": {"android": "https://dc.lft.to/lastmile_qr_scan", "ios": "https://dc.lft.to/lastmile_qr_scan"}, "lat": 38.93982183333333, "is_disabled": 0, "lon": -77.03264583333333}, {"fusion_lat": 0.0, "type": "electric_scooter", "name": "1a6fc2bc734977726aecbf222238197f", "fusion_lon": 0.0, "bike_id": "1a6fc2bc734977726aecbf222238197f", "is_reserved": 0, "rental_uris": {"android": "https://dc.lft.to/lastmile_qr_scan", "ios": "https://dc.lft.to/lastmile_qr_scan"}, "lat": 38.9442025, "is_disabled": 0, "lon": -77.01783133333333},