{"data": {"bikes": [{"name": "7ba423c764058d1fa8048268561b7a5d", "fusion_lat": 0.0, "type": "electric_scooter", "lat": 38.909606833333335, "is_reserved": 0, "is_disabled": 0, "fusion_lon": 0.0, "bike_id": "7ba423c764058d1fa8048268561b7a5d", "lon": -77.0431725, "rental_uris": {"ios": "https://dc.lft.to/lastmile_qr_scan", "android": "https://dc.lft.to/lastmile_qr_scan"}}, {"name": "c8933582f2f6b44b1358f23ddc38edd3", "fusion_lat": 0.0, "type": "electric_scooter", "lat": 38.9317835, "is_reserved": 0, "is_disabled": 0, "fusion_lon": 0.0, "bike_id": "c8933582f2f6b44b1358f23ddc38edd3", "lon": -77.05607016666667, "rental_uris": {"ios": "https://dc.lft.to/lastmile_qr_scan", "android": "https://dc.lft.to/lastmile_qr_scan"}}, {"name": "89ab97610e221f0e3b79b37e7370f3d1", "fusion_lat": 0.0, "type": "electric_bike", "lat": 38.965465333333334, "is_reserved": 0, "is_disabled": 0, "fusion_lon": 0.0, "bike_id": "89ab97610e221f0e3b79b37e7370f3d1", "lon": -77.035139, "rental_uris": {"ios": "https://dc.lft.to/lastmile_qr_scan", "android": "https://dc.lft.to/lastmile_qr_scan"}}, {"name": "c873a2233738cf5a645740521d61dda4", "fusion_lat": 0.0, "type": "electric_scooter", "lat": 38.9206415, "is_reserved": 0, "is_disabled": 0, "fusion_lon": 0.0, "bike_id": "c873a2233738cf5a645740521d61dda4", "lon": -77.04701483333334, "rental_uris": {"ios": "https://dc.lft.to/lastmile_qr_scan", "android": "https://dc.lft.to/lastmile_qr_scan"}}, {"name": "379204ec664c3fc775ee24b5177701f4", "fusion_lat": 0.0, "type": "electric_scooter", "lat": 38.890921, "is_reserved": 0, "is_disabled": 0, "fusion_lon": 0.0, "bike_id": "379204ec664c3fc775ee24b5177701f4", "lon": -76.997868, "rental_uris": {"ios": "https://dc.lft.to/lastmile_qr_scan", "android": "https://dc.lft.to/lastmile_qr_scan"}}, {"name": "caf8d8e423fecbbf77c6a202e5e4e6de", "fusion_lat": 0.0, "type": "electric_scooter", "lat": 38.92114733333333, "is_reserved": 0, "is_disabled": 0, "fusion_lon": 0.0, "bike_id": "caf8d8e423fecbbf77c6a202e5e4e6de", "lon": -77.03181466666666, "rental_uris": {"ios": "https://dc.lft.to/lastmile_qr_scan", "android": "https://dc.lft.to/lastmile_qr_scan"}}, {"name": "bd2ef5090bf54118206d42205b785592", "fusion_lat": 0.0, "type": "electric_scooter", "lat": 38.919902666666665, "is_reserved": 0, "is_disabled": 0, "fusion_lon": 0.0, "bike_id": "bd2ef5090bf54118206d42205b785592", "lon": -77.0331755, "rental_uris": {"ios": "https://dc.lft.to/lastmile_qr_scan", "android": "https://dc.lft.to/lastmile_qr_scan"}}, {"name": "87d6ff06d32c84733ebb936fcdf1ba12", "fusion_lat": 0.0, "type": "electric_scooter", "lat": 38.891839, "is_reserved": 0, "is_disabled": 0, "fusion_lon": 0.0, "bike_id": "87d6ff06d32c84733ebb936fcdf1ba12", "lon": -77.00334266666667, "rental_uris": {"ios": "https://dc.lft.to/lastmile_qr_scan", "android": "https://dc.lft.to/lastmile_qr_scan"}}, {"name": "4b2d9749ffb95e9c1d995a88ad8878dd", "fusion_lat": 0.0, "type": "electric_scooter", "lat": 38.9243775, "is_reserved": 0, "is_disabled": 0, "fusion_lon": 0.0, "bike_id": "4b2d9749ffb95e9c1d995a88ad8878dd", "lon": -77.04132983333334, "rental_uris": {"ios": "https://dc.lft.to/lastmile_qr_scan", "android": "https://dc.lft.to/lastmile_qr_scan"}}, {"name": "0dcd53cf9c369dc6563fedd4e4bd0dd0", "fusion_lat": 0.0, "type": "electric_scooter", "lat": 38.905592, "is_reserved": 0, "is_disabled": 0, "fusion_lon": 0.0, "bike_id": "0dcd53cf9c369dc6563fedd4e4bd0dd0", "lon": -77.0019095, "rental_uris": {"ios": "https://dc.lft.to/lastmile_qr_scan", "android": "https://dc.lft.to/lastmile_qr_scan"}}, {"name": "5612b339633c6fbbd0ffdaebb6bda138", "fusion_lat": 0.0, "type": "electric_scooter", "lat": 38.903773666666666, "is_reserved": 0, "is_disabled": 0, "fusion_lon": 0.0, "bike_id": "5612b339633c6fbbd0ffdaebb6bda138", "lon": -77.04715933333334, "rental_uris": {"ios": "https://dc.lft.to/lastmile_qr_scan", "android": "https://dc.lft.to/lastmile_qr_scan"}}, {"name": "322fa7aa31de7e91134be62916ba04a7", "fusion_lat": 0.0, "type": "electric_scooter", "lat": 38.942939833333334, "is_reserved": 0, "is_disabled": 0, "fusion_lon": 0.0, "bike_id": "322fa7aa31de7e91134be62916ba04a7", "lon": -77.02170416666667, "rental_uris": {"ios": "https://dc.lft.to/lastmile_qr_scan", "android": "https://dc.lft.to/lastmile_qr_scan"}}, {"name": "7a479476ac50ac61eb1f45fdbfb2a445", "fusion_lat": 0.0, "type": "electric_scooter", "lat": 38.918698666666664, "is_reserved": 0, "is_disabled": 0, "fusion_lon": 0.0, "bike_id": "7a479476ac50ac61eb1f45fdbfb2a445", "lon": -77.02303683333334, "rental_uris": {"ios": "https://dc.lft.to/lastmile_qr_scan", "android": "https://dc.lft.to/lastmile_qr_scan"}}, {"name": "dd768791ff50bc604e87b1e1e29d15c8", "fusion_lat": 0.0, "type": "electric_scooter", "lat": 38.9098175, "is_reserved": 0, "is_disabled": 0, "fusion_lon": 0.0, "bike_id": "dd768791ff50bc604e87b1e1e29d15c8", "lon": -77.06711483333333, "rental_uris": {"ios": "https://dc.lft.to/lastmile_qr_scan", "android": "https://dc.lft.to/lastmile_qr_scan"}}, {"name": "6bbf4245a63245fa1b22c5a4027e378f", "fusion_lat": 0.0, "type": "electric_scooter", "lat": 38.8566, "is_reserved": 0, "is_disabled": 0, "fusion_lon": 0.0, "bike_id": "6bbf4245a63245fa1b22c5a4027e378f", "lon": -76.99089783333334, "rental_uris": {"ios": "https://dc.lft.to/lastmile_qr_scan", "android": "https://dc.lft.to/lastmile_qr_scan"}}, {"name": "540346d02af5bdb4d75c67eb9a75be6a", "fusion_lat": 0.0, "type": "electric_scooter", "lat": 38.892244, "is_reserved": 0, "is_disabled": 0, "fusion_lon": 0.0, "bike_id": "540346d02af5bdb4d75c67eb9a75be6a", "lon": -77.03020433333333, "rental_uris": {"ios": "https://dc.lft.to/lastmile_qr_scan", "android": "https://dc.lft.to/lastmile_qr_scan"}}, {"name": "4bfee789f43874afe70223d91cc50eed", "fusion_lat": 0.0, "type": "electric_scooter", "lat": 38.90111666666667, "is_reserved": 0, "is_disabled": 0, "fusion_lon": 0.0, "bike_id": "4bfee789f43874afe70223d91cc50eed", "lon": -77.00831366666667, "rental_uris": {"ios": "https://dc.lft.to/lastmile_qr_scan", "android": "https://dc.lft.to/lastmile_qr_scan"}}, {"name": "c7f2738c433207d260f10d7d7b5719d6", "fusion_lat": 0.0, "type": "electric_scooter", "lat": 38.87926, "is_reserved": 0, "is_disabled": 0, "fusion_lon": 0.0, "bike_id": "c7f2738c433207d260f10d7d7b5719d6", "lon": -76.99254383333333, "rental_uris": {"ios": "https://dc.lft.to/lastmile_qr_scan", "android": "https://dc.lft.to/lastmile_qr_scan"}}, {"name": "f94a62f8981c18d1b58ca0811d46b16e", "fusion_lat": 0.0, "type": "electric_scooter", "lat": 38.8741985, "is_reserved": 0, "is_disabled": 0, "fusion_lon": 0.0, "bike_id": "f94a62f8981c18d1b58ca0811d46b16e", "lon": -76.96090283333334, "rental_uris": {"ios": "https://dc.lft.to/lastmile_qr_scan", "android": "https://dc.lft.to/lastmile_qr_scan"}}, {"name": "c7edfc9a4b537cc6aa19914ed7cbea03", "fusion_lat": 0.0, "type": "electric_scooter", "lat": 38.896583166666666, "is_reserved": 0, "is_disabled": 0, "fusion_lon": 0.0, "bike_id": "c7edfc9a4b537cc6aa19914ed7cbea03", "lon": -76.94855666666666, "rental_uris": {"ios": "https://dc.lft.to/lastmile_qr_scan", "android": "https://dc.lft.to/lastmile_qr_scan"}}, {"name": "922f97bcdddb364cd01a7aa4a086a250", "fusion_lat": 0.0, "type": "electric_scooter", "lat": 38.9050305, "is_reserved": 0, "is_disabled": 0, "fusion_lon": 0.0, "bike_id": "922f97bcdddb364cd01a7aa4a086a250", "lon": -77.04471633333333, "rental_uris": {"ios": "https://dc.lft.to/lastmile_qr_scan", "android": "https://dc.lft.to/lastmile_qr_scan"}}, {"name": "f50fa799758b0be962e5810f1b644397", "fusion_lat": 0.0, "type": "electric_scooter", "lat": 38.93616266666667, "is_reserved": 0, "is_disabled": 0, "fusion_lon": 0.0, "bike_id": "f50fa799758b0be962e5810f1b644397", "lon": -77.0321295, "rental_uris": {"ios": "https://dc.lft.to/lastmile_qr_scan", "android": "https://dc.lft.to/lastmile_qr_scan"}}, {"name": "7f2929a14586be05a721c26e84551696", "fusion_lat": 0.0, "type": "electric_scooter", "lat": 38.911737333333335, "is_reserved": 0, "is_disabled": 0, "fusion_lon": 0.0, "bike_id": "7f2929a14586be05a721c26e84551696", "lon": -77.0112405, "rental_uris": {"ios": "https://dc.lft.to/lastmile_qr_scan", "android": "https://dc.lft.to/lastmile_qr_scan"}}, {"name": "101fa57f757dd164911271007be72487", "fusion_lat": 0.0, "type": "electric_scooter", "lat": 38.93591133333334, "is_reserved": 0, "is_disabled": 0, "fusion_lon": 0.0, "bike_id": "101fa57f757dd164911271007be72487", "lon": -76.99119416666667, "rental_uris": {"ios": "https://dc.lft.to/lastmile_qr_scan", "android": "https://dc.lft.to/lastmile_qr_scan"}}, {"name": "3073c11c051c48f2addf13b57e421c63", "fusion_lat": 0.0, "type": "electric_scooter", "lat": 38.932523, "is_reserved": 0, "is_disabled": 0, "fusion_lon": 0.0, "bike_id": "3073c11c051c48f2addf13b57e421c63", "lon": -77.040149, "rental_uris": {"ios": "https://dc.lft.to/lastmile_qr_scan", "android": "https://dc.lft.to/lastmile_qr_scan"}}, {"name": "37d5b88471632c90d19c42b1500a590e", "fusion_lat": 0.0, "type": "electric_scooter", "lat": 38.912711333333334, "is_reserved": 0, "is_disabled": 0, "fusion_lon": 0.0, "bike_id": "37d5b88471632c90d19c42b1500a590e", "lon": -77.03881316666667, "rental_uris": {"ios": "https://dc.lft.to/lastmile_qr_scan", "android": "https://dc.lft.to/lastmile_qr_scan"}}, {"name": "8c50517c311c23cfef29b8df13cfb18a", "fusion_lat": 0.0, "type": "electric_scooter", "lat": 38.91661, "is_reserved": 0, "is_disabled": 0, "fusion_lon": 0.0, "bike_id": "8c50517c311c23cfef29b8df13cfb18a", "lon": -77.0370475, "rental_uris": {"ios": "https://dc.lft.to/lastmile_qr_scan", "android": "https://dc.lft.to/lastmile_qr_scan"}}, {"name": "a225c5ccb50845a0122a378df823ac96", "fusion_lat": 0.0, "type": "electric_scooter", "lat": 38.890925333333335, "is_reserved": 0, "is_disabled": 0, "fusion_lon": 0.0, "bike_id": "a225c5ccb50845a0122a378df823ac96", "lon": -76.98730816666666, "rental_uris": {"ios": "https://dc.lft.to/lastmile_qr_scan", "android": "https://dc.lft.to/lastmile_qr_scan"}}, {"name": "11590d4693a9721b083f0b6df01d9753", "fusion_lat": 0.0, "type": "electric_scooter", "lat": 38.907041666666665, "is_reserved": 0, "is_disabled": 0, "fusion_lon": 0.0, "bike_id": "11590d4693a9721b083f0b6df01d9753", "lon": -77.024006, "rental_uris": {"ios": "https://dc.lft.to/lastmile_qr_scan", "android": "https://dc.lft.to/lastmile_qr_scan"}}, {"name": "5e6d4ba53940ff349e6b5a75e33e48db", "fusion_lat": 0.0, "type": "electric_scooter", "lat": 38.917811, "is_reserved": 0, "is_disabled": 0, "fusion_lon": 0.0, "bike_id": "5e6d4ba53940ff349e6b5a75e33e48db", "lon": -77.0345855, "rental_uris": {"ios": "https://dc.lft.to/lastmile_qr_scan", "android": "https://dc.lft.to/lastmile_qr_scan"}}, {"name": "e9e80cf04a9a5cc7579f741176aa5031", "fusion_lat": 0.0, "type": "electric_scooter", "lat": 38.887655, "is_reserved": 0, "is_disabled": 0, "fusion_lon": 0.0, "bike_id": "e9e80cf04a9a5cc7579f741176aa5031", "lon": -76.95600216666666, "rental_uris": {"ios": "https://dc.lft.to/lastmile_qr_scan", "android": "https://dc.lft.to/lastmile_qr_scan"}}, {"name": "f40ad14634489f14d3eb73b75e9e1316", "fusion_lat": 0.0, "type": "electric_scooter", "lat": 38.8691835, "is_reserved": 0, "is_disabled": 0, "fusion_lon": 0.0, "bike_id": "f40ad14634489f14d3eb73b75e9e1316", "lon": -76.97501666666666, "rental_uris": {"ios": "https://dc.lft.to/lastmile_qr_scan", "android": "https://dc.lft.to/lastmile_qr_scan"}}, {"name": "c5cedd33ea5fa04e6fdc8ea33d24716d", "fusion_lat": 0.0, "type": "electric_scooter", "lat": 38.943454, "is_reserved": 0, "is_disabled": 0, "fusion_lon": 0.0, "bike_id": "c5cedd33ea5fa04e6fdc8ea33d24716d", "lon": -77.06059966666666, "rental_uris": {"ios": "https://dc.lft.to/lastmile_qr_scan", "android": "https://dc.lft.to/lastmile_qr_scan"}}, {"name": "ef20cc9d0b60df169c5c00cd4e0253cf", "fusion_lat": 0.0, "type": "electric_scooter", "lat": 38.895598166666666, "is_reserved": 0, "is_disabled": 0, "fusion_lon": 0.0, "bike_id": "ef20cc9d0b60df169c5c00cd4e0253cf", "lon": -77.04678133333333, "rental_uris": {"ios": "https://dc.lft.to/lastmile_qr_scan", "android": "https://dc.lft.to/lastmile_qr_scan"}}, {"name": "5e549dd775228e7d91ba144c742ce9d0", "fusion_lat": 0.0, "type": "electric_scooter", "lat": 38.870796666666664, "is_reserved": 0, "is_disabled": 0, "fusion_lon": 0.0, "bike_id": "5e549dd775228e7d91ba144c742ce9d0", "lon": -77.01123133333333, "rental_uris": {"ios": "https://dc.lft.to/lastmile_qr_scan", "android": "https://dc.lft.to/lastmile_qr_scan"}}, {"name": "6c31321a294fe11a9041064e28f41163", "fusion_lat": 0.0, "type": "electric_scooter", "lat": 38.88784316666667, "is_reserved": 0, "is_disabled": 0, "fusion_lon": 0.0, "bike_id": "6c31321a294fe11a9041064e28f41163", "lon": -76.95527216666666, "rental_uris": {"ios": "https://dc.lft.to/lastmile_qr_scan", "android": "https://dc.lft.to/lastmile_qr_scan"}}, {"name": "e33c7c23ac3ad86f38406e3f908a34e9", "fusion_lat": 0.0, "type": "electric_scooter", "lat": 38.93456466666667, "is_reserved": 0, "is_disabled": 0, "fusion_lon": 0.0, "bike_id": "e33c7c23ac3ad86f38406e3f908a34e9", "lon": -77.08639733333334, "rental_uris": {"ios": "https://dc.lft.to/lastmile_qr_scan", "android": "https://dc.lft.to/lastmile_qr_scan"}}, {"name": "2762eadb13b850262ea56d30b5c7e3ff", "fusion_lat": 0.0, "type": "electric_scooter", "lat": 38.905769, "is_reserved": 0, "is_disabled": 0, "fusion_lon": 0.0, "bike_id": "2762eadb13b850262ea56d30b5c7e3ff", "lon": -77.05699216666666, "rental_uris": {"ios": "https://dc.lft.to/lastmile_qr_scan", "android": "https://dc.lft.to/lastmile_qr_scan"}}, {"name": "ba2972d364fc5a3937b5ca7c24ad2af7", "fusion_lat": 0.0, "type": "electric_scooter", "lat": 38.887049, "is_reserved": 0, "is_disabled": 0, "fusion_lon": 0.0, "bike_id": "ba2972d364fc5a3937b5ca7c24ad2af7", "lon": -77.03349533333333, "rental_uris": {"ios": "https://dc.lft.to/lastmile_qr_scan", "android": "https://dc.lft.to/lastmile_qr_scan"}}, {"name": "5cd9fce5720242767ed46023da8344c7", "fusion_lat": 0.0, "type": "electric_scooter", "lat": 38.92372, "is_reserved": 0, "is_disabled": 0, "fusion_lon": 0.0, "bike_id": "5cd9fce5720242767ed46023da8344c7", "lon": -77.01911666666666, "rental_uris": {"ios": "https://dc.lft.to/lastmile_qr_scan", "android": "https://dc.lft.to/lastmile_qr_scan"}}, {"name": "21ecf33c345014137effdce622dfe17d", "fusion_lat": 0.0, "type": "electric_scooter", "lat": 38.889940833333334, "is_reserved": 0, "is_disabled": 0, "fusion_lon": 0.0, "bike_id": "21ecf33c345014137effdce622dfe17d", "lon": -77.00120583333333, "rental_uris": {"ios": "https://dc.lft.to/lastmile_qr_scan", "android": "https://dc.lft.to/lastmile_qr_scan"}}, {"name": "8040a752b4a1f5926a7beda5293a0bd9", "fusion_lat": 0.0, "type": "electric_scooter", "lat": 38.948432, "is_reserved": 0, "is_disabled": 0, "fusion_lon": 0.0, "bike_id": "8040a752b4a1f5926a7beda5293a0bd9", "lon": -77.02551, "rental_uris": {"ios": "https://dc.lft.to/lastmile_qr_scan", "android": "https://dc.lft.to/lastmile_qr_scan"}}, {"name": "064c6897e72878f0147b65c1ac224964", "fusion_lat": 0.0, "type": "electric_scooter", "lat": 38.89730183333333, "is_reserved": 0, "is_disabled": 0, "fusion_lon": 0.0, "bike_id": "064c6897e72878f0147b65c1ac224964", "lon": -77.0216215, "rental_uris": {"ios": "https://dc.lft.to/lastmile_qr_scan", "android": "https://dc.lft.to/lastmile_qr_scan"}}, {"name": "c4b4ecf48dcafcb592baf0c7cbb9cdbd", "fusion_lat": 0.0, "type": "electric_bike", "lat": 38.87066216666667, "is_reserved": 0, "is_disabled": 0, "fusion_lon": 0.0, "bike_id": "c4b4ecf48dcafcb592baf0c7cbb9cdbd", "lon": -77.11055966666666, "rental_uris": {"ios": "https://dc.lft.to/lastmile_qr_scan", "android": "https://dc.lft.to/lastmile_qr_scan"}}, {"name": "dc0ce71c7e281ea28d361263050bdce3", "fusion_lat": 0.0, "type": "electric_bike", "lat": 38.878883, "is_reserved": 0, "is_disabled": 0, "fusion_lon": 0.0, "bike_id": "dc0ce71c7e281ea28d361263050bdce3", "lon": -77.01923283333333, "rental_uris": {"ios": "https://dc.lft.to/lastmile_qr_scan", "android": "https://dc.lft.to/lastmile_qr_scan"}}, {"name": "8d019f9b33c52a71d51879c6dffb1288", "fusion_lat": 0.0, "type": "electric_scooter", "lat": 38.9156545, "is_reserved": 0, "is_disabled": 0, "fusion_lon": 0.0, "bike_id": "8d019f9b33c52a71d51879c6dffb1288", "lon": -77.03236383333333, "rental_uris": {"ios": "https://dc.lft.to/lastmile_qr_scan", "android": "https://dc.lft.to/lastmile_qr_scan"}}, {"name": "e59a2877fbf7abec3d02960eecc58ac9", "fusion_lat": 0.0, "type": "electric_scooter", "lat": 38.877513666666665, "is_reserved": 0, "is_disabled": 0, "fusion_lon": 0.0, "bike_id": "e59a2877fbf7abec3d02960eecc58ac9", "lon": -76.97239133333333, "rental_uris": {"ios": "https://dc.lft.to/lastmile_qr_scan", "android": "https://dc.lft.to/lastmile_qr_scan"}}, {"name": "c2b18c57220ca92599db7f31ac1b1256", "fusion_lat": 0.0, "type": "electric_scooter", "lat": 38.90274866666667, "is_reserved": 0, "is_disabled": 0, "fusion_lon": 0.0, "bike_id": "c2b18c57220ca92599db7f31ac1b1256", "lon": -77.03834433333333, "rental_uris": {"ios": "https://dc.lft.to/lastmile_qr_scan", "android": "https://dc.lft.to/lastmile_qr_scan"}}, {"name": "9aeb341f5fb09a845b95cce04397f8e9", "fusion_lat": 0.0, "type": "electric_scooter", "lat": 38.86082566666666, "is_reserved": 0, "is_disabled": 0, "fusion_lon": 0.0, "bike_id": "9aeb341f5fb09a845b95cce04397f8e9", "lon": -76.967436, "rental_uris": {"ios": "https://dc.lft.to/lastmile_qr_scan", "android": "https://dc.lft.to/lastmile_qr_scan"}}, {"name": "89cb4ff15c928e07ee6d7341f310416e", "fusion_lat": 0.0, "type": "electric_scooter", "lat": 38.91471833333333, "is_reserved": 0, "is_disabled": 0, "fusion_lon": 0.0, "bike_id": "89cb4ff15c928e07ee6d7341f310416e", "lon": -76.98112383333333, "rental_uris": {"ios": "https://dc.lft.to/lastmile_qr_scan", "android": "https://dc.lft.to/lastmile_qr_scan"}}, {"name": "478afc4f5f488f7efb0275182b17ac55", "fusion_lat": 0.0, "type": "electric_scooter", "lat": 38.92206866666667, "is_reserved": 0, "is_disabled": 0, "fusion_lon": 0.0, "bike_id": "478afc4f5f488f7efb0275182b17ac55", "lon": -77.04311666666666, "rental_uris": {"ios": "https://dc.lft.to/lastmile_qr_scan", "android": "https://dc.lft.to/lastmile_qr_scan"}}, {"name": "928bff12f220763e01cef03441687d97", "fusion_lat": 0.0, "type": "electric_scooter", "lat": 38.934819833333336, "is_reserved": 0, "is_disabled": 0, "fusion_lon": 0.0, "bike_id": "928bff12f220763e01cef03441687d97", "lon": -77.07272316666666, "rental_uris": {"ios": "https://dc.lft.to/lastmile_qr_scan", "android": "https://dc.lft.to/lastmile_qr_scan"}}, {"name": "efc00fb80c10f2848d13ac4566a79eb7", "fusion_lat": 0.0, "type": "electric_scooter", "lat": 38.901068333333335, "is_reserved": 0, "is_disabled": 0, "fusion_lon": 0.0, "bike_id": "efc00fb80c10f2848d13ac4566a79eb7", "lon": -77.04987566666667, "rental_uris": {"ios": "https://dc.lft.to/lastmile_qr_scan", "android": "https://dc.lft.to/lastmile_qr_scan"}}, {"name": "521e4d5a0c61022d4a3dbf035e6b5f3f", "fusion_lat": 0.0, "type": "electric_scooter", "lat": 38.93363216666667, "is_reserved": 0, "is_disabled": 0, "fusion_lon": 0.0, "bike_id": "521e4d5a0c61022d4a3dbf035e6b5f3f", "lon": -77.034428, "rental_uris": {"ios": "https://dc.lft.to/lastmile_qr_scan", "android": "https://dc.lft.to/lastmile_qr_scan"}}, {"name": "aae2681e1880b3aed7d30eab7727b3b6", "fusion_lat": 0.0, "type": "electric_scooter", "lat": 38.906643333333335, "is_reserved": 0, "is_disabled": 0, "fusion_lon": 0.0, "bike_id": "aae2681e1880b3aed7d30eab7727b3b6", "lon": -77.02710883333333, "rental_uris": {"ios": "https://dc.lft.to/lastmile_qr_scan", "android": "https://dc.lft.to/lastmile_qr_scan"}}, {"name": "f321ae76e8f8a39c6a1b62a8a7441097", "fusion_lat": 0.0, "type": "electric_bike", "lat": 38.880857666666664, "is_reserved": 0, "is_disabled": 0, "fusion_lon": 0.0, "bike_id": "f321ae76e8f8a39c6a1b62a8a7441097", "lon": -77.1144725, "rental_uris": {"ios": "https://dc.lft.to/lastmile_qr_scan", "android": "https://dc.lft.to/lastmile_qr_scan"}}, {"name": "f570594e62e48943676520c05782847c", "fusion_lat": 0.0, "type": "electric_bike", "lat": 38.94075383333333, "is_reserved": 0, "is_disabled": 0, "fusion_lon": 0.0, "bike_id": "f570594e62e48943676520c05782847c", "lon": -77.0381865, "rental_uris": {"ios": "https://dc.lft.to/lastmile_qr_scan", "android": "https://dc.lft.to/lastmile_qr_scan"}}, {"name": "d870d0214d8809795f3b3fbb590f2a33", "fusion_lat": 0.0, "type": "electric_scooter", "lat": 38.91932033333333, "is_reserved": 0, "is_disabled": 0, "fusion_lon": 0.0, "bike_id": "d870d0214d8809795f3b3fbb590f2a33", "lon": -77.04540983333334, "rental_uris": {"ios": "https://dc.lft.to/lastmile_qr_scan", "android": "https://dc.lft.to/lastmile_qr_scan"}}, {"name": "836d47961bfdede3a0f7c7673f5e7407", "fusion_lat": 0.0, "type": "electric_scooter", "lat": 38.91175166666667, "is_reserved": 0, "is_disabled": 0, "fusion_lon": 0.0, "bike_id": "836d47961bfdede3a0f7c7673f5e7407", "lon": -77.03642083333334, "rental_uris": {"ios": "https://dc.lft.to/lastmile_qr_scan", "android": "https://dc.lft.to/lastmile_qr_scan"}}, {"name": "fe25a915948f1901c656d47b26309de8", "fusion_lat": 0.0, "type": "electric_scooter", "lat": 38.88600183333333, "is_reserved": 0, "is_disabled": 0, "fusion_lon": 0.0, "bike_id": "fe25a915948f1901c656d47b26309de8", "lon": -77.0220755, "rental_uris": {"ios": "https://dc.lft.to/lastmile_qr_scan", "android": "https://dc.lft.to/lastmile_qr_scan"}}, {"name": "a3ce763481133d4dda913131a5764471", "fusion_lat": 0.0, "type": "electric_scooter", "lat": 38.89975833333333, "is_reserved": 0, "is_disabled": 0, "fusion_lon": 0.0, "bike_id": "a3ce763481133d4dda913131a5764471", "lon": -77.0294445, "rental_uris": {"ios": "https://dc.lft.to/lastmile_qr_scan", "android": "https://dc.lft.to/lastmile_qr_scan"}}, {"name": "181498a90838c1b687e09d9cbeea6c70", "fusion_lat": 0.0, "type": "electric_bike", "lat": 39.000167833333336, "is_reserved": 0, "is_disabled": 0, "fusion_lon": 0.0, "bike_id": "181498a90838c1b687e09d9cbeea6c70", "lon": -77.01740633333333, "rental_uris": {"ios": "https://dc.lft.to/lastmile_qr_scan", "android": "https://dc.lft.to/lastmile_qr_scan"}}, {"name": "dcfb4eaccf98c4be4b71c049f7e86a8b", "fusion_lat": 0.0, "type": "electric_scooter", "lat": 38.88496933333333, "is_reserved": 0, "is_disabled": 0, "fusion_lon": 0.0, "bike_id": "dcfb4eaccf98c4be4b71c049f7e86a8b", "lon": -77.021937, "rental_uris": {"ios": "https://dc.lft.to/lastmile_qr_scan", "android": "https://dc.lft.to/lastmile_qr_scan"}}, {"name": "6f1d7fc898992f717b2abef2797858a2", "fusion_lat": 0.0, "type": "electric_scooter", "lat": 38.903816166666665, "is_reserved": 0, "is_disabled": 0, "fusion_lon": 0.0, "bike_id": "6f1d7fc898992f717b2abef2797858a2", "lon": -77.03441083333334, "rental_uris": {"ios": "https://dc.lft.to/lastmile_qr_scan", "android": "https://dc.lft.to/lastmile_qr_scan"}}, {"name": "53352165674adf954ccd1663db2e1c0e", "fusion_lat": 0.0, "type": "electric_scooter", "lat": 38.920716166666665, "is_reserved": 0, "is_disabled": 0, "fusion_lon": 0.0, "bike_id": "53352165674adf954ccd1663db2e1c0e", "lon": -77.02312583333334, "rental_uris": {"ios": "https://dc.lft.to/lastmile_qr_scan", "android": "https://dc.lft.to/lastmile_qr_scan"}}, {"name": "4c6e5804a5b39ab97419180a3e968ac5", "fusion_lat": 0.0, "type": "electric_scooter", "lat": 38.91828016666667, "is_reserved": 0, "is_disabled": 0, "fusion_lon": 0.0, "bike_id": "4c6e5804a5b39ab97419180a3e968ac5", "lon": -77.02274033333333, "rental_uris": {"ios": "https://dc.lft.to/lastmile_qr_scan", "android": "https://dc.lft.to/lastmile_qr_scan"}}, {"name": "742b1873d0ab3db2f07793bccb1d8180", "fusion_lat": 0.0, "type": "electric_scooter", "lat": 38.939653, "is_reserved": 0, "is_disabled": 0, "fusion_lon": 0.0, "bike_id": "742b1873d0ab3db2f07793bccb1d8180", "lon": -77.02749016666667, "rental_uris": {"ios": "https://dc.lft.to/lastmile_qr_scan", "android": "https://dc.lft.to/lastmile_qr_scan"}}, {"name": "ef8ef0ed583be58747c33ccaf6ecb4c1", "fusion_lat": 0.0, "type": "electric_bike", "lat": 38.949175333333336, "is_reserved": 0, "is_disabled": 0, "fusion_lon": 0.0, "bike_id": "ef8ef0ed583be58747c33ccaf6ecb4c1", "lon": -77.0079375, "rental_uris": {"ios": "https://dc.lft.to/lastmile_qr_scan", "android": "https://dc.lft.to/lastmile_qr_scan"}}, {"name": "de309f0c6b8597c0b6b1c843d4512c96", "fusion_lat": 0.0, "type": "electric_bike", "lat": 38.856903333333335, "is_reserved": 0, "is_disabled": 0, "fusion_lon": 0.0, "bike_id": "de309f0c6b8597c0b6b1c843d4512c96", "lon": -77.08537533333333, "rental_uris": {"ios": "https://dc.lft.to/lastmile_qr_scan", "android": "https://dc.lft.to/lastmile_qr_scan"}}, {"name": "18890c2ec44ff7bf57e4e0f2f1fa4173", "fusion_lat": 0.0, "type": "electric_bike", "lat": 38.8125195, "is_reserved": 0, "is_disabled": 0, "fusion_lon": 0.0, "bike_id": "18890c2ec44ff7bf57e4e0f2f1fa4173", "lon": -77.117657, "rental_uris": {"ios": "https://dc.lft.to/lastmile_qr_scan", "android": "https://dc.lft.to/lastmile_qr_scan"}}, {"name": "598a99c9af960c7d3bbd09b4d2905767", "fusion_lat": 0.0, "type": "electric_scooter", "lat": 38.91635083333333, "is_reserved": 0, "is_disabled": 0, "fusion_lon": 0.0, "bike_id": "598a99c9af960c7d3bbd09b4d2905767", "lon": -77.00099533333334, "rental_uris": {"ios": "https://dc.lft.to/lastmile_qr_scan", "android": "https://dc.lft.to/lastmile_qr_scan"}}, {"name": "7be5aa450619b025985ca48150be327d", "fusion_lat": 0.0, "type": "electric_scooter", "lat": 38.9242455, "is_reserved": 0, "is_disabled": 0, "fusion_lon": 0.0, "bike_id": "7be5aa450619b025985ca48150be327d", "lon": -77.04478483333334, "rental_uris": {"ios": "https://dc.lft.to/lastmile_qr_scan", "android": "https://dc.lft.to/lastmile_qr_scan"}}, {"name": "93489a64a4c7c7632ed996c72857e6c4", "fusion_lat": 0.0, "type": "electric_scooter", "lat": 38.918299166666664, "is_reserved": 0, "is_disabled": 0, "fusion_lon": 0.0, "bike_id": "93489a64a4c7c7632ed996c72857e6c4", "lon": -77.02388133333334, "rental_uris": {"ios": "https://dc.lft.to/lastmile_qr_scan", "android": "https://dc.lft.to/lastmile_qr_scan"}}, {"name": "a5bbf816715b3b40cc4c2d14f3d31842", "fusion_lat": 0.0, "type": "electric_scooter", "lat": 38.892248333333335, "is_reserved": 0, "is_disabled": 0, "fusion_lon": 0.0, "bike_id": "a5bbf816715b3b40cc4c2d14f3d31842", "lon": -77.022783, "rental_uris": {"ios": "https://dc.lft.to/lastmile_qr_scan", "android": "https://dc.lft.to/lastmile_qr_scan"}}, {"name": "02020e80fa147c4d2066d22d9daaaeda", "fusion_lat": 0.0, "type": "electric_scooter", "lat": 38.93064866666667, "is_reserved": 0, "is_disabled": 0, "fusion_lon": 0.0, "bike_id": "02020e80fa147c4d2066d22d9daaaeda", "lon": -77.02976683333333, "rental_uris": {"ios": "https://dc.lft.to/lastmile_qr_scan", "android": "https://dc.lft.to/lastmile_qr_scan"}}, {"name": "0760a848ba25702c758fd365381b56b2", "fusion_lat": 0.0, "type": "electric_scooter", "lat": 38.90025266666667, "is_reserved": 0, "is_disabled": 0, "fusion_lon": 0.0, "bike_id": "0760a848ba25702c758fd365381b56b2", "lon": -77.0406405, "rental_uris": {"ios": "https://dc.lft.to/lastmile_qr_scan", "android": "https://dc.lft.to/lastmile_qr_scan"}}, {"name": "26d1a1bd7447b8f464172810d59b44fb", "fusion_lat": 0.0, "type": "electric_scooter", "lat": 38.937179, "is_reserved": 0, "is_disabled": 0, "fusion_lon": 0.0, "bike_id": "26d1a1bd7447b8f464172810d59b44fb", "lon": -77.024622, "rental_uris": {"ios": "https://dc.lft.to/lastmile_qr_scan", "android": "https://dc.lft.to/lastmile_qr_scan"}}, {"name": "31700d3490732e7019f1e32cf46b94d1", "fusion_lat": 0.0, "type": "electric_scooter", "lat": 38.92156933333333, "is_reserved": 0, "is_disabled": 0, "fusion_lon": 0.0, "bike_id": "31700d3490732e7019f1e32cf46b94d1", "lon": -77.03870783333333, "rental_uris": {"ios": "https://dc.lft.to/lastmile_qr_scan", "android": "https://dc.lft.to/lastmile_qr_scan"}}, {"name": "ea748bf297a9b0ef011774d7b3da5b15", "fusion_lat": 0.0, "type": "electric_scooter", "lat": 38.90154666666667, "is_reserved": 0, "is_disabled": 0, "fusion_lon": 0.0, "bike_id": "ea748bf297a9b0ef011774d7b3da5b15", "lon": -77.042342, "rental_uris": {"ios": "https://dc.lft.to/lastmile_qr_scan", "android": "https://dc.lft.to/lastmile_qr_scan"}}, {"name": "bc81a05559fbadf5722a1ee6f5842b7a", "fusion_lat": 0.0, "type": "electric_scooter", "lat": 38.90339566666667, "is_reserved": 0, "is_disabled": 0, "fusion_lon": 0.0, "bike_id": "bc81a05559fbadf5722a1ee6f5842b7a", "lon": -77.0058255, "rental_uris": {"ios": "https://dc.lft.to/lastmile_qr_scan", "android": "https://dc.lft.to/lastmile_qr_scan"}}, {"name": "949e993544f98923385455a092957b3e", "fusion_lat": 0.0, "type": "electric_scooter", "lat": 38.89738666666667, "is_reserved": 0, "is_disabled": 0, "fusion_lon": 0.0, "bike_id": "949e993544f98923385455a092957b3e", "lon": -77.02056, "rental_uris": {"ios": "https://dc.lft.to/lastmile_qr_scan", "android": "https://dc.lft.to/lastmile_qr_scan"}}, {"name": "e8b96175c5d309a781e046da5856479f", "fusion_lat": 0.0, "type": "electric_scooter", "lat": 38.907343833333336, "is_reserved": 0, "is_disabled": 0, "fusion_lon": 0.0, "bike_id": "e8b96175c5d309a781e046da5856479f", "lon": -76.99786933333333, "rental_uris": {"ios": "https://dc.lft.to/lastmile_qr_scan", "android": "https://dc.lft.to/lastmile_qr_scan"}}, {"name": "3c3538e179effd642dc0df3a810dbf5f", "fusion_lat": 0.0, "type": "electric_scooter", "lat": 38.92164533333333, "is_reserved": 0, "is_disabled": 0, "fusion_lon": 0.0, "bike_id": "3c3538e179effd642dc0df3a810dbf5f", "lon": -77.03389333333334, "rental_uris": {"ios": "https://dc.lft.to/lastmile_qr_scan", "android": "https://dc.lft.to/lastmile_qr_scan"}}, {"name": "c308ec11109ef23742ef5eedf9cdb548", "fusion_lat": 0.0, "type": "electric_scooter", "lat": 38.92163166666667, "is_reserved": 0, "is_disabled": 0, "fusion_lon": 0.0, "bike_id": "c308ec11109ef23742ef5eedf9cdb548", "lon": -77.03385916666667, "rental_uris": {"ios": "https://dc.lft.to/lastmile_qr_scan", "android": "https://dc.lft.to/lastmile_qr_scan"}}, {"name": "95c576e363f4849e6bc6a109cbc3d391", "fusion_lat": 0.0, "type": "electric_scooter", "lat": 38.90865, "is_reserved": 0, "is_disabled": 0, "fusion_lon": 0.0, "bike_id": "95c576e363f4849e6bc6a109cbc3d391", "lon": -77.01093916666666, "rental_uris": {"ios": "https://dc.lft.to/lastmile_qr_scan", "android": "https://dc.lft.to/lastmile_qr_scan"}}, {"name": "c2345da07378146daeb11e32497ead41", "fusion_lat": 0.0, "type": "electric_scooter", "lat": 38.91999116666667, "is_reserved": 0, "is_disabled": 0, "fusion_lon": 0.0, "bike_id": "c2345da07378146daeb11e32497ead41", "lon": -77.02167916666667, "rental_uris": {"ios": "https://dc.lft.to/lastmile_qr_scan", "android": "https://dc.lft.to/lastmile_qr_scan"}}, {"name": "72c87a30d58a59549d5e98f7787f809d", "fusion_lat": 0.0, "type": "electric_bike", "lat": 38.902866, "is_reserved": 0, "is_disabled": 0, "fusion_lon": 0.0, "bike_id": "72c87a30d58a59549d5e98f7787f809d", "lon": -76.98090133333334, "rental_uris": {"ios": "https://dc.lft.to/lastmile_qr_scan", "android": "https://dc.lft.to/lastmile_qr_scan"}}, {"name": "5a28b026a6de0b1e53e6d8109735e1de", "fusion_lat": 0.0, "type": "electric_scooter", "lat": 38.93431616666667, "is_reserved": 0, "is_disabled": 0, "fusion_lon": 0.0, "bike_id": "5a28b026a6de0b1e53e6d8109735e1de", "lon": -77.040036, "rental_uris": {"ios": "https://dc.lft.to/lastmile_qr_scan", "android": "https://dc.lft.to/lastmile_qr_scan"}}, {"name": "a2aaa836cca0eb27d7f6b66999564c47", "fusion_lat": 0.0, "type": "electric_bike", "lat": 38.838624, "is_reserved": 0, "is_disabled": 0, "fusion_lon": 0.0, "bike_id": "a2aaa836cca0eb27d7f6b66999564c47", "lon": -77.08866766666667, "rental_uris": {"ios": "https://dc.lft.to/lastmile_qr_scan", "android": "https://dc.lft.to/lastmile_qr_scan"}}, {"name": "a42cafa15917d908f3e1471eb9d4ac49", "fusion_lat": 0.0, "type": "electric_scooter", "lat": 38.91818633333333, "is_reserved": 0, "is_disabled": 0, "fusion_lon": 0.0, "bike_id": "a42cafa15917d908f3e1471eb9d4ac49", "lon": -77.04016233333333, "rental_uris": {"ios": "https://dc.lft.to/lastmile_qr_scan", "android": "https://dc.lft.to/lastmile_qr_scan"}}, {"name": "50a72f582cbf342f3574fea9a6e7624e", "fusion_lat": 0.0, "type": "electric_scooter", "lat": 38.899175166666666, "is_reserved": 0, "is_disabled": 0, "fusion_lon": 0.0, "bike_id": "50a72f582cbf342f3574fea9a6e7624e", "lon": -76.933859, "rental_uris": {"ios": "https://dc.lft.to/lastmile_qr_scan", "android": "https://dc.lft.to/lastmile_qr_scan"}}, {"name": "7c6f6778bc2cdb508987d1055f3a0e0b", "fusion_lat": 0.0, "type": "electric_scooter", "lat": 38.91807816666667, "is_reserved": 0, "is_disabled": 0, "fusion_lon": 0.0, "bike_id": "7c6f6778bc2cdb508987d1055f3a0e0b", "lon": -77.02815916666667, "rental_uris": {"ios": "https://dc.lft.to/lastmile_qr_scan", "android": "https://dc.lft.to/lastmile_qr_scan"}}, {"name": "939e44653365c1031223db19d9d9937f", "fusion_lat": 0.0, "type": "electric_scooter", "lat": 38.930930833333335, "is_reserved": 0, "is_disabled": 0, "fusion_lon": 0.0, "bike_id": "939e44653365c1031223db19d9d9937f", "lon": -77.0239935, "rental_uris": {"ios": "https://dc.lft.to/lastmile_qr_scan", "android": "https://dc.lft.to/lastmile_qr_scan"}}, {"name": "b80e079baa1586c0e8de7490cec3a984", "fusion_lat": 0.0, "type": "electric_scooter", "lat": 38.903247, "is_reserved": 0, "is_disabled": 0, "fusion_lon": 0.0, "bike_id": "b80e079baa1586c0e8de7490cec3a984", "lon": -77.03825716666667, "rental_uris": {"ios": "https://dc.lft.to/lastmile_qr_scan", "android": "https://dc.lft.to/lastmile_qr_scan"}}, {"name": "1d5b8c736870b6258519e35c80d824e0", "fusion_lat": 0.0, "type": "electric_scooter", "lat": 38.90139666666666, "is_reserved": 0, "is_disabled": 0, "fusion_lon": 0.0, "bike_id": "1d5b8c736870b6258519e35c80d824e0", "lon": -76.99969533333334, "rental_uris": {"ios": "https://dc.lft.to/lastmile_qr_scan", "android": "https://dc.lft.to/lastmile_qr_scan"}}, {"name": "d495ac1e6f3475d438fed0292091d7fc", "fusion_lat": 0.0, "type": "electric_bike", "lat": 38.973266333333335, "is_reserved": 0, "is_disabled": 0, "fusion_lon": 0.0, "bike_id": "d495ac1e6f3475d438fed0292091d7fc", "lon": -77.02146816666666, "rental_uris": {"ios": "https://dc.lft.to/lastmile_qr_scan", "android": "https://dc.lft.to/lastmile_qr_scan"}}, {"name": "8a4108f31c3ed0e6c665921c7fc6ddd3", "fusion_lat": 0.0, "type": "electric_scooter", "lat": 38.876482, "is_reserved": 0, "is_disabled": 0, "fusion_lon": 0.0, "bike_id": "8a4108f31c3ed0e6c665921c7fc6ddd3", "lon": -76.9650425, "rental_uris": {"ios": "https://dc.lft.to/lastmile_qr_scan", "android": "https://dc.lft.to/lastmile_qr_scan"}}, {"name": "d7bccb2e039f0dba559bc611ad40d443", "fusion_lat": 0.0, "type": "electric_bike", "lat": 38.88659116666667, "is_reserved": 0, "is_disabled": 0, "fusion_lon": 0.0, "bike_id": "d7bccb2e039f0dba559bc611ad40d443", "lon": -77.16230266666666, "rental_uris": {"ios": "https://dc.lft.to/lastmile_qr_scan", "android": "https://dc.lft.to/lastmile_qr_scan"}}, {"name": "9d24e2ff21619abd8eb71dbe1dd48882", "fusion_lat": 0.0, "type": "electric_scooter", "lat": 38.89536916666667, "is_reserved": 0, "is_disabled": 0, "fusion_lon": 0.0, "bike_id": "9d24e2ff21619abd8eb71dbe1dd48882", "lon": -76.949268, "rental_uris": {"ios": "https://dc.lft.to/lastmile_qr_scan", "android": "https://dc.lft.to/lastmile_qr_scan"}}, {"name": "2b8f50ce7afeaf563345592bfff6f683", "fusion_lat": 0.0, "type": "electric_scooter", "lat": 38.896362, "is_reserved": 0, "is_disabled": 0, "fusion_lon": 0.0, "bike_id": "2b8f50ce7afeaf563345592bfff6f683", "lon": -77.02381516666667, "rental_uris": {"ios": "https://dc.lft.to/lastmile_qr_scan", "android": "https://dc.lft.to/lastmile_qr_scan"}}, {"name": "93df2eab7ead2cf2cb66f2ea6eb34169", "fusion_lat": 0.0, "type": "electric_scooter", "lat": 38.921679833333336, "is_reserved": 0, "is_disabled": 0, "fusion_lon": 0.0, "bike_id": "93df2eab7ead2cf2cb66f2ea6eb34169", "lon": -77.0384935, "rental_uris": {"ios": "https://dc.lft.to/lastmile_qr_scan", "android": "https://dc.lft.to/lastmile_qr_scan"}}, {"name": "559505070de491bc61f21878a9631a75", "fusion_lat": 0.0, "type": "electric_scooter", "lat": 38.89732083333333, "is_reserved": 0, "is_disabled": 0, "fusion_lon": 0.0, "bike_id": "559505070de491bc61f21878a9631a75", "lon": -77.046429, "rental_uris": {"ios": "https://dc.lft.to/lastmile_qr_scan", "android": "https://dc.lft.to/lastmile_qr_scan"}}, {"name": "33026d684322db42668da241cdda4a97", "fusion_lat": 0.0, "type": "electric_scooter", "lat": 38.911911833333335, "is_reserved": 0, "is_disabled": 0, "fusion_lon": 0.0, "bike_id": "33026d684322db42668da241cdda4a97", "lon": -77.04496616666667, "rental_uris": {"ios": "https://dc.lft.to/lastmile_qr_scan", "android": "https://dc.lft.to/lastmile_qr_scan"}}, {"name": "3bfa00aa44f53b0607aac50e4f1ba66e", "fusion_lat": 0.0, "type": "electric_scooter", "lat": 38.90576016666667, "is_reserved": 0, "is_disabled": 0, "fusion_lon": 0.0, "bike_id": "3bfa00aa44f53b0607aac50e4f1ba66e", "lon": -77.01419416666667, "rental_uris": {"ios": "https://dc.lft.to/lastmile_qr_scan", "android": "https://dc.lft.to/lastmile_qr_scan"}}, {"name": "7ded43479ce18bb88371ddad195122ef", "fusion_lat": 0.0, "type": "electric_bike", "lat": 39.105663166666666, "is_reserved": 0, "is_disabled": 0, "fusion_lon": 0.0, "bike_id": "7ded43479ce18bb88371ddad195122ef", "lon": -77.1526545, "rental_uris": {"ios": "https://dc.lft.to/lastmile_qr_scan", "android": "https://dc.lft.to/lastmile_qr_scan"}}, {"name": "9190f206272c50bb0c261732d36ba8b3", "fusion_lat": 0.0, "type": "electric_scooter", "lat": 38.896104333333334, "is_reserved": 0, "is_disabled": 0, "fusion_lon": 0.0, "bike_id": "9190f206272c50bb0c261732d36ba8b3", "lon": -77.0412, "rental_uris": {"ios": "https://dc.lft.to/lastmile_qr_scan", "android": "https://dc.lft.to/lastmile_qr_scan"}}, {"name": "c464e827a850e098e1c2783c8d161abb", "fusion_lat": 0.0, "type": "electric_scooter", "lat": 38.9170735, "is_reserved": 0, "is_disabled": 0, "fusion_lon": 0.0, "bike_id": "c464e827a850e098e1c2783c8d161abb", "lon": -77.03123616666667, "rental_uris": {"ios": "https://dc.lft.to/lastmile_qr_scan", "android": "https://dc.lft.to/lastmile_qr_scan"}}, {"name": "e246dbcb4911bd960595ae80a5c35fc9", "fusion_lat": 0.0, "type": "electric_scooter", "lat": 38.899275833333334, "is_reserved": 0, "is_disabled": 0, "fusion_lon": 0.0, "bike_id": "e246dbcb4911bd960595ae80a5c35fc9", "lon": -77.0322175, "rental_uris": {"ios": "https://dc.lft.to/lastmile_qr_scan", "android": "https://dc.lft.to/lastmile_qr_scan"}}, {"name": "cc26615e159c2e666cbe083aab7d77bc", "fusion_lat": 0.0, "type": "electric_scooter", "lat": 38.906525, "is_reserved": 0, "is_disabled": 0, "fusion_lon": 0.0, "bike_id": "cc26615e159c2e666cbe083aab7d77bc", "lon": -77.05332233333333, "rental_uris": {"ios": "https://dc.lft.to/lastmile_qr_scan", "android": "https://dc.lft.to/lastmile_qr_scan"}}, {"name": "62cf7e3b05484a6f576c9926e0ac6760", "fusion_lat": 0.0, "type": "electric_scooter", "lat": 38.898536166666666, "is_reserved": 0, "is_disabled": 0, "fusion_lon": 0.0, "bike_id": "62cf7e3b05484a6f576c9926e0ac6760", "lon": -77.01607933333334, "rental_uris": {"ios": "https://dc.lft.to/lastmile_qr_scan", "android": "https://dc.lft.to/lastmile_qr_scan"}}, {"name": "21dddf01c439e2aa4d87334bd9ccb94c", "fusion_lat": 0.0, "type": "electric_scooter", "lat": 38.880551, "is_reserved": 0, "is_disabled": 0, "fusion_lon": 0.0, "bike_id": "21dddf01c439e2aa4d87334bd9ccb94c", "lon": -77.01326633333333, "rental_uris": {"ios": "https://dc.lft.to/lastmile_qr_scan", "android": "https://dc.lft.to/lastmile_qr_scan"}}, {"name": "1d814187572ad2a4b43a8472477b3d15", "fusion_lat": 0.0, "type": "electric_scooter", "lat": 38.905606166666665, "is_reserved": 0, "is_disabled": 0, "fusion_lon": 0.0, "bike_id": "1d814187572ad2a4b43a8472477b3d15", "lon": -77.00584466666666, "rental_uris": {"ios": "https://dc.lft.to/lastmile_qr_scan", "android": "https://dc.lft.to/lastmile_qr_scan"}}, {"name": "f954e1cb27f144fee16f1a8f30e01907", "fusion_lat": 0.0, "type": "electric_bike", "lat": 38.946283333333334, "is_reserved": 0, "is_disabled": 0, "fusion_lon": 0.0, "bike_id": "f954e1cb27f144fee16f1a8f30e01907", "lon": -76.94627216666666, "rental_uris": {"ios": "https://dc.lft.to/lastmile_qr_scan", "android": "https://dc.lft.to/lastmile_qr_scan"}}, {"name": "aa9d75c16b303b288e5aba4b6b086cd6", "fusion_lat": 0.0, "type": "electric_scooter", "lat": 38.9057585, "is_reserved": 0, "is_disabled": 0, "fusion_lon": 0.0, "bike_id": "aa9d75c16b303b288e5aba4b6b086cd6", "lon": -77.0627, "rental_uris": {"ios": "https://dc.lft.to/lastmile_qr_scan", "android": "https://dc.lft.to/lastmile_qr_scan"}}, {"name": "93290f8f7acfd6706dfd6c5078e6b24f", "fusion_lat": 0.0, "type": "electric_scooter", "lat": 38.915516, "is_reserved": 0, "is_disabled": 0, "fusion_lon": 0.0, "bike_id": "93290f8f7acfd6706dfd6c5078e6b24f", "lon": -77.03514433333333, "rental_uris": {"ios": "https://dc.lft.to/lastmile_qr_scan", "android": "https://dc.lft.to/lastmile_qr_scan"}}, {"name": "7caf779558fab6b252454f0caf06c9a4", "fusion_lat": 0.0, "type": "electric_scooter", "lat": 38.90030083333333, "is_reserved": 0, "is_disabled": 0, "fusion_lon": 0.0, "bike_id": "7caf779558fab6b252454f0caf06c9a4", "lon": -77.03988216666667, "rental_uris": {"ios": "https://dc.lft.to/lastmile_qr_scan", "android": "https://dc.lft.to/lastmile_qr_scan"}}, {"name": "d9dc98f7c0b7b78e637177effac04e14", "fusion_lat": 0.0, "type": "electric_scooter", "lat": 38.918743666666664, "is_reserved": 0, "is_disabled": 0, "fusion_lon": 0.0, "bike_id": "d9dc98f7c0b7b78e637177effac04e14", "lon": -77.04481866666667, "rental_uris": {"ios": "https://dc.lft.to/lastmile_qr_scan", "android": "https://dc.lft.to/lastmile_qr_scan"}}, {"name": "a3d9a8ea4ef1f093af6e471609814979", "fusion_lat": 0.0, "type": "electric_scooter", "lat": 38.92063266666667, "is_reserved": 0, "is_disabled": 0, "fusion_lon": 0.0, "bike_id": "a3d9a8ea4ef1f093af6e471609814979", "lon": -76.99847633333333, "rental_uris": {"ios": "https://dc.lft.to/lastmile_qr_scan", "android": "https://dc.lft.to/lastmile_qr_scan"}}, {"name": "df4bcca75f8bb331a5f43bc30cd910da", "fusion_lat": 0.0, "type": "electric_scooter", "lat": 38.892227, "is_reserved": 0, "is_disabled": 0, "fusion_lon": 0.0, "bike_id": "df4bcca75f8bb331a5f43bc30cd910da", "lon": -77.0317145, "rental_uris": {"ios": "https://dc.lft.to/lastmile_qr_scan", "android": "https://dc.lft.to/lastmile_qr_scan"}}, {"name": "70f3e6cf2a08529f12c1690d8e64a5aa", "fusion_lat": 0.0, "type": "electric_scooter", "lat": 38.921559, "is_reserved": 0, "is_disabled": 0, "fusion_lon": 0.0, "bike_id": "70f3e6cf2a08529f12c1690d8e64a5aa", "lon": -77.03431816666667, "rental_uris": {"ios": "https://dc.lft.to/lastmile_qr_scan", "android": "https://dc.lft.to/lastmile_qr_scan"}}, {"name": "c65204f5320b60cb9c28c07207bf0c79", "fusion_lat": 0.0, "type": "electric_bike", "lat": 38.873012333333335, "is_reserved": 0, "is_disabled": 0, "fusion_lon": 0.0, "bike_id": "c65204f5320b60cb9c28c07207bf0c79", "lon": -77.01090816666667, "rental_uris": {"ios": "https://dc.lft.to/lastmile_qr_scan", "android": "https://dc.lft.to/lastmile_qr_scan"}}, {"name": "5178f3f7ba4bef75c85d81341e6cd4f0", "fusion_lat": 0.0, "type": "electric_scooter", "lat": 38.92372533333333, "is_reserved": 0, "is_disabled": 0, "fusion_lon": 0.0, "bike_id": "5178f3f7ba4bef75c85d81341e6cd4f0", "lon": -77.01933883333334, "rental_uris": {"ios": "https://dc.lft.to/lastmile_qr_scan", "android": "https://dc.lft.to/lastmile_qr_scan"}}, {"name": "a73c1ded2af085585b0742f81b945a0a", "fusion_lat": 0.0, "type": "electric_scooter", "lat": 38.91123483333333, "is_reserved": 0, "is_disabled": 0, "fusion_lon": 0.0, "bike_id": "a73c1ded2af085585b0742f81b945a0a", "lon": -77.037313, "rental_uris": {"ios": "https://dc.lft.to/lastmile_qr_scan", "android": "https://dc.lft.to/lastmile_qr_scan"}}, {"name": "c34c88877eab3b8b913dde822d779b0e", "fusion_lat": 0.0, "type": "electric_scooter", "lat": 38.8989755, "is_reserved": 0, "is_disabled": 0, "fusion_lon": 0.0, "bike_id": "c34c88877eab3b8b913dde822d779b0e", "lon": -77.03921416666667, "rental_uris": {"ios": "https://dc.lft.to/lastmile_qr_scan", "android": "https://dc.lft.to/lastmile_qr_scan"}}, {"name": "2042e1b9bf3783130502d17f81b27989", "fusion_lat": 0.0, "type": "electric_scooter", "lat": 38.89602516666667, "is_reserved": 0, "is_disabled": 0, "fusion_lon": 0.0, "bike_id": "2042e1b9bf3783130502d17f81b27989", "lon": -77.0268305, "rental_uris": {"ios": "https://dc.lft.to/lastmile_qr_scan", "android": "https://dc.lft.to/lastmile_qr_scan"}}, {"name": "496194da98df94c20e3be27174ca9bfc", "fusion_lat": 0.0, "type": "electric_scooter", "lat": 38.911879666666664, "is_reserved": 0, "is_disabled": 0, "fusion_lon": 0.0, "bike_id": "496194da98df94c20e3be27174ca9bfc", "lon": -77.031422, "rental_uris": {"ios": "https://dc.lft.to/lastmile_qr_scan", "android": "https://dc.lft.to/lastmile_qr_scan"}}, {"name": "527b141e7db9f6312672c2d98b803a25", "fusion_lat": 0.0, "type": "electric_scooter", "lat": 38.89196583333333, "is_reserved": 0, "is_disabled": 0, "fusion_lon": 0.0, "bike_id": "527b141e7db9f6312672c2d98b803a25", "lon": -77.002948, "rental_uris": {"ios": "https://dc.lft.to/lastmile_qr_scan", "android": "https://dc.lft.to/lastmile_qr_scan"}}, {"name": "4bea91eb3176cf1bdad24c2e24b1dc35", "fusion_lat": 0.0, "type": "electric_scooter", "lat": 38.93365333333333, "is_reserved": 0, "is_disabled": 0, "fusion_lon": 0.0, "bike_id": "4bea91eb3176cf1bdad24c2e24b1dc35", "lon": -77.03446966666667, "rental_uris": {"ios": "https://dc.lft.to/lastmile_qr_scan", "android": "https://dc.lft.to/lastmile_qr_scan"}}, {"name": "fa1d1f0ca9518280fd2ffb7b09fd10ec", "fusion_lat": 0.0, "type": "electric_scooter", "lat": 38.908558666666664, "is_reserved": 0, "is_disabled": 0, "fusion_lon": 0.0, "bike_id": "fa1d1f0ca9518280fd2ffb7b09fd10ec", "lon": -77.04339133333333, "rental_uris": {"ios": "https://dc.lft.to/lastmile_qr_scan", "android": "https://dc.lft.to/lastmile_qr_scan"}}, {"name": "6dce4beda12afea6b81ef6c7b8294786", "fusion_lat": 0.0, "type": "electric_scooter", "lat": 38.86512183333333, "is_reserved": 0, "is_disabled": 0, "fusion_lon": 0.0, "bike_id": "6dce4beda12afea6b81ef6c7b8294786", "lon": -76.9733825, "rental_uris": {"ios": "https://dc.lft.to/lastmile_qr_scan", "android": "https://dc.lft.to/lastmile_qr_scan"}}, {"name": "6c041d2aa067bc32f472e9c706b57ece", "fusion_lat": 0.0, "type": "electric_scooter", "lat": 38.883428333333335, "is_reserved": 0, "is_disabled": 0, "fusion_lon": 0.0, "bike_id": "6c041d2aa067bc32f472e9c706b57ece", "lon": -77.03162433333334, "rental_uris": {"ios": "https://dc.lft.to/lastmile_qr_scan", "android": "https://dc.lft.to/lastmile_qr_scan"}}, {"name": "879f0f7e77fa63b649093b8b1add71bb", "fusion_lat": 0.0, "type": "electric_bike", "lat": 38.8723525, "is_reserved": 0, "is_disabled": 0, "fusion_lon": 0.0, "bike_id": "879f0f7e77fa63b649093b8b1add71bb", "lon": -77.01177033333333, "rental_uris": {"ios": "https://dc.lft.to/lastmile_qr_scan", "android": "https://dc.lft.to/lastmile_qr_scan"}}, {"name": "c66f18be7fef50478fa6c4ccf20152d1", "fusion_lat": 0.0, "type": "electric_scooter", "lat": 38.894763833333336, "is_reserved": 0, "is_disabled": 0, "fusion_lon": 0.0, "bike_id": "c66f18be7fef50478fa6c4ccf20152d1", "lon": -76.98403683333333, "rental_uris": {"ios": "https://dc.lft.to/lastmile_qr_scan", "android": "https://dc.lft.to/lastmile_qr_scan"}}, {"name": "db44c16b24af60ca3a2ce06aefa27e2f", "fusion_lat": 0.0, "type": "electric_scooter", "lat": 38.8992065, "is_reserved": 0, "is_disabled": 0, "fusion_lon": 0.0, "bike_id": "db44c16b24af60ca3a2ce06aefa27e2f", "lon": -76.9338505, "rental_uris": {"ios": "https://dc.lft.to/lastmile_qr_scan", "android": "https://dc.lft.to/lastmile_qr_scan"}}, {"name": "59f856823a98f3f30ba7a78e815297d9", "fusion_lat": 0.0, "type": "electric_scooter", "lat": 38.905688166666664, "is_reserved": 0, "is_disabled": 0, "fusion_lon": 0.0, "bike_id": "59f856823a98f3f30ba7a78e815297d9", "lon": -77.04150916666667, "rental_uris": {"ios": "https://dc.lft.to/lastmile_qr_scan", "android": "https://dc.lft.to/lastmile_qr_scan"}}, {"name": "bef44f7f17725b14c4ec168d2b24d35b", "fusion_lat": 0.0, "type": "electric_bike", "lat": 38.93974083333333, "is_reserved": 0, "is_disabled": 0, "fusion_lon": 0.0, "bike_id": "bef44f7f17725b14c4ec168d2b24d35b", "lon": -76.986574, "rental_uris": {"ios": "https://dc.lft.to/lastmile_qr_scan", "android": "https://dc.lft.to/lastmile_qr_scan"}}, {"name": "b2f1be375159aae0715f8747c6ad576b", "fusion_lat": 0.0, "type": "electric_scooter", "lat": 38.89854, "is_reserved": 0, "is_disabled": 0, "fusion_lon": 0.0, "bike_id": "b2f1be375159aae0715f8747c6ad576b", "lon": -76.97551533333333, "rental_uris": {"ios": "https://dc.lft.to/lastmile_qr_scan", "android": "https://dc.lft.to/lastmile_qr_scan"}}, {"name": "b9364f08e4a6917f62873a8e94281983", "fusion_lat": 0.0, "type": "electric_scooter", "lat": 38.943157, "is_reserved": 0, "is_disabled": 0, "fusion_lon": 0.0, "bike_id": "b9364f08e4a6917f62873a8e94281983", "lon": -77.05918483333333, "rental_uris": {"ios": "https://dc.lft.to/lastmile_qr_scan", "android": "https://dc.lft.to/lastmile_qr_scan"}}, {"name": "dc31111837ae51285f9eee807a382253", "fusion_lat": 0.0, "type": "electric_bike", "lat": 38.88134766666667, "is_reserved": 0, "is_disabled": 0, "fusion_lon": 0.0, "bike_id": "dc31111837ae51285f9eee807a382253", "lon": -76.98092483333333, "rental_uris": {"ios": "https://dc.lft.to/lastmile_qr_scan", "android": "https://dc.lft.to/lastmile_qr_scan"}}, {"name": "31d464483467e9bbd4da751f9e07304d", "fusion_lat": 0.0, "type": "electric_scooter", "lat": 38.8766955, "is_reserved": 0, "is_disabled": 0, "fusion_lon": 0.0, "bike_id": "31d464483467e9bbd4da751f9e07304d", "lon": -77.00836116666666, "rental_uris": {"ios": "https://dc.lft.to/lastmile_qr_scan", "android": "https://dc.lft.to/lastmile_qr_scan"}}, {"name": "80a0f6719fd1bc62a22e0cb7b8052fa3", "fusion_lat": 0.0, "type": "electric_scooter", "lat": 38.88507033333333, "is_reserved": 0, "is_disabled": 0, "fusion_lon": 0.0, "bike_id": "80a0f6719fd1bc62a22e0cb7b8052fa3", "lon": -77.00569983333334, "rental_uris": {"ios": "https://dc.lft.to/lastmile_qr_scan", "android": "https://dc.lft.to/lastmile_qr_scan"}}, {"name": "d49fff30579b58afc11d2db1323d65fe", "fusion_lat": 0.0, "type": "electric_scooter", "lat": 38.9037525, "is_reserved": 0, "is_disabled": 0, "fusion_lon": 0.0, "bike_id": "d49fff30579b58afc11d2db1323d65fe", "lon": -77.046653, "rental_uris": {"ios": "https://dc.lft.to/lastmile_qr_scan", "android": "https://dc.lft.to/lastmile_qr_scan"}}, {"name": "8a8ceaa2743718d6ea2a2b7509e8b7f6", "fusion_lat": 0.0, "type": "electric_scooter", "lat": 38.892210166666665, "is_reserved": 0, "is_disabled": 0, "fusion_lon": 0.0, "bike_id": "8a8ceaa2743718d6ea2a2b7509e8b7f6", "lon": -77.0137245, "rental_uris": {"ios": "https://dc.lft.to/lastmile_qr_scan", "android": "https://dc.lft.to/lastmile_qr_scan"}}, {"name": "a3142d6022343e5988a1c5782f8b8b32", "fusion_lat": 0.0, "type": "electric_scooter", "lat": 38.893628166666666, "is_reserved": 0, "is_disabled": 0, "fusion_lon": 0.0, "bike_id": "a3142d6022343e5988a1c5782f8b8b32", "lon": -76.9498395, "rental_uris": {"ios": "https://dc.lft.to/lastmile_qr_scan", "android": "https://dc.lft.to/lastmile_qr_scan"}}, {"name": "c1c9542c56325fa2bfd5bd187429082e", "fusion_lat": 0.0, "type": "electric_scooter", "lat": 38.911231, "is_reserved": 0, "is_disabled": 0, "fusion_lon": 0.0, "bike_id": "c1c9542c56325fa2bfd5bd187429082e", "lon": -77.039179, "rental_uris": {"ios": "https://dc.lft.to/lastmile_qr_scan", "android": "https://dc.lft.to/lastmile_qr_scan"}}, {"name": "869240c3b290b1f1c2c3d2062ef4d8ba", "fusion_lat": 0.0, "type": "electric_scooter", "lat": 38.90041133333333, "is_reserved": 0, "is_disabled": 0, "fusion_lon": 0.0, "bike_id": "869240c3b290b1f1c2c3d2062ef4d8ba", "lon": -76.98834333333333, "rental_uris": {"ios": "https://dc.lft.to/lastmile_qr_scan", "android": "https://dc.lft.to/lastmile_qr_scan"}}, {"name": "c1e3ad032bdc75fc0ceb68d57fb221cf", "fusion_lat": 0.0, "type": "electric_bike", "lat": 38.869156333333336, "is_reserved": 0, "is_disabled": 0, "fusion_lon": 0.0, "bike_id": "c1e3ad032bdc75fc0ceb68d57fb221cf", "lon": -77.131844, "rental_uris": {"ios": "https://dc.lft.to/lastmile_qr_scan", "android": "https://dc.lft.to/lastmile_qr_scan"}}, {"name": "6c0c499c8ea7cd7332a1adad71ccc0a6", "fusion_lat": 0.0, "type": "electric_scooter", "lat": 38.90699683333333, "is_reserved": 0, "is_disabled": 0, "fusion_lon": 0.0, "bike_id": "6c0c499c8ea7cd7332a1adad71ccc0a6", "lon": -77.02389516666666, "rental_uris": {"ios": "https://dc.lft.to/lastmile_qr_scan", "android": "https://dc.lft.to/lastmile_qr_scan"}}, {"name": "503a08da39859f76316422bbaac40428", "fusion_lat": 0.0, "type": "electric_scooter", "lat": 38.910257666666666, "is_reserved": 0, "is_disabled": 0, "fusion_lon": 0.0, "bike_id": "503a08da39859f76316422bbaac40428", "lon": -77.00753066666667, "rental_uris": {"ios": "https://dc.lft.to/lastmile_qr_scan", "android": "https://dc.lft.to/lastmile_qr_scan"}}, {"name": "bcd89f7eedea1da6224a79cb99b0c2b6", "fusion_lat": 0.0, "type": "electric_bike", "lat": 38.89494783333333, "is_reserved": 0, "is_disabled": 0, "fusion_lon": 0.0, "bike_id": "bcd89f7eedea1da6224a79cb99b0c2b6", "lon": -77.02333783333333, "rental_uris": {"ios": "https://dc.lft.to/lastmile_qr_scan", "android": "https://dc.lft.to/lastmile_qr_scan"}}, {"name": "56c6181c1151ba3495df5fe94b9f6131", "fusion_lat": 0.0, "type": "electric_scooter", "lat": 38.903716833333334, "is_reserved": 0, "is_disabled": 0, "fusion_lon": 0.0, "bike_id": "56c6181c1151ba3495df5fe94b9f6131", "lon": -77.03209116666666, "rental_uris": {"ios": "https://dc.lft.to/lastmile_qr_scan", "android": "https://dc.lft.to/lastmile_qr_scan"}}, {"name": "6785b0a353ba86f1be0c70ed9ba55d31", "fusion_lat": 0.0, "type": "electric_scooter", "lat": 38.9097405, "is_reserved": 0, "is_disabled": 0, "fusion_lon": 0.0, "bike_id": "6785b0a353ba86f1be0c70ed9ba55d31", "lon": -77.021777, "rental_uris": {"ios": "https://dc.lft.to/lastmile_qr_scan", "android": "https://dc.lft.to/lastmile_qr_scan"}}, {"name": "b5002e148cf0cdd8e7446cd22295b22b", "fusion_lat": 0.0, "type": "electric_scooter", "lat": 38.91054333333334, "is_reserved": 0, "is_disabled": 0, "fusion_lon": 0.0, "bike_id": "b5002e148cf0cdd8e7446cd22295b22b", "lon": -77.0425205, "rental_uris": {"ios": "https://dc.lft.to/lastmile_qr_scan", "android": "https://dc.lft.to/lastmile_qr_scan"}}, {"name": "ddabbc2ef17193749120548d2aa45fd4", "fusion_lat": 0.0, "type": "electric_bike", "lat": 38.8343985, "is_reserved": 0, "is_disabled": 0, "fusion_lon": 0.0, "bike_id": "ddabbc2ef17193749120548d2aa45fd4", "lon": -77.00826666666667, "rental_uris": {"ios": "https://dc.lft.to/lastmile_qr_scan", "android": "https://dc.lft.to/lastmile_qr_scan"}}, {"name": "45e661f8917f99982c0c118f2681d15b", "fusion_lat": 0.0, "type": "electric_scooter", "lat": 38.9057145, "is_reserved": 0, "is_disabled": 0, "fusion_lon": 0.0, "bike_id": "45e661f8917f99982c0c118f2681d15b", "lon": -77.02214883333333, "rental_uris": {"ios": "https://dc.lft.to/lastmile_qr_scan", "android": "https://dc.lft.to/lastmile_qr_scan"}}, {"name": "afa045cbc3b84e1e6c2a73d633ae330f", "fusion_lat": 0.0, "type": "electric_scooter", "lat": 38.844256666666666, "is_reserved": 0, "is_disabled": 0, "fusion_lon": 0.0, "bike_id": "afa045cbc3b84e1e6c2a73d633ae330f", "lon": -76.99784883333334, "rental_uris": {"ios": "https://dc.lft.to/lastmile_qr_scan", "android": "https://dc.lft.to/lastmile_qr_scan"}}, {"name": "38c5b807dac3f42bfc948ef0541d8f2d", "fusion_lat": 0.0, "type": "electric_scooter", "lat": 38.93150116666666, "is_reserved": 0, "is_disabled": 0, "fusion_lon": 0.0, "bike_id": "38c5b807dac3f42bfc948ef0541d8f2d", "lon": -77.02966133333334, "rental_uris": {"ios": "https://dc.lft.to/lastmile_qr_scan", "android": "https://dc.lft.to/lastmile_qr_scan"}}, {"name": "039535d0c626af52dd8c07a4646d6017", "fusion_lat": 0.0, "type": "electric_scooter", "lat": 38.90575716666667, "is_reserved": 0, "is_disabled": 0, "fusion_lon": 0.0, "bike_id": "039535d0c626af52dd8c07a4646d6017", "lon": -77.0241815, "rental_uris": {"ios": "https://dc.lft.to/lastmile_qr_scan", "android": "https://dc.lft.to/lastmile_qr_scan"}}, {"name": "56ae380370f84d5054f3c4ab66dacf43", "fusion_lat": 0.0, "type": "electric_scooter", "lat": 38.902771666666666, "is_reserved": 0, "is_disabled": 0, "fusion_lon": 0.0, "bike_id": "56ae380370f84d5054f3c4ab66dacf43", "lon": -77.03667983333334, "rental_uris": {"ios": "https://dc.lft.to/lastmile_qr_scan", "android": "https://dc.lft.to/lastmile_qr_scan"}}, {"name": "fe5870037eaab54f366ab52497a9fc53", "fusion_lat": 0.0, "type": "electric_scooter", "lat": 38.866954166666666, "is_reserved": 0, "is_disabled": 0, "fusion_lon": 0.0, "bike_id": "fe5870037eaab54f366ab52497a9fc53", "lon": -76.98902783333334, "rental_uris": {"ios": "https://dc.lft.to/lastmile_qr_scan", "android": "https://dc.lft.to/lastmile_qr_scan"}}, {"name": "888dfef490fcc7e4cf77fb282b563758", "fusion_lat": 0.0, "type": "electric_bike", "lat": 38.92855933333333, "is_reserved": 0, "is_disabled": 0, "fusion_lon": 0.0, "bike_id": "888dfef490fcc7e4cf77fb282b563758", "lon": -77.22215316666667, "rental_uris": {"ios": "https://dc.lft.to/lastmile_qr_scan", "android": "https://dc.lft.to/lastmile_qr_scan"}}, {"name": "ab1257dbbe80840f93b17afe79e45261", "fusion_lat": 0.0, "type": "electric_scooter", "lat": 38.876649666666665, "is_reserved": 0, "is_disabled": 0, "fusion_lon": 0.0, "bike_id": "ab1257dbbe80840f93b17afe79e45261", "lon": -77.00062916666667, "rental_uris": {"ios": "https://dc.lft.to/lastmile_qr_scan", "android": "https://dc.lft.to/lastmile_qr_scan"}}, {"name": "7c5208c45c6c5b8750e3d99fce7c5908", "fusion_lat": 0.0, "type": "electric_scooter", "lat": 38.90507183333333, "is_reserved": 0, "is_disabled": 0, "fusion_lon": 0.0, "bike_id": "7c5208c45c6c5b8750e3d99fce7c5908", "lon": -77.0434775, "rental_uris": {"ios": "https://dc.lft.to/lastmile_qr_scan", "android": "https://dc.lft.to/lastmile_qr_scan"}}, {"name": "bf8025b75abfd4f8fd50fa2f5c3151f1", "fusion_lat": 0.0, "type": "electric_bike", "lat": 39.05318833333333, "is_reserved": 0, "is_disabled": 0, "fusion_lon": 0.0, "bike_id": "bf8025b75abfd4f8fd50fa2f5c3151f1", "lon": -77.04775066666667, "rental_uris": {"ios": "https://dc.lft.to/lastmile_qr_scan", "android": "https://dc.lft.to/lastmile_qr_scan"}}, {"name": "635ee1f607fd966c8bac7bb41ca30ecf", "fusion_lat": 0.0, "type": "electric_scooter", "lat": 38.9027255, "is_reserved": 0, "is_disabled": 0, "fusion_lon": 0.0, "bike_id": "635ee1f607fd966c8bac7bb41ca30ecf", "lon": -76.98711483333334, "rental_uris": {"ios": "https://dc.lft.to/lastmile_qr_scan", "android": "https://dc.lft.to/lastmile_qr_scan"}}, {"name": "74eed3cc32d6477a1c50d25109cdacfc", "fusion_lat": 0.0, "type": "electric_scooter", "lat": 38.91100866666667, "is_reserved": 0, "is_disabled": 0, "fusion_lon": 0.0, "bike_id": "74eed3cc32d6477a1c50d25109cdacfc", "lon": -77.00357716666667, "rental_uris": {"ios": "https://dc.lft.to/lastmile_qr_scan", "android": "https://dc.lft.to/lastmile_qr_scan"}}, {"name": "09c414b77ee9683e09cdf877576f2b2d", "fusion_lat": 0.0, "type": "electric_bike", "lat": 39.088588333333334, "is_reserved": 0, "is_disabled": 0, "fusion_lon": 0.0, "bike_id": "09c414b77ee9683e09cdf877576f2b2d", "lon": -77.17842083333333, "rental_uris": {"ios": "https://dc.lft.to/lastmile_qr_scan", "android": "https://dc.lft.to/lastmile_qr_scan"}}, {"name": "1b4f33c7f0c308402ce2daf7c84b92b3", "fusion_lat": 0.0, "type": "electric_scooter", "lat": 38.865353666666664, "is_reserved": 0, "is_disabled": 0, "fusion_lon": 0.0, "bike_id": "1b4f33c7f0c308402ce2daf7c84b92b3", "lon": -76.98699733333333, "rental_uris": {"ios": "https://dc.lft.to/lastmile_qr_scan", "android": "https://dc.lft.to/lastmile_qr_scan"}}, {"name": "6035b712464b92129040d31310cbb018", "fusion_lat": 0.0, "type": "electric_bike", "lat": 38.93521766666667, "is_reserved": 0, "is_disabled": 0, "fusion_lon": 0.0, "bike_id": "6035b712464b92129040d31310cbb018", "lon": -76.9506185, "rental_uris": {"ios": "https://dc.lft.to/lastmile_qr_scan", "android": "https://dc.lft.to/lastmile_qr_scan"}}, {"name": "629751f3aec37521f02857c831b8c8dc", "fusion_lat": 0.0, "type": "electric_scooter", "lat": 38.89989633333333, "is_reserved": 0, "is_disabled": 0, "fusion_lon": 0.0, "bike_id": "629751f3aec37521f02857c831b8c8dc", "lon": -77.045818, "rental_uris": {"ios": "https://dc.lft.to/lastmile_qr_scan", "android": "https://dc.lft.to/lastmile_qr_scan"}}, {"name": "4f427a525171a68e4b620ed380389ec5", "fusion_lat": 0.0, "type": "electric_bike", "lat": 38.84275216666666, "is_reserved": 0, "is_disabled": 0, "fusion_lon": 0.0, "bike_id": "4f427a525171a68e4b620ed380389ec5", "lon": -76.98845683333333, "rental_uris": {"ios": "https://dc.lft.to/lastmile_qr_scan", "android": "https://dc.lft.to/lastmile_qr_scan"}}, {"name": "344171d1503476d76ec5b6207868f832", "fusion_lat": 0.0, "type": "electric_bike", "lat": 38.9601255, "is_reserved": 0, "is_disabled": 0, "fusion_lon": 0.0, "bike_id": "344171d1503476d76ec5b6207868f832", "lon": -76.998748, "rental_uris": {"ios": "https://dc.lft.to/lastmile_qr_scan", "android": "https://dc.lft.to/lastmile_qr_scan"}}, {"name": "4b27a24023b8f6bf50bee355ca61aa8b", "fusion_lat": 0.0, "type": "electric_scooter", "lat": 38.925515833333336, "is_reserved": 0, "is_disabled": 0, "fusion_lon": 0.0, "bike_id": "4b27a24023b8f6bf50bee355ca61aa8b", "lon": -77.03224733333333, "rental_uris": {"ios": "https://dc.lft.to/lastmile_qr_scan", "android": "https://dc.lft.to/lastmile_qr_scan"}}, {"name": "e15670f2574037960f43691fde88835e", "fusion_lat": 0.0, "type": "electric_scooter", "lat": 38.928264666666664, "is_reserved": 0, "is_disabled": 0, "fusion_lon": 0.0, "bike_id": "e15670f2574037960f43691fde88835e", "lon": -77.02258566666667, "rental_uris": {"ios": "https://dc.lft.to/lastmile_qr_scan", "android": "https://dc.lft.to/lastmile_qr_scan"}}, {"name": "530bc0b73d78e03fa63c53c78358e383", "fusion_lat": 0.0, "type": "electric_scooter", "lat": 38.9198015, "is_reserved": 0, "is_disabled": 0, "fusion_lon": 0.0, "bike_id": "530bc0b73d78e03fa63c53c78358e383", "lon": -77.0396325, "rental_uris": {"ios": "https://dc.lft.to/lastmile_qr_scan", "android": "https://dc.lft.to/lastmile_qr_scan"}}, {"name": "b5f849be80913ffd408cec091fcb182b", "fusion_lat": 0.0, "type": "electric_scooter", "lat": 38.925740166666664, "is_reserved": 0, "is_disabled": 0, "fusion_lon": 0.0, "bike_id": "b5f849be80913ffd408cec091fcb182b", "lon": -76.99493766666667, "rental_uris": {"ios": "https://dc.lft.to/lastmile_qr_scan", "android": "https://dc.lft.to/lastmile_qr_scan"}}, {"name": "88bae0b33b6f4d7d497ca39a8c57d419", "fusion_lat": 0.0, "type": "electric_scooter", "lat": 38.905651666666664, "is_reserved": 0, "is_disabled": 0, "fusion_lon": 0.0, "bike_id": "88bae0b33b6f4d7d497ca39a8c57d419", "lon": -77.04856083333334, "rental_uris": {"ios": "https://dc.lft.to/lastmile_qr_scan", "android": "https://dc.lft.to/lastmile_qr_scan"}}, {"name": "da63526c09094be60e2dd542099e689c", "fusion_lat": 0.0, "type": "electric_scooter", "lat": 38.882316, "is_reserved": 0, "is_disabled": 0, "fusion_lon": 0.0, "bike_id": "da63526c09094be60e2dd542099e689c", "lon": -77.025808, "rental_uris": {"ios": "https://dc.lft.to/lastmile_qr_scan", "android": "https://dc.lft.to/lastmile_qr_scan"}}, {"name": "5f28f0aeba7260bdeba5aa966f0f4488", "fusion_lat": 0.0, "type": "electric_scooter", "lat": 38.861612666666666, "is_reserved": 0, "is_disabled": 0, "fusion_lon": 0.0, "bike_id": "5f28f0aeba7260bdeba5aa966f0f4488", "lon": -76.989257, "rental_uris": {"ios": "https://dc.lft.to/lastmile_qr_scan", "android": "https://dc.lft.to/lastmile_qr_scan"}}, {"name": "e659f2fd565e1378c93632858fc3b0bf", "fusion_lat": 0.0, "type": "electric_scooter", "lat": 38.898473333333335, "is_reserved": 0, "is_disabled": 0, "fusion_lon": 0.0, "bike_id": "e659f2fd565e1378c93632858fc3b0bf", "lon": -77.00743183333333, "rental_uris": {"ios": "https://dc.lft.to/lastmile_qr_scan", "android": "https://dc.lft.to/lastmile_qr_scan"}}, {"name": "e1bbea5bc00bc0553143ac3cf148a914", "fusion_lat": 0.0, "type": "electric_scooter", "lat": 38.905691, "is_reserved": 0, "is_disabled": 0, "fusion_lon": 0.0, "bike_id": "e1bbea5bc00bc0553143ac3cf148a914", "lon": -77.00594266666667, "rental_uris": {"ios": "https://dc.lft.to/lastmile_qr_scan", "android": "https://dc.lft.to/lastmile_qr_scan"}}, {"name": "970ef958798d5d38f5878a65280c587d", "fusion_lat": 0.0, "type": "electric_scooter", "lat": 38.90724633333333, "is_reserved": 0, "is_disabled": 0, "fusion_lon": 0.0, "bike_id": "970ef958798d5d38f5878a65280c587d", "lon": -77.04323433333333, "rental_uris": {"ios": "https://dc.lft.to/lastmile_qr_scan", "android": "https://dc.lft.to/lastmile_qr_scan"}}, {"name": "529a4d6d78cd4d229ede5dab22be71e1", "fusion_lat": 0.0, "type": "electric_scooter", "lat": 38.92679483333333, "is_reserved": 0, "is_disabled": 0, "fusion_lon": 0.0, "bike_id": "529a4d6d78cd4d229ede5dab22be71e1", "lon": -77.01522433333334, "rental_uris": {"ios": "https://dc.lft.to/lastmile_qr_scan", "android": "https://dc.lft.to/lastmile_qr_scan"}}, {"name": "952c2bda7c820d2807628f82bf305549", "fusion_lat": 0.0, "type": "electric_scooter", "lat": 38.90768166666667, "is_reserved": 0, "is_disabled": 0, "fusion_lon": 0.0, "bike_id": "952c2bda7c820d2807628f82bf305549", "lon": -77.03858283333334, "rental_uris": {"ios": "https://dc.lft.to/lastmile_qr_scan", "android": "https://dc.lft.to/lastmile_qr_scan"}}, {"name": "8cc4a61bec37437a9aa35722d4809257", "fusion_lat": 0.0, "type": "electric_scooter", "lat": 38.939006, "is_reserved": 0, "is_disabled": 0, "fusion_lon": 0.0, "bike_id": "8cc4a61bec37437a9aa35722d4809257", "lon": -77.032873, "rental_uris": {"ios": "https://dc.lft.to/lastmile_qr_scan", "android": "https://dc.lft.to/lastmile_qr_scan"}}, {"name": "f3c44c2013d50fde49e6ca5e1059b819", "fusion_lat": 0.0, "type": "electric_bike", "lat": 38.89771833333333, "is_reserved": 0, "is_disabled": 0, "fusion_lon": 0.0, "bike_id": "f3c44c2013d50fde49e6ca5e1059b819", "lon": -76.90437816666666, "rental_uris": {"ios": "https://dc.lft.to/lastmile_qr_scan", "android": "https://dc.lft.to/lastmile_qr_scan"}}, {"name": "c812570ec784412432ead28bb201bbc7", "fusion_lat": 0.0, "type": "electric_scooter", "lat": 38.9311015, "is_reserved": 0, "is_disabled": 0, "fusion_lon": 0.0, "bike_id": "c812570ec784412432ead28bb201bbc7", "lon": -77.02403516666666, "rental_uris": {"ios": "https://dc.lft.to/lastmile_qr_scan", "android": "https://dc.lft.to/lastmile_qr_scan"}}, {"name": "e6d73441faec8e1d3383cb09c94f8869", "fusion_lat": 0.0, "type": "electric_scooter", "lat": 38.895219166666664, "is_reserved": 0, "is_disabled": 0, "fusion_lon": 0.0, "bike_id": "e6d73441faec8e1d3383cb09c94f8869", "lon": -77.024235, "rental_uris": {"ios": "https://dc.lft.to/lastmile_qr_scan", "android": "https://dc.lft.to/lastmile_qr_scan"}}, {"name": "431eb34126a2940d00180130a6d6aabb", "fusion_lat": 0.0, "type": "electric_scooter", "lat": 38.90244716666667, "is_reserved": 0, "is_disabled": 0, "fusion_lon": 0.0, "bike_id": "431eb34126a2940d00180130a6d6aabb", "lon": -76.999347, "rental_uris": {"ios": "https://dc.lft.to/lastmile_qr_scan", "android": "https://dc.lft.to/lastmile_qr_scan"}}, {"name": "f192651d5568ec4516acd28f56cc1bf7", "fusion_lat": 0.0, "type": "electric_scooter", "lat": 38.9035915, "is_reserved": 0, "is_disabled": 0, "fusion_lon": 0.0, "bike_id": "f192651d5568ec4516acd28f56cc1bf7", "lon": -77.03988633333333, "rental_uris": {"ios": "https://dc.lft.to/lastmile_qr_scan", "android": "https://dc.lft.to/lastmile_qr_scan"}}, {"name": "58d85051772a4c918806c8fa7383c676", "fusion_lat": 0.0, "type": "electric_scooter", "lat": 38.918559333333334, "is_reserved": 0, "is_disabled": 0, "fusion_lon": 0.0, "bike_id": "58d85051772a4c918806c8fa7383c676", "lon": -77.01508183333333, "rental_uris": {"ios": "https://dc.lft.to/lastmile_qr_scan", "android": "https://dc.lft.to/lastmile_qr_scan"}}, {"name": "244e65db5646f6be696fc2b6edf58359", "fusion_lat": 0.0, "type": "electric_scooter", "lat": 38.95837366666667, "is_reserved": 0, "is_disabled": 0, "fusion_lon": 0.0, "bike_id": "244e65db5646f6be696fc2b6edf58359", "lon": -77.02688116666667, "rental_uris": {"ios": "https://dc.lft.to/lastmile_qr_scan", "android": "https://dc.lft.to/lastmile_qr_scan"}}, {"name": "75c383c12f7dea69361cb61c5a8fa985", "fusion_lat": 0.0, "type": "electric_bike", "lat": 38.9548155, "is_reserved": 0, "is_disabled": 0, "fusion_lon": 0.0, "bike_id": "75c383c12f7dea69361cb61c5a8fa985", "lon": -77.08237116666666, "rental_uris": {"ios": "https://dc.lft.to/lastmile_qr_scan", "android": "https://dc.lft.to/lastmile_qr_scan"}}, {"name": "4852501733e31de710f20e841be2113d", "fusion_lat": 0.0, "type": "electric_scooter", "lat": 38.904734, "is_reserved": 0, "is_disabled": 0, "fusion_lon": 0.0, "bike_id": "4852501733e31de710f20e841be2113d", "lon": -77.0414865, "rental_uris": {"ios": "https://dc.lft.to/lastmile_qr_scan", "android": "https://dc.lft.to/lastmile_qr_scan"}}, {"name": "e0149320205cd2fbe9107098a5bf0bcd", "fusion_lat": 0.0, "type": "electric_scooter", "lat": 38.924208666666665, "is_reserved": 0, "is_disabled": 0, "fusion_lon": 0.0, "bike_id": "e0149320205cd2fbe9107098a5bf0bcd", "lon": -77.01947483333333, "rental_uris": {"ios": "https://dc.lft.to/lastmile_qr_scan", "android": "https://dc.lft.to/lastmile_qr_scan"}}, {"name": "e80c1211f8b7eb49c624d150c0f6bff3", "fusion_lat": 0.0, "type": "electric_scooter", "lat": 38.8965755, "is_reserved": 0, "is_disabled": 0, "fusion_lon": 0.0, "bike_id": "e80c1211f8b7eb49c624d150c0f6bff3", "lon": -77.04886416666666, "rental_uris": {"ios": "https://dc.lft.to/lastmile_qr_scan", "android": "https://dc.lft.to/lastmile_qr_scan"}}, {"name": "41799786eb77c88ff173e023082d6e89", "fusion_lat": 0.0, "type": "electric_scooter", "lat": 38.90659266666667, "is_reserved": 0, "is_disabled": 0, "fusion_lon": 0.0, "bike_id": "41799786eb77c88ff173e023082d6e89", "lon": -77.03821733333334, "rental_uris": {"ios": "https://dc.lft.to/lastmile_qr_scan", "android": "https://dc.lft.to/lastmile_qr_scan"}}, {"name": "6f266c23c0a4ab4c991029f36ec87f80", "fusion_lat": 0.0, "type": "electric_scooter", "lat": 38.89883966666667, "is_reserved": 0, "is_disabled": 0, "fusion_lon": 0.0, "bike_id": "6f266c23c0a4ab4c991029f36ec87f80", "lon": -77.02185533333333, "rental_uris": {"ios": "https://dc.lft.to/lastmile_qr_scan", "android": "https://dc.lft.to/lastmile_qr_scan"}}, {"name": "b4dcc226395c018d60fccfd0c0d5cb4f", "fusion_lat": 0.0, "type": "electric_scooter", "lat": 38.90267716666666, "is_reserved": 0, "is_disabled": 0, "fusion_lon": 0.0, "bike_id": "b4dcc226395c018d60fccfd0c0d5cb4f", "lon": -77.0320085, "rental_uris": {"ios": "https://dc.lft.to/lastmile_qr_scan", "android": "https://dc.lft.to/lastmile_qr_scan"}}, {"name": "527b4fa8ee745ec1219f3cc21845fa1e", "fusion_lat": 0.0, "type": "electric_scooter", "lat": 38.92971583333333, "is_reserved": 0, "is_disabled": 0, "fusion_lon": 0.0, "bike_id": "527b4fa8ee745ec1219f3cc21845fa1e", "lon": -77.0366125, "rental_uris": {"ios": "https://dc.lft.to/lastmile_qr_scan", "android": "https://dc.lft.to/lastmile_qr_scan"}}, {"name": "e65aba163a020b3fa34f938ae640f747", "fusion_lat": 0.0, "type": "electric_scooter", "lat": 38.90473133333333, "is_reserved": 0, "is_disabled": 0, "fusion_lon": 0.0, "bike_id": "e65aba163a020b3fa34f938ae640f747", "lon": -77.04146316666667, "rental_uris": {"ios": "https://dc.lft.to/lastmile_qr_scan", "android": "https://dc.lft.to/lastmile_qr_scan"}}, {"name": "e4b1188a4a8da11c280aeb6d1a03d03f", "fusion_lat": 0.0, "type": "electric_scooter", "lat": 38.892231, "is_reserved": 0, "is_disabled": 0, "fusion_lon": 0.0, "bike_id": "e4b1188a4a8da11c280aeb6d1a03d03f", "lon": -77.03984016666666, "rental_uris": {"ios": "https://dc.lft.to/lastmile_qr_scan", "android": "https://dc.lft.to/lastmile_qr_scan"}}, {"name": "871ccfbf90ceaf5dc6f1246108f0908e", "fusion_lat": 0.0, "type": "electric_scooter", "lat": 38.919534666666664, "is_reserved": 0, "is_disabled": 0, "fusion_lon": 0.0, "bike_id": "871ccfbf90ceaf5dc6f1246108f0908e", "lon": -77.023554, "rental_uris": {"ios": "https://dc.lft.to/lastmile_qr_scan", "android": "https://dc.lft.to/lastmile_qr_scan"}}, {"name": "261ec63c9801b6f564bd48d8febbebc2", "fusion_lat": 0.0, "type": "electric_scooter", "lat": 38.91476433333333, "is_reserved": 0, "is_disabled": 0, "fusion_lon": 0.0, "bike_id": "261ec63c9801b6f564bd48d8febbebc2", "lon": -77.04599183333333, "rental_uris": {"ios": "https://dc.lft.to/lastmile_qr_scan", "android": "https://dc.lft.to/lastmile_qr_scan"}}, {"name": "14d6785e6738e5c562fc78a1786b886c", "fusion_lat": 0.0, "type": "electric_scooter", "lat": 38.90974166666667, "is_reserved": 0, "is_disabled": 0, "fusion_lon": 0.0, "bike_id": "14d6785e6738e5c562fc78a1786b886c", "lon": -77.04478116666667, "rental_uris": {"ios": "https://dc.lft.to/lastmile_qr_scan", "android": "https://dc.lft.to/lastmile_qr_scan"}}, {"name": "da2c77ede40c252695192d4ba7a4606a", "fusion_lat": 0.0, "type": "electric_scooter", "lat": 38.885024, "is_reserved": 0, "is_disabled": 0, "fusion_lon": 0.0, "bike_id": "da2c77ede40c252695192d4ba7a4606a", "lon": -77.01729116666667, "rental_uris": {"ios": "https://dc.lft.to/lastmile_qr_scan", "android": "https://dc.lft.to/lastmile_qr_scan"}}, {"name": "d714c73e79211c335a40fcf5db9d081d", "fusion_lat": 0.0, "type": "electric_scooter", "lat": 38.91635316666667, "is_reserved": 0, "is_disabled": 0, "fusion_lon": 0.0, "bike_id": "d714c73e79211c335a40fcf5db9d081d", "lon": -77.00109516666667, "rental_uris": {"ios": "https://dc.lft.to/lastmile_qr_scan", "android": "https://dc.lft.to/lastmile_qr_scan"}}, {"name": "36cfbfda4976b4ab8cebdb4a867e3495", "fusion_lat": 0.0, "type": "electric_scooter", "lat": 38.916202, "is_reserved": 0, "is_disabled": 0, "fusion_lon": 0.0, "bike_id": "36cfbfda4976b4ab8cebdb4a867e3495", "lon": -77.02159966666666, "rental_uris": {"ios": "https://dc.lft.to/lastmile_qr_scan", "android": "https://dc.lft.to/lastmile_qr_scan"}}, {"name": "177b90ad53e9247ec0e5bbb218b92a4b", "fusion_lat": 0.0, "type": "electric_scooter", "lat": 38.90111116666667, "is_reserved": 0, "is_disabled": 0, "fusion_lon": 0.0, "bike_id": "177b90ad53e9247ec0e5bbb218b92a4b", "lon": -77.03168233333334, "rental_uris": {"ios": "https://dc.lft.to/lastmile_qr_scan", "android": "https://dc.lft.to/lastmile_qr_scan"}}, {"name": "5e50381ca6f33e5d68f5277c57db4837", "fusion_lat": 0.0, "type": "electric_scooter", "lat": 38.9126885, "is_reserved": 0, "is_disabled": 0, "fusion_lon": 0.0, "bike_id": "5e50381ca6f33e5d68f5277c57db4837", "lon": -77.00921433333333, "rental_uris": {"ios": "https://dc.lft.to/lastmile_qr_scan", "android": "https://dc.lft.to/lastmile_qr_scan"}}, {"name": "b430315d4f0e7b38f3ae6b8f5bb5b623", "fusion_lat": 0.0, "type": "electric_scooter", "lat": 38.9066465, "is_reserved": 0, "is_disabled": 0, "fusion_lon": 0.0, "bike_id": "b430315d4f0e7b38f3ae6b8f5bb5b623", "lon": -77.038234, "rental_uris": {"ios": "https://dc.lft.to/lastmile_qr_scan", "android": "https://dc.lft.to/lastmile_qr_scan"}}, {"name": "e53751007b92bd05b8b8da6bb6dfa61e", "fusion_lat": 0.0, "type": "electric_bike", "lat": 38.842766833333336, "is_reserved": 0, "is_disabled": 0, "fusion_lon": 0.0, "bike_id": "e53751007b92bd05b8b8da6bb6dfa61e", "lon": -76.98843616666667, "rental_uris": {"ios": "https://dc.lft.to/lastmile_qr_scan", "android": "https://dc.lft.to/lastmile_qr_scan"}}, {"name": "75f12c4d9513130fdbd91b9555f01b14", "fusion_lat": 0.0, "type": "electric_scooter", "lat": 38.913256833333335, "is_reserved": 0, "is_disabled": 0, "fusion_lon": 0.0, "bike_id": "75f12c4d9513130fdbd91b9555f01b14", "lon": -77.04535866666667, "rental_uris": {"ios": "https://dc.lft.to/lastmile_qr_scan", "android": "https://dc.lft.to/lastmile_qr_scan"}}, {"name": "958562fd4f25a4e0553f46e0368f2f1d", "fusion_lat": 0.0, "type": "electric_bike", "lat": 38.907365166666665, "is_reserved": 0, "is_disabled": 0, "fusion_lon": 0.0, "bike_id": "958562fd4f25a4e0553f46e0368f2f1d", "lon": -77.00596766666666, "rental_uris": {"ios": "https://dc.lft.to/lastmile_qr_scan", "android": "https://dc.lft.to/lastmile_qr_scan"}}, {"name": "0fadc696f3b46a8ece508f51cd085070", "fusion_lat": 0.0, "type": "electric_scooter", "lat": 38.921277333333336, "is_reserved": 0, "is_disabled": 0, "fusion_lon": 0.0, "bike_id": "0fadc696f3b46a8ece508f51cd085070", "lon": -77.04215983333333, "rental_uris": {"ios": "https://dc.lft.to/lastmile_qr_scan", "android": "https://dc.lft.to/lastmile_qr_scan"}}, {"name": "105988f3a2aa504ba23a575357c5ea53", "fusion_lat": 0.0, "type": "electric_scooter", "lat": 38.898529333333336, "is_reserved": 0, "is_disabled": 0, "fusion_lon": 0.0, "bike_id": "105988f3a2aa504ba23a575357c5ea53", "lon": -77.02580816666666, "rental_uris": {"ios": "https://dc.lft.to/lastmile_qr_scan", "android": "https://dc.lft.to/lastmile_qr_scan"}}, {"name": "719b39d1e86ca0a1e041ecbac860a998", "fusion_lat": 0.0, "type": "electric_scooter", "lat": 38.910453833333335, "is_reserved": 0, "is_disabled": 0, "fusion_lon": 0.0, "bike_id": "719b39d1e86ca0a1e041ecbac860a998", "lon": -77.04365283333334, "rental_uris": {"ios": "https://dc.lft.to/lastmile_qr_scan", "android": "https://dc.lft.to/lastmile_qr_scan"}}, {"name": "ce4feace82a7f9051593a59d733a141b", "fusion_lat": 0.0, "type": "electric_bike", "lat": 38.95957933333333, "is_reserved": 0, "is_disabled": 0, "fusion_lon": 0.0, "bike_id": "ce4feace82a7f9051593a59d733a141b", "lon": -77.100929, "rental_uris": {"ios": "https://dc.lft.to/lastmile_qr_scan", "android": "https://dc.lft.to/lastmile_qr_scan"}}, {"name": "31c613df825db0d100162176405259a9", "fusion_lat": 0.0, "type": "electric_scooter", "lat": 38.918391, "is_reserved": 0, "is_disabled": 0, "fusion_lon": 0.0, "bike_id": "31c613df825db0d100162176405259a9", "lon": -77.02692433333333, "rental_uris": {"ios": "https://dc.lft.to/lastmile_qr_scan", "android": "https://dc.lft.to/lastmile_qr_scan"}}, {"name": "10ffde1e6c324542795d779e9dec5304", "fusion_lat": 0.0, "type": "electric_scooter", "lat": 38.90415183333333, "is_reserved": 0, "is_disabled": 0, "fusion_lon": 0.0, "bike_id": "10ffde1e6c324542795d779e9dec5304", "lon": -76.978913, "rental_uris": {"ios": "https://dc.lft.to/lastmile_qr_scan", "android": "https://dc.lft.to/lastmile_qr_scan"}}, {"name": "7fbd2f13db7f808aa1c7b40a9d02bfc1", "fusion_lat": 0.0, "type": "electric_scooter", "lat": 38.91848916666667, "is_reserved": 0, "is_disabled": 0, "fusion_lon": 0.0, "bike_id": "7fbd2f13db7f808aa1c7b40a9d02bfc1", "lon": -77.025973, "rental_uris": {"ios": "https://dc.lft.to/lastmile_qr_scan", "android": "https://dc.lft.to/lastmile_qr_scan"}}, {"name": "a8517383e35242c29b1ded5af68175e1", "fusion_lat": 0.0, "type": "electric_scooter", "lat": 38.89507783333333, "is_reserved": 0, "is_disabled": 0, "fusion_lon": 0.0, "bike_id": "a8517383e35242c29b1ded5af68175e1", "lon": -76.99154716666666, "rental_uris": {"ios": "https://dc.lft.to/lastmile_qr_scan", "android": "https://dc.lft.to/lastmile_qr_scan"}}, {"name": "df2b1724182ce0b88f6e7016a926301a", "fusion_lat": 0.0, "type": "electric_scooter", "lat": 38.90759466666667, "is_reserved": 0, "is_disabled": 0, "fusion_lon": 0.0, "bike_id": "df2b1724182ce0b88f6e7016a926301a", "lon": -77.0054375, "rental_uris": {"ios": "https://dc.lft.to/lastmile_qr_scan", "android": "https://dc.lft.to/lastmile_qr_scan"}}, {"name": "6428b5607e0a35986fa43838097452f5", "fusion_lat": 0.0, "type": "electric_scooter", "lat": 38.895150666666666, "is_reserved": 0, "is_disabled": 0, "fusion_lon": 0.0, "bike_id": "6428b5607e0a35986fa43838097452f5", "lon": -76.991478, "rental_uris": {"ios": "https://dc.lft.to/lastmile_qr_scan", "android": "https://dc.lft.to/lastmile_qr_scan"}}, {"name": "091f2e0c706730ec2d980b91f519641c", "fusion_lat": 0.0, "type": "electric_scooter", "lat": 38.9071975, "is_reserved": 0, "is_disabled": 0, "fusion_lon": 0.0, "bike_id": "091f2e0c706730ec2d980b91f519641c", "lon": -77.02890766666667, "rental_uris": {"ios": "https://dc.lft.to/lastmile_qr_scan", "android": "https://dc.lft.to/lastmile_qr_scan"}}, {"name": "64920c38b3903a1acef767938b5cce4e", "fusion_lat": 0.0, "type": "electric_bike", "lat": 38.894691333333334, "is_reserved": 0, "is_disabled": 0, "fusion_lon": 0.0, "bike_id": "64920c38b3903a1acef767938b5cce4e", "lon": -77.0219615, "rental_uris": {"ios": "https://dc.lft.to/lastmile_qr_scan", "android": "https://dc.lft.to/lastmile_qr_scan"}}, {"name": "b1b83d64d7ac6cfbf6bba6d4f1ccbe75", "fusion_lat": 0.0, "type": "electric_scooter", "lat": 38.909631833333336, "is_reserved": 0, "is_disabled": 0, "fusion_lon": 0.0, "bike_id": "b1b83d64d7ac6cfbf6bba6d4f1ccbe75", "lon": -77.03363916666666, "rental_uris": {"ios": "https://dc.lft.to/lastmile_qr_scan", "android": "https://dc.lft.to/lastmile_qr_scan"}}, {"name": "9f14dd97b337d25534725ebf0e6689dd", "fusion_lat": 0.0, "type": "electric_scooter", "lat": 38.9156875, "is_reserved": 0, "is_disabled": 0, "fusion_lon": 0.0, "bike_id": "9f14dd97b337d25534725ebf0e6689dd", "lon": -77.05215066666666, "rental_uris": {"ios": "https://dc.lft.to/lastmile_qr_scan", "android": "https://dc.lft.to/lastmile_qr_scan"}}, {"name": "1c86349d6a69380fb95963d0536b462d", "fusion_lat": 0.0, "type": "electric_scooter", "lat": 38.876672666666664, "is_reserved": 0, "is_disabled": 0, "fusion_lon": 0.0, "bike_id": "1c86349d6a69380fb95963d0536b462d", "lon": -77.00407266666667, "rental_uris": {"ios": "https://dc.lft.to/lastmile_qr_scan", "android": "https://dc.lft.to/lastmile_qr_scan"}}, {"name": "02c5d8008e1fcfdaea104cc11d2a0750", "fusion_lat": 0.0, "type": "electric_scooter", "lat": 38.92081066666667, "is_reserved": 0, "is_disabled": 0, "fusion_lon": 0.0, "bike_id": "02c5d8008e1fcfdaea104cc11d2a0750", "lon": -77.07548483333333, "rental_uris": {"ios": "https://dc.lft.to/lastmile_qr_scan", "android": "https://dc.lft.to/lastmile_qr_scan"}}, {"name": "f6bdfd6cf408244e92b51f99ed607e4f", "fusion_lat": 0.0, "type": "electric_scooter", "lat": 38.9206925, "is_reserved": 0, "is_disabled": 0, "fusion_lon": 0.0, "bike_id": "f6bdfd6cf408244e92b51f99ed607e4f", "lon": -77.03217166666667, "rental_uris": {"ios": "https://dc.lft.to/lastmile_qr_scan", "android": "https://dc.lft.to/lastmile_qr_scan"}}, {"name": "01ac28030b0e1a9e78268f4b57c912ac", "fusion_lat": 0.0, "type": "electric_scooter", "lat": 38.9001915, "is_reserved": 0, "is_disabled": 0, "fusion_lon": 0.0, "bike_id": "01ac28030b0e1a9e78268f4b57c912ac", "lon": -76.99562833333333, "rental_uris": {"ios": "https://dc.lft.to/lastmile_qr_scan", "android": "https://dc.lft.to/lastmile_qr_scan"}}, {"name": "a8a62c7fb832cbb5bd64e451c9638c97", "fusion_lat": 0.0, "type": "electric_bike", "lat": 38.8854465, "is_reserved": 0, "is_disabled": 0, "fusion_lon": 0.0, "bike_id": "a8a62c7fb832cbb5bd64e451c9638c97", "lon": -76.9974675, "rental_uris": {"ios": "https://dc.lft.to/lastmile_qr_scan", "android": "https://dc.lft.to/lastmile_qr_scan"}}, {"name": "fb26796a59be6e26c2e630717a146962", "fusion_lat": 0.0, "type": "electric_scooter", "lat": 38.93134333333333, "is_reserved": 0, "is_disabled": 0, "fusion_lon": 0.0, "bike_id": "fb26796a59be6e26c2e630717a146962", "lon": -77.02197433333333, "rental_uris": {"ios": "https://dc.lft.to/lastmile_qr_scan", "android": "https://dc.lft.to/lastmile_qr_scan"}}, {"name": "06a666f64be413e04e70a9aca6b365a0", "fusion_lat": 0.0, "type": "electric_scooter", "lat": 38.885872666666664, "is_reserved": 0, "is_disabled": 0, "fusion_lon": 0.0, "bike_id": "06a666f64be413e04e70a9aca6b365a0", "lon": -77.03162483333334, "rental_uris": {"ios": "https://dc.lft.to/lastmile_qr_scan", "android": "https://dc.lft.to/lastmile_qr_scan"}}, {"name": "cd1e6d13b08b3d1318be24cb93db2441", "fusion_lat": 0.0, "type": "electric_bike", "lat": 38.8827625, "is_reserved": 0, "is_disabled": 0, "fusion_lon": 0.0, "bike_id": "cd1e6d13b08b3d1318be24cb93db2441", "lon": -76.932297, "rental_uris": {"ios": "https://dc.lft.to/lastmile_qr_scan", "android": "https://dc.lft.to/lastmile_qr_scan"}}, {"name": "4fa162c6e9c3dc9b74f20a9e3c23bfe6", "fusion_lat": 0.0, "type": "electric_scooter", "lat": 38.930822166666665, "is_reserved": 0, "is_disabled": 0, "fusion_lon": 0.0, "bike_id": "4fa162c6e9c3dc9b74f20a9e3c23bfe6", "lon": -77.02794233333333, "rental_uris": {"ios": "https://dc.lft.to/lastmile_qr_scan", "android": "https://dc.lft.to/lastmile_qr_scan"}}, {"name": "1ac6926d162a4597f65c65a2179b9856", "fusion_lat": 0.0, "type": "electric_scooter", "lat": 38.9090525, "is_reserved": 0, "is_disabled": 0, "fusion_lon": 0.0, "bike_id": "1ac6926d162a4597f65c65a2179b9856", "lon": -77.04213833333333, "rental_uris": {"ios": "https://dc.lft.to/lastmile_qr_scan", "android": "https://dc.lft.to/lastmile_qr_scan"}}, {"name": "16855c437a0ea2c6ddf824c45ac0e2b1", "fusion_lat": 0.0, "type": "electric_scooter", "lat": 38.897051166666664, "is_reserved": 0, "is_disabled": 0, "fusion_lon": 0.0, "bike_id": "16855c437a0ea2c6ddf824c45ac0e2b1", "lon": -77.00836183333334, "rental_uris": {"ios": "https://dc.lft.to/lastmile_qr_scan", "android": "https://dc.lft.to/lastmile_qr_scan"}}, {"name": "af4461cc9e34828d6310915dfff579bc", "fusion_lat": 0.0, "type": "electric_scooter", "lat": 38.9003795, "is_reserved": 0, "is_disabled": 0, "fusion_lon": 0.0, "bike_id": "af4461cc9e34828d6310915dfff579bc", "lon": -77.00220516666667, "rental_uris": {"ios": "https://dc.lft.to/lastmile_qr_scan", "android": "https://dc.lft.to/lastmile_qr_scan"}}, {"name": "f19f9be8c8fe6b27ad15bacd2432d8e0", "fusion_lat": 0.0, "type": "electric_scooter", "lat": 38.90331833333333, "is_reserved": 0, "is_disabled": 0, "fusion_lon": 0.0, "bike_id": "f19f9be8c8fe6b27ad15bacd2432d8e0", "lon": -77.03648233333334, "rental_uris": {"ios": "https://dc.lft.to/lastmile_qr_scan", "android": "https://dc.lft.to/lastmile_qr_scan"}}, {"name": "f3384bf1f7f12b32f337a62ea7b2c368", "fusion_lat": 0.0, "type": "electric_scooter", "lat": 38.9312395, "is_reserved": 0, "is_disabled": 0, "fusion_lon": 0.0, "bike_id": "f3384bf1f7f12b32f337a62ea7b2c368", "lon": -77.03600533333334, "rental_uris": {"ios": "https://dc.lft.to/lastmile_qr_scan", "android": "https://dc.lft.to/lastmile_qr_scan"}}, {"name": "c9d452a3ae3d0541a4ab8329cf63736c", "fusion_lat": 0.0, "type": "electric_scooter", "lat": 38.86662066666667, "is_reserved": 0, "is_disabled": 0, "fusion_lon": 0.0, "bike_id": "c9d452a3ae3d0541a4ab8329cf63736c", "lon": -76.98886833333333, "rental_uris": {"ios": "https://dc.lft.to/lastmile_qr_scan", "android": "https://dc.lft.to/lastmile_qr_scan"}}, {"name": "f48079ddbb3ad83fddc43ba40e30379f", "fusion_lat": 0.0, "type": "electric_bike", "lat": 38.9079165, "is_reserved": 0, "is_disabled": 0, "fusion_lon": 0.0, "bike_id": "f48079ddbb3ad83fddc43ba40e30379f", "lon": -76.9969925, "rental_uris": {"ios": "https://dc.lft.to/lastmile_qr_scan", "android": "https://dc.lft.to/lastmile_qr_scan"}}, {"name": "9fd5b41b52541d09c072bdefbebab70f", "fusion_lat": 0.0, "type": "electric_scooter", "lat": 38.902445, "is_reserved": 0, "is_disabled": 0, "fusion_lon": 0.0, "bike_id": "9fd5b41b52541d09c072bdefbebab70f", "lon": -77.015057, "rental_uris": {"ios": "https://dc.lft.to/lastmile_qr_scan", "android": "https://dc.lft.to/lastmile_qr_scan"}}, {"name": "459b379780d28855cac39a5b69081168", "fusion_lat": 0.0, "type": "electric_scooter", "lat": 38.8972065, "is_reserved": 0, "is_disabled": 0, "fusion_lon": 0.0, "bike_id": "459b379780d28855cac39a5b69081168", "lon": -77.00795216666667, "rental_uris": {"ios": "https://dc.lft.to/lastmile_qr_scan", "android": "https://dc.lft.to/lastmile_qr_scan"}}, {"name": "c0dd90303bc4c8d9d6b0ed86b650a06c", "fusion_lat": 0.0, "type": "electric_bike", "lat": 38.856185833333335, "is_reserved": 0, "is_disabled": 0, "fusion_lon": 0.0, "bike_id": "c0dd90303bc4c8d9d6b0ed86b650a06c", "lon": -77.08544116666667, "rental_uris": {"ios": "https://dc.lft.to/lastmile_qr_scan", "android": "https://dc.lft.to/lastmile_qr_scan"}}, {"name": "68a7d85a0f9907c4b7b0f323347a66c2", "fusion_lat": 0.0, "type": "electric_scooter", "lat": 38.9125945, "is_reserved": 0, "is_disabled": 0, "fusion_lon": 0.0, "bike_id": "68a7d85a0f9907c4b7b0f323347a66c2", "lon": -77.03865783333333, "rental_uris": {"ios": "https://dc.lft.to/lastmile_qr_scan", "android": "https://dc.lft.to/lastmile_qr_scan"}}, {"name": "bcd6fae1d26b2305455667d3acafaeab", "fusion_lat": 0.0, "type": "electric_scooter", "lat": 38.912552833333336, "is_reserved": 0, "is_disabled": 0, "fusion_lon": 0.0, "bike_id": "bcd6fae1d26b2305455667d3acafaeab", "lon": -77.038385, "rental_uris": {"ios": "https://dc.lft.to/lastmile_qr_scan", "android": "https://dc.lft.to/lastmile_qr_scan"}}, {"name": "7f2cc5e8e089baa74677ebe513f547ea", "fusion_lat": 0.0, "type": "electric_scooter", "lat": 38.917071166666666, "is_reserved": 0, "is_disabled": 0, "fusion_lon": 0.0, "bike_id": "7f2cc5e8e089baa74677ebe513f547ea", "lon": -77.03737466666666, "rental_uris": {"ios": "https://dc.lft.to/lastmile_qr_scan", "android": "https://dc.lft.to/lastmile_qr_scan"}}, {"name": "7cd057107ba04d0a7351656b8e5fed9d", "fusion_lat": 0.0, "type": "electric_scooter", "lat": 38.90621616666667, "is_reserved": 0, "is_disabled": 0, "fusion_lon": 0.0, "bike_id": "7cd057107ba04d0a7351656b8e5fed9d", "lon": -77.02406416666666, "rental_uris": {"ios": "https://dc.lft.to/lastmile_qr_scan", "android": "https://dc.lft.to/lastmile_qr_scan"}}, {"name": "bf529eb63e5e3c2887c8061304265293", "fusion_lat": 0.0, "type": "electric_scooter", "lat": 38.903989833333334, "is_reserved": 0, "is_disabled": 0, "fusion_lon": 0.0, "bike_id": "bf529eb63e5e3c2887c8061304265293", "lon": -77.01097033333333, "rental_uris": {"ios": "https://dc.lft.to/lastmile_qr_scan", "android": "https://dc.lft.to/lastmile_qr_scan"}}, {"name": "8ff5877c2b5fb7011b894eb694cad562", "fusion_lat": 0.0, "type": "electric_bike", "lat": 38.90691616666667, "is_reserved": 0, "is_disabled": 0, "fusion_lon": 0.0, "bike_id": "8ff5877c2b5fb7011b894eb694cad562", "lon": -76.951878, "rental_uris": {"ios": "https://dc.lft.to/lastmile_qr_scan", "android": "https://dc.lft.to/lastmile_qr_scan"}}, {"name": "31366e77cb89a74bc6c1f9b424bfe0c1", "fusion_lat": 0.0, "type": "electric_scooter", "lat": 38.89851016666667, "is_reserved": 0, "is_disabled": 0, "fusion_lon": 0.0, "bike_id": "31366e77cb89a74bc6c1f9b424bfe0c1", "lon": -76.99030383333333, "rental_uris": {"ios": "https://dc.lft.to/lastmile_qr_scan", "android": "https://dc.lft.to/lastmile_qr_scan"}}, {"name": "e86a8622157363466654b378b1d94887", "fusion_lat": 0.0, "type": "electric_scooter", "lat": 38.914131, "is_reserved": 0, "is_disabled": 0, "fusion_lon": 0.0, "bike_id": "e86a8622157363466654b378b1d94887", "lon": -77.02411616666667, "rental_uris": {"ios": "https://dc.lft.to/lastmile_qr_scan", "android": "https://dc.lft.to/lastmile_qr_scan"}}, {"name": "ca3b746c977b26c8d1ce998c98a2a615", "fusion_lat": 0.0, "type": "electric_scooter", "lat": 38.898352, "is_reserved": 0, "is_disabled": 0, "fusion_lon": 0.0, "bike_id": "ca3b746c977b26c8d1ce998c98a2a615", "lon": -76.94567466666666, "rental_uris": {"ios": "https://dc.lft.to/lastmile_qr_scan", "android": "https://dc.lft.to/lastmile_qr_scan"}}, {"name": "5ba64605dd6919e0cee956818196f9b8", "fusion_lat": 0.0, "type": "electric_scooter", "lat": 38.931964, "is_reserved": 0, "is_disabled": 0, "fusion_lon": 0.0, "bike_id": "5ba64605dd6919e0cee956818196f9b8", "lon": -77.02785233333333, "rental_uris": {"ios": "https://dc.lft.to/lastmile_qr_scan", "android": "https://dc.lft.to/lastmile_qr_scan"}}, {"name": "620f83cbcc2df3ba024399c8be7c9ed4", "fusion_lat": 0.0, "type": "electric_scooter", "lat": 38.920341, "is_reserved": 0, "is_disabled": 0, "fusion_lon": 0.0, "bike_id": "620f83cbcc2df3ba024399c8be7c9ed4", "lon": -76.9780065, "rental_uris": {"ios": "https://dc.lft.to/lastmile_qr_scan", "android": "https://dc.lft.to/lastmile_qr_scan"}}, {"name": "5aff0b36430e597eb5e546d0c80e0a64", "fusion_lat": 0.0, "type": "electric_bike", "lat": 38.802248666666664, "is_reserved": 0, "is_disabled": 0, "fusion_lon": 0.0, "bike_id": "5aff0b36430e597eb5e546d0c80e0a64", "lon": -77.07911416666667, "rental_uris": {"ios": "https://dc.lft.to/lastmile_qr_scan", "android": "https://dc.lft.to/lastmile_qr_scan"}}, {"name": "dce3668691f7c1f9b3dcb08c5cc0ab74", "fusion_lat": 0.0, "type": "electric_scooter", "lat": 38.88655283333333, "is_reserved": 0, "is_disabled": 0, "fusion_lon": 0.0, "bike_id": "dce3668691f7c1f9b3dcb08c5cc0ab74", "lon": -77.01371883333333, "rental_uris": {"ios": "https://dc.lft.to/lastmile_qr_scan", "android": "https://dc.lft.to/lastmile_qr_scan"}}, {"name": "cc31ec9b774cd8b2a37e5f96fd8b4f98", "fusion_lat": 0.0, "type": "electric_scooter", "lat": 38.895338833333334, "is_reserved": 0, "is_disabled": 0, "fusion_lon": 0.0, "bike_id": "cc31ec9b774cd8b2a37e5f96fd8b4f98", "lon": -77.04290166666667, "rental_uris": {"ios": "https://dc.lft.to/lastmile_qr_scan", "android": "https://dc.lft.to/lastmile_qr_scan"}}, {"name": "b4ee8eb22eac865c9918618ecde19c42", "fusion_lat": 0.0, "type": "electric_scooter", "lat": 38.89801883333333, "is_reserved": 0, "is_disabled": 0, "fusion_lon": 0.0, "bike_id": "b4ee8eb22eac865c9918618ecde19c42", "lon": -76.99161733333334, "rental_uris": {"ios": "https://dc.lft.to/lastmile_qr_scan", "android": "https://dc.lft.to/lastmile_qr_scan"}}, {"name": "2eee4af473eb25235372bc678d2dac32", "fusion_lat": 0.0, "type": "electric_scooter", "lat": 38.9067375, "is_reserved": 0, "is_disabled": 0, "fusion_lon": 0.0, "bike_id": "2eee4af473eb25235372bc678d2dac32", "lon": -77.04886133333333, "rental_uris": {"ios": "https://dc.lft.to/lastmile_qr_scan", "android": "https://dc.lft.to/lastmile_qr_scan"}}, {"name": "264255cca425cb303370606adf74d0ef", "fusion_lat": 0.0, "type": "electric_scooter", "lat": 38.911888833333336, "is_reserved": 0, "is_disabled": 0, "fusion_lon": 0.0, "bike_id": "264255cca425cb303370606adf74d0ef", "lon": -77.0385515, "rental_uris": {"ios": "https://dc.lft.to/lastmile_qr_scan", "android": "https://dc.lft.to/lastmile_qr_scan"}}, {"name": "d006b4331c74805fa80fa40637636146", "fusion_lat": 0.0, "type": "electric_scooter", "lat": 38.9112875, "is_reserved": 0, "is_disabled": 0, "fusion_lon": 0.0, "bike_id": "d006b4331c74805fa80fa40637636146", "lon": -77.022013, "rental_uris": {"ios": "https://dc.lft.to/lastmile_qr_scan", "android": "https://dc.lft.to/lastmile_qr_scan"}}, {"name": "457d12d2555ca92fed3efb45800174e9", "fusion_lat": 0.0, "type": "electric_scooter", "lat": 38.878657833333335, "is_reserved": 0, "is_disabled": 0, "fusion_lon": 0.0, "bike_id": "457d12d2555ca92fed3efb45800174e9", "lon": -76.96525766666667, "rental_uris": {"ios": "https://dc.lft.to/lastmile_qr_scan", "android": "https://dc.lft.to/lastmile_qr_scan"}}, {"name": "6e95ddf586c53aa5dd58b9405fd55372", "fusion_lat": 0.0, "type": "electric_scooter", "lat": 38.9180625, "is_reserved": 0, "is_disabled": 0, "fusion_lon": 0.0, "bike_id": "6e95ddf586c53aa5dd58b9405fd55372", "lon": -77.0249425, "rental_uris": {"ios": "https://dc.lft.to/lastmile_qr_scan", "android": "https://dc.lft.to/lastmile_qr_scan"}}, {"name": "f7cf2ee5d10a54a0ddd8b264369cd44d", "fusion_lat": 0.0, "type": "electric_scooter", "lat": 38.90339216666667, "is_reserved": 0, "is_disabled": 0, "fusion_lon": 0.0, "bike_id": "f7cf2ee5d10a54a0ddd8b264369cd44d", "lon": -77.054386, "rental_uris": {"ios": "https://dc.lft.to/lastmile_qr_scan", "android": "https://dc.lft.to/lastmile_qr_scan"}}, {"name": "bc2a48fde7c4008eb904cc21f831d97f", "fusion_lat": 0.0, "type": "electric_scooter", "lat": 38.89520383333333, "is_reserved": 0, "is_disabled": 0, "fusion_lon": 0.0, "bike_id": "bc2a48fde7c4008eb904cc21f831d97f", "lon": -76.99213066666667, "rental_uris": {"ios": "https://dc.lft.to/lastmile_qr_scan", "android": "https://dc.lft.to/lastmile_qr_scan"}}, {"name": "53880abe16ba0152902e7a8452076f84", "fusion_lat": 0.0, "type": "electric_scooter", "lat": 38.898981166666665, "is_reserved": 0, "is_disabled": 0, "fusion_lon": 0.0, "bike_id": "53880abe16ba0152902e7a8452076f84", "lon": -77.03279166666667, "rental_uris": {"ios": "https://dc.lft.to/lastmile_qr_scan", "android": "https://dc.lft.to/lastmile_qr_scan"}}, {"name": "071810191255a3485f9ce20b4a25f21b", "fusion_lat": 0.0, "type": "electric_scooter", "lat": 38.9115405, "is_reserved": 0, "is_disabled": 0, "fusion_lon": 0.0, "bike_id": "071810191255a3485f9ce20b4a25f21b", "lon": -77.03207133333333, "rental_uris": {"ios": "https://dc.lft.to/lastmile_qr_scan", "android": "https://dc.lft.to/lastmile_qr_scan"}}, {"name": "27dceb5a00a746cf0134d0657f114add", "fusion_lat": 0.0, "type": "electric_scooter", "lat": 38.90028816666667, "is_reserved": 0, "is_disabled": 0, "fusion_lon": 0.0, "bike_id": "27dceb5a00a746cf0134d0657f114add", "lon": -77.04672533333333, "rental_uris": {"ios": "https://dc.lft.to/lastmile_qr_scan", "android": "https://dc.lft.to/lastmile_qr_scan"}}, {"name": "4276adc559e26e2a1ad0571af4bfed9b", "fusion_lat": 0.0, "type": "electric_scooter", "lat": 38.92263616666666, "is_reserved": 0, "is_disabled": 0, "fusion_lon": 0.0, "bike_id": "4276adc559e26e2a1ad0571af4bfed9b", "lon": -77.04132233333333, "rental_uris": {"ios": "https://dc.lft.to/lastmile_qr_scan", "android": "https://dc.lft.to/lastmile_qr_scan"}}, {"name": "bb2cd05c2ea639547a6728c0ac0b0424", "fusion_lat": 0.0, "type": "electric_scooter", "lat": 38.90038966666667, "is_reserved": 0, "is_disabled": 0, "fusion_lon": 0.0, "bike_id": "bb2cd05c2ea639547a6728c0ac0b0424", "lon": -76.9964545, "rental_uris": {"ios": "https://dc.lft.to/lastmile_qr_scan", "android": "https://dc.lft.to/lastmile_qr_scan"}}, {"name": "8b66bfc3b67047488ac58bbb5c55945a", "fusion_lat": 0.0, "type": "electric_bike", "lat": 38.863908, "is_reserved": 0, "is_disabled": 0, "fusion_lon": 0.0, "bike_id": "8b66bfc3b67047488ac58bbb5c55945a", "lon": -76.989908, "rental_uris": {"ios": "https://dc.lft.to/lastmile_qr_scan", "android": "https://dc.lft.to/lastmile_qr_scan"}}, {"name": "3332e31154e540320874d7594433d1bc", "fusion_lat": 0.0, "type": "electric_scooter", "lat": 38.908387833333336, "is_reserved": 0, "is_disabled": 0, "fusion_lon": 0.0, "bike_id": "3332e31154e540320874d7594433d1bc", "lon": -77.04340166666667, "rental_uris": {"ios": "https://dc.lft.to/lastmile_qr_scan", "android": "https://dc.lft.to/lastmile_qr_scan"}}, {"name": "01de86a4287d748fcc2be4b3c4f2d0e6", "fusion_lat": 0.0, "type": "electric_scooter", "lat": 38.898785333333336, "is_reserved": 0, "is_disabled": 0, "fusion_lon": 0.0, "bike_id": "01de86a4287d748fcc2be4b3c4f2d0e6", "lon": -76.93158883333334, "rental_uris": {"ios": "https://dc.lft.to/lastmile_qr_scan", "android": "https://dc.lft.to/lastmile_qr_scan"}}, {"name": "2032cdb7d28b8e5955fe308912a1e446", "fusion_lat": 0.0, "type": "electric_scooter", "lat": 38.91191666666667, "is_reserved": 0, "is_disabled": 0, "fusion_lon": 0.0, "bike_id": "2032cdb7d28b8e5955fe308912a1e446", "lon": -77.03967366666667, "rental_uris": {"ios": "https://dc.lft.to/lastmile_qr_scan", "android": "https://dc.lft.to/lastmile_qr_scan"}}, {"name": "8e653dc3ddcb5e3e08ac0a08c91713a1", "fusion_lat": 0.0, "type": "electric_scooter", "lat": 38.8742055, "is_reserved": 0, "is_disabled": 0, "fusion_lon": 0.0, "bike_id": "8e653dc3ddcb5e3e08ac0a08c91713a1", "lon": -76.97176616666667, "rental_uris": {"ios": "https://dc.lft.to/lastmile_qr_scan", "android": "https://dc.lft.to/lastmile_qr_scan"}}, {"name": "85ec04d853b07e5c9537d52903b17929", "fusion_lat": 0.0, "type": "electric_scooter", "lat": 38.9036455, "is_reserved": 0, "is_disabled": 0, "fusion_lon": 0.0, "bike_id": "85ec04d853b07e5c9537d52903b17929", "lon": -77.01103866666666, "rental_uris": {"ios": "https://dc.lft.to/lastmile_qr_scan", "android": "https://dc.lft.to/lastmile_qr_scan"}}, {"name": "7d7d79e78d08ed0263ac60d2d323b0c4", "fusion_lat": 0.0, "type": "electric_scooter", "lat": 38.900668833333334, "is_reserved": 0, "is_disabled": 0, "fusion_lon": 0.0, "bike_id": "7d7d79e78d08ed0263ac60d2d323b0c4", "lon": -77.0453645, "rental_uris": {"ios": "https://dc.lft.to/lastmile_qr_scan", "android": "https://dc.lft.to/lastmile_qr_scan"}}, {"name": "0d517d9df8f66a939ff9dd85326fee3a", "fusion_lat": 0.0, "type": "electric_scooter", "lat": 38.918441, "is_reserved": 0, "is_disabled": 0, "fusion_lon": 0.0, "bike_id": "0d517d9df8f66a939ff9dd85326fee3a", "lon": -77.02598616666667, "rental_uris": {"ios": "https://dc.lft.to/lastmile_qr_scan", "android": "https://dc.lft.to/lastmile_qr_scan"}},