{"data": {"bikes": [{"name": "0adf29534050dd8002de6b7f1c84279a", "is_disabled": 0, "fusion_lat": 0.0, "fusion_lon": 0.0, "type": "electric_scooter", "lat": 38.905762, "bike_id": "0adf29534050dd8002de6b7f1c84279a", "is_reserved": 0, "lon": -77.00884916666666, "rental_uris": {"android": "https://dc.lft.to/lastmile_qr_scan", "ios": "https://dc.lft.to/lastmile_qr_scan"}}, {"name": "6681b2242a29099fd9174b8e89aa26f2", "is_disabled": 0, "fusion_lat": 0.0, "fusion_lon": 0.0, "type": "electric_scooter", "lat": 38.911481, "bike_id": "6681b2242a29099fd9174b8e89aa26f2", "is_reserved": 0, "lon": -77.00439166666666, "rental_uris": {"android": "https://dc.lft.to/lastmile_qr_scan", "ios": "https://dc.lft.to/lastmile_qr_scan"}}, {"name": "6a793221be637eb94644cc280e6971ab", "is_disabled": 0, "fusion_lat": 0.0, "fusion_lon": 0.0, "type": "electric_scooter", "lat": 38.880504333333334, "bike_id": "6a793221be637eb94644cc280e6971ab", "is_reserved": 0, "lon": -77.00564116666666, "rental_uris": {"android": "https://dc.lft.to/lastmile_qr_scan", "ios": "https://dc.lft.to/lastmile_qr_scan"}}, {"name": "a33b46c4b04252af94efc4cb31c2a11f", "is_disabled": 0, "fusion_lat": 0.0, "fusion_lon": 0.0, "type": "electric_scooter", "lat": 38.900581833333334, "bike_id": "a33b46c4b04252af94efc4cb31c2a11f", "is_reserved": 0, "lon": -77.04833766666667, "rental_uris": {"android": "https://dc.lft.to/lastmile_qr_scan", "ios": "https://dc.lft.to/lastmile_qr_scan"}}, {"name": "a249c60f7ac4e5832c17814d53734e4d", "is_disabled": 0, "fusion_lat": 0.0, "fusion_lon": 0.0, "type": "electric_scooter", "lat": 38.90850066666667, "bike_id": "a249c60f7ac4e5832c17814d53734e4d", "is_reserved": 0, "lon": -77.040428, "rental_uris": {"android": "https://dc.lft.to/lastmile_qr_scan", "ios": "https://dc.lft.to/lastmile_qr_scan"}}, {"name": "7fbc6859947bb1cccc0af93a4d5ef2b2", "is_disabled": 0, "fusion_lat": 0.0, "fusion_lon": 0.0, "type": "electric_scooter", "lat": 38.91924016666667, "bike_id": "7fbc6859947bb1cccc0af93a4d5ef2b2", "is_reserved": 0, "lon": -77.02426, "rental_uris": {"android": "https://dc.lft.to/lastmile_qr_scan", "ios": "https://dc.lft.to/lastmile_qr_scan"}}, {"name": "13de8cfab15ad1ec28ac58a428965e5c", "is_disabled": 0, "fusion_lat": 0.0, "fusion_lon": 0.0, "type": "electric_scooter", "lat": 38.904122666666666, "bike_id": "13de8cfab15ad1ec28ac58a428965e5c", "is_reserved": 0, "lon": -77.05323766666666, "rental_uris": {"android": "https://dc.lft.to/lastmile_qr_scan", "ios": "https://dc.lft.to/lastmile_qr_scan"}}, {"name": "ae6372c19b48f5b118a643aaa42e2aa7", "is_disabled": 0, "fusion_lat": 0.0, "fusion_lon": 0.0, "type": "electric_scooter", "lat": 38.91682266666667, "bike_id": "ae6372c19b48f5b118a643aaa42e2aa7", "is_reserved": 0, "lon": -77.02970216666667, "rental_uris": {"android": "https://dc.lft.to/lastmile_qr_scan", "ios": "https://dc.lft.to/lastmile_qr_scan"}}, {"name": "5e5aabf18489df3575305489aaac09d8", "is_disabled": 0, "fusion_lat": 0.0, "fusion_lon": 0.0, "type": "electric_scooter", "lat": 38.9046475, "bike_id": "5e5aabf18489df3575305489aaac09d8", "is_reserved": 0, "lon": -77.03257516666666, "rental_uris": {"android": "https://dc.lft.to/lastmile_qr_scan", "ios": "https://dc.lft.to/lastmile_qr_scan"}}, {"name": "fb1aa8d829c83b439d0ba6535dfff0b3", "is_disabled": 0, "fusion_lat": 0.0, "fusion_lon": 0.0, "type": "electric_scooter", "lat": 38.91794433333333, "bike_id": "fb1aa8d829c83b439d0ba6535dfff0b3", "is_reserved": 0, "lon": -77.022924, "rental_uris": {"android": "https://dc.lft.to/lastmile_qr_scan", "ios": "https://dc.lft.to/lastmile_qr_scan"}}, {"name": "ffd9bb3f51dcbb179cc40d08260296ec", "is_disabled": 0, "fusion_lat": 0.0, "fusion_lon": 0.0, "type": "electric_scooter", "lat": 38.9052175, "bike_id": "ffd9bb3f51dcbb179cc40d08260296ec", "is_reserved": 0, "lon": -77.06382016666667, "rental_uris": {"android": "https://dc.lft.to/lastmile_qr_scan", "ios": "https://dc.lft.to/lastmile_qr_scan"}}, {"name": "7f8b5c57d8eff7ff5cd3c3e837824662", "is_disabled": 0, "fusion_lat": 0.0, "fusion_lon": 0.0, "type": "electric_scooter", "lat": 38.91172816666667, "bike_id": "7f8b5c57d8eff7ff5cd3c3e837824662", "is_reserved": 0, "lon": -77.04446683333333, "rental_uris": {"android": "https://dc.lft.to/lastmile_qr_scan", "ios": "https://dc.lft.to/lastmile_qr_scan"}}, {"name": "da9862113a6d475a2c10b602748f37b4", "is_disabled": 0, "fusion_lat": 0.0, "fusion_lon": 0.0, "type": "electric_scooter", "lat": 38.900920666666664, "bike_id": "da9862113a6d475a2c10b602748f37b4", "is_reserved": 0, "lon": -77.0506855, "rental_uris": {"android": "https://dc.lft.to/lastmile_qr_scan", "ios": "https://dc.lft.to/lastmile_qr_scan"}}, {"name": "f09d6000abce00595fa9c5fb136ef4e4", "is_disabled": 0, "fusion_lat": 0.0, "fusion_lon": 0.0, "type": "electric_scooter", "lat": 38.916903833333336, "bike_id": "f09d6000abce00595fa9c5fb136ef4e4", "is_reserved": 0, "lon": -77.02595, "rental_uris": {"android": "https://dc.lft.to/lastmile_qr_scan", "ios": "https://dc.lft.to/lastmile_qr_scan"}}, {"name": "13c370531abbe94576103c1bf653fb71", "is_disabled": 0, "fusion_lat": 0.0, "fusion_lon": 0.0, "type": "electric_scooter", "lat": 38.90692683333333, "bike_id": "13c370531abbe94576103c1bf653fb71", "is_reserved": 0, "lon": -77.04342616666666, "rental_uris": {"android": "https://dc.lft.to/lastmile_qr_scan", "ios": "https://dc.lft.to/lastmile_qr_scan"}}, {"name": "6d12a1a767db1a98afe2141453ebb3a9", "is_disabled": 0, "fusion_lat": 0.0, "fusion_lon": 0.0, "type": "electric_scooter", "lat": 38.923191333333335, "bike_id": "6d12a1a767db1a98afe2141453ebb3a9", "is_reserved": 0, "lon": -76.998934, "rental_uris": {"android": "https://dc.lft.to/lastmile_qr_scan", "ios": "https://dc.lft.to/lastmile_qr_scan"}}, {"name": "01c510eee95cd4abac504a568deeeede", "is_disabled": 0, "fusion_lat": 0.0, "fusion_lon": 0.0, "type": "electric_scooter", "lat": 38.88022616666667, "bike_id": "01c510eee95cd4abac504a568deeeede", "is_reserved": 0, "lon": -76.98478316666667, "rental_uris": {"android": "https://dc.lft.to/lastmile_qr_scan", "ios": "https://dc.lft.to/lastmile_qr_scan"}}, {"name": "06876fefab54b2cde0f494aeecbfd9c2", "is_disabled": 0, "fusion_lat": 0.0, "fusion_lon": 0.0, "type": "electric_bike", "lat": 38.882421666666666, "bike_id": "06876fefab54b2cde0f494aeecbfd9c2", "is_reserved": 0, "lon": -76.962547, "rental_uris": {"android": "https://dc.lft.to/lastmile_qr_scan", "ios": "https://dc.lft.to/lastmile_qr_scan"}}, {"name": "e645794a560e706f18b5173f41adb284", "is_disabled": 0, "fusion_lat": 0.0, "fusion_lon": 0.0, "type": "electric_bike", "lat": 38.92913033333333, "bike_id": "e645794a560e706f18b5173f41adb284", "is_reserved": 0, "lon": -77.03253816666667, "rental_uris": {"android": "https://dc.lft.to/lastmile_qr_scan", "ios": "https://dc.lft.to/lastmile_qr_scan"}}, {"name": "b75ba045e83fd7b0f5881c407797c5b5", "is_disabled": 0, "fusion_lat": 0.0, "fusion_lon": 0.0, "type": "electric_scooter", "lat": 38.880596833333335, "bike_id": "b75ba045e83fd7b0f5881c407797c5b5", "is_reserved": 0, "lon": -76.93213966666667, "rental_uris": {"android": "https://dc.lft.to/lastmile_qr_scan", "ios": "https://dc.lft.to/lastmile_qr_scan"}}, {"name": "59d7b52173f30c17a19ed3e5b85a6ff4", "is_disabled": 0, "fusion_lat": 0.0, "fusion_lon": 0.0, "type": "electric_scooter", "lat": 38.903167, "bike_id": "59d7b52173f30c17a19ed3e5b85a6ff4", "is_reserved": 0, "lon": -77.01905216666667, "rental_uris": {"android": "https://dc.lft.to/lastmile_qr_scan", "ios": "https://dc.lft.to/lastmile_qr_scan"}}, {"name": "06941988b39147cb563337cc28384602", "is_disabled": 0, "fusion_lat": 0.0, "fusion_lon": 0.0, "type": "electric_scooter", "lat": 38.892191333333336, "bike_id": "06941988b39147cb563337cc28384602", "is_reserved": 0, "lon": -77.02229, "rental_uris": {"android": "https://dc.lft.to/lastmile_qr_scan", "ios": "https://dc.lft.to/lastmile_qr_scan"}}, {"name": "444311ef15bc17247284965301bb3254", "is_disabled": 0, "fusion_lat": 0.0, "fusion_lon": 0.0, "type": "electric_scooter", "lat": 38.914842666666665, "bike_id": "444311ef15bc17247284965301bb3254", "is_reserved": 0, "lon": -77.04155266666666, "rental_uris": {"android": "https://dc.lft.to/lastmile_qr_scan", "ios": "https://dc.lft.to/lastmile_qr_scan"}}, {"name": "b948ccc8a040bf524a8d5b018443381d", "is_disabled": 0, "fusion_lat": 0.0, "fusion_lon": 0.0, "type": "electric_scooter", "lat": 38.90373566666667, "bike_id": "b948ccc8a040bf524a8d5b018443381d", "is_reserved": 0, "lon": -77.04576866666666, "rental_uris": {"android": "https://dc.lft.to/lastmile_qr_scan", "ios": "https://dc.lft.to/lastmile_qr_scan"}}, {"name": "ba67e389a91ec64723adddc5ea335320", "is_disabled": 0, "fusion_lat": 0.0, "fusion_lon": 0.0, "type": "electric_scooter", "lat": 38.90716116666667, "bike_id": "ba67e389a91ec64723adddc5ea335320", "is_reserved": 0, "lon": -77.00335366666667, "rental_uris": {"android": "https://dc.lft.to/lastmile_qr_scan", "ios": "https://dc.lft.to/lastmile_qr_scan"}}, {"name": "ec7ae1a046fc15ffc8b2139723e928ce", "is_disabled": 0, "fusion_lat": 0.0, "fusion_lon": 0.0, "type": "electric_scooter", "lat": 38.879863666666665, "bike_id": "ec7ae1a046fc15ffc8b2139723e928ce", "is_reserved": 0, "lon": -77.024088, "rental_uris": {"android": "https://dc.lft.to/lastmile_qr_scan", "ios": "https://dc.lft.to/lastmile_qr_scan"}}, {"name": "5dff3f77df6358e2ba0e374def266991", "is_disabled": 0, "fusion_lat": 0.0, "fusion_lon": 0.0, "type": "electric_scooter", "lat": 38.908558166666666, "bike_id": "5dff3f77df6358e2ba0e374def266991", "is_reserved": 0, "lon": -77.04262266666667, "rental_uris": {"android": "https://dc.lft.to/lastmile_qr_scan", "ios": "https://dc.lft.to/lastmile_qr_scan"}}, {"name": "499f7da105a635fb43c47f854f0941c3", "is_disabled": 0, "fusion_lat": 0.0, "fusion_lon": 0.0, "type": "electric_bike", "lat": 38.95171966666667, "bike_id": "499f7da105a635fb43c47f854f0941c3", "is_reserved": 0, "lon": -76.97730816666666, "rental_uris": {"android": "https://dc.lft.to/lastmile_qr_scan", "ios": "https://dc.lft.to/lastmile_qr_scan"}}, {"name": "89a0c7ec9a84038d09246e7961ae44bd", "is_disabled": 0, "fusion_lat": 0.0, "fusion_lon": 0.0, "type": "electric_scooter", "lat": 38.93446083333333, "bike_id": "89a0c7ec9a84038d09246e7961ae44bd", "is_reserved": 0, "lon": -76.99879533333333, "rental_uris": {"android": "https://dc.lft.to/lastmile_qr_scan", "ios": "https://dc.lft.to/lastmile_qr_scan"}}, {"name": "42f0ebc9439f756616e544887f209ada", "is_disabled": 0, "fusion_lat": 0.0, "fusion_lon": 0.0, "type": "electric_scooter", "lat": 38.90265816666667, "bike_id": "42f0ebc9439f756616e544887f209ada", "is_reserved": 0, "lon": -77.03429133333333, "rental_uris": {"android": "https://dc.lft.to/lastmile_qr_scan", "ios": "https://dc.lft.to/lastmile_qr_scan"}}, {"name": "492769d3bebc39bea98d788fde815ecf", "is_disabled": 0, "fusion_lat": 0.0, "fusion_lon": 0.0, "type": "electric_scooter", "lat": 38.892226666666666, "bike_id": "492769d3bebc39bea98d788fde815ecf", "is_reserved": 0, "lon": -77.02631016666666, "rental_uris": {"android": "https://dc.lft.to/lastmile_qr_scan", "ios": "https://dc.lft.to/lastmile_qr_scan"}}, {"name": "43b966d6535582a487279781ec8ab8d5", "is_disabled": 0, "fusion_lat": 0.0, "fusion_lon": 0.0, "type": "electric_bike", "lat": 38.9627465, "bike_id": "43b966d6535582a487279781ec8ab8d5", "is_reserved": 0, "lon": -77.014587, "rental_uris": {"android": "https://dc.lft.to/lastmile_qr_scan", "ios": "https://dc.lft.to/lastmile_qr_scan"}}, {"name": "69e2321b2f150de8a75aa1ee08a66f4e", "is_disabled": 0, "fusion_lat": 0.0, "fusion_lon": 0.0, "type": "electric_scooter", "lat": 38.922842, "bike_id": "69e2321b2f150de8a75aa1ee08a66f4e", "is_reserved": 0, "lon": -77.04272816666666, "rental_uris": {"android": "https://dc.lft.to/lastmile_qr_scan", "ios": "https://dc.lft.to/lastmile_qr_scan"}}, {"name": "4e2dfacb98ec2e97a9201ce0cbdef5b8", "is_disabled": 0, "fusion_lat": 0.0, "fusion_lon": 0.0, "type": "electric_scooter", "lat": 38.90067916666667, "bike_id": "4e2dfacb98ec2e97a9201ce0cbdef5b8", "is_reserved": 0, "lon": -76.94691216666666, "rental_uris": {"android": "https://dc.lft.to/lastmile_qr_scan", "ios": "https://dc.lft.to/lastmile_qr_scan"}}, {"name": "518b66294323bbcdba4cf61423096995", "is_disabled": 0, "fusion_lat": 0.0, "fusion_lon": 0.0, "type": "electric_scooter", "lat": 38.90051733333333, "bike_id": "518b66294323bbcdba4cf61423096995", "is_reserved": 0, "lon": -77.04336883333333, "rental_uris": {"android": "https://dc.lft.to/lastmile_qr_scan", "ios": "https://dc.lft.to/lastmile_qr_scan"}}, {"name": "8f2482f5f900b0d8d4bc9f03d679a5ec", "is_disabled": 0, "fusion_lat": 0.0, "fusion_lon": 0.0, "type": "electric_scooter", "lat": 38.92866716666666, "bike_id": "8f2482f5f900b0d8d4bc9f03d679a5ec", "is_reserved": 0, "lon": -77.01368133333334, "rental_uris": {"android": "https://dc.lft.to/lastmile_qr_scan", "ios": "https://dc.lft.to/lastmile_qr_scan"}}, {"name": "5a9e7d6f434dd19fcda311608789b192", "is_disabled": 0, "fusion_lat": 0.0, "fusion_lon": 0.0, "type": "electric_bike", "lat": 38.967866, "bike_id": "5a9e7d6f434dd19fcda311608789b192", "is_reserved": 0, "lon": -77.0004745, "rental_uris": {"android": "https://dc.lft.to/lastmile_qr_scan", "ios": "https://dc.lft.to/lastmile_qr_scan"}}, {"name": "c46872dbb3f8825a6b81201edc6dca6a", "is_disabled": 0, "fusion_lat": 0.0, "fusion_lon": 0.0, "type": "electric_scooter", "lat": 38.89522616666667, "bike_id": "c46872dbb3f8825a6b81201edc6dca6a", "is_reserved": 0, "lon": -77.00337666666667, "rental_uris": {"android": "https://dc.lft.to/lastmile_qr_scan", "ios": "https://dc.lft.to/lastmile_qr_scan"}}, {"name": "d56f4b012c369c40218d04ff3f38ce0f", "is_disabled": 0, "fusion_lat": 0.0, "fusion_lon": 0.0, "type": "electric_scooter", "lat": 38.93537233333333, "bike_id": "d56f4b012c369c40218d04ff3f38ce0f", "is_reserved": 0, "lon": -77.02347466666667, "rental_uris": {"android": "https://dc.lft.to/lastmile_qr_scan", "ios": "https://dc.lft.to/lastmile_qr_scan"}}, {"name": "78626835a79186f1f64de258a9225a8a", "is_disabled": 0, "fusion_lat": 0.0, "fusion_lon": 0.0, "type": "electric_scooter", "lat": 38.918370333333336, "bike_id": "78626835a79186f1f64de258a9225a8a", "is_reserved": 0, "lon": -77.041605, "rental_uris": {"android": "https://dc.lft.to/lastmile_qr_scan", "ios": "https://dc.lft.to/lastmile_qr_scan"}}, {"name": "477ea3636e9471c30fccd112fb10e507", "is_disabled": 0, "fusion_lat": 0.0, "fusion_lon": 0.0, "type": "electric_scooter", "lat": 38.89168933333333, "bike_id": "477ea3636e9471c30fccd112fb10e507", "is_reserved": 0, "lon": -77.01551083333334, "rental_uris": {"android": "https://dc.lft.to/lastmile_qr_scan", "ios": "https://dc.lft.to/lastmile_qr_scan"}}, {"name": "119d7eb194de85cd05012eba4c89ebe4", "is_disabled": 0, "fusion_lat": 0.0, "fusion_lon": 0.0, "type": "electric_scooter", "lat": 38.90163583333333, "bike_id": "119d7eb194de85cd05012eba4c89ebe4", "is_reserved": 0, "lon": -76.9800945, "rental_uris": {"android": "https://dc.lft.to/lastmile_qr_scan", "ios": "https://dc.lft.to/lastmile_qr_scan"}}, {"name": "d247ad0ace90fe30cf52cc2511cdaeb1", "is_disabled": 0, "fusion_lat": 0.0, "fusion_lon": 0.0, "type": "electric_scooter", "lat": 38.9176485, "bike_id": "d247ad0ace90fe30cf52cc2511cdaeb1", "is_reserved": 0, "lon": -77.04059766666667, "rental_uris": {"android": "https://dc.lft.to/lastmile_qr_scan", "ios": "https://dc.lft.to/lastmile_qr_scan"}}, {"name": "8dc00510a75ea48e32453f3cc31a6fa3", "is_disabled": 0, "fusion_lat": 0.0, "fusion_lon": 0.0, "type": "electric_scooter", "lat": 38.921843, "bike_id": "8dc00510a75ea48e32453f3cc31a6fa3", "is_reserved": 0, "lon": -77.04261683333333, "rental_uris": {"android": "https://dc.lft.to/lastmile_qr_scan", "ios": "https://dc.lft.to/lastmile_qr_scan"}}, {"name": "3a059797c5c14235188cdf30cf1aee71", "is_disabled": 0, "fusion_lat": 0.0, "fusion_lon": 0.0, "type": "electric_scooter", "lat": 38.901416166666664, "bike_id": "3a059797c5c14235188cdf30cf1aee71", "is_reserved": 0, "lon": -77.02717383333334, "rental_uris": {"android": "https://dc.lft.to/lastmile_qr_scan", "ios": "https://dc.lft.to/lastmile_qr_scan"}}, {"name": "489ad7c907a21dc724b6abaa1da60bd3", "is_disabled": 0, "fusion_lat": 0.0, "fusion_lon": 0.0, "type": "electric_scooter", "lat": 38.90324966666667, "bike_id": "489ad7c907a21dc724b6abaa1da60bd3", "is_reserved": 0, "lon": -77.0382665, "rental_uris": {"android": "https://dc.lft.to/lastmile_qr_scan", "ios": "https://dc.lft.to/lastmile_qr_scan"}}, {"name": "7b9c84abd05014a8a20d0a9c846b7beb", "is_disabled": 0, "fusion_lat": 0.0, "fusion_lon": 0.0, "type": "electric_scooter", "lat": 38.911013833333335, "bike_id": "7b9c84abd05014a8a20d0a9c846b7beb", "is_reserved": 0, "lon": -77.04498033333333, "rental_uris": {"android": "https://dc.lft.to/lastmile_qr_scan", "ios": "https://dc.lft.to/lastmile_qr_scan"}}, {"name": "5f9829a20200e3ffe6f25340a32ccc58", "is_disabled": 0, "fusion_lat": 0.0, "fusion_lon": 0.0, "type": "electric_scooter", "lat": 38.88607783333333, "bike_id": "5f9829a20200e3ffe6f25340a32ccc58", "is_reserved": 0, "lon": -76.99512916666667, "rental_uris": {"android": "https://dc.lft.to/lastmile_qr_scan", "ios": "https://dc.lft.to/lastmile_qr_scan"}}, {"name": "71d24ca20de1c542ddc529006f2cabeb", "is_disabled": 0, "fusion_lat": 0.0, "fusion_lon": 0.0, "type": "electric_bike", "lat": 38.9673485, "bike_id": "71d24ca20de1c542ddc529006f2cabeb", "is_reserved": 0, "lon": -76.96045883333333, "rental_uris": {"android": "https://dc.lft.to/lastmile_qr_scan", "ios": "https://dc.lft.to/lastmile_qr_scan"}}, {"name": "37af832a46172a5412118483d553a283", "is_disabled": 0, "fusion_lat": 0.0, "fusion_lon": 0.0, "type": "electric_bike", "lat": 38.8965385, "bike_id": "37af832a46172a5412118483d553a283", "is_reserved": 0, "lon": -76.93013533333334, "rental_uris": {"android": "https://dc.lft.to/lastmile_qr_scan", "ios": "https://dc.lft.to/lastmile_qr_scan"}}, {"name": "05956a8400e7c8356b03257ddf7217e7", "is_disabled": 0, "fusion_lat": 0.0, "fusion_lon": 0.0, "type": "electric_scooter", "lat": 38.918143666666666, "bike_id": "05956a8400e7c8356b03257ddf7217e7", "is_reserved": 0, "lon": -77.036894, "rental_uris": {"android": "https://dc.lft.to/lastmile_qr_scan", "ios": "https://dc.lft.to/lastmile_qr_scan"}}, {"name": "de292a05ee2dda3d0c2c27b1bc2e7384", "is_disabled": 0, "fusion_lat": 0.0, "fusion_lon": 0.0, "type": "electric_scooter", "lat": 38.928339333333334, "bike_id": "de292a05ee2dda3d0c2c27b1bc2e7384", "is_reserved": 0, "lon": -77.03705816666667, "rental_uris": {"android": "https://dc.lft.to/lastmile_qr_scan", "ios": "https://dc.lft.to/lastmile_qr_scan"}}, {"name": "13a1956ba2b70bc77273bfe08a7848af", "is_disabled": 0, "fusion_lat": 0.0, "fusion_lon": 0.0, "type": "electric_scooter", "lat": 38.92259333333333, "bike_id": "13a1956ba2b70bc77273bfe08a7848af", "is_reserved": 0, "lon": -77.01824183333333, "rental_uris": {"android": "https://dc.lft.to/lastmile_qr_scan", "ios": "https://dc.lft.to/lastmile_qr_scan"}}, {"name": "ab5ee67f35b2425b1bf13d9a7cdd5723", "is_disabled": 0, "fusion_lat": 0.0, "fusion_lon": 0.0, "type": "electric_scooter", "lat": 38.9297755, "bike_id": "ab5ee67f35b2425b1bf13d9a7cdd5723", "is_reserved": 0, "lon": -77.01449883333333, "rental_uris": {"android": "https://dc.lft.to/lastmile_qr_scan", "ios": "https://dc.lft.to/lastmile_qr_scan"}}, {"name": "8fa7b3c4e5e259c7d6dc7e6ba84d9414", "is_disabled": 0, "fusion_lat": 0.0, "fusion_lon": 0.0, "type": "electric_scooter", "lat": 38.920431666666666, "bike_id": "8fa7b3c4e5e259c7d6dc7e6ba84d9414", "is_reserved": 0, "lon": -77.02575933333334, "rental_uris": {"android": "https://dc.lft.to/lastmile_qr_scan", "ios": "https://dc.lft.to/lastmile_qr_scan"}}, {"name": "217fa200092a2eafa32974d1af9f3749", "is_disabled": 0, "fusion_lat": 0.0, "fusion_lon": 0.0, "type": "electric_scooter", "lat": 38.90967916666666, "bike_id": "217fa200092a2eafa32974d1af9f3749", "is_reserved": 0, "lon": -77.034183, "rental_uris": {"android": "https://dc.lft.to/lastmile_qr_scan", "ios": "https://dc.lft.to/lastmile_qr_scan"}}, {"name": "3e713f56c14c2a01799e8d37c235957e", "is_disabled": 0, "fusion_lat": 0.0, "fusion_lon": 0.0, "type": "electric_scooter", "lat": 38.89178583333333, "bike_id": "3e713f56c14c2a01799e8d37c235957e", "is_reserved": 0, "lon": -76.91196266666667, "rental_uris": {"android": "https://dc.lft.to/lastmile_qr_scan", "ios": "https://dc.lft.to/lastmile_qr_scan"}}, {"name": "24db715a2390069e25dbaf000b5fdc93", "is_disabled": 0, "fusion_lat": 0.0, "fusion_lon": 0.0, "type": "electric_scooter", "lat": 38.91713983333333, "bike_id": "24db715a2390069e25dbaf000b5fdc93", "is_reserved": 0, "lon": -77.03858383333333, "rental_uris": {"android": "https://dc.lft.to/lastmile_qr_scan", "ios": "https://dc.lft.to/lastmile_qr_scan"}}, {"name": "c39e78d5803e3df075556f54c94e5726", "is_disabled": 0, "fusion_lat": 0.0, "fusion_lon": 0.0, "type": "electric_scooter", "lat": 38.900948666666665, "bike_id": "c39e78d5803e3df075556f54c94e5726", "is_reserved": 0, "lon": -77.04359083333334, "rental_uris": {"android": "https://dc.lft.to/lastmile_qr_scan", "ios": "https://dc.lft.to/lastmile_qr_scan"}}, {"name": "b42ef745bd38b322b57043338017791e", "is_disabled": 0, "fusion_lat": 0.0, "fusion_lon": 0.0, "type": "electric_scooter", "lat": 38.91467266666667, "bike_id": "b42ef745bd38b322b57043338017791e", "is_reserved": 0, "lon": -77.02086683333333, "rental_uris": {"android": "https://dc.lft.to/lastmile_qr_scan", "ios": "https://dc.lft.to/lastmile_qr_scan"}}, {"name": "e8888b403fec12543fb624e45630e05f", "is_disabled": 0, "fusion_lat": 0.0, "fusion_lon": 0.0, "type": "electric_scooter", "lat": 38.9128035, "bike_id": "e8888b403fec12543fb624e45630e05f", "is_reserved": 0, "lon": -77.04509216666666, "rental_uris": {"android": "https://dc.lft.to/lastmile_qr_scan", "ios": "https://dc.lft.to/lastmile_qr_scan"}}, {"name": "b8127c77181803ed1f504747e5855909", "is_disabled": 0, "fusion_lat": 0.0, "fusion_lon": 0.0, "type": "electric_scooter", "lat": 38.87166, "bike_id": "b8127c77181803ed1f504747e5855909", "is_reserved": 0, "lon": -76.9774655, "rental_uris": {"android": "https://dc.lft.to/lastmile_qr_scan", "ios": "https://dc.lft.to/lastmile_qr_scan"}}, {"name": "5fc4124a89e71c2c4ee86a92ec0046f4", "is_disabled": 0, "fusion_lat": 0.0, "fusion_lon": 0.0, "type": "electric_scooter", "lat": 38.90583316666667, "bike_id": "5fc4124a89e71c2c4ee86a92ec0046f4", "is_reserved": 0, "lon": -77.02216216666666, "rental_uris": {"android": "https://dc.lft.to/lastmile_qr_scan", "ios": "https://dc.lft.to/lastmile_qr_scan"}}, {"name": "82d3bb36c4e7c06d6499d9bedae8150a", "is_disabled": 0, "fusion_lat": 0.0, "fusion_lon": 0.0, "type": "electric_scooter", "lat": 38.84994116666667, "bike_id": "82d3bb36c4e7c06d6499d9bedae8150a", "is_reserved": 0, "lon": -76.98344183333333, "rental_uris": {"android": "https://dc.lft.to/lastmile_qr_scan", "ios": "https://dc.lft.to/lastmile_qr_scan"}}, {"name": "a551a4f3e011a49a3cd4ca92298a255d", "is_disabled": 0, "fusion_lat": 0.0, "fusion_lon": 0.0, "type": "electric_scooter", "lat": 38.90896266666667, "bike_id": "a551a4f3e011a49a3cd4ca92298a255d", "is_reserved": 0, "lon": -76.99857233333333, "rental_uris": {"android": "https://dc.lft.to/lastmile_qr_scan", "ios": "https://dc.lft.to/lastmile_qr_scan"}}, {"name": "2fe064573937a5c92d561b66ee667369", "is_disabled": 0, "fusion_lat": 0.0, "fusion_lon": 0.0, "type": "electric_scooter", "lat": 38.9216685, "bike_id": "2fe064573937a5c92d561b66ee667369", "is_reserved": 0, "lon": -77.03212183333333, "rental_uris": {"android": "https://dc.lft.to/lastmile_qr_scan", "ios": "https://dc.lft.to/lastmile_qr_scan"}}, {"name": "9310e4121f68eb23c89d4df95a6e163b", "is_disabled": 0, "fusion_lat": 0.0, "fusion_lon": 0.0, "type": "electric_scooter", "lat": 38.902356833333336, "bike_id": "9310e4121f68eb23c89d4df95a6e163b", "is_reserved": 0, "lon": -77.0391465, "rental_uris": {"android": "https://dc.lft.to/lastmile_qr_scan", "ios": "https://dc.lft.to/lastmile_qr_scan"}}, {"name": "9d64b29c58b5745a50a775fcc50d11e6", "is_disabled": 0, "fusion_lat": 0.0, "fusion_lon": 0.0, "type": "electric_bike", "lat": 38.862072833333336, "bike_id": "9d64b29c58b5745a50a775fcc50d11e6", "is_reserved": 0, "lon": -76.99561783333333, "rental_uris": {"android": "https://dc.lft.to/lastmile_qr_scan", "ios": "https://dc.lft.to/lastmile_qr_scan"}}, {"name": "233962f4ab04cbaf5948ba7d5dc4b7ea", "is_disabled": 0, "fusion_lat": 0.0, "fusion_lon": 0.0, "type": "electric_scooter", "lat": 38.9018365, "bike_id": "233962f4ab04cbaf5948ba7d5dc4b7ea", "is_reserved": 0, "lon": -76.933655, "rental_uris": {"android": "https://dc.lft.to/lastmile_qr_scan", "ios": "https://dc.lft.to/lastmile_qr_scan"}}, {"name": "84ed455f756e5692cecca3e30082bcb1", "is_disabled": 0, "fusion_lat": 0.0, "fusion_lon": 0.0, "type": "electric_scooter", "lat": 38.91950666666666, "bike_id": "84ed455f756e5692cecca3e30082bcb1", "is_reserved": 0, "lon": -77.023884, "rental_uris": {"android": "https://dc.lft.to/lastmile_qr_scan", "ios": "https://dc.lft.to/lastmile_qr_scan"}}, {"name": "ab31a350e8e840a75a655fe26f785658", "is_disabled": 0, "fusion_lat": 0.0, "fusion_lon": 0.0, "type": "electric_scooter", "lat": 38.8584815, "bike_id": "ab31a350e8e840a75a655fe26f785658", "is_reserved": 0, "lon": -76.985645, "rental_uris": {"android": "https://dc.lft.to/lastmile_qr_scan", "ios": "https://dc.lft.to/lastmile_qr_scan"}}, {"name": "8504ba036c8989e82eb16e6322ee6de1", "is_disabled": 0, "fusion_lat": 0.0, "fusion_lon": 0.0, "type": "electric_scooter", "lat": 38.900108333333336, "bike_id": "8504ba036c8989e82eb16e6322ee6de1", "is_reserved": 0, "lon": -77.0068005, "rental_uris": {"android": "https://dc.lft.to/lastmile_qr_scan", "ios": "https://dc.lft.to/lastmile_qr_scan"}}, {"name": "ed05620c90aabea8b70a2738cfd906d2", "is_disabled": 0, "fusion_lat": 0.0, "fusion_lon": 0.0, "type": "electric_scooter", "lat": 38.91552333333333, "bike_id": "ed05620c90aabea8b70a2738cfd906d2", "is_reserved": 0, "lon": -77.03166266666666, "rental_uris": {"android": "https://dc.lft.to/lastmile_qr_scan", "ios": "https://dc.lft.to/lastmile_qr_scan"}}, {"name": "ddf61194823496044ff7baf9579a7bdb", "is_disabled": 0, "fusion_lat": 0.0, "fusion_lon": 0.0, "type": "electric_scooter", "lat": 38.91102716666666, "bike_id": "ddf61194823496044ff7baf9579a7bdb", "is_reserved": 0, "lon": -77.04464533333334, "rental_uris": {"android": "https://dc.lft.to/lastmile_qr_scan", "ios": "https://dc.lft.to/lastmile_qr_scan"}}, {"name": "813caab2ec104333f7bfef48fa344cb4", "is_disabled": 0, "fusion_lat": 0.0, "fusion_lon": 0.0, "type": "electric_scooter", "lat": 38.923202833333335, "bike_id": "813caab2ec104333f7bfef48fa344cb4", "is_reserved": 0, "lon": -77.02691866666666, "rental_uris": {"android": "https://dc.lft.to/lastmile_qr_scan", "ios": "https://dc.lft.to/lastmile_qr_scan"}}, {"name": "58bd14bde1b6b13ec761ada1799bc823", "is_disabled": 0, "fusion_lat": 0.0, "fusion_lon": 0.0, "type": "electric_scooter", "lat": 38.8641165, "bike_id": "58bd14bde1b6b13ec761ada1799bc823", "is_reserved": 0, "lon": -77.01201216666666, "rental_uris": {"android": "https://dc.lft.to/lastmile_qr_scan", "ios": "https://dc.lft.to/lastmile_qr_scan"}}, {"name": "3708f0804c953540a9edc0d5a19d9ea8", "is_disabled": 0, "fusion_lat": 0.0, "fusion_lon": 0.0, "type": "electric_scooter", "lat": 38.921361, "bike_id": "3708f0804c953540a9edc0d5a19d9ea8", "is_reserved": 0, "lon": -77.01821883333334, "rental_uris": {"android": "https://dc.lft.to/lastmile_qr_scan", "ios": "https://dc.lft.to/lastmile_qr_scan"}}, {"name": "ef1a06caae259451a40483cd17e30d6e", "is_disabled": 0, "fusion_lat": 0.0, "fusion_lon": 0.0, "type": "electric_scooter", "lat": 38.900628166666664, "bike_id": "ef1a06caae259451a40483cd17e30d6e", "is_reserved": 0, "lon": -77.0432715, "rental_uris": {"android": "https://dc.lft.to/lastmile_qr_scan", "ios": "https://dc.lft.to/lastmile_qr_scan"}}, {"name": "000bdaa4439a3d1680493945a940f7bf", "is_disabled": 0, "fusion_lat": 0.0, "fusion_lon": 0.0, "type": "electric_scooter", "lat": 38.905422, "bike_id": "000bdaa4439a3d1680493945a940f7bf", "is_reserved": 0, "lon": -77.06517966666667, "rental_uris": {"android": "https://dc.lft.to/lastmile_qr_scan", "ios": "https://dc.lft.to/lastmile_qr_scan"}}, {"name": "f6d206cb229a27f30826df89783cc932", "is_disabled": 0, "fusion_lat": 0.0, "fusion_lon": 0.0, "type": "electric_scooter", "lat": 38.90282533333333, "bike_id": "f6d206cb229a27f30826df89783cc932", "is_reserved": 0, "lon": -77.0592085, "rental_uris": {"android": "https://dc.lft.to/lastmile_qr_scan", "ios": "https://dc.lft.to/lastmile_qr_scan"}}, {"name": "6154e2b410d6ac9af5514c014c00918d", "is_disabled": 0, "fusion_lat": 0.0, "fusion_lon": 0.0, "type": "electric_scooter", "lat": 38.924477333333336, "bike_id": "6154e2b410d6ac9af5514c014c00918d", "is_reserved": 0, "lon": -77.02148716666666, "rental_uris": {"android": "https://dc.lft.to/lastmile_qr_scan", "ios": "https://dc.lft.to/lastmile_qr_scan"}}, {"name": "1192367472e451ad4a1cafbc308e8bc7", "is_disabled": 0, "fusion_lat": 0.0, "fusion_lon": 0.0, "type": "electric_bike", "lat": 38.82936333333333, "bike_id": "1192367472e451ad4a1cafbc308e8bc7", "is_reserved": 0, "lon": -77.1235785, "rental_uris": {"android": "https://dc.lft.to/lastmile_qr_scan", "ios": "https://dc.lft.to/lastmile_qr_scan"}}, {"name": "34594d2a03c1f554cdb5a8265ee65a41", "is_disabled": 0, "fusion_lat": 0.0, "fusion_lon": 0.0, "type": "electric_scooter", "lat": 38.927377166666666, "bike_id": "34594d2a03c1f554cdb5a8265ee65a41", "is_reserved": 0, "lon": -77.0214745, "rental_uris": {"android": "https://dc.lft.to/lastmile_qr_scan", "ios": "https://dc.lft.to/lastmile_qr_scan"}}, {"name": "80f5dfe931ddc8d15f24f01c15bf08f8", "is_disabled": 0, "fusion_lat": 0.0, "fusion_lon": 0.0, "type": "electric_scooter", "lat": 38.9087245, "bike_id": "80f5dfe931ddc8d15f24f01c15bf08f8", "is_reserved": 0, "lon": -77.0716545, "rental_uris": {"android": "https://dc.lft.to/lastmile_qr_scan", "ios": "https://dc.lft.to/lastmile_qr_scan"}}, {"name": "2980737dbcfae8e848952e9e56b65e25", "is_disabled": 0, "fusion_lat": 0.0, "fusion_lon": 0.0, "type": "electric_scooter", "lat": 38.851772, "bike_id": "2980737dbcfae8e848952e9e56b65e25", "is_reserved": 0, "lon": -76.99584583333333, "rental_uris": {"android": "https://dc.lft.to/lastmile_qr_scan", "ios": "https://dc.lft.to/lastmile_qr_scan"}}, {"name": "aa7d3e3ec4eeadc0372caf8edbc5d3b5", "is_disabled": 0, "fusion_lat": 0.0, "fusion_lon": 0.0, "type": "electric_scooter", "lat": 38.936099166666665, "bike_id": "aa7d3e3ec4eeadc0372caf8edbc5d3b5", "is_reserved": 0, "lon": -77.03772316666667, "rental_uris": {"android": "https://dc.lft.to/lastmile_qr_scan", "ios": "https://dc.lft.to/lastmile_qr_scan"}}, {"name": "c41c82426b3e0eb6386d9c6bf3bb5842", "is_disabled": 0, "fusion_lat": 0.0, "fusion_lon": 0.0, "type": "electric_scooter", "lat": 38.92044033333333, "bike_id": "c41c82426b3e0eb6386d9c6bf3bb5842", "is_reserved": 0, "lon": -76.98942333333333, "rental_uris": {"android": "https://dc.lft.to/lastmile_qr_scan", "ios": "https://dc.lft.to/lastmile_qr_scan"}}, {"name": "019250a97bdf7ca665d9736d5bba0e25", "is_disabled": 0, "fusion_lat": 0.0, "fusion_lon": 0.0, "type": "electric_scooter", "lat": 38.900445500000004, "bike_id": "019250a97bdf7ca665d9736d5bba0e25", "is_reserved": 0, "lon": -77.03967183333333, "rental_uris": {"android": "https://dc.lft.to/lastmile_qr_scan", "ios": "https://dc.lft.to/lastmile_qr_scan"}}, {"name": "600c772d5b0f1b28fd5e6c07d465c5b5", "is_disabled": 0, "fusion_lat": 0.0, "fusion_lon": 0.0, "type": "electric_scooter", "lat": 38.9215465, "bike_id": "600c772d5b0f1b28fd5e6c07d465c5b5", "is_reserved": 0, "lon": -77.02077416666667, "rental_uris": {"android": "https://dc.lft.to/lastmile_qr_scan", "ios": "https://dc.lft.to/lastmile_qr_scan"}}, {"name": "241fb606cb84ba0843e88569575d0faa", "is_disabled": 0, "fusion_lat": 0.0, "fusion_lon": 0.0, "type": "electric_scooter", "lat": 38.91759366666667, "bike_id": "241fb606cb84ba0843e88569575d0faa", "is_reserved": 0, "lon": -77.04411683333333, "rental_uris": {"android": "https://dc.lft.to/lastmile_qr_scan", "ios": "https://dc.lft.to/lastmile_qr_scan"}}, {"name": "a1d2d4f3515a623d18e88057cf59914a", "is_disabled": 0, "fusion_lat": 0.0, "fusion_lon": 0.0, "type": "electric_scooter", "lat": 38.90078916666667, "bike_id": "a1d2d4f3515a623d18e88057cf59914a", "is_reserved": 0, "lon": -77.04692283333333, "rental_uris": {"android": "https://dc.lft.to/lastmile_qr_scan", "ios": "https://dc.lft.to/lastmile_qr_scan"}}, {"name": "945c1132987b3c2366a642814defcdac", "is_disabled": 0, "fusion_lat": 0.0, "fusion_lon": 0.0, "type": "electric_scooter", "lat": 38.917502166666665, "bike_id": "945c1132987b3c2366a642814defcdac", "is_reserved": 0, "lon": -77.023875, "rental_uris": {"android": "https://dc.lft.to/lastmile_qr_scan", "ios": "https://dc.lft.to/lastmile_qr_scan"}}, {"name": "ebe48228f90e336745077c5bf67de289", "is_disabled": 0, "fusion_lat": 0.0, "fusion_lon": 0.0, "type": "electric_scooter", "lat": 38.912448, "bike_id": "ebe48228f90e336745077c5bf67de289", "is_reserved": 0, "lon": -77.04435166666667, "rental_uris": {"android": "https://dc.lft.to/lastmile_qr_scan", "ios": "https://dc.lft.to/lastmile_qr_scan"}}, {"name": "14271e8afd292c893114a327a448890f", "is_disabled": 0, "fusion_lat": 0.0, "fusion_lon": 0.0, "type": "electric_scooter", "lat": 38.92481216666667, "bike_id": "14271e8afd292c893114a327a448890f", "is_reserved": 0, "lon": -77.02722, "rental_uris": {"android": "https://dc.lft.to/lastmile_qr_scan", "ios": "https://dc.lft.to/lastmile_qr_scan"}}, {"name": "705686ce682bd18418d210ca8c02703c", "is_disabled": 0, "fusion_lat": 0.0, "fusion_lon": 0.0, "type": "electric_scooter", "lat": 38.952112, "bike_id": "705686ce682bd18418d210ca8c02703c", "is_reserved": 0, "lon": -77.027343, "rental_uris": {"android": "https://dc.lft.to/lastmile_qr_scan", "ios": "https://dc.lft.to/lastmile_qr_scan"}}, {"name": "964288a8c15331011119444b7d22b798", "is_disabled": 0, "fusion_lat": 0.0, "fusion_lon": 0.0, "type": "electric_bike", "lat": 38.86134533333333, "bike_id": "964288a8c15331011119444b7d22b798", "is_reserved": 0, "lon": -77.09231066666666, "rental_uris": {"android": "https://dc.lft.to/lastmile_qr_scan", "ios": "https://dc.lft.to/lastmile_qr_scan"}}, {"name": "69399e5ebaf44ad6ad72b450e60a8448", "is_disabled": 0, "fusion_lat": 0.0, "fusion_lon": 0.0, "type": "electric_scooter", "lat": 38.89219466666667, "bike_id": "69399e5ebaf44ad6ad72b450e60a8448", "is_reserved": 0, "lon": -77.02228733333334, "rental_uris": {"android": "https://dc.lft.to/lastmile_qr_scan", "ios": "https://dc.lft.to/lastmile_qr_scan"}}, {"name": "769f859f98c5f3e8dc5505d155e8a39d", "is_disabled": 0, "fusion_lat": 0.0, "fusion_lon": 0.0, "type": "electric_scooter", "lat": 38.915948, "bike_id": "769f859f98c5f3e8dc5505d155e8a39d", "is_reserved": 0, "lon": -77.02304566666666, "rental_uris": {"android": "https://dc.lft.to/lastmile_qr_scan", "ios": "https://dc.lft.to/lastmile_qr_scan"}}, {"name": "3d1ca00f9827377a9c817e150068a1f5", "is_disabled": 0, "fusion_lat": 0.0, "fusion_lon": 0.0, "type": "electric_scooter", "lat": 38.91898833333333, "bike_id": "3d1ca00f9827377a9c817e150068a1f5", "is_reserved": 0, "lon": -76.98746316666667, "rental_uris": {"android": "https://dc.lft.to/lastmile_qr_scan", "ios": "https://dc.lft.to/lastmile_qr_scan"}}, {"name": "cc442934e09dd7054a8c1ca3b51e2d0c", "is_disabled": 0, "fusion_lat": 0.0, "fusion_lon": 0.0, "type": "electric_scooter", "lat": 38.888618, "bike_id": "cc442934e09dd7054a8c1ca3b51e2d0c", "is_reserved": 0, "lon": -77.03110433333333, "rental_uris": {"android": "https://dc.lft.to/lastmile_qr_scan", "ios": "https://dc.lft.to/lastmile_qr_scan"}}, {"name": "78571a2c03684d6514b2fb6ecb445f2d", "is_disabled": 0, "fusion_lat": 0.0, "fusion_lon": 0.0, "type": "electric_bike", "lat": 38.996398666666664, "bike_id": "78571a2c03684d6514b2fb6ecb445f2d", "is_reserved": 0, "lon": -77.03996566666666, "rental_uris": {"android": "https://dc.lft.to/lastmile_qr_scan", "ios": "https://dc.lft.to/lastmile_qr_scan"}}, {"name": "2c634137d3af2c6a83a9a042450ea458", "is_disabled": 0, "fusion_lat": 0.0, "fusion_lon": 0.0, "type": "electric_scooter", "lat": 38.9082725, "bike_id": "2c634137d3af2c6a83a9a042450ea458", "is_reserved": 0, "lon": -76.931592, "rental_uris": {"android": "https://dc.lft.to/lastmile_qr_scan", "ios": "https://dc.lft.to/lastmile_qr_scan"}}, {"name": "1135970b9278473ac1caf0b45a674f5b", "is_disabled": 0, "fusion_lat": 0.0, "fusion_lon": 0.0, "type": "electric_scooter", "lat": 38.899195666666664, "bike_id": "1135970b9278473ac1caf0b45a674f5b", "is_reserved": 0, "lon": -77.03301183333333, "rental_uris": {"android": "https://dc.lft.to/lastmile_qr_scan", "ios": "https://dc.lft.to/lastmile_qr_scan"}}, {"name": "e84f6e3f5512a22a047570b295888192", "is_disabled": 0, "fusion_lat": 0.0, "fusion_lon": 0.0, "type": "electric_scooter", "lat": 38.90769483333333, "bike_id": "e84f6e3f5512a22a047570b295888192", "is_reserved": 0, "lon": -76.97830983333333, "rental_uris": {"android": "https://dc.lft.to/lastmile_qr_scan", "ios": "https://dc.lft.to/lastmile_qr_scan"}}, {"name": "f54d72618581a956b86a2c869d5aaa44", "is_disabled": 0, "fusion_lat": 0.0, "fusion_lon": 0.0, "type": "electric_scooter", "lat": 38.903645, "bike_id": "f54d72618581a956b86a2c869d5aaa44", "is_reserved": 0, "lon": -77.04031166666667, "rental_uris": {"android": "https://dc.lft.to/lastmile_qr_scan", "ios": "https://dc.lft.to/lastmile_qr_scan"}}, {"name": "85aa1f18c77bdf94e1ecf395e109105e", "is_disabled": 0, "fusion_lat": 0.0, "fusion_lon": 0.0, "type": "electric_scooter", "lat": 38.8847425, "bike_id": "85aa1f18c77bdf94e1ecf395e109105e", "is_reserved": 0, "lon": -77.02656516666667, "rental_uris": {"android": "https://dc.lft.to/lastmile_qr_scan", "ios": "https://dc.lft.to/lastmile_qr_scan"}}, {"name": "5738ded417276bac12ef7dc7c025fad9", "is_disabled": 0, "fusion_lat": 0.0, "fusion_lon": 0.0, "type": "electric_scooter", "lat": 38.92297083333333, "bike_id": "5738ded417276bac12ef7dc7c025fad9", "is_reserved": 0, "lon": -77.042997, "rental_uris": {"android": "https://dc.lft.to/lastmile_qr_scan", "ios": "https://dc.lft.to/lastmile_qr_scan"}}, {"name": "37812608da0ac2f3e9779765a20464df", "is_disabled": 0, "fusion_lat": 0.0, "fusion_lon": 0.0, "type": "electric_scooter", "lat": 38.9518235, "bike_id": "37812608da0ac2f3e9779765a20464df", "is_reserved": 0, "lon": -77.02616066666667, "rental_uris": {"android": "https://dc.lft.to/lastmile_qr_scan", "ios": "https://dc.lft.to/lastmile_qr_scan"}}, {"name": "451c36093171e42686292fc8241689db", "is_disabled": 0, "fusion_lat": 0.0, "fusion_lon": 0.0, "type": "electric_bike", "lat": 38.93689716666667, "bike_id": "451c36093171e42686292fc8241689db", "is_reserved": 0, "lon": -76.99055883333334, "rental_uris": {"android": "https://dc.lft.to/lastmile_qr_scan", "ios": "https://dc.lft.to/lastmile_qr_scan"}}, {"name": "73a181c6609029a378a0f8ba62e85569", "is_disabled": 0, "fusion_lat": 0.0, "fusion_lon": 0.0, "type": "electric_scooter", "lat": 38.89362633333333, "bike_id": "73a181c6609029a378a0f8ba62e85569", "is_reserved": 0, "lon": -77.05492416666667, "rental_uris": {"android": "https://dc.lft.to/lastmile_qr_scan", "ios": "https://dc.lft.to/lastmile_qr_scan"}}, {"name": "e6784e2d4cb67f34f287560268828b48", "is_disabled": 0, "fusion_lat": 0.0, "fusion_lon": 0.0, "type": "electric_scooter", "lat": 38.91814016666667, "bike_id": "e6784e2d4cb67f34f287560268828b48", "is_reserved": 0, "lon": -77.03251416666667, "rental_uris": {"android": "https://dc.lft.to/lastmile_qr_scan", "ios": "https://dc.lft.to/lastmile_qr_scan"}}, {"name": "e51338d6694a26a7b38947884be6b072", "is_disabled": 0, "fusion_lat": 0.0, "fusion_lon": 0.0, "type": "electric_scooter", "lat": 38.897976, "bike_id": "e51338d6694a26a7b38947884be6b072", "is_reserved": 0, "lon": -77.024792, "rental_uris": {"android": "https://dc.lft.to/lastmile_qr_scan", "ios": "https://dc.lft.to/lastmile_qr_scan"}}, {"name": "ac1dedabd6c669b2b088faf6f08577d8", "is_disabled": 0, "fusion_lat": 0.0, "fusion_lon": 0.0, "type": "electric_scooter", "lat": 38.90775466666667, "bike_id": "ac1dedabd6c669b2b088faf6f08577d8", "is_reserved": 0, "lon": -77.03825733333333, "rental_uris": {"android": "https://dc.lft.to/lastmile_qr_scan", "ios": "https://dc.lft.to/lastmile_qr_scan"}}, {"name": "13bafbf688fa9f8f9a00eaf287ab5cf3", "is_disabled": 0, "fusion_lat": 0.0, "fusion_lon": 0.0, "type": "electric_scooter", "lat": 38.9022865, "bike_id": "13bafbf688fa9f8f9a00eaf287ab5cf3", "is_reserved": 0, "lon": -77.04337716666667, "rental_uris": {"android": "https://dc.lft.to/lastmile_qr_scan", "ios": "https://dc.lft.to/lastmile_qr_scan"}}, {"name": "3c3381f01e29cbcddc797c67dfbfc474", "is_disabled": 0, "fusion_lat": 0.0, "fusion_lon": 0.0, "type": "electric_scooter", "lat": 38.89614566666667, "bike_id": "3c3381f01e29cbcddc797c67dfbfc474", "is_reserved": 0, "lon": -76.98166516666667, "rental_uris": {"android": "https://dc.lft.to/lastmile_qr_scan", "ios": "https://dc.lft.to/lastmile_qr_scan"}}, {"name": "f39621d5997c7a96a95fc5ab6c29c4c2", "is_disabled": 0, "fusion_lat": 0.0, "fusion_lon": 0.0, "type": "electric_scooter", "lat": 38.90248916666667, "bike_id": "f39621d5997c7a96a95fc5ab6c29c4c2", "is_reserved": 0, "lon": -77.02883733333333, "rental_uris": {"android": "https://dc.lft.to/lastmile_qr_scan", "ios": "https://dc.lft.to/lastmile_qr_scan"}}, {"name": "e300feb502e13cb4ce779efa9aec8500", "is_disabled": 0, "fusion_lat": 0.0, "fusion_lon": 0.0, "type": "electric_scooter", "lat": 38.8839095, "bike_id": "e300feb502e13cb4ce779efa9aec8500", "is_reserved": 0, "lon": -76.954441, "rental_uris": {"android": "https://dc.lft.to/lastmile_qr_scan", "ios": "https://dc.lft.to/lastmile_qr_scan"}}, {"name": "8c890f1433f367660b5cc08c0f4d0cfc", "is_disabled": 0, "fusion_lat": 0.0, "fusion_lon": 0.0, "type": "electric_scooter", "lat": 38.90743583333333, "bike_id": "8c890f1433f367660b5cc08c0f4d0cfc", "is_reserved": 0, "lon": -77.030635, "rental_uris": {"android": "https://dc.lft.to/lastmile_qr_scan", "ios": "https://dc.lft.to/lastmile_qr_scan"}}, {"name": "089e95fc3678a2e54e82980df39ae20b", "is_disabled": 0, "fusion_lat": 0.0, "fusion_lon": 0.0, "type": "electric_scooter", "lat": 38.892966666666666, "bike_id": "089e95fc3678a2e54e82980df39ae20b", "is_reserved": 0, "lon": -76.9982355, "rental_uris": {"android": "https://dc.lft.to/lastmile_qr_scan", "ios": "https://dc.lft.to/lastmile_qr_scan"}}, {"name": "94b1ba9b9eacff88937b5a3ebd1c6fca", "is_disabled": 0, "fusion_lat": 0.0, "fusion_lon": 0.0, "type": "electric_scooter", "lat": 38.922940833333335, "bike_id": "94b1ba9b9eacff88937b5a3ebd1c6fca", "is_reserved": 0, "lon": -77.042635, "rental_uris": {"android": "https://dc.lft.to/lastmile_qr_scan", "ios": "https://dc.lft.to/lastmile_qr_scan"}}, {"name": "554cfc755798fd9c709bf4e944f7ad50", "is_disabled": 0, "fusion_lat": 0.0, "fusion_lon": 0.0, "type": "electric_scooter", "lat": 38.916524, "bike_id": "554cfc755798fd9c709bf4e944f7ad50", "is_reserved": 0, "lon": -77.02964333333334, "rental_uris": {"android": "https://dc.lft.to/lastmile_qr_scan", "ios": "https://dc.lft.to/lastmile_qr_scan"}}, {"name": "7d7fa8e647dfa749353a52ec7eb2d59f", "is_disabled": 0, "fusion_lat": 0.0, "fusion_lon": 0.0, "type": "electric_scooter", "lat": 38.89220566666667, "bike_id": "7d7fa8e647dfa749353a52ec7eb2d59f", "is_reserved": 0, "lon": -77.04370516666667, "rental_uris": {"android": "https://dc.lft.to/lastmile_qr_scan", "ios": "https://dc.lft.to/lastmile_qr_scan"}}, {"name": "99415edddf67bf298bbd6c9014667530", "is_disabled": 0, "fusion_lat": 0.0, "fusion_lon": 0.0, "type": "electric_scooter", "lat": 38.880189666666666, "bike_id": "99415edddf67bf298bbd6c9014667530", "is_reserved": 0, "lon": -77.0247495, "rental_uris": {"android": "https://dc.lft.to/lastmile_qr_scan", "ios": "https://dc.lft.to/lastmile_qr_scan"}}, {"name": "97231382c2eba8a880709e0cb55d0679", "is_disabled": 0, "fusion_lat": 0.0, "fusion_lon": 0.0, "type": "electric_scooter", "lat": 38.918123666666666, "bike_id": "97231382c2eba8a880709e0cb55d0679", "is_reserved": 0, "lon": -77.03688633333333, "rental_uris": {"android": "https://dc.lft.to/lastmile_qr_scan", "ios": "https://dc.lft.to/lastmile_qr_scan"}}, {"name": "c10d4e34fbcabc83af3c85c97f900bfe", "is_disabled": 0, "fusion_lat": 0.0, "fusion_lon": 0.0, "type": "electric_scooter", "lat": 38.8929495, "bike_id": "c10d4e34fbcabc83af3c85c97f900bfe", "is_reserved": 0, "lon": -76.93925083333333, "rental_uris": {"android": "https://dc.lft.to/lastmile_qr_scan", "ios": "https://dc.lft.to/lastmile_qr_scan"}}, {"name": "52ca42c0fc240c429ee3d0f0deaf2344", "is_disabled": 0, "fusion_lat": 0.0, "fusion_lon": 0.0, "type": "electric_scooter", "lat": 38.936733333333336, "bike_id": "52ca42c0fc240c429ee3d0f0deaf2344", "is_reserved": 0, "lon": -77.03576916666667, "rental_uris": {"android": "https://dc.lft.to/lastmile_qr_scan", "ios": "https://dc.lft.to/lastmile_qr_scan"}}, {"name": "88b4adb1c4a474f1e18e2f3b0c6606dd", "is_disabled": 0, "fusion_lat": 0.0, "fusion_lon": 0.0, "type": "electric_scooter", "lat": 38.89742316666667, "bike_id": "88b4adb1c4a474f1e18e2f3b0c6606dd", "is_reserved": 0, "lon": -77.04659466666666, "rental_uris": {"android": "https://dc.lft.to/lastmile_qr_scan", "ios": "https://dc.lft.to/lastmile_qr_scan"}}, {"name": "fc390b8bb0dfaf48fa143a686ecbd8e6", "is_disabled": 0, "fusion_lat": 0.0, "fusion_lon": 0.0, "type": "electric_scooter", "lat": 38.872276166666666, "bike_id": "fc390b8bb0dfaf48fa143a686ecbd8e6", "is_reserved": 0, "lon": -77.0116875, "rental_uris": {"android": "https://dc.lft.to/lastmile_qr_scan", "ios": "https://dc.lft.to/lastmile_qr_scan"}}, {"name": "dabfe7edf7f43d507d3dcf90d85cdaa2", "is_disabled": 0, "fusion_lat": 0.0, "fusion_lon": 0.0, "type": "electric_scooter", "lat": 38.901506, "bike_id": "dabfe7edf7f43d507d3dcf90d85cdaa2", "is_reserved": 0, "lon": -77.03203683333334, "rental_uris": {"android": "https://dc.lft.to/lastmile_qr_scan", "ios": "https://dc.lft.to/lastmile_qr_scan"}}, {"name": "4d199cef9096a0968d4a17f3e9c0f81f", "is_disabled": 0, "fusion_lat": 0.0, "fusion_lon": 0.0, "type": "electric_scooter", "lat": 38.916770166666666, "bike_id": "4d199cef9096a0968d4a17f3e9c0f81f", "is_reserved": 0, "lon": -77.03686716666667, "rental_uris": {"android": "https://dc.lft.to/lastmile_qr_scan", "ios": "https://dc.lft.to/lastmile_qr_scan"}}, {"name": "f00c7e85c4c4cd11abd135d9b26a9134", "is_disabled": 0, "fusion_lat": 0.0, "fusion_lon": 0.0, "type": "electric_scooter", "lat": 38.9072725, "bike_id": "f00c7e85c4c4cd11abd135d9b26a9134", "is_reserved": 0, "lon": -76.98691783333334, "rental_uris": {"android": "https://dc.lft.to/lastmile_qr_scan", "ios": "https://dc.lft.to/lastmile_qr_scan"}}, {"name": "749e0c4ede95549e8b9727a962a0cb0a", "is_disabled": 0, "fusion_lat": 0.0, "fusion_lon": 0.0, "type": "electric_scooter", "lat": 38.89221116666667, "bike_id": "749e0c4ede95549e8b9727a962a0cb0a", "is_reserved": 0, "lon": -77.0437755, "rental_uris": {"android": "https://dc.lft.to/lastmile_qr_scan", "ios": "https://dc.lft.to/lastmile_qr_scan"}}, {"name": "5723e8f19d8a2a7ab6e6efa5e6251b79", "is_disabled": 0, "fusion_lat": 0.0, "fusion_lon": 0.0, "type": "electric_scooter", "lat": 38.89875983333334, "bike_id": "5723e8f19d8a2a7ab6e6efa5e6251b79", "is_reserved": 0, "lon": -76.931861, "rental_uris": {"android": "https://dc.lft.to/lastmile_qr_scan", "ios": "https://dc.lft.to/lastmile_qr_scan"}}, {"name": "dcfa4a36537008eeac0756e0bd783528", "is_disabled": 0, "fusion_lat": 0.0, "fusion_lon": 0.0, "type": "electric_bike", "lat": 38.874767166666665, "bike_id": "dcfa4a36537008eeac0756e0bd783528", "is_reserved": 0, "lon": -76.96522783333333, "rental_uris": {"android": "https://dc.lft.to/lastmile_qr_scan", "ios": "https://dc.lft.to/lastmile_qr_scan"}}, {"name": "928ed38d78c64b57dfa086d8a70078e9", "is_disabled": 0, "fusion_lat": 0.0, "fusion_lon": 0.0, "type": "electric_scooter", "lat": 38.87469433333333, "bike_id": "928ed38d78c64b57dfa086d8a70078e9", "is_reserved": 0, "lon": -77.00558083333334, "rental_uris": {"android": "https://dc.lft.to/lastmile_qr_scan", "ios": "https://dc.lft.to/lastmile_qr_scan"}}, {"name": "4629430122e92521b7655bf324dcb325", "is_disabled": 0, "fusion_lat": 0.0, "fusion_lon": 0.0, "type": "electric_scooter", "lat": 38.91674066666667, "bike_id": "4629430122e92521b7655bf324dcb325", "is_reserved": 0, "lon": -77.02294166666667, "rental_uris": {"android": "https://dc.lft.to/lastmile_qr_scan", "ios": "https://dc.lft.to/lastmile_qr_scan"}}, {"name": "7b132c09575785849152f35a4f4f605a", "is_disabled": 0, "fusion_lat": 0.0, "fusion_lon": 0.0, "type": "electric_scooter", "lat": 38.905683333333336, "bike_id": "7b132c09575785849152f35a4f4f605a", "is_reserved": 0, "lon": -77.00587133333333, "rental_uris": {"android": "https://dc.lft.to/lastmile_qr_scan", "ios": "https://dc.lft.to/lastmile_qr_scan"}}, {"name": "2599267bd49de9e0be5c9369bb465eaf", "is_disabled": 0, "fusion_lat": 0.0, "fusion_lon": 0.0, "type": "electric_scooter", "lat": 38.90614933333333, "bike_id": "2599267bd49de9e0be5c9369bb465eaf", "is_reserved": 0, "lon": -76.98684816666666, "rental_uris": {"android": "https://dc.lft.to/lastmile_qr_scan", "ios": "https://dc.lft.to/lastmile_qr_scan"}}, {"name": "cc59a9198be418f3f90dbb14a2fefcbc", "is_disabled": 0, "fusion_lat": 0.0, "fusion_lon": 0.0, "type": "electric_bike", "lat": 38.907208, "bike_id": "cc59a9198be418f3f90dbb14a2fefcbc", "is_reserved": 0, "lon": -77.03342816666667, "rental_uris": {"android": "https://dc.lft.to/lastmile_qr_scan", "ios": "https://dc.lft.to/lastmile_qr_scan"}}, {"name": "5a1548cf41c7b50b6f65c86ea29d1d3d", "is_disabled": 0, "fusion_lat": 0.0, "fusion_lon": 0.0, "type": "electric_scooter", "lat": 38.91414566666667, "bike_id": "5a1548cf41c7b50b6f65c86ea29d1d3d", "is_reserved": 0, "lon": -77.04919566666666, "rental_uris": {"android": "https://dc.lft.to/lastmile_qr_scan", "ios": "https://dc.lft.to/lastmile_qr_scan"}}, {"name": "dbf2a4a48f68f8c44540e01cd9ee0248", "is_disabled": 0, "fusion_lat": 0.0, "fusion_lon": 0.0, "type": "electric_scooter", "lat": 38.8935535, "bike_id": "dbf2a4a48f68f8c44540e01cd9ee0248", "is_reserved": 0, "lon": -77.003354, "rental_uris": {"android": "https://dc.lft.to/lastmile_qr_scan", "ios": "https://dc.lft.to/lastmile_qr_scan"}}, {"name": "6372f2a677ade550bda727267d57f91a", "is_disabled": 0, "fusion_lat": 0.0, "fusion_lon": 0.0, "type": "electric_scooter", "lat": 38.881224833333334, "bike_id": "6372f2a677ade550bda727267d57f91a", "is_reserved": 0, "lon": -76.99505966666666, "rental_uris": {"android": "https://dc.lft.to/lastmile_qr_scan", "ios": "https://dc.lft.to/lastmile_qr_scan"}}, {"name": "64e6f456c6c31358c586d2fc7629d3d4", "is_disabled": 0, "fusion_lat": 0.0, "fusion_lon": 0.0, "type": "electric_scooter", "lat": 38.88385, "bike_id": "64e6f456c6c31358c586d2fc7629d3d4", "is_reserved": 0, "lon": -77.030299, "rental_uris": {"android": "https://dc.lft.to/lastmile_qr_scan", "ios": "https://dc.lft.to/lastmile_qr_scan"}}, {"name": "fba4734446d4fd035dbe8f3aa7f53a5e", "is_disabled": 0, "fusion_lat": 0.0, "fusion_lon": 0.0, "type": "electric_scooter", "lat": 38.86007883333333, "bike_id": "fba4734446d4fd035dbe8f3aa7f53a5e", "is_reserved": 0, "lon": -76.985208, "rental_uris": {"android": "https://dc.lft.to/lastmile_qr_scan", "ios": "https://dc.lft.to/lastmile_qr_scan"}}, {"name": "ccccb67946aac8a5dc49ce6999416c69", "is_disabled": 0, "fusion_lat": 0.0, "fusion_lon": 0.0, "type": "electric_scooter", "lat": 38.932288166666666, "bike_id": "ccccb67946aac8a5dc49ce6999416c69", "is_reserved": 0, "lon": -77.02833883333334, "rental_uris": {"android": "https://dc.lft.to/lastmile_qr_scan", "ios": "https://dc.lft.to/lastmile_qr_scan"}}, {"name": "763e0e731f52d523b5711badea9a69f6", "is_disabled": 0, "fusion_lat": 0.0, "fusion_lon": 0.0, "type": "electric_scooter", "lat": 38.912021, "bike_id": "763e0e731f52d523b5711badea9a69f6", "is_reserved": 0, "lon": -77.00474266666667, "rental_uris": {"android": "https://dc.lft.to/lastmile_qr_scan", "ios": "https://dc.lft.to/lastmile_qr_scan"}}, {"name": "ecf4b0858787507da6b3ca653a5dfae3", "is_disabled": 0, "fusion_lat": 0.0, "fusion_lon": 0.0, "type": "electric_scooter", "lat": 38.9179405, "bike_id": "ecf4b0858787507da6b3ca653a5dfae3", "is_reserved": 0, "lon": -77.04018583333334, "rental_uris": {"android": "https://dc.lft.to/lastmile_qr_scan", "ios": "https://dc.lft.to/lastmile_qr_scan"}}, {"name": "43120d2280a637f15e29ae4e02929b4a", "is_disabled": 0, "fusion_lat": 0.0, "fusion_lon": 0.0, "type": "electric_scooter", "lat": 38.929364166666666, "bike_id": "43120d2280a637f15e29ae4e02929b4a", "is_reserved": 0, "lon": -77.02316683333333, "rental_uris": {"android": "https://dc.lft.to/lastmile_qr_scan", "ios": "https://dc.lft.to/lastmile_qr_scan"}}, {"name": "ac4912043a3b4f39ca249c0a00bc95a8", "is_disabled": 0, "fusion_lat": 0.0, "fusion_lon": 0.0, "type": "electric_scooter", "lat": 38.90140866666667, "bike_id": "ac4912043a3b4f39ca249c0a00bc95a8", "is_reserved": 0, "lon": -77.04488633333334, "rental_uris": {"android": "https://dc.lft.to/lastmile_qr_scan", "ios": "https://dc.lft.to/lastmile_qr_scan"}}, {"name": "e8323fc63304a590c12c59532279b61b", "is_disabled": 0, "fusion_lat": 0.0, "fusion_lon": 0.0, "type": "electric_scooter", "lat": 38.902642166666666, "bike_id": "e8323fc63304a590c12c59532279b61b", "is_reserved": 0, "lon": -77.03649316666667, "rental_uris": {"android": "https://dc.lft.to/lastmile_qr_scan", "ios": "https://dc.lft.to/lastmile_qr_scan"}}, {"name": "e15f28f8a33eac52e13197a6aa328828", "is_disabled": 0, "fusion_lat": 0.0, "fusion_lon": 0.0, "type": "electric_scooter", "lat": 38.9317215, "bike_id": "e15f28f8a33eac52e13197a6aa328828", "is_reserved": 0, "lon": -77.03667683333333, "rental_uris": {"android": "https://dc.lft.to/lastmile_qr_scan", "ios": "https://dc.lft.to/lastmile_qr_scan"}}, {"name": "304cc99811d0e8c3c5e2b5021704b1b0", "is_disabled": 0, "fusion_lat": 0.0, "fusion_lon": 0.0, "type": "electric_scooter", "lat": 38.86476033333334, "bike_id": "304cc99811d0e8c3c5e2b5021704b1b0", "is_reserved": 0, "lon": -76.982273, "rental_uris": {"android": "https://dc.lft.to/lastmile_qr_scan", "ios": "https://dc.lft.to/lastmile_qr_scan"}}, {"name": "a42db8d6bd54fd46181d5f207f63c167", "is_disabled": 0, "fusion_lat": 0.0, "fusion_lon": 0.0, "type": "electric_scooter", "lat": 38.89840066666667, "bike_id": "a42db8d6bd54fd46181d5f207f63c167", "is_reserved": 0, "lon": -77.00745266666667, "rental_uris": {"android": "https://dc.lft.to/lastmile_qr_scan", "ios": "https://dc.lft.to/lastmile_qr_scan"}}, {"name": "0de0d66827e084909e6546715fbca370", "is_disabled": 0, "fusion_lat": 0.0, "fusion_lon": 0.0, "type": "electric_scooter", "lat": 38.906677, "bike_id": "0de0d66827e084909e6546715fbca370", "is_reserved": 0, "lon": -77.002005, "rental_uris": {"android": "https://dc.lft.to/lastmile_qr_scan", "ios": "https://dc.lft.to/lastmile_qr_scan"}}, {"name": "ede06f9ac157ce73f4b673950341a4a9", "is_disabled": 0, "fusion_lat": 0.0, "fusion_lon": 0.0, "type": "electric_scooter", "lat": 38.93860983333333, "bike_id": "ede06f9ac157ce73f4b673950341a4a9", "is_reserved": 0, "lon": -77.03084333333334, "rental_uris": {"android": "https://dc.lft.to/lastmile_qr_scan", "ios": "https://dc.lft.to/lastmile_qr_scan"}}, {"name": "aa44449c32130b57ad8b974d9b4dfac6", "is_disabled": 0, "fusion_lat": 0.0, "fusion_lon": 0.0, "type": "electric_scooter", "lat": 38.925299833333334, "bike_id": "aa44449c32130b57ad8b974d9b4dfac6", "is_reserved": 0, "lon": -76.99603766666667, "rental_uris": {"android": "https://dc.lft.to/lastmile_qr_scan", "ios": "https://dc.lft.to/lastmile_qr_scan"}}, {"name": "7727a116828e9cc644b21c244dba1e14", "is_disabled": 0, "fusion_lat": 0.0, "fusion_lon": 0.0, "type": "electric_scooter", "lat": 38.903997333333336, "bike_id": "7727a116828e9cc644b21c244dba1e14", "is_reserved": 0, "lon": -77.06778633333333, "rental_uris": {"android": "https://dc.lft.to/lastmile_qr_scan", "ios": "https://dc.lft.to/lastmile_qr_scan"}}, {"name": "94061b768e43cef9c979462a734c990f", "is_disabled": 0, "fusion_lat": 0.0, "fusion_lon": 0.0, "type": "electric_scooter", "lat": 38.90146566666667, "bike_id": "94061b768e43cef9c979462a734c990f", "is_reserved": 0, "lon": -77.03181916666666, "rental_uris": {"android": "https://dc.lft.to/lastmile_qr_scan", "ios": "https://dc.lft.to/lastmile_qr_scan"}}, {"name": "6eb2d01cd4ba715ebd4aa6f7a846493b", "is_disabled": 0, "fusion_lat": 0.0, "fusion_lon": 0.0, "type": "electric_bike", "lat": 38.829139, "bike_id": "6eb2d01cd4ba715ebd4aa6f7a846493b", "is_reserved": 0, "lon": -76.99783366666666, "rental_uris": {"android": "https://dc.lft.to/lastmile_qr_scan", "ios": "https://dc.lft.to/lastmile_qr_scan"}}, {"name": "8c6a2dd73371add1c994d7c3fdf8c37f", "is_disabled": 0, "fusion_lat": 0.0, "fusion_lon": 0.0, "type": "electric_scooter", "lat": 38.899240666666664, "bike_id": "8c6a2dd73371add1c994d7c3fdf8c37f", "is_reserved": 0, "lon": -77.0327245, "rental_uris": {"android": "https://dc.lft.to/lastmile_qr_scan", "ios": "https://dc.lft.to/lastmile_qr_scan"}}, {"name": "9b487e429d585e083deb8bb5d249efb5", "is_disabled": 0, "fusion_lat": 0.0, "fusion_lon": 0.0, "type": "electric_scooter", "lat": 38.931574, "bike_id": "9b487e429d585e083deb8bb5d249efb5", "is_reserved": 0, "lon": -77.0563265, "rental_uris": {"android": "https://dc.lft.to/lastmile_qr_scan", "ios": "https://dc.lft.to/lastmile_qr_scan"}}, {"name": "8cb22b311c27ec5592a518b5d9e56ed8", "is_disabled": 0, "fusion_lat": 0.0, "fusion_lon": 0.0, "type": "electric_scooter", "lat": 38.9193125, "bike_id": "8cb22b311c27ec5592a518b5d9e56ed8", "is_reserved": 0, "lon": -77.01951516666666, "rental_uris": {"android": "https://dc.lft.to/lastmile_qr_scan", "ios": "https://dc.lft.to/lastmile_qr_scan"}}, {"name": "e51dc1ca1850d6af0123bd396fd6ed0e", "is_disabled": 0, "fusion_lat": 0.0, "fusion_lon": 0.0, "type": "electric_scooter", "lat": 38.901321833333334, "bike_id": "e51dc1ca1850d6af0123bd396fd6ed0e", "is_reserved": 0, "lon": -77.0335145, "rental_uris": {"android": "https://dc.lft.to/lastmile_qr_scan", "ios": "https://dc.lft.to/lastmile_qr_scan"}}, {"name": "570fe3571525120b0ee48639aa1b6361", "is_disabled": 0, "fusion_lat": 0.0, "fusion_lon": 0.0, "type": "electric_scooter", "lat": 38.91982083333333, "bike_id": "570fe3571525120b0ee48639aa1b6361", "is_reserved": 0, "lon": -77.02501216666667, "rental_uris": {"android": "https://dc.lft.to/lastmile_qr_scan", "ios": "https://dc.lft.to/lastmile_qr_scan"}}, {"name": "d68ecbca712abc73168ff4c413dc51f3", "is_disabled": 0, "fusion_lat": 0.0, "fusion_lon": 0.0, "type": "electric_scooter", "lat": 38.906045166666665, "bike_id": "d68ecbca712abc73168ff4c413dc51f3", "is_reserved": 0, "lon": -77.04044133333333, "rental_uris": {"android": "https://dc.lft.to/lastmile_qr_scan", "ios": "https://dc.lft.to/lastmile_qr_scan"}}, {"name": "cd42d2ccdd57976732dc9e249211e6ce", "is_disabled": 0, "fusion_lat": 0.0, "fusion_lon": 0.0, "type": "electric_scooter", "lat": 38.908169, "bike_id": "cd42d2ccdd57976732dc9e249211e6ce", "is_reserved": 0, "lon": -77.04340266666667, "rental_uris": {"android": "https://dc.lft.to/lastmile_qr_scan", "ios": "https://dc.lft.to/lastmile_qr_scan"}}, {"name": "e7313c30e85410f149ab9d08a7b43abb", "is_disabled": 0, "fusion_lat": 0.0, "fusion_lon": 0.0, "type": "electric_scooter", "lat": 38.92488766666666, "bike_id": "e7313c30e85410f149ab9d08a7b43abb", "is_reserved": 0, "lon": -77.032323, "rental_uris": {"android": "https://dc.lft.to/lastmile_qr_scan", "ios": "https://dc.lft.to/lastmile_qr_scan"}}, {"name": "21651cbc398a0455d4eec4ad270b280a", "is_disabled": 0, "fusion_lat": 0.0, "fusion_lon": 0.0, "type": "electric_scooter", "lat": 38.900963, "bike_id": "21651cbc398a0455d4eec4ad270b280a", "is_reserved": 0, "lon": -77.04871483333334, "rental_uris": {"android": "https://dc.lft.to/lastmile_qr_scan", "ios": "https://dc.lft.to/lastmile_qr_scan"}}, {"name": "2de09e6f4f39f07a1e7a198dbe3089b5", "is_disabled": 0, "fusion_lat": 0.0, "fusion_lon": 0.0, "type": "electric_scooter", "lat": 38.92533783333333, "bike_id": "2de09e6f4f39f07a1e7a198dbe3089b5", "is_reserved": 0, "lon": -76.9721835, "rental_uris": {"android": "https://dc.lft.to/lastmile_qr_scan", "ios": "https://dc.lft.to/lastmile_qr_scan"}}, {"name": "0217d1654c24e52fdf5098f1d310e3b4", "is_disabled": 0, "fusion_lat": 0.0, "fusion_lon": 0.0, "type": "electric_scooter", "lat": 38.93106183333333, "bike_id": "0217d1654c24e52fdf5098f1d310e3b4", "is_reserved": 0, "lon": -77.038054, "rental_uris": {"android": "https://dc.lft.to/lastmile_qr_scan", "ios": "https://dc.lft.to/lastmile_qr_scan"}}, {"name": "37cddf7c421453ab2a82ec04fcb7e70a", "is_disabled": 0, "fusion_lat": 0.0, "fusion_lon": 0.0, "type": "electric_scooter", "lat": 38.915508, "bike_id": "37cddf7c421453ab2a82ec04fcb7e70a", "is_reserved": 0, "lon": -77.0531725, "rental_uris": {"android": "https://dc.lft.to/lastmile_qr_scan", "ios": "https://dc.lft.to/lastmile_qr_scan"}}, {"name": "569df60616878ee20614d70318d44b9c", "is_disabled": 0, "fusion_lat": 0.0, "fusion_lon": 0.0, "type": "electric_scooter", "lat": 38.9392875, "bike_id": "569df60616878ee20614d70318d44b9c", "is_reserved": 0, "lon": -77.06053216666666, "rental_uris": {"android": "https://dc.lft.to/lastmile_qr_scan", "ios": "https://dc.lft.to/lastmile_qr_scan"}}, {"name": "cbfba80f8684b0a36d7517636ae5ede0", "is_disabled": 0, "fusion_lat": 0.0, "fusion_lon": 0.0, "type": "electric_scooter", "lat": 38.89638683333333, "bike_id": "cbfba80f8684b0a36d7517636ae5ede0", "is_reserved": 0, "lon": -77.029465, "rental_uris": {"android": "https://dc.lft.to/lastmile_qr_scan", "ios": "https://dc.lft.to/lastmile_qr_scan"}}, {"name": "21f9f75a35583db6d5aac560094ac89f", "is_disabled": 0, "fusion_lat": 0.0, "fusion_lon": 0.0, "type": "electric_scooter", "lat": 38.906001833333335, "bike_id": "21f9f75a35583db6d5aac560094ac89f", "is_reserved": 0, "lon": -77.034599, "rental_uris": {"android": "https://dc.lft.to/lastmile_qr_scan", "ios": "https://dc.lft.to/lastmile_qr_scan"}}, {"name": "a84f8dcd5b3ed521f94afa1ff8ea4abf", "is_disabled": 0, "fusion_lat": 0.0, "fusion_lon": 0.0, "type": "electric_scooter", "lat": 38.90011416666667, "bike_id": "a84f8dcd5b3ed521f94afa1ff8ea4abf", "is_reserved": 0, "lon": -76.93030433333334, "rental_uris": {"android": "https://dc.lft.to/lastmile_qr_scan", "ios": "https://dc.lft.to/lastmile_qr_scan"}}, {"name": "acb2440aca4f1bab76c130f43d65a37c", "is_disabled": 0, "fusion_lat": 0.0, "fusion_lon": 0.0, "type": "electric_scooter", "lat": 38.933232833333335, "bike_id": "acb2440aca4f1bab76c130f43d65a37c", "is_reserved": 0, "lon": -77.08557466666667, "rental_uris": {"android": "https://dc.lft.to/lastmile_qr_scan", "ios": "https://dc.lft.to/lastmile_qr_scan"}}, {"name": "482ec380b27a9421008f2486f5761e93", "is_disabled": 0, "fusion_lat": 0.0, "fusion_lon": 0.0, "type": "electric_scooter", "lat": 38.866964833333334, "bike_id": "482ec380b27a9421008f2486f5761e93", "is_reserved": 0, "lon": -76.98591666666667, "rental_uris": {"android": "https://dc.lft.to/lastmile_qr_scan", "ios": "https://dc.lft.to/lastmile_qr_scan"}}, {"name": "804d804f206b6c6aa4576d7659e825c2", "is_disabled": 0, "fusion_lat": 0.0, "fusion_lon": 0.0, "type": "electric_scooter", "lat": 38.892329, "bike_id": "804d804f206b6c6aa4576d7659e825c2", "is_reserved": 0, "lon": -77.02382866666666, "rental_uris": {"android": "https://dc.lft.to/lastmile_qr_scan", "ios": "https://dc.lft.to/lastmile_qr_scan"}}, {"name": "41b17fea47a6d36f42ce34f43e1038e9", "is_disabled": 0, "fusion_lat": 0.0, "fusion_lon": 0.0, "type": "electric_scooter", "lat": 38.9101555, "bike_id": "41b17fea47a6d36f42ce34f43e1038e9", "is_reserved": 0, "lon": -77.04289583333333, "rental_uris": {"android": "https://dc.lft.to/lastmile_qr_scan", "ios": "https://dc.lft.to/lastmile_qr_scan"}}, {"name": "8eaf2e7985aea909807c74c2a3f7234c", "is_disabled": 0, "fusion_lat": 0.0, "fusion_lon": 0.0, "type": "electric_scooter", "lat": 38.8947115, "bike_id": "8eaf2e7985aea909807c74c2a3f7234c", "is_reserved": 0, "lon": -76.94962383333333, "rental_uris": {"android": "https://dc.lft.to/lastmile_qr_scan", "ios": "https://dc.lft.to/lastmile_qr_scan"}}, {"name": "865fab0e6589e18fe864e60b2b6e31b7", "is_disabled": 0, "fusion_lat": 0.0, "fusion_lon": 0.0, "type": "electric_scooter", "lat": 38.905600166666666, "bike_id": "865fab0e6589e18fe864e60b2b6e31b7", "is_reserved": 0, "lon": -77.04326183333333, "rental_uris": {"android": "https://dc.lft.to/lastmile_qr_scan", "ios": "https://dc.lft.to/lastmile_qr_scan"}}, {"name": "72b05447565a008c58763ef8a1510459", "is_disabled": 0, "fusion_lat": 0.0, "fusion_lon": 0.0, "type": "electric_scooter", "lat": 38.90033416666667, "bike_id": "72b05447565a008c58763ef8a1510459", "is_reserved": 0, "lon": -76.99627166666667, "rental_uris": {"android": "https://dc.lft.to/lastmile_qr_scan", "ios": "https://dc.lft.to/lastmile_qr_scan"}}, {"name": "5ec32572203674e91dd05eabdd0ab508", "is_disabled": 0, "fusion_lat": 0.0, "fusion_lon": 0.0, "type": "electric_scooter", "lat": 38.90641466666667, "bike_id": "5ec32572203674e91dd05eabdd0ab508", "is_reserved": 0, "lon": -77.0465065, "rental_uris": {"android": "https://dc.lft.to/lastmile_qr_scan", "ios": "https://dc.lft.to/lastmile_qr_scan"}}, {"name": "0dbb2d2141f427c34b571a714fb9cb57", "is_disabled": 0, "fusion_lat": 0.0, "fusion_lon": 0.0, "type": "electric_scooter", "lat": 38.90063983333334, "bike_id": "0dbb2d2141f427c34b571a714fb9cb57", "is_reserved": 0, "lon": -77.0489005, "rental_uris": {"android": "https://dc.lft.to/lastmile_qr_scan", "ios": "https://dc.lft.to/lastmile_qr_scan"}}, {"name": "cc81ba0a1ef04cbf80e2f196edeea376", "is_disabled": 0, "fusion_lat": 0.0, "fusion_lon": 0.0, "type": "electric_scooter", "lat": 38.911149333333334, "bike_id": "cc81ba0a1ef04cbf80e2f196edeea376", "is_reserved": 0, "lon": -77.03150916666667, "rental_uris": {"android": "https://dc.lft.to/lastmile_qr_scan", "ios": "https://dc.lft.to/lastmile_qr_scan"}}, {"name": "6489794079f2aa90e2a9d1db490c1090", "is_disabled": 0, "fusion_lat": 0.0, "fusion_lon": 0.0, "type": "electric_scooter", "lat": 38.922671666666666, "bike_id": "6489794079f2aa90e2a9d1db490c1090", "is_reserved": 0, "lon": -77.0191375, "rental_uris": {"android": "https://dc.lft.to/lastmile_qr_scan", "ios": "https://dc.lft.to/lastmile_qr_scan"}}, {"name": "ccd8ef15c6b62449ab3bffdfdb2b7a85", "is_disabled": 0, "fusion_lat": 0.0, "fusion_lon": 0.0, "type": "electric_bike", "lat": 38.857868, "bike_id": "ccd8ef15c6b62449ab3bffdfdb2b7a85", "is_reserved": 0, "lon": -77.12018566666667, "rental_uris": {"android": "https://dc.lft.to/lastmile_qr_scan", "ios": "https://dc.lft.to/lastmile_qr_scan"}}, {"name": "377d80e03be8585ca0cef2deedbefb0c", "is_disabled": 0, "fusion_lat": 0.0, "fusion_lon": 0.0, "type": "electric_scooter", "lat": 38.90564583333333, "bike_id": "377d80e03be8585ca0cef2deedbefb0c", "is_reserved": 0, "lon": -77.02501116666667, "rental_uris": {"android": "https://dc.lft.to/lastmile_qr_scan", "ios": "https://dc.lft.to/lastmile_qr_scan"}}, {"name": "e070dae5a348d2ab880e47ffec0d7976", "is_disabled": 0, "fusion_lat": 0.0, "fusion_lon": 0.0, "type": "electric_bike", "lat": 38.8787075, "bike_id": "e070dae5a348d2ab880e47ffec0d7976", "is_reserved": 0, "lon": -76.99016716666667, "rental_uris": {"android": "https://dc.lft.to/lastmile_qr_scan", "ios": "https://dc.lft.to/lastmile_qr_scan"}}, {"name": "59453f94c3f5f5b1b4bbcb7382f482e3", "is_disabled": 0, "fusion_lat": 0.0, "fusion_lon": 0.0, "type": "electric_bike", "lat": 38.955421666666666, "bike_id": "59453f94c3f5f5b1b4bbcb7382f482e3", "is_reserved": 0, "lon": -77.06933066666667, "rental_uris": {"android": "https://dc.lft.to/lastmile_qr_scan", "ios": "https://dc.lft.to/lastmile_qr_scan"}}, {"name": "25c73b60e718c48fa5e93099f225d119", "is_disabled": 0, "fusion_lat": 0.0, "fusion_lon": 0.0, "type": "electric_scooter", "lat": 38.91550616666667, "bike_id": "25c73b60e718c48fa5e93099f225d119", "is_reserved": 0, "lon": -77.02050733333333, "rental_uris": {"android": "https://dc.lft.to/lastmile_qr_scan", "ios": "https://dc.lft.to/lastmile_qr_scan"}}, {"name": "4ae93e8bfa04ac656c0d276ab33bcb3b", "is_disabled": 0, "fusion_lat": 0.0, "fusion_lon": 0.0, "type": "electric_scooter", "lat": 38.9208095, "bike_id": "4ae93e8bfa04ac656c0d276ab33bcb3b", "is_reserved": 0, "lon": -77.02356883333333, "rental_uris": {"android": "https://dc.lft.to/lastmile_qr_scan", "ios": "https://dc.lft.to/lastmile_qr_scan"}}, {"name": "0d99d75a4e1092fcb472d517fa2e6a1d", "is_disabled": 0, "fusion_lat": 0.0, "fusion_lon": 0.0, "type": "electric_scooter", "lat": 38.88495283333334, "bike_id": "0d99d75a4e1092fcb472d517fa2e6a1d", "is_reserved": 0, "lon": -77.00879483333334, "rental_uris": {"android": "https://dc.lft.to/lastmile_qr_scan", "ios": "https://dc.lft.to/lastmile_qr_scan"}}, {"name": "19ef6990525b3dd7532fe1cff3df2384", "is_disabled": 0, "fusion_lat": 0.0, "fusion_lon": 0.0, "type": "electric_scooter", "lat": 38.9420455, "bike_id": "19ef6990525b3dd7532fe1cff3df2384", "is_reserved": 0, "lon": -77.0250465, "rental_uris": {"android": "https://dc.lft.to/lastmile_qr_scan", "ios": "https://dc.lft.to/lastmile_qr_scan"}}, {"name": "bc40eb658d703333654d95f346b5cad1", "is_disabled": 0, "fusion_lat": 0.0, "fusion_lon": 0.0, "type": "electric_scooter", "lat": 38.91023466666667, "bike_id": "bc40eb658d703333654d95f346b5cad1", "is_reserved": 0, "lon": -77.03444516666667, "rental_uris": {"android": "https://dc.lft.to/lastmile_qr_scan", "ios": "https://dc.lft.to/lastmile_qr_scan"}}, {"name": "5413f047697ac21303700f37dd30752b", "is_disabled": 0, "fusion_lat": 0.0, "fusion_lon": 0.0, "type": "electric_scooter", "lat": 38.91182416666667, "bike_id": "5413f047697ac21303700f37dd30752b", "is_reserved": 0, "lon": -77.03503533333334, "rental_uris": {"android": "https://dc.lft.to/lastmile_qr_scan", "ios": "https://dc.lft.to/lastmile_qr_scan"}}, {"name": "3b5a2a54b6f734dd65e90be946dcaed4", "is_disabled": 0, "fusion_lat": 0.0, "fusion_lon": 0.0, "type": "electric_scooter", "lat": 38.94503366666667, "bike_id": "3b5a2a54b6f734dd65e90be946dcaed4", "is_reserved": 0, "lon": -77.0349725, "rental_uris": {"android": "https://dc.lft.to/lastmile_qr_scan", "ios": "https://dc.lft.to/lastmile_qr_scan"}}, {"name": "122e6097bbe6f2d49936f2a436ac7b98", "is_disabled": 0, "fusion_lat": 0.0, "fusion_lon": 0.0, "type": "electric_scooter", "lat": 38.900827666666665, "bike_id": "122e6097bbe6f2d49936f2a436ac7b98", "is_reserved": 0, "lon": -76.93027433333333, "rental_uris": {"android": "https://dc.lft.to/lastmile_qr_scan", "ios": "https://dc.lft.to/lastmile_qr_scan"}}, {"name": "6763815edaaf4c1eb48b33179588d526", "is_disabled": 0, "fusion_lat": 0.0, "fusion_lon": 0.0, "type": "electric_scooter", "lat": 38.92666933333334, "bike_id": "6763815edaaf4c1eb48b33179588d526", "is_reserved": 0, "lon": -77.01502333333333, "rental_uris": {"android": "https://dc.lft.to/lastmile_qr_scan", "ios": "https://dc.lft.to/lastmile_qr_scan"}}, {"name": "552799e1312460790fc8335e81eb5f74", "is_disabled": 0, "fusion_lat": 0.0, "fusion_lon": 0.0, "type": "electric_scooter", "lat": 38.879326166666665, "bike_id": "552799e1312460790fc8335e81eb5f74", "is_reserved": 0, "lon": -77.00410133333334, "rental_uris": {"android": "https://dc.lft.to/lastmile_qr_scan", "ios": "https://dc.lft.to/lastmile_qr_scan"}}, {"name": "db6121544d0735289696916e901222c9", "is_disabled": 0, "fusion_lat": 0.0, "fusion_lon": 0.0, "type": "electric_scooter", "lat": 38.917819333333334, "bike_id": "db6121544d0735289696916e901222c9", "is_reserved": 0, "lon": -77.03223833333334, "rental_uris": {"android": "https://dc.lft.to/lastmile_qr_scan", "ios": "https://dc.lft.to/lastmile_qr_scan"}}, {"name": "cfca2530880fc2f2fcd95325615d741c", "is_disabled": 0, "fusion_lat": 0.0, "fusion_lon": 0.0, "type": "electric_scooter", "lat": 38.9365075, "bike_id": "cfca2530880fc2f2fcd95325615d741c", "is_reserved": 0, "lon": -77.02638416666667, "rental_uris": {"android": "https://dc.lft.to/lastmile_qr_scan", "ios": "https://dc.lft.to/lastmile_qr_scan"}}, {"name": "2d33d69ea5546271752c8f480ea153d2", "is_disabled": 0, "fusion_lat": 0.0, "fusion_lon": 0.0, "type": "electric_scooter", "lat": 38.90234316666667, "bike_id": "2d33d69ea5546271752c8f480ea153d2", "is_reserved": 0, "lon": -77.04406333333333, "rental_uris": {"android": "https://dc.lft.to/lastmile_qr_scan", "ios": "https://dc.lft.to/lastmile_qr_scan"}}, {"name": "75b03b872feca19d3b523651055353a7", "is_disabled": 0, "fusion_lat": 0.0, "fusion_lon": 0.0, "type": "electric_scooter", "lat": 38.9071945, "bike_id": "75b03b872feca19d3b523651055353a7", "is_reserved": 0, "lon": -77.01639133333333, "rental_uris": {"android": "https://dc.lft.to/lastmile_qr_scan", "ios": "https://dc.lft.to/lastmile_qr_scan"}}, {"name": "ad7251348707b77ad6aaa1add2f4aeb1", "is_disabled": 0, "fusion_lat": 0.0, "fusion_lon": 0.0, "type": "electric_scooter", "lat": 38.9163465, "bike_id": "ad7251348707b77ad6aaa1add2f4aeb1", "is_reserved": 0, "lon": -77.01087166666667, "rental_uris": {"android": "https://dc.lft.to/lastmile_qr_scan", "ios": "https://dc.lft.to/lastmile_qr_scan"}}, {"name": "aec6d6947d4f4df58c0cd8cead1b3c67", "is_disabled": 0, "fusion_lat": 0.0, "fusion_lon": 0.0, "type": "electric_scooter", "lat": 38.908341666666665, "bike_id": "aec6d6947d4f4df58c0cd8cead1b3c67", "is_reserved": 0, "lon": -77.00090016666667, "rental_uris": {"android": "https://dc.lft.to/lastmile_qr_scan", "ios": "https://dc.lft.to/lastmile_qr_scan"}}, {"name": "118a6e74c5dec6a57aad0bd751a83434", "is_disabled": 0, "fusion_lat": 0.0, "fusion_lon": 0.0, "type": "electric_scooter", "lat": 38.871986166666666, "bike_id": "118a6e74c5dec6a57aad0bd751a83434", "is_reserved": 0, "lon": -77.00577916666667, "rental_uris": {"android": "https://dc.lft.to/lastmile_qr_scan", "ios": "https://dc.lft.to/lastmile_qr_scan"}}, {"name": "b33e2b8c821d572819f6b5f7298f322d", "is_disabled": 0, "fusion_lat": 0.0, "fusion_lon": 0.0, "type": "electric_bike", "lat": 38.86933883333333, "bike_id": "b33e2b8c821d572819f6b5f7298f322d", "is_reserved": 0, "lon": -77.09470316666666, "rental_uris": {"android": "https://dc.lft.to/lastmile_qr_scan", "ios": "https://dc.lft.to/lastmile_qr_scan"}}, {"name": "1d1feb07c87db4a333a265a0e64e41ba", "is_disabled": 0, "fusion_lat": 0.0, "fusion_lon": 0.0, "type": "electric_scooter", "lat": 38.90606983333333, "bike_id": "1d1feb07c87db4a333a265a0e64e41ba", "is_reserved": 0, "lon": -77.0630495, "rental_uris": {"android": "https://dc.lft.to/lastmile_qr_scan", "ios": "https://dc.lft.to/lastmile_qr_scan"}}, {"name": "a5d56920c9fb4ff2b48f993e48ae7402", "is_disabled": 0, "fusion_lat": 0.0, "fusion_lon": 0.0, "type": "electric_scooter", "lat": 38.893134333333336, "bike_id": "a5d56920c9fb4ff2b48f993e48ae7402", "is_reserved": 0, "lon": -77.0500275, "rental_uris": {"android": "https://dc.lft.to/lastmile_qr_scan", "ios": "https://dc.lft.to/lastmile_qr_scan"}}, {"name": "ee5939571e0ebea2d445a25c900eca7e", "is_disabled": 0, "fusion_lat": 0.0, "fusion_lon": 0.0, "type": "electric_scooter", "lat": 38.89220733333333, "bike_id": "ee5939571e0ebea2d445a25c900eca7e", "is_reserved": 0, "lon": -77.02349016666666, "rental_uris": {"android": "https://dc.lft.to/lastmile_qr_scan", "ios": "https://dc.lft.to/lastmile_qr_scan"}}, {"name": "2db2027ed7ef4729e6597a35bffe9129", "is_disabled": 0, "fusion_lat": 0.0, "fusion_lon": 0.0, "type": "electric_scooter", "lat": 38.914631666666665, "bike_id": "2db2027ed7ef4729e6597a35bffe9129", "is_reserved": 0, "lon": -77.04556333333333, "rental_uris": {"android": "https://dc.lft.to/lastmile_qr_scan", "ios": "https://dc.lft.to/lastmile_qr_scan"}}, {"name": "dce5304c33a1f21bdd44d90b7d103c48", "is_disabled": 0, "fusion_lat": 0.0, "fusion_lon": 0.0, "type": "electric_scooter", "lat": 38.902618, "bike_id": "dce5304c33a1f21bdd44d90b7d103c48", "is_reserved": 0, "lon": -77.03409966666666, "rental_uris": {"android": "https://dc.lft.to/lastmile_qr_scan", "ios": "https://dc.lft.to/lastmile_qr_scan"}}, {"name": "5e4fcd24abe97ff51482eb4c49856c72", "is_disabled": 0, "fusion_lat": 0.0, "fusion_lon": 0.0, "type": "electric_scooter", "lat": 38.928989, "bike_id": "5e4fcd24abe97ff51482eb4c49856c72", "is_reserved": 0, "lon": -77.01643116666666, "rental_uris": {"android": "https://dc.lft.to/lastmile_qr_scan", "ios": "https://dc.lft.to/lastmile_qr_scan"}}, {"name": "1fee48961f6107ee3a2a4d08676155af", "is_disabled": 0, "fusion_lat": 0.0, "fusion_lon": 0.0, "type": "electric_scooter", "lat": 38.8901775, "bike_id": "1fee48961f6107ee3a2a4d08676155af", "is_reserved": 0, "lon": -76.9370025, "rental_uris": {"android": "https://dc.lft.to/lastmile_qr_scan", "ios": "https://dc.lft.to/lastmile_qr_scan"}}, {"name": "6281794596d74fd30f72ae81f8c0dc1e", "is_disabled": 0, "fusion_lat": 0.0, "fusion_lon": 0.0, "type": "electric_scooter", "lat": 38.90681333333333, "bike_id": "6281794596d74fd30f72ae81f8c0dc1e", "is_reserved": 0, "lon": -77.03761583333333, "rental_uris": {"android": "https://dc.lft.to/lastmile_qr_scan", "ios": "https://dc.lft.to/lastmile_qr_scan"}}, {"name": "8643c3ec7cd40644856dbbeaf0ba2bbb", "is_disabled": 0, "fusion_lat": 0.0, "fusion_lon": 0.0, "type": "electric_scooter", "lat": 38.90253933333334, "bike_id": "8643c3ec7cd40644856dbbeaf0ba2bbb", "is_reserved": 0, "lon": -77.03042683333334, "rental_uris": {"android": "https://dc.lft.to/lastmile_qr_scan", "ios": "https://dc.lft.to/lastmile_qr_scan"}}, {"name": "ff2dfce4db99835097210ba6cbbe19c9", "is_disabled": 0, "fusion_lat": 0.0, "fusion_lon": 0.0, "type": "electric_scooter", "lat": 38.90472316666666, "bike_id": "ff2dfce4db99835097210ba6cbbe19c9", "is_reserved": 0, "lon": -77.0384515, "rental_uris": {"android": "https://dc.lft.to/lastmile_qr_scan", "ios": "https://dc.lft.to/lastmile_qr_scan"}}, {"name": "160b0c91b84580c4d12f511a6c1c8c51", "is_disabled": 0, "fusion_lat": 0.0, "fusion_lon": 0.0, "type": "electric_scooter", "lat": 38.923437166666666, "bike_id": "160b0c91b84580c4d12f511a6c1c8c51", "is_reserved": 0, "lon": -77.0512245, "rental_uris": {"android": "https://dc.lft.to/lastmile_qr_scan", "ios": "https://dc.lft.to/lastmile_qr_scan"}}, {"name": "15cd507c2351d2fb85e45d68b8e25c3e", "is_disabled": 0, "fusion_lat": 0.0, "fusion_lon": 0.0, "type": "electric_scooter", "lat": 38.9154005, "bike_id": "15cd507c2351d2fb85e45d68b8e25c3e", "is_reserved": 0, "lon": -76.97013383333334, "rental_uris": {"android": "https://dc.lft.to/lastmile_qr_scan", "ios": "https://dc.lft.to/lastmile_qr_scan"}}, {"name": "c96b3ecf2e624666af14a21391544287", "is_disabled": 0, "fusion_lat": 0.0, "fusion_lon": 0.0, "type": "electric_scooter", "lat": 38.925839, "bike_id": "c96b3ecf2e624666af14a21391544287", "is_reserved": 0, "lon": -77.03993, "rental_uris": {"android": "https://dc.lft.to/lastmile_qr_scan", "ios": "https://dc.lft.to/lastmile_qr_scan"}}, {"name": "e04b05767185819dbd5e7a9508f32d2f", "is_disabled": 0, "fusion_lat": 0.0, "fusion_lon": 0.0, "type": "electric_scooter", "lat": 38.937101, "bike_id": "e04b05767185819dbd5e7a9508f32d2f", "is_reserved": 0, "lon": -77.02937183333333, "rental_uris": {"android": "https://dc.lft.to/lastmile_qr_scan", "ios": "https://dc.lft.to/lastmile_qr_scan"}}, {"name": "7a4a51fa56e24a14c0348046498dd4b2", "is_disabled": 0, "fusion_lat": 0.0, "fusion_lon": 0.0, "type": "electric_scooter", "lat": 38.91677333333333, "bike_id": "7a4a51fa56e24a14c0348046498dd4b2", "is_reserved": 0, "lon": -77.02896816666667, "rental_uris": {"android": "https://dc.lft.to/lastmile_qr_scan", "ios": "https://dc.lft.to/lastmile_qr_scan"}}, {"name": "823a258bbf0cd158b4d5cf46551f5546", "is_disabled": 0, "fusion_lat": 0.0, "fusion_lon": 0.0, "type": "electric_scooter", "lat": 38.92102833333333, "bike_id": "823a258bbf0cd158b4d5cf46551f5546", "is_reserved": 0, "lon": -77.03923783333333, "rental_uris": {"android": "https://dc.lft.to/lastmile_qr_scan", "ios": "https://dc.lft.to/lastmile_qr_scan"}}, {"name": "5249d8d24af9fea3b856b7cf8098629b", "is_disabled": 0, "fusion_lat": 0.0, "fusion_lon": 0.0, "type": "electric_scooter", "lat": 38.883684333333335, "bike_id": "5249d8d24af9fea3b856b7cf8098629b", "is_reserved": 0, "lon": -76.99508133333333, "rental_uris": {"android": "https://dc.lft.to/lastmile_qr_scan", "ios": "https://dc.lft.to/lastmile_qr_scan"}}, {"name": "5d6080002f9088d1d3c26b05abbb3bd8", "is_disabled": 0, "fusion_lat": 0.0, "fusion_lon": 0.0, "type": "electric_scooter", "lat": 38.90004033333334, "bike_id": "5d6080002f9088d1d3c26b05abbb3bd8", "is_reserved": 0, "lon": -76.99623216666667, "rental_uris": {"android": "https://dc.lft.to/lastmile_qr_scan", "ios": "https://dc.lft.to/lastmile_qr_scan"}}, {"name": "39b56fcd20292e19110372dabaa65425", "is_disabled": 0, "fusion_lat": 0.0, "fusion_lon": 0.0, "type": "electric_scooter", "lat": 38.8871765, "bike_id": "39b56fcd20292e19110372dabaa65425", "is_reserved": 0, "lon": -77.03216383333333, "rental_uris": {"android": "https://dc.lft.to/lastmile_qr_scan", "ios": "https://dc.lft.to/lastmile_qr_scan"}}, {"name": "4b1fbc8b7dd11b01b585e282383eaf46", "is_disabled": 0, "fusion_lat": 0.0, "fusion_lon": 0.0, "type": "electric_scooter", "lat": 38.892209333333334, "bike_id": "4b1fbc8b7dd11b01b585e282383eaf46", "is_reserved": 0, "lon": -77.04687666666666, "rental_uris": {"android": "https://dc.lft.to/lastmile_qr_scan", "ios": "https://dc.lft.to/lastmile_qr_scan"}}, {"name": "3c4c4c3ee719459641c156b212388ac4", "is_disabled": 0, "fusion_lat": 0.0, "fusion_lon": 0.0, "type": "electric_scooter", "lat": 38.90595066666667, "bike_id": "3c4c4c3ee719459641c156b212388ac4", "is_reserved": 0, "lon": -77.0641965, "rental_uris": {"android": "https://dc.lft.to/lastmile_qr_scan", "ios": "https://dc.lft.to/lastmile_qr_scan"}}, {"name": "dc8350cbee3272c1f532c24823987f7b", "is_disabled": 0, "fusion_lat": 0.0, "fusion_lon": 0.0, "type": "electric_scooter", "lat": 38.92430383333333, "bike_id": "dc8350cbee3272c1f532c24823987f7b", "is_reserved": 0, "lon": -77.05211033333333, "rental_uris": {"android": "https://dc.lft.to/lastmile_qr_scan", "ios": "https://dc.lft.to/lastmile_qr_scan"}}, {"name": "668081d22862aa26e1ffa380bcda2041", "is_disabled": 0, "fusion_lat": 0.0, "fusion_lon": 0.0, "type": "electric_scooter", "lat": 38.896042666666666, "bike_id": "668081d22862aa26e1ffa380bcda2041", "is_reserved": 0, "lon": -77.011506, "rental_uris": {"android": "https://dc.lft.to/lastmile_qr_scan", "ios": "https://dc.lft.to/lastmile_qr_scan"}}, {"name": "29a9a3abd5e148a7dea3c3624acdb21b", "is_disabled": 0, "fusion_lat": 0.0, "fusion_lon": 0.0, "type": "electric_scooter", "lat": 38.8605745, "bike_id": "29a9a3abd5e148a7dea3c3624acdb21b", "is_reserved": 0, "lon": -76.98508183333334, "rental_uris": {"android": "https://dc.lft.to/lastmile_qr_scan", "ios": "https://dc.lft.to/lastmile_qr_scan"}}, {"name": "79c10922e44def7e3d05a602aaa65afe", "is_disabled": 0, "fusion_lat": 0.0, "fusion_lon": 0.0, "type": "electric_scooter", "lat": 38.896035, "bike_id": "79c10922e44def7e3d05a602aaa65afe", "is_reserved": 0, "lon": -76.99966916666666, "rental_uris": {"android": "https://dc.lft.to/lastmile_qr_scan", "ios": "https://dc.lft.to/lastmile_qr_scan"}}, {"name": "185d391ea56e054cf219be852b2885ff", "is_disabled": 0, "fusion_lat": 0.0, "fusion_lon": 0.0, "type": "electric_bike", "lat": 39.04306, "bike_id": "185d391ea56e054cf219be852b2885ff", "is_reserved": 0, "lon": -77.05151883333333, "rental_uris": {"android": "https://dc.lft.to/lastmile_qr_scan", "ios": "https://dc.lft.to/lastmile_qr_scan"}}, {"name": "3b75880fd3ca704a3457ba3e2e030abd", "is_disabled": 0, "fusion_lat": 0.0, "fusion_lon": 0.0, "type": "electric_scooter", "lat": 38.907282333333335, "bike_id": "3b75880fd3ca704a3457ba3e2e030abd", "is_reserved": 0, "lon": -76.98693283333333, "rental_uris": {"android": "https://dc.lft.to/lastmile_qr_scan", "ios": "https://dc.lft.to/lastmile_qr_scan"}}, {"name": "f337a37cbab94b6bbc1c2c2ad6aa5e62", "is_disabled": 0, "fusion_lat": 0.0, "fusion_lon": 0.0, "type": "electric_scooter", "lat": 38.90365933333333, "bike_id": "f337a37cbab94b6bbc1c2c2ad6aa5e62", "is_reserved": 0, "lon": -76.9971005, "rental_uris": {"android": "https://dc.lft.to/lastmile_qr_scan", "ios": "https://dc.lft.to/lastmile_qr_scan"}}, {"name": "4549bbbe0ea2789c4d51b2bb7532b507", "is_disabled": 0, "fusion_lat": 0.0, "fusion_lon": 0.0, "type": "electric_scooter", "lat": 38.928636, "bike_id": "4549bbbe0ea2789c4d51b2bb7532b507", "is_reserved": 0, "lon": -77.02768183333333, "rental_uris": {"android": "https://dc.lft.to/lastmile_qr_scan", "ios": "https://dc.lft.to/lastmile_qr_scan"}}, {"name": "f90e6a75a4966bbf3b1552b4bb4d1e79", "is_disabled": 0, "fusion_lat": 0.0, "fusion_lon": 0.0, "type": "electric_scooter", "lat": 38.899155, "bike_id": "f90e6a75a4966bbf3b1552b4bb4d1e79", "is_reserved": 0, "lon": -77.0330655, "rental_uris": {"android": "https://dc.lft.to/lastmile_qr_scan", "ios": "https://dc.lft.to/lastmile_qr_scan"}}, {"name": "fc5fe1974aa89a405a0637caca78d63a", "is_disabled": 0, "fusion_lat": 0.0, "fusion_lon": 0.0, "type": "electric_bike", "lat": 38.8065665, "bike_id": "fc5fe1974aa89a405a0637caca78d63a", "is_reserved": 0, "lon": -77.08763266666666, "rental_uris": {"android": "https://dc.lft.to/lastmile_qr_scan", "ios": "https://dc.lft.to/lastmile_qr_scan"}}, {"name": "e31d9e7cebee889dfc7e77f268915c5d", "is_disabled": 0, "fusion_lat": 0.0, "fusion_lon": 0.0, "type": "electric_scooter", "lat": 38.916812166666666, "bike_id": "e31d9e7cebee889dfc7e77f268915c5d", "is_reserved": 0, "lon": -77.02970483333333, "rental_uris": {"android": "https://dc.lft.to/lastmile_qr_scan", "ios": "https://dc.lft.to/lastmile_qr_scan"}}, {"name": "fd0a69f4c0a18854c8389b693715613e", "is_disabled": 0, "fusion_lat": 0.0, "fusion_lon": 0.0, "type": "electric_scooter", "lat": 38.88881766666667, "bike_id": "fd0a69f4c0a18854c8389b693715613e", "is_reserved": 0, "lon": -76.94780666666666, "rental_uris": {"android": "https://dc.lft.to/lastmile_qr_scan", "ios": "https://dc.lft.to/lastmile_qr_scan"}}, {"name": "2ff2187280929cff01fb22ddd595a5f1", "is_disabled": 0, "fusion_lat": 0.0, "fusion_lon": 0.0, "type": "electric_scooter", "lat": 38.977242, "bike_id": "2ff2187280929cff01fb22ddd595a5f1", "is_reserved": 0, "lon": -77.01728233333333, "rental_uris": {"android": "https://dc.lft.to/lastmile_qr_scan", "ios": "https://dc.lft.to/lastmile_qr_scan"}}, {"name": "5982e48a4b39948e2c672b984f4a9188", "is_disabled": 0, "fusion_lat": 0.0, "fusion_lon": 0.0, "type": "electric_scooter", "lat": 38.88738083333333, "bike_id": "5982e48a4b39948e2c672b984f4a9188", "is_reserved": 0, "lon": -77.02208866666666, "rental_uris": {"android": "https://dc.lft.to/lastmile_qr_scan", "ios": "https://dc.lft.to/lastmile_qr_scan"}}, {"name": "78172937d7bfcf35108cdc76c5d456a9", "is_disabled": 0, "fusion_lat": 0.0, "fusion_lon": 0.0, "type": "electric_bike", "lat": 38.97319566666667, "bike_id": "78172937d7bfcf35108cdc76c5d456a9", "is_reserved": 0, "lon": -77.03426316666666, "rental_uris": {"android": "https://dc.lft.to/lastmile_qr_scan", "ios": "https://dc.lft.to/lastmile_qr_scan"}}, {"name": "5456b1285155898a453e7b231f137627", "is_disabled": 0, "fusion_lat": 0.0, "fusion_lon": 0.0, "type": "electric_scooter", "lat": 38.89321616666667, "bike_id": "5456b1285155898a453e7b231f137627", "is_reserved": 0, "lon": -77.01806016666667, "rental_uris": {"android": "https://dc.lft.to/lastmile_qr_scan", "ios": "https://dc.lft.to/lastmile_qr_scan"}}, {"name": "f9a07aaaee2b3c8bcd34ed17472bc07b", "is_disabled": 0, "fusion_lat": 0.0, "fusion_lon": 0.0, "type": "electric_scooter", "lat": 38.91110183333333, "bike_id": "f9a07aaaee2b3c8bcd34ed17472bc07b", "is_reserved": 0, "lon": -77.00366533333333, "rental_uris": {"android": "https://dc.lft.to/lastmile_qr_scan", "ios": "https://dc.lft.to/lastmile_qr_scan"}}, {"name": "653b6dced264addb98ffbe56a8fbbbaa", "is_disabled": 0, "fusion_lat": 0.0, "fusion_lon": 0.0, "type": "electric_bike", "lat": 38.79674466666667, "bike_id": "653b6dced264addb98ffbe56a8fbbbaa", "is_reserved": 0, "lon": -76.99333783333333, "rental_uris": {"android": "https://dc.lft.to/lastmile_qr_scan", "ios": "https://dc.lft.to/lastmile_qr_scan"}}, {"name": "bf71aaa1d7bf2c243744dcd2712f6344", "is_disabled": 0, "fusion_lat": 0.0, "fusion_lon": 0.0, "type": "electric_scooter", "lat": 38.885926166666664, "bike_id": "bf71aaa1d7bf2c243744dcd2712f6344", "is_reserved": 0, "lon": -77.00579933333333, "rental_uris": {"android": "https://dc.lft.to/lastmile_qr_scan", "ios": "https://dc.lft.to/lastmile_qr_scan"}}, {"name": "d920951e0e5591bff172f9446b761733", "is_disabled": 0, "fusion_lat": 0.0, "fusion_lon": 0.0, "type": "electric_scooter", "lat": 38.903526, "bike_id": "d920951e0e5591bff172f9446b761733", "is_reserved": 0, "lon": -77.005899, "rental_uris": {"android": "https://dc.lft.to/lastmile_qr_scan", "ios": "https://dc.lft.to/lastmile_qr_scan"}}, {"name": "d478b7554a2de71a8a9f51e73e1a2fc2", "is_disabled": 0, "fusion_lat": 0.0, "fusion_lon": 0.0, "type": "electric_scooter", "lat": 38.91798583333333, "bike_id": "d478b7554a2de71a8a9f51e73e1a2fc2", "is_reserved": 0, "lon": -77.031875, "rental_uris": {"android": "https://dc.lft.to/lastmile_qr_scan", "ios": "https://dc.lft.to/lastmile_qr_scan"}}, {"name": "0e3e949b69228a72bae345f351f99376", "is_disabled": 0, "fusion_lat": 0.0, "fusion_lon": 0.0, "type": "electric_scooter", "lat": 38.87542766666667, "bike_id": "0e3e949b69228a72bae345f351f99376", "is_reserved": 0, "lon": -77.0060555, "rental_uris": {"android": "https://dc.lft.to/lastmile_qr_scan", "ios": "https://dc.lft.to/lastmile_qr_scan"}}, {"name": "c1c79b1caa463eeefbc8c7f8276d8852", "is_disabled": 0, "fusion_lat": 0.0, "fusion_lon": 0.0, "type": "electric_scooter", "lat": 38.908145833333336, "bike_id": "c1c79b1caa463eeefbc8c7f8276d8852", "is_reserved": 0, "lon": -77.038396, "rental_uris": {"android": "https://dc.lft.to/lastmile_qr_scan", "ios": "https://dc.lft.to/lastmile_qr_scan"}}, {"name": "c1234ae8d3afd85838b194b839b4ace0", "is_disabled": 0, "fusion_lat": 0.0, "fusion_lon": 0.0, "type": "electric_scooter", "lat": 38.8901335, "bike_id": "c1234ae8d3afd85838b194b839b4ace0", "is_reserved": 0, "lon": -76.93730916666667, "rental_uris": {"android": "https://dc.lft.to/lastmile_qr_scan", "ios": "https://dc.lft.to/lastmile_qr_scan"}}, {"name": "54dc46e0eddd11b9a8ddc48a4996e098", "is_disabled": 0, "fusion_lat": 0.0, "fusion_lon": 0.0, "type": "electric_scooter", "lat": 38.92259283333333, "bike_id": "54dc46e0eddd11b9a8ddc48a4996e098", "is_reserved": 0, "lon": -77.04248266666667, "rental_uris": {"android": "https://dc.lft.to/lastmile_qr_scan", "ios": "https://dc.lft.to/lastmile_qr_scan"}}, {"name": "1f398a345570f6c49b99bbf4f1baa117", "is_disabled": 0, "fusion_lat": 0.0, "fusion_lon": 0.0, "type": "electric_scooter", "lat": 38.89814633333334, "bike_id": "1f398a345570f6c49b99bbf4f1baa117", "is_reserved": 0, "lon": -77.040129, "rental_uris": {"android": "https://dc.lft.to/lastmile_qr_scan", "ios": "https://dc.lft.to/lastmile_qr_scan"}}, {"name": "2d310945d772b145bdd716b090bd714e", "is_disabled": 0, "fusion_lat": 0.0, "fusion_lon": 0.0, "type": "electric_bike", "lat": 38.893074666666664, "bike_id": "2d310945d772b145bdd716b090bd714e", "is_reserved": 0, "lon": -77.02590833333333, "rental_uris": {"android": "https://dc.lft.to/lastmile_qr_scan", "ios": "https://dc.lft.to/lastmile_qr_scan"}}, {"name": "8c7a45e77e63fee8c55cc22326ad7172", "is_disabled": 0, "fusion_lat": 0.0, "fusion_lon": 0.0, "type": "electric_scooter", "lat": 38.90697516666667, "bike_id": "8c7a45e77e63fee8c55cc22326ad7172", "is_reserved": 0, "lon": -77.0415895, "rental_uris": {"android": "https://dc.lft.to/lastmile_qr_scan", "ios": "https://dc.lft.to/lastmile_qr_scan"}}, {"name": "1f7837a768071d48a7a0f2cc84a226c4", "is_disabled": 0, "fusion_lat": 0.0, "fusion_lon": 0.0, "type": "electric_scooter", "lat": 38.93481533333333, "bike_id": "1f7837a768071d48a7a0f2cc84a226c4", "is_reserved": 0, "lon": -77.06479733333333, "rental_uris": {"android": "https://dc.lft.to/lastmile_qr_scan", "ios": "https://dc.lft.to/lastmile_qr_scan"}}, {"name": "499d9688b01c549bcde49e0a21ae1b6e", "is_disabled": 0, "fusion_lat": 0.0, "fusion_lon": 0.0, "type": "electric_scooter", "lat": 38.89492383333334, "bike_id": "499d9688b01c549bcde49e0a21ae1b6e", "is_reserved": 0, "lon": -77.01082733333334, "rental_uris": {"android": "https://dc.lft.to/lastmile_qr_scan", "ios": "https://dc.lft.to/lastmile_qr_scan"}}, {"name": "fa5292a25cf36726af5e408cd74b13b5", "is_disabled": 0, "fusion_lat": 0.0, "fusion_lon": 0.0, "type": "electric_scooter", "lat": 38.95196116666666, "bike_id": "fa5292a25cf36726af5e408cd74b13b5", "is_reserved": 0, "lon": -77.02739966666667, "rental_uris": {"android": "https://dc.lft.to/lastmile_qr_scan", "ios": "https://dc.lft.to/lastmile_qr_scan"}}, {"name": "51654a2a0afc883d01d0e3d6f05f265b", "is_disabled": 0, "fusion_lat": 0.0, "fusion_lon": 0.0, "type": "electric_scooter", "lat": 38.905304, "bike_id": "51654a2a0afc883d01d0e3d6f05f265b", "is_reserved": 0, "lon": -77.041749, "rental_uris": {"android": "https://dc.lft.to/lastmile_qr_scan", "ios": "https://dc.lft.to/lastmile_qr_scan"}}, {"name": "4872ed2b70590bca4fb44027177babdc", "is_disabled": 0, "fusion_lat": 0.0, "fusion_lon": 0.0, "type": "electric_scooter", "lat": 38.907170666666666, "bike_id": "4872ed2b70590bca4fb44027177babdc", "is_reserved": 0, "lon": -77.04811483333333, "rental_uris": {"android": "https://dc.lft.to/lastmile_qr_scan", "ios": "https://dc.lft.to/lastmile_qr_scan"}}, {"name": "76904c778aff5dd81aa3bf5e70015801", "is_disabled": 0, "fusion_lat": 0.0, "fusion_lon": 0.0, "type": "electric_scooter", "lat": 38.914857833333336, "bike_id": "76904c778aff5dd81aa3bf5e70015801", "is_reserved": 0, "lon": -77.02196083333334, "rental_uris": {"android": "https://dc.lft.to/lastmile_qr_scan", "ios": "https://dc.lft.to/lastmile_qr_scan"}}, {"name": "9914911d3882c08c68f6a9d558055115", "is_disabled": 0, "fusion_lat": 0.0, "fusion_lon": 0.0, "type": "electric_bike", "lat": 38.865066, "bike_id": "9914911d3882c08c68f6a9d558055115", "is_reserved": 0, "lon": -76.97331866666667, "rental_uris": {"android": "https://dc.lft.to/lastmile_qr_scan", "ios": "https://dc.lft.to/lastmile_qr_scan"}}, {"name": "a4822ebed1f73c24ab3bcc718f03619d", "is_disabled": 0, "fusion_lat": 0.0, "fusion_lon": 0.0, "type": "electric_scooter", "lat": 38.88741266666667, "bike_id": "a4822ebed1f73c24ab3bcc718f03619d", "is_reserved": 0, "lon": -77.02385716666667, "rental_uris": {"android": "https://dc.lft.to/lastmile_qr_scan", "ios": "https://dc.lft.to/lastmile_qr_scan"}}, {"name": "1c3a752a76b3a7e9f6652de099aa4824", "is_disabled": 0, "fusion_lat": 0.0, "fusion_lon": 0.0, "type": "electric_scooter", "lat": 38.882887333333336, "bike_id": "1c3a752a76b3a7e9f6652de099aa4824", "is_reserved": 0, "lon": -76.99353283333333, "rental_uris": {"android": "https://dc.lft.to/lastmile_qr_scan", "ios": "https://dc.lft.to/lastmile_qr_scan"}}, {"name": "8d7f441c860aa564a80c050f9d0d0349", "is_disabled": 0, "fusion_lat": 0.0, "fusion_lon": 0.0, "type": "electric_bike", "lat": 38.854397166666665, "bike_id": "8d7f441c860aa564a80c050f9d0d0349", "is_reserved": 0, "lon": -77.08327, "rental_uris": {"android": "https://dc.lft.to/lastmile_qr_scan", "ios": "https://dc.lft.to/lastmile_qr_scan"}}, {"name": "0032eecf18569923382d41292629e771", "is_disabled": 0, "fusion_lat": 0.0, "fusion_lon": 0.0, "type": "electric_scooter", "lat": 38.916976, "bike_id": "0032eecf18569923382d41292629e771", "is_reserved": 0, "lon": -77.0310225, "rental_uris": {"android": "https://dc.lft.to/lastmile_qr_scan", "ios": "https://dc.lft.to/lastmile_qr_scan"}}, {"name": "105f534665c73a5f98afec3fe9b8ed2c", "is_disabled": 0, "fusion_lat": 0.0, "fusion_lon": 0.0, "type": "electric_scooter", "lat": 38.928552, "bike_id": "105f534665c73a5f98afec3fe9b8ed2c", "is_reserved": 0, "lon": -77.0217845, "rental_uris": {"android": "https://dc.lft.to/lastmile_qr_scan", "ios": "https://dc.lft.to/lastmile_qr_scan"}}, {"name": "8e73cb6b5969662e61160001a791fbea", "is_disabled": 0, "fusion_lat": 0.0, "fusion_lon": 0.0, "type": "electric_scooter", "lat": 38.90603483333334, "bike_id": "8e73cb6b5969662e61160001a791fbea", "is_reserved": 0, "lon": -77.03984016666666, "rental_uris": {"android": "https://dc.lft.to/lastmile_qr_scan", "ios": "https://dc.lft.to/lastmile_qr_scan"}}, {"name": "8f606700c0dc4d52519e2502da9522ec", "is_disabled": 0, "fusion_lat": 0.0, "fusion_lon": 0.0, "type": "electric_scooter", "lat": 38.93765466666667, "bike_id": "8f606700c0dc4d52519e2502da9522ec", "is_reserved": 0, "lon": -77.01966416666667, "rental_uris": {"android": "https://dc.lft.to/lastmile_qr_scan", "ios": "https://dc.lft.to/lastmile_qr_scan"}}, {"name": "dedfcfd4016dfa945bd12afa0bb6e241", "is_disabled": 0, "fusion_lat": 0.0, "fusion_lon": 0.0, "type": "electric_scooter", "lat": 38.930596666666666, "bike_id": "dedfcfd4016dfa945bd12afa0bb6e241", "is_reserved": 0, "lon": -77.03942283333333, "rental_uris": {"android": "https://dc.lft.to/lastmile_qr_scan", "ios": "https://dc.lft.to/lastmile_qr_scan"}}, {"name": "d2e6c8885fd2a52b9aa43926b498209c", "is_disabled": 0, "fusion_lat": 0.0, "fusion_lon": 0.0, "type": "electric_scooter", "lat": 38.91868766666666, "bike_id": "d2e6c8885fd2a52b9aa43926b498209c", "is_reserved": 0, "lon": -77.04446416666667, "rental_uris": {"android": "https://dc.lft.to/lastmile_qr_scan", "ios": "https://dc.lft.to/lastmile_qr_scan"}}, {"name": "b6f0fc092f691f5f0f0acae119068190", "is_disabled": 0, "fusion_lat": 0.0, "fusion_lon": 0.0, "type": "electric_scooter", "lat": 38.92433033333333, "bike_id": "b6f0fc092f691f5f0f0acae119068190", "is_reserved": 0, "lon": -77.00067716666666, "rental_uris": {"android": "https://dc.lft.to/lastmile_qr_scan", "ios": "https://dc.lft.to/lastmile_qr_scan"}}, {"name": "650f5ab2053f4ef3a661504167a3694c", "is_disabled": 0, "fusion_lat": 0.0, "fusion_lon": 0.0, "type": "electric_bike", "lat": 38.8382605, "bike_id": "650f5ab2053f4ef3a661504167a3694c", "is_reserved": 0, "lon": -77.0791655, "rental_uris": {"android": "https://dc.lft.to/lastmile_qr_scan", "ios": "https://dc.lft.to/lastmile_qr_scan"}}, {"name": "b5c7e5c13f26e9f37304a480a281bffd", "is_disabled": 0, "fusion_lat": 0.0, "fusion_lon": 0.0, "type": "electric_bike", "lat": 38.902769166666666, "bike_id": "b5c7e5c13f26e9f37304a480a281bffd", "is_reserved": 0, "lon": -77.013698, "rental_uris": {"android": "https://dc.lft.to/lastmile_qr_scan", "ios": "https://dc.lft.to/lastmile_qr_scan"}}, {"name": "4c936249f2ad293716994240bc2c4c0a", "is_disabled": 0, "fusion_lat": 0.0, "fusion_lon": 0.0, "type": "electric_scooter", "lat": 38.885049, "bike_id": "4c936249f2ad293716994240bc2c4c0a", "is_reserved": 0, "lon": -76.99751383333333, "rental_uris": {"android": "https://dc.lft.to/lastmile_qr_scan", "ios": "https://dc.lft.to/lastmile_qr_scan"}}, {"name": "91e52cf968b006b8a548fcd74a4a2fd8", "is_disabled": 0, "fusion_lat": 0.0, "fusion_lon": 0.0, "type": "electric_scooter", "lat": 38.90229766666667, "bike_id": "91e52cf968b006b8a548fcd74a4a2fd8", "is_reserved": 0, "lon": -77.04323366666667, "rental_uris": {"android": "https://dc.lft.to/lastmile_qr_scan", "ios": "https://dc.lft.to/lastmile_qr_scan"}}, {"name": "215f8171f224a31f68f740c1b1d838a5", "is_disabled": 0, "fusion_lat": 0.0, "fusion_lon": 0.0, "type": "electric_scooter", "lat": 38.884879833333336, "bike_id": "215f8171f224a31f68f740c1b1d838a5", "is_reserved": 0, "lon": -77.00710166666667, "rental_uris": {"android": "https://dc.lft.to/lastmile_qr_scan", "ios": "https://dc.lft.to/lastmile_qr_scan"}}, {"name": "0a31b1f239330df3492d6f412cc3bfc4", "is_disabled": 0, "fusion_lat": 0.0, "fusion_lon": 0.0, "type": "electric_scooter", "lat": 38.8840335, "bike_id": "0a31b1f239330df3492d6f412cc3bfc4", "is_reserved": 0, "lon": -76.95399866666666, "rental_uris": {"android": "https://dc.lft.to/lastmile_qr_scan", "ios": "https://dc.lft.to/lastmile_qr_scan"}}, {"name": "58b24abb5c9311e908bdbef292186b1c", "is_disabled": 0, "fusion_lat": 0.0, "fusion_lon": 0.0, "type": "electric_scooter", "lat": 38.901219, "bike_id": "58b24abb5c9311e908bdbef292186b1c", "is_reserved": 0, "lon": -77.04989066666667, "rental_uris": {"android": "https://dc.lft.to/lastmile_qr_scan", "ios": "https://dc.lft.to/lastmile_qr_scan"}}, {"name": "29819f4c8a017c4ae15a27eeb936fea0", "is_disabled": 0, "fusion_lat": 0.0, "fusion_lon": 0.0, "type": "electric_scooter", "lat": 38.900693833333335, "bike_id": "29819f4c8a017c4ae15a27eeb936fea0", "is_reserved": 0, "lon": -77.00197183333333, "rental_uris": {"android": "https://dc.lft.to/lastmile_qr_scan", "ios": "https://dc.lft.to/lastmile_qr_scan"}},