{"data": {"bikes": [{"is_reserved": 0, "bike_id": "7c51f4fda3469f9fb4e956774aab4189", "type": "electric_scooter", "name": "7c51f4fda3469f9fb4e956774aab4189", "is_disabled": 0, "fusion_lon": 0.0, "rental_uris": {"android": "https://dc.lft.to/lastmile_qr_scan", "ios": "https://dc.lft.to/lastmile_qr_scan"}, "lat": 38.93941483333333, "lon": -77.0326925, "fusion_lat": 0.0}, {"is_reserved": 0, "bike_id": "e704e2d8f27f445bb9ac5870cf906cdc", "type": "electric_scooter", "name": "e704e2d8f27f445bb9ac5870cf906cdc", "is_disabled": 0, "fusion_lon": 0.0, "rental_uris": {"android": "https://dc.lft.to/lastmile_qr_scan", "ios": "https://dc.lft.to/lastmile_qr_scan"}, "lat": 38.92100216666667, "lon": -77.02518833333333, "fusion_lat": 0.0}, {"is_reserved": 0, "bike_id": "12d6b300f4dc4377fb39b79bf3be45cb", "type": "electric_scooter", "name": "12d6b300f4dc4377fb39b79bf3be45cb", "is_disabled": 0, "fusion_lon": 0.0, "rental_uris": {"android": "https://dc.lft.to/lastmile_qr_scan", "ios": "https://dc.lft.to/lastmile_qr_scan"}, "lat": 38.902062666666666, "lon": -77.03834633333334, "fusion_lat": 0.0}, {"is_reserved": 0, "bike_id": "86d3643939a4e586792dbc2fa47c1790", "type": "electric_scooter", "name": "86d3643939a4e586792dbc2fa47c1790", "is_disabled": 0, "fusion_lon": 0.0, "rental_uris": {"android": "https://dc.lft.to/lastmile_qr_scan", "ios": "https://dc.lft.to/lastmile_qr_scan"}, "lat": 38.921496, "lon": -77.03463716666667, "fusion_lat": 0.0}, {"is_reserved": 0, "bike_id": "c5cb20def46d979add84f487734b402a", "type": "electric_scooter", "name": "c5cb20def46d979add84f487734b402a", "is_disabled": 0, "fusion_lon": 0.0, "rental_uris": {"android": "https://dc.lft.to/lastmile_qr_scan", "ios": "https://dc.lft.to/lastmile_qr_scan"}, "lat": 38.93067516666667, "lon": -77.039405, "fusion_lat": 0.0}, {"is_reserved": 0, "bike_id": "5c5f1646c039d5948401a5cefffa83ae", "type": "electric_scooter", "name": "5c5f1646c039d5948401a5cefffa83ae", "is_disabled": 0, "fusion_lon": 0.0, "rental_uris": {"android": "https://dc.lft.to/lastmile_qr_scan", "ios": "https://dc.lft.to/lastmile_qr_scan"}, "lat": 38.9163395, "lon": -77.03501116666666, "fusion_lat": 0.0}, {"is_reserved": 0, "bike_id": "cf63d0ad26759f6664f10af39e10936f", "type": "electric_scooter", "name": "cf63d0ad26759f6664f10af39e10936f", "is_disabled": 0, "fusion_lon": 0.0, "rental_uris": {"android": "https://dc.lft.to/lastmile_qr_scan", "ios": "https://dc.lft.to/lastmile_qr_scan"}, "lat": 38.935813333333336, "lon": -77.02126083333333, "fusion_lat": 0.0}, {"is_reserved": 0, "bike_id": "07570a5d12a69ba4352d185be33b4c18", "type": "electric_scooter", "name": "07570a5d12a69ba4352d185be33b4c18", "is_disabled": 0, "fusion_lon": 0.0, "rental_uris": {"android": "https://dc.lft.to/lastmile_qr_scan", "ios": "https://dc.lft.to/lastmile_qr_scan"}, "lat": 38.91865383333333, "lon": -77.03196883333334, "fusion_lat": 0.0}, {"is_reserved": 0, "bike_id": "af0e831f539b3774afc7b6cce45152a8", "type": "electric_scooter", "name": "af0e831f539b3774afc7b6cce45152a8", "is_disabled": 0, "fusion_lon": 0.0, "rental_uris": {"android": "https://dc.lft.to/lastmile_qr_scan", "ios": "https://dc.lft.to/lastmile_qr_scan"}, "lat": 38.90536933333333, "lon": -77.05006733333333, "fusion_lat": 0.0}, {"is_reserved": 0, "bike_id": "a319c2e11d9cf21e5b22970436ffc7da", "type": "electric_scooter", "name": "a319c2e11d9cf21e5b22970436ffc7da", "is_disabled": 0, "fusion_lon": 0.0, "rental_uris": {"android": "https://dc.lft.to/lastmile_qr_scan", "ios": "https://dc.lft.to/lastmile_qr_scan"}, "lat": 38.899328833333335, "lon": -77.049998, "fusion_lat": 0.0}, {"is_reserved": 0, "bike_id": "8940aa7b64246ddafa560b9a1cb9021c", "type": "electric_scooter", "name": "8940aa7b64246ddafa560b9a1cb9021c", "is_disabled": 0, "fusion_lon": 0.0, "rental_uris": {"android": "https://dc.lft.to/lastmile_qr_scan", "ios": "https://dc.lft.to/lastmile_qr_scan"}, "lat": 38.92673383333333, "lon": -77.04067483333333, "fusion_lat": 0.0}, {"is_reserved": 0, "bike_id": "e165ee5932e3c4c62d17ffbf32029eb2", "type": "electric_scooter", "name": "e165ee5932e3c4c62d17ffbf32029eb2", "is_disabled": 0, "fusion_lon": 0.0, "rental_uris": {"android": "https://dc.lft.to/lastmile_qr_scan", "ios": "https://dc.lft.to/lastmile_qr_scan"}, "lat": 38.88869616666667, "lon": -77.040018, "fusion_lat": 0.0}, {"is_reserved": 0, "bike_id": "b17b3c58c705174562c9f104890059ec", "type": "electric_scooter", "name": "b17b3c58c705174562c9f104890059ec", "is_disabled": 0, "fusion_lon": 0.0, "rental_uris": {"android": "https://dc.lft.to/lastmile_qr_scan", "ios": "https://dc.lft.to/lastmile_qr_scan"}, "lat": 38.921625166666665, "lon": -77.03380733333333, "fusion_lat": 0.0}, {"is_reserved": 0, "bike_id": "3fac9d228e62d1ce84d25dd1b3d0cda4", "type": "electric_scooter", "name": "3fac9d228e62d1ce84d25dd1b3d0cda4", "is_disabled": 0, "fusion_lon": 0.0, "rental_uris": {"android": "https://dc.lft.to/lastmile_qr_scan", "ios": "https://dc.lft.to/lastmile_qr_scan"}, "lat": 38.915854833333334, "lon": -76.98373916666667, "fusion_lat": 0.0}, {"is_reserved": 0, "bike_id": "e60c61918a18bcd38fae79fc043631d3", "type": "electric_scooter", "name": "e60c61918a18bcd38fae79fc043631d3", "is_disabled": 0, "fusion_lon": 0.0, "rental_uris": {"android": "https://dc.lft.to/lastmile_qr_scan", "ios": "https://dc.lft.to/lastmile_qr_scan"}, "lat": 38.892666, "lon": -76.9837205, "fusion_lat": 0.0}, {"is_reserved": 0, "bike_id": "1214264b0221379e84d39fd1bd6b3c04", "type": "electric_scooter", "name": "1214264b0221379e84d39fd1bd6b3c04", "is_disabled": 0, "fusion_lon": 0.0, "rental_uris": {"android": "https://dc.lft.to/lastmile_qr_scan", "ios": "https://dc.lft.to/lastmile_qr_scan"}, "lat": 38.899766166666666, "lon": -77.022, "fusion_lat": 0.0}, {"is_reserved": 0, "bike_id": "27cdbf76b6fc1841ad77eb720608cbbe", "type": "electric_scooter", "name": "27cdbf76b6fc1841ad77eb720608cbbe", "is_disabled": 0, "fusion_lon": 0.0, "rental_uris": {"android": "https://dc.lft.to/lastmile_qr_scan", "ios": "https://dc.lft.to/lastmile_qr_scan"}, "lat": 38.91478433333333, "lon": -77.02183883333333, "fusion_lat": 0.0}, {"is_reserved": 0, "bike_id": "b4341e8e2697f5b5da01b400da2801a9", "type": "electric_scooter", "name": "b4341e8e2697f5b5da01b400da2801a9", "is_disabled": 0, "fusion_lon": 0.0, "rental_uris": {"android": "https://dc.lft.to/lastmile_qr_scan", "ios": "https://dc.lft.to/lastmile_qr_scan"}, "lat": 38.902534333333335, "lon": -77.028305, "fusion_lat": 0.0}, {"is_reserved": 0, "bike_id": "779ade702be9e90c904d189749bcd4c7", "type": "electric_scooter", "name": "779ade702be9e90c904d189749bcd4c7", "is_disabled": 0, "fusion_lon": 0.0, "rental_uris": {"android": "https://dc.lft.to/lastmile_qr_scan", "ios": "https://dc.lft.to/lastmile_qr_scan"}, "lat": 38.91190866666667, "lon": -77.03186183333334, "fusion_lat": 0.0}, {"is_reserved": 0, "bike_id": "9a4addaf7b5562893ce87dc8a2e77bdb", "type": "electric_scooter", "name": "9a4addaf7b5562893ce87dc8a2e77bdb", "is_disabled": 0, "fusion_lon": 0.0, "rental_uris": {"android": "https://dc.lft.to/lastmile_qr_scan", "ios": "https://dc.lft.to/lastmile_qr_scan"}, "lat": 38.88875183333333, "lon": -76.99037966666667, "fusion_lat": 0.0}, {"is_reserved": 0, "bike_id": "531b83cd18c7de029551d477483ab689", "type": "electric_scooter", "name": "531b83cd18c7de029551d477483ab689", "is_disabled": 0, "fusion_lon": 0.0, "rental_uris": {"android": "https://dc.lft.to/lastmile_qr_scan", "ios": "https://dc.lft.to/lastmile_qr_scan"}, "lat": 38.91549083333334, "lon": -77.02201166666667, "fusion_lat": 0.0}, {"is_reserved": 0, "bike_id": "d817a0f45a78b2ea57cbb4eb502a3cf0", "type": "electric_scooter", "name": "d817a0f45a78b2ea57cbb4eb502a3cf0", "is_disabled": 0, "fusion_lon": 0.0, "rental_uris": {"android": "https://dc.lft.to/lastmile_qr_scan", "ios": "https://dc.lft.to/lastmile_qr_scan"}, "lat": 38.894749166666664, "lon": -76.958354, "fusion_lat": 0.0}, {"is_reserved": 0, "bike_id": "c2008269036be38758f09535007b661b", "type": "electric_scooter", "name": "c2008269036be38758f09535007b661b", "is_disabled": 0, "fusion_lon": 0.0, "rental_uris": {"android": "https://dc.lft.to/lastmile_qr_scan", "ios": "https://dc.lft.to/lastmile_qr_scan"}, "lat": 38.928433166666665, "lon": -77.02011083333333, "fusion_lat": 0.0}, {"is_reserved": 0, "bike_id": "e9b51cb0900f84166cff47e26891540a", "type": "electric_scooter", "name": "e9b51cb0900f84166cff47e26891540a", "is_disabled": 0, "fusion_lon": 0.0, "rental_uris": {"android": "https://dc.lft.to/lastmile_qr_scan", "ios": "https://dc.lft.to/lastmile_qr_scan"}, "lat": 38.89687983333334, "lon": -77.0265675, "fusion_lat": 0.0}, {"is_reserved": 0, "bike_id": "d69ff5339faaa405a3f9a54f93f78eef", "type": "electric_scooter", "name": "d69ff5339faaa405a3f9a54f93f78eef", "is_disabled": 0, "fusion_lon": 0.0, "rental_uris": {"android": "https://dc.lft.to/lastmile_qr_scan", "ios": "https://dc.lft.to/lastmile_qr_scan"}, "lat": 38.89966366666667, "lon": -77.01609266666667, "fusion_lat": 0.0}, {"is_reserved": 0, "bike_id": "eec4296dbca4599083f2bfc3c36c7b84", "type": "electric_scooter", "name": "eec4296dbca4599083f2bfc3c36c7b84", "is_disabled": 0, "fusion_lon": 0.0, "rental_uris": {"android": "https://dc.lft.to/lastmile_qr_scan", "ios": "https://dc.lft.to/lastmile_qr_scan"}, "lat": 38.9159615, "lon": -77.03178766666667, "fusion_lat": 0.0}, {"is_reserved": 0, "bike_id": "9104ad29bdf7cfea5e6b864599bd4edb", "type": "electric_scooter", "name": "9104ad29bdf7cfea5e6b864599bd4edb", "is_disabled": 0, "fusion_lon": 0.0, "rental_uris": {"android": "https://dc.lft.to/lastmile_qr_scan", "ios": "https://dc.lft.to/lastmile_qr_scan"}, "lat": 38.900307, "lon": -77.00204066666667, "fusion_lat": 0.0}, {"is_reserved": 0, "bike_id": "db46922ca2c38cc017f2904d8fdda109", "type": "electric_scooter", "name": "db46922ca2c38cc017f2904d8fdda109", "is_disabled": 0, "fusion_lon": 0.0, "rental_uris": {"android": "https://dc.lft.to/lastmile_qr_scan", "ios": "https://dc.lft.to/lastmile_qr_scan"}, "lat": 38.907633833333335, "lon": -77.0004185, "fusion_lat": 0.0}, {"is_reserved": 0, "bike_id": "a9334c650579b4e7740cfac1eee87940", "type": "electric_bike", "name": "a9334c650579b4e7740cfac1eee87940", "is_disabled": 0, "fusion_lon": 0.0, "rental_uris": {"android": "https://dc.lft.to/lastmile_qr_scan", "ios": "https://dc.lft.to/lastmile_qr_scan"}, "lat": 39.03431766666667, "lon": -77.04316716666666, "fusion_lat": 0.0}, {"is_reserved": 0, "bike_id": "52a554bed86e9efc45d16f510330464b", "type": "electric_scooter", "name": "52a554bed86e9efc45d16f510330464b", "is_disabled": 0, "fusion_lon": 0.0, "rental_uris": {"android": "https://dc.lft.to/lastmile_qr_scan", "ios": "https://dc.lft.to/lastmile_qr_scan"}, "lat": 38.87377383333333, "lon": -77.00136183333333, "fusion_lat": 0.0}, {"is_reserved": 0, "bike_id": "2c5fd902d66fb89d8bf287532c887d25", "type": "electric_scooter", "name": "2c5fd902d66fb89d8bf287532c887d25", "is_disabled": 0, "fusion_lon": 0.0, "rental_uris": {"android": "https://dc.lft.to/lastmile_qr_scan", "ios": "https://dc.lft.to/lastmile_qr_scan"}, "lat": 38.903486, "lon": -77.0427205, "fusion_lat": 0.0}, {"is_reserved": 0, "bike_id": "19641861a8f2ecc8ca94d2fd23fa279c", "type": "electric_scooter", "name": "19641861a8f2ecc8ca94d2fd23fa279c", "is_disabled": 0, "fusion_lon": 0.0, "rental_uris": {"android": "https://dc.lft.to/lastmile_qr_scan", "ios": "https://dc.lft.to/lastmile_qr_scan"}, "lat": 38.904997, "lon": -77.05147216666667, "fusion_lat": 0.0}, {"is_reserved": 0, "bike_id": "8309ed1790bd2f7672e73a75100f2a17", "type": "electric_scooter", "name": "8309ed1790bd2f7672e73a75100f2a17", "is_disabled": 0, "fusion_lon": 0.0, "rental_uris": {"android": "https://dc.lft.to/lastmile_qr_scan", "ios": "https://dc.lft.to/lastmile_qr_scan"}, "lat": 38.92920783333334, "lon": -77.01862316666667, "fusion_lat": 0.0}, {"is_reserved": 0, "bike_id": "9a0b3861b883fdcba7df8f03228090f5", "type": "electric_bike", "name": "9a0b3861b883fdcba7df8f03228090f5", "is_disabled": 0, "fusion_lon": 0.0, "rental_uris": {"android": "https://dc.lft.to/lastmile_qr_scan", "ios": "https://dc.lft.to/lastmile_qr_scan"}, "lat": 38.922539, "lon": -76.98323666666667, "fusion_lat": 0.0}, {"is_reserved": 0, "bike_id": "afe065387a36d5db473c923dcc6d2198", "type": "electric_scooter", "name": "afe065387a36d5db473c923dcc6d2198", "is_disabled": 0, "fusion_lon": 0.0, "rental_uris": {"android": "https://dc.lft.to/lastmile_qr_scan", "ios": "https://dc.lft.to/lastmile_qr_scan"}, "lat": 38.90531516666667, "lon": -77.00683633333334, "fusion_lat": 0.0}, {"is_reserved": 0, "bike_id": "8fb64439188567abd093418c5dcee1a0", "type": "electric_scooter", "name": "8fb64439188567abd093418c5dcee1a0", "is_disabled": 0, "fusion_lon": 0.0, "rental_uris": {"android": "https://dc.lft.to/lastmile_qr_scan", "ios": "https://dc.lft.to/lastmile_qr_scan"}, "lat": 38.9017645, "lon": -77.02290983333333, "fusion_lat": 0.0}, {"is_reserved": 0, "bike_id": "9d88dcbcf27c65ecfe31cea4443b75aa", "type": "electric_scooter", "name": "9d88dcbcf27c65ecfe31cea4443b75aa", "is_disabled": 0, "fusion_lon": 0.0, "rental_uris": {"android": "https://dc.lft.to/lastmile_qr_scan", "ios": "https://dc.lft.to/lastmile_qr_scan"}, "lat": 38.92697716666667, "lon": -77.02587016666666, "fusion_lat": 0.0}, {"is_reserved": 0, "bike_id": "9f99909b4a96956413ba4e144dc9f967", "type": "electric_scooter", "name": "9f99909b4a96956413ba4e144dc9f967", "is_disabled": 0, "fusion_lon": 0.0, "rental_uris": {"android": "https://dc.lft.to/lastmile_qr_scan", "ios": "https://dc.lft.to/lastmile_qr_scan"}, "lat": 38.923208, "lon": -77.0195705, "fusion_lat": 0.0}, {"is_reserved": 0, "bike_id": "7d5803a4f2366a088514ab70e29bd063", "type": "electric_bike", "name": "7d5803a4f2366a088514ab70e29bd063", "is_disabled": 0, "fusion_lon": 0.0, "rental_uris": {"android": "https://dc.lft.to/lastmile_qr_scan", "ios": "https://dc.lft.to/lastmile_qr_scan"}, "lat": 38.950137, "lon": -77.015596, "fusion_lat": 0.0}, {"is_reserved": 0, "bike_id": "f6459b8ec9216d759b30987ae35e0740", "type": "electric_scooter", "name": "f6459b8ec9216d759b30987ae35e0740", "is_disabled": 0, "fusion_lon": 0.0, "rental_uris": {"android": "https://dc.lft.to/lastmile_qr_scan", "ios": "https://dc.lft.to/lastmile_qr_scan"}, "lat": 38.91419, "lon": -77.02234833333333, "fusion_lat": 0.0}, {"is_reserved": 0, "bike_id": "c173bd3a4ddcbb53e9e3092e570ef89f", "type": "electric_scooter", "name": "c173bd3a4ddcbb53e9e3092e570ef89f", "is_disabled": 0, "fusion_lon": 0.0, "rental_uris": {"android": "https://dc.lft.to/lastmile_qr_scan", "ios": "https://dc.lft.to/lastmile_qr_scan"}, "lat": 38.91402383333333, "lon": -77.01806033333334, "fusion_lat": 0.0}, {"is_reserved": 0, "bike_id": "6bb0331642bcf2359f25de85c4242db5", "type": "electric_scooter", "name": "6bb0331642bcf2359f25de85c4242db5", "is_disabled": 0, "fusion_lon": 0.0, "rental_uris": {"android": "https://dc.lft.to/lastmile_qr_scan", "ios": "https://dc.lft.to/lastmile_qr_scan"}, "lat": 38.88736633333333, "lon": -77.01508233333334, "fusion_lat": 0.0}, {"is_reserved": 0, "bike_id": "72e12f8ffc5502d2c98643e2b808c8d7", "type": "electric_scooter", "name": "72e12f8ffc5502d2c98643e2b808c8d7", "is_disabled": 0, "fusion_lon": 0.0, "rental_uris": {"android": "https://dc.lft.to/lastmile_qr_scan", "ios": "https://dc.lft.to/lastmile_qr_scan"}, "lat": 38.915503666666666, "lon": -77.02203216666666, "fusion_lat": 0.0}, {"is_reserved": 0, "bike_id": "dd00e7e3cac60313ce54f5d737deebb3", "type": "electric_scooter", "name": "dd00e7e3cac60313ce54f5d737deebb3", "is_disabled": 0, "fusion_lon": 0.0, "rental_uris": {"android": "https://dc.lft.to/lastmile_qr_scan", "ios": "https://dc.lft.to/lastmile_qr_scan"}, "lat": 38.91912683333334, "lon": -77.03173, "fusion_lat": 0.0}, {"is_reserved": 0, "bike_id": "7d7200732ab85bd5b31b6f4b34a23863", "type": "electric_bike", "name": "7d7200732ab85bd5b31b6f4b34a23863", "is_disabled": 0, "fusion_lon": 0.0, "rental_uris": {"android": "https://dc.lft.to/lastmile_qr_scan", "ios": "https://dc.lft.to/lastmile_qr_scan"}, "lat": 38.920631666666665, "lon": -77.03061683333334, "fusion_lat": 0.0}, {"is_reserved": 0, "bike_id": "69313ccf5d8d718ad501e8871ba45a9b", "type": "electric_bike", "name": "69313ccf5d8d718ad501e8871ba45a9b", "is_disabled": 0, "fusion_lon": 0.0, "rental_uris": {"android": "https://dc.lft.to/lastmile_qr_scan", "ios": "https://dc.lft.to/lastmile_qr_scan"}, "lat": 38.83586866666667, "lon": -76.990237, "fusion_lat": 0.0}, {"is_reserved": 0, "bike_id": "9797fb3b7f4c50605d3a46cbc20888e7", "type": "electric_scooter", "name": "9797fb3b7f4c50605d3a46cbc20888e7", "is_disabled": 0, "fusion_lon": 0.0, "rental_uris": {"android": "https://dc.lft.to/lastmile_qr_scan", "ios": "https://dc.lft.to/lastmile_qr_scan"}, "lat": 38.91423316666667, "lon": -77.01809016666667, "fusion_lat": 0.0}, {"is_reserved": 0, "bike_id": "d9e683ab5f38b4ab30d7e0c948abd6bc", "type": "electric_scooter", "name": "d9e683ab5f38b4ab30d7e0c948abd6bc", "is_disabled": 0, "fusion_lon": 0.0, "rental_uris": {"android": "https://dc.lft.to/lastmile_qr_scan", "ios": "https://dc.lft.to/lastmile_qr_scan"}, "lat": 38.87564066666667, "lon": -77.005858, "fusion_lat": 0.0}, {"is_reserved": 0, "bike_id": "bb8f626951942f462b6dcd2d90c68f17", "type": "electric_scooter", "name": "bb8f626951942f462b6dcd2d90c68f17", "is_disabled": 0, "fusion_lon": 0.0, "rental_uris": {"android": "https://dc.lft.to/lastmile_qr_scan", "ios": "https://dc.lft.to/lastmile_qr_scan"}, "lat": 38.91847933333333, "lon": -77.032058, "fusion_lat": 0.0}, {"is_reserved": 0, "bike_id": "7619bac331b7a3c300f76cc3f76f69e1", "type": "electric_scooter", "name": "7619bac331b7a3c300f76cc3f76f69e1", "is_disabled": 0, "fusion_lon": 0.0, "rental_uris": {"android": "https://dc.lft.to/lastmile_qr_scan", "ios": "https://dc.lft.to/lastmile_qr_scan"}, "lat": 38.93858683333333, "lon": -77.024658, "fusion_lat": 0.0}, {"is_reserved": 0, "bike_id": "5874fd225483e9c2dc9728a2eeea0215", "type": "electric_scooter", "name": "5874fd225483e9c2dc9728a2eeea0215", "is_disabled": 0, "fusion_lon": 0.0, "rental_uris": {"android": "https://dc.lft.to/lastmile_qr_scan", "ios": "https://dc.lft.to/lastmile_qr_scan"}, "lat": 38.891914, "lon": -76.998471, "fusion_lat": 0.0}, {"is_reserved": 0, "bike_id": "ce873118dc7f1e14b88d048fb181b309", "type": "electric_scooter", "name": "ce873118dc7f1e14b88d048fb181b309", "is_disabled": 0, "fusion_lon": 0.0, "rental_uris": {"android": "https://dc.lft.to/lastmile_qr_scan", "ios": "https://dc.lft.to/lastmile_qr_scan"}, "lat": 38.94091733333333, "lon": -77.02319433333334, "fusion_lat": 0.0}, {"is_reserved": 0, "bike_id": "8e51a740a25633e3f3dc8000ceeec16f", "type": "electric_bike", "name": "8e51a740a25633e3f3dc8000ceeec16f", "is_disabled": 0, "fusion_lon": 0.0, "rental_uris": {"android": "https://dc.lft.to/lastmile_qr_scan", "ios": "https://dc.lft.to/lastmile_qr_scan"}, "lat": 38.882478, "lon": -76.96258983333334, "fusion_lat": 0.0}, {"is_reserved": 0, "bike_id": "b854cb8ddfb899bb91890ab032d7cd0a", "type": "electric_scooter", "name": "b854cb8ddfb899bb91890ab032d7cd0a", "is_disabled": 0, "fusion_lon": 0.0, "rental_uris": {"android": "https://dc.lft.to/lastmile_qr_scan", "ios": "https://dc.lft.to/lastmile_qr_scan"}, "lat": 38.904608333333336, "lon": -77.02950933333334, "fusion_lat": 0.0}, {"is_reserved": 0, "bike_id": "1f710a657d1756c240d545381d9ad9b5", "type": "electric_scooter", "name": "1f710a657d1756c240d545381d9ad9b5", "is_disabled": 0, "fusion_lon": 0.0, "rental_uris": {"android": "https://dc.lft.to/lastmile_qr_scan", "ios": "https://dc.lft.to/lastmile_qr_scan"}, "lat": 38.90141216666667, "lon": -77.04539783333334, "fusion_lat": 0.0}, {"is_reserved": 0, "bike_id": "ecb347df7ca8677bba6920140368f2fc", "type": "electric_scooter", "name": "ecb347df7ca8677bba6920140368f2fc", "is_disabled": 0, "fusion_lon": 0.0, "rental_uris": {"android": "https://dc.lft.to/lastmile_qr_scan", "ios": "https://dc.lft.to/lastmile_qr_scan"}, "lat": 38.90232733333333, "lon": -77.048583, "fusion_lat": 0.0}, {"is_reserved": 0, "bike_id": "5eb3655403950ed0d7fd2103c51d5280", "type": "electric_scooter", "name": "5eb3655403950ed0d7fd2103c51d5280", "is_disabled": 0, "fusion_lon": 0.0, "rental_uris": {"android": "https://dc.lft.to/lastmile_qr_scan", "ios": "https://dc.lft.to/lastmile_qr_scan"}, "lat": 38.89775816666667, "lon": -77.0093135, "fusion_lat": 0.0}, {"is_reserved": 0, "bike_id": "0ab9aa230c134e9d9c17211b2b423918", "type": "electric_bike", "name": "0ab9aa230c134e9d9c17211b2b423918", "is_disabled": 0, "fusion_lon": 0.0, "rental_uris": {"android": "https://dc.lft.to/lastmile_qr_scan", "ios": "https://dc.lft.to/lastmile_qr_scan"}, "lat": 39.026226333333334, "lon": -77.038782, "fusion_lat": 0.0}, {"is_reserved": 0, "bike_id": "731fa1646f0260f58a36703bc62c8dc2", "type": "electric_scooter", "name": "731fa1646f0260f58a36703bc62c8dc2", "is_disabled": 0, "fusion_lon": 0.0, "rental_uris": {"android": "https://dc.lft.to/lastmile_qr_scan", "ios": "https://dc.lft.to/lastmile_qr_scan"}, "lat": 38.90630483333333, "lon": -77.02978533333334, "fusion_lat": 0.0}, {"is_reserved": 0, "bike_id": "d42c38cd4a74b7771b783341007c350d", "type": "electric_scooter", "name": "d42c38cd4a74b7771b783341007c350d", "is_disabled": 0, "fusion_lon": 0.0, "rental_uris": {"android": "https://dc.lft.to/lastmile_qr_scan", "ios": "https://dc.lft.to/lastmile_qr_scan"}, "lat": 38.91960983333333, "lon": -77.0319705, "fusion_lat": 0.0}, {"is_reserved": 0, "bike_id": "8113f5e98a61cd165aad4f033fc398b0", "type": "electric_scooter", "name": "8113f5e98a61cd165aad4f033fc398b0", "is_disabled": 0, "fusion_lon": 0.0, "rental_uris": {"android": "https://dc.lft.to/lastmile_qr_scan", "ios": "https://dc.lft.to/lastmile_qr_scan"}, "lat": 38.899257166666665, "lon": -76.94576366666666, "fusion_lat": 0.0}, {"is_reserved": 0, "bike_id": "81086ff12b2844b76af87295e7824fe3", "type": "electric_scooter", "name": "81086ff12b2844b76af87295e7824fe3", "is_disabled": 0, "fusion_lon": 0.0, "rental_uris": {"android": "https://dc.lft.to/lastmile_qr_scan", "ios": "https://dc.lft.to/lastmile_qr_scan"}, "lat": 38.91546433333333, "lon": -77.04488316666666, "fusion_lat": 0.0}, {"is_reserved": 0, "bike_id": "456f385e60ed34ec97857e69c978a5d1", "type": "electric_bike", "name": "456f385e60ed34ec97857e69c978a5d1", "is_disabled": 0, "fusion_lon": 0.0, "rental_uris": {"android": "https://dc.lft.to/lastmile_qr_scan", "ios": "https://dc.lft.to/lastmile_qr_scan"}, "lat": 38.895657166666666, "lon": -77.12740516666666, "fusion_lat": 0.0}, {"is_reserved": 0, "bike_id": "47656411e3c96df3fc05302420c9c79e", "type": "electric_scooter", "name": "47656411e3c96df3fc05302420c9c79e", "is_disabled": 0, "fusion_lon": 0.0, "rental_uris": {"android": "https://dc.lft.to/lastmile_qr_scan", "ios": "https://dc.lft.to/lastmile_qr_scan"}, "lat": 38.90379866666667, "lon": -77.00882633333333, "fusion_lat": 0.0}, {"is_reserved": 0, "bike_id": "23bc321007827c9abffec83610109458", "type": "electric_bike", "name": "23bc321007827c9abffec83610109458", "is_disabled": 0, "fusion_lon": 0.0, "rental_uris": {"android": "https://dc.lft.to/lastmile_qr_scan", "ios": "https://dc.lft.to/lastmile_qr_scan"}, "lat": 38.95528916666667, "lon": -76.95674, "fusion_lat": 0.0}, {"is_reserved": 0, "bike_id": "a80795e3c0e7fc85531d38103eed9fc3", "type": "electric_scooter", "name": "a80795e3c0e7fc85531d38103eed9fc3", "is_disabled": 0, "fusion_lon": 0.0, "rental_uris": {"android": "https://dc.lft.to/lastmile_qr_scan", "ios": "https://dc.lft.to/lastmile_qr_scan"}, "lat": 38.8919985, "lon": -77.02379933333333, "fusion_lat": 0.0}, {"is_reserved": 0, "bike_id": "8815a6dcb78ff01e5ef388c66da97baa", "type": "electric_scooter", "name": "8815a6dcb78ff01e5ef388c66da97baa", "is_disabled": 0, "fusion_lon": 0.0, "rental_uris": {"android": "https://dc.lft.to/lastmile_qr_scan", "ios": "https://dc.lft.to/lastmile_qr_scan"}, "lat": 38.90604966666667, "lon": -77.007023, "fusion_lat": 0.0}, {"is_reserved": 0, "bike_id": "0e985aad3e5028b40838987483569ec4", "type": "electric_scooter", "name": "0e985aad3e5028b40838987483569ec4", "is_disabled": 0, "fusion_lon": 0.0, "rental_uris": {"android": "https://dc.lft.to/lastmile_qr_scan", "ios": "https://dc.lft.to/lastmile_qr_scan"}, "lat": 38.93637283333333, "lon": -77.036935, "fusion_lat": 0.0}, {"is_reserved": 0, "bike_id": "0a2843d804f43e596f761b3078f261f6", "type": "electric_scooter", "name": "0a2843d804f43e596f761b3078f261f6", "is_disabled": 0, "fusion_lon": 0.0, "rental_uris": {"android": "https://dc.lft.to/lastmile_qr_scan", "ios": "https://dc.lft.to/lastmile_qr_scan"}, "lat": 38.923322, "lon": -77.0088855, "fusion_lat": 0.0}, {"is_reserved": 0, "bike_id": "f120d196bed365112b1e29ca1f56c399", "type": "electric_scooter", "name": "f120d196bed365112b1e29ca1f56c399", "is_disabled": 0, "fusion_lon": 0.0, "rental_uris": {"android": "https://dc.lft.to/lastmile_qr_scan", "ios": "https://dc.lft.to/lastmile_qr_scan"}, "lat": 38.90041316666667, "lon": -77.03374716666667, "fusion_lat": 0.0}, {"is_reserved": 0, "bike_id": "462ef1f506bd3045f25e97cc8e42c198", "type": "electric_scooter", "name": "462ef1f506bd3045f25e97cc8e42c198", "is_disabled": 0, "fusion_lon": 0.0, "rental_uris": {"android": "https://dc.lft.to/lastmile_qr_scan", "ios": "https://dc.lft.to/lastmile_qr_scan"}, "lat": 38.906487166666665, "lon": -77.02532316666667, "fusion_lat": 0.0}, {"is_reserved": 0, "bike_id": "e930664bbcaf883fbc2274e9db427c0a", "type": "electric_bike", "name": "e930664bbcaf883fbc2274e9db427c0a", "is_disabled": 0, "fusion_lon": 0.0, "rental_uris": {"android": "https://dc.lft.to/lastmile_qr_scan", "ios": "https://dc.lft.to/lastmile_qr_scan"}, "lat": 38.9855605, "lon": -77.00393833333334, "fusion_lat": 0.0}, {"is_reserved": 0, "bike_id": "b5c5e5e857b748a0d5eb63c6dee431fd", "type": "electric_scooter", "name": "b5c5e5e857b748a0d5eb63c6dee431fd", "is_disabled": 0, "fusion_lon": 0.0, "rental_uris": {"android": "https://dc.lft.to/lastmile_qr_scan", "ios": "https://dc.lft.to/lastmile_qr_scan"}, "lat": 38.9210635, "lon": -77.039359, "fusion_lat": 0.0}, {"is_reserved": 0, "bike_id": "4cec15876bdb0facd05518c42d486f30", "type": "electric_scooter", "name": "4cec15876bdb0facd05518c42d486f30", "is_disabled": 0, "fusion_lon": 0.0, "rental_uris": {"android": "https://dc.lft.to/lastmile_qr_scan", "ios": "https://dc.lft.to/lastmile_qr_scan"}, "lat": 38.9209885, "lon": -77.0220665, "fusion_lat": 0.0}, {"is_reserved": 0, "bike_id": "f213641d004712abe8064a9244c8d0d8", "type": "electric_scooter", "name": "f213641d004712abe8064a9244c8d0d8", "is_disabled": 0, "fusion_lon": 0.0, "rental_uris": {"android": "https://dc.lft.to/lastmile_qr_scan", "ios": "https://dc.lft.to/lastmile_qr_scan"}, "lat": 38.89975066666667, "lon": -77.04776066666666, "fusion_lat": 0.0}, {"is_reserved": 0, "bike_id": "1250be64fca16c8890b8e7fc4afe1818", "type": "electric_scooter", "name": "1250be64fca16c8890b8e7fc4afe1818", "is_disabled": 0, "fusion_lon": 0.0, "rental_uris": {"android": "https://dc.lft.to/lastmile_qr_scan", "ios": "https://dc.lft.to/lastmile_qr_scan"}, "lat": 38.920774, "lon": -77.02321933333333, "fusion_lat": 0.0}, {"is_reserved": 0, "bike_id": "1c8359acf4944ee93cbfb9b1d93220b6", "type": "electric_bike", "name": "1c8359acf4944ee93cbfb9b1d93220b6", "is_disabled": 0, "fusion_lon": 0.0, "rental_uris": {"android": "https://dc.lft.to/lastmile_qr_scan", "ios": "https://dc.lft.to/lastmile_qr_scan"}, "lat": 38.855863166666666, "lon": -76.974326, "fusion_lat": 0.0}, {"is_reserved": 0, "bike_id": "eaab278195875b35e00c10f0d15d66cc", "type": "electric_scooter", "name": "eaab278195875b35e00c10f0d15d66cc", "is_disabled": 0, "fusion_lon": 0.0, "rental_uris": {"android": "https://dc.lft.to/lastmile_qr_scan", "ios": "https://dc.lft.to/lastmile_qr_scan"}, "lat": 38.88677633333333, "lon": -77.01362, "fusion_lat": 0.0}, {"is_reserved": 0, "bike_id": "09407a170605cf97f3a064bc0051fef0", "type": "electric_scooter", "name": "09407a170605cf97f3a064bc0051fef0", "is_disabled": 0, "fusion_lon": 0.0, "rental_uris": {"android": "https://dc.lft.to/lastmile_qr_scan", "ios": "https://dc.lft.to/lastmile_qr_scan"}, "lat": 38.92914733333333, "lon": -77.01859283333333, "fusion_lat": 0.0}, {"is_reserved": 0, "bike_id": "02449957d051f731603c82b07d4540a4", "type": "electric_scooter", "name": "02449957d051f731603c82b07d4540a4", "is_disabled": 0, "fusion_lon": 0.0, "rental_uris": {"android": "https://dc.lft.to/lastmile_qr_scan", "ios": "https://dc.lft.to/lastmile_qr_scan"}, "lat": 38.924341166666665, "lon": -77.042455, "fusion_lat": 0.0}, {"is_reserved": 0, "bike_id": "eb48b72365d2692d6f9faf2fd2ca282c", "type": "electric_scooter", "name": "eb48b72365d2692d6f9faf2fd2ca282c", "is_disabled": 0, "fusion_lon": 0.0, "rental_uris": {"android": "https://dc.lft.to/lastmile_qr_scan", "ios": "https://dc.lft.to/lastmile_qr_scan"}, "lat": 38.899232833333336, "lon": -77.03925933333333, "fusion_lat": 0.0}, {"is_reserved": 0, "bike_id": "09ab2ee77105612d940181805ed0b1aa", "type": "electric_bike", "name": "09ab2ee77105612d940181805ed0b1aa", "is_disabled": 0, "fusion_lon": 0.0, "rental_uris": {"android": "https://dc.lft.to/lastmile_qr_scan", "ios": "https://dc.lft.to/lastmile_qr_scan"}, "lat": 38.838106, "lon": -77.09520766666667, "fusion_lat": 0.0}, {"is_reserved": 0, "bike_id": "e2e0a98638d8fe87b69c8184d6e40d76", "type": "electric_scooter", "name": "e2e0a98638d8fe87b69c8184d6e40d76", "is_disabled": 0, "fusion_lon": 0.0, "rental_uris": {"android": "https://dc.lft.to/lastmile_qr_scan", "ios": "https://dc.lft.to/lastmile_qr_scan"}, "lat": 38.91403016666667, "lon": -77.01805883333333, "fusion_lat": 0.0}, {"is_reserved": 0, "bike_id": "a2ad717df28ee7d40299b5909746ca6d", "type": "electric_scooter", "name": "a2ad717df28ee7d40299b5909746ca6d", "is_disabled": 0, "fusion_lon": 0.0, "rental_uris": {"android": "https://dc.lft.to/lastmile_qr_scan", "ios": "https://dc.lft.to/lastmile_qr_scan"}, "lat": 38.885036, "lon": -77.00566966666666, "fusion_lat": 0.0}, {"is_reserved": 0, "bike_id": "8cb062de26cf22346d539d735a54f5bf", "type": "electric_scooter", "name": "8cb062de26cf22346d539d735a54f5bf", "is_disabled": 0, "fusion_lon": 0.0, "rental_uris": {"android": "https://dc.lft.to/lastmile_qr_scan", "ios": "https://dc.lft.to/lastmile_qr_scan"}, "lat": 38.89277216666667, "lon": -77.0487405, "fusion_lat": 0.0}, {"is_reserved": 0, "bike_id": "432b9c37b78863461daf70054819f1c7", "type": "electric_scooter", "name": "432b9c37b78863461daf70054819f1c7", "is_disabled": 0, "fusion_lon": 0.0, "rental_uris": {"android": "https://dc.lft.to/lastmile_qr_scan", "ios": "https://dc.lft.to/lastmile_qr_scan"}, "lat": 38.93471266666667, "lon": -77.07276816666666, "fusion_lat": 0.0}, {"is_reserved": 0, "bike_id": "2dd0ba5ea76af22bda704bf333894481", "type": "electric_scooter", "name": "2dd0ba5ea76af22bda704bf333894481", "is_disabled": 0, "fusion_lon": 0.0, "rental_uris": {"android": "https://dc.lft.to/lastmile_qr_scan", "ios": "https://dc.lft.to/lastmile_qr_scan"}, "lat": 38.90713783333333, "lon": -76.9300585, "fusion_lat": 0.0}, {"is_reserved": 0, "bike_id": "ffb1ebd6f6572aaa71bbaadf62daa959", "type": "electric_scooter", "name": "ffb1ebd6f6572aaa71bbaadf62daa959", "is_disabled": 0, "fusion_lon": 0.0, "rental_uris": {"android": "https://dc.lft.to/lastmile_qr_scan", "ios": "https://dc.lft.to/lastmile_qr_scan"}, "lat": 38.891199666666665, "lon": -76.9438405, "fusion_lat": 0.0}, {"is_reserved": 0, "bike_id": "7b26f1a756871693a8e6d3396eb43cf3", "type": "electric_scooter", "name": "7b26f1a756871693a8e6d3396eb43cf3", "is_disabled": 0, "fusion_lon": 0.0, "rental_uris": {"android": "https://dc.lft.to/lastmile_qr_scan", "ios": "https://dc.lft.to/lastmile_qr_scan"}, "lat": 38.9207275, "lon": -77.0320725, "fusion_lat": 0.0}, {"is_reserved": 0, "bike_id": "bbec339b494f57b3f5d4eef5e7394cab", "type": "electric_scooter", "name": "bbec339b494f57b3f5d4eef5e7394cab", "is_disabled": 0, "fusion_lon": 0.0, "rental_uris": {"android": "https://dc.lft.to/lastmile_qr_scan", "ios": "https://dc.lft.to/lastmile_qr_scan"}, "lat": 38.9141315, "lon": -77.01282883333333, "fusion_lat": 0.0}, {"is_reserved": 0, "bike_id": "a15925907a02b5a3477edd74eb3413d8", "type": "electric_scooter", "name": "a15925907a02b5a3477edd74eb3413d8", "is_disabled": 0, "fusion_lon": 0.0, "rental_uris": {"android": "https://dc.lft.to/lastmile_qr_scan", "ios": "https://dc.lft.to/lastmile_qr_scan"}, "lat": 38.91112433333333, "lon": -77.00334683333334, "fusion_lat": 0.0}, {"is_reserved": 0, "bike_id": "5159a163592a42fba69edfcb785d6432", "type": "electric_scooter", "name": "5159a163592a42fba69edfcb785d6432", "is_disabled": 0, "fusion_lon": 0.0, "rental_uris": {"android": "https://dc.lft.to/lastmile_qr_scan", "ios": "https://dc.lft.to/lastmile_qr_scan"}, "lat": 38.909585, "lon": -77.034218, "fusion_lat": 0.0}, {"is_reserved": 0, "bike_id": "27ed02a10516050a911c36d02a342871", "type": "electric_scooter", "name": "27ed02a10516050a911c36d02a342871", "is_disabled": 0, "fusion_lon": 0.0, "rental_uris": {"android": "https://dc.lft.to/lastmile_qr_scan", "ios": "https://dc.lft.to/lastmile_qr_scan"}, "lat": 38.903891333333334, "lon": -77.0311, "fusion_lat": 0.0}, {"is_reserved": 0, "bike_id": "6ef94fa61d1e4da43a51bd0a387704e2", "type": "electric_scooter", "name": "6ef94fa61d1e4da43a51bd0a387704e2", "is_disabled": 0, "fusion_lon": 0.0, "rental_uris": {"android": "https://dc.lft.to/lastmile_qr_scan", "ios": "https://dc.lft.to/lastmile_qr_scan"}, "lat": 38.91718916666667, "lon": -77.023908, "fusion_lat": 0.0}, {"is_reserved": 0, "bike_id": "34ea0b8bacd422d3ad1b2b52210e7640", "type": "electric_scooter", "name": "34ea0b8bacd422d3ad1b2b52210e7640", "is_disabled": 0, "fusion_lon": 0.0, "rental_uris": {"android": "https://dc.lft.to/lastmile_qr_scan", "ios": "https://dc.lft.to/lastmile_qr_scan"}, "lat": 38.91923533333333, "lon": -77.03423966666666, "fusion_lat": 0.0}, {"is_reserved": 0, "bike_id": "9abe89764db21fa9ac30cbe72b941e07", "type": "electric_scooter", "name": "9abe89764db21fa9ac30cbe72b941e07", "is_disabled": 0, "fusion_lon": 0.0, "rental_uris": {"android": "https://dc.lft.to/lastmile_qr_scan", "ios": "https://dc.lft.to/lastmile_qr_scan"}, "lat": 38.89695483333333, "lon": -77.04337716666667, "fusion_lat": 0.0}, {"is_reserved": 0, "bike_id": "494c7de8b530909b280936e3c9e28f76", "type": "electric_scooter", "name": "494c7de8b530909b280936e3c9e28f76", "is_disabled": 0, "fusion_lon": 0.0, "rental_uris": {"android": "https://dc.lft.to/lastmile_qr_scan", "ios": "https://dc.lft.to/lastmile_qr_scan"}, "lat": 38.919329833333336, "lon": -77.04498533333333, "fusion_lat": 0.0}, {"is_reserved": 0, "bike_id": "505a566035dd6b7fb6456ae9e5e16a48", "type": "electric_scooter", "name": "505a566035dd6b7fb6456ae9e5e16a48", "is_disabled": 0, "fusion_lon": 0.0, "rental_uris": {"android": "https://dc.lft.to/lastmile_qr_scan", "ios": "https://dc.lft.to/lastmile_qr_scan"}, "lat": 38.876558, "lon": -77.003186, "fusion_lat": 0.0}, {"is_reserved": 0, "bike_id": "d41925a603b5664d705b81d1a96883bc", "type": "electric_scooter", "name": "d41925a603b5664d705b81d1a96883bc", "is_disabled": 0, "fusion_lon": 0.0, "rental_uris": {"android": "https://dc.lft.to/lastmile_qr_scan", "ios": "https://dc.lft.to/lastmile_qr_scan"}, "lat": 38.919837333333334, "lon": -77.03341983333334, "fusion_lat": 0.0}, {"is_reserved": 0, "bike_id": "a3a8a18157fa21efab8d1774592b6ec4", "type": "electric_scooter", "name": "a3a8a18157fa21efab8d1774592b6ec4", "is_disabled": 0, "fusion_lon": 0.0, "rental_uris": {"android": "https://dc.lft.to/lastmile_qr_scan", "ios": "https://dc.lft.to/lastmile_qr_scan"}, "lat": 38.91920266666666, "lon": -77.03106666666666, "fusion_lat": 0.0}, {"is_reserved": 0, "bike_id": "7d68f1319a824a2ce336b90127a62302", "type": "electric_scooter", "name": "7d68f1319a824a2ce336b90127a62302", "is_disabled": 0, "fusion_lon": 0.0, "rental_uris": {"android": "https://dc.lft.to/lastmile_qr_scan", "ios": "https://dc.lft.to/lastmile_qr_scan"}, "lat": 38.91689983333333, "lon": -77.023216, "fusion_lat": 0.0}, {"is_reserved": 0, "bike_id": "9c6249a86fc0e7715691133f7462ae36", "type": "electric_scooter", "name": "9c6249a86fc0e7715691133f7462ae36", "is_disabled": 0, "fusion_lon": 0.0, "rental_uris": {"android": "https://dc.lft.to/lastmile_qr_scan", "ios": "https://dc.lft.to/lastmile_qr_scan"}, "lat": 38.8849315, "lon": -77.019558, "fusion_lat": 0.0}, {"is_reserved": 0, "bike_id": "96c4d92612cff405e6c234720cb7e666", "type": "electric_scooter", "name": "96c4d92612cff405e6c234720cb7e666", "is_disabled": 0, "fusion_lon": 0.0, "rental_uris": {"android": "https://dc.lft.to/lastmile_qr_scan", "ios": "https://dc.lft.to/lastmile_qr_scan"}, "lat": 38.915741833333335, "lon": -77.01994166666667, "fusion_lat": 0.0}, {"is_reserved": 0, "bike_id": "bc0f7735b724cd088c66eafc79dda05f", "type": "electric_scooter", "name": "bc0f7735b724cd088c66eafc79dda05f", "is_disabled": 0, "fusion_lon": 0.0, "rental_uris": {"android": "https://dc.lft.to/lastmile_qr_scan", "ios": "https://dc.lft.to/lastmile_qr_scan"}, "lat": 38.91856083333333, "lon": -76.96545633333334, "fusion_lat": 0.0}, {"is_reserved": 0, "bike_id": "0a189a277ab2a45a3debee56ec988c0c", "type": "electric_scooter", "name": "0a189a277ab2a45a3debee56ec988c0c", "is_disabled": 0, "fusion_lon": 0.0, "rental_uris": {"android": "https://dc.lft.to/lastmile_qr_scan", "ios": "https://dc.lft.to/lastmile_qr_scan"}, "lat": 38.96608366666667, "lon": -77.02104933333334, "fusion_lat": 0.0}, {"is_reserved": 0, "bike_id": "fc20e18adb0ef27eac300ee681fbef64", "type": "electric_scooter", "name": "fc20e18adb0ef27eac300ee681fbef64", "is_disabled": 0, "fusion_lon": 0.0, "rental_uris": {"android": "https://dc.lft.to/lastmile_qr_scan", "ios": "https://dc.lft.to/lastmile_qr_scan"}, "lat": 38.911052, "lon": -77.026379, "fusion_lat": 0.0}, {"is_reserved": 0, "bike_id": "9dcd37d0c5bd997e133a14af2f0e2910", "type": "electric_scooter", "name": "9dcd37d0c5bd997e133a14af2f0e2910", "is_disabled": 0, "fusion_lon": 0.0, "rental_uris": {"android": "https://dc.lft.to/lastmile_qr_scan", "ios": "https://dc.lft.to/lastmile_qr_scan"}, "lat": 38.93564283333333, "lon": -77.05882266666667, "fusion_lat": 0.0}, {"is_reserved": 0, "bike_id": "2a8973f5796a58338fabd0864b3eb0a7", "type": "electric_scooter", "name": "2a8973f5796a58338fabd0864b3eb0a7", "is_disabled": 0, "fusion_lon": 0.0, "rental_uris": {"android": "https://dc.lft.to/lastmile_qr_scan", "ios": "https://dc.lft.to/lastmile_qr_scan"}, "lat": 38.87531383333334, "lon": -77.000816, "fusion_lat": 0.0}, {"is_reserved": 0, "bike_id": "a53b956255f7612f417a020b2b571d58", "type": "electric_scooter", "name": "a53b956255f7612f417a020b2b571d58", "is_disabled": 0, "fusion_lon": 0.0, "rental_uris": {"android": "https://dc.lft.to/lastmile_qr_scan", "ios": "https://dc.lft.to/lastmile_qr_scan"}, "lat": 38.887150166666665, "lon": -77.02194633333333, "fusion_lat": 0.0}, {"is_reserved": 0, "bike_id": "4e28873490500a115baa90409ce6507e", "type": "electric_scooter", "name": "4e28873490500a115baa90409ce6507e", "is_disabled": 0, "fusion_lon": 0.0, "rental_uris": {"android": "https://dc.lft.to/lastmile_qr_scan", "ios": "https://dc.lft.to/lastmile_qr_scan"}, "lat": 38.89077116666667, "lon": -76.99509283333333, "fusion_lat": 0.0}, {"is_reserved": 0, "bike_id": "f523665bcef40d3b904e43ae78b95c83", "type": "electric_scooter", "name": "f523665bcef40d3b904e43ae78b95c83", "is_disabled": 0, "fusion_lon": 0.0, "rental_uris": {"android": "https://dc.lft.to/lastmile_qr_scan", "ios": "https://dc.lft.to/lastmile_qr_scan"}, "lat": 38.88497483333333, "lon": -77.00598216666667, "fusion_lat": 0.0}, {"is_reserved": 0, "bike_id": "c507f87210aedd27a03ba46fa9d52701", "type": "electric_scooter", "name": "c507f87210aedd27a03ba46fa9d52701", "is_disabled": 0, "fusion_lon": 0.0, "rental_uris": {"android": "https://dc.lft.to/lastmile_qr_scan", "ios": "https://dc.lft.to/lastmile_qr_scan"}, "lat": 38.903901, "lon": -77.05371316666667, "fusion_lat": 0.0}, {"is_reserved": 0, "bike_id": "e3cccea5016a23333eac171fe223388c", "type": "electric_scooter", "name": "e3cccea5016a23333eac171fe223388c", "is_disabled": 0, "fusion_lon": 0.0, "rental_uris": {"android": "https://dc.lft.to/lastmile_qr_scan", "ios": "https://dc.lft.to/lastmile_qr_scan"}, "lat": 38.920587166666664, "lon": -77.02448616666666, "fusion_lat": 0.0}, {"is_reserved": 0, "bike_id": "a2603e8a1d279f70c25e70bb34d36efc", "type": "electric_scooter", "name": "a2603e8a1d279f70c25e70bb34d36efc", "is_disabled": 0, "fusion_lon": 0.0, "rental_uris": {"android": "https://dc.lft.to/lastmile_qr_scan", "ios": "https://dc.lft.to/lastmile_qr_scan"}, "lat": 38.913311666666665, "lon": -77.019869, "fusion_lat": 0.0}, {"is_reserved": 0, "bike_id": "7db6663d001e5b6a867276fc48255f80", "type": "electric_scooter", "name": "7db6663d001e5b6a867276fc48255f80", "is_disabled": 0, "fusion_lon": 0.0, "rental_uris": {"android": "https://dc.lft.to/lastmile_qr_scan", "ios": "https://dc.lft.to/lastmile_qr_scan"}, "lat": 38.955422, "lon": -77.02784366666667, "fusion_lat": 0.0}, {"is_reserved": 0, "bike_id": "3d6f0fac9d9b87318fc73f0299b9af13", "type": "electric_scooter", "name": "3d6f0fac9d9b87318fc73f0299b9af13", "is_disabled": 0, "fusion_lon": 0.0, "rental_uris": {"android": "https://dc.lft.to/lastmile_qr_scan", "ios": "https://dc.lft.to/lastmile_qr_scan"}, "lat": 38.898331, "lon": -77.04984833333333, "fusion_lat": 0.0}, {"is_reserved": 0, "bike_id": "0147a26c01077f8739a7067f89cfdcc0", "type": "electric_scooter", "name": "0147a26c01077f8739a7067f89cfdcc0", "is_disabled": 0, "fusion_lon": 0.0, "rental_uris": {"android": "https://dc.lft.to/lastmile_qr_scan", "ios": "https://dc.lft.to/lastmile_qr_scan"}, "lat": 38.90521733333333, "lon": -77.06023616666667, "fusion_lat": 0.0}, {"is_reserved": 0, "bike_id": "c0b36f57cf83455f201df4b1c848c9d9", "type": "electric_scooter", "name": "c0b36f57cf83455f201df4b1c848c9d9", "is_disabled": 0, "fusion_lon": 0.0, "rental_uris": {"android": "https://dc.lft.to/lastmile_qr_scan", "ios": "https://dc.lft.to/lastmile_qr_scan"}, "lat": 38.92369133333333, "lon": -77.020634, "fusion_lat": 0.0}, {"is_reserved": 0, "bike_id": "9bc3fdb7a45f10294393f0c774692202", "type": "electric_scooter", "name": "9bc3fdb7a45f10294393f0c774692202", "is_disabled": 0, "fusion_lon": 0.0, "rental_uris": {"android": "https://dc.lft.to/lastmile_qr_scan", "ios": "https://dc.lft.to/lastmile_qr_scan"}, "lat": 38.913683166666665, "lon": -77.07225066666666, "fusion_lat": 0.0}, {"is_reserved": 0, "bike_id": "0d3f97fb355450ac327bdf1a5727cf6f", "type": "electric_scooter", "name": "0d3f97fb355450ac327bdf1a5727cf6f", "is_disabled": 0, "fusion_lon": 0.0, "rental_uris": {"android": "https://dc.lft.to/lastmile_qr_scan", "ios": "https://dc.lft.to/lastmile_qr_scan"}, "lat": 38.92222816666666, "lon": -76.98364183333334, "fusion_lat": 0.0}, {"is_reserved": 0, "bike_id": "2866241c484b32876d56c9663a97ab66", "type": "electric_scooter", "name": "2866241c484b32876d56c9663a97ab66", "is_disabled": 0, "fusion_lon": 0.0, "rental_uris": {"android": "https://dc.lft.to/lastmile_qr_scan", "ios": "https://dc.lft.to/lastmile_qr_scan"}, "lat": 38.921601833333334, "lon": -77.03457066666667, "fusion_lat": 0.0}, {"is_reserved": 0, "bike_id": "e73ff7d1578b204800d2e1387376164d", "type": "electric_scooter", "name": "e73ff7d1578b204800d2e1387376164d", "is_disabled": 0, "fusion_lon": 0.0, "rental_uris": {"android": "https://dc.lft.to/lastmile_qr_scan", "ios": "https://dc.lft.to/lastmile_qr_scan"}, "lat": 38.897369833333336, "lon": -77.02707266666667, "fusion_lat": 0.0}, {"is_reserved": 0, "bike_id": "c785fca4e86379bc999a85f1f8b179d4", "type": "electric_scooter", "name": "c785fca4e86379bc999a85f1f8b179d4", "is_disabled": 0, "fusion_lon": 0.0, "rental_uris": {"android": "https://dc.lft.to/lastmile_qr_scan", "ios": "https://dc.lft.to/lastmile_qr_scan"}, "lat": 38.94279, "lon": -77.0293995, "fusion_lat": 0.0}, {"is_reserved": 0, "bike_id": "6b72af2ad6e419d3d521130fce1f17ad", "type": "electric_scooter", "name": "6b72af2ad6e419d3d521130fce1f17ad", "is_disabled": 0, "fusion_lon": 0.0, "rental_uris": {"android": "https://dc.lft.to/lastmile_qr_scan", "ios": "https://dc.lft.to/lastmile_qr_scan"}, "lat": 38.92716866666667, "lon": -77.05987966666666, "fusion_lat": 0.0}, {"is_reserved": 0, "bike_id": "801f3aa19a98da652966088099ad0405", "type": "electric_bike", "name": "801f3aa19a98da652966088099ad0405", "is_disabled": 0, "fusion_lon": 0.0, "rental_uris": {"android": "https://dc.lft.to/lastmile_qr_scan", "ios": "https://dc.lft.to/lastmile_qr_scan"}, "lat": 38.93513216666667, "lon": -77.054212, "fusion_lat": 0.0}, {"is_reserved": 0, "bike_id": "a6717e37cee18b198afd8489bbab152f", "type": "electric_scooter", "name": "a6717e37cee18b198afd8489bbab152f", "is_disabled": 0, "fusion_lon": 0.0, "rental_uris": {"android": "https://dc.lft.to/lastmile_qr_scan", "ios": "https://dc.lft.to/lastmile_qr_scan"}, "lat": 38.92606166666667, "lon": -77.02155516666667, "fusion_lat": 0.0}, {"is_reserved": 0, "bike_id": "052e10698be11bcc2b52f309f92b13b9", "type": "electric_scooter", "name": "052e10698be11bcc2b52f309f92b13b9", "is_disabled": 0, "fusion_lon": 0.0, "rental_uris": {"android": "https://dc.lft.to/lastmile_qr_scan", "ios": "https://dc.lft.to/lastmile_qr_scan"}, "lat": 38.9014235, "lon": -77.0179175, "fusion_lat": 0.0}, {"is_reserved": 0, "bike_id": "1a45ab36725f903ff8bfdeca947e50fc", "type": "electric_bike", "name": "1a45ab36725f903ff8bfdeca947e50fc", "is_disabled": 0, "fusion_lon": 0.0, "rental_uris": {"android": "https://dc.lft.to/lastmile_qr_scan", "ios": "https://dc.lft.to/lastmile_qr_scan"}, "lat": 39.0038425, "lon": -77.01284333333334, "fusion_lat": 0.0}, {"is_reserved": 0, "bike_id": "0a666c339d564d4187b736703552145f", "type": "electric_scooter", "name": "0a666c339d564d4187b736703552145f", "is_disabled": 0, "fusion_lon": 0.0, "rental_uris": {"android": "https://dc.lft.to/lastmile_qr_scan", "ios": "https://dc.lft.to/lastmile_qr_scan"}, "lat": 38.94451, "lon": -77.02335916666667, "fusion_lat": 0.0}, {"is_reserved": 0, "bike_id": "55bbfd0028ce769915787e290cd65216", "type": "electric_scooter", "name": "55bbfd0028ce769915787e290cd65216", "is_disabled": 0, "fusion_lon": 0.0, "rental_uris": {"android": "https://dc.lft.to/lastmile_qr_scan", "ios": "https://dc.lft.to/lastmile_qr_scan"}, "lat": 38.935343, "lon": -77.030907, "fusion_lat": 0.0}, {"is_reserved": 0, "bike_id": "0cf438584418fcdd73829109c2b57860", "type": "electric_scooter", "name": "0cf438584418fcdd73829109c2b57860", "is_disabled": 0, "fusion_lon": 0.0, "rental_uris": {"android": "https://dc.lft.to/lastmile_qr_scan", "ios": "https://dc.lft.to/lastmile_qr_scan"}, "lat": 38.92420366666666, "lon": -77.03540983333333, "fusion_lat": 0.0}, {"is_reserved": 0, "bike_id": "0c42c1195d64c98db4a72d435c79e842", "type": "electric_scooter", "name": "0c42c1195d64c98db4a72d435c79e842", "is_disabled": 0, "fusion_lon": 0.0, "rental_uris": {"android": "https://dc.lft.to/lastmile_qr_scan", "ios": "https://dc.lft.to/lastmile_qr_scan"}, "lat": 38.880886333333336, "lon": -76.995074, "fusion_lat": 0.0}, {"is_reserved": 0, "bike_id": "059a72c35cea25aec1521e666a0e93be", "type": "electric_scooter", "name": "059a72c35cea25aec1521e666a0e93be", "is_disabled": 0, "fusion_lon": 0.0, "rental_uris": {"android": "https://dc.lft.to/lastmile_qr_scan", "ios": "https://dc.lft.to/lastmile_qr_scan"}, "lat": 38.912657833333334, "lon": -77.03871533333333, "fusion_lat": 0.0}, {"is_reserved": 0, "bike_id": "5196ad8ac32e270672b63d9f7112c8bc", "type": "electric_scooter", "name": "5196ad8ac32e270672b63d9f7112c8bc", "is_disabled": 0, "fusion_lon": 0.0, "rental_uris": {"android": "https://dc.lft.to/lastmile_qr_scan", "ios": "https://dc.lft.to/lastmile_qr_scan"}, "lat": 38.88601966666667, "lon": -76.92503483333333, "fusion_lat": 0.0}, {"is_reserved": 0, "bike_id": "273c9c969e438218e15734a19e1ac9ed", "type": "electric_scooter", "name": "273c9c969e438218e15734a19e1ac9ed", "is_disabled": 0, "fusion_lon": 0.0, "rental_uris": {"android": "https://dc.lft.to/lastmile_qr_scan", "ios": "https://dc.lft.to/lastmile_qr_scan"}, "lat": 38.87292033333333, "lon": -77.01706316666667, "fusion_lat": 0.0}, {"is_reserved": 0, "bike_id": "d90e9069b68140d2a382d518a0b5f9c2", "type": "electric_scooter", "name": "d90e9069b68140d2a382d518a0b5f9c2", "is_disabled": 0, "fusion_lon": 0.0, "rental_uris": {"android": "https://dc.lft.to/lastmile_qr_scan", "ios": "https://dc.lft.to/lastmile_qr_scan"}, "lat": 38.8768755, "lon": -77.0005675, "fusion_lat": 0.0}, {"is_reserved": 0, "bike_id": "f771c9ffb127732279b23163c50ff8b1", "type": "electric_scooter", "name": "f771c9ffb127732279b23163c50ff8b1", "is_disabled": 0, "fusion_lon": 0.0, "rental_uris": {"android": "https://dc.lft.to/lastmile_qr_scan", "ios": "https://dc.lft.to/lastmile_qr_scan"}, "lat": 38.91602066666667, "lon": -77.03670966666667, "fusion_lat": 0.0}, {"is_reserved": 0, "bike_id": "7ed83c474b6a7283cc48769183a5ee2c", "type": "electric_scooter", "name": "7ed83c474b6a7283cc48769183a5ee2c", "is_disabled": 0, "fusion_lon": 0.0, "rental_uris": {"android": "https://dc.lft.to/lastmile_qr_scan", "ios": "https://dc.lft.to/lastmile_qr_scan"}, "lat": 38.920815, "lon": -77.03652633333333, "fusion_lat": 0.0}, {"is_reserved": 0, "bike_id": "60c8caf991bcff52bb27e38f8b1efbf2", "type": "electric_scooter", "name": "60c8caf991bcff52bb27e38f8b1efbf2", "is_disabled": 0, "fusion_lon": 0.0, "rental_uris": {"android": "https://dc.lft.to/lastmile_qr_scan", "ios": "https://dc.lft.to/lastmile_qr_scan"}, "lat": 38.956108666666665, "lon": -77.0276195, "fusion_lat": 0.0}, {"is_reserved": 0, "bike_id": "2481a4ea0b5bba6ce5f649620c331456", "type": "electric_scooter", "name": "2481a4ea0b5bba6ce5f649620c331456", "is_disabled": 0, "fusion_lon": 0.0, "rental_uris": {"android": "https://dc.lft.to/lastmile_qr_scan", "ios": "https://dc.lft.to/lastmile_qr_scan"}, "lat": 38.92019, "lon": -77.0636425, "fusion_lat": 0.0}, {"is_reserved": 0, "bike_id": "3c22accb84cca8cc06222070c7339815", "type": "electric_scooter", "name": "3c22accb84cca8cc06222070c7339815", "is_disabled": 0, "fusion_lon": 0.0, "rental_uris": {"android": "https://dc.lft.to/lastmile_qr_scan", "ios": "https://dc.lft.to/lastmile_qr_scan"}, "lat": 38.941045, "lon": -77.061518, "fusion_lat": 0.0}, {"is_reserved": 0, "bike_id": "19c450f1c03f449a9d8b565f1ac3c1fb", "type": "electric_scooter", "name": "19c450f1c03f449a9d8b565f1ac3c1fb", "is_disabled": 0, "fusion_lon": 0.0, "rental_uris": {"android": "https://dc.lft.to/lastmile_qr_scan", "ios": "https://dc.lft.to/lastmile_qr_scan"}, "lat": 38.900031166666665, "lon": -77.02766616666666, "fusion_lat": 0.0}, {"is_reserved": 0, "bike_id": "05c9a99fd2bfe65e06f1b59aeb9c2757", "type": "electric_scooter", "name": "05c9a99fd2bfe65e06f1b59aeb9c2757", "is_disabled": 0, "fusion_lon": 0.0, "rental_uris": {"android": "https://dc.lft.to/lastmile_qr_scan", "ios": "https://dc.lft.to/lastmile_qr_scan"}, "lat": 38.94199583333334, "lon": -77.023532, "fusion_lat": 0.0}, {"is_reserved": 0, "bike_id": "d4e96e04a969b0266175bd16a2d0c1ca", "type": "electric_scooter", "name": "d4e96e04a969b0266175bd16a2d0c1ca", "is_disabled": 0, "fusion_lon": 0.0, "rental_uris": {"android": "https://dc.lft.to/lastmile_qr_scan", "ios": "https://dc.lft.to/lastmile_qr_scan"}, "lat": 38.93107666666667, "lon": -77.034869, "fusion_lat": 0.0}, {"is_reserved": 0, "bike_id": "5a92c83ff874205bb2bf5a83b3fae1be", "type": "electric_scooter", "name": "5a92c83ff874205bb2bf5a83b3fae1be", "is_disabled": 0, "fusion_lon": 0.0, "rental_uris": {"android": "https://dc.lft.to/lastmile_qr_scan", "ios": "https://dc.lft.to/lastmile_qr_scan"}, "lat": 38.914145166666664, "lon": -77.02586933333333, "fusion_lat": 0.0}, {"is_reserved": 0, "bike_id": "9ad6486e29a08ff1fed5ab8a55005ef0", "type": "electric_scooter", "name": "9ad6486e29a08ff1fed5ab8a55005ef0", "is_disabled": 0, "fusion_lon": 0.0, "rental_uris": {"android": "https://dc.lft.to/lastmile_qr_scan", "ios": "https://dc.lft.to/lastmile_qr_scan"}, "lat": 38.87739883333333, "lon": -77.005901, "fusion_lat": 0.0}, {"is_reserved": 0, "bike_id": "8a2eb7d362b043f438d97d24bde7c4cd", "type": "electric_scooter", "name": "8a2eb7d362b043f438d97d24bde7c4cd", "is_disabled": 0, "fusion_lon": 0.0, "rental_uris": {"android": "https://dc.lft.to/lastmile_qr_scan", "ios": "https://dc.lft.to/lastmile_qr_scan"}, "lat": 38.9233005, "lon": -77.01957133333333, "fusion_lat": 0.0}, {"is_reserved": 0, "bike_id": "9226d09e8c66c6fe3f655fc8b69962ad", "type": "electric_scooter", "name": "9226d09e8c66c6fe3f655fc8b69962ad", "is_disabled": 0, "fusion_lon": 0.0, "rental_uris": {"android": "https://dc.lft.to/lastmile_qr_scan", "ios": "https://dc.lft.to/lastmile_qr_scan"}, "lat": 38.929731833333335, "lon": -77.03186833333334, "fusion_lat": 0.0}, {"is_reserved": 0, "bike_id": "bbbd73feb64d9fff45c9c5aaa6f9a1f7", "type": "electric_scooter", "name": "bbbd73feb64d9fff45c9c5aaa6f9a1f7", "is_disabled": 0, "fusion_lon": 0.0, "rental_uris": {"android": "https://dc.lft.to/lastmile_qr_scan", "ios": "https://dc.lft.to/lastmile_qr_scan"}, "lat": 38.860306333333334, "lon": -76.98380516666667, "fusion_lat": 0.0}, {"is_reserved": 0, "bike_id": "050b4f5378a662d325e981a2d1a19f66", "type": "electric_scooter", "name": "050b4f5378a662d325e981a2d1a19f66", "is_disabled": 0, "fusion_lon": 0.0, "rental_uris": {"android": "https://dc.lft.to/lastmile_qr_scan", "ios": "https://dc.lft.to/lastmile_qr_scan"}, "lat": 38.8962185, "lon": -76.9973105, "fusion_lat": 0.0}, {"is_reserved": 0, "bike_id": "6ad07d9fe1caea0009d21a962fd71a52", "type": "electric_scooter", "name": "6ad07d9fe1caea0009d21a962fd71a52", "is_disabled": 0, "fusion_lon": 0.0, "rental_uris": {"android": "https://dc.lft.to/lastmile_qr_scan", "ios": "https://dc.lft.to/lastmile_qr_scan"}, "lat": 38.938574833333334, "lon": -77.024564, "fusion_lat": 0.0}, {"is_reserved": 0, "bike_id": "6754f760930ae7089074d8d138440dfc", "type": "electric_scooter", "name": "6754f760930ae7089074d8d138440dfc", "is_disabled": 0, "fusion_lon": 0.0, "rental_uris": {"android": "https://dc.lft.to/lastmile_qr_scan", "ios": "https://dc.lft.to/lastmile_qr_scan"}, "lat": 38.934756166666666, "lon": -77.07276266666666, "fusion_lat": 0.0}, {"is_reserved": 0, "bike_id": "16541047ce2b6514471c9e628aa821b7", "type": "electric_scooter", "name": "16541047ce2b6514471c9e628aa821b7", "is_disabled": 0, "fusion_lon": 0.0, "rental_uris": {"android": "https://dc.lft.to/lastmile_qr_scan", "ios": "https://dc.lft.to/lastmile_qr_scan"}, "lat": 38.9154695, "lon": -77.04465816666666, "fusion_lat": 0.0}, {"is_reserved": 0, "bike_id": "96da138ef8a0afb80c1332cabce96e66", "type": "electric_scooter", "name": "96da138ef8a0afb80c1332cabce96e66", "is_disabled": 0, "fusion_lon": 0.0, "rental_uris": {"android": "https://dc.lft.to/lastmile_qr_scan", "ios": "https://dc.lft.to/lastmile_qr_scan"}, "lat": 38.9174105, "lon": -77.0230095, "fusion_lat": 0.0}, {"is_reserved": 0, "bike_id": "b73b29b6f930360f215f5acd0eec80e0", "type": "electric_scooter", "name": "b73b29b6f930360f215f5acd0eec80e0", "is_disabled": 0, "fusion_lon": 0.0, "rental_uris": {"android": "https://dc.lft.to/lastmile_qr_scan", "ios": "https://dc.lft.to/lastmile_qr_scan"}, "lat": 38.9142965, "lon": -77.01706266666666, "fusion_lat": 0.0}, {"is_reserved": 0, "bike_id": "94f65d1270a94bb1bf62ff2d404ea287", "type": "electric_scooter", "name": "94f65d1270a94bb1bf62ff2d404ea287", "is_disabled": 0, "fusion_lon": 0.0, "rental_uris": {"android": "https://dc.lft.to/lastmile_qr_scan", "ios": "https://dc.lft.to/lastmile_qr_scan"}, "lat": 38.9275245, "lon": -77.02964083333333, "fusion_lat": 0.0}, {"is_reserved": 0, "bike_id": "dc48c98c05e43981f9756ed658a800cd", "type": "electric_scooter", "name": "dc48c98c05e43981f9756ed658a800cd", "is_disabled": 0, "fusion_lon": 0.0, "rental_uris": {"android": "https://dc.lft.to/lastmile_qr_scan", "ios": "https://dc.lft.to/lastmile_qr_scan"}, "lat": 38.91539016666667, "lon": -77.04424516666667, "fusion_lat": 0.0}, {"is_reserved": 0, "bike_id": "a1a134d171b5595368f02ff8c2a28283", "type": "electric_bike", "name": "a1a134d171b5595368f02ff8c2a28283", "is_disabled": 0, "fusion_lon": 0.0, "rental_uris": {"android": "https://dc.lft.to/lastmile_qr_scan", "ios": "https://dc.lft.to/lastmile_qr_scan"}, "lat": 38.945145833333335, "lon": -77.006778, "fusion_lat": 0.0}, {"is_reserved": 0, "bike_id": "55fe9c6f8d955f7dd4daaec4e65f4411", "type": "electric_scooter", "name": "55fe9c6f8d955f7dd4daaec4e65f4411", "is_disabled": 0, "fusion_lon": 0.0, "rental_uris": {"android": "https://dc.lft.to/lastmile_qr_scan", "ios": "https://dc.lft.to/lastmile_qr_scan"}, "lat": 38.87698366666667, "lon": -77.00307816666667, "fusion_lat": 0.0}, {"is_reserved": 0, "bike_id": "49b8e851dde78c8fa849b2885209319c", "type": "electric_scooter", "name": "49b8e851dde78c8fa849b2885209319c", "is_disabled": 0, "fusion_lon": 0.0, "rental_uris": {"android": "https://dc.lft.to/lastmile_qr_scan", "ios": "https://dc.lft.to/lastmile_qr_scan"}, "lat": 38.9188045, "lon": -77.009208, "fusion_lat": 0.0}, {"is_reserved": 0, "bike_id": "01b4f210811166b597ef8ceae83df764", "type": "electric_scooter", "name": "01b4f210811166b597ef8ceae83df764", "is_disabled": 0, "fusion_lon": 0.0, "rental_uris": {"android": "https://dc.lft.to/lastmile_qr_scan", "ios": "https://dc.lft.to/lastmile_qr_scan"}, "lat": 38.92370316666667, "lon": -77.02543366666667, "fusion_lat": 0.0}, {"is_reserved": 0, "bike_id": "8b0b056881ea955322ffc51d13153eea", "type": "electric_scooter", "name": "8b0b056881ea955322ffc51d13153eea", "is_disabled": 0, "fusion_lon": 0.0, "rental_uris": {"android": "https://dc.lft.to/lastmile_qr_scan", "ios": "https://dc.lft.to/lastmile_qr_scan"}, "lat": 38.917669, "lon": -77.02710216666667, "fusion_lat": 0.0}, {"is_reserved": 0, "bike_id": "1cc5c4edaf45015cac52723a159bd943", "type": "electric_scooter", "name": "1cc5c4edaf45015cac52723a159bd943", "is_disabled": 0, "fusion_lon": 0.0, "rental_uris": {"android": "https://dc.lft.to/lastmile_qr_scan", "ios": "https://dc.lft.to/lastmile_qr_scan"}, "lat": 38.92154416666666, "lon": -77.0387415, "fusion_lat": 0.0}, {"is_reserved": 0, "bike_id": "56515222c91734c46393b992fdcf185a", "type": "electric_scooter", "name": "56515222c91734c46393b992fdcf185a", "is_disabled": 0, "fusion_lon": 0.0, "rental_uris": {"android": "https://dc.lft.to/lastmile_qr_scan", "ios": "https://dc.lft.to/lastmile_qr_scan"}, "lat": 38.926205333333336, "lon": -77.022678, "fusion_lat": 0.0}, {"is_reserved": 0, "bike_id": "23264fd3a4cdf3b093edbd6d1a05c6b2", "type": "electric_bike", "name": "23264fd3a4cdf3b093edbd6d1a05c6b2", "is_disabled": 0, "fusion_lon": 0.0, "rental_uris": {"android": "https://dc.lft.to/lastmile_qr_scan", "ios": "https://dc.lft.to/lastmile_qr_scan"}, "lat": 38.974419166666664, "lon": -77.09620733333334, "fusion_lat": 0.0}, {"is_reserved": 0, "bike_id": "2e32d0656aaa42161a5ad7569333fbe2", "type": "electric_scooter", "name": "2e32d0656aaa42161a5ad7569333fbe2", "is_disabled": 0, "fusion_lon": 0.0, "rental_uris": {"android": "https://dc.lft.to/lastmile_qr_scan", "ios": "https://dc.lft.to/lastmile_qr_scan"}, "lat": 38.9303695, "lon": -77.0574505, "fusion_lat": 0.0}, {"is_reserved": 0, "bike_id": "5df0f28890832500b447974fa6f16b47", "type": "electric_bike", "name": "5df0f28890832500b447974fa6f16b47", "is_disabled": 0, "fusion_lon": 0.0, "rental_uris": {"android": "https://dc.lft.to/lastmile_qr_scan", "ios": "https://dc.lft.to/lastmile_qr_scan"}, "lat": 38.94170366666667, "lon": -76.95349366666667, "fusion_lat": 0.0}, {"is_reserved": 0, "bike_id": "a66a415cb3eac2260cd8df77feac6fe8", "type": "electric_scooter", "name": "a66a415cb3eac2260cd8df77feac6fe8", "is_disabled": 0, "fusion_lon": 0.0, "rental_uris": {"android": "https://dc.lft.to/lastmile_qr_scan", "ios": "https://dc.lft.to/lastmile_qr_scan"}, "lat": 38.892272, "lon": -77.04499866666667, "fusion_lat": 0.0}, {"is_reserved": 0, "bike_id": "e911451f28e296aebb0cb2ce4bffe28a", "type": "electric_scooter", "name": "e911451f28e296aebb0cb2ce4bffe28a", "is_disabled": 0, "fusion_lon": 0.0, "rental_uris": {"android": "https://dc.lft.to/lastmile_qr_scan", "ios": "https://dc.lft.to/lastmile_qr_scan"}, "lat": 38.91416433333333, "lon": -77.0317745, "fusion_lat": 0.0}, {"is_reserved": 0, "bike_id": "65b34f8a65e1a58cc4435ce91aa5f91f", "type": "electric_scooter", "name": "65b34f8a65e1a58cc4435ce91aa5f91f", "is_disabled": 0, "fusion_lon": 0.0, "rental_uris": {"android": "https://dc.lft.to/lastmile_qr_scan", "ios": "https://dc.lft.to/lastmile_qr_scan"}, "lat": 38.893652333333335, "lon": -77.04777933333334, "fusion_lat": 0.0}, {"is_reserved": 0, "bike_id": "02f3d6eebd415968079a5536eec8cc4d", "type": "electric_scooter", "name": "02f3d6eebd415968079a5536eec8cc4d", "is_disabled": 0, "fusion_lon": 0.0, "rental_uris": {"android": "https://dc.lft.to/lastmile_qr_scan", "ios": "https://dc.lft.to/lastmile_qr_scan"}, "lat": 38.90899366666667, "lon": -77.03176016666667, "fusion_lat": 0.0}, {"is_reserved": 0, "bike_id": "8fd8dc01e88328afa7b2d8353bf691b9", "type": "electric_scooter", "name": "8fd8dc01e88328afa7b2d8353bf691b9", "is_disabled": 0, "fusion_lon": 0.0, "rental_uris": {"android": "https://dc.lft.to/lastmile_qr_scan", "ios": "https://dc.lft.to/lastmile_qr_scan"}, "lat": 38.9233545, "lon": -77.0228855, "fusion_lat": 0.0}, {"is_reserved": 0, "bike_id": "f44f62b5677ecd13c8b16f2df6ac35c6", "type": "electric_scooter", "name": "f44f62b5677ecd13c8b16f2df6ac35c6", "is_disabled": 0, "fusion_lon": 0.0, "rental_uris": {"android": "https://dc.lft.to/lastmile_qr_scan", "ios": "https://dc.lft.to/lastmile_qr_scan"}, "lat": 38.923699666666664, "lon": -77.0503325, "fusion_lat": 0.0}, {"is_reserved": 0, "bike_id": "da3ca17effe4de3ee91e73427b33c267", "type": "electric_scooter", "name": "da3ca17effe4de3ee91e73427b33c267", "is_disabled": 0, "fusion_lon": 0.0, "rental_uris": {"android": "https://dc.lft.to/lastmile_qr_scan", "ios": "https://dc.lft.to/lastmile_qr_scan"}, "lat": 38.92128266666667, "lon": -77.0317555, "fusion_lat": 0.0}, {"is_reserved": 0, "bike_id": "a17a6cecd8b3d0604dabf65e6632f4cc", "type": "electric_scooter", "name": "a17a6cecd8b3d0604dabf65e6632f4cc", "is_disabled": 0, "fusion_lon": 0.0, "rental_uris": {"android": "https://dc.lft.to/lastmile_qr_scan", "ios": "https://dc.lft.to/lastmile_qr_scan"}, "lat": 38.895746, "lon": -77.02708433333333, "fusion_lat": 0.0}, {"is_reserved": 0, "bike_id": "2ff4e608b0f50724dc1d4bda8e699ebc", "type": "electric_scooter", "name": "2ff4e608b0f50724dc1d4bda8e699ebc", "is_disabled": 0, "fusion_lon": 0.0, "rental_uris": {"android": "https://dc.lft.to/lastmile_qr_scan", "ios": "https://dc.lft.to/lastmile_qr_scan"}, "lat": 38.911842, "lon": -77.03495566666666, "fusion_lat": 0.0}, {"is_reserved": 0, "bike_id": "c3cb324b487c5c37ca309fa35b2266f3", "type": "electric_scooter", "name": "c3cb324b487c5c37ca309fa35b2266f3", "is_disabled": 0, "fusion_lon": 0.0, "rental_uris": {"android": "https://dc.lft.to/lastmile_qr_scan", "ios": "https://dc.lft.to/lastmile_qr_scan"}, "lat": 38.905562333333336, "lon": -77.0501145, "fusion_lat": 0.0}, {"is_reserved": 0, "bike_id": "09b0f2b049d0061c2f1c9f1d9e48fc4f", "type": "electric_scooter", "name": "09b0f2b049d0061c2f1c9f1d9e48fc4f", "is_disabled": 0, "fusion_lon": 0.0, "rental_uris": {"android": "https://dc.lft.to/lastmile_qr_scan", "ios": "https://dc.lft.to/lastmile_qr_scan"}, "lat": 38.91122283333333, "lon": -77.03837366666667, "fusion_lat": 0.0}, {"is_reserved": 0, "bike_id": "a9182ecb92a764113f542f0a7d08c4dd", "type": "electric_scooter", "name": "a9182ecb92a764113f542f0a7d08c4dd", "is_disabled": 0, "fusion_lon": 0.0, "rental_uris": {"android": "https://dc.lft.to/lastmile_qr_scan", "ios": "https://dc.lft.to/lastmile_qr_scan"}, "lat": 38.90664966666667, "lon": -77.07324683333333, "fusion_lat": 0.0}, {"is_reserved": 0, "bike_id": "446972fc3682d9504438f00ceee6f761", "type": "electric_scooter", "name": "446972fc3682d9504438f00ceee6f761", "is_disabled": 0, "fusion_lon": 0.0, "rental_uris": {"android": "https://dc.lft.to/lastmile_qr_scan", "ios": "https://dc.lft.to/lastmile_qr_scan"}, "lat": 38.92391533333333, "lon": -77.04066433333334, "fusion_lat": 0.0}, {"is_reserved": 0, "bike_id": "928e6024b271e6a93428ba5ea4de5c7d", "type": "electric_scooter", "name": "928e6024b271e6a93428ba5ea4de5c7d", "is_disabled": 0, "fusion_lon": 0.0, "rental_uris": {"android": "https://dc.lft.to/lastmile_qr_scan", "ios": "https://dc.lft.to/lastmile_qr_scan"}, "lat": 38.915427666666666, "lon": -77.03794616666667, "fusion_lat": 0.0}, {"is_reserved": 0, "bike_id": "9904b3f4d0f9a20ec3512019e945a784", "type": "electric_scooter", "name": "9904b3f4d0f9a20ec3512019e945a784", "is_disabled": 0, "fusion_lon": 0.0, "rental_uris": {"android": "https://dc.lft.to/lastmile_qr_scan", "ios": "https://dc.lft.to/lastmile_qr_scan"}, "lat": 38.918154, "lon": -77.024806, "fusion_lat": 0.0}, {"is_reserved": 0, "bike_id": "b22d8766e934a76d7b80092207429f4d", "type": "electric_scooter", "name": "b22d8766e934a76d7b80092207429f4d", "is_disabled": 0, "fusion_lon": 0.0, "rental_uris": {"android": "https://dc.lft.to/lastmile_qr_scan", "ios": "https://dc.lft.to/lastmile_qr_scan"}, "lat": 38.90868966666667, "lon": -76.99087666666667, "fusion_lat": 0.0}, {"is_reserved": 0, "bike_id": "27f64498b5636f11a591c740d3addd2b", "type": "electric_scooter", "name": "27f64498b5636f11a591c740d3addd2b", "is_disabled": 0, "fusion_lon": 0.0, "rental_uris": {"android": "https://dc.lft.to/lastmile_qr_scan", "ios": "https://dc.lft.to/lastmile_qr_scan"}, "lat": 38.907993833333336, "lon": -77.041744, "fusion_lat": 0.0}, {"is_reserved": 0, "bike_id": "d34acef61fde3bfe292aef13c454e21d", "type": "electric_scooter", "name": "d34acef61fde3bfe292aef13c454e21d", "is_disabled": 0, "fusion_lon": 0.0, "rental_uris": {"android": "https://dc.lft.to/lastmile_qr_scan", "ios": "https://dc.lft.to/lastmile_qr_scan"}, "lat": 38.921832, "lon": -77.04011883333334, "fusion_lat": 0.0}, {"is_reserved": 0, "bike_id": "4138b155913e19d64ff3a5b455ddad48", "type": "electric_scooter", "name": "4138b155913e19d64ff3a5b455ddad48", "is_disabled": 0, "fusion_lon": 0.0, "rental_uris": {"android": "https://dc.lft.to/lastmile_qr_scan", "ios": "https://dc.lft.to/lastmile_qr_scan"}, "lat": 38.914062666666666, "lon": -77.02210516666666, "fusion_lat": 0.0}, {"is_reserved": 0, "bike_id": "ba451a9c37e49d12d53893c7c049e8c9", "type": "electric_scooter", "name": "ba451a9c37e49d12d53893c7c049e8c9", "is_disabled": 0, "fusion_lon": 0.0, "rental_uris": {"android": "https://dc.lft.to/lastmile_qr_scan", "ios": "https://dc.lft.to/lastmile_qr_scan"}, "lat": 38.8552235, "lon": -76.99096366666667, "fusion_lat": 0.0}, {"is_reserved": 0, "bike_id": "4f30282fea20232f6d6cd77c94e547b0", "type": "electric_scooter", "name": "4f30282fea20232f6d6cd77c94e547b0", "is_disabled": 0, "fusion_lon": 0.0, "rental_uris": {"android": "https://dc.lft.to/lastmile_qr_scan", "ios": "https://dc.lft.to/lastmile_qr_scan"}, "lat": 38.92312316666667, "lon": -77.04219016666667, "fusion_lat": 0.0}, {"is_reserved": 0, "bike_id": "18d5362993b2d665a89efbdf28404b2f", "type": "electric_scooter", "name": "18d5362993b2d665a89efbdf28404b2f", "is_disabled": 0, "fusion_lon": 0.0, "rental_uris": {"android": "https://dc.lft.to/lastmile_qr_scan", "ios": "https://dc.lft.to/lastmile_qr_scan"}, "lat": 38.885050666666665, "lon": -77.00567116666667, "fusion_lat": 0.0}, {"is_reserved": 0, "bike_id": "22e9ff07b8b516eae640b46cadc6f2c8", "type": "electric_scooter", "name": "22e9ff07b8b516eae640b46cadc6f2c8", "is_disabled": 0, "fusion_lon": 0.0, "rental_uris": {"android": "https://dc.lft.to/lastmile_qr_scan", "ios": "https://dc.lft.to/lastmile_qr_scan"}, "lat": 38.8954125, "lon": -76.983384, "fusion_lat": 0.0}, {"is_reserved": 0, "bike_id": "a750fce5362c3308bce1a05e44f0d29b", "type": "electric_scooter", "name": "a750fce5362c3308bce1a05e44f0d29b", "is_disabled": 0, "fusion_lon": 0.0, "rental_uris": {"android": "https://dc.lft.to/lastmile_qr_scan", "ios": "https://dc.lft.to/lastmile_qr_scan"}, "lat": 38.93967033333333, "lon": -77.032823, "fusion_lat": 0.0}, {"is_reserved": 0, "bike_id": "0c5cc8646ded05ba1ec72c746052d170", "type": "electric_scooter", "name": "0c5cc8646ded05ba1ec72c746052d170", "is_disabled": 0, "fusion_lon": 0.0, "rental_uris": {"android": "https://dc.lft.to/lastmile_qr_scan", "ios": "https://dc.lft.to/lastmile_qr_scan"}, "lat": 38.92126966666667, "lon": -77.04376916666666, "fusion_lat": 0.0}, {"is_reserved": 0, "bike_id": "67a6e044792063393488660fcd53b93e", "type": "electric_scooter", "name": "67a6e044792063393488660fcd53b93e", "is_disabled": 0, "fusion_lon": 0.0, "rental_uris": {"android": "https://dc.lft.to/lastmile_qr_scan", "ios": "https://dc.lft.to/lastmile_qr_scan"}, "lat": 38.88002266666667, "lon": -76.98543566666666, "fusion_lat": 0.0}, {"is_reserved": 0, "bike_id": "b0c08c37d5b0c59a352a9577f0811725", "type": "electric_scooter", "name": "b0c08c37d5b0c59a352a9577f0811725", "is_disabled": 0, "fusion_lon": 0.0, "rental_uris": {"android": "https://dc.lft.to/lastmile_qr_scan", "ios": "https://dc.lft.to/lastmile_qr_scan"}, "lat": 38.926048, "lon": -77.021558, "fusion_lat": 0.0}, {"is_reserved": 0, "bike_id": "78d679bcb5d0d2241a7a9c3611c9e7b9", "type": "electric_scooter", "name": "78d679bcb5d0d2241a7a9c3611c9e7b9", "is_disabled": 0, "fusion_lon": 0.0, "rental_uris": {"android": "https://dc.lft.to/lastmile_qr_scan", "ios": "https://dc.lft.to/lastmile_qr_scan"}, "lat": 38.909586, "lon": -77.00764133333334, "fusion_lat": 0.0}, {"is_reserved": 0, "bike_id": "cd74adc02f42a917ac1be46506efbf81", "type": "electric_scooter", "name": "cd74adc02f42a917ac1be46506efbf81", "is_disabled": 0, "fusion_lon": 0.0, "rental_uris": {"android": "https://dc.lft.to/lastmile_qr_scan", "ios": "https://dc.lft.to/lastmile_qr_scan"}, "lat": 38.9520365, "lon": -77.027362, "fusion_lat": 0.0}, {"is_reserved": 0, "bike_id": "733e8575196013917a55116672d39bd5", "type": "electric_scooter", "name": "733e8575196013917a55116672d39bd5", "is_disabled": 0, "fusion_lon": 0.0, "rental_uris": {"android": "https://dc.lft.to/lastmile_qr_scan", "ios": "https://dc.lft.to/lastmile_qr_scan"}, "lat": 38.9056355, "lon": -77.00435, "fusion_lat": 0.0}, {"is_reserved": 0, "bike_id": "4defe53b8b057d2a7a70b461fd94c200", "type": "electric_scooter", "name": "4defe53b8b057d2a7a70b461fd94c200", "is_disabled": 0, "fusion_lon": 0.0, "rental_uris": {"android": "https://dc.lft.to/lastmile_qr_scan", "ios": "https://dc.lft.to/lastmile_qr_scan"}, "lat": 38.914683, "lon": -77.036486, "fusion_lat": 0.0}, {"is_reserved": 0, "bike_id": "f0b71959905bdb92e39f9710cf1eb079", "type": "electric_scooter", "name": "f0b71959905bdb92e39f9710cf1eb079", "is_disabled": 0, "fusion_lon": 0.0, "rental_uris": {"android": "https://dc.lft.to/lastmile_qr_scan", "ios": "https://dc.lft.to/lastmile_qr_scan"}, "lat": 38.91310383333333, "lon": -77.0192525, "fusion_lat": 0.0}, {"is_reserved": 0, "bike_id": "044a22bd433dce76fdcde9e9ca5e5265", "type": "electric_scooter", "name": "044a22bd433dce76fdcde9e9ca5e5265", "is_disabled": 0, "fusion_lon": 0.0, "rental_uris": {"android": "https://dc.lft.to/lastmile_qr_scan", "ios": "https://dc.lft.to/lastmile_qr_scan"}, "lat": 38.91686983333334, "lon": -77.0295, "fusion_lat": 0.0}, {"is_reserved": 0, "bike_id": "0956cf9862bc113ad45989bcae8a2478", "type": "electric_scooter", "name": "0956cf9862bc113ad45989bcae8a2478", "is_disabled": 0, "fusion_lon": 0.0, "rental_uris": {"android": "https://dc.lft.to/lastmile_qr_scan", "ios": "https://dc.lft.to/lastmile_qr_scan"}, "lat": 38.890477, "lon": -76.990078, "fusion_lat": 0.0}, {"is_reserved": 0, "bike_id": "ef4b2c9df8a33b4e96d75163cd7acbdc", "type": "electric_bike", "name": "ef4b2c9df8a33b4e96d75163cd7acbdc", "is_disabled": 0, "fusion_lon": 0.0, "rental_uris": {"android": "https://dc.lft.to/lastmile_qr_scan", "ios": "https://dc.lft.to/lastmile_qr_scan"}, "lat": 38.81543216666667, "lon": -77.04644183333333, "fusion_lat": 0.0}, {"is_reserved": 0, "bike_id": "70d9e8dd5c2b0e6d501ae83e1c355a3e", "type": "electric_scooter", "name": "70d9e8dd5c2b0e6d501ae83e1c355a3e", "is_disabled": 0, "fusion_lon": 0.0, "rental_uris": {"android": "https://dc.lft.to/lastmile_qr_scan", "ios": "https://dc.lft.to/lastmile_qr_scan"}, "lat": 38.9024, "lon": -77.0058225, "fusion_lat": 0.0}, {"is_reserved": 0, "bike_id": "a28fc10061e49c0570232ec73c1777ce", "type": "electric_scooter", "name": "a28fc10061e49c0570232ec73c1777ce", "is_disabled": 0, "fusion_lon": 0.0, "rental_uris": {"android": "https://dc.lft.to/lastmile_qr_scan", "ios": "https://dc.lft.to/lastmile_qr_scan"}, "lat": 38.8803215, "lon": -77.02505516666666, "fusion_lat": 0.0}, {"is_reserved": 0, "bike_id": "f28873f59e81c5c8c96bc4965d793bd4", "type": "electric_scooter", "name": "f28873f59e81c5c8c96bc4965d793bd4", "is_disabled": 0, "fusion_lon": 0.0, "rental_uris": {"android": "https://dc.lft.to/lastmile_qr_scan", "ios": "https://dc.lft.to/lastmile_qr_scan"}, "lat": 38.92906516666667, "lon": -77.0580985, "fusion_lat": 0.0}, {"is_reserved": 0, "bike_id": "9a4247e20faedd30425393e86e981e86", "type": "electric_scooter", "name": "9a4247e20faedd30425393e86e981e86", "is_disabled": 0, "fusion_lon": 0.0, "rental_uris": {"android": "https://dc.lft.to/lastmile_qr_scan", "ios": "https://dc.lft.to/lastmile_qr_scan"}, "lat": 38.898147333333334, "lon": -76.97931383333334, "fusion_lat": 0.0}, {"is_reserved": 0, "bike_id": "b89515d204270f67086d5ca8c405999a", "type": "electric_scooter", "name": "b89515d204270f67086d5ca8c405999a", "is_disabled": 0, "fusion_lon": 0.0, "rental_uris": {"android": "https://dc.lft.to/lastmile_qr_scan", "ios": "https://dc.lft.to/lastmile_qr_scan"}, "lat": 38.9244565, "lon": -77.03308666666666, "fusion_lat": 0.0}, {"is_reserved": 0, "bike_id": "4bec929076505b2745c913e81b80a73b", "type": "electric_scooter", "name": "4bec929076505b2745c913e81b80a73b", "is_disabled": 0, "fusion_lon": 0.0, "rental_uris": {"android": "https://dc.lft.to/lastmile_qr_scan", "ios": "https://dc.lft.to/lastmile_qr_scan"}, "lat": 38.908276, "lon": -76.99458183333333, "fusion_lat": 0.0}, {"is_reserved": 0, "bike_id": "2236ff05d52dd848bd7a3f338578df67", "type": "electric_scooter", "name": "2236ff05d52dd848bd7a3f338578df67", "is_disabled": 0, "fusion_lon": 0.0, "rental_uris": {"android": "https://dc.lft.to/lastmile_qr_scan", "ios": "https://dc.lft.to/lastmile_qr_scan"}, "lat": 38.906413, "lon": -77.0059035, "fusion_lat": 0.0}, {"is_reserved": 0, "bike_id": "e208362585332a79cdb6f6444ac31aea", "type": "electric_scooter", "name": "e208362585332a79cdb6f6444ac31aea", "is_disabled": 0, "fusion_lon": 0.0, "rental_uris": {"android": "https://dc.lft.to/lastmile_qr_scan", "ios": "https://dc.lft.to/lastmile_qr_scan"}, "lat": 38.9127235, "lon": -77.023857, "fusion_lat": 0.0}, {"is_reserved": 0, "bike_id": "35c70217e1b7f0795d8ce5c6046a9cbe", "type": "electric_scooter", "name": "35c70217e1b7f0795d8ce5c6046a9cbe", "is_disabled": 0, "fusion_lon": 0.0, "rental_uris": {"android": "https://dc.lft.to/lastmile_qr_scan", "ios": "https://dc.lft.to/lastmile_qr_scan"}, "lat": 38.92324, "lon": -77.036209, "fusion_lat": 0.0}, {"is_reserved": 0, "bike_id": "ead40900a29340ad9b911bba44f98a99", "type": "electric_scooter", "name": "ead40900a29340ad9b911bba44f98a99", "is_disabled": 0, "fusion_lon": 0.0, "rental_uris": {"android": "https://dc.lft.to/lastmile_qr_scan", "ios": "https://dc.lft.to/lastmile_qr_scan"}, "lat": 38.90412233333333, "lon": -77.06289, "fusion_lat": 0.0}, {"is_reserved": 0, "bike_id": "cdb313902f04b4e75f2a0b7c920f5f5e", "type": "electric_scooter", "name": "cdb313902f04b4e75f2a0b7c920f5f5e", "is_disabled": 0, "fusion_lon": 0.0, "rental_uris": {"android": "https://dc.lft.to/lastmile_qr_scan", "ios": "https://dc.lft.to/lastmile_qr_scan"}, "lat": 38.88758833333333, "lon": -77.03150266666667, "fusion_lat": 0.0}, {"is_reserved": 0, "bike_id": "40c9c5db881a85b066fb20488e3529ca", "type": "electric_bike", "name": "40c9c5db881a85b066fb20488e3529ca", "is_disabled": 0, "fusion_lon": 0.0, "rental_uris": {"android": "https://dc.lft.to/lastmile_qr_scan", "ios": "https://dc.lft.to/lastmile_qr_scan"}, "lat": 38.950715333333335, "lon": -76.99600116666667, "fusion_lat": 0.0}, {"is_reserved": 0, "bike_id": "71e5d9c6c760d10a2e4e60f68a1e666a", "type": "electric_scooter", "name": "71e5d9c6c760d10a2e4e60f68a1e666a", "is_disabled": 0, "fusion_lon": 0.0, "rental_uris": {"android": "https://dc.lft.to/lastmile_qr_scan", "ios": "https://dc.lft.to/lastmile_qr_scan"}, "lat": 38.92471716666667, "lon": -77.0298925, "fusion_lat": 0.0}, {"is_reserved": 0, "bike_id": "2bf864206d9b5faca3fae18abe17300e", "type": "electric_scooter", "name": "2bf864206d9b5faca3fae18abe17300e", "is_disabled": 0, "fusion_lon": 0.0, "rental_uris": {"android": "https://dc.lft.to/lastmile_qr_scan", "ios": "https://dc.lft.to/lastmile_qr_scan"}, "lat": 38.9041125, "lon": -77.06849383333333, "fusion_lat": 0.0}, {"is_reserved": 0, "bike_id": "65947288ad03d26118dce5f8a4c21bb1", "type": "electric_scooter", "name": "65947288ad03d26118dce5f8a4c21bb1", "is_disabled": 0, "fusion_lon": 0.0, "rental_uris": {"android": "https://dc.lft.to/lastmile_qr_scan", "ios": "https://dc.lft.to/lastmile_qr_scan"}, "lat": 38.901515333333336, "lon": -77.0416705, "fusion_lat": 0.0}, {"is_reserved": 0, "bike_id": "30601e906c4ff2ae44e66f2fcd0855af", "type": "electric_scooter", "name": "30601e906c4ff2ae44e66f2fcd0855af", "is_disabled": 0, "fusion_lon": 0.0, "rental_uris": {"android": "https://dc.lft.to/lastmile_qr_scan", "ios": "https://dc.lft.to/lastmile_qr_scan"}, "lat": 38.90655566666667, "lon": -77.011103, "fusion_lat": 0.0}, {"is_reserved": 0, "bike_id": "1071ba3d18057e569ec92c6db0396032", "type": "electric_scooter", "name": "1071ba3d18057e569ec92c6db0396032", "is_disabled": 0, "fusion_lon": 0.0, "rental_uris": {"android": "https://dc.lft.to/lastmile_qr_scan", "ios": "https://dc.lft.to/lastmile_qr_scan"}, "lat": 38.91645416666667, "lon": -77.02878616666666, "fusion_lat": 0.0}, {"is_reserved": 0, "bike_id": "623e10712287fbfa574a290b1a53c798", "type": "electric_scooter", "name": "623e10712287fbfa574a290b1a53c798", "is_disabled": 0, "fusion_lon": 0.0, "rental_uris": {"android": "https://dc.lft.to/lastmile_qr_scan", "ios": "https://dc.lft.to/lastmile_qr_scan"}, "lat": 38.93086233333333, "lon": -77.02469716666667, "fusion_lat": 0.0}, {"is_reserved": 0, "bike_id": "0cb14fabd28d247aa36f3159e950c2c5", "type": "electric_scooter", "name": "0cb14fabd28d247aa36f3159e950c2c5", "is_disabled": 0, "fusion_lon": 0.0, "rental_uris": {"android": "https://dc.lft.to/lastmile_qr_scan", "ios": "https://dc.lft.to/lastmile_qr_scan"}, "lat": 38.928428, "lon": -77.033132, "fusion_lat": 0.0}, {"is_reserved": 0, "bike_id": "67b4be03e0dd39fea02bea08cea6065e", "type": "electric_scooter", "name": "67b4be03e0dd39fea02bea08cea6065e", "is_disabled": 0, "fusion_lon": 0.0, "rental_uris": {"android": "https://dc.lft.to/lastmile_qr_scan", "ios": "https://dc.lft.to/lastmile_qr_scan"}, "lat": 38.91723833333333, "lon": -77.0684255, "fusion_lat": 0.0}, {"is_reserved": 0, "bike_id": "d7bd6d484c59eb33734bef6dddba822a", "type": "electric_scooter", "name": "d7bd6d484c59eb33734bef6dddba822a", "is_disabled": 0, "fusion_lon": 0.0, "rental_uris": {"android": "https://dc.lft.to/lastmile_qr_scan", "ios": "https://dc.lft.to/lastmile_qr_scan"}, "lat": 38.91316583333333, "lon": -77.01444166666667, "fusion_lat": 0.0}, {"is_reserved": 0, "bike_id": "a1d4e41790c2648bd4773b07e000fd9c", "type": "electric_bike", "name": "a1d4e41790c2648bd4773b07e000fd9c", "is_disabled": 0, "fusion_lon": 0.0, "rental_uris": {"android": "https://dc.lft.to/lastmile_qr_scan", "ios": "https://dc.lft.to/lastmile_qr_scan"}, "lat": 39.0850775, "lon": -76.95062133333333, "fusion_lat": 0.0}, {"is_reserved": 0, "bike_id": "90cc0b59eb739219535d5be530a4ed7e", "type": "electric_scooter", "name": "90cc0b59eb739219535d5be530a4ed7e", "is_disabled": 0, "fusion_lon": 0.0, "rental_uris": {"android": "https://dc.lft.to/lastmile_qr_scan", "ios": "https://dc.lft.to/lastmile_qr_scan"}, "lat": 38.905806166666665, "lon": -77.00601666666667, "fusion_lat": 0.0}, {"is_reserved": 0, "bike_id": "89673d0ab903f4cc68dcfe2c51a14f59", "type": "electric_scooter", "name": "89673d0ab903f4cc68dcfe2c51a14f59", "is_disabled": 0, "fusion_lon": 0.0, "rental_uris": {"android": "https://dc.lft.to/lastmile_qr_scan", "ios": "https://dc.lft.to/lastmile_qr_scan"}, "lat": 38.8918985, "lon": -77.01535366666667, "fusion_lat": 0.0}, {"is_reserved": 0, "bike_id": "8bc83d15ce2134ad2a712faf49f6cc4c", "type": "electric_scooter", "name": "8bc83d15ce2134ad2a712faf49f6cc4c", "is_disabled": 0, "fusion_lon": 0.0, "rental_uris": {"android": "https://dc.lft.to/lastmile_qr_scan", "ios": "https://dc.lft.to/lastmile_qr_scan"}, "lat": 38.895021166666666, "lon": -77.02027366666667, "fusion_lat": 0.0}, {"is_reserved": 0, "bike_id": "cd61ff208ab5b1dbd8d07d69859ab56a", "type": "electric_scooter", "name": "cd61ff208ab5b1dbd8d07d69859ab56a", "is_disabled": 0, "fusion_lon": 0.0, "rental_uris": {"android": "https://dc.lft.to/lastmile_qr_scan", "ios": "https://dc.lft.to/lastmile_qr_scan"}, "lat": 38.9014195, "lon": -77.04465866666666, "fusion_lat": 0.0}, {"is_reserved": 0, "bike_id": "61a382c2043870b12f3ab4a0e5f5d6b8", "type": "electric_scooter", "name": "61a382c2043870b12f3ab4a0e5f5d6b8", "is_disabled": 0, "fusion_lon": 0.0, "rental_uris": {"android": "https://dc.lft.to/lastmile_qr_scan", "ios": "https://dc.lft.to/lastmile_qr_scan"}, "lat": 38.9213935, "lon": -77.01808233333334, "fusion_lat": 0.0}, {"is_reserved": 0, "bike_id": "fff46d2b6adabecfc1b43f70a6d67df2", "type": "electric_scooter", "name": "fff46d2b6adabecfc1b43f70a6d67df2", "is_disabled": 0, "fusion_lon": 0.0, "rental_uris": {"android": "https://dc.lft.to/lastmile_qr_scan", "ios": "https://dc.lft.to/lastmile_qr_scan"}, "lat": 38.96822866666667, "lon": -77.032901, "fusion_lat": 0.0}, {"is_reserved": 0, "bike_id": "266d8ae986d3efd3646548eb98bc82ff", "type": "electric_scooter", "name": "266d8ae986d3efd3646548eb98bc82ff", "is_disabled": 0, "fusion_lon": 0.0, "rental_uris": {"android": "https://dc.lft.to/lastmile_qr_scan", "ios": "https://dc.lft.to/lastmile_qr_scan"}, "lat": 38.899018833333336, "lon": -77.0396805, "fusion_lat": 0.0}, {"is_reserved": 0, "bike_id": "9bf539907d622a2eb91dc366bf43f4cc", "type": "electric_scooter", "name": "9bf539907d622a2eb91dc366bf43f4cc", "is_disabled": 0, "fusion_lon": 0.0, "rental_uris": {"android": "https://dc.lft.to/lastmile_qr_scan", "ios": "https://dc.lft.to/lastmile_qr_scan"}, "lat": 38.86750383333333, "lon": -77.00146666666667, "fusion_lat": 0.0}, {"is_reserved": 0, "bike_id": "ccb23428bc9955a5c0b492af5ec2aea1", "type": "electric_scooter", "name": "ccb23428bc9955a5c0b492af5ec2aea1", "is_disabled": 0, "fusion_lon": 0.0, "rental_uris": {"android": "https://dc.lft.to/lastmile_qr_scan", "ios": "https://dc.lft.to/lastmile_qr_scan"}, "lat": 38.942818, "lon": -77.0294325, "fusion_lat": 0.0}, {"is_reserved": 0, "bike_id": "f66d031d789f123c2675617975814138", "type": "electric_bike", "name": "f66d031d789f123c2675617975814138", "is_disabled": 0, "fusion_lon": 0.0, "rental_uris": {"android": "https://dc.lft.to/lastmile_qr_scan", "ios": "https://dc.lft.to/lastmile_qr_scan"}, "lat": 38.88775283333333, "lon": -77.07600183333334, "fusion_lat": 0.0}, {"is_reserved": 0, "bike_id": "a0ff63c47d55cd49f15df8035fd3a6de", "type": "electric_scooter", "name": "a0ff63c47d55cd49f15df8035fd3a6de", "is_disabled": 0, "fusion_lon": 0.0, "rental_uris": {"android": "https://dc.lft.to/lastmile_qr_scan", "ios": "https://dc.lft.to/lastmile_qr_scan"}, "lat": 38.884896499999996, "lon": -77.00724266666667, "fusion_lat": 0.0}, {"is_reserved": 0, "bike_id": "eb789dfe472854c06cd86ca55bc9c323", "type": "electric_scooter", "name": "eb789dfe472854c06cd86ca55bc9c323", "is_disabled": 0, "fusion_lon": 0.0, "rental_uris": {"android": "https://dc.lft.to/lastmile_qr_scan", "ios": "https://dc.lft.to/lastmile_qr_scan"}, "lat": 38.90128216666667, "lon": -77.04463733333333, "fusion_lat": 0.0}, {"is_reserved": 0, "bike_id": "4bb0807ecccc0212b603b93c51fe84eb", "type": "electric_scooter", "name": "4bb0807ecccc0212b603b93c51fe84eb", "is_disabled": 0, "fusion_lon": 0.0, "rental_uris": {"android": "https://dc.lft.to/lastmile_qr_scan", "ios": "https://dc.lft.to/lastmile_qr_scan"}, "lat": 38.87288516666667, "lon": -77.009858, "fusion_lat": 0.0}, {"is_reserved": 0, "bike_id": "94e6fa321d95665bc77b0129a0f6070a", "type": "electric_scooter", "name": "94e6fa321d95665bc77b0129a0f6070a", "is_disabled": 0, "fusion_lon": 0.0, "rental_uris": {"android": "https://dc.lft.to/lastmile_qr_scan", "ios": "https://dc.lft.to/lastmile_qr_scan"}, "lat": 38.92778166666667, "lon": -77.0141905, "fusion_lat": 0.0}, {"is_reserved": 0, "bike_id": "8284182159181c4afd93975c1fe3d912", "type": "electric_scooter", "name": "8284182159181c4afd93975c1fe3d912", "is_disabled": 0, "fusion_lon": 0.0, "rental_uris": {"android": "https://dc.lft.to/lastmile_qr_scan", "ios": "https://dc.lft.to/lastmile_qr_scan"}, "lat": 38.89822266666667, "lon": -77.04993, "fusion_lat": 0.0}, {"is_reserved": 0, "bike_id": "89667f78a6c0267780e9deb0a9bb27c6", "type": "electric_scooter", "name": "89667f78a6c0267780e9deb0a9bb27c6", "is_disabled": 0, "fusion_lon": 0.0, "rental_uris": {"android": "https://dc.lft.to/lastmile_qr_scan", "ios": "https://dc.lft.to/lastmile_qr_scan"}, "lat": 38.89886166666667, "lon": -77.04331216666667, "fusion_lat": 0.0}, {"is_reserved": 0, "bike_id": "5a008daf462c5fb7a34dec41ec478ab5", "type": "electric_scooter", "name": "5a008daf462c5fb7a34dec41ec478ab5", "is_disabled": 0, "fusion_lon": 0.0, "rental_uris": {"android": "https://dc.lft.to/lastmile_qr_scan", "ios": "https://dc.lft.to/lastmile_qr_scan"}, "lat": 38.8813875, "lon": -77.0234075, "fusion_lat": 0.0}, {"is_reserved": 0, "bike_id": "e880373ac4ef2862b33c86ec42af5dcb", "type": "electric_scooter", "name": "e880373ac4ef2862b33c86ec42af5dcb", "is_disabled": 0, "fusion_lon": 0.0, "rental_uris": {"android": "https://dc.lft.to/lastmile_qr_scan", "ios": "https://dc.lft.to/lastmile_qr_scan"}, "lat": 38.90264366666667, "lon": -77.01749683333334, "fusion_lat": 0.0}, {"is_reserved": 0, "bike_id": "e563f634d2ec11ae0d6f2bd9e9c46e65", "type": "electric_scooter", "name": "e563f634d2ec11ae0d6f2bd9e9c46e65", "is_disabled": 0, "fusion_lon": 0.0, "rental_uris": {"android": "https://dc.lft.to/lastmile_qr_scan", "ios": "https://dc.lft.to/lastmile_qr_scan"}, "lat": 38.88732433333333, "lon": -76.9836515, "fusion_lat": 0.0}, {"is_reserved": 0, "bike_id": "66e51eb89749ca48521cd96724bfa10d", "type": "electric_scooter", "name": "66e51eb89749ca48521cd96724bfa10d", "is_disabled": 0, "fusion_lon": 0.0, "rental_uris": {"android": "https://dc.lft.to/lastmile_qr_scan", "ios": "https://dc.lft.to/lastmile_qr_scan"}, "lat": 38.909681666666664, "lon": -77.08127316666666, "fusion_lat": 0.0}, {"is_reserved": 0, "bike_id": "bdb1534198b602a2733baa8c53900fdf", "type": "electric_scooter", "name": "bdb1534198b602a2733baa8c53900fdf", "is_disabled": 0, "fusion_lon": 0.0, "rental_uris": {"android": "https://dc.lft.to/lastmile_qr_scan", "ios": "https://dc.lft.to/lastmile_qr_scan"}, "lat": 38.90867816666667, "lon": -77.0858435, "fusion_lat": 0.0}, {"is_reserved": 0, "bike_id": "b7b4d6b14c57808275e4d0dfd5048c3f", "type": "electric_scooter", "name": "b7b4d6b14c57808275e4d0dfd5048c3f", "is_disabled": 0, "fusion_lon": 0.0, "rental_uris": {"android": "https://dc.lft.to/lastmile_qr_scan", "ios": "https://dc.lft.to/lastmile_qr_scan"}, "lat": 38.92951083333333, "lon": -77.04403083333334, "fusion_lat": 0.0}, {"is_reserved": 0, "bike_id": "12b623535ad26a2ea1739845fe9975a5", "type": "electric_scooter", "name": "12b623535ad26a2ea1739845fe9975a5", "is_disabled": 0, "fusion_lon": 0.0, "rental_uris": {"android": "https://dc.lft.to/lastmile_qr_scan", "ios": "https://dc.lft.to/lastmile_qr_scan"}, "lat": 38.91251966666667, "lon": -77.03041616666667, "fusion_lat": 0.0}, {"is_reserved": 0, "bike_id": "2c35b20695e26f20cb4074caeac0dc87", "type": "electric_scooter", "name": "2c35b20695e26f20cb4074caeac0dc87", "is_disabled": 0, "fusion_lon": 0.0, "rental_uris": {"android": "https://dc.lft.to/lastmile_qr_scan", "ios": "https://dc.lft.to/lastmile_qr_scan"}, "lat": 38.875452, "lon": -77.00536466666667, "fusion_lat": 0.0}, {"is_reserved": 0, "bike_id": "8e0717e5a2509e269454a52d55d50891", "type": "electric_scooter", "name": "8e0717e5a2509e269454a52d55d50891", "is_disabled": 0, "fusion_lon": 0.0, "rental_uris": {"android": "https://dc.lft.to/lastmile_qr_scan", "ios": "https://dc.lft.to/lastmile_qr_scan"}, "lat": 38.9217525, "lon": -77.01919033333333, "fusion_lat": 0.0}, {"is_reserved": 0, "bike_id": "372d86f9a072a8045cc36e63e9267a91", "type": "electric_scooter", "name": "372d86f9a072a8045cc36e63e9267a91", "is_disabled": 0, "fusion_lon": 0.0, "rental_uris": {"android": "https://dc.lft.to/lastmile_qr_scan", "ios": "https://dc.lft.to/lastmile_qr_scan"}, "lat": 38.87915566666667, "lon": -76.98540616666666, "fusion_lat": 0.0}, {"is_reserved": 0, "bike_id": "7e95bdc52a52666616cb7af518915207", "type": "electric_scooter", "name": "7e95bdc52a52666616cb7af518915207", "is_disabled": 0, "fusion_lon": 0.0, "rental_uris": {"android": "https://dc.lft.to/lastmile_qr_scan", "ios": "https://dc.lft.to/lastmile_qr_scan"}, "lat": 38.906082, "lon": -77.05686416666667, "fusion_lat": 0.0}, {"is_reserved": 0, "bike_id": "901058d702b029a7f4967cbdf66bf4c9", "type": "electric_scooter", "name": "901058d702b029a7f4967cbdf66bf4c9", "is_disabled": 0, "fusion_lon": 0.0, "rental_uris": {"android": "https://dc.lft.to/lastmile_qr_scan", "ios": "https://dc.lft.to/lastmile_qr_scan"}, "lat": 38.90240216666667, "lon": -77.00203416666666, "fusion_lat": 0.0}, {"is_reserved": 0, "bike_id": "23ff27d01e7b6526dc161d9b68263783", "type": "electric_scooter", "name": "23ff27d01e7b6526dc161d9b68263783", "is_disabled": 0, "fusion_lon": 0.0, "rental_uris": {"android": "https://dc.lft.to/lastmile_qr_scan", "ios": "https://dc.lft.to/lastmile_qr_scan"}, "lat": 38.87443783333333, "lon": -77.0012155, "fusion_lat": 0.0}, {"is_reserved": 0, "bike_id": "c714a7c38183cb537d6be4c3a795b92c", "type": "electric_scooter", "name": "c714a7c38183cb537d6be4c3a795b92c", "is_disabled": 0, "fusion_lon": 0.0, "rental_uris": {"android": "https://dc.lft.to/lastmile_qr_scan", "ios": "https://dc.lft.to/lastmile_qr_scan"}, "lat": 38.920761166666665, "lon": -77.02315483333334, "fusion_lat": 0.0}, {"is_reserved": 0, "bike_id": "ad0aa644b5fdad3c0c3248ead8ae2dcd", "type": "electric_scooter", "name": "ad0aa644b5fdad3c0c3248ead8ae2dcd", "is_disabled": 0, "fusion_lon": 0.0, "rental_uris": {"android": "https://dc.lft.to/lastmile_qr_scan", "ios": "https://dc.lft.to/lastmile_qr_scan"}, "lat": 38.92701133333333, "lon": -77.02089183333334, "fusion_lat": 0.0}, {"is_reserved": 0, "bike_id": "836d7105fdec7016f7739d505044a8a8", "type": "electric_scooter", "name": "836d7105fdec7016f7739d505044a8a8", "is_disabled": 0, "fusion_lon": 0.0, "rental_uris": {"android": "https://dc.lft.to/lastmile_qr_scan", "ios": "https://dc.lft.to/lastmile_qr_scan"}, "lat": 38.88350916666667, "lon": -76.936364, "fusion_lat": 0.0}, {"is_reserved": 0, "bike_id": "d2eea321c4263b00a05a03e03cbae01c", "type": "electric_bike", "name": "d2eea321c4263b00a05a03e03cbae01c", "is_disabled": 0, "fusion_lon": 0.0, "rental_uris": {"android": "https://dc.lft.to/lastmile_qr_scan", "ios": "https://dc.lft.to/lastmile_qr_scan"}, "lat": 38.990979833333334, "lon": -76.9937405, "fusion_lat": 0.0}, {"is_reserved": 0, "bike_id": "9d2d6fdd09393a63c8f600f0705976fe", "type": "electric_scooter", "name": "9d2d6fdd09393a63c8f600f0705976fe", "is_disabled": 0, "fusion_lon": 0.0, "rental_uris": {"android": "https://dc.lft.to/lastmile_qr_scan", "ios": "https://dc.lft.to/lastmile_qr_scan"}, "lat": 38.920732666666666, "lon": -77.0239155, "fusion_lat": 0.0}, {"is_reserved": 0, "bike_id": "60c4837d3a698cda5145f1218ccd2d0c", "type": "electric_scooter", "name": "60c4837d3a698cda5145f1218ccd2d0c", "is_disabled": 0, "fusion_lon": 0.0, "rental_uris": {"android": "https://dc.lft.to/lastmile_qr_scan", "ios": "https://dc.lft.to/lastmile_qr_scan"}, "lat": 38.899614666666665, "lon": -77.01622166666667, "fusion_lat": 0.0}, {"is_reserved": 0, "bike_id": "a58d196e94f7704282b0b266bff53e1d", "type": "electric_scooter", "name": "a58d196e94f7704282b0b266bff53e1d", "is_disabled": 0, "fusion_lon": 0.0, "rental_uris": {"android": "https://dc.lft.to/lastmile_qr_scan", "ios": "https://dc.lft.to/lastmile_qr_scan"}, "lat": 38.898346, "lon": -77.03165116666666, "fusion_lat": 0.0}, {"is_reserved": 0, "bike_id": "b55a9e27c4d7d735fe6a09ea1a55f25f", "type": "electric_scooter", "name": "b55a9e27c4d7d735fe6a09ea1a55f25f", "is_disabled": 0, "fusion_lon": 0.0, "rental_uris": {"android": "https://dc.lft.to/lastmile_qr_scan", "ios": "https://dc.lft.to/lastmile_qr_scan"}, "lat": 38.919963833333334, "lon": -77.02366983333333, "fusion_lat": 0.0}, {"is_reserved": 0, "bike_id": "2af9d2c5665117841f21947e31a5d164", "type": "electric_scooter", "name": "2af9d2c5665117841f21947e31a5d164", "is_disabled": 0, "fusion_lon": 0.0, "rental_uris": {"android": "https://dc.lft.to/lastmile_qr_scan", "ios": "https://dc.lft.to/lastmile_qr_scan"}, "lat": 38.93427066666667, "lon": -77.04004583333334, "fusion_lat": 0.0}, {"is_reserved": 0, "bike_id": "525824943b58a33d8f449d729a3d3423", "type": "electric_scooter", "name": "525824943b58a33d8f449d729a3d3423", "is_disabled": 0, "fusion_lon": 0.0, "rental_uris": {"android": "https://dc.lft.to/lastmile_qr_scan", "ios": "https://dc.lft.to/lastmile_qr_scan"}, "lat": 38.90374283333333, "lon": -77.02628683333333, "fusion_lat": 0.0}, {"is_reserved": 0, "bike_id": "b06873002df1d42b7ef938cfba3439a6", "type": "electric_scooter", "name": "b06873002df1d42b7ef938cfba3439a6", "is_disabled": 0, "fusion_lon": 0.0, "rental_uris": {"android": "https://dc.lft.to/lastmile_qr_scan", "ios": "https://dc.lft.to/lastmile_qr_scan"}, "lat": 38.95186966666667, "lon": -77.02643783333333, "fusion_lat": 0.0}, {"is_reserved": 0, "bike_id": "c03a0bd0db6805a4e9caed2224cc376c", "type": "electric_bike", "name": "c03a0bd0db6805a4e9caed2224cc376c", "is_disabled": 0, "fusion_lon": 0.0, "rental_uris": {"android": "https://dc.lft.to/lastmile_qr_scan", "ios": "https://dc.lft.to/lastmile_qr_scan"}, "lat": 38.81942866666667, "lon": -77.002082, "fusion_lat": 0.0}, {"is_reserved": 0, "bike_id": "18fea40de0b9e44ccaf662166d7427df", "type": "electric_scooter", "name": "18fea40de0b9e44ccaf662166d7427df", "is_disabled": 0, "fusion_lon": 0.0, "rental_uris": {"android": "https://dc.lft.to/lastmile_qr_scan", "ios": "https://dc.lft.to/lastmile_qr_scan"}, "lat": 38.895346333333336, "lon": -77.02891866666667, "fusion_lat": 0.0}, {"is_reserved": 0, "bike_id": "1734f44bcf6c44a9bc284a1f656016ae", "type": "electric_bike", "name": "1734f44bcf6c44a9bc284a1f656016ae", "is_disabled": 0, "fusion_lon": 0.0, "rental_uris": {"android": "https://dc.lft.to/lastmile_qr_scan", "ios": "https://dc.lft.to/lastmile_qr_scan"}, "lat": 38.92538616666667, "lon": -77.00119833333333, "fusion_lat": 0.0}, {"is_reserved": 0, "bike_id": "d7b4351145636f10f4fa30998d3bdca0", "type": "electric_scooter", "name": "d7b4351145636f10f4fa30998d3bdca0", "is_disabled": 0, "fusion_lon": 0.0, "rental_uris": {"android": "https://dc.lft.to/lastmile_qr_scan", "ios": "https://dc.lft.to/lastmile_qr_scan"}, "lat": 38.925519666666666, "lon": -77.02286716666667, "fusion_lat": 0.0}, {"is_reserved": 0, "bike_id": "b6f1ac0dc8bb317aadc1269e92ae241f", "type": "electric_bike", "name": "b6f1ac0dc8bb317aadc1269e92ae241f", "is_disabled": 0, "fusion_lon": 0.0, "rental_uris": {"android": "https://dc.lft.to/lastmile_qr_scan", "ios": "https://dc.lft.to/lastmile_qr_scan"}, "lat": 38.944766666666666, "lon": -76.9868685, "fusion_lat": 0.0}, {"is_reserved": 0, "bike_id": "99c8238d39aa1ec6237aa3932640ece2", "type": "electric_bike", "name": "99c8238d39aa1ec6237aa3932640ece2", "is_disabled": 0, "fusion_lon": 0.0, "rental_uris": {"android": "https://dc.lft.to/lastmile_qr_scan", "ios": "https://dc.lft.to/lastmile_qr_scan"}, "lat": 39.022989, "lon": -77.02105833333333, "fusion_lat": 0.0}, {"is_reserved": 0, "bike_id": "3d22b5bd01b36402eb13fb21143a3fd1", "type": "electric_scooter", "name": "3d22b5bd01b36402eb13fb21143a3fd1", "is_disabled": 0, "fusion_lon": 0.0, "rental_uris": {"android": "https://dc.lft.to/lastmile_qr_scan", "ios": "https://dc.lft.to/lastmile_qr_scan"}, "lat": 38.9157395, "lon": -77.019948, "fusion_lat": 0.0}, {"is_reserved": 0, "bike_id": "5f887ba3be9efb275c2107b517ea19df", "type": "electric_bike", "name": "5f887ba3be9efb275c2107b517ea19df", "is_disabled": 0, "fusion_lon": 0.0, "rental_uris": {"android": "https://dc.lft.to/lastmile_qr_scan", "ios": "https://dc.lft.to/lastmile_qr_scan"}, "lat": 38.918656, "lon": -76.96090633333333, "fusion_lat": 0.0}, {"is_reserved": 0, "bike_id": "5fb9d747345e00c63b2c0ea2e5c311e7", "type": "electric_scooter", "name": "5fb9d747345e00c63b2c0ea2e5c311e7", "is_disabled": 0, "fusion_lon": 0.0, "rental_uris": {"android": "https://dc.lft.to/lastmile_qr_scan", "ios": "https://dc.lft.to/lastmile_qr_scan"}, "lat": 38.93069883333333, "lon": -77.02333666666667, "fusion_lat": 0.0}, {"is_reserved": 0, "bike_id": "e1b0030f981f5e78ba28c9abb2ae5006", "type": "electric_scooter", "name": "e1b0030f981f5e78ba28c9abb2ae5006", "is_disabled": 0, "fusion_lon": 0.0, "rental_uris": {"android": "https://dc.lft.to/lastmile_qr_scan", "ios": "https://dc.lft.to/lastmile_qr_scan"}, "lat": 38.930998333333335, "lon": -77.024743, "fusion_lat": 0.0}, {"is_reserved": 0, "bike_id": "1a6350748ba863b2ae9e02576cb55e87", "type": "electric_scooter", "name": "1a6350748ba863b2ae9e02576cb55e87", "is_disabled": 0, "fusion_lon": 0.0, "rental_uris": {"android": "https://dc.lft.to/lastmile_qr_scan", "ios": "https://dc.lft.to/lastmile_qr_scan"}, "lat": 38.91418216666667, "lon": -77.0217885, "fusion_lat": 0.0}, {"is_reserved": 0, "bike_id": "4097675f654695259d0e2bbce6e212d0", "type": "electric_scooter", "name": "4097675f654695259d0e2bbce6e212d0", "is_disabled": 0, "fusion_lon": 0.0, "rental_uris": {"android": "https://dc.lft.to/lastmile_qr_scan", "ios": "https://dc.lft.to/lastmile_qr_scan"}, "lat": 38.901253, "lon": -77.00323616666667, "fusion_lat": 0.0}, {"is_reserved": 0, "bike_id": "e6da46ac1bffddb4a99ace32e12c79ff", "type": "electric_scooter", "name": "e6da46ac1bffddb4a99ace32e12c79ff", "is_disabled": 0, "fusion_lon": 0.0, "rental_uris": {"android": "https://dc.lft.to/lastmile_qr_scan", "ios": "https://dc.lft.to/lastmile_qr_scan"}, "lat": 38.94362433333333, "lon": -77.06111083333333, "fusion_lat": 0.0}, {"is_reserved": 0, "bike_id": "ca381276bb49eb6e71d9ec79cdf69862", "type": "electric_scooter", "name": "ca381276bb49eb6e71d9ec79cdf69862", "is_disabled": 0, "fusion_lon": 0.0, "rental_uris": {"android": "https://dc.lft.to/lastmile_qr_scan", "ios": "https://dc.lft.to/lastmile_qr_scan"}, "lat": 38.91871183333333, "lon": -77.03222516666666, "fusion_lat": 0.0}, {"is_reserved": 0, "bike_id": "dfa897b70f2df1ba680136eafcc6d614", "type": "electric_scooter", "name": "dfa897b70f2df1ba680136eafcc6d614", "is_disabled": 0, "fusion_lon": 0.0, "rental_uris": {"android": "https://dc.lft.to/lastmile_qr_scan", "ios": "https://dc.lft.to/lastmile_qr_scan"}, "lat": 38.89875883333333, "lon": -77.04878733333334, "fusion_lat": 0.0}, {"is_reserved": 0, "bike_id": "db6fb783f137577db308f7af37802514", "type": "electric_scooter", "name": "db6fb783f137577db308f7af37802514", "is_disabled": 0, "fusion_lon": 0.0, "rental_uris": {"android": "https://dc.lft.to/lastmile_qr_scan", "ios": "https://dc.lft.to/lastmile_qr_scan"}, "lat": 38.895661833333335, "lon": -77.01507833333334, "fusion_lat": 0.0}, {"is_reserved": 0, "bike_id": "05a91d5867a194f2e28b1f7df5b51cb8", "type": "electric_scooter", "name": "05a91d5867a194f2e28b1f7df5b51cb8", "is_disabled": 0, "fusion_lon": 0.0, "rental_uris": {"android": "https://dc.lft.to/lastmile_qr_scan", "ios": "https://dc.lft.to/lastmile_qr_scan"}, "lat": 38.898944666666665, "lon": -77.00899816666667, "fusion_lat": 0.0}, {"is_reserved": 0, "bike_id": "c3b81321bcc7fdd77e061657c8ce9e7c", "type": "electric_scooter", "name": "c3b81321bcc7fdd77e061657c8ce9e7c", "is_disabled": 0, "fusion_lon": 0.0, "rental_uris": {"android": "https://dc.lft.to/lastmile_qr_scan", "ios": "https://dc.lft.to/lastmile_qr_scan"}, "lat": 38.952740666666664, "lon": -77.02382116666666, "fusion_lat": 0.0},