{"data": {"bikes": [{"rental_uris": {"ios": "https://dc.lft.to/lastmile_qr_scan", "android": "https://dc.lft.to/lastmile_qr_scan"}, "lat": 38.93225983333333, "bike_id": "6859ce8ad0f1e47e4fcedcfe79530757", "lon": -77.18119333333334, "type": "electric_bike", "fusion_lon": 0.0, "fusion_lat": 0.0, "is_reserved": 0, "name": "6859ce8ad0f1e47e4fcedcfe79530757", "is_disabled": 0}, {"rental_uris": {"ios": "https://dc.lft.to/lastmile_qr_scan", "android": "https://dc.lft.to/lastmile_qr_scan"}, "lat": 38.881263833333335, "bike_id": "cc18258bd10065402b6f63710304575b", "lon": -77.01649683333333, "type": "electric_scooter", "fusion_lon": 0.0, "fusion_lat": 0.0, "is_reserved": 0, "name": "cc18258bd10065402b6f63710304575b", "is_disabled": 0}, {"rental_uris": {"ios": "https://dc.lft.to/lastmile_qr_scan", "android": "https://dc.lft.to/lastmile_qr_scan"}, "lat": 38.90042666666667, "bike_id": "f0464aa4ca3f315284672f34f6242494", "lon": -77.04332933333333, "type": "electric_scooter", "fusion_lon": 0.0, "fusion_lat": 0.0, "is_reserved": 0, "name": "f0464aa4ca3f315284672f34f6242494", "is_disabled": 0}, {"rental_uris": {"ios": "https://dc.lft.to/lastmile_qr_scan", "android": "https://dc.lft.to/lastmile_qr_scan"}, "lat": 38.92470216666667, "bike_id": "9ae7afa79f8f0c6694f14b12e87a02df", "lon": -77.02117733333333, "type": "electric_scooter", "fusion_lon": 0.0, "fusion_lat": 0.0, "is_reserved": 0, "name": "9ae7afa79f8f0c6694f14b12e87a02df", "is_disabled": 0}, {"rental_uris": {"ios": "https://dc.lft.to/lastmile_qr_scan", "android": "https://dc.lft.to/lastmile_qr_scan"}, "lat": 38.892209, "bike_id": "ebb90fb9e3400fa578f521820084e300", "lon": -77.01487216666666, "type": "electric_scooter", "fusion_lon": 0.0, "fusion_lat": 0.0, "is_reserved": 0, "name": "ebb90fb9e3400fa578f521820084e300", "is_disabled": 0}, {"rental_uris": {"ios": "https://dc.lft.to/lastmile_qr_scan", "android": "https://dc.lft.to/lastmile_qr_scan"}, "lat": 38.90679216666667, "bike_id": "57515f01f0af27eb47e023ea9c8bf35a", "lon": -76.97996, "type": "electric_scooter", "fusion_lon": 0.0, "fusion_lat": 0.0, "is_reserved": 0, "name": "57515f01f0af27eb47e023ea9c8bf35a", "is_disabled": 0}, {"rental_uris": {"ios": "https://dc.lft.to/lastmile_qr_scan", "android": "https://dc.lft.to/lastmile_qr_scan"}, "lat": 38.90512283333333, "bike_id": "83814efe9416824d7b2d455c6e4fcb14", "lon": -77.00127483333333, "type": "electric_scooter", "fusion_lon": 0.0, "fusion_lat": 0.0, "is_reserved": 0, "name": "83814efe9416824d7b2d455c6e4fcb14", "is_disabled": 0}, {"rental_uris": {"ios": "https://dc.lft.to/lastmile_qr_scan", "android": "https://dc.lft.to/lastmile_qr_scan"}, "lat": 38.929074166666666, "bike_id": "8b914464dc50177aa7eed2b2c55a33ee", "lon": -77.0236275, "type": "electric_scooter", "fusion_lon": 0.0, "fusion_lat": 0.0, "is_reserved": 0, "name": "8b914464dc50177aa7eed2b2c55a33ee", "is_disabled": 0}, {"rental_uris": {"ios": "https://dc.lft.to/lastmile_qr_scan", "android": "https://dc.lft.to/lastmile_qr_scan"}, "lat": 38.89991283333333, "bike_id": "b3d73f1f2273358d640a6531d509120d", "lon": -76.98547733333334, "type": "electric_scooter", "fusion_lon": 0.0, "fusion_lat": 0.0, "is_reserved": 0, "name": "b3d73f1f2273358d640a6531d509120d", "is_disabled": 0}, {"rental_uris": {"ios": "https://dc.lft.to/lastmile_qr_scan", "android": "https://dc.lft.to/lastmile_qr_scan"}, "lat": 38.91038233333333, "bike_id": "03b8dcfdd9a35669c8ad5d825b6b323a", "lon": -77.033081, "type": "electric_scooter", "fusion_lon": 0.0, "fusion_lat": 0.0, "is_reserved": 0, "name": "03b8dcfdd9a35669c8ad5d825b6b323a", "is_disabled": 0}, {"rental_uris": {"ios": "https://dc.lft.to/lastmile_qr_scan", "android": "https://dc.lft.to/lastmile_qr_scan"}, "lat": 38.885286666666666, "bike_id": "45727a339b37efdf237399989a1f49ba", "lon": -76.95622566666667, "type": "electric_bike", "fusion_lon": 0.0, "fusion_lat": 0.0, "is_reserved": 0, "name": "45727a339b37efdf237399989a1f49ba", "is_disabled": 0}, {"rental_uris": {"ios": "https://dc.lft.to/lastmile_qr_scan", "android": "https://dc.lft.to/lastmile_qr_scan"}, "lat": 38.89616733333333, "bike_id": "cad8cf9dcb88fda9bd930d6cea2e8dfd", "lon": -77.04498216666667, "type": "electric_scooter", "fusion_lon": 0.0, "fusion_lat": 0.0, "is_reserved": 0, "name": "cad8cf9dcb88fda9bd930d6cea2e8dfd", "is_disabled": 0}, {"rental_uris": {"ios": "https://dc.lft.to/lastmile_qr_scan", "android": "https://dc.lft.to/lastmile_qr_scan"}, "lat": 38.89401266666667, "bike_id": "7a3a7810799f3a5704a09da9857f488b", "lon": -77.044164, "type": "electric_scooter", "fusion_lon": 0.0, "fusion_lat": 0.0, "is_reserved": 0, "name": "7a3a7810799f3a5704a09da9857f488b", "is_disabled": 0}, {"rental_uris": {"ios": "https://dc.lft.to/lastmile_qr_scan", "android": "https://dc.lft.to/lastmile_qr_scan"}, "lat": 38.89220316666667, "bike_id": "0b8ac4190be9d3fb3218338250e20b10", "lon": -77.01385566666667, "type": "electric_scooter", "fusion_lon": 0.0, "fusion_lat": 0.0, "is_reserved": 0, "name": "0b8ac4190be9d3fb3218338250e20b10", "is_disabled": 0}, {"rental_uris": {"ios": "https://dc.lft.to/lastmile_qr_scan", "android": "https://dc.lft.to/lastmile_qr_scan"}, "lat": 38.93858616666667, "bike_id": "001c40f3182089dbd04d4cfb5a5a02b2", "lon": -77.0246835, "type": "electric_scooter", "fusion_lon": 0.0, "fusion_lat": 0.0, "is_reserved": 0, "name": "001c40f3182089dbd04d4cfb5a5a02b2", "is_disabled": 0}, {"rental_uris": {"ios": "https://dc.lft.to/lastmile_qr_scan", "android": "https://dc.lft.to/lastmile_qr_scan"}, "lat": 38.905832333333336, "bike_id": "709c49e9f0574388523b1541f1458c85", "lon": -77.02391283333333, "type": "electric_scooter", "fusion_lon": 0.0, "fusion_lat": 0.0, "is_reserved": 0, "name": "709c49e9f0574388523b1541f1458c85", "is_disabled": 0}, {"rental_uris": {"ios": "https://dc.lft.to/lastmile_qr_scan", "android": "https://dc.lft.to/lastmile_qr_scan"}, "lat": 38.91626083333333, "bike_id": "1c6b44425ea068f002677a996bd9bf7c", "lon": -77.04147666666667, "type": "electric_scooter", "fusion_lon": 0.0, "fusion_lat": 0.0, "is_reserved": 0, "name": "1c6b44425ea068f002677a996bd9bf7c", "is_disabled": 0}, {"rental_uris": {"ios": "https://dc.lft.to/lastmile_qr_scan", "android": "https://dc.lft.to/lastmile_qr_scan"}, "lat": 38.87373433333333, "bike_id": "be5d47df0e729c956dff41e578571f60", "lon": -77.001125, "type": "electric_scooter", "fusion_lon": 0.0, "fusion_lat": 0.0, "is_reserved": 0, "name": "be5d47df0e729c956dff41e578571f60", "is_disabled": 0}, {"rental_uris": {"ios": "https://dc.lft.to/lastmile_qr_scan", "android": "https://dc.lft.to/lastmile_qr_scan"}, "lat": 38.973688333333335, "bike_id": "f9bcbd2dac6d14aedd077bc5890f218d", "lon": -77.01851216666667, "type": "electric_scooter", "fusion_lon": 0.0, "fusion_lat": 0.0, "is_reserved": 0, "name": "f9bcbd2dac6d14aedd077bc5890f218d", "is_disabled": 0}, {"rental_uris": {"ios": "https://dc.lft.to/lastmile_qr_scan", "android": "https://dc.lft.to/lastmile_qr_scan"}, "lat": 38.91697633333333, "bike_id": "0f73ba216a6dc6ce184961378bf432e4", "lon": -77.01194333333333, "type": "electric_scooter", "fusion_lon": 0.0, "fusion_lat": 0.0, "is_reserved": 0, "name": "0f73ba216a6dc6ce184961378bf432e4", "is_disabled": 0}, {"rental_uris": {"ios": "https://dc.lft.to/lastmile_qr_scan", "android": "https://dc.lft.to/lastmile_qr_scan"}, "lat": 38.920461833333334, "bike_id": "32dca0f6ce766123dc1352ca7e7aa082", "lon": -77.033546, "type": "electric_scooter", "fusion_lon": 0.0, "fusion_lat": 0.0, "is_reserved": 0, "name": "32dca0f6ce766123dc1352ca7e7aa082", "is_disabled": 0}, {"rental_uris": {"ios": "https://dc.lft.to/lastmile_qr_scan", "android": "https://dc.lft.to/lastmile_qr_scan"}, "lat": 38.89923233333333, "bike_id": "8d475613ed6c2ccbe3e551b93521168b", "lon": -77.02780616666666, "type": "electric_scooter", "fusion_lon": 0.0, "fusion_lat": 0.0, "is_reserved": 0, "name": "8d475613ed6c2ccbe3e551b93521168b", "is_disabled": 0}, {"rental_uris": {"ios": "https://dc.lft.to/lastmile_qr_scan", "android": "https://dc.lft.to/lastmile_qr_scan"}, "lat": 38.89542266666667, "bike_id": "0c516f631d4757d3409279edd583e3fd", "lon": -76.98247283333333, "type": "electric_scooter", "fusion_lon": 0.0, "fusion_lat": 0.0, "is_reserved": 0, "name": "0c516f631d4757d3409279edd583e3fd", "is_disabled": 0}, {"rental_uris": {"ios": "https://dc.lft.to/lastmile_qr_scan", "android": "https://dc.lft.to/lastmile_qr_scan"}, "lat": 38.9022995, "bike_id": "3dcd6785403bcc290399589b06067125", "lon": -77.029433, "type": "electric_scooter", "fusion_lon": 0.0, "fusion_lat": 0.0, "is_reserved": 0, "name": "3dcd6785403bcc290399589b06067125", "is_disabled": 0}, {"rental_uris": {"ios": "https://dc.lft.to/lastmile_qr_scan", "android": "https://dc.lft.to/lastmile_qr_scan"}, "lat": 38.90077266666667, "bike_id": "8323ec4627e286517ee57dc93ef39755", "lon": -77.02711633333334, "type": "electric_scooter", "fusion_lon": 0.0, "fusion_lat": 0.0, "is_reserved": 0, "name": "8323ec4627e286517ee57dc93ef39755", "is_disabled": 0}, {"rental_uris": {"ios": "https://dc.lft.to/lastmile_qr_scan", "android": "https://dc.lft.to/lastmile_qr_scan"}, "lat": 38.90487066666667, "bike_id": "d30380e3df0169f89b969d433208a989", "lon": -77.0259865, "type": "electric_scooter", "fusion_lon": 0.0, "fusion_lat": 0.0, "is_reserved": 0, "name": "d30380e3df0169f89b969d433208a989", "is_disabled": 0}, {"rental_uris": {"ios": "https://dc.lft.to/lastmile_qr_scan", "android": "https://dc.lft.to/lastmile_qr_scan"}, "lat": 38.92027816666667, "bike_id": "cdaa0f2adc0199b6ce9d1ad744c52c9e", "lon": -77.01028666666667, "type": "electric_scooter", "fusion_lon": 0.0, "fusion_lat": 0.0, "is_reserved": 0, "name": "cdaa0f2adc0199b6ce9d1ad744c52c9e", "is_disabled": 0}, {"rental_uris": {"ios": "https://dc.lft.to/lastmile_qr_scan", "android": "https://dc.lft.to/lastmile_qr_scan"}, "lat": 38.9170695, "bike_id": "96ab11c7823cb1c123cf29b4d88a7f0c", "lon": -77.02453133333333, "type": "electric_scooter", "fusion_lon": 0.0, "fusion_lat": 0.0, "is_reserved": 0, "name": "96ab11c7823cb1c123cf29b4d88a7f0c", "is_disabled": 0}, {"rental_uris": {"ios": "https://dc.lft.to/lastmile_qr_scan", "android": "https://dc.lft.to/lastmile_qr_scan"}, "lat": 38.923641, "bike_id": "7e12115c366c75854f8e1b6c22c431dc", "lon": -77.01948183333333, "type": "electric_scooter", "fusion_lon": 0.0, "fusion_lat": 0.0, "is_reserved": 0, "name": "7e12115c366c75854f8e1b6c22c431dc", "is_disabled": 0}, {"rental_uris": {"ios": "https://dc.lft.to/lastmile_qr_scan", "android": "https://dc.lft.to/lastmile_qr_scan"}, "lat": 38.91107783333333, "bike_id": "5230774da3f6419c0aa51fe1e3ba5d6d", "lon": -77.0222635, "type": "electric_scooter", "fusion_lon": 0.0, "fusion_lat": 0.0, "is_reserved": 0, "name": "5230774da3f6419c0aa51fe1e3ba5d6d", "is_disabled": 0}, {"rental_uris": {"ios": "https://dc.lft.to/lastmile_qr_scan", "android": "https://dc.lft.to/lastmile_qr_scan"}, "lat": 38.90330866666667, "bike_id": "db146ae5ec80aa85b062ddcf51ae1cbd", "lon": -77.02050933333334, "type": "electric_scooter", "fusion_lon": 0.0, "fusion_lat": 0.0, "is_reserved": 0, "name": "db146ae5ec80aa85b062ddcf51ae1cbd", "is_disabled": 0}, {"rental_uris": {"ios": "https://dc.lft.to/lastmile_qr_scan", "android": "https://dc.lft.to/lastmile_qr_scan"}, "lat": 38.9017095, "bike_id": "39c2543c9931fc0269d441554e07f258", "lon": -76.92656933333333, "type": "electric_scooter", "fusion_lon": 0.0, "fusion_lat": 0.0, "is_reserved": 0, "name": "39c2543c9931fc0269d441554e07f258", "is_disabled": 0}, {"rental_uris": {"ios": "https://dc.lft.to/lastmile_qr_scan", "android": "https://dc.lft.to/lastmile_qr_scan"}, "lat": 38.871901, "bike_id": "bea4f600657f5ad63c4bf112f24744b0", "lon": -77.00717133333333, "type": "electric_scooter", "fusion_lon": 0.0, "fusion_lat": 0.0, "is_reserved": 0, "name": "bea4f600657f5ad63c4bf112f24744b0", "is_disabled": 0}, {"rental_uris": {"ios": "https://dc.lft.to/lastmile_qr_scan", "android": "https://dc.lft.to/lastmile_qr_scan"}, "lat": 38.90597316666667, "bike_id": "fbf749decb6758aa3b1cf060d6eb65dd", "lon": -77.00571816666667, "type": "electric_scooter", "fusion_lon": 0.0, "fusion_lat": 0.0, "is_reserved": 0, "name": "fbf749decb6758aa3b1cf060d6eb65dd", "is_disabled": 0}, {"rental_uris": {"ios": "https://dc.lft.to/lastmile_qr_scan", "android": "https://dc.lft.to/lastmile_qr_scan"}, "lat": 38.900269, "bike_id": "9f35d217f338a91bc03e3af92c76a797", "lon": -77.04406583333333, "type": "electric_scooter", "fusion_lon": 0.0, "fusion_lat": 0.0, "is_reserved": 0, "name": "9f35d217f338a91bc03e3af92c76a797", "is_disabled": 0}, {"rental_uris": {"ios": "https://dc.lft.to/lastmile_qr_scan", "android": "https://dc.lft.to/lastmile_qr_scan"}, "lat": 38.91840166666667, "bike_id": "7f40d2c333bb1bc22426843953c8c6e9", "lon": -77.04175783333334, "type": "electric_scooter", "fusion_lon": 0.0, "fusion_lat": 0.0, "is_reserved": 0, "name": "7f40d2c333bb1bc22426843953c8c6e9", "is_disabled": 0}, {"rental_uris": {"ios": "https://dc.lft.to/lastmile_qr_scan", "android": "https://dc.lft.to/lastmile_qr_scan"}, "lat": 38.914702, "bike_id": "b381eb5ee78bdcc6238dfc67a2f59f8c", "lon": -76.981112, "type": "electric_scooter", "fusion_lon": 0.0, "fusion_lat": 0.0, "is_reserved": 0, "name": "b381eb5ee78bdcc6238dfc67a2f59f8c", "is_disabled": 0}, {"rental_uris": {"ios": "https://dc.lft.to/lastmile_qr_scan", "android": "https://dc.lft.to/lastmile_qr_scan"}, "lat": 38.9191695, "bike_id": "84e579301a3ba1abdca0c7cc12af5ab9", "lon": -77.01347683333333, "type": "electric_scooter", "fusion_lon": 0.0, "fusion_lat": 0.0, "is_reserved": 0, "name": "84e579301a3ba1abdca0c7cc12af5ab9", "is_disabled": 0}, {"rental_uris": {"ios": "https://dc.lft.to/lastmile_qr_scan", "android": "https://dc.lft.to/lastmile_qr_scan"}, "lat": 38.916290833333335, "bike_id": "73c1b59f34e339d7409362f309c6fa01", "lon": -77.03205816666667, "type": "electric_scooter", "fusion_lon": 0.0, "fusion_lat": 0.0, "is_reserved": 0, "name": "73c1b59f34e339d7409362f309c6fa01", "is_disabled": 0}, {"rental_uris": {"ios": "https://dc.lft.to/lastmile_qr_scan", "android": "https://dc.lft.to/lastmile_qr_scan"}, "lat": 38.91718633333333, "bike_id": "49c1c5431754d9ba9819545004d1daf7", "lon": -77.02605716666666, "type": "electric_scooter", "fusion_lon": 0.0, "fusion_lat": 0.0, "is_reserved": 0, "name": "49c1c5431754d9ba9819545004d1daf7", "is_disabled": 0}, {"rental_uris": {"ios": "https://dc.lft.to/lastmile_qr_scan", "android": "https://dc.lft.to/lastmile_qr_scan"}, "lat": 38.9191705, "bike_id": "fb7963623ba3a617afe3effc4738c483", "lon": -77.03428966666667, "type": "electric_scooter", "fusion_lon": 0.0, "fusion_lat": 0.0, "is_reserved": 0, "name": "fb7963623ba3a617afe3effc4738c483", "is_disabled": 0}, {"rental_uris": {"ios": "https://dc.lft.to/lastmile_qr_scan", "android": "https://dc.lft.to/lastmile_qr_scan"}, "lat": 38.90824816666667, "bike_id": "c98bd6075ad6a344f9e68820b43a3cb4", "lon": -77.03539583333334, "type": "electric_scooter", "fusion_lon": 0.0, "fusion_lat": 0.0, "is_reserved": 0, "name": "c98bd6075ad6a344f9e68820b43a3cb4", "is_disabled": 0}, {"rental_uris": {"ios": "https://dc.lft.to/lastmile_qr_scan", "android": "https://dc.lft.to/lastmile_qr_scan"}, "lat": 38.910056833333336, "bike_id": "e82be979ae7f8a2f36d1a9b3361fe500", "lon": -76.99395033333333, "type": "electric_scooter", "fusion_lon": 0.0, "fusion_lat": 0.0, "is_reserved": 0, "name": "e82be979ae7f8a2f36d1a9b3361fe500", "is_disabled": 0}, {"rental_uris": {"ios": "https://dc.lft.to/lastmile_qr_scan", "android": "https://dc.lft.to/lastmile_qr_scan"}, "lat": 38.89192766666667, "bike_id": "dee44d34f916350d034bfa029ddb2b6d", "lon": -77.02243416666667, "type": "electric_scooter", "fusion_lon": 0.0, "fusion_lat": 0.0, "is_reserved": 0, "name": "dee44d34f916350d034bfa029ddb2b6d", "is_disabled": 0}, {"rental_uris": {"ios": "https://dc.lft.to/lastmile_qr_scan", "android": "https://dc.lft.to/lastmile_qr_scan"}, "lat": 38.8984105, "bike_id": "7a259aa495d6b523f2106b999692293b", "lon": -77.0219005, "type": "electric_scooter", "fusion_lon": 0.0, "fusion_lat": 0.0, "is_reserved": 0, "name": "7a259aa495d6b523f2106b999692293b", "is_disabled": 0}, {"rental_uris": {"ios": "https://dc.lft.to/lastmile_qr_scan", "android": "https://dc.lft.to/lastmile_qr_scan"}, "lat": 38.8964125, "bike_id": "fa57033d5c598b67264fd80d213dd74c", "lon": -77.0260665, "type": "electric_scooter", "fusion_lon": 0.0, "fusion_lat": 0.0, "is_reserved": 0, "name": "fa57033d5c598b67264fd80d213dd74c", "is_disabled": 0}, {"rental_uris": {"ios": "https://dc.lft.to/lastmile_qr_scan", "android": "https://dc.lft.to/lastmile_qr_scan"}, "lat": 38.90379333333333, "bike_id": "a622162f682b9f7d6b6129bf5fc33845", "lon": -77.04493233333334, "type": "electric_scooter", "fusion_lon": 0.0, "fusion_lat": 0.0, "is_reserved": 0, "name": "a622162f682b9f7d6b6129bf5fc33845", "is_disabled": 0}, {"rental_uris": {"ios": "https://dc.lft.to/lastmile_qr_scan", "android": "https://dc.lft.to/lastmile_qr_scan"}, "lat": 38.9217565, "bike_id": "606b9752155bafb1d99d22f4cf62ed1d", "lon": -77.020999, "type": "electric_scooter", "fusion_lon": 0.0, "fusion_lat": 0.0, "is_reserved": 0, "name": "606b9752155bafb1d99d22f4cf62ed1d", "is_disabled": 0}, {"rental_uris": {"ios": "https://dc.lft.to/lastmile_qr_scan", "android": "https://dc.lft.to/lastmile_qr_scan"}, "lat": 38.992125333333334, "bike_id": "c843ae98b34d8788f7837dae041b93eb", "lon": -76.94444816666666, "type": "electric_bike", "fusion_lon": 0.0, "fusion_lat": 0.0, "is_reserved": 0, "name": "c843ae98b34d8788f7837dae041b93eb", "is_disabled": 0}, {"rental_uris": {"ios": "https://dc.lft.to/lastmile_qr_scan", "android": "https://dc.lft.to/lastmile_qr_scan"}, "lat": 38.9187375, "bike_id": "ccb18b6570ff10ff78cae19c118167a2", "lon": -77.035014, "type": "electric_scooter", "fusion_lon": 0.0, "fusion_lat": 0.0, "is_reserved": 0, "name": "ccb18b6570ff10ff78cae19c118167a2", "is_disabled": 0}, {"rental_uris": {"ios": "https://dc.lft.to/lastmile_qr_scan", "android": "https://dc.lft.to/lastmile_qr_scan"}, "lat": 38.9018545, "bike_id": "b926f79adafbef14cdae93168b90b4a2", "lon": -77.046219, "type": "electric_scooter", "fusion_lon": 0.0, "fusion_lat": 0.0, "is_reserved": 0, "name": "b926f79adafbef14cdae93168b90b4a2", "is_disabled": 0}, {"rental_uris": {"ios": "https://dc.lft.to/lastmile_qr_scan", "android": "https://dc.lft.to/lastmile_qr_scan"}, "lat": 38.8981925, "bike_id": "3e0085c15b130dccad5c74a47fa69055", "lon": -77.03319966666666, "type": "electric_scooter", "fusion_lon": 0.0, "fusion_lat": 0.0, "is_reserved": 0, "name": "3e0085c15b130dccad5c74a47fa69055", "is_disabled": 0}, {"rental_uris": {"ios": "https://dc.lft.to/lastmile_qr_scan", "android": "https://dc.lft.to/lastmile_qr_scan"}, "lat": 38.8578625, "bike_id": "56ec7b4260f3b7e461ac0c036bc3076a", "lon": -77.12014916666666, "type": "electric_bike", "fusion_lon": 0.0, "fusion_lat": 0.0, "is_reserved": 0, "name": "56ec7b4260f3b7e461ac0c036bc3076a", "is_disabled": 0}, {"rental_uris": {"ios": "https://dc.lft.to/lastmile_qr_scan", "android": "https://dc.lft.to/lastmile_qr_scan"}, "lat": 38.855290333333336, "bike_id": "86b63ece023aed2ddfb87b0db751074d", "lon": -77.11405933333333, "type": "electric_bike", "fusion_lon": 0.0, "fusion_lat": 0.0, "is_reserved": 0, "name": "86b63ece023aed2ddfb87b0db751074d", "is_disabled": 0}, {"rental_uris": {"ios": "https://dc.lft.to/lastmile_qr_scan", "android": "https://dc.lft.to/lastmile_qr_scan"}, "lat": 38.9056685, "bike_id": "a8b058addf58c7892a1a0a0555c5e021", "lon": -77.04664366666667, "type": "electric_scooter", "fusion_lon": 0.0, "fusion_lat": 0.0, "is_reserved": 0, "name": "a8b058addf58c7892a1a0a0555c5e021", "is_disabled": 0}, {"rental_uris": {"ios": "https://dc.lft.to/lastmile_qr_scan", "android": "https://dc.lft.to/lastmile_qr_scan"}, "lat": 38.924474000000004, "bike_id": "fede65fe5c89adcbf21e0b63c46d920b", "lon": -77.0339645, "type": "electric_scooter", "fusion_lon": 0.0, "fusion_lat": 0.0, "is_reserved": 0, "name": "fede65fe5c89adcbf21e0b63c46d920b", "is_disabled": 0}, {"rental_uris": {"ios": "https://dc.lft.to/lastmile_qr_scan", "android": "https://dc.lft.to/lastmile_qr_scan"}, "lat": 38.901276333333335, "bike_id": "0af98ebfef223badcc95ad346edfcdd8", "lon": -77.03170883333334, "type": "electric_scooter", "fusion_lon": 0.0, "fusion_lat": 0.0, "is_reserved": 0, "name": "0af98ebfef223badcc95ad346edfcdd8", "is_disabled": 0}, {"rental_uris": {"ios": "https://dc.lft.to/lastmile_qr_scan", "android": "https://dc.lft.to/lastmile_qr_scan"}, "lat": 38.8851965, "bike_id": "922facdb335c5b006658d1542e66031c", "lon": -76.99609516666666, "type": "electric_scooter", "fusion_lon": 0.0, "fusion_lat": 0.0, "is_reserved": 0, "name": "922facdb335c5b006658d1542e66031c", "is_disabled": 0}, {"rental_uris": {"ios": "https://dc.lft.to/lastmile_qr_scan", "android": "https://dc.lft.to/lastmile_qr_scan"}, "lat": 38.9141, "bike_id": "d32bd17782cf453e402f901321520dec", "lon": -77.02009833333334, "type": "electric_scooter", "fusion_lon": 0.0, "fusion_lat": 0.0, "is_reserved": 0, "name": "d32bd17782cf453e402f901321520dec", "is_disabled": 0}, {"rental_uris": {"ios": "https://dc.lft.to/lastmile_qr_scan", "android": "https://dc.lft.to/lastmile_qr_scan"}, "lat": 38.92169283333333, "bike_id": "430f336612ba9c873d4e3fabb1728141", "lon": -77.03515366666667, "type": "electric_scooter", "fusion_lon": 0.0, "fusion_lat": 0.0, "is_reserved": 0, "name": "430f336612ba9c873d4e3fabb1728141", "is_disabled": 0}, {"rental_uris": {"ios": "https://dc.lft.to/lastmile_qr_scan", "android": "https://dc.lft.to/lastmile_qr_scan"}, "lat": 38.841482166666665, "bike_id": "01192a9a0d5f9768d2cdb8d771ac9812", "lon": -77.11464433333333, "type": "electric_bike", "fusion_lon": 0.0, "fusion_lat": 0.0, "is_reserved": 0, "name": "01192a9a0d5f9768d2cdb8d771ac9812", "is_disabled": 0}, {"rental_uris": {"ios": "https://dc.lft.to/lastmile_qr_scan", "android": "https://dc.lft.to/lastmile_qr_scan"}, "lat": 38.9064235, "bike_id": "ff0eab1e7739365a23386f7959506144", "lon": -77.03864283333333, "type": "electric_scooter", "fusion_lon": 0.0, "fusion_lat": 0.0, "is_reserved": 0, "name": "ff0eab1e7739365a23386f7959506144", "is_disabled": 0}, {"rental_uris": {"ios": "https://dc.lft.to/lastmile_qr_scan", "android": "https://dc.lft.to/lastmile_qr_scan"}, "lat": 38.922521833333334, "bike_id": "03d07be761185693c40e74cdfc93b58d", "lon": -77.019503, "type": "electric_scooter", "fusion_lon": 0.0, "fusion_lat": 0.0, "is_reserved": 0, "name": "03d07be761185693c40e74cdfc93b58d", "is_disabled": 0}, {"rental_uris": {"ios": "https://dc.lft.to/lastmile_qr_scan", "android": "https://dc.lft.to/lastmile_qr_scan"}, "lat": 38.908069833333336, "bike_id": "723cb360b8ffef0373a97e5cac67394e", "lon": -77.036361, "type": "electric_scooter", "fusion_lon": 0.0, "fusion_lat": 0.0, "is_reserved": 0, "name": "723cb360b8ffef0373a97e5cac67394e", "is_disabled": 0}, {"rental_uris": {"ios": "https://dc.lft.to/lastmile_qr_scan", "android": "https://dc.lft.to/lastmile_qr_scan"}, "lat": 38.910522666666665, "bike_id": "29b4131a17fa5bb698aa38d6ca95a3df", "lon": -77.041091, "type": "electric_scooter", "fusion_lon": 0.0, "fusion_lat": 0.0, "is_reserved": 0, "name": "29b4131a17fa5bb698aa38d6ca95a3df", "is_disabled": 0}, {"rental_uris": {"ios": "https://dc.lft.to/lastmile_qr_scan", "android": "https://dc.lft.to/lastmile_qr_scan"}, "lat": 38.94124733333334, "bike_id": "626a9d6523c809fd30f57fc328323854", "lon": -77.01542233333333, "type": "electric_scooter", "fusion_lon": 0.0, "fusion_lat": 0.0, "is_reserved": 0, "name": "626a9d6523c809fd30f57fc328323854", "is_disabled": 0}, {"rental_uris": {"ios": "https://dc.lft.to/lastmile_qr_scan", "android": "https://dc.lft.to/lastmile_qr_scan"}, "lat": 38.898190666666665, "bike_id": "6d4f3ee11165e5616801348657c8de83", "lon": -77.03322016666667, "type": "electric_scooter", "fusion_lon": 0.0, "fusion_lat": 0.0, "is_reserved": 0, "name": "6d4f3ee11165e5616801348657c8de83", "is_disabled": 0}, {"rental_uris": {"ios": "https://dc.lft.to/lastmile_qr_scan", "android": "https://dc.lft.to/lastmile_qr_scan"}, "lat": 38.8696445, "bike_id": "52fad2ff20add82bfda530e3bb475cc9", "lon": -76.98171766666667, "type": "electric_scooter", "fusion_lon": 0.0, "fusion_lat": 0.0, "is_reserved": 0, "name": "52fad2ff20add82bfda530e3bb475cc9", "is_disabled": 0}, {"rental_uris": {"ios": "https://dc.lft.to/lastmile_qr_scan", "android": "https://dc.lft.to/lastmile_qr_scan"}, "lat": 38.916965833333336, "bike_id": "433a3a300213136370b5f0b5856b52e5", "lon": -77.031062, "type": "electric_scooter", "fusion_lon": 0.0, "fusion_lat": 0.0, "is_reserved": 0, "name": "433a3a300213136370b5f0b5856b52e5", "is_disabled": 0}, {"rental_uris": {"ios": "https://dc.lft.to/lastmile_qr_scan", "android": "https://dc.lft.to/lastmile_qr_scan"}, "lat": 38.92626533333333, "bike_id": "78e3d7ff73b5b49d173b2147bb04d1eb", "lon": -77.0392295, "type": "electric_scooter", "fusion_lon": 0.0, "fusion_lat": 0.0, "is_reserved": 0, "name": "78e3d7ff73b5b49d173b2147bb04d1eb", "is_disabled": 0}, {"rental_uris": {"ios": "https://dc.lft.to/lastmile_qr_scan", "android": "https://dc.lft.to/lastmile_qr_scan"}, "lat": 38.909650166666665, "bike_id": "8de7be58e2589b8cf81f6be4374e475f", "lon": -77.04811983333333, "type": "electric_scooter", "fusion_lon": 0.0, "fusion_lat": 0.0, "is_reserved": 0, "name": "8de7be58e2589b8cf81f6be4374e475f", "is_disabled": 0}, {"rental_uris": {"ios": "https://dc.lft.to/lastmile_qr_scan", "android": "https://dc.lft.to/lastmile_qr_scan"}, "lat": 38.905520833333334, "bike_id": "ebb159af6746ab6157656a60a8cdcd08", "lon": -77.04948533333334, "type": "electric_scooter", "fusion_lon": 0.0, "fusion_lat": 0.0, "is_reserved": 0, "name": "ebb159af6746ab6157656a60a8cdcd08", "is_disabled": 0}, {"rental_uris": {"ios": "https://dc.lft.to/lastmile_qr_scan", "android": "https://dc.lft.to/lastmile_qr_scan"}, "lat": 38.898480166666666, "bike_id": "26bd30967fb66fe7a2162c8601edf61e", "lon": -76.97832116666666, "type": "electric_scooter", "fusion_lon": 0.0, "fusion_lat": 0.0, "is_reserved": 0, "name": "26bd30967fb66fe7a2162c8601edf61e", "is_disabled": 0}, {"rental_uris": {"ios": "https://dc.lft.to/lastmile_qr_scan", "android": "https://dc.lft.to/lastmile_qr_scan"}, "lat": 38.90962283333333, "bike_id": "ba22cfbc98a6a1cd7e18c7fa767149c2", "lon": -77.22882, "type": "electric_bike", "fusion_lon": 0.0, "fusion_lat": 0.0, "is_reserved": 0, "name": "ba22cfbc98a6a1cd7e18c7fa767149c2", "is_disabled": 0}, {"rental_uris": {"ios": "https://dc.lft.to/lastmile_qr_scan", "android": "https://dc.lft.to/lastmile_qr_scan"}, "lat": 38.896383166666666, "bike_id": "b077519fe36dc35fafddf2fccb60f1ba", "lon": -77.0115045, "type": "electric_scooter", "fusion_lon": 0.0, "fusion_lat": 0.0, "is_reserved": 0, "name": "b077519fe36dc35fafddf2fccb60f1ba", "is_disabled": 0}, {"rental_uris": {"ios": "https://dc.lft.to/lastmile_qr_scan", "android": "https://dc.lft.to/lastmile_qr_scan"}, "lat": 38.902618833333335, "bike_id": "e38074846c97fa0ebd66c9c9ab93da44", "lon": -77.01752783333333, "type": "electric_scooter", "fusion_lon": 0.0, "fusion_lat": 0.0, "is_reserved": 0, "name": "e38074846c97fa0ebd66c9c9ab93da44", "is_disabled": 0}, {"rental_uris": {"ios": "https://dc.lft.to/lastmile_qr_scan", "android": "https://dc.lft.to/lastmile_qr_scan"}, "lat": 38.905158666666665, "bike_id": "ecb0e41805d1d133d67c0176820afb6f", "lon": -77.05059266666666, "type": "electric_scooter", "fusion_lon": 0.0, "fusion_lat": 0.0, "is_reserved": 0, "name": "ecb0e41805d1d133d67c0176820afb6f", "is_disabled": 0}, {"rental_uris": {"ios": "https://dc.lft.to/lastmile_qr_scan", "android": "https://dc.lft.to/lastmile_qr_scan"}, "lat": 38.884900333333334, "bike_id": "729afcead894170b2f4a631713c7fbc8", "lon": -77.00709416666666, "type": "electric_scooter", "fusion_lon": 0.0, "fusion_lat": 0.0, "is_reserved": 0, "name": "729afcead894170b2f4a631713c7fbc8", "is_disabled": 0}, {"rental_uris": {"ios": "https://dc.lft.to/lastmile_qr_scan", "android": "https://dc.lft.to/lastmile_qr_scan"}, "lat": 38.914171333333336, "bike_id": "40baf894f896e089b9c910f1f32a8dbc", "lon": -77.04281366666666, "type": "electric_scooter", "fusion_lon": 0.0, "fusion_lat": 0.0, "is_reserved": 0, "name": "40baf894f896e089b9c910f1f32a8dbc", "is_disabled": 0}, {"rental_uris": {"ios": "https://dc.lft.to/lastmile_qr_scan", "android": "https://dc.lft.to/lastmile_qr_scan"}, "lat": 38.898549833333334, "bike_id": "ebb22a1e413934b002e426d64c9169f6", "lon": -77.03929633333334, "type": "electric_scooter", "fusion_lon": 0.0, "fusion_lat": 0.0, "is_reserved": 0, "name": "ebb22a1e413934b002e426d64c9169f6", "is_disabled": 0}, {"rental_uris": {"ios": "https://dc.lft.to/lastmile_qr_scan", "android": "https://dc.lft.to/lastmile_qr_scan"}, "lat": 38.8665845, "bike_id": "b13bea8995b1c0fd655b22eab0aea9aa", "lon": -76.98880866666667, "type": "electric_scooter", "fusion_lon": 0.0, "fusion_lat": 0.0, "is_reserved": 0, "name": "b13bea8995b1c0fd655b22eab0aea9aa", "is_disabled": 0}, {"rental_uris": {"ios": "https://dc.lft.to/lastmile_qr_scan", "android": "https://dc.lft.to/lastmile_qr_scan"}, "lat": 38.902675, "bike_id": "069d400cad964a9b9c1f66b0ad1aeb68", "lon": -77.02819916666667, "type": "electric_scooter", "fusion_lon": 0.0, "fusion_lat": 0.0, "is_reserved": 0, "name": "069d400cad964a9b9c1f66b0ad1aeb68", "is_disabled": 0}, {"rental_uris": {"ios": "https://dc.lft.to/lastmile_qr_scan", "android": "https://dc.lft.to/lastmile_qr_scan"}, "lat": 38.974992666666665, "bike_id": "65828cc354d1ef2a074c1d925f31eec7", "lon": -77.01691783333334, "type": "electric_scooter", "fusion_lon": 0.0, "fusion_lat": 0.0, "is_reserved": 0, "name": "65828cc354d1ef2a074c1d925f31eec7", "is_disabled": 0}, {"rental_uris": {"ios": "https://dc.lft.to/lastmile_qr_scan", "android": "https://dc.lft.to/lastmile_qr_scan"}, "lat": 38.89353766666667, "bike_id": "92d6355ee438d9729b6cba9d54515929", "lon": -77.02858966666666, "type": "electric_scooter", "fusion_lon": 0.0, "fusion_lat": 0.0, "is_reserved": 0, "name": "92d6355ee438d9729b6cba9d54515929", "is_disabled": 0}, {"rental_uris": {"ios": "https://dc.lft.to/lastmile_qr_scan", "android": "https://dc.lft.to/lastmile_qr_scan"}, "lat": 38.8984065, "bike_id": "6c0e36dcfff8bb074e6910d60aa2fb88", "lon": -77.02635616666667, "type": "electric_scooter", "fusion_lon": 0.0, "fusion_lat": 0.0, "is_reserved": 0, "name": "6c0e36dcfff8bb074e6910d60aa2fb88", "is_disabled": 0}, {"rental_uris": {"ios": "https://dc.lft.to/lastmile_qr_scan", "android": "https://dc.lft.to/lastmile_qr_scan"}, "lat": 39.054986, "bike_id": "456c750f9eccdf04965490b0591a590d", "lon": -77.11784583333333, "type": "electric_bike", "fusion_lon": 0.0, "fusion_lat": 0.0, "is_reserved": 0, "name": "456c750f9eccdf04965490b0591a590d", "is_disabled": 0}, {"rental_uris": {"ios": "https://dc.lft.to/lastmile_qr_scan", "android": "https://dc.lft.to/lastmile_qr_scan"}, "lat": 38.871792, "bike_id": "98b8e39890c1d2be7cff9374316cedb0", "lon": -77.00608216666667, "type": "electric_scooter", "fusion_lon": 0.0, "fusion_lat": 0.0, "is_reserved": 0, "name": "98b8e39890c1d2be7cff9374316cedb0", "is_disabled": 0}, {"rental_uris": {"ios": "https://dc.lft.to/lastmile_qr_scan", "android": "https://dc.lft.to/lastmile_qr_scan"}, "lat": 38.916927333333334, "bike_id": "65e57e9d8d1a6fcbbf6470b171a65923", "lon": -77.0349185, "type": "electric_scooter", "fusion_lon": 0.0, "fusion_lat": 0.0, "is_reserved": 0, "name": "65e57e9d8d1a6fcbbf6470b171a65923", "is_disabled": 0}, {"rental_uris": {"ios": "https://dc.lft.to/lastmile_qr_scan", "android": "https://dc.lft.to/lastmile_qr_scan"}, "lat": 39.024358, "bike_id": "ba1b4d39ac2589886cc45fa5604e8651", "lon": -77.131003, "type": "electric_bike", "fusion_lon": 0.0, "fusion_lat": 0.0, "is_reserved": 0, "name": "ba1b4d39ac2589886cc45fa5604e8651", "is_disabled": 0}, {"rental_uris": {"ios": "https://dc.lft.to/lastmile_qr_scan", "android": "https://dc.lft.to/lastmile_qr_scan"}, "lat": 38.896000666666666, "bike_id": "f6305961b108e43d9395ce0b64db63c1", "lon": -77.0445105, "type": "electric_scooter", "fusion_lon": 0.0, "fusion_lat": 0.0, "is_reserved": 0, "name": "f6305961b108e43d9395ce0b64db63c1", "is_disabled": 0}, {"rental_uris": {"ios": "https://dc.lft.to/lastmile_qr_scan", "android": "https://dc.lft.to/lastmile_qr_scan"}, "lat": 38.93148216666667, "bike_id": "efe0a40c0cb4a05becc44db6f43db903", "lon": -77.03830833333333, "type": "electric_scooter", "fusion_lon": 0.0, "fusion_lat": 0.0, "is_reserved": 0, "name": "efe0a40c0cb4a05becc44db6f43db903", "is_disabled": 0}, {"rental_uris": {"ios": "https://dc.lft.to/lastmile_qr_scan", "android": "https://dc.lft.to/lastmile_qr_scan"}, "lat": 38.89994333333333, "bike_id": "eb37f45c6e497e937572737d5be10eb4", "lon": -77.04576, "type": "electric_scooter", "fusion_lon": 0.0, "fusion_lat": 0.0, "is_reserved": 0, "name": "eb37f45c6e497e937572737d5be10eb4", "is_disabled": 0}, {"rental_uris": {"ios": "https://dc.lft.to/lastmile_qr_scan", "android": "https://dc.lft.to/lastmile_qr_scan"}, "lat": 38.919084166666664, "bike_id": "c233034eec61c4b097d94f38ef6ef377", "lon": -77.01262616666666, "type": "electric_scooter", "fusion_lon": 0.0, "fusion_lat": 0.0, "is_reserved": 0, "name": "c233034eec61c4b097d94f38ef6ef377", "is_disabled": 0}, {"rental_uris": {"ios": "https://dc.lft.to/lastmile_qr_scan", "android": "https://dc.lft.to/lastmile_qr_scan"}, "lat": 38.91995333333333, "bike_id": "6d65725486550f9867c1ad3d78d353f1", "lon": -77.0378915, "type": "electric_scooter", "fusion_lon": 0.0, "fusion_lat": 0.0, "is_reserved": 0, "name": "6d65725486550f9867c1ad3d78d353f1", "is_disabled": 0}, {"rental_uris": {"ios": "https://dc.lft.to/lastmile_qr_scan", "android": "https://dc.lft.to/lastmile_qr_scan"}, "lat": 38.91616033333333, "bike_id": "a9ce72a02b0367281b195502c118ac67", "lon": -77.04163866666667, "type": "electric_scooter", "fusion_lon": 0.0, "fusion_lat": 0.0, "is_reserved": 0, "name": "a9ce72a02b0367281b195502c118ac67", "is_disabled": 0}, {"rental_uris": {"ios": "https://dc.lft.to/lastmile_qr_scan", "android": "https://dc.lft.to/lastmile_qr_scan"}, "lat": 38.914892333333334, "bike_id": "b4237c872ca0f86ebf5a56f8e51d29d2", "lon": -77.02587266666667, "type": "electric_scooter", "fusion_lon": 0.0, "fusion_lat": 0.0, "is_reserved": 0, "name": "b4237c872ca0f86ebf5a56f8e51d29d2", "is_disabled": 0}, {"rental_uris": {"ios": "https://dc.lft.to/lastmile_qr_scan", "android": "https://dc.lft.to/lastmile_qr_scan"}, "lat": 38.884713166666664, "bike_id": "2da5951b25dc5c05afc96843b3aa72ad", "lon": -76.956642, "type": "electric_bike", "fusion_lon": 0.0, "fusion_lat": 0.0, "is_reserved": 0, "name": "2da5951b25dc5c05afc96843b3aa72ad", "is_disabled": 0}, {"rental_uris": {"ios": "https://dc.lft.to/lastmile_qr_scan", "android": "https://dc.lft.to/lastmile_qr_scan"}, "lat": 39.03432033333333, "bike_id": "1b6cfa4892fe40628c13ecf2ce3c59b0", "lon": -77.04303, "type": "electric_bike", "fusion_lon": 0.0, "fusion_lat": 0.0, "is_reserved": 0, "name": "1b6cfa4892fe40628c13ecf2ce3c59b0", "is_disabled": 0}, {"rental_uris": {"ios": "https://dc.lft.to/lastmile_qr_scan", "android": "https://dc.lft.to/lastmile_qr_scan"}, "lat": 38.87755466666667, "bike_id": "e9353c10a508289fb3de1d372966526f", "lon": -76.98679566666667, "type": "electric_scooter", "fusion_lon": 0.0, "fusion_lat": 0.0, "is_reserved": 0, "name": "e9353c10a508289fb3de1d372966526f", "is_disabled": 0}, {"rental_uris": {"ios": "https://dc.lft.to/lastmile_qr_scan", "android": "https://dc.lft.to/lastmile_qr_scan"}, "lat": 38.876858, "bike_id": "4b8383aad8c9101b908113665fbe85ea", "lon": -77.000574, "type": "electric_scooter", "fusion_lon": 0.0, "fusion_lat": 0.0, "is_reserved": 0, "name": "4b8383aad8c9101b908113665fbe85ea", "is_disabled": 0}, {"rental_uris": {"ios": "https://dc.lft.to/lastmile_qr_scan", "android": "https://dc.lft.to/lastmile_qr_scan"}, "lat": 38.90229083333333, "bike_id": "ae60c23f043a5a6200d50ccd361777dc", "lon": -77.03810766666666, "type": "electric_scooter", "fusion_lon": 0.0, "fusion_lat": 0.0, "is_reserved": 0, "name": "ae60c23f043a5a6200d50ccd361777dc", "is_disabled": 0}, {"rental_uris": {"ios": "https://dc.lft.to/lastmile_qr_scan", "android": "https://dc.lft.to/lastmile_qr_scan"}, "lat": 38.928657, "bike_id": "8b630e075fbe4a8b6a35ac95c0f4a847", "lon": -77.0276865, "type": "electric_scooter", "fusion_lon": 0.0, "fusion_lat": 0.0, "is_reserved": 0, "name": "8b630e075fbe4a8b6a35ac95c0f4a847", "is_disabled": 0}, {"rental_uris": {"ios": "https://dc.lft.to/lastmile_qr_scan", "android": "https://dc.lft.to/lastmile_qr_scan"}, "lat": 38.88441266666667, "bike_id": "01eabc781112eea2d77feb96797f8b6f", "lon": -76.99618516666666, "type": "electric_scooter", "fusion_lon": 0.0, "fusion_lat": 0.0, "is_reserved": 0, "name": "01eabc781112eea2d77feb96797f8b6f", "is_disabled": 0}, {"rental_uris": {"ios": "https://dc.lft.to/lastmile_qr_scan", "android": "https://dc.lft.to/lastmile_qr_scan"}, "lat": 38.9273985, "bike_id": "9b67060fa1b11983450e8ded31ede7fe", "lon": -77.022947, "type": "electric_scooter", "fusion_lon": 0.0, "fusion_lat": 0.0, "is_reserved": 0, "name": "9b67060fa1b11983450e8ded31ede7fe", "is_disabled": 0}, {"rental_uris": {"ios": "https://dc.lft.to/lastmile_qr_scan", "android": "https://dc.lft.to/lastmile_qr_scan"}, "lat": 38.895716, "bike_id": "86ba8137bf2b0a99627771ab642ab223", "lon": -76.93025783333333, "type": "electric_scooter", "fusion_lon": 0.0, "fusion_lat": 0.0, "is_reserved": 0, "name": "86ba8137bf2b0a99627771ab642ab223", "is_disabled": 0}, {"rental_uris": {"ios": "https://dc.lft.to/lastmile_qr_scan", "android": "https://dc.lft.to/lastmile_qr_scan"}, "lat": 38.92318133333333, "bike_id": "ac81b4627094c3ce87c5f1f5598f3965", "lon": -77.04619316666667, "type": "electric_scooter", "fusion_lon": 0.0, "fusion_lat": 0.0, "is_reserved": 0, "name": "ac81b4627094c3ce87c5f1f5598f3965", "is_disabled": 0}, {"rental_uris": {"ios": "https://dc.lft.to/lastmile_qr_scan", "android": "https://dc.lft.to/lastmile_qr_scan"}, "lat": 38.8974095, "bike_id": "7ed2b84a7a3a611cf64f28f355cfd97f", "lon": -77.02965133333333, "type": "electric_scooter", "fusion_lon": 0.0, "fusion_lat": 0.0, "is_reserved": 0, "name": "7ed2b84a7a3a611cf64f28f355cfd97f", "is_disabled": 0}, {"rental_uris": {"ios": "https://dc.lft.to/lastmile_qr_scan", "android": "https://dc.lft.to/lastmile_qr_scan"}, "lat": 38.905682, "bike_id": "31c8aa5f1617fe97c67d9b44ff06afe9", "lon": -76.97781383333333, "type": "electric_scooter", "fusion_lon": 0.0, "fusion_lat": 0.0, "is_reserved": 0, "name": "31c8aa5f1617fe97c67d9b44ff06afe9", "is_disabled": 0}, {"rental_uris": {"ios": "https://dc.lft.to/lastmile_qr_scan", "android": "https://dc.lft.to/lastmile_qr_scan"}, "lat": 38.92374933333333, "bike_id": "3f1484603f0149f3d1a9805746345710", "lon": -77.05149, "type": "electric_scooter", "fusion_lon": 0.0, "fusion_lat": 0.0, "is_reserved": 0, "name": "3f1484603f0149f3d1a9805746345710", "is_disabled": 0}, {"rental_uris": {"ios": "https://dc.lft.to/lastmile_qr_scan", "android": "https://dc.lft.to/lastmile_qr_scan"}, "lat": 38.83242116666667, "bike_id": "862e16bab9166372461893c7b507bff0", "lon": -76.94625683333334, "type": "electric_bike", "fusion_lon": 0.0, "fusion_lat": 0.0, "is_reserved": 0, "name": "862e16bab9166372461893c7b507bff0", "is_disabled": 0}, {"rental_uris": {"ios": "https://dc.lft.to/lastmile_qr_scan", "android": "https://dc.lft.to/lastmile_qr_scan"}, "lat": 38.910470333333336, "bike_id": "68e6b05df7b4d9ca68f36cdce2b2f68f", "lon": -77.0434255, "type": "electric_scooter", "fusion_lon": 0.0, "fusion_lat": 0.0, "is_reserved": 0, "name": "68e6b05df7b4d9ca68f36cdce2b2f68f", "is_disabled": 0}, {"rental_uris": {"ios": "https://dc.lft.to/lastmile_qr_scan", "android": "https://dc.lft.to/lastmile_qr_scan"}, "lat": 38.902322, "bike_id": "b60f43ce0e1f459462996ae2763f3e1d", "lon": -77.04617166666667, "type": "electric_scooter", "fusion_lon": 0.0, "fusion_lat": 0.0, "is_reserved": 0, "name": "b60f43ce0e1f459462996ae2763f3e1d", "is_disabled": 0}, {"rental_uris": {"ios": "https://dc.lft.to/lastmile_qr_scan", "android": "https://dc.lft.to/lastmile_qr_scan"}, "lat": 38.921624666666666, "bike_id": "af551ed29ede354d813923189cd79564", "lon": -77.03377233333333, "type": "electric_scooter", "fusion_lon": 0.0, "fusion_lat": 0.0, "is_reserved": 0, "name": "af551ed29ede354d813923189cd79564", "is_disabled": 0}, {"rental_uris": {"ios": "https://dc.lft.to/lastmile_qr_scan", "android": "https://dc.lft.to/lastmile_qr_scan"}, "lat": 38.916730333333334, "bike_id": "a34fbb8dca84d9fdffa613f73c1deed0", "lon": -77.0238485, "type": "electric_scooter", "fusion_lon": 0.0, "fusion_lat": 0.0, "is_reserved": 0, "name": "a34fbb8dca84d9fdffa613f73c1deed0", "is_disabled": 0}, {"rental_uris": {"ios": "https://dc.lft.to/lastmile_qr_scan", "android": "https://dc.lft.to/lastmile_qr_scan"}, "lat": 38.89982233333333, "bike_id": "c7fec1e10598223bf791011e84c4d600", "lon": -77.05571616666667, "type": "electric_scooter", "fusion_lon": 0.0, "fusion_lat": 0.0, "is_reserved": 0, "name": "c7fec1e10598223bf791011e84c4d600", "is_disabled": 0}, {"rental_uris": {"ios": "https://dc.lft.to/lastmile_qr_scan", "android": "https://dc.lft.to/lastmile_qr_scan"}, "lat": 38.909469, "bike_id": "113b66805882d7fa5aece6823a4d0747", "lon": -77.0343355, "type": "electric_scooter", "fusion_lon": 0.0, "fusion_lat": 0.0, "is_reserved": 0, "name": "113b66805882d7fa5aece6823a4d0747", "is_disabled": 0}, {"rental_uris": {"ios": "https://dc.lft.to/lastmile_qr_scan", "android": "https://dc.lft.to/lastmile_qr_scan"}, "lat": 38.93969466666667, "bike_id": "44ca58fe727d3786b09bfdad5ccc708d", "lon": -77.02449516666667, "type": "electric_scooter", "fusion_lon": 0.0, "fusion_lat": 0.0, "is_reserved": 0, "name": "44ca58fe727d3786b09bfdad5ccc708d", "is_disabled": 0}, {"rental_uris": {"ios": "https://dc.lft.to/lastmile_qr_scan", "android": "https://dc.lft.to/lastmile_qr_scan"}, "lat": 38.9191725, "bike_id": "062313f2a4d668a38aa69c5417abe664", "lon": -77.03376516666667, "type": "electric_scooter", "fusion_lon": 0.0, "fusion_lat": 0.0, "is_reserved": 0, "name": "062313f2a4d668a38aa69c5417abe664", "is_disabled": 0}, {"rental_uris": {"ios": "https://dc.lft.to/lastmile_qr_scan", "android": "https://dc.lft.to/lastmile_qr_scan"}, "lat": 38.909833666666664, "bike_id": "5469984b0fea999d2c86182fde0240a6", "lon": -77.03460883333334, "type": "electric_scooter", "fusion_lon": 0.0, "fusion_lat": 0.0, "is_reserved": 0, "name": "5469984b0fea999d2c86182fde0240a6", "is_disabled": 0}, {"rental_uris": {"ios": "https://dc.lft.to/lastmile_qr_scan", "android": "https://dc.lft.to/lastmile_qr_scan"}, "lat": 38.85756083333333, "bike_id": "3aefbb3fc135e1c121a7f691b446e37b", "lon": -76.992956, "type": "electric_scooter", "fusion_lon": 0.0, "fusion_lat": 0.0, "is_reserved": 0, "name": "3aefbb3fc135e1c121a7f691b446e37b", "is_disabled": 0}, {"rental_uris": {"ios": "https://dc.lft.to/lastmile_qr_scan", "android": "https://dc.lft.to/lastmile_qr_scan"}, "lat": 38.9079805, "bike_id": "97cdcc143295edc12ce564cdc36c371a", "lon": -77.04351516666667, "type": "electric_scooter", "fusion_lon": 0.0, "fusion_lat": 0.0, "is_reserved": 0, "name": "97cdcc143295edc12ce564cdc36c371a", "is_disabled": 0}, {"rental_uris": {"ios": "https://dc.lft.to/lastmile_qr_scan", "android": "https://dc.lft.to/lastmile_qr_scan"}, "lat": 38.90556016666667, "bike_id": "2407c80aaf4385ac56efbdece669dcc2", "lon": -77.04291766666667, "type": "electric_scooter", "fusion_lon": 0.0, "fusion_lat": 0.0, "is_reserved": 0, "name": "2407c80aaf4385ac56efbdece669dcc2", "is_disabled": 0}, {"rental_uris": {"ios": "https://dc.lft.to/lastmile_qr_scan", "android": "https://dc.lft.to/lastmile_qr_scan"}, "lat": 38.92493266666666, "bike_id": "d6e3604354e883ee785759a49e44d024", "lon": -77.04131266666667, "type": "electric_scooter", "fusion_lon": 0.0, "fusion_lat": 0.0, "is_reserved": 0, "name": "d6e3604354e883ee785759a49e44d024", "is_disabled": 0}, {"rental_uris": {"ios": "https://dc.lft.to/lastmile_qr_scan", "android": "https://dc.lft.to/lastmile_qr_scan"}, "lat": 38.914097, "bike_id": "536f532f346d2e1ef5cb8ef936b9af35", "lon": -77.04497316666667, "type": "electric_scooter", "fusion_lon": 0.0, "fusion_lat": 0.0, "is_reserved": 0, "name": "536f532f346d2e1ef5cb8ef936b9af35", "is_disabled": 0}, {"rental_uris": {"ios": "https://dc.lft.to/lastmile_qr_scan", "android": "https://dc.lft.to/lastmile_qr_scan"}, "lat": 38.89492933333333, "bike_id": "a087bffe83b79a3d1729801786d53d38", "lon": -77.022944, "type": "electric_scooter", "fusion_lon": 0.0, "fusion_lat": 0.0, "is_reserved": 0, "name": "a087bffe83b79a3d1729801786d53d38", "is_disabled": 0}, {"rental_uris": {"ios": "https://dc.lft.to/lastmile_qr_scan", "android": "https://dc.lft.to/lastmile_qr_scan"}, "lat": 38.9203365, "bike_id": "8714ffcbe14ac0ed25804b429302fedd", "lon": -77.04184266666667, "type": "electric_scooter", "fusion_lon": 0.0, "fusion_lat": 0.0, "is_reserved": 0, "name": "8714ffcbe14ac0ed25804b429302fedd", "is_disabled": 0}, {"rental_uris": {"ios": "https://dc.lft.to/lastmile_qr_scan", "android": "https://dc.lft.to/lastmile_qr_scan"}, "lat": 38.984675333333335, "bike_id": "39539f429f7cd8ae3422b54846cc3b0d", "lon": -77.02638116666667, "type": "electric_scooter", "fusion_lon": 0.0, "fusion_lat": 0.0, "is_reserved": 0, "name": "39539f429f7cd8ae3422b54846cc3b0d", "is_disabled": 0}, {"rental_uris": {"ios": "https://dc.lft.to/lastmile_qr_scan", "android": "https://dc.lft.to/lastmile_qr_scan"}, "lat": 38.900223, "bike_id": "5cb613a5a96d7b7f1f8a2e1391de18b7", "lon": -77.04412983333333, "type": "electric_scooter", "fusion_lon": 0.0, "fusion_lat": 0.0, "is_reserved": 0, "name": "5cb613a5a96d7b7f1f8a2e1391de18b7", "is_disabled": 0}, {"rental_uris": {"ios": "https://dc.lft.to/lastmile_qr_scan", "android": "https://dc.lft.to/lastmile_qr_scan"}, "lat": 38.906063833333334, "bike_id": "35fb257f96e8b6814d83cd8ac29355cd", "lon": -77.043365, "type": "electric_scooter", "fusion_lon": 0.0, "fusion_lat": 0.0, "is_reserved": 0, "name": "35fb257f96e8b6814d83cd8ac29355cd", "is_disabled": 0}, {"rental_uris": {"ios": "https://dc.lft.to/lastmile_qr_scan", "android": "https://dc.lft.to/lastmile_qr_scan"}, "lat": 38.89614233333333, "bike_id": "b37841d77dbb578369839542640a0aec", "lon": -77.02626416666666, "type": "electric_scooter", "fusion_lon": 0.0, "fusion_lat": 0.0, "is_reserved": 0, "name": "b37841d77dbb578369839542640a0aec", "is_disabled": 0}, {"rental_uris": {"ios": "https://dc.lft.to/lastmile_qr_scan", "android": "https://dc.lft.to/lastmile_qr_scan"}, "lat": 38.9402035, "bike_id": "0685d8e3282f536f14c7b2df07829d5a", "lon": -76.99215833333334, "type": "electric_bike", "fusion_lon": 0.0, "fusion_lat": 0.0, "is_reserved": 0, "name": "0685d8e3282f536f14c7b2df07829d5a", "is_disabled": 0}, {"rental_uris": {"ios": "https://dc.lft.to/lastmile_qr_scan", "android": "https://dc.lft.to/lastmile_qr_scan"}, "lat": 38.9250685, "bike_id": "74c4c4e7cc39aa4fe9ac791ee1cabd8f", "lon": -77.052275, "type": "electric_scooter", "fusion_lon": 0.0, "fusion_lat": 0.0, "is_reserved": 0, "name": "74c4c4e7cc39aa4fe9ac791ee1cabd8f", "is_disabled": 0}, {"rental_uris": {"ios": "https://dc.lft.to/lastmile_qr_scan", "android": "https://dc.lft.to/lastmile_qr_scan"}, "lat": 38.92626683333334, "bike_id": "4715739e6a517e2b2612090871167f9e", "lon": -77.04219533333334, "type": "electric_scooter", "fusion_lon": 0.0, "fusion_lat": 0.0, "is_reserved": 0, "name": "4715739e6a517e2b2612090871167f9e", "is_disabled": 0}, {"rental_uris": {"ios": "https://dc.lft.to/lastmile_qr_scan", "android": "https://dc.lft.to/lastmile_qr_scan"}, "lat": 38.902017, "bike_id": "3a1a3a6097d5f2c56a50613549f7b62e", "lon": -76.98201, "type": "electric_scooter", "fusion_lon": 0.0, "fusion_lat": 0.0, "is_reserved": 0, "name": "3a1a3a6097d5f2c56a50613549f7b62e", "is_disabled": 0}, {"rental_uris": {"ios": "https://dc.lft.to/lastmile_qr_scan", "android": "https://dc.lft.to/lastmile_qr_scan"}, "lat": 38.89543533333333, "bike_id": "07a11f90c12aa48d610d31be7070beab", "lon": -77.0293455, "type": "electric_scooter", "fusion_lon": 0.0, "fusion_lat": 0.0, "is_reserved": 0, "name": "07a11f90c12aa48d610d31be7070beab", "is_disabled": 0}, {"rental_uris": {"ios": "https://dc.lft.to/lastmile_qr_scan", "android": "https://dc.lft.to/lastmile_qr_scan"}, "lat": 38.89517633333333, "bike_id": "f8246f42dcdd664531cd881b8c2855f1", "lon": -77.003352, "type": "electric_scooter", "fusion_lon": 0.0, "fusion_lat": 0.0, "is_reserved": 0, "name": "f8246f42dcdd664531cd881b8c2855f1", "is_disabled": 0}, {"rental_uris": {"ios": "https://dc.lft.to/lastmile_qr_scan", "android": "https://dc.lft.to/lastmile_qr_scan"}, "lat": 38.91323716666667, "bike_id": "2f4039b80229c88e72c963137df4c5ba", "lon": -77.031808, "type": "electric_scooter", "fusion_lon": 0.0, "fusion_lat": 0.0, "is_reserved": 0, "name": "2f4039b80229c88e72c963137df4c5ba", "is_disabled": 0}, {"rental_uris": {"ios": "https://dc.lft.to/lastmile_qr_scan", "android": "https://dc.lft.to/lastmile_qr_scan"}, "lat": 38.903937, "bike_id": "73c54b902e713c66b02911fcddc35609", "lon": -77.0336415, "type": "electric_scooter", "fusion_lon": 0.0, "fusion_lat": 0.0, "is_reserved": 0, "name": "73c54b902e713c66b02911fcddc35609", "is_disabled": 0}, {"rental_uris": {"ios": "https://dc.lft.to/lastmile_qr_scan", "android": "https://dc.lft.to/lastmile_qr_scan"}, "lat": 38.928502333333334, "bike_id": "823ddc5834568b225dbb50b6c15f41df", "lon": -77.05425333333334, "type": "electric_scooter", "fusion_lon": 0.0, "fusion_lat": 0.0, "is_reserved": 0, "name": "823ddc5834568b225dbb50b6c15f41df", "is_disabled": 0}, {"rental_uris": {"ios": "https://dc.lft.to/lastmile_qr_scan", "android": "https://dc.lft.to/lastmile_qr_scan"}, "lat": 38.950682666666665, "bike_id": "b0ed7fd4fa2b22797ad4b0954faaa4b4", "lon": -77.02957183333334, "type": "electric_scooter", "fusion_lon": 0.0, "fusion_lat": 0.0, "is_reserved": 0, "name": "b0ed7fd4fa2b22797ad4b0954faaa4b4", "is_disabled": 0}, {"rental_uris": {"ios": "https://dc.lft.to/lastmile_qr_scan", "android": "https://dc.lft.to/lastmile_qr_scan"}, "lat": 38.885012833333334, "bike_id": "651406b7dc96bde3dbe034e2f5b570d6", "lon": -77.00889316666667, "type": "electric_scooter", "fusion_lon": 0.0, "fusion_lat": 0.0, "is_reserved": 0, "name": "651406b7dc96bde3dbe034e2f5b570d6", "is_disabled": 0}, {"rental_uris": {"ios": "https://dc.lft.to/lastmile_qr_scan", "android": "https://dc.lft.to/lastmile_qr_scan"}, "lat": 38.898415166666666, "bike_id": "2634f60854bae6ff1ad92e5ea30fbd95", "lon": -77.044356, "type": "electric_scooter", "fusion_lon": 0.0, "fusion_lat": 0.0, "is_reserved": 0, "name": "2634f60854bae6ff1ad92e5ea30fbd95", "is_disabled": 0}, {"rental_uris": {"ios": "https://dc.lft.to/lastmile_qr_scan", "android": "https://dc.lft.to/lastmile_qr_scan"}, "lat": 38.9009095, "bike_id": "6b8ca12bd56aaf3a4c3b709e61892355", "lon": -77.043663, "type": "electric_scooter", "fusion_lon": 0.0, "fusion_lat": 0.0, "is_reserved": 0, "name": "6b8ca12bd56aaf3a4c3b709e61892355", "is_disabled": 0}, {"rental_uris": {"ios": "https://dc.lft.to/lastmile_qr_scan", "android": "https://dc.lft.to/lastmile_qr_scan"}, "lat": 38.902649333333336, "bike_id": "6a1e1f1e90412cba2ea69254b3e3abbd", "lon": -77.02993333333333, "type": "electric_scooter", "fusion_lon": 0.0, "fusion_lat": 0.0, "is_reserved": 0, "name": "6a1e1f1e90412cba2ea69254b3e3abbd", "is_disabled": 0}, {"rental_uris": {"ios": "https://dc.lft.to/lastmile_qr_scan", "android": "https://dc.lft.to/lastmile_qr_scan"}, "lat": 38.931740833333336, "bike_id": "bdfb827d16ab5289653b687c6ad0789e", "lon": -77.056193, "type": "electric_scooter", "fusion_lon": 0.0, "fusion_lat": 0.0, "is_reserved": 0, "name": "bdfb827d16ab5289653b687c6ad0789e", "is_disabled": 0}, {"rental_uris": {"ios": "https://dc.lft.to/lastmile_qr_scan", "android": "https://dc.lft.to/lastmile_qr_scan"}, "lat": 38.944124, "bike_id": "532dab2654bcc66cf21217882c26bd82", "lon": -77.06396533333333, "type": "electric_scooter", "fusion_lon": 0.0, "fusion_lat": 0.0, "is_reserved": 0, "name": "532dab2654bcc66cf21217882c26bd82", "is_disabled": 0}, {"rental_uris": {"ios": "https://dc.lft.to/lastmile_qr_scan", "android": "https://dc.lft.to/lastmile_qr_scan"}, "lat": 38.8949715, "bike_id": "223fc1eff52cb0a36c85a465721eac0f", "lon": -77.02284733333333, "type": "electric_scooter", "fusion_lon": 0.0, "fusion_lat": 0.0, "is_reserved": 0, "name": "223fc1eff52cb0a36c85a465721eac0f", "is_disabled": 0}, {"rental_uris": {"ios": "https://dc.lft.to/lastmile_qr_scan", "android": "https://dc.lft.to/lastmile_qr_scan"}, "lat": 38.898863166666665, "bike_id": "323d38030fd9af1845fbe9fbc7ce40eb", "lon": -77.03320766666667, "type": "electric_scooter", "fusion_lon": 0.0, "fusion_lat": 0.0, "is_reserved": 0, "name": "323d38030fd9af1845fbe9fbc7ce40eb", "is_disabled": 0}, {"rental_uris": {"ios": "https://dc.lft.to/lastmile_qr_scan", "android": "https://dc.lft.to/lastmile_qr_scan"}, "lat": 38.9089615, "bike_id": "d1109413d78ea378c8cd41ec24b6a92d", "lon": -77.02799433333334, "type": "electric_scooter", "fusion_lon": 0.0, "fusion_lat": 0.0, "is_reserved": 0, "name": "d1109413d78ea378c8cd41ec24b6a92d", "is_disabled": 0}, {"rental_uris": {"ios": "https://dc.lft.to/lastmile_qr_scan", "android": "https://dc.lft.to/lastmile_qr_scan"}, "lat": 38.93116083333334, "bike_id": "19528856a1227f6c6f9541563e68e285", "lon": -77.03279733333333, "type": "electric_scooter", "fusion_lon": 0.0, "fusion_lat": 0.0, "is_reserved": 0, "name": "19528856a1227f6c6f9541563e68e285", "is_disabled": 0}, {"rental_uris": {"ios": "https://dc.lft.to/lastmile_qr_scan", "android": "https://dc.lft.to/lastmile_qr_scan"}, "lat": 38.911217, "bike_id": "8e38fc67849d7a43eec4c51b6d03c716", "lon": -77.03148416666667, "type": "electric_scooter", "fusion_lon": 0.0, "fusion_lat": 0.0, "is_reserved": 0, "name": "8e38fc67849d7a43eec4c51b6d03c716", "is_disabled": 0}, {"rental_uris": {"ios": "https://dc.lft.to/lastmile_qr_scan", "android": "https://dc.lft.to/lastmile_qr_scan"}, "lat": 38.910274, "bike_id": "2833e2f2beeaf63eb68845066931b5d5", "lon": -76.99716, "type": "electric_scooter", "fusion_lon": 0.0, "fusion_lat": 0.0, "is_reserved": 0, "name": "2833e2f2beeaf63eb68845066931b5d5", "is_disabled": 0}, {"rental_uris": {"ios": "https://dc.lft.to/lastmile_qr_scan", "android": "https://dc.lft.to/lastmile_qr_scan"}, "lat": 38.897389833333335, "bike_id": "4192c5316720f23044165becd9de241d", "lon": -77.019582, "type": "electric_scooter", "fusion_lon": 0.0, "fusion_lat": 0.0, "is_reserved": 0, "name": "4192c5316720f23044165becd9de241d", "is_disabled": 0}, {"rental_uris": {"ios": "https://dc.lft.to/lastmile_qr_scan", "android": "https://dc.lft.to/lastmile_qr_scan"}, "lat": 38.91188283333334, "bike_id": "187624780c153d5f7901cdadc73bf2eb", "lon": -77.04490466666667, "type": "electric_scooter", "fusion_lon": 0.0, "fusion_lat": 0.0, "is_reserved": 0, "name": "187624780c153d5f7901cdadc73bf2eb", "is_disabled": 0}, {"rental_uris": {"ios": "https://dc.lft.to/lastmile_qr_scan", "android": "https://dc.lft.to/lastmile_qr_scan"}, "lat": 38.9204775, "bike_id": "b7bb7a55b309677909a0ff797e9bb739", "lon": -77.04231116666666, "type": "electric_scooter", "fusion_lon": 0.0, "fusion_lat": 0.0, "is_reserved": 0, "name": "b7bb7a55b309677909a0ff797e9bb739", "is_disabled": 0}, {"rental_uris": {"ios": "https://dc.lft.to/lastmile_qr_scan", "android": "https://dc.lft.to/lastmile_qr_scan"}, "lat": 38.92476166666667, "bike_id": "acb712a24554e5900efcf3f52a12a485", "lon": -77.022194, "type": "electric_scooter", "fusion_lon": 0.0, "fusion_lat": 0.0, "is_reserved": 0, "name": "acb712a24554e5900efcf3f52a12a485", "is_disabled": 0}, {"rental_uris": {"ios": "https://dc.lft.to/lastmile_qr_scan", "android": "https://dc.lft.to/lastmile_qr_scan"}, "lat": 38.91400816666667, "bike_id": "49769fc143cc1bec865c17b7ec337c5b", "lon": -77.02405183333333, "type": "electric_scooter", "fusion_lon": 0.0, "fusion_lat": 0.0, "is_reserved": 0, "name": "49769fc143cc1bec865c17b7ec337c5b", "is_disabled": 0}, {"rental_uris": {"ios": "https://dc.lft.to/lastmile_qr_scan", "android": "https://dc.lft.to/lastmile_qr_scan"}, "lat": 38.925234, "bike_id": "9c382455ab3fff6e775ef3757dfcb9e7", "lon": -77.07715666666667, "type": "electric_scooter", "fusion_lon": 0.0, "fusion_lat": 0.0, "is_reserved": 0, "name": "9c382455ab3fff6e775ef3757dfcb9e7", "is_disabled": 0}, {"rental_uris": {"ios": "https://dc.lft.to/lastmile_qr_scan", "android": "https://dc.lft.to/lastmile_qr_scan"}, "lat": 38.91501983333333, "bike_id": "d7febda95058b7ca240d759afcdf5470", "lon": -77.04489883333333, "type": "electric_scooter", "fusion_lon": 0.0, "fusion_lat": 0.0, "is_reserved": 0, "name": "d7febda95058b7ca240d759afcdf5470", "is_disabled": 0}, {"rental_uris": {"ios": "https://dc.lft.to/lastmile_qr_scan", "android": "https://dc.lft.to/lastmile_qr_scan"}, "lat": 38.904396166666665, "bike_id": "737f5e8ede3db65be78076e16411a248", "lon": -77.03438066666666, "type": "electric_scooter", "fusion_lon": 0.0, "fusion_lat": 0.0, "is_reserved": 0, "name": "737f5e8ede3db65be78076e16411a248", "is_disabled": 0}, {"rental_uris": {"ios": "https://dc.lft.to/lastmile_qr_scan", "android": "https://dc.lft.to/lastmile_qr_scan"}, "lat": 38.93337533333333, "bike_id": "a0fa91db955be10b1eb7d5c56ec0c3b0", "lon": -77.02059816666667, "type": "electric_scooter", "fusion_lon": 0.0, "fusion_lat": 0.0, "is_reserved": 0, "name": "a0fa91db955be10b1eb7d5c56ec0c3b0", "is_disabled": 0}, {"rental_uris": {"ios": "https://dc.lft.to/lastmile_qr_scan", "android": "https://dc.lft.to/lastmile_qr_scan"}, "lat": 39.05254683333333, "bike_id": "2a4b798b8bfdfe64eab4dac9787ad481", "lon": -77.08062416666667, "type": "electric_bike", "fusion_lon": 0.0, "fusion_lat": 0.0, "is_reserved": 0, "name": "2a4b798b8bfdfe64eab4dac9787ad481", "is_disabled": 0}, {"rental_uris": {"ios": "https://dc.lft.to/lastmile_qr_scan", "android": "https://dc.lft.to/lastmile_qr_scan"}, "lat": 38.90287, "bike_id": "224a7ee662e523e5c09c04c229a935cf", "lon": -77.038383, "type": "electric_scooter", "fusion_lon": 0.0, "fusion_lat": 0.0, "is_reserved": 0, "name": "224a7ee662e523e5c09c04c229a935cf", "is_disabled": 0}, {"rental_uris": {"ios": "https://dc.lft.to/lastmile_qr_scan", "android": "https://dc.lft.to/lastmile_qr_scan"}, "lat": 38.897404, "bike_id": "3c8ebd631033840520ce83bd44061667", "lon": -77.04696133333333, "type": "electric_scooter", "fusion_lon": 0.0, "fusion_lat": 0.0, "is_reserved": 0, "name": "3c8ebd631033840520ce83bd44061667", "is_disabled": 0}, {"rental_uris": {"ios": "https://dc.lft.to/lastmile_qr_scan", "android": "https://dc.lft.to/lastmile_qr_scan"}, "lat": 38.8735985, "bike_id": "069af357e0c4465824e422513ea7f6b2", "lon": -76.9702295, "type": "electric_scooter", "fusion_lon": 0.0, "fusion_lat": 0.0, "is_reserved": 0, "name": "069af357e0c4465824e422513ea7f6b2", "is_disabled": 0}, {"rental_uris": {"ios": "https://dc.lft.to/lastmile_qr_scan", "android": "https://dc.lft.to/lastmile_qr_scan"}, "lat": 38.929163333333335, "bike_id": "6f8f8d512f734f29b7fb1cc69d37c016", "lon": -77.032451, "type": "electric_scooter", "fusion_lon": 0.0, "fusion_lat": 0.0, "is_reserved": 0, "name": "6f8f8d512f734f29b7fb1cc69d37c016", "is_disabled": 0}, {"rental_uris": {"ios": "https://dc.lft.to/lastmile_qr_scan", "android": "https://dc.lft.to/lastmile_qr_scan"}, "lat": 38.91824483333333, "bike_id": "da076aac21fe682775929626f64917dc", "lon": -77.049378, "type": "electric_scooter", "fusion_lon": 0.0, "fusion_lat": 0.0, "is_reserved": 0, "name": "da076aac21fe682775929626f64917dc", "is_disabled": 0}, {"rental_uris": {"ios": "https://dc.lft.to/lastmile_qr_scan", "android": "https://dc.lft.to/lastmile_qr_scan"}, "lat": 38.91850483333333, "bike_id": "4cac1ce9df55c719b35af5e0ca385f53", "lon": -76.96542316666667, "type": "electric_scooter", "fusion_lon": 0.0, "fusion_lat": 0.0, "is_reserved": 0, "name": "4cac1ce9df55c719b35af5e0ca385f53", "is_disabled": 0}, {"rental_uris": {"ios": "https://dc.lft.to/lastmile_qr_scan", "android": "https://dc.lft.to/lastmile_qr_scan"}, "lat": 38.90516216666666, "bike_id": "448105a385a38d0397bd844e89cbd693", "lon": -77.04326283333333, "type": "electric_scooter", "fusion_lon": 0.0, "fusion_lat": 0.0, "is_reserved": 0, "name": "448105a385a38d0397bd844e89cbd693", "is_disabled": 0}, {"rental_uris": {"ios": "https://dc.lft.to/lastmile_qr_scan", "android": "https://dc.lft.to/lastmile_qr_scan"}, "lat": 38.89494366666667, "bike_id": "57b6667d0305fb279b6d27fc4bfa4acf", "lon": -77.022846, "type": "electric_scooter", "fusion_lon": 0.0, "fusion_lat": 0.0, "is_reserved": 0, "name": "57b6667d0305fb279b6d27fc4bfa4acf", "is_disabled": 0}, {"rental_uris": {"ios": "https://dc.lft.to/lastmile_qr_scan", "android": "https://dc.lft.to/lastmile_qr_scan"}, "lat": 38.87573733333333, "bike_id": "6906c1906fd2a861f8d8d5a893cbf5b1", "lon": -77.0059385, "type": "electric_scooter", "fusion_lon": 0.0, "fusion_lat": 0.0, "is_reserved": 0, "name": "6906c1906fd2a861f8d8d5a893cbf5b1", "is_disabled": 0}, {"rental_uris": {"ios": "https://dc.lft.to/lastmile_qr_scan", "android": "https://dc.lft.to/lastmile_qr_scan"}, "lat": 38.87469466666667, "bike_id": "490c2f675871621f81166a162feda6cf", "lon": -77.0048245, "type": "electric_scooter", "fusion_lon": 0.0, "fusion_lat": 0.0, "is_reserved": 0, "name": "490c2f675871621f81166a162feda6cf", "is_disabled": 0}, {"rental_uris": {"ios": "https://dc.lft.to/lastmile_qr_scan", "android": "https://dc.lft.to/lastmile_qr_scan"}, "lat": 38.868768, "bike_id": "b9b21ac0b8f196cf71bbfed4f8d47b6c", "lon": -76.9577385, "type": "electric_bike", "fusion_lon": 0.0, "fusion_lat": 0.0, "is_reserved": 0, "name": "b9b21ac0b8f196cf71bbfed4f8d47b6c", "is_disabled": 0}, {"rental_uris": {"ios": "https://dc.lft.to/lastmile_qr_scan", "android": "https://dc.lft.to/lastmile_qr_scan"}, "lat": 38.88739316666667, "bike_id": "b2b274daae221aaf63120fc601a20abd", "lon": -77.01533233333333, "type": "electric_scooter", "fusion_lon": 0.0, "fusion_lat": 0.0, "is_reserved": 0, "name": "b2b274daae221aaf63120fc601a20abd", "is_disabled": 0}, {"rental_uris": {"ios": "https://dc.lft.to/lastmile_qr_scan", "android": "https://dc.lft.to/lastmile_qr_scan"}, "lat": 38.86690633333333, "bike_id": "fd108144c694370b09fc2962c7677776", "lon": -76.98541733333333, "type": "electric_scooter", "fusion_lon": 0.0, "fusion_lat": 0.0, "is_reserved": 0, "name": "fd108144c694370b09fc2962c7677776", "is_disabled": 0}, {"rental_uris": {"ios": "https://dc.lft.to/lastmile_qr_scan", "android": "https://dc.lft.to/lastmile_qr_scan"}, "lat": 38.908263166666664, "bike_id": "e9c95f60d532665110aa31cb4f6685a0", "lon": -77.0219415, "type": "electric_scooter", "fusion_lon": 0.0, "fusion_lat": 0.0, "is_reserved": 0, "name": "e9c95f60d532665110aa31cb4f6685a0", "is_disabled": 0}, {"rental_uris": {"ios": "https://dc.lft.to/lastmile_qr_scan", "android": "https://dc.lft.to/lastmile_qr_scan"}, "lat": 38.81508133333333, "bike_id": "d228c89da7fbd7fa358ebb66f1f36d83", "lon": -77.12649466666667, "type": "electric_bike", "fusion_lon": 0.0, "fusion_lat": 0.0, "is_reserved": 0, "name": "d228c89da7fbd7fa358ebb66f1f36d83", "is_disabled": 0}, {"rental_uris": {"ios": "https://dc.lft.to/lastmile_qr_scan", "android": "https://dc.lft.to/lastmile_qr_scan"}, "lat": 38.87382216666666, "bike_id": "4ec9e1d097c19d8f06ce64178c2b69a1", "lon": -77.00166033333333, "type": "electric_scooter", "fusion_lon": 0.0, "fusion_lat": 0.0, "is_reserved": 0, "name": "4ec9e1d097c19d8f06ce64178c2b69a1", "is_disabled": 0}, {"rental_uris": {"ios": "https://dc.lft.to/lastmile_qr_scan", "android": "https://dc.lft.to/lastmile_qr_scan"}, "lat": 38.9203925, "bike_id": "c9222d9b039c1d39f3f9cd6cecb150a9", "lon": -77.01673083333333, "type": "electric_scooter", "fusion_lon": 0.0, "fusion_lat": 0.0, "is_reserved": 0, "name": "c9222d9b039c1d39f3f9cd6cecb150a9", "is_disabled": 0}, {"rental_uris": {"ios": "https://dc.lft.to/lastmile_qr_scan", "android": "https://dc.lft.to/lastmile_qr_scan"}, "lat": 38.8923205, "bike_id": "479eb17aa315ca7fa02708be4d68225c", "lon": -77.03211166666667, "type": "electric_scooter", "fusion_lon": 0.0, "fusion_lat": 0.0, "is_reserved": 0, "name": "479eb17aa315ca7fa02708be4d68225c", "is_disabled": 0}, {"rental_uris": {"ios": "https://dc.lft.to/lastmile_qr_scan", "android": "https://dc.lft.to/lastmile_qr_scan"}, "lat": 38.89858783333333, "bike_id": "007ae5cbb551a03ca39aaadd9376f07e", "lon": -76.9463775, "type": "electric_scooter", "fusion_lon": 0.0, "fusion_lat": 0.0, "is_reserved": 0, "name": "007ae5cbb551a03ca39aaadd9376f07e", "is_disabled": 0}, {"rental_uris": {"ios": "https://dc.lft.to/lastmile_qr_scan", "android": "https://dc.lft.to/lastmile_qr_scan"}, "lat": 38.79472533333333, "bike_id": "69e39e96b306632ce3e4dab3ac3242dc", "lon": -76.99239333333334, "type": "electric_bike", "fusion_lon": 0.0, "fusion_lat": 0.0, "is_reserved": 0, "name": "69e39e96b306632ce3e4dab3ac3242dc", "is_disabled": 0}, {"rental_uris": {"ios": "https://dc.lft.to/lastmile_qr_scan", "android": "https://dc.lft.to/lastmile_qr_scan"}, "lat": 38.9096845, "bike_id": "21d827197611094b58f159d620c891dd", "lon": -77.044574, "type": "electric_scooter", "fusion_lon": 0.0, "fusion_lat": 0.0, "is_reserved": 0, "name": "21d827197611094b58f159d620c891dd", "is_disabled": 0}, {"rental_uris": {"ios": "https://dc.lft.to/lastmile_qr_scan", "android": "https://dc.lft.to/lastmile_qr_scan"}, "lat": 38.895847833333335, "bike_id": "246d9b44d24ae0d4aa7aca9446dd2262", "lon": -76.981816, "type": "electric_scooter", "fusion_lon": 0.0, "fusion_lat": 0.0, "is_reserved": 0, "name": "246d9b44d24ae0d4aa7aca9446dd2262", "is_disabled": 0}, {"rental_uris": {"ios": "https://dc.lft.to/lastmile_qr_scan", "android": "https://dc.lft.to/lastmile_qr_scan"}, "lat": 38.90294733333333, "bike_id": "0d056282c9aadd3220fff0588de0e76c", "lon": -77.031665, "type": "electric_scooter", "fusion_lon": 0.0, "fusion_lat": 0.0, "is_reserved": 0, "name": "0d056282c9aadd3220fff0588de0e76c", "is_disabled": 0}, {"rental_uris": {"ios": "https://dc.lft.to/lastmile_qr_scan", "android": "https://dc.lft.to/lastmile_qr_scan"}, "lat": 38.929279333333334, "bike_id": "edee23f4676d81cf77e6f502861b8682", "lon": -77.03255316666667, "type": "electric_bike", "fusion_lon": 0.0, "fusion_lat": 0.0, "is_reserved": 0, "name": "edee23f4676d81cf77e6f502861b8682", "is_disabled": 0}, {"rental_uris": {"ios": "https://dc.lft.to/lastmile_qr_scan", "android": "https://dc.lft.to/lastmile_qr_scan"}, "lat": 38.924694333333335, "bike_id": "0d7849f6af7da652ae1ae4afd8d4cbd0", "lon": -77.0221955, "type": "electric_scooter", "fusion_lon": 0.0, "fusion_lat": 0.0, "is_reserved": 0, "name": "0d7849f6af7da652ae1ae4afd8d4cbd0", "is_disabled": 0}, {"rental_uris": {"ios": "https://dc.lft.to/lastmile_qr_scan", "android": "https://dc.lft.to/lastmile_qr_scan"}, "lat": 38.90251416666667, "bike_id": "eb2a6f12e584bb8cdc381791cda65c8f", "lon": -77.0294715, "type": "electric_scooter", "fusion_lon": 0.0, "fusion_lat": 0.0, "is_reserved": 0, "name": "eb2a6f12e584bb8cdc381791cda65c8f", "is_disabled": 0}, {"rental_uris": {"ios": "https://dc.lft.to/lastmile_qr_scan", "android": "https://dc.lft.to/lastmile_qr_scan"}, "lat": 38.93878816666667, "bike_id": "29d96c94bf8c802e8eba4d5215981d74", "lon": -77.0247955, "type": "electric_scooter", "fusion_lon": 0.0, "fusion_lat": 0.0, "is_reserved": 0, "name": "29d96c94bf8c802e8eba4d5215981d74", "is_disabled": 0}, {"rental_uris": {"ios": "https://dc.lft.to/lastmile_qr_scan", "android": "https://dc.lft.to/lastmile_qr_scan"}, "lat": 38.900152, "bike_id": "69b39899957949b592c425fd125d975d", "lon": -76.98769716666666, "type": "electric_scooter", "fusion_lon": 0.0, "fusion_lat": 0.0, "is_reserved": 0, "name": "69b39899957949b592c425fd125d975d", "is_disabled": 0}, {"rental_uris": {"ios": "https://dc.lft.to/lastmile_qr_scan", "android": "https://dc.lft.to/lastmile_qr_scan"}, "lat": 38.93904116666667, "bike_id": "402274c744af9b71bde820168e052cfd", "lon": -77.03278566666667, "type": "electric_scooter", "fusion_lon": 0.0, "fusion_lat": 0.0, "is_reserved": 0, "name": "402274c744af9b71bde820168e052cfd", "is_disabled": 0}, {"rental_uris": {"ios": "https://dc.lft.to/lastmile_qr_scan", "android": "https://dc.lft.to/lastmile_qr_scan"}, "lat": 38.89874283333333, "bike_id": "269ba41a23a293b10999163e99c8ec76", "lon": -77.046734, "type": "electric_scooter", "fusion_lon": 0.0, "fusion_lat": 0.0, "is_reserved": 0, "name": "269ba41a23a293b10999163e99c8ec76", "is_disabled": 0}, {"rental_uris": {"ios": "https://dc.lft.to/lastmile_qr_scan", "android": "https://dc.lft.to/lastmile_qr_scan"}, "lat": 38.90246233333333, "bike_id": "e03c03b4a08ed18485e03fe22e8f92d2", "lon": -76.93761983333333, "type": "electric_scooter", "fusion_lon": 0.0, "fusion_lat": 0.0, "is_reserved": 0, "name": "e03c03b4a08ed18485e03fe22e8f92d2", "is_disabled": 0}, {"rental_uris": {"ios": "https://dc.lft.to/lastmile_qr_scan", "android": "https://dc.lft.to/lastmile_qr_scan"}, "lat": 38.83890133333333, "bike_id": "07d5268cdddeca0030e129e6a2a29125", "lon": -77.00062683333333, "type": "electric_scooter", "fusion_lon": 0.0, "fusion_lat": 0.0, "is_reserved": 0, "name": "07d5268cdddeca0030e129e6a2a29125", "is_disabled": 0}, {"rental_uris": {"ios": "https://dc.lft.to/lastmile_qr_scan", "android": "https://dc.lft.to/lastmile_qr_scan"}, "lat": 38.91042866666667, "bike_id": "a2f184c5a3ec87a3354904ea33974709", "lon": -77.03200716666667, "type": "electric_scooter", "fusion_lon": 0.0, "fusion_lat": 0.0, "is_reserved": 0, "name": "a2f184c5a3ec87a3354904ea33974709", "is_disabled": 0}, {"rental_uris": {"ios": "https://dc.lft.to/lastmile_qr_scan", "android": "https://dc.lft.to/lastmile_qr_scan"}, "lat": 38.935789, "bike_id": "7a7b24e24c18e0ffceb9c2eab68fccc4", "lon": -77.03260483333334, "type": "electric_scooter", "fusion_lon": 0.0, "fusion_lat": 0.0, "is_reserved": 0, "name": "7a7b24e24c18e0ffceb9c2eab68fccc4", "is_disabled": 0}, {"rental_uris": {"ios": "https://dc.lft.to/lastmile_qr_scan", "android": "https://dc.lft.to/lastmile_qr_scan"}, "lat": 38.919016166666665, "bike_id": "6eb0219bf89cc0ef5cef967409f11e72", "lon": -77.041657, "type": "electric_scooter", "fusion_lon": 0.0, "fusion_lat": 0.0, "is_reserved": 0, "name": "6eb0219bf89cc0ef5cef967409f11e72", "is_disabled": 0}, {"rental_uris": {"ios": "https://dc.lft.to/lastmile_qr_scan", "android": "https://dc.lft.to/lastmile_qr_scan"}, "lat": 38.88491533333333, "bike_id": "33d61eb7d86962a8af099b0d0353c64c", "lon": -77.00713133333333, "type": "electric_scooter", "fusion_lon": 0.0, "fusion_lat": 0.0, "is_reserved": 0, "name": "33d61eb7d86962a8af099b0d0353c64c", "is_disabled": 0}, {"rental_uris": {"ios": "https://dc.lft.to/lastmile_qr_scan", "android": "https://dc.lft.to/lastmile_qr_scan"}, "lat": 38.8984395, "bike_id": "f549507e7c36842b2df3aaf75b9c4061", "lon": -77.03328316666666, "type": "electric_scooter", "fusion_lon": 0.0, "fusion_lat": 0.0, "is_reserved": 0, "name": "f549507e7c36842b2df3aaf75b9c4061", "is_disabled": 0}, {"rental_uris": {"ios": "https://dc.lft.to/lastmile_qr_scan", "android": "https://dc.lft.to/lastmile_qr_scan"}, "lat": 38.9953085, "bike_id": "f6930169354c859ec65d8d9c18130c51", "lon": -77.0694395, "type": "electric_bike", "fusion_lon": 0.0, "fusion_lat": 0.0, "is_reserved": 0, "name": "f6930169354c859ec65d8d9c18130c51", "is_disabled": 0}, {"rental_uris": {"ios": "https://dc.lft.to/lastmile_qr_scan", "android": "https://dc.lft.to/lastmile_qr_scan"}, "lat": 38.903521, "bike_id": "fe53e5abdd036b67837d9cf8a3187f8c", "lon": -77.045085, "type": "electric_scooter", "fusion_lon": 0.0, "fusion_lat": 0.0, "is_reserved": 0, "name": "fe53e5abdd036b67837d9cf8a3187f8c", "is_disabled": 0}, {"rental_uris": {"ios": "https://dc.lft.to/lastmile_qr_scan", "android": "https://dc.lft.to/lastmile_qr_scan"}, "lat": 38.9020135, "bike_id": "6eb3cf8021033e4955a6bd1b3f61e9a2", "lon": -77.0432335, "type": "electric_scooter", "fusion_lon": 0.0, "fusion_lat": 0.0, "is_reserved": 0, "name": "6eb3cf8021033e4955a6bd1b3f61e9a2", "is_disabled": 0}, {"rental_uris": {"ios": "https://dc.lft.to/lastmile_qr_scan", "android": "https://dc.lft.to/lastmile_qr_scan"}, "lat": 38.87290516666667, "bike_id": "1ff5ec22ebd4b594984c483ceaef94ca", "lon": -77.00987666666667, "type": "electric_scooter", "fusion_lon": 0.0, "fusion_lat": 0.0, "is_reserved": 0, "name": "1ff5ec22ebd4b594984c483ceaef94ca", "is_disabled": 0}, {"rental_uris": {"ios": "https://dc.lft.to/lastmile_qr_scan", "android": "https://dc.lft.to/lastmile_qr_scan"}, "lat": 38.90955316666667, "bike_id": "f08c78e68ed0252beab697e0ec8effc1", "lon": -77.0547145, "type": "electric_scooter", "fusion_lon": 0.0, "fusion_lat": 0.0, "is_reserved": 0, "name": "f08c78e68ed0252beab697e0ec8effc1", "is_disabled": 0}, {"rental_uris": {"ios": "https://dc.lft.to/lastmile_qr_scan", "android": "https://dc.lft.to/lastmile_qr_scan"}, "lat": 38.872228166666666, "bike_id": "010309ecb67630d44d4a599db59f5ce3", "lon": -77.01757116666667, "type": "electric_scooter", "fusion_lon": 0.0, "fusion_lat": 0.0, "is_reserved": 0, "name": "010309ecb67630d44d4a599db59f5ce3", "is_disabled": 0}, {"rental_uris": {"ios": "https://dc.lft.to/lastmile_qr_scan", "android": "https://dc.lft.to/lastmile_qr_scan"}, "lat": 38.899180666666666, "bike_id": "26d7d0dc8728becfb08c6d705f6225ca", "lon": -77.0125905, "type": "electric_scooter", "fusion_lon": 0.0, "fusion_lat": 0.0, "is_reserved": 0, "name": "26d7d0dc8728becfb08c6d705f6225ca", "is_disabled": 0}, {"rental_uris": {"ios": "https://dc.lft.to/lastmile_qr_scan", "android": "https://dc.lft.to/lastmile_qr_scan"}, "lat": 38.900139833333334, "bike_id": "dcc03cc4fe0178dc9c34d7c21da1070f", "lon": -77.007037, "type": "electric_scooter", "fusion_lon": 0.0, "fusion_lat": 0.0, "is_reserved": 0, "name": "dcc03cc4fe0178dc9c34d7c21da1070f", "is_disabled": 0}, {"rental_uris": {"ios": "https://dc.lft.to/lastmile_qr_scan", "android": "https://dc.lft.to/lastmile_qr_scan"}, "lat": 38.893597166666666, "bike_id": "544c4923d6e7d373674992d24b0be9ce", "lon": -76.94939333333333, "type": "electric_scooter", "fusion_lon": 0.0, "fusion_lat": 0.0, "is_reserved": 0, "name": "544c4923d6e7d373674992d24b0be9ce", "is_disabled": 0}, {"rental_uris": {"ios": "https://dc.lft.to/lastmile_qr_scan", "android": "https://dc.lft.to/lastmile_qr_scan"}, "lat": 38.89611816666667, "bike_id": "5ccc671599383a09bb8313f4a1425c44", "lon": -77.04464266666666, "type": "electric_scooter", "fusion_lon": 0.0, "fusion_lat": 0.0, "is_reserved": 0, "name": "5ccc671599383a09bb8313f4a1425c44", "is_disabled": 0}, {"rental_uris": {"ios": "https://dc.lft.to/lastmile_qr_scan", "android": "https://dc.lft.to/lastmile_qr_scan"}, "lat": 38.898497666666664, "bike_id": "390ef63d31b8686ea6887e231d327ae8", "lon": -77.02662983333333, "type": "electric_scooter", "fusion_lon": 0.0, "fusion_lat": 0.0, "is_reserved": 0, "name": "390ef63d31b8686ea6887e231d327ae8", "is_disabled": 0}, {"rental_uris": {"ios": "https://dc.lft.to/lastmile_qr_scan", "android": "https://dc.lft.to/lastmile_qr_scan"}, "lat": 38.896244, "bike_id": "552c377773a469e3a6c71c513fd155f3", "lon": -77.03219866666667, "type": "electric_scooter", "fusion_lon": 0.0, "fusion_lat": 0.0, "is_reserved": 0, "name": "552c377773a469e3a6c71c513fd155f3", "is_disabled": 0}, {"rental_uris": {"ios": "https://dc.lft.to/lastmile_qr_scan", "android": "https://dc.lft.to/lastmile_qr_scan"}, "lat": 38.9036765, "bike_id": "e42fc7c8e19cce350ca8760633ea2845", "lon": -77.03752366666667, "type": "electric_scooter", "fusion_lon": 0.0, "fusion_lat": 0.0, "is_reserved": 0, "name": "e42fc7c8e19cce350ca8760633ea2845", "is_disabled": 0}, {"rental_uris": {"ios": "https://dc.lft.to/lastmile_qr_scan", "android": "https://dc.lft.to/lastmile_qr_scan"}, "lat": 38.9241935, "bike_id": "61883a6a5c7da3ef5df59b680b4ae1fa", "lon": -77.01945316666666, "type": "electric_scooter", "fusion_lon": 0.0, "fusion_lat": 0.0, "is_reserved": 0, "name": "61883a6a5c7da3ef5df59b680b4ae1fa", "is_disabled": 0}, {"rental_uris": {"ios": "https://dc.lft.to/lastmile_qr_scan", "android": "https://dc.lft.to/lastmile_qr_scan"}, "lat": 38.92893516666667, "bike_id": "43f0bc68700d6ab93f94d8d324303396", "lon": -77.0164175, "type": "electric_scooter", "fusion_lon": 0.0, "fusion_lat": 0.0, "is_reserved": 0, "name": "43f0bc68700d6ab93f94d8d324303396", "is_disabled": 0}, {"rental_uris": {"ios": "https://dc.lft.to/lastmile_qr_scan", "android": "https://dc.lft.to/lastmile_qr_scan"}, "lat": 38.9315875, "bike_id": "e3e6b3d3fc7b26a37b05158f60b9ef3a", "lon": -77.03624366666666, "type": "electric_scooter", "fusion_lon": 0.0, "fusion_lat": 0.0, "is_reserved": 0, "name": "e3e6b3d3fc7b26a37b05158f60b9ef3a", "is_disabled": 0}, {"rental_uris": {"ios": "https://dc.lft.to/lastmile_qr_scan", "android": "https://dc.lft.to/lastmile_qr_scan"}, "lat": 38.88410366666667, "bike_id": "a23727f6631af64bcd8751e967b18983", "lon": -76.948211, "type": "electric_scooter", "fusion_lon": 0.0, "fusion_lat": 0.0, "is_reserved": 0, "name": "a23727f6631af64bcd8751e967b18983", "is_disabled": 0}, {"rental_uris": {"ios": "https://dc.lft.to/lastmile_qr_scan", "android": "https://dc.lft.to/lastmile_qr_scan"}, "lat": 38.8309785, "bike_id": "c23a1e402e5c4010c5c7f5ab178836ea", "lon": -77.04288033333333, "type": "electric_bike", "fusion_lon": 0.0, "fusion_lat": 0.0, "is_reserved": 0, "name": "c23a1e402e5c4010c5c7f5ab178836ea", "is_disabled": 0}, {"rental_uris": {"ios": "https://dc.lft.to/lastmile_qr_scan", "android": "https://dc.lft.to/lastmile_qr_scan"}, "lat": 38.898848666666666, "bike_id": "4d49c54302f103ec0f53fdbe0f0ee930", "lon": -76.9316965, "type": "electric_scooter", "fusion_lon": 0.0, "fusion_lat": 0.0, "is_reserved": 0, "name": "4d49c54302f103ec0f53fdbe0f0ee930", "is_disabled": 0}, {"rental_uris": {"ios": "https://dc.lft.to/lastmile_qr_scan", "android": "https://dc.lft.to/lastmile_qr_scan"}, "lat": 38.89194633333334, "bike_id": "f84e4c541d47eb9541a8209df500eda8", "lon": -77.023793, "type": "electric_scooter", "fusion_lon": 0.0, "fusion_lat": 0.0, "is_reserved": 0, "name": "f84e4c541d47eb9541a8209df500eda8", "is_disabled": 0}, {"rental_uris": {"ios": "https://dc.lft.to/lastmile_qr_scan", "android": "https://dc.lft.to/lastmile_qr_scan"}, "lat": 38.896198, "bike_id": "e8447bc2e98b9c1d46fc36d2c1be0779", "lon": -77.02624733333333, "type": "electric_scooter", "fusion_lon": 0.0, "fusion_lat": 0.0, "is_reserved": 0, "name": "e8447bc2e98b9c1d46fc36d2c1be0779", "is_disabled": 0}, {"rental_uris": {"ios": "https://dc.lft.to/lastmile_qr_scan", "android": "https://dc.lft.to/lastmile_qr_scan"}, "lat": 38.92871683333333, "bike_id": "e539e779efcb714678a6fd80d6b4faca", "lon": -77.03244616666667, "type": "electric_scooter", "fusion_lon": 0.0, "fusion_lat": 0.0, "is_reserved": 0, "name": "e539e779efcb714678a6fd80d6b4faca", "is_disabled": 0}, {"rental_uris": {"ios": "https://dc.lft.to/lastmile_qr_scan", "android": "https://dc.lft.to/lastmile_qr_scan"}, "lat": 38.89737383333333, "bike_id": "a43eec64c4fb815bfa702ba52c114fc3", "lon": -77.0299165, "type": "electric_scooter", "fusion_lon": 0.0, "fusion_lat": 0.0, "is_reserved": 0, "name": "a43eec64c4fb815bfa702ba52c114fc3", "is_disabled": 0}, {"rental_uris": {"ios": "https://dc.lft.to/lastmile_qr_scan", "android": "https://dc.lft.to/lastmile_qr_scan"}, "lat": 38.913322666666666, "bike_id": "65baa2c7314532f4f0ce7977256153fb", "lon": -77.04548383333334, "type": "electric_scooter", "fusion_lon": 0.0, "fusion_lat": 0.0, "is_reserved": 0, "name": "65baa2c7314532f4f0ce7977256153fb", "is_disabled": 0}, {"rental_uris": {"ios": "https://dc.lft.to/lastmile_qr_scan", "android": "https://dc.lft.to/lastmile_qr_scan"}, "lat": 38.86756783333333, "bike_id": "547a7ebe80f0e102e85bd78d116333df", "lon": -76.94532133333334, "type": "electric_bike", "fusion_lon": 0.0, "fusion_lat": 0.0, "is_reserved": 0, "name": "547a7ebe80f0e102e85bd78d116333df", "is_disabled": 0}, {"rental_uris": {"ios": "https://dc.lft.to/lastmile_qr_scan", "android": "https://dc.lft.to/lastmile_qr_scan"}, "lat": 38.8746765, "bike_id": "20348cdf863a69f4fc3d5585265bae21", "lon": -77.01874416666666, "type": "electric_scooter", "fusion_lon": 0.0, "fusion_lat": 0.0, "is_reserved": 0, "name": "20348cdf863a69f4fc3d5585265bae21", "is_disabled": 0}, {"rental_uris": {"ios": "https://dc.lft.to/lastmile_qr_scan", "android": "https://dc.lft.to/lastmile_qr_scan"}, "lat": 38.87471466666667, "bike_id": "3e6a327c6a99a139d9bc32f8c58e2e7d", "lon": -77.005152, "type": "electric_scooter", "fusion_lon": 0.0, "fusion_lat": 0.0, "is_reserved": 0, "name": "3e6a327c6a99a139d9bc32f8c58e2e7d", "is_disabled": 0}, {"rental_uris": {"ios": "https://dc.lft.to/lastmile_qr_scan", "android": "https://dc.lft.to/lastmile_qr_scan"}, "lat": 38.922372333333335, "bike_id": "07afa1075a6f6f927436259b759f9af5", "lon": -77.0351765, "type": "electric_scooter", "fusion_lon": 0.0, "fusion_lat": 0.0, "is_reserved": 0, "name": "07afa1075a6f6f927436259b759f9af5", "is_disabled": 0}, {"rental_uris": {"ios": "https://dc.lft.to/lastmile_qr_scan", "android": "https://dc.lft.to/lastmile_qr_scan"}, "lat": 38.915466333333335, "bike_id": "e290b2a4a9af74a840428db58695a2da", "lon": -77.02404483333333, "type": "electric_scooter", "fusion_lon": 0.0, "fusion_lat": 0.0, "is_reserved": 0, "name": "e290b2a4a9af74a840428db58695a2da", "is_disabled": 0}, {"rental_uris": {"ios": "https://dc.lft.to/lastmile_qr_scan", "android": "https://dc.lft.to/lastmile_qr_scan"}, "lat": 38.94442316666667, "bike_id": "c512aa0438bd5a711894a05c037a4649", "lon": -77.064063, "type": "electric_scooter", "fusion_lon": 0.0, "fusion_lat": 0.0, "is_reserved": 0, "name": "c512aa0438bd5a711894a05c037a4649", "is_disabled": 0}, {"rental_uris": {"ios": "https://dc.lft.to/lastmile_qr_scan", "android": "https://dc.lft.to/lastmile_qr_scan"}, "lat": 38.90480766666667, "bike_id": "c9708b04ca047f630421ec5ea26e3828", "lon": -77.00209533333333, "type": "electric_scooter", "fusion_lon": 0.0, "fusion_lat": 0.0, "is_reserved": 0, "name": "c9708b04ca047f630421ec5ea26e3828", "is_disabled": 0}, {"rental_uris": {"ios": "https://dc.lft.to/lastmile_qr_scan", "android": "https://dc.lft.to/lastmile_qr_scan"}, "lat": 38.8960255, "bike_id": "2bb56b528ccf6625e5059751bf35182f", "lon": -77.04414466666667, "type": "electric_scooter", "fusion_lon": 0.0, "fusion_lat": 0.0, "is_reserved": 0, "name": "2bb56b528ccf6625e5059751bf35182f", "is_disabled": 0}, {"rental_uris": {"ios": "https://dc.lft.to/lastmile_qr_scan", "android": "https://dc.lft.to/lastmile_qr_scan"}, "lat": 38.931867833333335, "bike_id": "27f166d21e1cd78c6e153990dc44c131", "lon": -77.08424483333333, "type": "electric_scooter", "fusion_lon": 0.0, "fusion_lat": 0.0, "is_reserved": 0, "name": "27f166d21e1cd78c6e153990dc44c131", "is_disabled": 0}, {"rental_uris": {"ios": "https://dc.lft.to/lastmile_qr_scan", "android": "https://dc.lft.to/lastmile_qr_scan"}, "lat": 38.89887566666667, "bike_id": "67173982ef84d09aa0a5894c463ecba9", "lon": -76.93167966666667, "type": "electric_scooter", "fusion_lon": 0.0, "fusion_lat": 0.0, "is_reserved": 0, "name": "67173982ef84d09aa0a5894c463ecba9", "is_disabled": 0}, {"rental_uris": {"ios": "https://dc.lft.to/lastmile_qr_scan", "android": "https://dc.lft.to/lastmile_qr_scan"}, "lat": 38.90356966666667, "bike_id": "f019799194fdb72e8365cc801e4f3b15", "lon": -77.04661066666667, "type": "electric_scooter", "fusion_lon": 0.0, "fusion_lat": 0.0, "is_reserved": 0, "name": "f019799194fdb72e8365cc801e4f3b15", "is_disabled": 0}, {"rental_uris": {"ios": "https://dc.lft.to/lastmile_qr_scan", "android": "https://dc.lft.to/lastmile_qr_scan"}, "lat": 38.895314, "bike_id": "6030344509b0ff705e24449cac7bfefd", "lon": -76.94888766666666, "type": "electric_scooter", "fusion_lon": 0.0, "fusion_lat": 0.0, "is_reserved": 0, "name": "6030344509b0ff705e24449cac7bfefd", "is_disabled": 0}, {"rental_uris": {"ios": "https://dc.lft.to/lastmile_qr_scan", "android": "https://dc.lft.to/lastmile_qr_scan"}, "lat": 38.87172316666667, "bike_id": "a7f495e5b7102ff79c3aa3c8a63f61ce", "lon": -77.00680666666666, "type": "electric_scooter", "fusion_lon": 0.0, "fusion_lat": 0.0, "is_reserved": 0, "name": "a7f495e5b7102ff79c3aa3c8a63f61ce", "is_disabled": 0}, {"rental_uris": {"ios": "https://dc.lft.to/lastmile_qr_scan", "android": "https://dc.lft.to/lastmile_qr_scan"}, "lat": 38.92660333333333, "bike_id": "013022f7996bcab6db52cb5a872af52c", "lon": -77.03721116666667, "type": "electric_scooter", "fusion_lon": 0.0, "fusion_lat": 0.0, "is_reserved": 0, "name": "013022f7996bcab6db52cb5a872af52c", "is_disabled": 0}, {"rental_uris": {"ios": "https://dc.lft.to/lastmile_qr_scan", "android": "https://dc.lft.to/lastmile_qr_scan"}, "lat": 38.90381883333333, "bike_id": "24f5069ed227592bb5562f670e6cb1c6", "lon": -77.03625683333334, "type": "electric_scooter", "fusion_lon": 0.0, "fusion_lat": 0.0, "is_reserved": 0, "name": "24f5069ed227592bb5562f670e6cb1c6", "is_disabled": 0}, {"rental_uris": {"ios": "https://dc.lft.to/lastmile_qr_scan", "android": "https://dc.lft.to/lastmile_qr_scan"}, "lat": 38.9170355, "bike_id": "4651d0813127d50522058e45997e50f0", "lon": -77.03232483333333, "type": "electric_scooter", "fusion_lon": 0.0, "fusion_lat": 0.0, "is_reserved": 0, "name": "4651d0813127d50522058e45997e50f0", "is_disabled": 0}, {"rental_uris": {"ios": "https://dc.lft.to/lastmile_qr_scan", "android": "https://dc.lft.to/lastmile_qr_scan"}, "lat": 38.90947233333333, "bike_id": "c1da15fd70131cbf465ce29b4c5446e8", "lon": -77.03438566666667, "type": "electric_scooter", "fusion_lon": 0.0, "fusion_lat": 0.0, "is_reserved": 0, "name": "c1da15fd70131cbf465ce29b4c5446e8", "is_disabled": 0}, {"rental_uris": {"ios": "https://dc.lft.to/lastmile_qr_scan", "android": "https://dc.lft.to/lastmile_qr_scan"}, "lat": 38.89977416666667, "bike_id": "d0cd7e2d80a4b5c70ff7381ef6e60334", "lon": -77.02927216666667, "type": "electric_scooter", "fusion_lon": 0.0, "fusion_lat": 0.0, "is_reserved": 0, "name": "d0cd7e2d80a4b5c70ff7381ef6e60334", "is_disabled": 0}, {"rental_uris": {"ios": "https://dc.lft.to/lastmile_qr_scan", "android": "https://dc.lft.to/lastmile_qr_scan"}, "lat": 38.904843166666666, "bike_id": "105d467820615de9c3c0fd37a01aebb9", "lon": -77.03894316666667, "type": "electric_scooter", "fusion_lon": 0.0, "fusion_lat": 0.0, "is_reserved": 0, "name": "105d467820615de9c3c0fd37a01aebb9", "is_disabled": 0}, {"rental_uris": {"ios": "https://dc.lft.to/lastmile_qr_scan", "android": "https://dc.lft.to/lastmile_qr_scan"}, "lat": 38.90575233333333, "bike_id": "58613b3e5c3e08abe683af1a8211f352", "lon": -77.02174483333333, "type": "electric_scooter", "fusion_lon": 0.0, "fusion_lat": 0.0, "is_reserved": 0, "name": "58613b3e5c3e08abe683af1a8211f352", "is_disabled": 0}, {"rental_uris": {"ios": "https://dc.lft.to/lastmile_qr_scan", "android": "https://dc.lft.to/lastmile_qr_scan"}, "lat": 38.91822116666667, "bike_id": "a6b33cbd258152218bf344a49d12a4ca", "lon": -77.0095345, "type": "electric_scooter", "fusion_lon": 0.0, "fusion_lat": 0.0, "is_reserved": 0, "name": "a6b33cbd258152218bf344a49d12a4ca", "is_disabled": 0}, {"rental_uris": {"ios": "https://dc.lft.to/lastmile_qr_scan", "android": "https://dc.lft.to/lastmile_qr_scan"}, "lat": 38.87883216666667, "bike_id": "8d0bb8453a8101157025045cc10cb0a2", "lon": -77.09606466666666, "type": "electric_bike", "fusion_lon": 0.0, "fusion_lat": 0.0, "is_reserved": 0, "name": "8d0bb8453a8101157025045cc10cb0a2", "is_disabled": 0}, {"rental_uris": {"ios": "https://dc.lft.to/lastmile_qr_scan", "android": "https://dc.lft.to/lastmile_qr_scan"}, "lat": 38.9559905, "bike_id": "a9f262dbba9d2d03c0a511721608c887", "lon": -77.02735416666667, "type": "electric_scooter", "fusion_lon": 0.0, "fusion_lat": 0.0, "is_reserved": 0, "name": "a9f262dbba9d2d03c0a511721608c887", "is_disabled": 0}, {"rental_uris": {"ios": "https://dc.lft.to/lastmile_qr_scan", "android": "https://dc.lft.to/lastmile_qr_scan"}, "lat": 38.940923, "bike_id": "fb797a6164fd07a37f39a835f80a96ce", "lon": -77.024947, "type": "electric_scooter", "fusion_lon": 0.0, "fusion_lat": 0.0, "is_reserved": 0, "name": "fb797a6164fd07a37f39a835f80a96ce", "is_disabled": 0}, {"rental_uris": {"ios": "https://dc.lft.to/lastmile_qr_scan", "android": "https://dc.lft.to/lastmile_qr_scan"}, "lat": 38.896343333333334, "bike_id": "3cdbc82e30d9643655e6248a3e6bdd38", "lon": -77.040075, "type": "electric_scooter", "fusion_lon": 0.0, "fusion_lat": 0.0, "is_reserved": 0, "name": "3cdbc82e30d9643655e6248a3e6bdd38", "is_disabled": 0}, {"rental_uris": {"ios": "https://dc.lft.to/lastmile_qr_scan", "android": "https://dc.lft.to/lastmile_qr_scan"}, "lat": 38.93153383333333, "bike_id": "55e7da26d64c7ffdda68f6b5bea8ff66", "lon": -77.04225233333334, "type": "electric_scooter", "fusion_lon": 0.0, "fusion_lat": 0.0, "is_reserved": 0, "name": "55e7da26d64c7ffdda68f6b5bea8ff66", "is_disabled": 0}, {"rental_uris": {"ios": "https://dc.lft.to/lastmile_qr_scan", "android": "https://dc.lft.to/lastmile_qr_scan"}, "lat": 38.90740016666667, "bike_id": "05555486b1aa89b66d65b2e35dd099d9", "lon": -77.045378, "type": "electric_scooter", "fusion_lon": 0.0, "fusion_lat": 0.0, "is_reserved": 0, "name": "05555486b1aa89b66d65b2e35dd099d9", "is_disabled": 0}, {"rental_uris": {"ios": "https://dc.lft.to/lastmile_qr_scan", "android": "https://dc.lft.to/lastmile_qr_scan"}, "lat": 38.900014166666665, "bike_id": "6ce2ee151437dab8ea8bed2532c44642", "lon": -76.98933516666666, "type": "electric_scooter", "fusion_lon": 0.0, "fusion_lat": 0.0, "is_reserved": 0, "name": "6ce2ee151437dab8ea8bed2532c44642", "is_disabled": 0}, {"rental_uris": {"ios": "https://dc.lft.to/lastmile_qr_scan", "android": "https://dc.lft.to/lastmile_qr_scan"}, "lat": 38.9191265, "bike_id": "857998db91d065d903cd559f676d45dc", "lon": -77.02085483333333, "type": "electric_scooter", "fusion_lon": 0.0, "fusion_lat": 0.0, "is_reserved": 0, "name": "857998db91d065d903cd559f676d45dc", "is_disabled": 0}, {"rental_uris": {"ios": "https://dc.lft.to/lastmile_qr_scan", "android": "https://dc.lft.to/lastmile_qr_scan"}, "lat": 38.91870383333333, "bike_id": "8b95c9b55ce733a6b730ff67d91fcd78", "lon": -77.01474633333333, "type": "electric_scooter", "fusion_lon": 0.0, "fusion_lat": 0.0, "is_reserved": 0, "name": "8b95c9b55ce733a6b730ff67d91fcd78", "is_disabled": 0}, {"rental_uris": {"ios": "https://dc.lft.to/lastmile_qr_scan", "android": "https://dc.lft.to/lastmile_qr_scan"}, "lat": 38.897804, "bike_id": "8d7b1c51573a98798ba3d4f4489b2565", "lon": -77.0315595, "type": "electric_scooter", "fusion_lon": 0.0, "fusion_lat": 0.0, "is_reserved": 0, "name": "8d7b1c51573a98798ba3d4f4489b2565", "is_disabled": 0}, {"rental_uris": {"ios": "https://dc.lft.to/lastmile_qr_scan", "android": "https://dc.lft.to/lastmile_qr_scan"}, "lat": 38.89222566666667, "bike_id": "174a4d13f9140452e584e2af33b19142", "lon": -77.04683683333333, "type": "electric_scooter", "fusion_lon": 0.0, "fusion_lat": 0.0, "is_reserved": 0, "name": "174a4d13f9140452e584e2af33b19142", "is_disabled": 0}, {"rental_uris": {"ios": "https://dc.lft.to/lastmile_qr_scan", "android": "https://dc.lft.to/lastmile_qr_scan"}, "lat": 38.886224, "bike_id": "0126f92165c66475afd58a49014e0103", "lon": -77.02820716666666, "type": "electric_scooter", "fusion_lon": 0.0, "fusion_lat": 0.0, "is_reserved": 0, "name": "0126f92165c66475afd58a49014e0103", "is_disabled": 0}, {"rental_uris": {"ios": "https://dc.lft.to/lastmile_qr_scan", "android": "https://dc.lft.to/lastmile_qr_scan"}, "lat": 38.897368166666666, "bike_id": "290d0c3ab97d99b568ed15c823f39eb5", "lon": -76.94727183333333, "type": "electric_scooter", "fusion_lon": 0.0, "fusion_lat": 0.0, "is_reserved": 0, "name": "290d0c3ab97d99b568ed15c823f39eb5", "is_disabled": 0}, {"rental_uris": {"ios": "https://dc.lft.to/lastmile_qr_scan", "android": "https://dc.lft.to/lastmile_qr_scan"}, "lat": 38.9252215, "bike_id": "9919fd3c36896e8b3d94b28181d8401f", "lon": -77.0409415, "type": "electric_scooter", "fusion_lon": 0.0, "fusion_lat": 0.0, "is_reserved": 0, "name": "9919fd3c36896e8b3d94b28181d8401f", "is_disabled": 0}, {"rental_uris": {"ios": "https://dc.lft.to/lastmile_qr_scan", "android": "https://dc.lft.to/lastmile_qr_scan"}, "lat": 38.89740666666667, "bike_id": "be68cbc2be269355ffcc5b084b2af568", "lon": -77.001384, "type": "electric_scooter", "fusion_lon": 0.0, "fusion_lat": 0.0, "is_reserved": 0, "name": "be68cbc2be269355ffcc5b084b2af568", "is_disabled": 0}, {"rental_uris": {"ios": "https://dc.lft.to/lastmile_qr_scan", "android": "https://dc.lft.to/lastmile_qr_scan"}, "lat": 38.94419966666667, "bike_id": "1a30a106f0d6cf0dfd15569feae61c48", "lon": -77.06389483333334, "type": "electric_scooter", "fusion_lon": 0.0, "fusion_lat": 0.0, "is_reserved": 0, "name": "1a30a106f0d6cf0dfd15569feae61c48", "is_disabled": 0}, {"rental_uris": {"ios": "https://dc.lft.to/lastmile_qr_scan", "android": "https://dc.lft.to/lastmile_qr_scan"}, "lat": 38.9280555, "bike_id": "6515dd5b2c3bc8e2d37956e2622f853a", "lon": -77.03595616666667, "type": "electric_scooter", "fusion_lon": 0.0, "fusion_lat": 0.0, "is_reserved": 0, "name": "6515dd5b2c3bc8e2d37956e2622f853a", "is_disabled": 0}, {"rental_uris": {"ios": "https://dc.lft.to/lastmile_qr_scan", "android": "https://dc.lft.to/lastmile_qr_scan"}, "lat": 38.902938666666664, "bike_id": "76e37349c18c6ad0722378b5cf899920", "lon": -77.046669, "type": "electric_scooter", "fusion_lon": 0.0, "fusion_lat": 0.0, "is_reserved": 0, "name": "76e37349c18c6ad0722378b5cf899920", "is_disabled": 0}, {"rental_uris": {"ios": "https://dc.lft.to/lastmile_qr_scan", "android": "https://dc.lft.to/lastmile_qr_scan"}, "lat": 38.87380666666667, "bike_id": "6761a9b8d652a0626e5d15700dd9c06c", "lon": -77.000595, "type": "electric_scooter", "fusion_lon": 0.0, "fusion_lat": 0.0, "is_reserved": 0, "name": "6761a9b8d652a0626e5d15700dd9c06c", "is_disabled": 0}, {"rental_uris": {"ios": "https://dc.lft.to/lastmile_qr_scan", "android": "https://dc.lft.to/lastmile_qr_scan"}, "lat": 38.918186, "bike_id": "defa6140b557dac5f0038745edefc40d", "lon": -77.03443333333334, "type": "electric_scooter", "fusion_lon": 0.0, "fusion_lat": 0.0, "is_reserved": 0, "name": "defa6140b557dac5f0038745edefc40d", "is_disabled": 0}, {"rental_uris": {"ios": "https://dc.lft.to/lastmile_qr_scan", "android": "https://dc.lft.to/lastmile_qr_scan"}, "lat": 38.9094895, "bike_id": "59de4d039d05a2d37bc9eb3b0c40bb2c", "lon": -77.02692016666667, "type": "electric_scooter", "fusion_lon": 0.0, "fusion_lat": 0.0, "is_reserved": 0, "name": "59de4d039d05a2d37bc9eb3b0c40bb2c", "is_disabled": 0}, {"rental_uris": {"ios": "https://dc.lft.to/lastmile_qr_scan", "android": "https://dc.lft.to/lastmile_qr_scan"}, "lat": 38.90573883333333, "bike_id": "2915349fc99d96f97ddfd27a43400e49", "lon": -77.01501083333333, "type": "electric_scooter", "fusion_lon": 0.0, "fusion_lat": 0.0, "is_reserved": 0, "name": "2915349fc99d96f97ddfd27a43400e49", "is_disabled": 0}, {"rental_uris": {"ios": "https://dc.lft.to/lastmile_qr_scan", "android": "https://dc.lft.to/lastmile_qr_scan"}, "lat": 38.916301, "bike_id": "a1005bc54c90afab5b87678d41a21e3c", "lon": -77.03041, "type": "electric_scooter", "fusion_lon": 0.0, "fusion_lat": 0.0, "is_reserved": 0, "name": "a1005bc54c90afab5b87678d41a21e3c", "is_disabled": 0}, {"rental_uris": {"ios": "https://dc.lft.to/lastmile_qr_scan", "android": "https://dc.lft.to/lastmile_qr_scan"}, "lat": 38.9181605, "bike_id": "98e815fbfc14c202798b80cfa0f0a9c8", "lon": -77.0270975, "type": "electric_scooter", "fusion_lon": 0.0, "fusion_lat": 0.0, "is_reserved": 0, "name": "98e815fbfc14c202798b80cfa0f0a9c8", "is_disabled": 0}, {"rental_uris": {"ios": "https://dc.lft.to/lastmile_qr_scan", "android": "https://dc.lft.to/lastmile_qr_scan"}, "lat": 38.908605666666666, "bike_id": "991eb73d67566c515cf205326df6a052", "lon": -77.044853, "type": "electric_scooter", "fusion_lon": 0.0, "fusion_lat": 0.0, "is_reserved": 0, "name": "991eb73d67566c515cf205326df6a052", "is_disabled": 0}, {"rental_uris": {"ios": "https://dc.lft.to/lastmile_qr_scan", "android": "https://dc.lft.to/lastmile_qr_scan"}, "lat": 38.930172166666665, "bike_id": "7820fe5c6eb2cb9d93c2de42979ed195", "lon": -77.0552075, "type": "electric_scooter", "fusion_lon": 0.0, "fusion_lat": 0.0, "is_reserved": 0, "name": "7820fe5c6eb2cb9d93c2de42979ed195", "is_disabled": 0}, {"rental_uris": {"ios": "https://dc.lft.to/lastmile_qr_scan", "android": "https://dc.lft.to/lastmile_qr_scan"}, "lat": 38.8982575, "bike_id": "197ba4e96ed01221c5d91c7c0fff80f8", "lon": -77.04542016666667, "type": "electric_scooter", "fusion_lon": 0.0, "fusion_lat": 0.0, "is_reserved": 0, "name": "197ba4e96ed01221c5d91c7c0fff80f8", "is_disabled": 0}, {"rental_uris": {"ios": "https://dc.lft.to/lastmile_qr_scan", "android": "https://dc.lft.to/lastmile_qr_scan"}, "lat": 38.881203, "bike_id": "4c5bedaedc1da51a6eb6406ae84990b0", "lon": -77.01644333333333, "type": "electric_scooter", "fusion_lon": 0.0, "fusion_lat": 0.0, "is_reserved": 0, "name": "4c5bedaedc1da51a6eb6406ae84990b0", "is_disabled": 0}, {"rental_uris": {"ios": "https://dc.lft.to/lastmile_qr_scan", "android": "https://dc.lft.to/lastmile_qr_scan"}, "lat": 38.916085, "bike_id": "708b8b4076c85d58cb267e6c17c74f47", "lon": -77.01740833333334, "type": "electric_scooter", "fusion_lon": 0.0, "fusion_lat": 0.0, "is_reserved": 0, "name": "708b8b4076c85d58cb267e6c17c74f47", "is_disabled": 0}, {"rental_uris": {"ios": "https://dc.lft.to/lastmile_qr_scan", "android": "https://dc.lft.to/lastmile_qr_scan"}, "lat": 38.92196666666667, "bike_id": "a634a1e648814ccde340b936db7b4de0", "lon": -77.03403916666667, "type": "electric_scooter", "fusion_lon": 0.0, "fusion_lat": 0.0, "is_reserved": 0, "name": "a634a1e648814ccde340b936db7b4de0", "is_disabled": 0}, {"rental_uris": {"ios": "https://dc.lft.to/lastmile_qr_scan", "android": "https://dc.lft.to/lastmile_qr_scan"}, "lat": 38.9042785, "bike_id": "629a0b5f076aa3e097e563efe574f489", "lon": -77.03436866666667, "type": "electric_scooter", "fusion_lon": 0.0, "fusion_lat": 0.0, "is_reserved": 0, "name": "629a0b5f076aa3e097e563efe574f489", "is_disabled": 0}, {"rental_uris": {"ios": "https://dc.lft.to/lastmile_qr_scan", "android": "https://dc.lft.to/lastmile_qr_scan"}, "lat": 38.90889983333334, "bike_id": "8545831850db8bbbb6f9cfb4bcf65628", "lon": -76.98236183333333, "type": "electric_scooter", "fusion_lon": 0.0, "fusion_lat": 0.0, "is_reserved": 0, "name": "8545831850db8bbbb6f9cfb4bcf65628", "is_disabled": 0}, {"rental_uris": {"ios": "https://dc.lft.to/lastmile_qr_scan", "android": "https://dc.lft.to/lastmile_qr_scan"}, "lat": 38.916967, "bike_id": "979d2c0a489ed71daa96a3f402a34121", "lon": -77.02758566666667, "type": "electric_scooter", "fusion_lon": 0.0, "fusion_lat": 0.0, "is_reserved": 0, "name": "979d2c0a489ed71daa96a3f402a34121", "is_disabled": 0}, {"rental_uris": {"ios": "https://dc.lft.to/lastmile_qr_scan", "android": "https://dc.lft.to/lastmile_qr_scan"}, "lat": 38.8849205, "bike_id": "8dc04e4baee5590bd7722c2b0fb998ba", "lon": -77.007096, "type": "electric_scooter", "fusion_lon": 0.0, "fusion_lat": 0.0, "is_reserved": 0, "name": "8dc04e4baee5590bd7722c2b0fb998ba", "is_disabled": 0}, {"rental_uris": {"ios": "https://dc.lft.to/lastmile_qr_scan", "android": "https://dc.lft.to/lastmile_qr_scan"}, "lat": 38.89355416666667, "bike_id": "e6e6367e0881448bce479470eac5dfa5", "lon": -77.003333, "type": "electric_scooter", "fusion_lon": 0.0, "fusion_lat": 0.0, "is_reserved": 0, "name": "e6e6367e0881448bce479470eac5dfa5", "is_disabled": 0}, {"rental_uris": {"ios": "https://dc.lft.to/lastmile_qr_scan", "android": "https://dc.lft.to/lastmile_qr_scan"}, "lat": 38.907270833333335, "bike_id": "fe5955f04b36c7e61b81fe639becac68", "lon": -77.02614083333333, "type": "electric_scooter", "fusion_lon": 0.0, "fusion_lat": 0.0, "is_reserved": 0, "name": "fe5955f04b36c7e61b81fe639becac68", "is_disabled": 0}, {"rental_uris": {"ios": "https://dc.lft.to/lastmile_qr_scan", "android": "https://dc.lft.to/lastmile_qr_scan"}, "lat": 38.871739, "bike_id": "ed62b9410982e6fcb986919f46a340d3", "lon": -77.00621733333334, "type": "electric_scooter", "fusion_lon": 0.0, "fusion_lat": 0.0, "is_reserved": 0, "name": "ed62b9410982e6fcb986919f46a340d3", "is_disabled": 0}, {"rental_uris": {"ios": "https://dc.lft.to/lastmile_qr_scan", "android": "https://dc.lft.to/lastmile_qr_scan"}, "lat": 38.935605833333334, "bike_id": "98325f8090326490ff8278c700070459", "lon": -77.07456466666666, "type": "electric_scooter", "fusion_lon": 0.0, "fusion_lat": 0.0, "is_reserved": 0, "name": "98325f8090326490ff8278c700070459", "is_disabled": 0}, {"rental_uris": {"ios": "https://dc.lft.to/lastmile_qr_scan", "android": "https://dc.lft.to/lastmile_qr_scan"},