{"data": {"bikes": [{"lat": 38.9021095, "fusion_lon": 0.0, "lon": -77.04671466666667, "is_disabled": 0, "type": "electric_scooter", "name": "bb206f7be8f04c9bfb3c56203bf0447d", "fusion_lat": 0.0, "rental_uris": {"android": "https://dc.lft.to/lastmile_qr_scan", "ios": "https://dc.lft.to/lastmile_qr_scan"}, "bike_id": "bb206f7be8f04c9bfb3c56203bf0447d", "is_reserved": 0}, {"lat": 38.94512366666667, "fusion_lon": 0.0, "lon": -77.03317933333334, "is_disabled": 0, "type": "electric_scooter", "name": "0fd0ba82b04620b493dc0dee04d73d3f", "fusion_lat": 0.0, "rental_uris": {"android": "https://dc.lft.to/lastmile_qr_scan", "ios": "https://dc.lft.to/lastmile_qr_scan"}, "bike_id": "0fd0ba82b04620b493dc0dee04d73d3f", "is_reserved": 0}, {"lat": 38.91124533333333, "fusion_lon": 0.0, "lon": -77.03157383333334, "is_disabled": 0, "type": "electric_scooter", "name": "ef524aca030425de494bebff3a68b435", "fusion_lat": 0.0, "rental_uris": {"android": "https://dc.lft.to/lastmile_qr_scan", "ios": "https://dc.lft.to/lastmile_qr_scan"}, "bike_id": "ef524aca030425de494bebff3a68b435", "is_reserved": 0}, {"lat": 38.85893266666667, "fusion_lon": 0.0, "lon": -77.11864583333333, "is_disabled": 0, "type": "electric_bike", "name": "5ce40dcb6725ddb0ac7e38c3263b69f1", "fusion_lat": 0.0, "rental_uris": {"android": "https://dc.lft.to/lastmile_qr_scan", "ios": "https://dc.lft.to/lastmile_qr_scan"}, "bike_id": "5ce40dcb6725ddb0ac7e38c3263b69f1", "is_reserved": 0}, {"lat": 38.935073, "fusion_lon": 0.0, "lon": -77.0239965, "is_disabled": 0, "type": "electric_scooter", "name": "4f45967acbe67c03b80d0c393a93791c", "fusion_lat": 0.0, "rental_uris": {"android": "https://dc.lft.to/lastmile_qr_scan", "ios": "https://dc.lft.to/lastmile_qr_scan"}, "bike_id": "4f45967acbe67c03b80d0c393a93791c", "is_reserved": 0}, {"lat": 38.8923245, "fusion_lon": 0.0, "lon": -77.0319135, "is_disabled": 0, "type": "electric_scooter", "name": "7ce27367cc5ea9774e2eaddf0ba09aa9", "fusion_lat": 0.0, "rental_uris": {"android": "https://dc.lft.to/lastmile_qr_scan", "ios": "https://dc.lft.to/lastmile_qr_scan"}, "bike_id": "7ce27367cc5ea9774e2eaddf0ba09aa9", "is_reserved": 0}, {"lat": 38.920179833333336, "fusion_lon": 0.0, "lon": -77.02205766666667, "is_disabled": 0, "type": "electric_scooter", "name": "7d76615d365f2a158e03c68f3911c8f7", "fusion_lat": 0.0, "rental_uris": {"android": "https://dc.lft.to/lastmile_qr_scan", "ios": "https://dc.lft.to/lastmile_qr_scan"}, "bike_id": "7d76615d365f2a158e03c68f3911c8f7", "is_reserved": 0}, {"lat": 38.90820933333333, "fusion_lon": 0.0, "lon": -76.99219716666667, "is_disabled": 0, "type": "electric_scooter", "name": "9849804bfb3fab7efa556d916ae5e9f8", "fusion_lat": 0.0, "rental_uris": {"android": "https://dc.lft.to/lastmile_qr_scan", "ios": "https://dc.lft.to/lastmile_qr_scan"}, "bike_id": "9849804bfb3fab7efa556d916ae5e9f8", "is_reserved": 0}, {"lat": 38.905876666666664, "fusion_lon": 0.0, "lon": -77.04235216666666, "is_disabled": 0, "type": "electric_scooter", "name": "f820bf3db5c9ce120741b540a60048f5", "fusion_lat": 0.0, "rental_uris": {"android": "https://dc.lft.to/lastmile_qr_scan", "ios": "https://dc.lft.to/lastmile_qr_scan"}, "bike_id": "f820bf3db5c9ce120741b540a60048f5", "is_reserved": 0}, {"lat": 38.899904, "fusion_lon": 0.0, "lon": -77.00128483333333, "is_disabled": 0, "type": "electric_scooter", "name": "2fccbdb9ce29118a212af50c5aa3f398", "fusion_lat": 0.0, "rental_uris": {"android": "https://dc.lft.to/lastmile_qr_scan", "ios": "https://dc.lft.to/lastmile_qr_scan"}, "bike_id": "2fccbdb9ce29118a212af50c5aa3f398", "is_reserved": 0}, {"lat": 38.88317133333334, "fusion_lon": 0.0, "lon": -77.01746583333333, "is_disabled": 0, "type": "electric_scooter", "name": "309de2bc7ed4d3880e1f9a422acf22ab", "fusion_lat": 0.0, "rental_uris": {"android": "https://dc.lft.to/lastmile_qr_scan", "ios": "https://dc.lft.to/lastmile_qr_scan"}, "bike_id": "309de2bc7ed4d3880e1f9a422acf22ab", "is_reserved": 0}, {"lat": 38.9961065, "fusion_lon": 0.0, "lon": -77.03226833333333, "is_disabled": 0, "type": "electric_scooter", "name": "ce0cbd03c2076c63818c35d63c13e1e5", "fusion_lat": 0.0, "rental_uris": {"android": "https://dc.lft.to/lastmile_qr_scan", "ios": "https://dc.lft.to/lastmile_qr_scan"}, "bike_id": "ce0cbd03c2076c63818c35d63c13e1e5", "is_reserved": 0}, {"lat": 38.89330366666667, "fusion_lon": 0.0, "lon": -77.04676066666667, "is_disabled": 0, "type": "electric_scooter", "name": "55351bd1b53e8bc0d43cd006c93bc499", "fusion_lat": 0.0, "rental_uris": {"android": "https://dc.lft.to/lastmile_qr_scan", "ios": "https://dc.lft.to/lastmile_qr_scan"}, "bike_id": "55351bd1b53e8bc0d43cd006c93bc499", "is_reserved": 0}, {"lat": 38.864700166666665, "fusion_lon": 0.0, "lon": -76.98235866666667, "is_disabled": 0, "type": "electric_scooter", "name": "5bac27348fd5723a2daa438795ce66a5", "fusion_lat": 0.0, "rental_uris": {"android": "https://dc.lft.to/lastmile_qr_scan", "ios": "https://dc.lft.to/lastmile_qr_scan"}, "bike_id": "5bac27348fd5723a2daa438795ce66a5", "is_reserved": 0}, {"lat": 38.91925083333334, "fusion_lon": 0.0, "lon": -77.032878, "is_disabled": 0, "type": "electric_scooter", "name": "fe533999f85aef5d52e547c2319b6efb", "fusion_lat": 0.0, "rental_uris": {"android": "https://dc.lft.to/lastmile_qr_scan", "ios": "https://dc.lft.to/lastmile_qr_scan"}, "bike_id": "fe533999f85aef5d52e547c2319b6efb", "is_reserved": 0}, {"lat": 38.915676500000004, "fusion_lon": 0.0, "lon": -77.03840733333334, "is_disabled": 0, "type": "electric_scooter", "name": "f7eed033464bcf345539289e086af770", "fusion_lat": 0.0, "rental_uris": {"android": "https://dc.lft.to/lastmile_qr_scan", "ios": "https://dc.lft.to/lastmile_qr_scan"}, "bike_id": "f7eed033464bcf345539289e086af770", "is_reserved": 0}, {"lat": 38.91557816666667, "fusion_lon": 0.0, "lon": -77.03320566666666, "is_disabled": 0, "type": "electric_scooter", "name": "28768eb7215573d7e9cce97185dfc4b5", "fusion_lat": 0.0, "rental_uris": {"android": "https://dc.lft.to/lastmile_qr_scan", "ios": "https://dc.lft.to/lastmile_qr_scan"}, "bike_id": "28768eb7215573d7e9cce97185dfc4b5", "is_reserved": 0}, {"lat": 38.86460916666667, "fusion_lon": 0.0, "lon": -77.013486, "is_disabled": 0, "type": "electric_scooter", "name": "b0994e0ee4d0d6ad994f9d403404fff2", "fusion_lat": 0.0, "rental_uris": {"android": "https://dc.lft.to/lastmile_qr_scan", "ios": "https://dc.lft.to/lastmile_qr_scan"}, "bike_id": "b0994e0ee4d0d6ad994f9d403404fff2", "is_reserved": 0}, {"lat": 38.9395275, "fusion_lon": 0.0, "lon": -77.02507666666666, "is_disabled": 0, "type": "electric_scooter", "name": "bc5f1d110812aad4beeccd1383fd4c02", "fusion_lat": 0.0, "rental_uris": {"android": "https://dc.lft.to/lastmile_qr_scan", "ios": "https://dc.lft.to/lastmile_qr_scan"}, "bike_id": "bc5f1d110812aad4beeccd1383fd4c02", "is_reserved": 0}, {"lat": 38.904692, "fusion_lon": 0.0, "lon": -76.980532, "is_disabled": 0, "type": "electric_scooter", "name": "ed717642527419cbd1124d18ffdacb26", "fusion_lat": 0.0, "rental_uris": {"android": "https://dc.lft.to/lastmile_qr_scan", "ios": "https://dc.lft.to/lastmile_qr_scan"}, "bike_id": "ed717642527419cbd1124d18ffdacb26", "is_reserved": 0}, {"lat": 38.907298833333336, "fusion_lon": 0.0, "lon": -77.02322183333334, "is_disabled": 0, "type": "electric_scooter", "name": "c3aad028695f4c651402439f9f19a574", "fusion_lat": 0.0, "rental_uris": {"android": "https://dc.lft.to/lastmile_qr_scan", "ios": "https://dc.lft.to/lastmile_qr_scan"}, "bike_id": "c3aad028695f4c651402439f9f19a574", "is_reserved": 0}, {"lat": 38.90082366666667, "fusion_lon": 0.0, "lon": -77.039427, "is_disabled": 0, "type": "electric_scooter", "name": "22add850d1aa05e85514a6b31ce8b658", "fusion_lat": 0.0, "rental_uris": {"android": "https://dc.lft.to/lastmile_qr_scan", "ios": "https://dc.lft.to/lastmile_qr_scan"}, "bike_id": "22add850d1aa05e85514a6b31ce8b658", "is_reserved": 0}, {"lat": 38.92274416666667, "fusion_lon": 0.0, "lon": -77.03223366666667, "is_disabled": 0, "type": "electric_scooter", "name": "40686769d53f82b0303c3b5b6d6df2ab", "fusion_lat": 0.0, "rental_uris": {"android": "https://dc.lft.to/lastmile_qr_scan", "ios": "https://dc.lft.to/lastmile_qr_scan"}, "bike_id": "40686769d53f82b0303c3b5b6d6df2ab", "is_reserved": 0}, {"lat": 38.888145333333334, "fusion_lon": 0.0, "lon": -76.933442, "is_disabled": 0, "type": "electric_scooter", "name": "3bed52c260f53ec745b683f8b339e2b6", "fusion_lat": 0.0, "rental_uris": {"android": "https://dc.lft.to/lastmile_qr_scan", "ios": "https://dc.lft.to/lastmile_qr_scan"}, "bike_id": "3bed52c260f53ec745b683f8b339e2b6", "is_reserved": 0}, {"lat": 38.93088016666667, "fusion_lon": 0.0, "lon": -77.02790333333333, "is_disabled": 0, "type": "electric_scooter", "name": "b0b830304e101417ed4feeb72065545b", "fusion_lat": 0.0, "rental_uris": {"android": "https://dc.lft.to/lastmile_qr_scan", "ios": "https://dc.lft.to/lastmile_qr_scan"}, "bike_id": "b0b830304e101417ed4feeb72065545b", "is_reserved": 0}, {"lat": 38.8873585, "fusion_lon": 0.0, "lon": -77.02830116666667, "is_disabled": 0, "type": "electric_scooter", "name": "37cb7dc83bbbccc403564c288ebfb6f9", "fusion_lat": 0.0, "rental_uris": {"android": "https://dc.lft.to/lastmile_qr_scan", "ios": "https://dc.lft.to/lastmile_qr_scan"}, "bike_id": "37cb7dc83bbbccc403564c288ebfb6f9", "is_reserved": 0}, {"lat": 38.873079833333335, "fusion_lon": 0.0, "lon": -77.0059555, "is_disabled": 0, "type": "electric_scooter", "name": "d3545be931270c11244d14fc5ee0ff34", "fusion_lat": 0.0, "rental_uris": {"android": "https://dc.lft.to/lastmile_qr_scan", "ios": "https://dc.lft.to/lastmile_qr_scan"}, "bike_id": "d3545be931270c11244d14fc5ee0ff34", "is_reserved": 0}, {"lat": 38.90123483333333, "fusion_lon": 0.0, "lon": -77.01793, "is_disabled": 0, "type": "electric_scooter", "name": "a0b93b2f893a7101eee176945a99d590", "fusion_lat": 0.0, "rental_uris": {"android": "https://dc.lft.to/lastmile_qr_scan", "ios": "https://dc.lft.to/lastmile_qr_scan"}, "bike_id": "a0b93b2f893a7101eee176945a99d590", "is_reserved": 0}, {"lat": 38.91976533333333, "fusion_lon": 0.0, "lon": -77.021821, "is_disabled": 0, "type": "electric_scooter", "name": "8b8e2ab9572fa7515950c6b8934a2195", "fusion_lat": 0.0, "rental_uris": {"android": "https://dc.lft.to/lastmile_qr_scan", "ios": "https://dc.lft.to/lastmile_qr_scan"}, "bike_id": "8b8e2ab9572fa7515950c6b8934a2195", "is_reserved": 0}, {"lat": 38.88507533333333, "fusion_lon": 0.0, "lon": -76.99841516666666, "is_disabled": 0, "type": "electric_scooter", "name": "38a46a9b63c4e4bbd4e11873f26fa2b4", "fusion_lat": 0.0, "rental_uris": {"android": "https://dc.lft.to/lastmile_qr_scan", "ios": "https://dc.lft.to/lastmile_qr_scan"}, "bike_id": "38a46a9b63c4e4bbd4e11873f26fa2b4", "is_reserved": 0}, {"lat": 38.89239883333333, "fusion_lon": 0.0, "lon": -77.04164983333334, "is_disabled": 0, "type": "electric_scooter", "name": "bf9afd5b07931e49b9b8e744f53c3ab8", "fusion_lat": 0.0, "rental_uris": {"android": "https://dc.lft.to/lastmile_qr_scan", "ios": "https://dc.lft.to/lastmile_qr_scan"}, "bike_id": "bf9afd5b07931e49b9b8e744f53c3ab8", "is_reserved": 0}, {"lat": 38.888868333333335, "fusion_lon": 0.0, "lon": -77.01969783333334, "is_disabled": 0, "type": "electric_scooter", "name": "218b668683cbe7597618c3cccdc23cb6", "fusion_lat": 0.0, "rental_uris": {"android": "https://dc.lft.to/lastmile_qr_scan", "ios": "https://dc.lft.to/lastmile_qr_scan"}, "bike_id": "218b668683cbe7597618c3cccdc23cb6", "is_reserved": 0}, {"lat": 38.9064765, "fusion_lon": 0.0, "lon": -77.04874166666667, "is_disabled": 0, "type": "electric_scooter", "name": "b85af67d7ab09641bf3de51ea8af9e6e", "fusion_lat": 0.0, "rental_uris": {"android": "https://dc.lft.to/lastmile_qr_scan", "ios": "https://dc.lft.to/lastmile_qr_scan"}, "bike_id": "b85af67d7ab09641bf3de51ea8af9e6e", "is_reserved": 0}, {"lat": 38.9276085, "fusion_lon": 0.0, "lon": -77.02424616666667, "is_disabled": 0, "type": "electric_scooter", "name": "422f8cd489eaabab58c2331b7aecd344", "fusion_lat": 0.0, "rental_uris": {"android": "https://dc.lft.to/lastmile_qr_scan", "ios": "https://dc.lft.to/lastmile_qr_scan"}, "bike_id": "422f8cd489eaabab58c2331b7aecd344", "is_reserved": 0}, {"lat": 38.916691666666665, "fusion_lon": 0.0, "lon": -77.02967066666666, "is_disabled": 0, "type": "electric_scooter", "name": "4b33f972e31e57da54783ef1837a55f0", "fusion_lat": 0.0, "rental_uris": {"android": "https://dc.lft.to/lastmile_qr_scan", "ios": "https://dc.lft.to/lastmile_qr_scan"}, "bike_id": "4b33f972e31e57da54783ef1837a55f0", "is_reserved": 0}, {"lat": 38.8621135, "fusion_lon": 0.0, "lon": -76.99475883333334, "is_disabled": 0, "type": "electric_scooter", "name": "086b3ce442420e01e13e55ad47e36f3e", "fusion_lat": 0.0, "rental_uris": {"android": "https://dc.lft.to/lastmile_qr_scan", "ios": "https://dc.lft.to/lastmile_qr_scan"}, "bike_id": "086b3ce442420e01e13e55ad47e36f3e", "is_reserved": 0}, {"lat": 38.9252095, "fusion_lon": 0.0, "lon": -77.05046316666666, "is_disabled": 0, "type": "electric_scooter", "name": "e1fdbe83bd97b45ae74762ee2f9422cc", "fusion_lat": 0.0, "rental_uris": {"android": "https://dc.lft.to/lastmile_qr_scan", "ios": "https://dc.lft.to/lastmile_qr_scan"}, "bike_id": "e1fdbe83bd97b45ae74762ee2f9422cc", "is_reserved": 0}, {"lat": 38.92479483333334, "fusion_lon": 0.0, "lon": -77.022006, "is_disabled": 0, "type": "electric_scooter", "name": "a5d424c5cff0820548187541c78e0f28", "fusion_lat": 0.0, "rental_uris": {"android": "https://dc.lft.to/lastmile_qr_scan", "ios": "https://dc.lft.to/lastmile_qr_scan"}, "bike_id": "a5d424c5cff0820548187541c78e0f28", "is_reserved": 0}, {"lat": 38.89709, "fusion_lon": 0.0, "lon": -77.03080016666667, "is_disabled": 0, "type": "electric_scooter", "name": "1460757f62138dbbedfaf46d3f681a66", "fusion_lat": 0.0, "rental_uris": {"android": "https://dc.lft.to/lastmile_qr_scan", "ios": "https://dc.lft.to/lastmile_qr_scan"}, "bike_id": "1460757f62138dbbedfaf46d3f681a66", "is_reserved": 0}, {"lat": 38.92220983333333, "fusion_lon": 0.0, "lon": -77.04334583333333, "is_disabled": 0, "type": "electric_scooter", "name": "794e2ccfe83656740cd430ea5c57d113", "fusion_lat": 0.0, "rental_uris": {"android": "https://dc.lft.to/lastmile_qr_scan", "ios": "https://dc.lft.to/lastmile_qr_scan"}, "bike_id": "794e2ccfe83656740cd430ea5c57d113", "is_reserved": 0}, {"lat": 38.905081333333335, "fusion_lon": 0.0, "lon": -77.04655416666667, "is_disabled": 0, "type": "electric_scooter", "name": "6bb6ac7d2951060d990762a8b5621796", "fusion_lat": 0.0, "rental_uris": {"android": "https://dc.lft.to/lastmile_qr_scan", "ios": "https://dc.lft.to/lastmile_qr_scan"}, "bike_id": "6bb6ac7d2951060d990762a8b5621796", "is_reserved": 0}, {"lat": 38.9002805, "fusion_lon": 0.0, "lon": -76.98907983333334, "is_disabled": 0, "type": "electric_scooter", "name": "b3a9acffe2737555c3c11a71653e51dd", "fusion_lat": 0.0, "rental_uris": {"android": "https://dc.lft.to/lastmile_qr_scan", "ios": "https://dc.lft.to/lastmile_qr_scan"}, "bike_id": "b3a9acffe2737555c3c11a71653e51dd", "is_reserved": 0}, {"lat": 38.900844166666666, "fusion_lon": 0.0, "lon": -76.93868066666667, "is_disabled": 0, "type": "electric_scooter", "name": "b4acc073c204c1878425586ffaf0aa52", "fusion_lat": 0.0, "rental_uris": {"android": "https://dc.lft.to/lastmile_qr_scan", "ios": "https://dc.lft.to/lastmile_qr_scan"}, "bike_id": "b4acc073c204c1878425586ffaf0aa52", "is_reserved": 0}, {"lat": 38.919005166666665, "fusion_lon": 0.0, "lon": -76.98744833333333, "is_disabled": 0, "type": "electric_scooter", "name": "5fa5084e697254ba3a9125ef000ef9f3", "fusion_lat": 0.0, "rental_uris": {"android": "https://dc.lft.to/lastmile_qr_scan", "ios": "https://dc.lft.to/lastmile_qr_scan"}, "bike_id": "5fa5084e697254ba3a9125ef000ef9f3", "is_reserved": 0}, {"lat": 38.891879833333334, "fusion_lon": 0.0, "lon": -77.03636983333334, "is_disabled": 0, "type": "electric_scooter", "name": "c919b0c6ef9a92952e335b9fd24f0584", "fusion_lat": 0.0, "rental_uris": {"android": "https://dc.lft.to/lastmile_qr_scan", "ios": "https://dc.lft.to/lastmile_qr_scan"}, "bike_id": "c919b0c6ef9a92952e335b9fd24f0584", "is_reserved": 0}, {"lat": 38.91688333333333, "fusion_lon": 0.0, "lon": -77.023915, "is_disabled": 0, "type": "electric_scooter", "name": "783c575ec9289f5bae314ced17a19305", "fusion_lat": 0.0, "rental_uris": {"android": "https://dc.lft.to/lastmile_qr_scan", "ios": "https://dc.lft.to/lastmile_qr_scan"}, "bike_id": "783c575ec9289f5bae314ced17a19305", "is_reserved": 0}, {"lat": 38.88858883333333, "fusion_lon": 0.0, "lon": -77.0310845, "is_disabled": 0, "type": "electric_scooter", "name": "06bc3b28c6b2961bf7c168a68c88f180", "fusion_lat": 0.0, "rental_uris": {"android": "https://dc.lft.to/lastmile_qr_scan", "ios": "https://dc.lft.to/lastmile_qr_scan"}, "bike_id": "06bc3b28c6b2961bf7c168a68c88f180", "is_reserved": 0}, {"lat": 38.936247333333334, "fusion_lon": 0.0, "lon": -77.08167616666667, "is_disabled": 0, "type": "electric_scooter", "name": "90e3f0c2739f6033d97276d3085edd46", "fusion_lat": 0.0, "rental_uris": {"android": "https://dc.lft.to/lastmile_qr_scan", "ios": "https://dc.lft.to/lastmile_qr_scan"}, "bike_id": "90e3f0c2739f6033d97276d3085edd46", "is_reserved": 0}, {"lat": 38.99621416666667, "fusion_lon": 0.0, "lon": -77.0398405, "is_disabled": 0, "type": "electric_bike", "name": "09b2f9e9510f7f2cbab0fb01b79ff7b5", "fusion_lat": 0.0, "rental_uris": {"android": "https://dc.lft.to/lastmile_qr_scan", "ios": "https://dc.lft.to/lastmile_qr_scan"}, "bike_id": "09b2f9e9510f7f2cbab0fb01b79ff7b5", "is_reserved": 0}, {"lat": 38.897344, "fusion_lon": 0.0, "lon": -76.94736333333333, "is_disabled": 0, "type": "electric_scooter", "name": "5603a19649158784e3d7892a96711e9c", "fusion_lat": 0.0, "rental_uris": {"android": "https://dc.lft.to/lastmile_qr_scan", "ios": "https://dc.lft.to/lastmile_qr_scan"}, "bike_id": "5603a19649158784e3d7892a96711e9c", "is_reserved": 0}, {"lat": 38.927144166666665, "fusion_lon": 0.0, "lon": -77.02285516666667, "is_disabled": 0, "type": "electric_scooter", "name": "bf118f60dc4b0a014f24c4cc6d2cb25b", "fusion_lat": 0.0, "rental_uris": {"android": "https://dc.lft.to/lastmile_qr_scan", "ios": "https://dc.lft.to/lastmile_qr_scan"}, "bike_id": "bf118f60dc4b0a014f24c4cc6d2cb25b", "is_reserved": 0}, {"lat": 38.911037, "fusion_lon": 0.0, "lon": -77.046741, "is_disabled": 0, "type": "electric_scooter", "name": "d0b34509a775091858b47023580960ed", "fusion_lat": 0.0, "rental_uris": {"android": "https://dc.lft.to/lastmile_qr_scan", "ios": "https://dc.lft.to/lastmile_qr_scan"}, "bike_id": "d0b34509a775091858b47023580960ed", "is_reserved": 0}, {"lat": 38.949589833333334, "fusion_lon": 0.0, "lon": -77.02723183333333, "is_disabled": 0, "type": "electric_scooter", "name": "f47f2bd666e58e3949826ad289e94b20", "fusion_lat": 0.0, "rental_uris": {"android": "https://dc.lft.to/lastmile_qr_scan", "ios": "https://dc.lft.to/lastmile_qr_scan"}, "bike_id": "f47f2bd666e58e3949826ad289e94b20", "is_reserved": 0}, {"lat": 38.907286666666664, "fusion_lon": 0.0, "lon": -77.074246, "is_disabled": 0, "type": "electric_scooter", "name": "8c97d82d6e8ebd5b164ca303acb6d7f0", "fusion_lat": 0.0, "rental_uris": {"android": "https://dc.lft.to/lastmile_qr_scan", "ios": "https://dc.lft.to/lastmile_qr_scan"}, "bike_id": "8c97d82d6e8ebd5b164ca303acb6d7f0", "is_reserved": 0}, {"lat": 38.913262833333334, "fusion_lon": 0.0, "lon": -77.01514666666667, "is_disabled": 0, "type": "electric_scooter", "name": "92715ff07d533d71163f0ab492561042", "fusion_lat": 0.0, "rental_uris": {"android": "https://dc.lft.to/lastmile_qr_scan", "ios": "https://dc.lft.to/lastmile_qr_scan"}, "bike_id": "92715ff07d533d71163f0ab492561042", "is_reserved": 0}, {"lat": 38.913849166666665, "fusion_lon": 0.0, "lon": -77.08928583333334, "is_disabled": 0, "type": "electric_bike", "name": "f0d5cbab38af107bb57eee4e18f40018", "fusion_lat": 0.0, "rental_uris": {"android": "https://dc.lft.to/lastmile_qr_scan", "ios": "https://dc.lft.to/lastmile_qr_scan"}, "bike_id": "f0d5cbab38af107bb57eee4e18f40018", "is_reserved": 0}, {"lat": 38.938934, "fusion_lon": 0.0, "lon": -77.03328566666667, "is_disabled": 0, "type": "electric_scooter", "name": "e9a5526d39d2d5b3955e8718790932d2", "fusion_lat": 0.0, "rental_uris": {"android": "https://dc.lft.to/lastmile_qr_scan", "ios": "https://dc.lft.to/lastmile_qr_scan"}, "bike_id": "e9a5526d39d2d5b3955e8718790932d2", "is_reserved": 0}, {"lat": 38.9171625, "fusion_lon": 0.0, "lon": -77.03660583333334, "is_disabled": 0, "type": "electric_scooter", "name": "5cb080cd8041ccb1cfcf32b2a3f6cd21", "fusion_lat": 0.0, "rental_uris": {"android": "https://dc.lft.to/lastmile_qr_scan", "ios": "https://dc.lft.to/lastmile_qr_scan"}, "bike_id": "5cb080cd8041ccb1cfcf32b2a3f6cd21", "is_reserved": 0}, {"lat": 38.90737433333334, "fusion_lon": 0.0, "lon": -77.04215383333333, "is_disabled": 0, "type": "electric_scooter", "name": "d4b1874a073032da65af8a9f6b150c7d", "fusion_lat": 0.0, "rental_uris": {"android": "https://dc.lft.to/lastmile_qr_scan", "ios": "https://dc.lft.to/lastmile_qr_scan"}, "bike_id": "d4b1874a073032da65af8a9f6b150c7d", "is_reserved": 0}, {"lat": 38.948389166666665, "fusion_lon": 0.0, "lon": -77.02543766666666, "is_disabled": 0, "type": "electric_scooter", "name": "0fe09654b71635313912995c8dd7959a", "fusion_lat": 0.0, "rental_uris": {"android": "https://dc.lft.to/lastmile_qr_scan", "ios": "https://dc.lft.to/lastmile_qr_scan"}, "bike_id": "0fe09654b71635313912995c8dd7959a", "is_reserved": 0}, {"lat": 38.9087485, "fusion_lon": 0.0, "lon": -77.071738, "is_disabled": 0, "type": "electric_scooter", "name": "9fe2f588885f54d8fa04c0ff7e703478", "fusion_lat": 0.0, "rental_uris": {"android": "https://dc.lft.to/lastmile_qr_scan", "ios": "https://dc.lft.to/lastmile_qr_scan"}, "bike_id": "9fe2f588885f54d8fa04c0ff7e703478", "is_reserved": 0}, {"lat": 38.87989133333333, "fusion_lon": 0.0, "lon": -77.01374833333334, "is_disabled": 0, "type": "electric_scooter", "name": "1c0c368291191e894e9989557f5158f6", "fusion_lat": 0.0, "rental_uris": {"android": "https://dc.lft.to/lastmile_qr_scan", "ios": "https://dc.lft.to/lastmile_qr_scan"}, "bike_id": "1c0c368291191e894e9989557f5158f6", "is_reserved": 0}, {"lat": 38.893543, "fusion_lon": 0.0, "lon": -77.00334033333333, "is_disabled": 0, "type": "electric_scooter", "name": "761fbbb91942634beac8b4c52c117250", "fusion_lat": 0.0, "rental_uris": {"android": "https://dc.lft.to/lastmile_qr_scan", "ios": "https://dc.lft.to/lastmile_qr_scan"}, "bike_id": "761fbbb91942634beac8b4c52c117250", "is_reserved": 0}, {"lat": 38.91881566666667, "fusion_lon": 0.0, "lon": -77.02953466666666, "is_disabled": 0, "type": "electric_scooter", "name": "2d01cce1605c28ec8417b262922e4f92", "fusion_lat": 0.0, "rental_uris": {"android": "https://dc.lft.to/lastmile_qr_scan", "ios": "https://dc.lft.to/lastmile_qr_scan"}, "bike_id": "2d01cce1605c28ec8417b262922e4f92", "is_reserved": 0}, {"lat": 38.967175, "fusion_lon": 0.0, "lon": -77.01865366666667, "is_disabled": 0, "type": "electric_scooter", "name": "283306b9e592ce5b9d335415d6e9503e", "fusion_lat": 0.0, "rental_uris": {"android": "https://dc.lft.to/lastmile_qr_scan", "ios": "https://dc.lft.to/lastmile_qr_scan"}, "bike_id": "283306b9e592ce5b9d335415d6e9503e", "is_reserved": 0}, {"lat": 38.906473166666665, "fusion_lon": 0.0, "lon": -77.04809666666667, "is_disabled": 0, "type": "electric_scooter", "name": "eefe72bb0d7e298f93a458f17a998e6c", "fusion_lat": 0.0, "rental_uris": {"android": "https://dc.lft.to/lastmile_qr_scan", "ios": "https://dc.lft.to/lastmile_qr_scan"}, "bike_id": "eefe72bb0d7e298f93a458f17a998e6c", "is_reserved": 0}, {"lat": 38.937396, "fusion_lon": 0.0, "lon": -77.0361815, "is_disabled": 0, "type": "electric_scooter", "name": "ac54abaedeec0af47eb3823466d2e998", "fusion_lat": 0.0, "rental_uris": {"android": "https://dc.lft.to/lastmile_qr_scan", "ios": "https://dc.lft.to/lastmile_qr_scan"}, "bike_id": "ac54abaedeec0af47eb3823466d2e998", "is_reserved": 0}, {"lat": 38.878735666666664, "fusion_lon": 0.0, "lon": -76.990184, "is_disabled": 0, "type": "electric_bike", "name": "a6f21f3bed2c1aa146913e1a9b4febed", "fusion_lat": 0.0, "rental_uris": {"android": "https://dc.lft.to/lastmile_qr_scan", "ios": "https://dc.lft.to/lastmile_qr_scan"}, "bike_id": "a6f21f3bed2c1aa146913e1a9b4febed", "is_reserved": 0}, {"lat": 38.892484333333336, "fusion_lon": 0.0, "lon": -77.0171955, "is_disabled": 0, "type": "electric_scooter", "name": "a04b2173c99fdf6484f9b90c1f65152e", "fusion_lat": 0.0, "rental_uris": {"android": "https://dc.lft.to/lastmile_qr_scan", "ios": "https://dc.lft.to/lastmile_qr_scan"}, "bike_id": "a04b2173c99fdf6484f9b90c1f65152e", "is_reserved": 0}, {"lat": 38.915547, "fusion_lon": 0.0, "lon": -77.04186866666667, "is_disabled": 0, "type": "electric_scooter", "name": "ad1d4b8bcc0bbf1ce3521ae9b2cdf975", "fusion_lat": 0.0, "rental_uris": {"android": "https://dc.lft.to/lastmile_qr_scan", "ios": "https://dc.lft.to/lastmile_qr_scan"}, "bike_id": "ad1d4b8bcc0bbf1ce3521ae9b2cdf975", "is_reserved": 0}, {"lat": 38.916646166666666, "fusion_lon": 0.0, "lon": -77.04383833333333, "is_disabled": 0, "type": "electric_scooter", "name": "881febdf708717817407d190a0b7a334", "fusion_lat": 0.0, "rental_uris": {"android": "https://dc.lft.to/lastmile_qr_scan", "ios": "https://dc.lft.to/lastmile_qr_scan"}, "bike_id": "881febdf708717817407d190a0b7a334", "is_reserved": 0}, {"lat": 39.04235366666666, "fusion_lon": 0.0, "lon": -77.030782, "is_disabled": 0, "type": "electric_bike", "name": "9d81da3584ce4fbd389f348f752b121c", "fusion_lat": 0.0, "rental_uris": {"android": "https://dc.lft.to/lastmile_qr_scan", "ios": "https://dc.lft.to/lastmile_qr_scan"}, "bike_id": "9d81da3584ce4fbd389f348f752b121c", "is_reserved": 0}, {"lat": 38.9583635, "fusion_lon": 0.0, "lon": -77.015125, "is_disabled": 0, "type": "electric_scooter", "name": "2c135013bbb37c64ed1cdcf8f5385742", "fusion_lat": 0.0, "rental_uris": {"android": "https://dc.lft.to/lastmile_qr_scan", "ios": "https://dc.lft.to/lastmile_qr_scan"}, "bike_id": "2c135013bbb37c64ed1cdcf8f5385742", "is_reserved": 0}, {"lat": 38.928703, "fusion_lon": 0.0, "lon": -77.03277433333334, "is_disabled": 0, "type": "electric_scooter", "name": "8b94c593c1223a040398c419a643a742", "fusion_lat": 0.0, "rental_uris": {"android": "https://dc.lft.to/lastmile_qr_scan", "ios": "https://dc.lft.to/lastmile_qr_scan"}, "bike_id": "8b94c593c1223a040398c419a643a742", "is_reserved": 0}, {"lat": 38.8764655, "fusion_lon": 0.0, "lon": -76.9650325, "is_disabled": 0, "type": "electric_scooter", "name": "4737661a8305df5c641b256ed2c8234b", "fusion_lat": 0.0, "rental_uris": {"android": "https://dc.lft.to/lastmile_qr_scan", "ios": "https://dc.lft.to/lastmile_qr_scan"}, "bike_id": "4737661a8305df5c641b256ed2c8234b", "is_reserved": 0}, {"lat": 38.916686166666665, "fusion_lon": 0.0, "lon": -77.0296265, "is_disabled": 0, "type": "electric_scooter", "name": "1bfa098ff4b8e81d5ea6e8e2d2786b38", "fusion_lat": 0.0, "rental_uris": {"android": "https://dc.lft.to/lastmile_qr_scan", "ios": "https://dc.lft.to/lastmile_qr_scan"}, "bike_id": "1bfa098ff4b8e81d5ea6e8e2d2786b38", "is_reserved": 0}, {"lat": 38.9097385, "fusion_lon": 0.0, "lon": -77.02080183333334, "is_disabled": 0, "type": "electric_scooter", "name": "f03d44028e7dec6ffe780ae5cbd3c682", "fusion_lat": 0.0, "rental_uris": {"android": "https://dc.lft.to/lastmile_qr_scan", "ios": "https://dc.lft.to/lastmile_qr_scan"}, "bike_id": "f03d44028e7dec6ffe780ae5cbd3c682", "is_reserved": 0}, {"lat": 38.95504183333333, "fusion_lon": 0.0, "lon": -76.99357333333333, "is_disabled": 0, "type": "electric_bike", "name": "cb6b80df484026ce45d12e80a1b92203", "fusion_lat": 0.0, "rental_uris": {"android": "https://dc.lft.to/lastmile_qr_scan", "ios": "https://dc.lft.to/lastmile_qr_scan"}, "bike_id": "cb6b80df484026ce45d12e80a1b92203", "is_reserved": 0}, {"lat": 38.892220333333334, "fusion_lon": 0.0, "lon": -77.0431135, "is_disabled": 0, "type": "electric_scooter", "name": "0cac908ca02131a1394555daf16b5924", "fusion_lat": 0.0, "rental_uris": {"android": "https://dc.lft.to/lastmile_qr_scan", "ios": "https://dc.lft.to/lastmile_qr_scan"}, "bike_id": "0cac908ca02131a1394555daf16b5924", "is_reserved": 0}, {"lat": 38.925459000000004, "fusion_lon": 0.0, "lon": -77.03852133333334, "is_disabled": 0, "type": "electric_scooter", "name": "081c1cbd1031e4b96d106a560324a715", "fusion_lat": 0.0, "rental_uris": {"android": "https://dc.lft.to/lastmile_qr_scan", "ios": "https://dc.lft.to/lastmile_qr_scan"}, "bike_id": "081c1cbd1031e4b96d106a560324a715", "is_reserved": 0}, {"lat": 38.9248925, "fusion_lon": 0.0, "lon": -77.02694216666667, "is_disabled": 0, "type": "electric_scooter", "name": "ef4a82ad59abd14378bd193bd15281d1", "fusion_lat": 0.0, "rental_uris": {"android": "https://dc.lft.to/lastmile_qr_scan", "ios": "https://dc.lft.to/lastmile_qr_scan"}, "bike_id": "ef4a82ad59abd14378bd193bd15281d1", "is_reserved": 0}, {"lat": 38.887486333333335, "fusion_lon": 0.0, "lon": -77.01724183333333, "is_disabled": 0, "type": "electric_scooter", "name": "5d4045fd52b8a2e93ab13041ed23d43f", "fusion_lat": 0.0, "rental_uris": {"android": "https://dc.lft.to/lastmile_qr_scan", "ios": "https://dc.lft.to/lastmile_qr_scan"}, "bike_id": "5d4045fd52b8a2e93ab13041ed23d43f", "is_reserved": 0}, {"lat": 38.920661333333335, "fusion_lon": 0.0, "lon": -77.028342, "is_disabled": 0, "type": "electric_scooter", "name": "04ef3e9a5b1a863e13e3e5cf2419f706", "fusion_lat": 0.0, "rental_uris": {"android": "https://dc.lft.to/lastmile_qr_scan", "ios": "https://dc.lft.to/lastmile_qr_scan"}, "bike_id": "04ef3e9a5b1a863e13e3e5cf2419f706", "is_reserved": 0}, {"lat": 38.897473833333336, "fusion_lon": 0.0, "lon": -77.01360716666667, "is_disabled": 0, "type": "electric_scooter", "name": "c3a06ffb33d272f11e9e872592752f0d", "fusion_lat": 0.0, "rental_uris": {"android": "https://dc.lft.to/lastmile_qr_scan", "ios": "https://dc.lft.to/lastmile_qr_scan"}, "bike_id": "c3a06ffb33d272f11e9e872592752f0d", "is_reserved": 0}, {"lat": 38.94207883333333, "fusion_lon": 0.0, "lon": -77.02513216666667, "is_disabled": 0, "type": "electric_scooter", "name": "df0554fbe10c3ab5b9ba8f1214ce0576", "fusion_lat": 0.0, "rental_uris": {"android": "https://dc.lft.to/lastmile_qr_scan", "ios": "https://dc.lft.to/lastmile_qr_scan"}, "bike_id": "df0554fbe10c3ab5b9ba8f1214ce0576", "is_reserved": 0}, {"lat": 38.93097816666667, "fusion_lon": 0.0, "lon": -77.02798666666666, "is_disabled": 0, "type": "electric_scooter", "name": "319ec82779eb791b1c19abfc3206f1b8", "fusion_lat": 0.0, "rental_uris": {"android": "https://dc.lft.to/lastmile_qr_scan", "ios": "https://dc.lft.to/lastmile_qr_scan"}, "bike_id": "319ec82779eb791b1c19abfc3206f1b8", "is_reserved": 0}, {"lat": 38.914532333333334, "fusion_lon": 0.0, "lon": -77.02038983333334, "is_disabled": 0, "type": "electric_scooter", "name": "b49a3889822d9bf3a002d32e7c12587d", "fusion_lat": 0.0, "rental_uris": {"android": "https://dc.lft.to/lastmile_qr_scan", "ios": "https://dc.lft.to/lastmile_qr_scan"}, "bike_id": "b49a3889822d9bf3a002d32e7c12587d", "is_reserved": 0}, {"lat": 38.9395615, "fusion_lon": 0.0, "lon": -77.07248083333333, "is_disabled": 0, "type": "electric_scooter", "name": "fe19ab810655a384103684bf2107532b", "fusion_lat": 0.0, "rental_uris": {"android": "https://dc.lft.to/lastmile_qr_scan", "ios": "https://dc.lft.to/lastmile_qr_scan"}, "bike_id": "fe19ab810655a384103684bf2107532b", "is_reserved": 0}, {"lat": 38.9391955, "fusion_lon": 0.0, "lon": -77.02471616666666, "is_disabled": 0, "type": "electric_scooter", "name": "a7da7d1933c51ecf50ea30652758f67d", "fusion_lat": 0.0, "rental_uris": {"android": "https://dc.lft.to/lastmile_qr_scan", "ios": "https://dc.lft.to/lastmile_qr_scan"}, "bike_id": "a7da7d1933c51ecf50ea30652758f67d", "is_reserved": 0}, {"lat": 38.9386115, "fusion_lon": 0.0, "lon": -77.02649333333333, "is_disabled": 0, "type": "electric_scooter", "name": "1aefa132d54c27aa78d5a5e05327176b", "fusion_lat": 0.0, "rental_uris": {"android": "https://dc.lft.to/lastmile_qr_scan", "ios": "https://dc.lft.to/lastmile_qr_scan"}, "bike_id": "1aefa132d54c27aa78d5a5e05327176b", "is_reserved": 0}, {"lat": 38.9126575, "fusion_lon": 0.0, "lon": -77.03121716666666, "is_disabled": 0, "type": "electric_scooter", "name": "c490ceeffcbe171e14d5b1c5dfda9cac", "fusion_lat": 0.0, "rental_uris": {"android": "https://dc.lft.to/lastmile_qr_scan", "ios": "https://dc.lft.to/lastmile_qr_scan"}, "bike_id": "c490ceeffcbe171e14d5b1c5dfda9cac", "is_reserved": 0}, {"lat": 38.86505783333333, "fusion_lon": 0.0, "lon": -76.99001716666666, "is_disabled": 0, "type": "electric_scooter", "name": "cba2e994c90f76cbe497a8aeac16ef4a", "fusion_lat": 0.0, "rental_uris": {"android": "https://dc.lft.to/lastmile_qr_scan", "ios": "https://dc.lft.to/lastmile_qr_scan"}, "bike_id": "cba2e994c90f76cbe497a8aeac16ef4a", "is_reserved": 0}, {"lat": 38.892212666666666, "fusion_lon": 0.0, "lon": -77.04375533333334, "is_disabled": 0, "type": "electric_scooter", "name": "93edba5cfa7dca788e67daa288239467", "fusion_lat": 0.0, "rental_uris": {"android": "https://dc.lft.to/lastmile_qr_scan", "ios": "https://dc.lft.to/lastmile_qr_scan"}, "bike_id": "93edba5cfa7dca788e67daa288239467", "is_reserved": 0}, {"lat": 38.9177195, "fusion_lon": 0.0, "lon": -77.04767133333333, "is_disabled": 0, "type": "electric_scooter", "name": "e06788d3ec2db03438ed8e3f5e49aa99", "fusion_lat": 0.0, "rental_uris": {"android": "https://dc.lft.to/lastmile_qr_scan", "ios": "https://dc.lft.to/lastmile_qr_scan"}, "bike_id": "e06788d3ec2db03438ed8e3f5e49aa99", "is_reserved": 0}, {"lat": 38.9354035, "fusion_lon": 0.0, "lon": -77.02345633333333, "is_disabled": 0, "type": "electric_scooter", "name": "dd19f3e630edbd7f52ac575435708277", "fusion_lat": 0.0, "rental_uris": {"android": "https://dc.lft.to/lastmile_qr_scan", "ios": "https://dc.lft.to/lastmile_qr_scan"}, "bike_id": "dd19f3e630edbd7f52ac575435708277", "is_reserved": 0}, {"lat": 38.9113545, "fusion_lon": 0.0, "lon": -77.03205983333334, "is_disabled": 0, "type": "electric_scooter", "name": "8bb3361c53a19293ebf346a42c7fd6a5", "fusion_lat": 0.0, "rental_uris": {"android": "https://dc.lft.to/lastmile_qr_scan", "ios": "https://dc.lft.to/lastmile_qr_scan"}, "bike_id": "8bb3361c53a19293ebf346a42c7fd6a5", "is_reserved": 0}, {"lat": 38.929112, "fusion_lon": 0.0, "lon": -77.03749283333333, "is_disabled": 0, "type": "electric_scooter", "name": "34786462f35f74e4cdc19928a199fee1", "fusion_lat": 0.0, "rental_uris": {"android": "https://dc.lft.to/lastmile_qr_scan", "ios": "https://dc.lft.to/lastmile_qr_scan"}, "bike_id": "34786462f35f74e4cdc19928a199fee1", "is_reserved": 0}, {"lat": 38.912715666666664, "fusion_lon": 0.0, "lon": -77.01845983333334, "is_disabled": 0, "type": "electric_scooter", "name": "e9d6ec319c535563d79123db8a890937", "fusion_lat": 0.0, "rental_uris": {"android": "https://dc.lft.to/lastmile_qr_scan", "ios": "https://dc.lft.to/lastmile_qr_scan"}, "bike_id": "e9d6ec319c535563d79123db8a890937", "is_reserved": 0}, {"lat": 38.94202716666667, "fusion_lon": 0.0, "lon": -77.02503266666666, "is_disabled": 0, "type": "electric_scooter", "name": "6fc1e4071467d1f67dd4c62761da3d2b", "fusion_lat": 0.0, "rental_uris": {"android": "https://dc.lft.to/lastmile_qr_scan", "ios": "https://dc.lft.to/lastmile_qr_scan"}, "bike_id": "6fc1e4071467d1f67dd4c62761da3d2b", "is_reserved": 0}, {"lat": 38.865224, "fusion_lon": 0.0, "lon": -76.97331983333333, "is_disabled": 0, "type": "electric_bike", "name": "5d1188d3b746a17bdebf4bab780053d5", "fusion_lat": 0.0, "rental_uris": {"android": "https://dc.lft.to/lastmile_qr_scan", "ios": "https://dc.lft.to/lastmile_qr_scan"}, "bike_id": "5d1188d3b746a17bdebf4bab780053d5", "is_reserved": 0}, {"lat": 38.91994833333333, "fusion_lon": 0.0, "lon": -77.03243816666667, "is_disabled": 0, "type": "electric_scooter", "name": "b886e1f298d2c8e9a6e5000f6bc8fcdb", "fusion_lat": 0.0, "rental_uris": {"android": "https://dc.lft.to/lastmile_qr_scan", "ios": "https://dc.lft.to/lastmile_qr_scan"}, "bike_id": "b886e1f298d2c8e9a6e5000f6bc8fcdb", "is_reserved": 0}, {"lat": 38.8658455, "fusion_lon": 0.0, "lon": -77.04760166666667, "is_disabled": 0, "type": "electric_bike", "name": "535de2c532e8b1b966f5a64490a36eaa", "fusion_lat": 0.0, "rental_uris": {"android": "https://dc.lft.to/lastmile_qr_scan", "ios": "https://dc.lft.to/lastmile_qr_scan"}, "bike_id": "535de2c532e8b1b966f5a64490a36eaa", "is_reserved": 0}, {"lat": 38.88747466666667, "fusion_lon": 0.0, "lon": -77.0273415, "is_disabled": 0, "type": "electric_scooter", "name": "7c0692194d780f7fa7145a1ccd4a2777", "fusion_lat": 0.0, "rental_uris": {"android": "https://dc.lft.to/lastmile_qr_scan", "ios": "https://dc.lft.to/lastmile_qr_scan"}, "bike_id": "7c0692194d780f7fa7145a1ccd4a2777", "is_reserved": 0}, {"lat": 38.918763166666665, "fusion_lon": 0.0, "lon": -77.04198866666667, "is_disabled": 0, "type": "electric_scooter", "name": "dc380ddb7af3ac1c4c746bc04442a61c", "fusion_lat": 0.0, "rental_uris": {"android": "https://dc.lft.to/lastmile_qr_scan", "ios": "https://dc.lft.to/lastmile_qr_scan"}, "bike_id": "dc380ddb7af3ac1c4c746bc04442a61c", "is_reserved": 0}, {"lat": 38.92097916666667, "fusion_lon": 0.0, "lon": -77.04392116666666, "is_disabled": 0, "type": "electric_scooter", "name": "e75fe39ff5f288de52357ea7c1e7ec22", "fusion_lat": 0.0, "rental_uris": {"android": "https://dc.lft.to/lastmile_qr_scan", "ios": "https://dc.lft.to/lastmile_qr_scan"}, "bike_id": "e75fe39ff5f288de52357ea7c1e7ec22", "is_reserved": 0}, {"lat": 38.915415, "fusion_lon": 0.0, "lon": -77.032097, "is_disabled": 0, "type": "electric_scooter", "name": "204555855ab4821ce786295bca3984bf", "fusion_lat": 0.0, "rental_uris": {"android": "https://dc.lft.to/lastmile_qr_scan", "ios": "https://dc.lft.to/lastmile_qr_scan"}, "bike_id": "204555855ab4821ce786295bca3984bf", "is_reserved": 0}, {"lat": 38.9509155, "fusion_lon": 0.0, "lon": -77.0231985, "is_disabled": 0, "type": "electric_scooter", "name": "f559ad2ead8051bdf90eb94dd645caba", "fusion_lat": 0.0, "rental_uris": {"android": "https://dc.lft.to/lastmile_qr_scan", "ios": "https://dc.lft.to/lastmile_qr_scan"}, "bike_id": "f559ad2ead8051bdf90eb94dd645caba", "is_reserved": 0}, {"lat": 38.892209333333334, "fusion_lon": 0.0, "lon": -77.0262965, "is_disabled": 0, "type": "electric_scooter", "name": "21d249253236bb59e3045a7f67353e4e", "fusion_lat": 0.0, "rental_uris": {"android": "https://dc.lft.to/lastmile_qr_scan", "ios": "https://dc.lft.to/lastmile_qr_scan"}, "bike_id": "21d249253236bb59e3045a7f67353e4e", "is_reserved": 0}, {"lat": 38.90722133333333, "fusion_lon": 0.0, "lon": -77.05129366666667, "is_disabled": 0, "type": "electric_bike", "name": "60068ff9db77d5989f91fae7d4900a00", "fusion_lat": 0.0, "rental_uris": {"android": "https://dc.lft.to/lastmile_qr_scan", "ios": "https://dc.lft.to/lastmile_qr_scan"}, "bike_id": "60068ff9db77d5989f91fae7d4900a00", "is_reserved": 0}, {"lat": 38.862359166666664, "fusion_lon": 0.0, "lon": -76.99487333333333, "is_disabled": 0, "type": "electric_scooter", "name": "5d5d4ff818a3b308401b028e6a3e3a7b", "fusion_lat": 0.0, "rental_uris": {"android": "https://dc.lft.to/lastmile_qr_scan", "ios": "https://dc.lft.to/lastmile_qr_scan"}, "bike_id": "5d5d4ff818a3b308401b028e6a3e3a7b", "is_reserved": 0}, {"lat": 38.93437733333333, "fusion_lon": 0.0, "lon": -76.99882016666666, "is_disabled": 0, "type": "electric_scooter", "name": "f5d05272833af1165adb2da667ae1a19", "fusion_lat": 0.0, "rental_uris": {"android": "https://dc.lft.to/lastmile_qr_scan", "ios": "https://dc.lft.to/lastmile_qr_scan"}, "bike_id": "f5d05272833af1165adb2da667ae1a19", "is_reserved": 0}, {"lat": 38.900725333333334, "fusion_lon": 0.0, "lon": -77.04881533333334, "is_disabled": 0, "type": "electric_scooter", "name": "c637dbcb70c1863a409f6a5066c4eb09", "fusion_lat": 0.0, "rental_uris": {"android": "https://dc.lft.to/lastmile_qr_scan", "ios": "https://dc.lft.to/lastmile_qr_scan"}, "bike_id": "c637dbcb70c1863a409f6a5066c4eb09", "is_reserved": 0}, {"lat": 38.913683, "fusion_lon": 0.0, "lon": -77.04556233333334, "is_disabled": 0, "type": "electric_scooter", "name": "fb27f657ce8f81384b260c0112d499e8", "fusion_lat": 0.0, "rental_uris": {"android": "https://dc.lft.to/lastmile_qr_scan", "ios": "https://dc.lft.to/lastmile_qr_scan"}, "bike_id": "fb27f657ce8f81384b260c0112d499e8", "is_reserved": 0}, {"lat": 38.86475083333333, "fusion_lon": 0.0, "lon": -76.98234383333333, "is_disabled": 0, "type": "electric_scooter", "name": "4345ab7a5830d6561850c5ac0e9d5aa3", "fusion_lat": 0.0, "rental_uris": {"android": "https://dc.lft.to/lastmile_qr_scan", "ios": "https://dc.lft.to/lastmile_qr_scan"}, "bike_id": "4345ab7a5830d6561850c5ac0e9d5aa3", "is_reserved": 0}, {"lat": 38.91932, "fusion_lon": 0.0, "lon": -77.03428916666667, "is_disabled": 0, "type": "electric_scooter", "name": "c877e5cf82dd5d87b0bc74e21d764302", "fusion_lat": 0.0, "rental_uris": {"android": "https://dc.lft.to/lastmile_qr_scan", "ios": "https://dc.lft.to/lastmile_qr_scan"}, "bike_id": "c877e5cf82dd5d87b0bc74e21d764302", "is_reserved": 0}, {"lat": 38.88609233333333, "fusion_lon": 0.0, "lon": -77.00137433333333, "is_disabled": 0, "type": "electric_scooter", "name": "cb8d95766399ee32b62e328df60ca6fe", "fusion_lat": 0.0, "rental_uris": {"android": "https://dc.lft.to/lastmile_qr_scan", "ios": "https://dc.lft.to/lastmile_qr_scan"}, "bike_id": "cb8d95766399ee32b62e328df60ca6fe", "is_reserved": 0}, {"lat": 38.8871705, "fusion_lon": 0.0, "lon": -77.022075, "is_disabled": 0, "type": "electric_scooter", "name": "604b7e713b66e139ba4db8709ff71b05", "fusion_lat": 0.0, "rental_uris": {"android": "https://dc.lft.to/lastmile_qr_scan", "ios": "https://dc.lft.to/lastmile_qr_scan"}, "bike_id": "604b7e713b66e139ba4db8709ff71b05", "is_reserved": 0}, {"lat": 38.956163833333335, "fusion_lon": 0.0, "lon": -77.02779516666666, "is_disabled": 0, "type": "electric_scooter", "name": "c92222ac9022c6e6b6ec628717a25275", "fusion_lat": 0.0, "rental_uris": {"android": "https://dc.lft.to/lastmile_qr_scan", "ios": "https://dc.lft.to/lastmile_qr_scan"}, "bike_id": "c92222ac9022c6e6b6ec628717a25275", "is_reserved": 0}, {"lat": 38.85937583333333, "fusion_lon": 0.0, "lon": -77.118288, "is_disabled": 0, "type": "electric_bike", "name": "2edb906e5b01269144aab091481276c7", "fusion_lat": 0.0, "rental_uris": {"android": "https://dc.lft.to/lastmile_qr_scan", "ios": "https://dc.lft.to/lastmile_qr_scan"}, "bike_id": "2edb906e5b01269144aab091481276c7", "is_reserved": 0}, {"lat": 38.89889516666667, "fusion_lon": 0.0, "lon": -77.03269433333334, "is_disabled": 0, "type": "electric_scooter", "name": "f3bf77d9efa8c91828113a512fe99ad9", "fusion_lat": 0.0, "rental_uris": {"android": "https://dc.lft.to/lastmile_qr_scan", "ios": "https://dc.lft.to/lastmile_qr_scan"}, "bike_id": "f3bf77d9efa8c91828113a512fe99ad9", "is_reserved": 0}, {"lat": 38.93708933333333, "fusion_lon": 0.0, "lon": -77.02943083333334, "is_disabled": 0, "type": "electric_scooter", "name": "5f9ace2ec4de72e50fee0ce3bfcd4826", "fusion_lat": 0.0, "rental_uris": {"android": "https://dc.lft.to/lastmile_qr_scan", "ios": "https://dc.lft.to/lastmile_qr_scan"}, "bike_id": "5f9ace2ec4de72e50fee0ce3bfcd4826", "is_reserved": 0}, {"lat": 38.922239833333336, "fusion_lon": 0.0, "lon": -77.04332766666667, "is_disabled": 0, "type": "electric_scooter", "name": "5a0d024e6c2b21c9736acb4c9b96ecee", "fusion_lat": 0.0, "rental_uris": {"android": "https://dc.lft.to/lastmile_qr_scan", "ios": "https://dc.lft.to/lastmile_qr_scan"}, "bike_id": "5a0d024e6c2b21c9736acb4c9b96ecee", "is_reserved": 0}, {"lat": 38.917185833333335, "fusion_lon": 0.0, "lon": -77.0289165, "is_disabled": 0, "type": "electric_scooter", "name": "e9c90ce6b6bd54e31a6650ab09b04e0b", "fusion_lat": 0.0, "rental_uris": {"android": "https://dc.lft.to/lastmile_qr_scan", "ios": "https://dc.lft.to/lastmile_qr_scan"}, "bike_id": "e9c90ce6b6bd54e31a6650ab09b04e0b", "is_reserved": 0}, {"lat": 38.900293, "fusion_lon": 0.0, "lon": -77.03203016666667, "is_disabled": 0, "type": "electric_scooter", "name": "0415c0b73ab3d587510a4c3b6e583af7", "fusion_lat": 0.0, "rental_uris": {"android": "https://dc.lft.to/lastmile_qr_scan", "ios": "https://dc.lft.to/lastmile_qr_scan"}, "bike_id": "0415c0b73ab3d587510a4c3b6e583af7", "is_reserved": 0}, {"lat": 38.921148333333335, "fusion_lon": 0.0, "lon": -76.996642, "is_disabled": 0, "type": "electric_scooter", "name": "120b23e1bca6e21fea9aaa9b2f18c78a", "fusion_lat": 0.0, "rental_uris": {"android": "https://dc.lft.to/lastmile_qr_scan", "ios": "https://dc.lft.to/lastmile_qr_scan"}, "bike_id": "120b23e1bca6e21fea9aaa9b2f18c78a", "is_reserved": 0}, {"lat": 38.92436383333333, "fusion_lon": 0.0, "lon": -77.04029966666667, "is_disabled": 0, "type": "electric_scooter", "name": "f1b78e3682d7b211cb15b4f048f97418", "fusion_lat": 0.0, "rental_uris": {"android": "https://dc.lft.to/lastmile_qr_scan", "ios": "https://dc.lft.to/lastmile_qr_scan"}, "bike_id": "f1b78e3682d7b211cb15b4f048f97418", "is_reserved": 0}, {"lat": 38.883430833333335, "fusion_lon": 0.0, "lon": -77.02597483333334, "is_disabled": 0, "type": "electric_scooter", "name": "12cd7d432217333185d6c5a49babe935", "fusion_lat": 0.0, "rental_uris": {"android": "https://dc.lft.to/lastmile_qr_scan", "ios": "https://dc.lft.to/lastmile_qr_scan"}, "bike_id": "12cd7d432217333185d6c5a49babe935", "is_reserved": 0}, {"lat": 38.924344833333336, "fusion_lon": 0.0, "lon": -77.040304, "is_disabled": 0, "type": "electric_scooter", "name": "b33d75c2eaafac8309bd853f9d4a3ff2", "fusion_lat": 0.0, "rental_uris": {"android": "https://dc.lft.to/lastmile_qr_scan", "ios": "https://dc.lft.to/lastmile_qr_scan"}, "bike_id": "b33d75c2eaafac8309bd853f9d4a3ff2", "is_reserved": 0}, {"lat": 38.93833733333334, "fusion_lon": 0.0, "lon": -76.99478333333333, "is_disabled": 0, "type": "electric_bike", "name": "c37cf65e0bd2f86b6662400e3adbbbc0", "fusion_lat": 0.0, "rental_uris": {"android": "https://dc.lft.to/lastmile_qr_scan", "ios": "https://dc.lft.to/lastmile_qr_scan"}, "bike_id": "c37cf65e0bd2f86b6662400e3adbbbc0", "is_reserved": 0}, {"lat": 38.892198666666665, "fusion_lon": 0.0, "lon": -77.02018416666667, "is_disabled": 0, "type": "electric_scooter", "name": "da59abb2d045cf2f59eebb446c704cb8", "fusion_lat": 0.0, "rental_uris": {"android": "https://dc.lft.to/lastmile_qr_scan", "ios": "https://dc.lft.to/lastmile_qr_scan"}, "bike_id": "da59abb2d045cf2f59eebb446c704cb8", "is_reserved": 0}, {"lat": 38.9328595, "fusion_lon": 0.0, "lon": -77.02306833333333, "is_disabled": 0, "type": "electric_scooter", "name": "7ef2b714fcf6e84c14bcafaee64b7e0d", "fusion_lat": 0.0, "rental_uris": {"android": "https://dc.lft.to/lastmile_qr_scan", "ios": "https://dc.lft.to/lastmile_qr_scan"}, "bike_id": "7ef2b714fcf6e84c14bcafaee64b7e0d", "is_reserved": 0}, {"lat": 38.9050945, "fusion_lon": 0.0, "lon": -76.9961175, "is_disabled": 0, "type": "electric_scooter", "name": "6c6924030c1ff79e84b736f1f453276a", "fusion_lat": 0.0, "rental_uris": {"android": "https://dc.lft.to/lastmile_qr_scan", "ios": "https://dc.lft.to/lastmile_qr_scan"}, "bike_id": "6c6924030c1ff79e84b736f1f453276a", "is_reserved": 0}, {"lat": 38.896091, "fusion_lon": 0.0, "lon": -76.99969233333333, "is_disabled": 0, "type": "electric_scooter", "name": "bd004b4f07ad0a1eefd7cdcd8854175a", "fusion_lat": 0.0, "rental_uris": {"android": "https://dc.lft.to/lastmile_qr_scan", "ios": "https://dc.lft.to/lastmile_qr_scan"}, "bike_id": "bd004b4f07ad0a1eefd7cdcd8854175a", "is_reserved": 0}, {"lat": 38.9236835, "fusion_lon": 0.0, "lon": -77.01914816666667, "is_disabled": 0, "type": "electric_scooter", "name": "bf0184c53702b78a604f3146285e4dca", "fusion_lat": 0.0, "rental_uris": {"android": "https://dc.lft.to/lastmile_qr_scan", "ios": "https://dc.lft.to/lastmile_qr_scan"}, "bike_id": "bf0184c53702b78a604f3146285e4dca", "is_reserved": 0}, {"lat": 38.87778216666667, "fusion_lon": 0.0, "lon": -76.9951105, "is_disabled": 0, "type": "electric_scooter", "name": "1c325a0d91d7879a6207fb1757be2bb3", "fusion_lat": 0.0, "rental_uris": {"android": "https://dc.lft.to/lastmile_qr_scan", "ios": "https://dc.lft.to/lastmile_qr_scan"}, "bike_id": "1c325a0d91d7879a6207fb1757be2bb3", "is_reserved": 0}, {"lat": 38.89650733333333, "fusion_lon": 0.0, "lon": -77.03332583333334, "is_disabled": 0, "type": "electric_scooter", "name": "bb4b95062ad463d66ad3f14c22a19f73", "fusion_lat": 0.0, "rental_uris": {"android": "https://dc.lft.to/lastmile_qr_scan", "ios": "https://dc.lft.to/lastmile_qr_scan"}, "bike_id": "bb4b95062ad463d66ad3f14c22a19f73", "is_reserved": 0}, {"lat": 38.92886, "fusion_lon": 0.0, "lon": -77.03228316666667, "is_disabled": 0, "type": "electric_scooter", "name": "c4dea0466287bb50282b12117653cb3d", "fusion_lat": 0.0, "rental_uris": {"android": "https://dc.lft.to/lastmile_qr_scan", "ios": "https://dc.lft.to/lastmile_qr_scan"}, "bike_id": "c4dea0466287bb50282b12117653cb3d", "is_reserved": 0}, {"lat": 38.91189166666667, "fusion_lon": 0.0, "lon": -77.03494116666667, "is_disabled": 0, "type": "electric_scooter", "name": "aa2803b354b34eef540306cacf94e6b0", "fusion_lat": 0.0, "rental_uris": {"android": "https://dc.lft.to/lastmile_qr_scan", "ios": "https://dc.lft.to/lastmile_qr_scan"}, "bike_id": "aa2803b354b34eef540306cacf94e6b0", "is_reserved": 0}, {"lat": 38.911919166666664, "fusion_lon": 0.0, "lon": -77.00506966666667, "is_disabled": 0, "type": "electric_scooter", "name": "791ba5cacd72f375b525c89d344557e4", "fusion_lat": 0.0, "rental_uris": {"android": "https://dc.lft.to/lastmile_qr_scan", "ios": "https://dc.lft.to/lastmile_qr_scan"}, "bike_id": "791ba5cacd72f375b525c89d344557e4", "is_reserved": 0}, {"lat": 38.908298, "fusion_lon": 0.0, "lon": -77.03910683333334, "is_disabled": 0, "type": "electric_scooter", "name": "c296b6b6cb745d7390a2953268503ded", "fusion_lat": 0.0, "rental_uris": {"android": "https://dc.lft.to/lastmile_qr_scan", "ios": "https://dc.lft.to/lastmile_qr_scan"}, "bike_id": "c296b6b6cb745d7390a2953268503ded", "is_reserved": 0}, {"lat": 38.907311, "fusion_lon": 0.0, "lon": -76.986943, "is_disabled": 0, "type": "electric_scooter", "name": "0db77605e2ee0d364dfb59ddcf87eb4e", "fusion_lat": 0.0, "rental_uris": {"android": "https://dc.lft.to/lastmile_qr_scan", "ios": "https://dc.lft.to/lastmile_qr_scan"}, "bike_id": "0db77605e2ee0d364dfb59ddcf87eb4e", "is_reserved": 0}, {"lat": 38.911346, "fusion_lon": 0.0, "lon": -77.016775, "is_disabled": 0, "type": "electric_scooter", "name": "793fd251645b44d33ae261fa3965c4a9", "fusion_lat": 0.0, "rental_uris": {"android": "https://dc.lft.to/lastmile_qr_scan", "ios": "https://dc.lft.to/lastmile_qr_scan"}, "bike_id": "793fd251645b44d33ae261fa3965c4a9", "is_reserved": 0}, {"lat": 39.043139333333336, "fusion_lon": 0.0, "lon": -77.05160066666667, "is_disabled": 0, "type": "electric_bike", "name": "2f411ad118d6b173ddb07048e9363e88", "fusion_lat": 0.0, "rental_uris": {"android": "https://dc.lft.to/lastmile_qr_scan", "ios": "https://dc.lft.to/lastmile_qr_scan"}, "bike_id": "2f411ad118d6b173ddb07048e9363e88", "is_reserved": 0}, {"lat": 38.932340833333335, "fusion_lon": 0.0, "lon": -77.03866866666667, "is_disabled": 0, "type": "electric_scooter", "name": "38a387f7028d1c609ce926520969f972", "fusion_lat": 0.0, "rental_uris": {"android": "https://dc.lft.to/lastmile_qr_scan", "ios": "https://dc.lft.to/lastmile_qr_scan"}, "bike_id": "38a387f7028d1c609ce926520969f972", "is_reserved": 0}, {"lat": 38.902608666666666, "fusion_lon": 0.0, "lon": -76.995588, "is_disabled": 0, "type": "electric_scooter", "name": "84cf51e6bac6a567454e1d5db48123de", "fusion_lat": 0.0, "rental_uris": {"android": "https://dc.lft.to/lastmile_qr_scan", "ios": "https://dc.lft.to/lastmile_qr_scan"}, "bike_id": "84cf51e6bac6a567454e1d5db48123de", "is_reserved": 0}, {"lat": 38.91108116666667, "fusion_lon": 0.0, "lon": -77.04478666666667, "is_disabled": 0, "type": "electric_scooter", "name": "ecc3356b43da392946167fba75759e72", "fusion_lat": 0.0, "rental_uris": {"android": "https://dc.lft.to/lastmile_qr_scan", "ios": "https://dc.lft.to/lastmile_qr_scan"}, "bike_id": "ecc3356b43da392946167fba75759e72", "is_reserved": 0}, {"lat": 39.05283166666667, "fusion_lon": 0.0, "lon": -77.08070466666666, "is_disabled": 0, "type": "electric_bike", "name": "64277b62f23b2a99be16430cda4d0583", "fusion_lat": 0.0, "rental_uris": {"android": "https://dc.lft.to/lastmile_qr_scan", "ios": "https://dc.lft.to/lastmile_qr_scan"}, "bike_id": "64277b62f23b2a99be16430cda4d0583", "is_reserved": 0}, {"lat": 38.92088966666667, "fusion_lon": 0.0, "lon": -77.02203983333334, "is_disabled": 0, "type": "electric_scooter", "name": "efeaafff2adb852ea51642e1dbc6e3d6", "fusion_lat": 0.0, "rental_uris": {"android": "https://dc.lft.to/lastmile_qr_scan", "ios": "https://dc.lft.to/lastmile_qr_scan"}, "bike_id": "efeaafff2adb852ea51642e1dbc6e3d6", "is_reserved": 0}, {"lat": 38.8872775, "fusion_lon": 0.0, "lon": -77.02832733333334, "is_disabled": 0, "type": "electric_scooter", "name": "abdfdc90a1d54f6cf1121684d835672c", "fusion_lat": 0.0, "rental_uris": {"android": "https://dc.lft.to/lastmile_qr_scan", "ios": "https://dc.lft.to/lastmile_qr_scan"}, "bike_id": "abdfdc90a1d54f6cf1121684d835672c", "is_reserved": 0}, {"lat": 38.8665765, "fusion_lon": 0.0, "lon": -76.98890883333334, "is_disabled": 0, "type": "electric_scooter", "name": "7be99ac40bc8eb402e83617297271041", "fusion_lat": 0.0, "rental_uris": {"android": "https://dc.lft.to/lastmile_qr_scan", "ios": "https://dc.lft.to/lastmile_qr_scan"}, "bike_id": "7be99ac40bc8eb402e83617297271041", "is_reserved": 0}, {"lat": 38.869862, "fusion_lon": 0.0, "lon": -76.97596416666667, "is_disabled": 0, "type": "electric_scooter", "name": "52ee64c80a8a4a7f08ed75dea5c02202", "fusion_lat": 0.0, "rental_uris": {"android": "https://dc.lft.to/lastmile_qr_scan", "ios": "https://dc.lft.to/lastmile_qr_scan"}, "bike_id": "52ee64c80a8a4a7f08ed75dea5c02202", "is_reserved": 0}, {"lat": 38.9610095, "fusion_lon": 0.0, "lon": -76.92816666666667, "is_disabled": 0, "type": "electric_bike", "name": "b11c00302e85d3cc477d8982aec7ade2", "fusion_lat": 0.0, "rental_uris": {"android": "https://dc.lft.to/lastmile_qr_scan", "ios": "https://dc.lft.to/lastmile_qr_scan"}, "bike_id": "b11c00302e85d3cc477d8982aec7ade2", "is_reserved": 0}, {"lat": 38.87196483333334, "fusion_lon": 0.0, "lon": -77.01077833333333, "is_disabled": 0, "type": "electric_scooter", "name": "ff0594925485650dab39b1a02051980e", "fusion_lat": 0.0, "rental_uris": {"android": "https://dc.lft.to/lastmile_qr_scan", "ios": "https://dc.lft.to/lastmile_qr_scan"}, "bike_id": "ff0594925485650dab39b1a02051980e", "is_reserved": 0}, {"lat": 38.93054983333333, "fusion_lon": 0.0, "lon": -77.03234266666666, "is_disabled": 0, "type": "electric_scooter", "name": "dced5054b5283d882bf03517eea6a0fa", "fusion_lat": 0.0, "rental_uris": {"android": "https://dc.lft.to/lastmile_qr_scan", "ios": "https://dc.lft.to/lastmile_qr_scan"}, "bike_id": "dced5054b5283d882bf03517eea6a0fa", "is_reserved": 0}, {"lat": 38.920591, "fusion_lon": 0.0, "lon": -77.025132, "is_disabled": 0, "type": "electric_scooter", "name": "58d504b37cb8639e8cc31c33f212f670", "fusion_lat": 0.0, "rental_uris": {"android": "https://dc.lft.to/lastmile_qr_scan", "ios": "https://dc.lft.to/lastmile_qr_scan"}, "bike_id": "58d504b37cb8639e8cc31c33f212f670", "is_reserved": 0}, {"lat": 38.984612166666665, "fusion_lon": 0.0, "lon": -77.02639166666667, "is_disabled": 0, "type": "electric_scooter", "name": "e3391e18bea6cb50de389aaccbe2da86", "fusion_lat": 0.0, "rental_uris": {"android": "https://dc.lft.to/lastmile_qr_scan", "ios": "https://dc.lft.to/lastmile_qr_scan"}, "bike_id": "e3391e18bea6cb50de389aaccbe2da86", "is_reserved": 0}, {"lat": 38.91950666666666, "fusion_lon": 0.0, "lon": -77.014017, "is_disabled": 0, "type": "electric_scooter", "name": "6bf06f5b68df89b29e6e011decb0b5b3", "fusion_lat": 0.0, "rental_uris": {"android": "https://dc.lft.to/lastmile_qr_scan", "ios": "https://dc.lft.to/lastmile_qr_scan"}, "bike_id": "6bf06f5b68df89b29e6e011decb0b5b3", "is_reserved": 0}, {"lat": 38.89882433333333, "fusion_lon": 0.0, "lon": -77.01387733333334, "is_disabled": 0, "type": "electric_scooter", "name": "0dc9eb3fb7bcc7f3cafe294b0cef5eab", "fusion_lat": 0.0, "rental_uris": {"android": "https://dc.lft.to/lastmile_qr_scan", "ios": "https://dc.lft.to/lastmile_qr_scan"}, "bike_id": "0dc9eb3fb7bcc7f3cafe294b0cef5eab", "is_reserved": 0}, {"lat": 38.90239833333333, "fusion_lon": 0.0, "lon": -77.03953133333333, "is_disabled": 0, "type": "electric_scooter", "name": "d8a104341efe80ca691b6040aa90f5ba", "fusion_lat": 0.0, "rental_uris": {"android": "https://dc.lft.to/lastmile_qr_scan", "ios": "https://dc.lft.to/lastmile_qr_scan"}, "bike_id": "d8a104341efe80ca691b6040aa90f5ba", "is_reserved": 0}, {"lat": 38.973697666666666, "fusion_lon": 0.0, "lon": -77.01858266666666, "is_disabled": 0, "type": "electric_scooter", "name": "8d8d21b79d4e8fdeee2efdf6eaba9b42", "fusion_lat": 0.0, "rental_uris": {"android": "https://dc.lft.to/lastmile_qr_scan", "ios": "https://dc.lft.to/lastmile_qr_scan"}, "bike_id": "8d8d21b79d4e8fdeee2efdf6eaba9b42", "is_reserved": 0}, {"lat": 38.919139666666666, "fusion_lon": 0.0, "lon": -77.04179916666666, "is_disabled": 0, "type": "electric_scooter", "name": "3b4b1ece56e98b232fb42de059fa18ea", "fusion_lat": 0.0, "rental_uris": {"android": "https://dc.lft.to/lastmile_qr_scan", "ios": "https://dc.lft.to/lastmile_qr_scan"}, "bike_id": "3b4b1ece56e98b232fb42de059fa18ea", "is_reserved": 0}, {"lat": 38.892235, "fusion_lon": 0.0, "lon": -77.02340116666667, "is_disabled": 0, "type": "electric_scooter", "name": "18e55b6e1ba155225e156b763a8a8eb2", "fusion_lat": 0.0, "rental_uris": {"android": "https://dc.lft.to/lastmile_qr_scan", "ios": "https://dc.lft.to/lastmile_qr_scan"}, "bike_id": "18e55b6e1ba155225e156b763a8a8eb2", "is_reserved": 0}, {"lat": 38.919094333333334, "fusion_lon": 0.0, "lon": -77.03203183333333, "is_disabled": 0, "type": "electric_scooter", "name": "de3ffb710c8befa8761cb477497dab8f", "fusion_lat": 0.0, "rental_uris": {"android": "https://dc.lft.to/lastmile_qr_scan", "ios": "https://dc.lft.to/lastmile_qr_scan"}, "bike_id": "de3ffb710c8befa8761cb477497dab8f", "is_reserved": 0}, {"lat": 38.908100166666664, "fusion_lon": 0.0, "lon": -76.99980983333333, "is_disabled": 0, "type": "electric_scooter", "name": "c21569d847090ce4a7ee92a104cc10b3", "fusion_lat": 0.0, "rental_uris": {"android": "https://dc.lft.to/lastmile_qr_scan", "ios": "https://dc.lft.to/lastmile_qr_scan"}, "bike_id": "c21569d847090ce4a7ee92a104cc10b3", "is_reserved": 0}, {"lat": 38.92053833333333, "fusion_lon": 0.0, "lon": -77.02437633333334, "is_disabled": 0, "type": "electric_scooter", "name": "38b8f646a70a808b90966d6d8fc50c9d", "fusion_lat": 0.0, "rental_uris": {"android": "https://dc.lft.to/lastmile_qr_scan", "ios": "https://dc.lft.to/lastmile_qr_scan"}, "bike_id": "38b8f646a70a808b90966d6d8fc50c9d", "is_reserved": 0}, {"lat": 38.917006, "fusion_lon": 0.0, "lon": -77.0319795, "is_disabled": 0, "type": "electric_scooter", "name": "36c30504bb00d1aa49ff0ad0af6eec26", "fusion_lat": 0.0, "rental_uris": {"android": "https://dc.lft.to/lastmile_qr_scan", "ios": "https://dc.lft.to/lastmile_qr_scan"}, "bike_id": "36c30504bb00d1aa49ff0ad0af6eec26", "is_reserved": 0}, {"lat": 38.87085, "fusion_lon": 0.0, "lon": -76.98924766666667, "is_disabled": 0, "type": "electric_scooter", "name": "1e042dca4f0541c234107ed814734a01", "fusion_lat": 0.0, "rental_uris": {"android": "https://dc.lft.to/lastmile_qr_scan", "ios": "https://dc.lft.to/lastmile_qr_scan"}, "bike_id": "1e042dca4f0541c234107ed814734a01", "is_reserved": 0}, {"lat": 38.9171395, "fusion_lon": 0.0, "lon": -77.03663183333333, "is_disabled": 0, "type": "electric_scooter", "name": "9bc9fdb8bdf6eb35098cc54666785df0", "fusion_lat": 0.0, "rental_uris": {"android": "https://dc.lft.to/lastmile_qr_scan", "ios": "https://dc.lft.to/lastmile_qr_scan"}, "bike_id": "9bc9fdb8bdf6eb35098cc54666785df0", "is_reserved": 0}, {"lat": 38.91487033333333, "fusion_lon": 0.0, "lon": -77.0258215, "is_disabled": 0, "type": "electric_scooter", "name": "c1ad2c573625f8a85ad3b5c17d8e1328", "fusion_lat": 0.0, "rental_uris": {"android": "https://dc.lft.to/lastmile_qr_scan", "ios": "https://dc.lft.to/lastmile_qr_scan"}, "bike_id": "c1ad2c573625f8a85ad3b5c17d8e1328", "is_reserved": 0}, {"lat": 38.897275, "fusion_lon": 0.0, "lon": -77.043536, "is_disabled": 0, "type": "electric_scooter", "name": "09feefddc8968afd9cc19b7cb81e1826", "fusion_lat": 0.0, "rental_uris": {"android": "https://dc.lft.to/lastmile_qr_scan", "ios": "https://dc.lft.to/lastmile_qr_scan"}, "bike_id": "09feefddc8968afd9cc19b7cb81e1826", "is_reserved": 0}, {"lat": 38.98460583333333, "fusion_lon": 0.0, "lon": -77.0268445, "is_disabled": 0, "type": "electric_scooter", "name": "f03de3b833ca66d9c1c3bdf3da428519", "fusion_lat": 0.0, "rental_uris": {"android": "https://dc.lft.to/lastmile_qr_scan", "ios": "https://dc.lft.to/lastmile_qr_scan"}, "bike_id": "f03de3b833ca66d9c1c3bdf3da428519", "is_reserved": 0}, {"lat": 38.90766983333333, "fusion_lon": 0.0, "lon": -77.03743166666666, "is_disabled": 0, "type": "electric_scooter", "name": "d77089753f105d30440d72025480c15b", "fusion_lat": 0.0, "rental_uris": {"android": "https://dc.lft.to/lastmile_qr_scan", "ios": "https://dc.lft.to/lastmile_qr_scan"}, "bike_id": "d77089753f105d30440d72025480c15b", "is_reserved": 0}, {"lat": 38.91416366666667, "fusion_lon": 0.0, "lon": -77.03144233333333, "is_disabled": 0, "type": "electric_scooter", "name": "8c797835dce88e63b99a5490a6009149", "fusion_lat": 0.0, "rental_uris": {"android": "https://dc.lft.to/lastmile_qr_scan", "ios": "https://dc.lft.to/lastmile_qr_scan"}, "bike_id": "8c797835dce88e63b99a5490a6009149", "is_reserved": 0}, {"lat": 38.91972916666667, "fusion_lon": 0.0, "lon": -77.04145733333333, "is_disabled": 0, "type": "electric_scooter", "name": "c572cbe41d5d7e6c48f9f676e052795d", "fusion_lat": 0.0, "rental_uris": {"android": "https://dc.lft.to/lastmile_qr_scan", "ios": "https://dc.lft.to/lastmile_qr_scan"}, "bike_id": "c572cbe41d5d7e6c48f9f676e052795d", "is_reserved": 0}, {"lat": 38.91565383333333, "fusion_lon": 0.0, "lon": -77.00524166666666, "is_disabled": 0, "type": "electric_scooter", "name": "29b397948300a27768f6514dd990a324", "fusion_lat": 0.0, "rental_uris": {"android": "https://dc.lft.to/lastmile_qr_scan", "ios": "https://dc.lft.to/lastmile_qr_scan"}, "bike_id": "29b397948300a27768f6514dd990a324", "is_reserved": 0}, {"lat": 38.81913516666667, "fusion_lon": 0.0, "lon": -76.99910116666666, "is_disabled": 0, "type": "electric_bike", "name": "83cf3390dbd493c547c9de943babbc52", "fusion_lat": 0.0, "rental_uris": {"android": "https://dc.lft.to/lastmile_qr_scan", "ios": "https://dc.lft.to/lastmile_qr_scan"}, "bike_id": "83cf3390dbd493c547c9de943babbc52", "is_reserved": 0}, {"lat": 38.91820416666667, "fusion_lon": 0.0, "lon": -77.03149183333333, "is_disabled": 0, "type": "electric_scooter", "name": "72aeb948ea700bea191674bf4c82c2a8", "fusion_lat": 0.0, "rental_uris": {"android": "https://dc.lft.to/lastmile_qr_scan", "ios": "https://dc.lft.to/lastmile_qr_scan"}, "bike_id": "72aeb948ea700bea191674bf4c82c2a8", "is_reserved": 0}, {"lat": 38.89238816666666, "fusion_lon": 0.0, "lon": -77.03213633333333, "is_disabled": 0, "type": "electric_scooter", "name": "e1cd4252a574193e304eb0658348ee4f", "fusion_lat": 0.0, "rental_uris": {"android": "https://dc.lft.to/lastmile_qr_scan", "ios": "https://dc.lft.to/lastmile_qr_scan"}, "bike_id": "e1cd4252a574193e304eb0658348ee4f", "is_reserved": 0}, {"lat": 38.8833355, "fusion_lon": 0.0, "lon": -77.007151, "is_disabled": 0, "type": "electric_scooter", "name": "54787deec89a8e7eae786509cee5b057", "fusion_lat": 0.0, "rental_uris": {"android": "https://dc.lft.to/lastmile_qr_scan", "ios": "https://dc.lft.to/lastmile_qr_scan"}, "bike_id": "54787deec89a8e7eae786509cee5b057", "is_reserved": 0}, {"lat": 38.90842583333333, "fusion_lon": 0.0, "lon": -77.02696566666667, "is_disabled": 0, "type": "electric_scooter", "name": "2da636f888fc2b4d8ed2e6a5d522e48a", "fusion_lat": 0.0, "rental_uris": {"android": "https://dc.lft.to/lastmile_qr_scan", "ios": "https://dc.lft.to/lastmile_qr_scan"}, "bike_id": "2da636f888fc2b4d8ed2e6a5d522e48a", "is_reserved": 0}, {"lat": 38.87010566666667, "fusion_lon": 0.0, "lon": -76.98083416666667, "is_disabled": 0, "type": "electric_scooter", "name": "93c3246a696df8f47a2ab932785b5edc", "fusion_lat": 0.0, "rental_uris": {"android": "https://dc.lft.to/lastmile_qr_scan", "ios": "https://dc.lft.to/lastmile_qr_scan"}, "bike_id": "93c3246a696df8f47a2ab932785b5edc", "is_reserved": 0}, {"lat": 38.892275166666664, "fusion_lon": 0.0, "lon": -77.03198216666667, "is_disabled": 0, "type": "electric_scooter", "name": "cfc53ac1884269f2f66afef47d102e72", "fusion_lat": 0.0, "rental_uris": {"android": "https://dc.lft.to/lastmile_qr_scan", "ios": "https://dc.lft.to/lastmile_qr_scan"}, "bike_id": "cfc53ac1884269f2f66afef47d102e72", "is_reserved": 0}, {"lat": 38.905595166666664, "fusion_lon": 0.0, "lon": -77.02487866666667, "is_disabled": 0, "type": "electric_scooter", "name": "c30ab289acc295979d23b3bc33e2dd5f", "fusion_lat": 0.0, "rental_uris": {"android": "https://dc.lft.to/lastmile_qr_scan", "ios": "https://dc.lft.to/lastmile_qr_scan"}, "bike_id": "c30ab289acc295979d23b3bc33e2dd5f", "is_reserved": 0}, {"lat": 38.90653266666666, "fusion_lon": 0.0, "lon": -77.03875733333334, "is_disabled": 0, "type": "electric_scooter", "name": "d1754670e11fd171720447ab6804d5b9", "fusion_lat": 0.0, "rental_uris": {"android": "https://dc.lft.to/lastmile_qr_scan", "ios": "https://dc.lft.to/lastmile_qr_scan"}, "bike_id": "d1754670e11fd171720447ab6804d5b9", "is_reserved": 0}, {"lat": 38.90997616666667, "fusion_lon": 0.0, "lon": -77.03389466666667, "is_disabled": 0, "type": "electric_scooter", "name": "7b7f6a63f1e1796e88eca95cda214601", "fusion_lat": 0.0, "rental_uris": {"android": "https://dc.lft.to/lastmile_qr_scan", "ios": "https://dc.lft.to/lastmile_qr_scan"}, "bike_id": "7b7f6a63f1e1796e88eca95cda214601", "is_reserved": 0}, {"lat": 38.90384266666667, "fusion_lon": 0.0, "lon": -77.03322333333334, "is_disabled": 0, "type": "electric_scooter", "name": "94dddb640c5b75dc42f453d7610602cb", "fusion_lat": 0.0, "rental_uris": {"android": "https://dc.lft.to/lastmile_qr_scan", "ios": "https://dc.lft.to/lastmile_qr_scan"}, "bike_id": "94dddb640c5b75dc42f453d7610602cb", "is_reserved": 0}, {"lat": 38.8989625, "fusion_lon": 0.0, "lon": -77.02587383333334, "is_disabled": 0, "type": "electric_scooter", "name": "175b8f46a361a023cf0fd3941dad9e15", "fusion_lat": 0.0, "rental_uris": {"android": "https://dc.lft.to/lastmile_qr_scan", "ios": "https://dc.lft.to/lastmile_qr_scan"}, "bike_id": "175b8f46a361a023cf0fd3941dad9e15", "is_reserved": 0}, {"lat": 38.920519, "fusion_lon": 0.0, "lon": -76.99888083333333, "is_disabled": 0, "type": "electric_scooter", "name": "89ed99cd533498aef6075323ca7d66f9", "fusion_lat": 0.0, "rental_uris": {"android": "https://dc.lft.to/lastmile_qr_scan", "ios": "https://dc.lft.to/lastmile_qr_scan"}, "bike_id": "89ed99cd533498aef6075323ca7d66f9", "is_reserved": 0}, {"lat": 38.85512683333333, "fusion_lon": 0.0, "lon": -76.984148, "is_disabled": 0, "type": "electric_bike", "name": "093303749141ab0270a0c1b54b72ca18", "fusion_lat": 0.0, "rental_uris": {"android": "https://dc.lft.to/lastmile_qr_scan", "ios": "https://dc.lft.to/lastmile_qr_scan"}, "bike_id": "093303749141ab0270a0c1b54b72ca18", "is_reserved": 0}, {"lat": 38.901300666666664, "fusion_lon": 0.0, "lon": -77.04034733333333, "is_disabled": 0, "type": "electric_scooter", "name": "a4d5f946f8d7e42870abc0b75e514b10", "fusion_lat": 0.0, "rental_uris": {"android": "https://dc.lft.to/lastmile_qr_scan", "ios": "https://dc.lft.to/lastmile_qr_scan"}, "bike_id": "a4d5f946f8d7e42870abc0b75e514b10", "is_reserved": 0}, {"lat": 38.9310435, "fusion_lon": 0.0, "lon": -77.03638783333334, "is_disabled": 0, "type": "electric_scooter", "name": "3c6ad88085ea1f8e42f76e960ea28df0", "fusion_lat": 0.0, "rental_uris": {"android": "https://dc.lft.to/lastmile_qr_scan", "ios": "https://dc.lft.to/lastmile_qr_scan"}, "bike_id": "3c6ad88085ea1f8e42f76e960ea28df0", "is_reserved": 0}, {"lat": 38.863592833333335, "fusion_lon": 0.0, "lon": -76.99064383333334, "is_disabled": 0, "type": "electric_scooter", "name": "932d18fd6e73fc26a3b95cc3ddffd9c1", "fusion_lat": 0.0, "rental_uris": {"android": "https://dc.lft.to/lastmile_qr_scan", "ios": "https://dc.lft.to/lastmile_qr_scan"}, "bike_id": "932d18fd6e73fc26a3b95cc3ddffd9c1", "is_reserved": 0}, {"lat": 38.887387, "fusion_lon": 0.0, "lon": -77.01746, "is_disabled": 0, "type": "electric_scooter", "name": "f9eddb1d26021d25cd790f9b150ebe6a", "fusion_lat": 0.0, "rental_uris": {"android": "https://dc.lft.to/lastmile_qr_scan", "ios": "https://dc.lft.to/lastmile_qr_scan"}, "bike_id": "f9eddb1d26021d25cd790f9b150ebe6a", "is_reserved": 0}, {"lat": 38.9006975, "fusion_lon": 0.0, "lon": -77.024135, "is_disabled": 0, "type": "electric_scooter", "name": "a52b220289ed691e1699e35e383732ba", "fusion_lat": 0.0, "rental_uris": {"android": "https://dc.lft.to/lastmile_qr_scan", "ios": "https://dc.lft.to/lastmile_qr_scan"}, "bike_id": "a52b220289ed691e1699e35e383732ba", "is_reserved": 0}, {"lat": 38.90145733333333, "fusion_lon": 0.0, "lon": -77.03947516666666, "is_disabled": 0, "type": "electric_scooter", "name": "244c712a13db30963d543fe04cc12fff", "fusion_lat": 0.0, "rental_uris": {"android": "https://dc.lft.to/lastmile_qr_scan", "ios": "https://dc.lft.to/lastmile_qr_scan"}, "bike_id": "244c712a13db30963d543fe04cc12fff", "is_reserved": 0}, {"lat": 38.911116166666666, "fusion_lon": 0.0, "lon": -77.0425385, "is_disabled": 0, "type": "electric_scooter", "name": "143a0ca6d2ccc1e9510d125508f5b63f", "fusion_lat": 0.0, "rental_uris": {"android": "https://dc.lft.to/lastmile_qr_scan", "ios": "https://dc.lft.to/lastmile_qr_scan"}, "bike_id": "143a0ca6d2ccc1e9510d125508f5b63f", "is_reserved": 0}, {"lat": 38.923545833333336, "fusion_lon": 0.0, "lon": -77.0389685, "is_disabled": 0, "type": "electric_scooter", "name": "d333444532bca3caafe163d3aa943da3", "fusion_lat": 0.0, "rental_uris": {"android": "https://dc.lft.to/lastmile_qr_scan", "ios": "https://dc.lft.to/lastmile_qr_scan"}, "bike_id": "d333444532bca3caafe163d3aa943da3", "is_reserved": 0}, {"lat": 38.91253016666667, "fusion_lon": 0.0, "lon": -77.04329666666666, "is_disabled": 0, "type": "electric_scooter", "name": "32a07b896d330816495489c5bff0aac3", "fusion_lat": 0.0, "rental_uris": {"android": "https://dc.lft.to/lastmile_qr_scan", "ios": "https://dc.lft.to/lastmile_qr_scan"}, "bike_id": "32a07b896d330816495489c5bff0aac3", "is_reserved": 0}, {"lat": 38.9229075, "fusion_lon": 0.0, "lon": -77.02246716666667, "is_disabled": 0, "type": "electric_scooter", "name": "295b2f5eceae819605548503fc25f3ae", "fusion_lat": 0.0, "rental_uris": {"android": "https://dc.lft.to/lastmile_qr_scan", "ios": "https://dc.lft.to/lastmile_qr_scan"}, "bike_id": "295b2f5eceae819605548503fc25f3ae", "is_reserved": 0}, {"lat": 38.889904666666666, "fusion_lon": 0.0, "lon": -76.93111333333333, "is_disabled": 0, "type": "electric_scooter", "name": "dc96dac1334cf4e1108dcc2007321e87", "fusion_lat": 0.0, "rental_uris": {"android": "https://dc.lft.to/lastmile_qr_scan", "ios": "https://dc.lft.to/lastmile_qr_scan"}, "bike_id": "dc96dac1334cf4e1108dcc2007321e87", "is_reserved": 0}, {"lat": 38.94533766666667, "fusion_lon": 0.0, "lon": -77.02087566666667, "is_disabled": 0, "type": "electric_scooter", "name": "bd95dca05cf18edc37a228fd21baefa6", "fusion_lat": 0.0, "rental_uris": {"android": "https://dc.lft.to/lastmile_qr_scan", "ios": "https://dc.lft.to/lastmile_qr_scan"}, "bike_id": "bd95dca05cf18edc37a228fd21baefa6", "is_reserved": 0}, {"lat": 38.90762866666667, "fusion_lon": 0.0, "lon": -77.03189883333333, "is_disabled": 0, "type": "electric_scooter", "name": "e62a58233156d8f11e24d6524490c855", "fusion_lat": 0.0, "rental_uris": {"android": "https://dc.lft.to/lastmile_qr_scan", "ios": "https://dc.lft.to/lastmile_qr_scan"}, "bike_id": "e62a58233156d8f11e24d6524490c855", "is_reserved": 0}, {"lat": 38.89223616666666, "fusion_lon": 0.0, "lon": -77.04377583333333, "is_disabled": 0, "type": "electric_scooter", "name": "04be2080813687bbf9775ba9ff5c88e9", "fusion_lat": 0.0, "rental_uris": {"android": "https://dc.lft.to/lastmile_qr_scan", "ios": "https://dc.lft.to/lastmile_qr_scan"}, "bike_id": "04be2080813687bbf9775ba9ff5c88e9", "is_reserved": 0}, {"lat": 38.901535833333334, "fusion_lon": 0.0, "lon": -77.04883733333334, "is_disabled": 0, "type": "electric_scooter", "name": "e6c06d6fb7da7304117275da692447b2", "fusion_lat": 0.0, "rental_uris": {"android": "https://dc.lft.to/lastmile_qr_scan", "ios": "https://dc.lft.to/lastmile_qr_scan"}, "bike_id": "e6c06d6fb7da7304117275da692447b2", "is_reserved": 0}, {"lat": 38.897870166666664, "fusion_lon": 0.0, "lon": -77.02591383333333, "is_disabled": 0, "type": "electric_scooter", "name": "70f32f3926782a4250a2179e69c10b04", "fusion_lat": 0.0, "rental_uris": {"android": "https://dc.lft.to/lastmile_qr_scan", "ios": "https://dc.lft.to/lastmile_qr_scan"}, "bike_id": "70f32f3926782a4250a2179e69c10b04", "is_reserved": 0}, {"lat": 38.892168, "fusion_lon": 0.0, "lon": -77.0316505, "is_disabled": 0, "type": "electric_scooter", "name": "7dfca317ad00499946fdd6fdb1d84369", "fusion_lat": 0.0, "rental_uris": {"android": "https://dc.lft.to/lastmile_qr_scan", "ios": "https://dc.lft.to/lastmile_qr_scan"}, "bike_id": "7dfca317ad00499946fdd6fdb1d84369", "is_reserved": 0}, {"lat": 38.89619533333333, "fusion_lon": 0.0, "lon": -76.99295383333333, "is_disabled": 0, "type": "electric_scooter", "name": "c29e54ca52514bbd127cfef272376b2a", "fusion_lat": 0.0, "rental_uris": {"android": "https://dc.lft.to/lastmile_qr_scan", "ios": "https://dc.lft.to/lastmile_qr_scan"}, "bike_id": "c29e54ca52514bbd127cfef272376b2a", "is_reserved": 0}, {"lat": 38.91340316666667, "fusion_lon": 0.0, "lon": -77.0481395, "is_disabled": 0, "type": "electric_scooter", "name": "e8885c0923b9a33c3740fca09bd116ee", "fusion_lat": 0.0, "rental_uris": {"android": "https://dc.lft.to/lastmile_qr_scan", "ios": "https://dc.lft.to/lastmile_qr_scan"}, "bike_id": "e8885c0923b9a33c3740fca09bd116ee", "is_reserved": 0}, {"lat": 38.91760683333333, "fusion_lon": 0.0, "lon": -77.03134383333334, "is_disabled": 0, "type": "electric_scooter", "name": "2a1062e0134edc08a6f837abb6ad0031", "fusion_lat": 0.0, "rental_uris": {"android": "https://dc.lft.to/lastmile_qr_scan", "ios": "https://dc.lft.to/lastmile_qr_scan"}, "bike_id": "2a1062e0134edc08a6f837abb6ad0031", "is_reserved": 0}, {"lat": 38.900218833333334, "fusion_lon": 0.0, "lon": -77.00217433333333, "is_disabled": 0, "type": "electric_scooter", "name": "f6113711d83c96d0dfc317eddae89297", "fusion_lat": 0.0, "rental_uris": {"android": "https://dc.lft.to/lastmile_qr_scan", "ios": "https://dc.lft.to/lastmile_qr_scan"}, "bike_id": "f6113711d83c96d0dfc317eddae89297", "is_reserved": 0}, {"lat": 38.91807033333333, "fusion_lon": 0.0, "lon": -77.024938, "is_disabled": 0, "type": "electric_scooter", "name": "a44b8902e72f30766838fcb675ff8727", "fusion_lat": 0.0, "rental_uris": {"android": "https://dc.lft.to/lastmile_qr_scan", "ios": "https://dc.lft.to/lastmile_qr_scan"}, "bike_id": "a44b8902e72f30766838fcb675ff8727", "is_reserved": 0}, {"lat": 38.92989583333333, "fusion_lon": 0.0, "lon": -77.03473016666666, "is_disabled": 0, "type": "electric_scooter", "name": "0d6e1b1313b810ba397718a3c0183e5c", "fusion_lat": 0.0, "rental_uris": {"android": "https://dc.lft.to/lastmile_qr_scan", "ios": "https://dc.lft.to/lastmile_qr_scan"}, "bike_id": "0d6e1b1313b810ba397718a3c0183e5c", "is_reserved": 0}, {"lat": 38.887225666666666, "fusion_lon": 0.0, "lon": -77.02203766666666, "is_disabled": 0, "type": "electric_scooter", "name": "f4faf9fb704b041dc9e3de013d829e4f", "fusion_lat": 0.0, "rental_uris": {"android": "https://dc.lft.to/lastmile_qr_scan", "ios": "https://dc.lft.to/lastmile_qr_scan"}, "bike_id": "f4faf9fb704b041dc9e3de013d829e4f", "is_reserved": 0}, {"lat": 38.9171035, "fusion_lon": 0.0, "lon": -77.026089, "is_disabled": 0, "type": "electric_scooter", "name": "e2178ff4434776eeb36f6332cd89ff66", "fusion_lat": 0.0, "rental_uris": {"android": "https://dc.lft.to/lastmile_qr_scan", "ios": "https://dc.lft.to/lastmile_qr_scan"}, "bike_id": "e2178ff4434776eeb36f6332cd89ff66", "is_reserved": 0}, {"lat": 38.930287666666665, "fusion_lon": 0.0, "lon": -77.01300633333334, "is_disabled": 0, "type": "electric_scooter", "name": "03091d4fdf886d1585c3348459f80be6", "fusion_lat": 0.0, "rental_uris": {"android": "https://dc.lft.to/lastmile_qr_scan", "ios": "https://dc.lft.to/lastmile_qr_scan"}, "bike_id": "03091d4fdf886d1585c3348459f80be6", "is_reserved": 0}, {"lat": 38.89796183333333, "fusion_lon": 0.0, "lon": -77.00604383333334, "is_disabled": 0, "type": "electric_bike", "name": "0380a48ca336cc19a52c47cf4f53770f", "fusion_lat": 0.0, "rental_uris": {"android": "https://dc.lft.to/lastmile_qr_scan", "ios": "https://dc.lft.to/lastmile_qr_scan"}, "bike_id": "0380a48ca336cc19a52c47cf4f53770f", "is_reserved": 0}, {"lat": 38.88724766666667, "fusion_lon": 0.0, "lon": -77.02200966666666, "is_disabled": 0, "type": "electric_scooter", "name": "4074fee02c1d1523e1c9f3638f9085f9", "fusion_lat": 0.0, "rental_uris": {"android": "https://dc.lft.to/lastmile_qr_scan", "ios": "https://dc.lft.to/lastmile_qr_scan"}, "bike_id": "4074fee02c1d1523e1c9f3638f9085f9", "is_reserved": 0}, {"lat": 38.9281865, "fusion_lon": 0.0, "lon": -77.055223, "is_disabled": 0, "type": "electric_scooter", "name": "9636a5e2ea0f57efe36c60903a532786", "fusion_lat": 0.0, "rental_uris": {"android": "https://dc.lft.to/lastmile_qr_scan", "ios": "https://dc.lft.to/lastmile_qr_scan"}, "bike_id": "9636a5e2ea0f57efe36c60903a532786", "is_reserved": 0}, {"lat": 38.920300833333336, "fusion_lon": 0.0, "lon": -77.01811266666667, "is_disabled": 0, "type": "electric_scooter", "name": "ddbb2436d1222416f9962a84c56f5efe", "fusion_lat": 0.0, "rental_uris": {"android": "https://dc.lft.to/lastmile_qr_scan", "ios": "https://dc.lft.to/lastmile_qr_scan"}, "bike_id": "ddbb2436d1222416f9962a84c56f5efe", "is_reserved": 0}, {"lat": 38.90945766666667, "fusion_lon": 0.0, "lon": -77.0320635, "is_disabled": 0, "type": "electric_scooter", "name": "fe16cc0cf14a2999735686c5154c1fb3", "fusion_lat": 0.0, "rental_uris": {"android": "https://dc.lft.to/lastmile_qr_scan", "ios": "https://dc.lft.to/lastmile_qr_scan"}, "bike_id": "fe16cc0cf14a2999735686c5154c1fb3", "is_reserved": 0}, {"lat": 38.90386266666667, "fusion_lon": 0.0, "lon": -77.03837916666667, "is_disabled": 0, "type": "electric_scooter", "name": "81b60572eb893c50930ad2eb750a6886", "fusion_lat": 0.0, "rental_uris": {"android": "https://dc.lft.to/lastmile_qr_scan", "ios": "https://dc.lft.to/lastmile_qr_scan"}, "bike_id": "81b60572eb893c50930ad2eb750a6886", "is_reserved": 0}, {"lat": 38.915934166666666, "fusion_lon": 0.0, "lon": -77.03216833333333, "is_disabled": 0, "type": "electric_scooter", "name": "6afcd208c5ed640f39d7804fce278cab", "fusion_lat": 0.0, "rental_uris": {"android": "https://dc.lft.to/lastmile_qr_scan", "ios": "https://dc.lft.to/lastmile_qr_scan"}, "bike_id": "6afcd208c5ed640f39d7804fce278cab", "is_reserved": 0}, {"lat": 38.889912333333335, "fusion_lon": 0.0, "lon": -76.98329566666666, "is_disabled": 0, "type": "electric_scooter", "name": "1886fef4720de47d7dccd7ebdfecf1a6", "fusion_lat": 0.0, "rental_uris": {"android": "https://dc.lft.to/lastmile_qr_scan", "ios": "https://dc.lft.to/lastmile_qr_scan"}, "bike_id": "1886fef4720de47d7dccd7ebdfecf1a6", "is_reserved": 0}, {"lat": 38.89223233333333, "fusion_lon": 0.0, "lon": -77.04506233333333, "is_disabled": 0, "type": "electric_scooter", "name": "bb5fd1751c0a64908876edc108d9168d", "fusion_lat": 0.0, "rental_uris": {"android": "https://dc.lft.to/lastmile_qr_scan", "ios": "https://dc.lft.to/lastmile_qr_scan"}, "bike_id": "bb5fd1751c0a64908876edc108d9168d", "is_reserved": 0}, {"lat": 38.95237766666666, "fusion_lon": 0.0, "lon": -77.014245, "is_disabled": 0, "type": "electric_scooter", "name": "a8c9ff66174b6911a79be13ac6cf9ed4", "fusion_lat": 0.0, "rental_uris": {"android": "https://dc.lft.to/lastmile_qr_scan", "ios": "https://dc.lft.to/lastmile_qr_scan"}, "bike_id": "a8c9ff66174b6911a79be13ac6cf9ed4", "is_reserved": 0}, {"lat": 38.918111333333336, "fusion_lon": 0.0, "lon": -77.03567666666666, "is_disabled": 0, "type": "electric_scooter", "name": "fb1cb3fa078e728bd2a9a4f66742c80a", "fusion_lat": 0.0, "rental_uris": {"android": "https://dc.lft.to/lastmile_qr_scan", "ios": "https://dc.lft.to/lastmile_qr_scan"}, "bike_id": "fb1cb3fa078e728bd2a9a4f66742c80a", "is_reserved": 0}, {"lat": 38.7951815, "fusion_lon": 0.0, "lon": -77.00702116666666, "is_disabled": 0, "type": "electric_bike", "name": "06ac89bb8693fb844d68945cbc5c763e", "fusion_lat": 0.0, "rental_uris": {"android": "https://dc.lft.to/lastmile_qr_scan", "ios": "https://dc.lft.to/lastmile_qr_scan"}, "bike_id": "06ac89bb8693fb844d68945cbc5c763e", "is_reserved": 0}, {"lat": 38.89322583333333, "fusion_lon": 0.0, "lon": -77.01784716666667, "is_disabled": 0, "type": "electric_scooter", "name": "18306c08f3bbe40565e60239c71a27b0", "fusion_lat": 0.0, "rental_uris": {"android": "https://dc.lft.to/lastmile_qr_scan", "ios": "https://dc.lft.to/lastmile_qr_scan"}, "bike_id": "18306c08f3bbe40565e60239c71a27b0", "is_reserved": 0}, {"lat": 38.89785533333333, "fusion_lon": 0.0, "lon": -77.03965766666667, "is_disabled": 0, "type": "electric_scooter", "name": "30809d7b7a42c35b7aee492c70d063d0", "fusion_lat": 0.0, "rental_uris": {"android": "https://dc.lft.to/lastmile_qr_scan", "ios": "https://dc.lft.to/lastmile_qr_scan"}, "bike_id": "30809d7b7a42c35b7aee492c70d063d0", "is_reserved": 0}, {"lat": 38.901502, "fusion_lon": 0.0, "lon": -77.045014, "is_disabled": 0, "type": "electric_scooter", "name": "79841130438ee0d4d4a28d48ea653242", "fusion_lat": 0.0, "rental_uris": {"android": "https://dc.lft.to/lastmile_qr_scan", "ios": "https://dc.lft.to/lastmile_qr_scan"}, "bike_id": "79841130438ee0d4d4a28d48ea653242", "is_reserved": 0}, {"lat": 38.9077675, "fusion_lon": 0.0, "lon": -77.03497583333333, "is_disabled": 0, "type": "electric_scooter", "name": "f9d4976677f1fb1a44fd68ee99fe1d67", "fusion_lat": 0.0, "rental_uris": {"android": "https://dc.lft.to/lastmile_qr_scan", "ios": "https://dc.lft.to/lastmile_qr_scan"}, "bike_id": "f9d4976677f1fb1a44fd68ee99fe1d67", "is_reserved": 0}, {"lat": 38.891680666666666, "fusion_lon": 0.0, "lon": -76.951831, "is_disabled": 0, "type": "electric_scooter", "name": "3293c79ee130388e479687f654c59515", "fusion_lat": 0.0, "rental_uris": {"android": "https://dc.lft.to/lastmile_qr_scan", "ios": "https://dc.lft.to/lastmile_qr_scan"}, "bike_id": "3293c79ee130388e479687f654c59515", "is_reserved": 0}, {"lat": 38.97727416666667, "fusion_lon": 0.0, "lon": -77.01728883333334, "is_disabled": 0, "type": "electric_scooter", "name": "e08278d47bfd202297b89d62e836db8e", "fusion_lat": 0.0, "rental_uris": {"android": "https://dc.lft.to/lastmile_qr_scan", "ios": "https://dc.lft.to/lastmile_qr_scan"}, "bike_id": "e08278d47bfd202297b89d62e836db8e", "is_reserved": 0}, {"lat": 38.921560666666664, "fusion_lon": 0.0, "lon": -77.03890033333333, "is_disabled": 0, "type": "electric_scooter", "name": "72fe63a4c952ce571b7337b6c9ed1da6", "fusion_lat": 0.0, "rental_uris": {"android": "https://dc.lft.to/lastmile_qr_scan", "ios": "https://dc.lft.to/lastmile_qr_scan"}, "bike_id": "72fe63a4c952ce571b7337b6c9ed1da6", "is_reserved": 0}, {"lat": 38.950131, "fusion_lon": 0.0, "lon": -77.06753916666666, "is_disabled": 0, "type": "electric_scooter", "name": "b08970f8305fc7e73bba287bc7866ed7", "fusion_lat": 0.0, "rental_uris": {"android": "https://dc.lft.to/lastmile_qr_scan", "ios": "https://dc.lft.to/lastmile_qr_scan"}, "bike_id": "b08970f8305fc7e73bba287bc7866ed7", "is_reserved": 0}, {"lat": 38.8729655, "fusion_lon": 0.0, "lon": -77.139272, "is_disabled": 0, "type": "electric_bike", "name": "6f0588c03bf0089a607676baa1f5c731", "fusion_lat": 0.0, "rental_uris": {"android": "https://dc.lft.to/lastmile_qr_scan", "ios": "https://dc.lft.to/lastmile_qr_scan"}, "bike_id": "6f0588c03bf0089a607676baa1f5c731", "is_reserved": 0}, {"lat": 38.92586283333333, "fusion_lon": 0.0, "lon": -77.03636716666666, "is_disabled": 0, "type": "electric_scooter", "name": "1896d66bc6816291b5d7f6d2e183dc7e", "fusion_lat": 0.0, "rental_uris": {"android": "https://dc.lft.to/lastmile_qr_scan", "ios": "https://dc.lft.to/lastmile_qr_scan"}, "bike_id": "1896d66bc6816291b5d7f6d2e183dc7e", "is_reserved": 0}, {"lat": 38.8537435, "fusion_lon": 0.0, "lon": -77.124683, "is_disabled": 0, "type": "electric_bike", "name": "d5edacf6546d62076168cf4dbff646bb", "fusion_lat": 0.0, "rental_uris": {"android": "https://dc.lft.to/lastmile_qr_scan", "ios": "https://dc.lft.to/lastmile_qr_scan"}, "bike_id": "d5edacf6546d62076168cf4dbff646bb", "is_reserved": 0}, {"lat": 38.924536333333336, "fusion_lon": 0.0, "lon": -77.00211866666666, "is_disabled": 0, "type": "electric_scooter", "name": "04bf1879b8bc1cad3ed96b346b118cac", "fusion_lat": 0.0, "rental_uris": {"android": "https://dc.lft.to/lastmile_qr_scan", "ios": "https://dc.lft.to/lastmile_qr_scan"}, "bike_id": "04bf1879b8bc1cad3ed96b346b118cac", "is_reserved": 0}, {"lat": 38.91964016666667, "fusion_lon": 0.0, "lon": -77.03206066666667, "is_disabled": 0, "type": "electric_scooter", "name": "a59443ca53eea2c8719d04bbff177f05", "fusion_lat": 0.0, "rental_uris": {"android": "https://dc.lft.to/lastmile_qr_scan", "ios": "https://dc.lft.to/lastmile_qr_scan"}, "bike_id": "a59443ca53eea2c8719d04bbff177f05", "is_reserved": 0}, {"lat": 38.9044795, "fusion_lon": 0.0, "lon": -77.035735, "is_disabled": 0, "type": "electric_scooter", "name": "6117b91f33f1c238fb37cb9a00e1e5e1", "fusion_lat": 0.0, "rental_uris": {"android": "https://dc.lft.to/lastmile_qr_scan", "ios": "https://dc.lft.to/lastmile_qr_scan"}, "bike_id": "6117b91f33f1c238fb37cb9a00e1e5e1", "is_reserved": 0}, {"lat": 38.92701366666667, "fusion_lon": 0.0, "lon": -77.02061016666667, "is_disabled": 0, "type": "electric_scooter", "name": "1519f7d50f0b73eaea587775174ec10d", "fusion_lat": 0.0, "rental_uris": {"android": "https://dc.lft.to/lastmile_qr_scan", "ios": "https://dc.lft.to/lastmile_qr_scan"}, "bike_id": "1519f7d50f0b73eaea587775174ec10d", "is_reserved": 0}, {"lat": 38.91486416666667, "fusion_lon": 0.0, "lon": -77.04157666666667, "is_disabled": 0, "type": "electric_scooter", "name": "3080bf6574fe8f99f05c244f77f4f9e3", "fusion_lat": 0.0, "rental_uris": {"android": "https://dc.lft.to/lastmile_qr_scan", "ios": "https://dc.lft.to/lastmile_qr_scan"}, "bike_id": "3080bf6574fe8f99f05c244f77f4f9e3", "is_reserved": 0}, {"lat": 38.892393, "fusion_lon": 0.0, "lon": -77.0416345, "is_disabled": 0, "type": "electric_scooter", "name": "b6d5e083c06a84269ecc73bb4d096486", "fusion_lat": 0.0, "rental_uris": {"android": "https://dc.lft.to/lastmile_qr_scan", "ios": "https://dc.lft.to/lastmile_qr_scan"}, "bike_id": "b6d5e083c06a84269ecc73bb4d096486", "is_reserved": 0}, {"lat": 38.9287455, "fusion_lon": 0.0, "lon": -77.03416883333334, "is_disabled": 0, "type": "electric_scooter", "name": "6c839519940173be2e6a84c6289d84d0", "fusion_lat": 0.0, "rental_uris": {"android": "https://dc.lft.to/lastmile_qr_scan", "ios": "https://dc.lft.to/lastmile_qr_scan"}, "bike_id": "6c839519940173be2e6a84c6289d84d0", "is_reserved": 0}, {"lat": 38.92172433333333, "fusion_lon": 0.0, "lon": -77.03828683333333, "is_disabled": 0, "type": "electric_scooter", "name": "09809179464da49088252c8b53a74a3b", "fusion_lat": 0.0, "rental_uris": {"android": "https://dc.lft.to/lastmile_qr_scan", "ios": "https://dc.lft.to/lastmile_qr_scan"}, "bike_id": "09809179464da49088252c8b53a74a3b", "is_reserved": 0}, {"lat": 38.913165666666664, "fusion_lon": 0.0, "lon": -77.01445366666667, "is_disabled": 0, "type": "electric_scooter", "name": "8942827d05347def691d575c0057cff7", "fusion_lat": 0.0, "rental_uris": {"android": "https://dc.lft.to/lastmile_qr_scan", "ios": "https://dc.lft.to/lastmile_qr_scan"}, "bike_id": "8942827d05347def691d575c0057cff7", "is_reserved": 0}, {"lat": 38.880470333333335, "fusion_lon": 0.0, "lon": -77.01993383333334, "is_disabled": 0, "type": "electric_scooter", "name": "9e9e16949c9ef427e1407d4fdc4cb629", "fusion_lat": 0.0, "rental_uris": {"android": "https://dc.lft.to/lastmile_qr_scan", "ios": "https://dc.lft.to/lastmile_qr_scan"}, "bike_id": "9e9e16949c9ef427e1407d4fdc4cb629", "is_reserved": 0}, {"lat": 38.9102205, "fusion_lon": 0.0, "lon": -77.03441316666667, "is_disabled": 0, "type": "electric_scooter", "name": "3d96f4e116cc9d0fc1cb65fb748bde43", "fusion_lat": 0.0, "rental_uris": {"android": "https://dc.lft.to/lastmile_qr_scan", "ios": "https://dc.lft.to/lastmile_qr_scan"}, "bike_id": "3d96f4e116cc9d0fc1cb65fb748bde43", "is_reserved": 0}, {"lat": 38.919259833333335, "fusion_lon": 0.0, "lon": -77.00249466666666, "is_disabled": 0, "type": "electric_scooter", "name": "c0f6baacf397bff938abdfcb0ac735d6", "fusion_lat": 0.0, "rental_uris": {"android": "https://dc.lft.to/lastmile_qr_scan", "ios": "https://dc.lft.to/lastmile_qr_scan"}, "bike_id": "c0f6baacf397bff938abdfcb0ac735d6", "is_reserved": 0}, {"lat": 38.89843166666667, "fusion_lon": 0.0, "lon": -76.9464025, "is_disabled": 0, "type": "electric_scooter", "name": "ba564d6e02a3df1ab2989705e34cbf13", "fusion_lat": 0.0, "rental_uris": {"android": "https://dc.lft.to/lastmile_qr_scan", "ios": "https://dc.lft.to/lastmile_qr_scan"}, "bike_id": "ba564d6e02a3df1ab2989705e34cbf13", "is_reserved": 0}, {"lat": 38.98412666666667, "fusion_lon": 0.0, "lon": -77.09686316666667, "is_disabled": 0, "type": "electric_bike", "name": "d8ebb1449b19d46cd8d114ab2e64d075", "fusion_lat": 0.0, "rental_uris": {"android": "https://dc.lft.to/lastmile_qr_scan", "ios": "https://dc.lft.to/lastmile_qr_scan"}, "bike_id": "d8ebb1449b19d46cd8d114ab2e64d075", "is_reserved": 0}, {"lat": 38.8922265, "fusion_lon": 0.0, "lon": -77.04684916666666, "is_disabled": 0, "type": "electric_scooter", "name": "97b64494b25880619da0c5bc59f8baef", "fusion_lat": 0.0, "rental_uris": {"android": "https://dc.lft.to/lastmile_qr_scan", "ios": "https://dc.lft.to/lastmile_qr_scan"}, "bike_id": "97b64494b25880619da0c5bc59f8baef", "is_reserved": 0}, {"lat": 38.915712, "fusion_lon": 0.0, "lon": -77.037884, "is_disabled": 0, "type": "electric_scooter", "name": "feb3a5774b85551fb5bbdb00048cf6ef", "fusion_lat": 0.0, "rental_uris": {"android": "https://dc.lft.to/lastmile_qr_scan", "ios": "https://dc.lft.to/lastmile_qr_scan"}, "bike_id": "feb3a5774b85551fb5bbdb00048cf6ef", "is_reserved": 0}, {"lat": 38.903197, "fusion_lon": 0.0, "lon": -77.05901416666667, "is_disabled": 0, "type": "electric_scooter", "name": "fae916b3a874db625c855b5c545baa37", "fusion_lat": 0.0, "rental_uris": {"android": "https://dc.lft.to/lastmile_qr_scan", "ios": "https://dc.lft.to/lastmile_qr_scan"}, "bike_id": "fae916b3a874db625c855b5c545baa37", "is_reserved": 0}, {"lat": 38.903472, "fusion_lon": 0.0, "lon": -77.04350683333334, "is_disabled": 0, "type": "electric_scooter", "name": "cea8b5611c15541dabc533a4c31e0622", "fusion_lat": 0.0, "rental_uris": {"android": "https://dc.lft.to/lastmile_qr_scan", "ios": "https://dc.lft.to/lastmile_qr_scan"}, "bike_id": "cea8b5611c15541dabc533a4c31e0622", "is_reserved": 0}, {"lat": 38.874607, "fusion_lon": 0.0, "lon": -77.00960883333333, "is_disabled": 0, "type": "electric_scooter", "name": "28514eb5d61c614532b3cd80bdbed31d", "fusion_lat": 0.0, "rental_uris": {"android": "https://dc.lft.to/lastmile_qr_scan", "ios": "https://dc.lft.to/lastmile_qr_scan"}, "bike_id": "28514eb5d61c614532b3cd80bdbed31d", "is_reserved": 0}, {"lat": 38.93460983333333, "fusion_lon": 0.0, "lon": -77.057822, "is_disabled": 0, "type": "electric_scooter", "name": "f04d08f19aeecbc88ab26d915368f137", "fusion_lat": 0.0, "rental_uris": {"android": "https://dc.lft.to/lastmile_qr_scan", "ios": "https://dc.lft.to/lastmile_qr_scan"}, "bike_id": "f04d08f19aeecbc88ab26d915368f137", "is_reserved": 0}, {"lat": 38.860635, "fusion_lon": 0.0, "lon": -76.98422716666667, "is_disabled": 0, "type": "electric_scooter", "name": "d522e7f86896a1f2826a47371e7c2101", "fusion_lat": 0.0, "rental_uris": {"android": "https://dc.lft.to/lastmile_qr_scan", "ios": "https://dc.lft.to/lastmile_qr_scan"}, "bike_id": "d522e7f86896a1f2826a47371e7c2101", "is_reserved": 0}, {"lat": 38.8773235, "fusion_lon": 0.0, "lon": -76.98108666666667, "is_disabled": 0, "type": "electric_bike", "name": "6dcf358251c400275609fd6ae8d9f0f3", "fusion_lat": 0.0, "rental_uris": {"android": "https://dc.lft.to/lastmile_qr_scan", "ios": "https://dc.lft.to/lastmile_qr_scan"}, "bike_id": "6dcf358251c400275609fd6ae8d9f0f3", "is_reserved": 0}, {"lat": 38.908587, "fusion_lon": 0.0, "lon": -77.04865166666667, "is_disabled": 0, "type": "electric_scooter", "name": "024d8b2d4305c741cfa984ede18e62d3", "fusion_lat": 0.0, "rental_uris": {"android": "https://dc.lft.to/lastmile_qr_scan", "ios": "https://dc.lft.to/lastmile_qr_scan"}, "bike_id": "024d8b2d4305c741cfa984ede18e62d3", "is_reserved": 0}, {"lat": 38.8922245, "fusion_lon": 0.0, "lon": -77.03340566666667, "is_disabled": 0, "type": "electric_scooter", "name": "7e7f598c7cb71842c45e7b3bc199c579", "fusion_lat": 0.0, "rental_uris": {"android": "https://dc.lft.to/lastmile_qr_scan", "ios": "https://dc.lft.to/lastmile_qr_scan"}, "bike_id": "7e7f598c7cb71842c45e7b3bc199c579", "is_reserved": 0}, {"lat": 38.9225585, "fusion_lon": 0.0, "lon": -77.07038183333333, "is_disabled": 0, "type": "electric_scooter", "name": "d63f6bff28845529c34744ab37d94abd", "fusion_lat": 0.0, "rental_uris": {"android": "https://dc.lft.to/lastmile_qr_scan", "ios": "https://dc.lft.to/lastmile_qr_scan"}, "bike_id": "d63f6bff28845529c34744ab37d94abd", "is_reserved": 0}, {"lat": 38.92647783333334, "fusion_lon": 0.0, "lon": -77.04144183333334, "is_disabled": 0, "type": "electric_scooter", "name": "d25e40593865cb8071210c7062dc04c4", "fusion_lat": 0.0, "rental_uris": {"android": "https://dc.lft.to/lastmile_qr_scan", "ios": "https://dc.lft.to/lastmile_qr_scan"}, "bike_id": "d25e40593865cb8071210c7062dc04c4", "is_reserved": 0}, {"lat": 38.9194425, "fusion_lon": 0.0, "lon": -77.01800616666667, "is_disabled": 0, "type": "electric_scooter", "name": "d62ab5e61f2567faf9c3d1095da139b6", "fusion_lat": 0.0, "rental_uris": {"android": "https://dc.lft.to/lastmile_qr_scan", "ios": "https://dc.lft.to/lastmile_qr_scan"}, "bike_id": "d62ab5e61f2567faf9c3d1095da139b6", "is_reserved": 0}, {"lat": 38.892214833333334, "fusion_lon": 0.0, "lon": -77.04505666666667, "is_disabled": 0, "type": "electric_scooter", "name": "9afb3a4c396d2357e093a706a15a4c24", "fusion_lat": 0.0, "rental_uris": {"android": "https://dc.lft.to/lastmile_qr_scan", "ios": "https://dc.lft.to/lastmile_qr_scan"}, "bike_id": "9afb3a4c396d2357e093a706a15a4c24", "is_reserved": 0}, {"lat": 38.87285083333333, "fusion_lon": 0.0, "lon": -76.97733333333333, "is_disabled": 0, "type": "electric_scooter", "name": "2bf00e1ff8deceabba2ef2498d4ce512", "fusion_lat": 0.0, "rental_uris": {"android": "https://dc.lft.to/lastmile_qr_scan", "ios": "https://dc.lft.to/lastmile_qr_scan"}, "bike_id": "2bf00e1ff8deceabba2ef2498d4ce512", "is_reserved": 0}, {"lat": 38.88770516666666, "fusion_lon": 0.0, "lon": -77.01775133333334, "is_disabled": 0, "type": "electric_scooter", "name": "a7891a89bce123e3a6b4a76dbc93e270", "fusion_lat": 0.0, "rental_uris": {"android": "https://dc.lft.to/lastmile_qr_scan", "ios": "https://dc.lft.to/lastmile_qr_scan"}, "bike_id": "a7891a89bce123e3a6b4a76dbc93e270", "is_reserved": 0}, {"lat": 38.8995225, "fusion_lon": 0.0, "lon": -77.04509366666667, "is_disabled": 0, "type": "electric_scooter", "name": "b9c44c8dd297c9d89f13d14c9489c3b2", "fusion_lat": 0.0, "rental_uris": {"android": "https://dc.lft.to/lastmile_qr_scan", "ios": "https://dc.lft.to/lastmile_qr_scan"}, "bike_id": "b9c44c8dd297c9d89f13d14c9489c3b2", "is_reserved": 0}, {"lat": 38.93423966666667, "fusion_lon": 0.0, "lon": -77.02847166666666, "is_disabled": 0, "type": "electric_scooter", "name": "2cdfaa5e9ac7e5ca97d3f4292653b3bd", "fusion_lat": 0.0, "rental_uris": {"android": "https://dc.lft.to/lastmile_qr_scan", "ios": "https://dc.lft.to/lastmile_qr_scan"}, "bike_id": "2cdfaa5e9ac7e5ca97d3f4292653b3bd", "is_reserved": 0}, {"lat": 38.92114933333333, "fusion_lon": 0.0, "lon": -77.02029466666667, "is_disabled": 0, "type": "electric_scooter", "name": "e8734cc87b535d5e2473e152a6f9e435", "fusion_lat": 0.0, "rental_uris": {"android": "https://dc.lft.to/lastmile_qr_scan", "ios": "https://dc.lft.to/lastmile_qr_scan"}, "bike_id": "e8734cc87b535d5e2473e152a6f9e435", "is_reserved": 0}, {"lat": 38.904128666666665, "fusion_lon": 0.0, "lon": -77.04318666666667, "is_disabled": 0, "type": "electric_scooter", "name": "f2d8b2c7a40bf9b5b1c1d54777a65edb", "fusion_lat": 0.0, "rental_uris": {"android": "https://dc.lft.to/lastmile_qr_scan", "ios": "https://dc.lft.to/lastmile_qr_scan"}, "bike_id": "f2d8b2c7a40bf9b5b1c1d54777a65edb", "is_reserved": 0}, {"lat": 38.903267166666666, "fusion_lon": 0.0, "lon": -77.03172, "is_disabled": 0, "type": "electric_scooter", "name": "2418deacebe9f96dbc8d6d839245ec45", "fusion_lat": 0.0, "rental_uris": {"android": "https://dc.lft.to/lastmile_qr_scan", "ios": "https://dc.lft.to/lastmile_qr_scan"}, "bike_id": "2418deacebe9f96dbc8d6d839245ec45", "is_reserved": 0}, {"lat": 38.93419433333333, "fusion_lon": 0.0, "lon": -77.04414866666667, "is_disabled": 0, "type": "electric_scooter", "name": "41992f30f1fce6b99718d78a455fb3d3", "fusion_lat": 0.0, "rental_uris": {"android": "https://dc.lft.to/lastmile_qr_scan", "ios": "https://dc.lft.to/lastmile_qr_scan"}, "bike_id": "41992f30f1fce6b99718d78a455fb3d3", "is_reserved": 0}, {"lat": 38.892287833333334, "fusion_lon": 0.0, "lon": -77.0337415, "is_disabled": 0, "type": "electric_scooter", "name": "d6c2fd5104bf43990bc7be547a7c0d0d", "fusion_lat": 0.0, "rental_uris": {"android": "https://dc.lft.to/lastmile_qr_scan", "ios": "https://dc.lft.to/lastmile_qr_scan"}, "bike_id": "d6c2fd5104bf43990bc7be547a7c0d0d", "is_reserved": 0}, {"lat": 38.9111245, "fusion_lon": 0.0, "lon": -77.021745, "is_disabled": 0, "type": "electric_scooter", "name": "079a3f18ce25c64e695192aa5680a1f1", "fusion_lat": 0.0, "rental_uris": {"android": "https://dc.lft.to/lastmile_qr_scan", "ios": "https://dc.lft.to/lastmile_qr_scan"}, "bike_id": "079a3f18ce25c64e695192aa5680a1f1", "is_reserved": 0}, {"lat": 38.900099, "fusion_lon": 0.0, "lon": -77.04386733333334, "is_disabled": 0, "type": "electric_scooter", "name": "326e522c8879d1dd5ca6a2d57f92af4f", "fusion_lat": 0.0, "rental_uris": {"android": "https://dc.lft.to/lastmile_qr_scan", "ios": "https://dc.lft.to/lastmile_qr_scan"}, "bike_id": "326e522c8879d1dd5ca6a2d57f92af4f", "is_reserved": 0}, {"lat": 38.829121666666666, "fusion_lon": 0.0, "lon": -76.99783666666667, "is_disabled": 0, "type": "electric_bike", "name": "508d4469c75f18c0527a1558de2dd0b0", "fusion_lat": 0.0, "rental_uris": {"android": "https://dc.lft.to/lastmile_qr_scan", "ios": "https://dc.lft.to/lastmile_qr_scan"}, "bike_id": "508d4469c75f18c0527a1558de2dd0b0", "is_reserved": 0}, {"lat": 38.90400183333333, "fusion_lon": 0.0, "lon": -77.06298933333333, "is_disabled": 0, "type": "electric_scooter", "name": "1f2b50e929cfcc7da7dc0adc8ed35513", "fusion_lat": 0.0, "rental_uris": {"android": "https://dc.lft.to/lastmile_qr_scan", "ios": "https://dc.lft.to/lastmile_qr_scan"}, "bike_id": "1f2b50e929cfcc7da7dc0adc8ed35513", "is_reserved": 0}, {"lat": 38.893748, "fusion_lon": 0.0, "lon": -76.94993366666667, "is_disabled": 0, "type": "electric_scooter", "name": "3f7f9f4c7749c6066c87f7181c75ccb8", "fusion_lat": 0.0, "rental_uris": {"android": "https://dc.lft.to/lastmile_qr_scan", "ios": "https://dc.lft.to/lastmile_qr_scan"}, "bike_id": "3f7f9f4c7749c6066c87f7181c75ccb8", "is_reserved": 0}, {"lat": 38.899073333333334, "fusion_lon": 0.0, "lon": -77.0324415, "is_disabled": 0, "type": "electric_scooter", "name": "78fb6d8a223a1ddf3ae5b8091354dc67", "fusion_lat": 0.0, "rental_uris": {"android": "https://dc.lft.to/lastmile_qr_scan", "ios": "https://dc.lft.to/lastmile_qr_scan"}, "bike_id": "78fb6d8a223a1ddf3ae5b8091354dc67", "is_reserved": 0}, {"lat": 38.927696166666664, "fusion_lon": 0.0, "lon": -77.0206575, "is_disabled": 0, "type": "electric_scooter", "name": "4039ec7d1d52c5b2a344914499312285", "fusion_lat": 0.0, "rental_uris": {"android": "https://dc.lft.to/lastmile_qr_scan", "ios": "https://dc.lft.to/lastmile_qr_scan"}, "bike_id": "4039ec7d1d52c5b2a344914499312285", "is_reserved": 0},