{"data": {"bikes": [{"name": "7dacaaf01158d33432f767ffa077b5c4", "fusion_lat": 0.0, "type": "electric_scooter", "lat": 38.93533433333333, "is_reserved": 0, "is_disabled": 0, "fusion_lon": 0.0, "bike_id": "7dacaaf01158d33432f767ffa077b5c4", "lon": -77.03410816666667, "rental_uris": {"ios": "https://dc.lft.to/lastmile_qr_scan", "android": "https://dc.lft.to/lastmile_qr_scan"}}, {"name": "cd3b5fb4b33025d4ed6650fa7670649d", "fusion_lat": 0.0, "type": "electric_scooter", "lat": 38.92992366666667, "is_reserved": 0, "is_disabled": 0, "fusion_lon": 0.0, "bike_id": "cd3b5fb4b33025d4ed6650fa7670649d", "lon": -77.023052, "rental_uris": {"ios": "https://dc.lft.to/lastmile_qr_scan", "android": "https://dc.lft.to/lastmile_qr_scan"}}, {"name": "74c00d853324d1406c88914780b92adc", "fusion_lat": 0.0, "type": "electric_scooter", "lat": 38.939314333333336, "is_reserved": 0, "is_disabled": 0, "fusion_lon": 0.0, "bike_id": "74c00d853324d1406c88914780b92adc", "lon": -77.0367445, "rental_uris": {"ios": "https://dc.lft.to/lastmile_qr_scan", "android": "https://dc.lft.to/lastmile_qr_scan"}}, {"name": "bc6e036f531656e7a67494d0375e257d", "fusion_lat": 0.0, "type": "electric_bike", "lat": 38.810478333333336, "is_reserved": 0, "is_disabled": 0, "fusion_lon": 0.0, "bike_id": "bc6e036f531656e7a67494d0375e257d", "lon": -77.08506216666666, "rental_uris": {"ios": "https://dc.lft.to/lastmile_qr_scan", "android": "https://dc.lft.to/lastmile_qr_scan"}}, {"name": "d1d531de6c9e7da959f009776dfb730d", "fusion_lat": 0.0, "type": "electric_scooter", "lat": 38.9066875, "is_reserved": 0, "is_disabled": 0, "fusion_lon": 0.0, "bike_id": "d1d531de6c9e7da959f009776dfb730d", "lon": -77.0270035, "rental_uris": {"ios": "https://dc.lft.to/lastmile_qr_scan", "android": "https://dc.lft.to/lastmile_qr_scan"}}, {"name": "16cc5b8571c94ffd74897063be685563", "fusion_lat": 0.0, "type": "electric_scooter", "lat": 38.895241, "is_reserved": 0, "is_disabled": 0, "fusion_lon": 0.0, "bike_id": "16cc5b8571c94ffd74897063be685563", "lon": -76.94892966666667, "rental_uris": {"ios": "https://dc.lft.to/lastmile_qr_scan", "android": "https://dc.lft.to/lastmile_qr_scan"}}, {"name": "ac33def82abd47c5dca8012674891d96", "fusion_lat": 0.0, "type": "electric_scooter", "lat": 38.8968785, "is_reserved": 0, "is_disabled": 0, "fusion_lon": 0.0, "bike_id": "ac33def82abd47c5dca8012674891d96", "lon": -77.00496266666667, "rental_uris": {"ios": "https://dc.lft.to/lastmile_qr_scan", "android": "https://dc.lft.to/lastmile_qr_scan"}}, {"name": "afa2af8c50f233c3ecc7f72195abffed", "fusion_lat": 0.0, "type": "electric_scooter", "lat": 38.91588616666667, "is_reserved": 0, "is_disabled": 0, "fusion_lon": 0.0, "bike_id": "afa2af8c50f233c3ecc7f72195abffed", "lon": -77.03838933333333, "rental_uris": {"ios": "https://dc.lft.to/lastmile_qr_scan", "android": "https://dc.lft.to/lastmile_qr_scan"}}, {"name": "5d1a6f6a1ab2f31ec6517ec8b3fab3a9", "fusion_lat": 0.0, "type": "electric_scooter", "lat": 38.905265666666665, "is_reserved": 0, "is_disabled": 0, "fusion_lon": 0.0, "bike_id": "5d1a6f6a1ab2f31ec6517ec8b3fab3a9", "lon": -77.048768, "rental_uris": {"ios": "https://dc.lft.to/lastmile_qr_scan", "android": "https://dc.lft.to/lastmile_qr_scan"}}, {"name": "d64b4b7cc0ad7afab81213523952895c", "fusion_lat": 0.0, "type": "electric_scooter", "lat": 38.90981433333333, "is_reserved": 0, "is_disabled": 0, "fusion_lon": 0.0, "bike_id": "d64b4b7cc0ad7afab81213523952895c", "lon": -77.031811, "rental_uris": {"ios": "https://dc.lft.to/lastmile_qr_scan", "android": "https://dc.lft.to/lastmile_qr_scan"}}, {"name": "d2d19a8b6ec8d57c8e45407c520fc123", "fusion_lat": 0.0, "type": "electric_scooter", "lat": 38.892310333333334, "is_reserved": 0, "is_disabled": 0, "fusion_lon": 0.0, "bike_id": "d2d19a8b6ec8d57c8e45407c520fc123", "lon": -77.05003833333333, "rental_uris": {"ios": "https://dc.lft.to/lastmile_qr_scan", "android": "https://dc.lft.to/lastmile_qr_scan"}}, {"name": "57336b68c0b465f02bf002419bb5ba66", "fusion_lat": 0.0, "type": "electric_bike", "lat": 39.045819, "is_reserved": 0, "is_disabled": 0, "fusion_lon": 0.0, "bike_id": "57336b68c0b465f02bf002419bb5ba66", "lon": -77.11368433333334, "rental_uris": {"ios": "https://dc.lft.to/lastmile_qr_scan", "android": "https://dc.lft.to/lastmile_qr_scan"}}, {"name": "2ae25caf1f826f7dfa9c16663c318b3a", "fusion_lat": 0.0, "type": "electric_bike", "lat": 38.85428366666667, "is_reserved": 0, "is_disabled": 0, "fusion_lon": 0.0, "bike_id": "2ae25caf1f826f7dfa9c16663c318b3a", "lon": -76.90956366666667, "rental_uris": {"ios": "https://dc.lft.to/lastmile_qr_scan", "android": "https://dc.lft.to/lastmile_qr_scan"}}, {"name": "ab33cb35a3c2ef2094ae9049d435bb08", "fusion_lat": 0.0, "type": "electric_scooter", "lat": 38.87661883333333, "is_reserved": 0, "is_disabled": 0, "fusion_lon": 0.0, "bike_id": "ab33cb35a3c2ef2094ae9049d435bb08", "lon": -77.00056766666667, "rental_uris": {"ios": "https://dc.lft.to/lastmile_qr_scan", "android": "https://dc.lft.to/lastmile_qr_scan"}}, {"name": "bb384d366a87497b09b4e87b15e13e57", "fusion_lat": 0.0, "type": "electric_scooter", "lat": 38.8838445, "is_reserved": 0, "is_disabled": 0, "fusion_lon": 0.0, "bike_id": "bb384d366a87497b09b4e87b15e13e57", "lon": -76.93052616666667, "rental_uris": {"ios": "https://dc.lft.to/lastmile_qr_scan", "android": "https://dc.lft.to/lastmile_qr_scan"}}, {"name": "758d2de003e40401ccf6e0edc0c8387b", "fusion_lat": 0.0, "type": "electric_scooter", "lat": 38.875755, "is_reserved": 0, "is_disabled": 0, "fusion_lon": 0.0, "bike_id": "758d2de003e40401ccf6e0edc0c8387b", "lon": -77.0058865, "rental_uris": {"ios": "https://dc.lft.to/lastmile_qr_scan", "android": "https://dc.lft.to/lastmile_qr_scan"}}, {"name": "1845dcf667fed74e5d7bc4e6932e2164", "fusion_lat": 0.0, "type": "electric_scooter", "lat": 38.928656, "is_reserved": 0, "is_disabled": 0, "fusion_lon": 0.0, "bike_id": "1845dcf667fed74e5d7bc4e6932e2164", "lon": -77.0136895, "rental_uris": {"ios": "https://dc.lft.to/lastmile_qr_scan", "android": "https://dc.lft.to/lastmile_qr_scan"}}, {"name": "3915ba822ff1a43ef25c3d5629c2284c", "fusion_lat": 0.0, "type": "electric_scooter", "lat": 38.938763, "is_reserved": 0, "is_disabled": 0, "fusion_lon": 0.0, "bike_id": "3915ba822ff1a43ef25c3d5629c2284c", "lon": -77.02913866666667, "rental_uris": {"ios": "https://dc.lft.to/lastmile_qr_scan", "android": "https://dc.lft.to/lastmile_qr_scan"}}, {"name": "3074990bccb41cd2399343e10cd2a569", "fusion_lat": 0.0, "type": "electric_scooter", "lat": 38.9071255, "is_reserved": 0, "is_disabled": 0, "fusion_lon": 0.0, "bike_id": "3074990bccb41cd2399343e10cd2a569", "lon": -77.01513033333333, "rental_uris": {"ios": "https://dc.lft.to/lastmile_qr_scan", "android": "https://dc.lft.to/lastmile_qr_scan"}}, {"name": "d2c0a6c3eccec70380fc798aed70ac37", "fusion_lat": 0.0, "type": "electric_scooter", "lat": 38.902504, "is_reserved": 0, "is_disabled": 0, "fusion_lon": 0.0, "bike_id": "d2c0a6c3eccec70380fc798aed70ac37", "lon": -77.04356133333333, "rental_uris": {"ios": "https://dc.lft.to/lastmile_qr_scan", "android": "https://dc.lft.to/lastmile_qr_scan"}}, {"name": "06dfc3723df5fc9a3bef00e538c90f82", "fusion_lat": 0.0, "type": "electric_scooter", "lat": 38.92970533333333, "is_reserved": 0, "is_disabled": 0, "fusion_lon": 0.0, "bike_id": "06dfc3723df5fc9a3bef00e538c90f82", "lon": -77.0295745, "rental_uris": {"ios": "https://dc.lft.to/lastmile_qr_scan", "android": "https://dc.lft.to/lastmile_qr_scan"}}, {"name": "7df8074b0ac9063c97d33a3387103911", "fusion_lat": 0.0, "type": "electric_scooter", "lat": 38.9311995, "is_reserved": 0, "is_disabled": 0, "fusion_lon": 0.0, "bike_id": "7df8074b0ac9063c97d33a3387103911", "lon": -77.03598933333333, "rental_uris": {"ios": "https://dc.lft.to/lastmile_qr_scan", "android": "https://dc.lft.to/lastmile_qr_scan"}}, {"name": "ab35d5b02f54562da3175ded3962730e", "fusion_lat": 0.0, "type": "electric_scooter", "lat": 38.89648833333333, "is_reserved": 0, "is_disabled": 0, "fusion_lon": 0.0, "bike_id": "ab35d5b02f54562da3175ded3962730e", "lon": -77.00922216666666, "rental_uris": {"ios": "https://dc.lft.to/lastmile_qr_scan", "android": "https://dc.lft.to/lastmile_qr_scan"}}, {"name": "34e7a8a99f6429f223a4c29877b54e86", "fusion_lat": 0.0, "type": "electric_bike", "lat": 38.973249, "is_reserved": 0, "is_disabled": 0, "fusion_lon": 0.0, "bike_id": "34e7a8a99f6429f223a4c29877b54e86", "lon": -77.0214115, "rental_uris": {"ios": "https://dc.lft.to/lastmile_qr_scan", "android": "https://dc.lft.to/lastmile_qr_scan"}}, {"name": "5ff9dc1a0416bd7149889e0aadfe4cb8", "fusion_lat": 0.0, "type": "electric_scooter", "lat": 38.9001675, "is_reserved": 0, "is_disabled": 0, "fusion_lon": 0.0, "bike_id": "5ff9dc1a0416bd7149889e0aadfe4cb8", "lon": -76.99557333333334, "rental_uris": {"ios": "https://dc.lft.to/lastmile_qr_scan", "android": "https://dc.lft.to/lastmile_qr_scan"}}, {"name": "728ca78fb34d128eef01c8c3b8e4f0f3", "fusion_lat": 0.0, "type": "electric_scooter", "lat": 38.9009715, "is_reserved": 0, "is_disabled": 0, "fusion_lon": 0.0, "bike_id": "728ca78fb34d128eef01c8c3b8e4f0f3", "lon": -77.04636366666666, "rental_uris": {"ios": "https://dc.lft.to/lastmile_qr_scan", "android": "https://dc.lft.to/lastmile_qr_scan"}}, {"name": "bd84aef68e156c2f102a247d7787b917", "fusion_lat": 0.0, "type": "electric_scooter", "lat": 38.894816166666665, "is_reserved": 0, "is_disabled": 0, "fusion_lon": 0.0, "bike_id": "bd84aef68e156c2f102a247d7787b917", "lon": -76.94872383333333, "rental_uris": {"ios": "https://dc.lft.to/lastmile_qr_scan", "android": "https://dc.lft.to/lastmile_qr_scan"}}, {"name": "1232257f7a9f7d788be1265291cd8a76", "fusion_lat": 0.0, "type": "electric_scooter", "lat": 38.892911833333336, "is_reserved": 0, "is_disabled": 0, "fusion_lon": 0.0, "bike_id": "1232257f7a9f7d788be1265291cd8a76", "lon": -77.03179583333333, "rental_uris": {"ios": "https://dc.lft.to/lastmile_qr_scan", "android": "https://dc.lft.to/lastmile_qr_scan"}}, {"name": "bdf8a3c5a6f34e132795302ac107be06", "fusion_lat": 0.0, "type": "electric_scooter", "lat": 38.92121366666667, "is_reserved": 0, "is_disabled": 0, "fusion_lon": 0.0, "bike_id": "bdf8a3c5a6f34e132795302ac107be06", "lon": -77.01804833333334, "rental_uris": {"ios": "https://dc.lft.to/lastmile_qr_scan", "android": "https://dc.lft.to/lastmile_qr_scan"}}, {"name": "29d60512bd7604ee6443ca79a30ef22f", "fusion_lat": 0.0, "type": "electric_scooter", "lat": 38.9026645, "is_reserved": 0, "is_disabled": 0, "fusion_lon": 0.0, "bike_id": "29d60512bd7604ee6443ca79a30ef22f", "lon": -77.017607, "rental_uris": {"ios": "https://dc.lft.to/lastmile_qr_scan", "android": "https://dc.lft.to/lastmile_qr_scan"}}, {"name": "a7b98e8d73dd0b110d1c5ca7c19c5de9", "fusion_lat": 0.0, "type": "electric_bike", "lat": 38.94545983333333, "is_reserved": 0, "is_disabled": 0, "fusion_lon": 0.0, "bike_id": "a7b98e8d73dd0b110d1c5ca7c19c5de9", "lon": -76.89535616666667, "rental_uris": {"ios": "https://dc.lft.to/lastmile_qr_scan", "android": "https://dc.lft.to/lastmile_qr_scan"}}, {"name": "063ae4d7105c886d2f3d9bae52e24732", "fusion_lat": 0.0, "type": "electric_bike", "lat": 38.917256, "is_reserved": 0, "is_disabled": 0, "fusion_lon": 0.0, "bike_id": "063ae4d7105c886d2f3d9bae52e24732", "lon": -77.032253, "rental_uris": {"ios": "https://dc.lft.to/lastmile_qr_scan", "android": "https://dc.lft.to/lastmile_qr_scan"}}, {"name": "6a04db8b394550226b830733b08898a1", "fusion_lat": 0.0, "type": "electric_bike", "lat": 38.83861566666667, "is_reserved": 0, "is_disabled": 0, "fusion_lon": 0.0, "bike_id": "6a04db8b394550226b830733b08898a1", "lon": -77.08868816666667, "rental_uris": {"ios": "https://dc.lft.to/lastmile_qr_scan", "android": "https://dc.lft.to/lastmile_qr_scan"}}, {"name": "03e1f84aaf6ce89741496ee6035914ca", "fusion_lat": 0.0, "type": "electric_scooter", "lat": 38.899135, "is_reserved": 0, "is_disabled": 0, "fusion_lon": 0.0, "bike_id": "03e1f84aaf6ce89741496ee6035914ca", "lon": -76.9338025, "rental_uris": {"ios": "https://dc.lft.to/lastmile_qr_scan", "android": "https://dc.lft.to/lastmile_qr_scan"}}, {"name": "80822c4b27b4e8a5bbf53a84b76750e0", "fusion_lat": 0.0, "type": "electric_scooter", "lat": 38.915561333333336, "is_reserved": 0, "is_disabled": 0, "fusion_lon": 0.0, "bike_id": "80822c4b27b4e8a5bbf53a84b76750e0", "lon": -77.04623133333334, "rental_uris": {"ios": "https://dc.lft.to/lastmile_qr_scan", "android": "https://dc.lft.to/lastmile_qr_scan"}}, {"name": "19f090b846c1dc47270462fa1e26ea6a", "fusion_lat": 0.0, "type": "electric_scooter", "lat": 38.91803, "is_reserved": 0, "is_disabled": 0, "fusion_lon": 0.0, "bike_id": "19f090b846c1dc47270462fa1e26ea6a", "lon": -77.02815933333333, "rental_uris": {"ios": "https://dc.lft.to/lastmile_qr_scan", "android": "https://dc.lft.to/lastmile_qr_scan"}}, {"name": "821bbe5b98b000d5d1cf2a0579ce41de", "fusion_lat": 0.0, "type": "electric_scooter", "lat": 38.90333483333333, "is_reserved": 0, "is_disabled": 0, "fusion_lon": 0.0, "bike_id": "821bbe5b98b000d5d1cf2a0579ce41de", "lon": -77.03850583333333, "rental_uris": {"ios": "https://dc.lft.to/lastmile_qr_scan", "android": "https://dc.lft.to/lastmile_qr_scan"}}, {"name": "00908b47e1e98db7be2ee698ea609a87", "fusion_lat": 0.0, "type": "electric_scooter", "lat": 38.9308625, "is_reserved": 0, "is_disabled": 0, "fusion_lon": 0.0, "bike_id": "00908b47e1e98db7be2ee698ea609a87", "lon": -77.02400366666667, "rental_uris": {"ios": "https://dc.lft.to/lastmile_qr_scan", "android": "https://dc.lft.to/lastmile_qr_scan"}}, {"name": "220ecd9db47c66070bf7a9c93ec383a7", "fusion_lat": 0.0, "type": "electric_scooter", "lat": 38.901401166666666, "is_reserved": 0, "is_disabled": 0, "fusion_lon": 0.0, "bike_id": "220ecd9db47c66070bf7a9c93ec383a7", "lon": -76.9996925, "rental_uris": {"ios": "https://dc.lft.to/lastmile_qr_scan", "android": "https://dc.lft.to/lastmile_qr_scan"}}, {"name": "e32ef97c002d713d1a49ea19987ce82a", "fusion_lat": 0.0, "type": "electric_bike", "lat": 38.973244333333334, "is_reserved": 0, "is_disabled": 0, "fusion_lon": 0.0, "bike_id": "e32ef97c002d713d1a49ea19987ce82a", "lon": -77.02145033333333, "rental_uris": {"ios": "https://dc.lft.to/lastmile_qr_scan", "android": "https://dc.lft.to/lastmile_qr_scan"}}, {"name": "fa090eea6f42053cdebb0991204e222c", "fusion_lat": 0.0, "type": "electric_bike", "lat": 38.902788666666666, "is_reserved": 0, "is_disabled": 0, "fusion_lon": 0.0, "bike_id": "fa090eea6f42053cdebb0991204e222c", "lon": -76.98085983333333, "rental_uris": {"ios": "https://dc.lft.to/lastmile_qr_scan", "android": "https://dc.lft.to/lastmile_qr_scan"}}, {"name": "20a68dad91465479fb20d0e5d28d3ea5", "fusion_lat": 0.0, "type": "electric_scooter", "lat": 38.934276, "is_reserved": 0, "is_disabled": 0, "fusion_lon": 0.0, "bike_id": "20a68dad91465479fb20d0e5d28d3ea5", "lon": -77.03996683333334, "rental_uris": {"ios": "https://dc.lft.to/lastmile_qr_scan", "android": "https://dc.lft.to/lastmile_qr_scan"}}, {"name": "a6a83d8f32dd1cf94c0a845a265f9dc3", "fusion_lat": 0.0, "type": "electric_scooter", "lat": 38.92223766666667, "is_reserved": 0, "is_disabled": 0, "fusion_lon": 0.0, "bike_id": "a6a83d8f32dd1cf94c0a845a265f9dc3", "lon": -77.02110933333333, "rental_uris": {"ios": "https://dc.lft.to/lastmile_qr_scan", "android": "https://dc.lft.to/lastmile_qr_scan"}}, {"name": "8c5feb35040e6b930d1c6edbe5bec933", "fusion_lat": 0.0, "type": "electric_scooter", "lat": 38.907254, "is_reserved": 0, "is_disabled": 0, "fusion_lon": 0.0, "bike_id": "8c5feb35040e6b930d1c6edbe5bec933", "lon": -77.04506616666667, "rental_uris": {"ios": "https://dc.lft.to/lastmile_qr_scan", "android": "https://dc.lft.to/lastmile_qr_scan"}}, {"name": "3135c32b9d185b5e34c2ce658c49f7a0", "fusion_lat": 0.0, "type": "electric_scooter", "lat": 38.884897333333335, "is_reserved": 0, "is_disabled": 0, "fusion_lon": 0.0, "bike_id": "3135c32b9d185b5e34c2ce658c49f7a0", "lon": -77.00714066666667, "rental_uris": {"ios": "https://dc.lft.to/lastmile_qr_scan", "android": "https://dc.lft.to/lastmile_qr_scan"}}, {"name": "8a092f1d57a8024d5ad44728a0145dd9", "fusion_lat": 0.0, "type": "electric_scooter", "lat": 38.90574516666667, "is_reserved": 0, "is_disabled": 0, "fusion_lon": 0.0, "bike_id": "8a092f1d57a8024d5ad44728a0145dd9", "lon": -77.00587833333333, "rental_uris": {"ios": "https://dc.lft.to/lastmile_qr_scan", "android": "https://dc.lft.to/lastmile_qr_scan"}}, {"name": "7094448499f347ecabad88ee9c31553a", "fusion_lat": 0.0, "type": "electric_scooter", "lat": 38.93466083333333, "is_reserved": 0, "is_disabled": 0, "fusion_lon": 0.0, "bike_id": "7094448499f347ecabad88ee9c31553a", "lon": -77.02847816666667, "rental_uris": {"ios": "https://dc.lft.to/lastmile_qr_scan", "android": "https://dc.lft.to/lastmile_qr_scan"}}, {"name": "37016fc01f8ee1017922f7a702999652", "fusion_lat": 0.0, "type": "electric_scooter", "lat": 38.917959, "is_reserved": 0, "is_disabled": 0, "fusion_lon": 0.0, "bike_id": "37016fc01f8ee1017922f7a702999652", "lon": -77.04013383333333, "rental_uris": {"ios": "https://dc.lft.to/lastmile_qr_scan", "android": "https://dc.lft.to/lastmile_qr_scan"}}, {"name": "8c79afd93e359f0c2dbc3b9a55c7b046", "fusion_lat": 0.0, "type": "electric_scooter", "lat": 38.9171005, "is_reserved": 0, "is_disabled": 0, "fusion_lon": 0.0, "bike_id": "8c79afd93e359f0c2dbc3b9a55c7b046", "lon": -77.03145366666666, "rental_uris": {"ios": "https://dc.lft.to/lastmile_qr_scan", "android": "https://dc.lft.to/lastmile_qr_scan"}}, {"name": "b162d57c0a1b2e034be44e02e2725222", "fusion_lat": 0.0, "type": "electric_scooter", "lat": 38.91828966666667, "is_reserved": 0, "is_disabled": 0, "fusion_lon": 0.0, "bike_id": "b162d57c0a1b2e034be44e02e2725222", "lon": -77.02725133333334, "rental_uris": {"ios": "https://dc.lft.to/lastmile_qr_scan", "android": "https://dc.lft.to/lastmile_qr_scan"}}, {"name": "19d3da2301001c23f05e301b3d505eba", "fusion_lat": 0.0, "type": "electric_scooter", "lat": 38.91821066666667, "is_reserved": 0, "is_disabled": 0, "fusion_lon": 0.0, "bike_id": "19d3da2301001c23f05e301b3d505eba", "lon": -77.03209683333333, "rental_uris": {"ios": "https://dc.lft.to/lastmile_qr_scan", "android": "https://dc.lft.to/lastmile_qr_scan"}}, {"name": "2f948c126126b0f8cd35bd3fd9d9432d", "fusion_lat": 0.0, "type": "electric_scooter", "lat": 38.975047, "is_reserved": 0, "is_disabled": 0, "fusion_lon": 0.0, "bike_id": "2f948c126126b0f8cd35bd3fd9d9432d", "lon": -77.01722116666667, "rental_uris": {"ios": "https://dc.lft.to/lastmile_qr_scan", "android": "https://dc.lft.to/lastmile_qr_scan"}}, {"name": "2a499c267feba45399abb70e75201ced", "fusion_lat": 0.0, "type": "electric_bike", "lat": 38.852438166666666, "is_reserved": 0, "is_disabled": 0, "fusion_lon": 0.0, "bike_id": "2a499c267feba45399abb70e75201ced", "lon": -77.11426916666667, "rental_uris": {"ios": "https://dc.lft.to/lastmile_qr_scan", "android": "https://dc.lft.to/lastmile_qr_scan"}}, {"name": "be33f5b4ec33d5cc78e868dcb9ce98ea", "fusion_lat": 0.0, "type": "electric_scooter", "lat": 38.88463333333333, "is_reserved": 0, "is_disabled": 0, "fusion_lon": 0.0, "bike_id": "be33f5b4ec33d5cc78e868dcb9ce98ea", "lon": -77.021707, "rental_uris": {"ios": "https://dc.lft.to/lastmile_qr_scan", "android": "https://dc.lft.to/lastmile_qr_scan"}}, {"name": "67bf299b5dcb1a4fdd57a519167f4558", "fusion_lat": 0.0, "type": "electric_scooter", "lat": 38.88429333333333, "is_reserved": 0, "is_disabled": 0, "fusion_lon": 0.0, "bike_id": "67bf299b5dcb1a4fdd57a519167f4558", "lon": -77.03047416666666, "rental_uris": {"ios": "https://dc.lft.to/lastmile_qr_scan", "android": "https://dc.lft.to/lastmile_qr_scan"}}, {"name": "bee52c76fde9f3fb1750766b8bcd0dc5", "fusion_lat": 0.0, "type": "electric_bike", "lat": 38.90436116666667, "is_reserved": 0, "is_disabled": 0, "fusion_lon": 0.0, "bike_id": "bee52c76fde9f3fb1750766b8bcd0dc5", "lon": -77.028578, "rental_uris": {"ios": "https://dc.lft.to/lastmile_qr_scan", "android": "https://dc.lft.to/lastmile_qr_scan"}}, {"name": "f9e445dfef8933ef339332232f624e5b", "fusion_lat": 0.0, "type": "electric_scooter", "lat": 38.89697433333333, "is_reserved": 0, "is_disabled": 0, "fusion_lon": 0.0, "bike_id": "f9e445dfef8933ef339332232f624e5b", "lon": -77.03278466666667, "rental_uris": {"ios": "https://dc.lft.to/lastmile_qr_scan", "android": "https://dc.lft.to/lastmile_qr_scan"}}, {"name": "f80c8cda6ec9f4948165977a8db330df", "fusion_lat": 0.0, "type": "electric_bike", "lat": 38.8244675, "is_reserved": 0, "is_disabled": 0, "fusion_lon": 0.0, "bike_id": "f80c8cda6ec9f4948165977a8db330df", "lon": -77.07046333333334, "rental_uris": {"ios": "https://dc.lft.to/lastmile_qr_scan", "android": "https://dc.lft.to/lastmile_qr_scan"}}, {"name": "8d4b5fe19b6d3c49e77270a59b6e373d", "fusion_lat": 0.0, "type": "electric_scooter", "lat": 38.89735, "is_reserved": 0, "is_disabled": 0, "fusion_lon": 0.0, "bike_id": "8d4b5fe19b6d3c49e77270a59b6e373d", "lon": -77.04646366666667, "rental_uris": {"ios": "https://dc.lft.to/lastmile_qr_scan", "android": "https://dc.lft.to/lastmile_qr_scan"}}, {"name": "fe57a6ca22a90f39c0aea664b26e6bd9", "fusion_lat": 0.0, "type": "electric_scooter", "lat": 38.92202566666667, "is_reserved": 0, "is_disabled": 0, "fusion_lon": 0.0, "bike_id": "fe57a6ca22a90f39c0aea664b26e6bd9", "lon": -77.04127033333333, "rental_uris": {"ios": "https://dc.lft.to/lastmile_qr_scan", "android": "https://dc.lft.to/lastmile_qr_scan"}}, {"name": "9ce9770af5edd3a892ab522b69e6103a", "fusion_lat": 0.0, "type": "electric_scooter", "lat": 38.932529333333335, "is_reserved": 0, "is_disabled": 0, "fusion_lon": 0.0, "bike_id": "9ce9770af5edd3a892ab522b69e6103a", "lon": -77.02377533333333, "rental_uris": {"ios": "https://dc.lft.to/lastmile_qr_scan", "android": "https://dc.lft.to/lastmile_qr_scan"}}, {"name": "5f69b72d8a7bd86fe71a85c704e8e5ca", "fusion_lat": 0.0, "type": "electric_bike", "lat": 38.91856083333333, "is_reserved": 0, "is_disabled": 0, "fusion_lon": 0.0, "bike_id": "5f69b72d8a7bd86fe71a85c704e8e5ca", "lon": -76.96092066666667, "rental_uris": {"ios": "https://dc.lft.to/lastmile_qr_scan", "android": "https://dc.lft.to/lastmile_qr_scan"}}, {"name": "04d3859ccf8a6cf4326eb617a3de9d6c", "fusion_lat": 0.0, "type": "electric_scooter", "lat": 38.89724916666667, "is_reserved": 0, "is_disabled": 0, "fusion_lon": 0.0, "bike_id": "04d3859ccf8a6cf4326eb617a3de9d6c", "lon": -77.0433105, "rental_uris": {"ios": "https://dc.lft.to/lastmile_qr_scan", "android": "https://dc.lft.to/lastmile_qr_scan"}}, {"name": "6c58471a58f2aca9f4e176b34e36c2f9", "fusion_lat": 0.0, "type": "electric_scooter", "lat": 38.9028165, "is_reserved": 0, "is_disabled": 0, "fusion_lon": 0.0, "bike_id": "6c58471a58f2aca9f4e176b34e36c2f9", "lon": -77.04472016666666, "rental_uris": {"ios": "https://dc.lft.to/lastmile_qr_scan", "android": "https://dc.lft.to/lastmile_qr_scan"}}, {"name": "8c2217bb4378351066c05da496158fa3", "fusion_lat": 0.0, "type": "electric_bike", "lat": 38.843469, "is_reserved": 0, "is_disabled": 0, "fusion_lon": 0.0, "bike_id": "8c2217bb4378351066c05da496158fa3", "lon": -77.0640065, "rental_uris": {"ios": "https://dc.lft.to/lastmile_qr_scan", "android": "https://dc.lft.to/lastmile_qr_scan"}}, {"name": "15319f399a407e064b35b82a817d0568", "fusion_lat": 0.0, "type": "electric_scooter", "lat": 38.92750233333334, "is_reserved": 0, "is_disabled": 0, "fusion_lon": 0.0, "bike_id": "15319f399a407e064b35b82a817d0568", "lon": -77.0241415, "rental_uris": {"ios": "https://dc.lft.to/lastmile_qr_scan", "android": "https://dc.lft.to/lastmile_qr_scan"}}, {"name": "716134096719130f04c04de2d55efe63", "fusion_lat": 0.0, "type": "electric_bike", "lat": 38.95184283333333, "is_reserved": 0, "is_disabled": 0, "fusion_lon": 0.0, "bike_id": "716134096719130f04c04de2d55efe63", "lon": -76.93543916666667, "rental_uris": {"ios": "https://dc.lft.to/lastmile_qr_scan", "android": "https://dc.lft.to/lastmile_qr_scan"}}, {"name": "e327a4eea5978dc90426c675a38c7e54", "fusion_lat": 0.0, "type": "electric_scooter", "lat": 38.90135933333333, "is_reserved": 0, "is_disabled": 0, "fusion_lon": 0.0, "bike_id": "e327a4eea5978dc90426c675a38c7e54", "lon": -77.00071716666666, "rental_uris": {"ios": "https://dc.lft.to/lastmile_qr_scan", "android": "https://dc.lft.to/lastmile_qr_scan"}}, {"name": "56cab5c670a38aca98a3eebb85df778b", "fusion_lat": 0.0, "type": "electric_scooter", "lat": 38.903861, "is_reserved": 0, "is_disabled": 0, "fusion_lon": 0.0, "bike_id": "56cab5c670a38aca98a3eebb85df778b", "lon": -77.04818083333333, "rental_uris": {"ios": "https://dc.lft.to/lastmile_qr_scan", "android": "https://dc.lft.to/lastmile_qr_scan"}}, {"name": "720951474797392147a3acdbe98444d1", "fusion_lat": 0.0, "type": "electric_scooter", "lat": 38.9095595, "is_reserved": 0, "is_disabled": 0, "fusion_lon": 0.0, "bike_id": "720951474797392147a3acdbe98444d1", "lon": -77.0486335, "rental_uris": {"ios": "https://dc.lft.to/lastmile_qr_scan", "android": "https://dc.lft.to/lastmile_qr_scan"}}, {"name": "61503052d5292b94ebe8c35ea3a6e788", "fusion_lat": 0.0, "type": "electric_scooter", "lat": 38.873270166666664, "is_reserved": 0, "is_disabled": 0, "fusion_lon": 0.0, "bike_id": "61503052d5292b94ebe8c35ea3a6e788", "lon": -77.00112733333333, "rental_uris": {"ios": "https://dc.lft.to/lastmile_qr_scan", "android": "https://dc.lft.to/lastmile_qr_scan"}}, {"name": "06d61fff5ffccea8c388b09a86de3b79", "fusion_lat": 0.0, "type": "electric_scooter", "lat": 38.89844333333333, "is_reserved": 0, "is_disabled": 0, "fusion_lon": 0.0, "bike_id": "06d61fff5ffccea8c388b09a86de3b79", "lon": -77.04076783333333, "rental_uris": {"ios": "https://dc.lft.to/lastmile_qr_scan", "android": "https://dc.lft.to/lastmile_qr_scan"}}, {"name": "1e90fd8f013726671b504e742b36abe5", "fusion_lat": 0.0, "type": "electric_scooter", "lat": 38.9048195, "is_reserved": 0, "is_disabled": 0, "fusion_lon": 0.0, "bike_id": "1e90fd8f013726671b504e742b36abe5", "lon": -76.97328533333334, "rental_uris": {"ios": "https://dc.lft.to/lastmile_qr_scan", "android": "https://dc.lft.to/lastmile_qr_scan"}}, {"name": "852a251ee3004d32fa5adcfd65888157", "fusion_lat": 0.0, "type": "electric_scooter", "lat": 38.893319, "is_reserved": 0, "is_disabled": 0, "fusion_lon": 0.0, "bike_id": "852a251ee3004d32fa5adcfd65888157", "lon": -76.92892716666667, "rental_uris": {"ios": "https://dc.lft.to/lastmile_qr_scan", "android": "https://dc.lft.to/lastmile_qr_scan"}}, {"name": "17236aba0d8c529f655398444c28f088", "fusion_lat": 0.0, "type": "electric_scooter", "lat": 38.918602666666665, "is_reserved": 0, "is_disabled": 0, "fusion_lon": 0.0, "bike_id": "17236aba0d8c529f655398444c28f088", "lon": -77.04584083333333, "rental_uris": {"ios": "https://dc.lft.to/lastmile_qr_scan", "android": "https://dc.lft.to/lastmile_qr_scan"}}, {"name": "557b2066c8d87096c7ac0c3d2fd572c4", "fusion_lat": 0.0, "type": "electric_scooter", "lat": 38.9233135, "is_reserved": 0, "is_disabled": 0, "fusion_lon": 0.0, "bike_id": "557b2066c8d87096c7ac0c3d2fd572c4", "lon": -77.02048216666667, "rental_uris": {"ios": "https://dc.lft.to/lastmile_qr_scan", "android": "https://dc.lft.to/lastmile_qr_scan"}}, {"name": "78159802941c42f2a06c60699e25a152", "fusion_lat": 0.0, "type": "electric_scooter", "lat": 38.89997733333333, "is_reserved": 0, "is_disabled": 0, "fusion_lon": 0.0, "bike_id": "78159802941c42f2a06c60699e25a152", "lon": -76.98548966666667, "rental_uris": {"ios": "https://dc.lft.to/lastmile_qr_scan", "android": "https://dc.lft.to/lastmile_qr_scan"}}, {"name": "efc05d107f594c81a82f3ae76dd3d7bb", "fusion_lat": 0.0, "type": "electric_scooter", "lat": 38.863675, "is_reserved": 0, "is_disabled": 0, "fusion_lon": 0.0, "bike_id": "efc05d107f594c81a82f3ae76dd3d7bb", "lon": -77.01367316666666, "rental_uris": {"ios": "https://dc.lft.to/lastmile_qr_scan", "android": "https://dc.lft.to/lastmile_qr_scan"}}, {"name": "65ddd2144a08c091d3dba53f03c3c202", "fusion_lat": 0.0, "type": "electric_scooter", "lat": 38.916898333333336, "is_reserved": 0, "is_disabled": 0, "fusion_lon": 0.0, "bike_id": "65ddd2144a08c091d3dba53f03c3c202", "lon": -77.03587216666666, "rental_uris": {"ios": "https://dc.lft.to/lastmile_qr_scan", "android": "https://dc.lft.to/lastmile_qr_scan"}}, {"name": "a7fdded9c45b02b82d84f0bb2aa8419e", "fusion_lat": 0.0, "type": "electric_scooter", "lat": 38.885298666666664, "is_reserved": 0, "is_disabled": 0, "fusion_lon": 0.0, "bike_id": "a7fdded9c45b02b82d84f0bb2aa8419e", "lon": -77.033455, "rental_uris": {"ios": "https://dc.lft.to/lastmile_qr_scan", "android": "https://dc.lft.to/lastmile_qr_scan"}}, {"name": "cd4beb7d96f0a26f7fa68238e99a00ba", "fusion_lat": 0.0, "type": "electric_bike", "lat": 38.930599, "is_reserved": 0, "is_disabled": 0, "fusion_lon": 0.0, "bike_id": "cd4beb7d96f0a26f7fa68238e99a00ba", "lon": -76.97328533333334, "rental_uris": {"ios": "https://dc.lft.to/lastmile_qr_scan", "android": "https://dc.lft.to/lastmile_qr_scan"}}, {"name": "2ef7ebed5233057f1c88163a9786c347", "fusion_lat": 0.0, "type": "electric_scooter", "lat": 38.89193516666667, "is_reserved": 0, "is_disabled": 0, "fusion_lon": 0.0, "bike_id": "2ef7ebed5233057f1c88163a9786c347", "lon": -77.00291166666666, "rental_uris": {"ios": "https://dc.lft.to/lastmile_qr_scan", "android": "https://dc.lft.to/lastmile_qr_scan"}}, {"name": "70bdbda6941dcdc314f0a69393fa5285", "fusion_lat": 0.0, "type": "electric_scooter", "lat": 38.93260933333333, "is_reserved": 0, "is_disabled": 0, "fusion_lon": 0.0, "bike_id": "70bdbda6941dcdc314f0a69393fa5285", "lon": -77.032569, "rental_uris": {"ios": "https://dc.lft.to/lastmile_qr_scan", "android": "https://dc.lft.to/lastmile_qr_scan"}}, {"name": "39e7cab292718a6dbf8cd77e63b826f7", "fusion_lat": 0.0, "type": "electric_scooter", "lat": 38.921581, "is_reserved": 0, "is_disabled": 0, "fusion_lon": 0.0, "bike_id": "39e7cab292718a6dbf8cd77e63b826f7", "lon": -77.0204005, "rental_uris": {"ios": "https://dc.lft.to/lastmile_qr_scan", "android": "https://dc.lft.to/lastmile_qr_scan"}}, {"name": "5f4bd7b95852907f63f6fe5fef8196e2", "fusion_lat": 0.0, "type": "electric_scooter", "lat": 38.87430233333333, "is_reserved": 0, "is_disabled": 0, "fusion_lon": 0.0, "bike_id": "5f4bd7b95852907f63f6fe5fef8196e2", "lon": -77.02066583333334, "rental_uris": {"ios": "https://dc.lft.to/lastmile_qr_scan", "android": "https://dc.lft.to/lastmile_qr_scan"}}, {"name": "24d7060516e7d1b79e59b1b74b0dce6f", "fusion_lat": 0.0, "type": "electric_scooter", "lat": 38.8935975, "is_reserved": 0, "is_disabled": 0, "fusion_lon": 0.0, "bike_id": "24d7060516e7d1b79e59b1b74b0dce6f", "lon": -77.04658283333333, "rental_uris": {"ios": "https://dc.lft.to/lastmile_qr_scan", "android": "https://dc.lft.to/lastmile_qr_scan"}}, {"name": "e10bd1aa395a6ca437b72d685a1b0440", "fusion_lat": 0.0, "type": "electric_scooter", "lat": 38.8851865, "is_reserved": 0, "is_disabled": 0, "fusion_lon": 0.0, "bike_id": "e10bd1aa395a6ca437b72d685a1b0440", "lon": -77.03348516666667, "rental_uris": {"ios": "https://dc.lft.to/lastmile_qr_scan", "android": "https://dc.lft.to/lastmile_qr_scan"}}, {"name": "d02466bc2be96ae55f2c3c1c62b29e31", "fusion_lat": 0.0, "type": "electric_scooter", "lat": 38.902296666666665, "is_reserved": 0, "is_disabled": 0, "fusion_lon": 0.0, "bike_id": "d02466bc2be96ae55f2c3c1c62b29e31", "lon": -77.0231285, "rental_uris": {"ios": "https://dc.lft.to/lastmile_qr_scan", "android": "https://dc.lft.to/lastmile_qr_scan"}}, {"name": "9179d036b1692b18b16dbaa1578ddb38", "fusion_lat": 0.0, "type": "electric_scooter", "lat": 38.90022233333333, "is_reserved": 0, "is_disabled": 0, "fusion_lon": 0.0, "bike_id": "9179d036b1692b18b16dbaa1578ddb38", "lon": -76.9984845, "rental_uris": {"ios": "https://dc.lft.to/lastmile_qr_scan", "android": "https://dc.lft.to/lastmile_qr_scan"}}, {"name": "59d7931b76978f639fcde7d47b8b6644", "fusion_lat": 0.0, "type": "electric_scooter", "lat": 38.903075333333334, "is_reserved": 0, "is_disabled": 0, "fusion_lon": 0.0, "bike_id": "59d7931b76978f639fcde7d47b8b6644", "lon": -77.02058016666666, "rental_uris": {"ios": "https://dc.lft.to/lastmile_qr_scan", "android": "https://dc.lft.to/lastmile_qr_scan"}}, {"name": "76c7e8c49e050b3e531a51577d9c738f", "fusion_lat": 0.0, "type": "electric_bike", "lat": 38.8788365, "is_reserved": 0, "is_disabled": 0, "fusion_lon": 0.0, "bike_id": "76c7e8c49e050b3e531a51577d9c738f", "lon": -77.02303833333333, "rental_uris": {"ios": "https://dc.lft.to/lastmile_qr_scan", "android": "https://dc.lft.to/lastmile_qr_scan"}}, {"name": "34dee6bb8f1e4f31bbfd35956f35e12a", "fusion_lat": 0.0, "type": "electric_scooter", "lat": 38.87375333333333, "is_reserved": 0, "is_disabled": 0, "fusion_lon": 0.0, "bike_id": "34dee6bb8f1e4f31bbfd35956f35e12a", "lon": -77.0003245, "rental_uris": {"ios": "https://dc.lft.to/lastmile_qr_scan", "android": "https://dc.lft.to/lastmile_qr_scan"}}, {"name": "ff110b5e52f5f48bee5e2288d77e4191", "fusion_lat": 0.0, "type": "electric_bike", "lat": 38.93523283333333, "is_reserved": 0, "is_disabled": 0, "fusion_lon": 0.0, "bike_id": "ff110b5e52f5f48bee5e2288d77e4191", "lon": -77.0569825, "rental_uris": {"ios": "https://dc.lft.to/lastmile_qr_scan", "android": "https://dc.lft.to/lastmile_qr_scan"}}, {"name": "4e6db122037ca8dc5c1c98847015ef8a", "fusion_lat": 0.0, "type": "electric_scooter", "lat": 38.919168, "is_reserved": 0, "is_disabled": 0, "fusion_lon": 0.0, "bike_id": "4e6db122037ca8dc5c1c98847015ef8a", "lon": -77.021431, "rental_uris": {"ios": "https://dc.lft.to/lastmile_qr_scan", "android": "https://dc.lft.to/lastmile_qr_scan"}}, {"name": "ccde33aed252be4a5342b6e69462e7da", "fusion_lat": 0.0, "type": "electric_scooter", "lat": 38.91053483333334, "is_reserved": 0, "is_disabled": 0, "fusion_lon": 0.0, "bike_id": "ccde33aed252be4a5342b6e69462e7da", "lon": -77.0458795, "rental_uris": {"ios": "https://dc.lft.to/lastmile_qr_scan", "android": "https://dc.lft.to/lastmile_qr_scan"}}, {"name": "53be753ba1b2e6ca1baf479e96e24e38", "fusion_lat": 0.0, "type": "electric_scooter", "lat": 38.918816, "is_reserved": 0, "is_disabled": 0, "fusion_lon": 0.0, "bike_id": "53be753ba1b2e6ca1baf479e96e24e38", "lon": -77.04323883333333, "rental_uris": {"ios": "https://dc.lft.to/lastmile_qr_scan", "android": "https://dc.lft.to/lastmile_qr_scan"}}, {"name": "bb84ebdaa4ae693e761f4a6b864a96e0", "fusion_lat": 0.0, "type": "electric_bike", "lat": 38.883429, "is_reserved": 0, "is_disabled": 0, "fusion_lon": 0.0, "bike_id": "bb84ebdaa4ae693e761f4a6b864a96e0", "lon": -77.18294133333333, "rental_uris": {"ios": "https://dc.lft.to/lastmile_qr_scan", "android": "https://dc.lft.to/lastmile_qr_scan"}}, {"name": "5ce4914995e2f976f7611e766da5805d", "fusion_lat": 0.0, "type": "electric_scooter", "lat": 38.8937155, "is_reserved": 0, "is_disabled": 0, "fusion_lon": 0.0, "bike_id": "5ce4914995e2f976f7611e766da5805d", "lon": -76.95000716666667, "rental_uris": {"ios": "https://dc.lft.to/lastmile_qr_scan", "android": "https://dc.lft.to/lastmile_qr_scan"}}, {"name": "db0eff82a931e169157549222b6c551b", "fusion_lat": 0.0, "type": "electric_scooter", "lat": 38.934136, "is_reserved": 0, "is_disabled": 0, "fusion_lon": 0.0, "bike_id": "db0eff82a931e169157549222b6c551b", "lon": -77.04183016666667, "rental_uris": {"ios": "https://dc.lft.to/lastmile_qr_scan", "android": "https://dc.lft.to/lastmile_qr_scan"}}, {"name": "84f20c63959ff3fe384f67860e632bb0", "fusion_lat": 0.0, "type": "electric_scooter", "lat": 38.90021266666667, "is_reserved": 0, "is_disabled": 0, "fusion_lon": 0.0, "bike_id": "84f20c63959ff3fe384f67860e632bb0", "lon": -76.99846033333333, "rental_uris": {"ios": "https://dc.lft.to/lastmile_qr_scan", "android": "https://dc.lft.to/lastmile_qr_scan"}}, {"name": "663830e4e5d77037c72d324b718e0a4c", "fusion_lat": 0.0, "type": "electric_scooter", "lat": 38.88595333333333, "is_reserved": 0, "is_disabled": 0, "fusion_lon": 0.0, "bike_id": "663830e4e5d77037c72d324b718e0a4c", "lon": -77.0220135, "rental_uris": {"ios": "https://dc.lft.to/lastmile_qr_scan", "android": "https://dc.lft.to/lastmile_qr_scan"}}, {"name": "ff2b7678464675204086127be90b0406", "fusion_lat": 0.0, "type": "electric_scooter", "lat": 38.898498833333335, "is_reserved": 0, "is_disabled": 0, "fusion_lon": 0.0, "bike_id": "ff2b7678464675204086127be90b0406", "lon": -77.01610583333333, "rental_uris": {"ios": "https://dc.lft.to/lastmile_qr_scan", "android": "https://dc.lft.to/lastmile_qr_scan"}}, {"name": "88b237c51f4af851676566d205cfb3ef", "fusion_lat": 0.0, "type": "electric_scooter", "lat": 38.910371166666664, "is_reserved": 0, "is_disabled": 0, "fusion_lon": 0.0, "bike_id": "88b237c51f4af851676566d205cfb3ef", "lon": -77.0438725, "rental_uris": {"ios": "https://dc.lft.to/lastmile_qr_scan", "android": "https://dc.lft.to/lastmile_qr_scan"}}, {"name": "49098c864e465959e788577343e508c0", "fusion_lat": 0.0, "type": "electric_scooter", "lat": 38.9200655, "is_reserved": 0, "is_disabled": 0, "fusion_lon": 0.0, "bike_id": "49098c864e465959e788577343e508c0", "lon": -77.0818635, "rental_uris": {"ios": "https://dc.lft.to/lastmile_qr_scan", "android": "https://dc.lft.to/lastmile_qr_scan"}}, {"name": "35e08ae10457b3158a04a89bb73fb193", "fusion_lat": 0.0, "type": "electric_scooter", "lat": 38.91767, "is_reserved": 0, "is_disabled": 0, "fusion_lon": 0.0, "bike_id": "35e08ae10457b3158a04a89bb73fb193", "lon": -77.040561, "rental_uris": {"ios": "https://dc.lft.to/lastmile_qr_scan", "android": "https://dc.lft.to/lastmile_qr_scan"}}, {"name": "f53fd4fbba4e7a7a2dc117a7d9adaed6", "fusion_lat": 0.0, "type": "electric_scooter", "lat": 38.90024966666667, "is_reserved": 0, "is_disabled": 0, "fusion_lon": 0.0, "bike_id": "f53fd4fbba4e7a7a2dc117a7d9adaed6", "lon": -77.048673, "rental_uris": {"ios": "https://dc.lft.to/lastmile_qr_scan", "android": "https://dc.lft.to/lastmile_qr_scan"}}, {"name": "a68372516d877660c11bf012b7472057", "fusion_lat": 0.0, "type": "electric_scooter", "lat": 38.903837333333335, "is_reserved": 0, "is_disabled": 0, "fusion_lon": 0.0, "bike_id": "a68372516d877660c11bf012b7472057", "lon": -77.03019766666667, "rental_uris": {"ios": "https://dc.lft.to/lastmile_qr_scan", "android": "https://dc.lft.to/lastmile_qr_scan"}}, {"name": "7413e113cb5c323f64b527592f97f893", "fusion_lat": 0.0, "type": "electric_scooter", "lat": 38.8997005, "is_reserved": 0, "is_disabled": 0, "fusion_lon": 0.0, "bike_id": "7413e113cb5c323f64b527592f97f893", "lon": -77.05701433333333, "rental_uris": {"ios": "https://dc.lft.to/lastmile_qr_scan", "android": "https://dc.lft.to/lastmile_qr_scan"}}, {"name": "2a4dc6bef0f8a91f19724d9b4e951c6d", "fusion_lat": 0.0, "type": "electric_scooter", "lat": 38.935304, "is_reserved": 0, "is_disabled": 0, "fusion_lon": 0.0, "bike_id": "2a4dc6bef0f8a91f19724d9b4e951c6d", "lon": -77.0235485, "rental_uris": {"ios": "https://dc.lft.to/lastmile_qr_scan", "android": "https://dc.lft.to/lastmile_qr_scan"}}, {"name": "d73fe999f33e264a362de3484c1e13c5", "fusion_lat": 0.0, "type": "electric_bike", "lat": 38.990896666666664, "is_reserved": 0, "is_disabled": 0, "fusion_lon": 0.0, "bike_id": "d73fe999f33e264a362de3484c1e13c5", "lon": -76.87493883333333, "rental_uris": {"ios": "https://dc.lft.to/lastmile_qr_scan", "android": "https://dc.lft.to/lastmile_qr_scan"}}, {"name": "7d06b840e5aa7b51a96d10e3d2f77054", "fusion_lat": 0.0, "type": "electric_scooter", "lat": 38.905095833333334, "is_reserved": 0, "is_disabled": 0, "fusion_lon": 0.0, "bike_id": "7d06b840e5aa7b51a96d10e3d2f77054", "lon": -77.04054033333334, "rental_uris": {"ios": "https://dc.lft.to/lastmile_qr_scan", "android": "https://dc.lft.to/lastmile_qr_scan"}}, {"name": "6559f38e0538ce82b51fb8a7405e4a8d", "fusion_lat": 0.0, "type": "electric_scooter", "lat": 38.88406066666667, "is_reserved": 0, "is_disabled": 0, "fusion_lon": 0.0, "bike_id": "6559f38e0538ce82b51fb8a7405e4a8d", "lon": -77.01504766666666, "rental_uris": {"ios": "https://dc.lft.to/lastmile_qr_scan", "android": "https://dc.lft.to/lastmile_qr_scan"}}, {"name": "9bfa976a1bb65b0e7afc300c06b9eb32", "fusion_lat": 0.0, "type": "electric_bike", "lat": 38.82870616666666, "is_reserved": 0, "is_disabled": 0, "fusion_lon": 0.0, "bike_id": "9bfa976a1bb65b0e7afc300c06b9eb32", "lon": -77.1122165, "rental_uris": {"ios": "https://dc.lft.to/lastmile_qr_scan", "android": "https://dc.lft.to/lastmile_qr_scan"}}, {"name": "f63b2671e438a1e9b17cdecd3b4ba2d1", "fusion_lat": 0.0, "type": "electric_scooter", "lat": 38.897084166666666, "is_reserved": 0, "is_disabled": 0, "fusion_lon": 0.0, "bike_id": "f63b2671e438a1e9b17cdecd3b4ba2d1", "lon": -77.00844816666667, "rental_uris": {"ios": "https://dc.lft.to/lastmile_qr_scan", "android": "https://dc.lft.to/lastmile_qr_scan"}}, {"name": "3fe45cc4b33f13e418ac41fa0062c236", "fusion_lat": 0.0, "type": "electric_scooter", "lat": 38.8964395, "is_reserved": 0, "is_disabled": 0, "fusion_lon": 0.0, "bike_id": "3fe45cc4b33f13e418ac41fa0062c236", "lon": -77.02572316666667, "rental_uris": {"ios": "https://dc.lft.to/lastmile_qr_scan", "android": "https://dc.lft.to/lastmile_qr_scan"}}, {"name": "992d5f4301123dc017af173ed0160804", "fusion_lat": 0.0, "type": "electric_scooter", "lat": 38.889949, "is_reserved": 0, "is_disabled": 0, "fusion_lon": 0.0, "bike_id": "992d5f4301123dc017af173ed0160804", "lon": -76.9541615, "rental_uris": {"ios": "https://dc.lft.to/lastmile_qr_scan", "android": "https://dc.lft.to/lastmile_qr_scan"}}, {"name": "2b71977518f0e53af299edc18c2bc757", "fusion_lat": 0.0, "type": "electric_scooter", "lat": 38.901428833333334, "is_reserved": 0, "is_disabled": 0, "fusion_lon": 0.0, "bike_id": "2b71977518f0e53af299edc18c2bc757", "lon": -77.03974466666666, "rental_uris": {"ios": "https://dc.lft.to/lastmile_qr_scan", "android": "https://dc.lft.to/lastmile_qr_scan"}}, {"name": "d97532359dc26082e6eb570ffa096757", "fusion_lat": 0.0, "type": "electric_scooter", "lat": 38.92339716666667, "is_reserved": 0, "is_disabled": 0, "fusion_lon": 0.0, "bike_id": "d97532359dc26082e6eb570ffa096757", "lon": -77.05013, "rental_uris": {"ios": "https://dc.lft.to/lastmile_qr_scan", "android": "https://dc.lft.to/lastmile_qr_scan"}}, {"name": "a65a29dac1e572d6d349e50b83da7100", "fusion_lat": 0.0, "type": "electric_scooter", "lat": 38.912125833333334, "is_reserved": 0, "is_disabled": 0, "fusion_lon": 0.0, "bike_id": "a65a29dac1e572d6d349e50b83da7100", "lon": -77.0759035, "rental_uris": {"ios": "https://dc.lft.to/lastmile_qr_scan", "android": "https://dc.lft.to/lastmile_qr_scan"}}, {"name": "ec48eccbf46b0240065bb2ff4e65bc6d", "fusion_lat": 0.0, "type": "electric_scooter", "lat": 38.91487266666667, "is_reserved": 0, "is_disabled": 0, "fusion_lon": 0.0, "bike_id": "ec48eccbf46b0240065bb2ff4e65bc6d", "lon": -77.018686, "rental_uris": {"ios": "https://dc.lft.to/lastmile_qr_scan", "android": "https://dc.lft.to/lastmile_qr_scan"}}, {"name": "2d41f78e01461d757b3edac8803fb1dd", "fusion_lat": 0.0, "type": "electric_scooter", "lat": 38.910933666666665, "is_reserved": 0, "is_disabled": 0, "fusion_lon": 0.0, "bike_id": "2d41f78e01461d757b3edac8803fb1dd", "lon": -77.03835566666666, "rental_uris": {"ios": "https://dc.lft.to/lastmile_qr_scan", "android": "https://dc.lft.to/lastmile_qr_scan"}}, {"name": "22b4a68117cea5b8d4d572768eb4f4c0", "fusion_lat": 0.0, "type": "electric_scooter", "lat": 38.894796, "is_reserved": 0, "is_disabled": 0, "fusion_lon": 0.0, "bike_id": "22b4a68117cea5b8d4d572768eb4f4c0", "lon": -76.94870766666666, "rental_uris": {"ios": "https://dc.lft.to/lastmile_qr_scan", "android": "https://dc.lft.to/lastmile_qr_scan"}}, {"name": "68da6f2f7a18f6f0ac75ca63045e1b82", "fusion_lat": 0.0, "type": "electric_scooter", "lat": 38.91416866666667, "is_reserved": 0, "is_disabled": 0, "fusion_lon": 0.0, "bike_id": "68da6f2f7a18f6f0ac75ca63045e1b82", "lon": -77.045008, "rental_uris": {"ios": "https://dc.lft.to/lastmile_qr_scan", "android": "https://dc.lft.to/lastmile_qr_scan"}}, {"name": "effc577683854d5f4f754dd3d2ceac3c", "fusion_lat": 0.0, "type": "electric_scooter", "lat": 38.89959666666667, "is_reserved": 0, "is_disabled": 0, "fusion_lon": 0.0, "bike_id": "effc577683854d5f4f754dd3d2ceac3c", "lon": -77.03351083333334, "rental_uris": {"ios": "https://dc.lft.to/lastmile_qr_scan", "android": "https://dc.lft.to/lastmile_qr_scan"}}, {"name": "d9c0e40824f055a1ae5921c772f21505", "fusion_lat": 0.0, "type": "electric_scooter", "lat": 38.91555616666667, "is_reserved": 0, "is_disabled": 0, "fusion_lon": 0.0, "bike_id": "d9c0e40824f055a1ae5921c772f21505", "lon": -77.032394, "rental_uris": {"ios": "https://dc.lft.to/lastmile_qr_scan", "android": "https://dc.lft.to/lastmile_qr_scan"}}, {"name": "7c92d5f5a313522142f5342edc2e89ad", "fusion_lat": 0.0, "type": "electric_scooter", "lat": 38.9127965, "is_reserved": 0, "is_disabled": 0, "fusion_lon": 0.0, "bike_id": "7c92d5f5a313522142f5342edc2e89ad", "lon": -76.93804766666666, "rental_uris": {"ios": "https://dc.lft.to/lastmile_qr_scan", "android": "https://dc.lft.to/lastmile_qr_scan"}}, {"name": "5c08067a0c43d863d69cf18b04e13345", "fusion_lat": 0.0, "type": "electric_scooter", "lat": 38.90277966666667, "is_reserved": 0, "is_disabled": 0, "fusion_lon": 0.0, "bike_id": "5c08067a0c43d863d69cf18b04e13345", "lon": -77.04637833333334, "rental_uris": {"ios": "https://dc.lft.to/lastmile_qr_scan", "android": "https://dc.lft.to/lastmile_qr_scan"}}, {"name": "fcd6da93a6418f1c805d9b89d7a486b2", "fusion_lat": 0.0, "type": "electric_bike", "lat": 38.8789685, "is_reserved": 0, "is_disabled": 0, "fusion_lon": 0.0, "bike_id": "fcd6da93a6418f1c805d9b89d7a486b2", "lon": -77.10884183333333, "rental_uris": {"ios": "https://dc.lft.to/lastmile_qr_scan", "android": "https://dc.lft.to/lastmile_qr_scan"}}, {"name": "74dd716dacb531ea6da92c722983e35e", "fusion_lat": 0.0, "type": "electric_scooter", "lat": 38.9303365, "is_reserved": 0, "is_disabled": 0, "fusion_lon": 0.0, "bike_id": "74dd716dacb531ea6da92c722983e35e", "lon": -77.083613, "rental_uris": {"ios": "https://dc.lft.to/lastmile_qr_scan", "android": "https://dc.lft.to/lastmile_qr_scan"}}, {"name": "a07bc2787a1da415db07a1b9efdc8cd8", "fusion_lat": 0.0, "type": "electric_scooter", "lat": 38.8870045, "is_reserved": 0, "is_disabled": 0, "fusion_lon": 0.0, "bike_id": "a07bc2787a1da415db07a1b9efdc8cd8", "lon": -77.0282995, "rental_uris": {"ios": "https://dc.lft.to/lastmile_qr_scan", "android": "https://dc.lft.to/lastmile_qr_scan"}}, {"name": "598f69c40b39e456d55a1dc68534e20b", "fusion_lat": 0.0, "type": "electric_scooter", "lat": 38.91820383333334, "is_reserved": 0, "is_disabled": 0, "fusion_lon": 0.0, "bike_id": "598f69c40b39e456d55a1dc68534e20b", "lon": -77.0320735, "rental_uris": {"ios": "https://dc.lft.to/lastmile_qr_scan", "android": "https://dc.lft.to/lastmile_qr_scan"}}, {"name": "e2849c225827de8eb718dcc2386bfe02", "fusion_lat": 0.0, "type": "electric_scooter", "lat": 38.89972183333333, "is_reserved": 0, "is_disabled": 0, "fusion_lon": 0.0, "bike_id": "e2849c225827de8eb718dcc2386bfe02", "lon": -77.039232, "rental_uris": {"ios": "https://dc.lft.to/lastmile_qr_scan", "android": "https://dc.lft.to/lastmile_qr_scan"}}, {"name": "3f55bdb0411aa07d465a4a0806255dd1", "fusion_lat": 0.0, "type": "electric_scooter", "lat": 38.9267225, "is_reserved": 0, "is_disabled": 0, "fusion_lon": 0.0, "bike_id": "3f55bdb0411aa07d465a4a0806255dd1", "lon": -76.99530416666667, "rental_uris": {"ios": "https://dc.lft.to/lastmile_qr_scan", "android": "https://dc.lft.to/lastmile_qr_scan"}}, {"name": "0a0f686c5b4ea2339f27508b42f9ebe0", "fusion_lat": 0.0, "type": "electric_scooter", "lat": 38.90374883333333, "is_reserved": 0, "is_disabled": 0, "fusion_lon": 0.0, "bike_id": "0a0f686c5b4ea2339f27508b42f9ebe0", "lon": -77.04524433333333, "rental_uris": {"ios": "https://dc.lft.to/lastmile_qr_scan", "android": "https://dc.lft.to/lastmile_qr_scan"}}, {"name": "d8057f3e348c6038a2e194adf83849b3", "fusion_lat": 0.0, "type": "electric_scooter", "lat": 38.92479866666667, "is_reserved": 0, "is_disabled": 0, "fusion_lon": 0.0, "bike_id": "d8057f3e348c6038a2e194adf83849b3", "lon": -77.02999416666667, "rental_uris": {"ios": "https://dc.lft.to/lastmile_qr_scan", "android": "https://dc.lft.to/lastmile_qr_scan"}}, {"name": "1bab8591d6c5bcb3bd7702f6a077f18b", "fusion_lat": 0.0, "type": "electric_scooter", "lat": 38.9389445, "is_reserved": 0, "is_disabled": 0, "fusion_lon": 0.0, "bike_id": "1bab8591d6c5bcb3bd7702f6a077f18b", "lon": -77.01758783333334, "rental_uris": {"ios": "https://dc.lft.to/lastmile_qr_scan", "android": "https://dc.lft.to/lastmile_qr_scan"}}, {"name": "8e12850955cc51d2ed48cd530753cadf", "fusion_lat": 0.0, "type": "electric_scooter", "lat": 38.92594616666667, "is_reserved": 0, "is_disabled": 0, "fusion_lon": 0.0, "bike_id": "8e12850955cc51d2ed48cd530753cadf", "lon": -77.00851283333333, "rental_uris": {"ios": "https://dc.lft.to/lastmile_qr_scan", "android": "https://dc.lft.to/lastmile_qr_scan"}}, {"name": "e7c9bbc6dcff5ea0f4eef6dbcee14cde", "fusion_lat": 0.0, "type": "electric_scooter", "lat": 38.9352205, "is_reserved": 0, "is_disabled": 0, "fusion_lon": 0.0, "bike_id": "e7c9bbc6dcff5ea0f4eef6dbcee14cde", "lon": -77.03262366666667, "rental_uris": {"ios": "https://dc.lft.to/lastmile_qr_scan", "android": "https://dc.lft.to/lastmile_qr_scan"}}, {"name": "443085483f8bbccb731d11d6e0e0c892", "fusion_lat": 0.0, "type": "electric_scooter", "lat": 38.91230633333333, "is_reserved": 0, "is_disabled": 0, "fusion_lon": 0.0, "bike_id": "443085483f8bbccb731d11d6e0e0c892", "lon": -77.05099383333334, "rental_uris": {"ios": "https://dc.lft.to/lastmile_qr_scan", "android": "https://dc.lft.to/lastmile_qr_scan"}}, {"name": "73a842e3bba596a945de41263a7586f5", "fusion_lat": 0.0, "type": "electric_scooter", "lat": 38.922701, "is_reserved": 0, "is_disabled": 0, "fusion_lon": 0.0, "bike_id": "73a842e3bba596a945de41263a7586f5", "lon": -77.03400316666666, "rental_uris": {"ios": "https://dc.lft.to/lastmile_qr_scan", "android": "https://dc.lft.to/lastmile_qr_scan"}}, {"name": "afa47eb6502fbe1ef295c92bc40c5f63", "fusion_lat": 0.0, "type": "electric_scooter", "lat": 38.899488, "is_reserved": 0, "is_disabled": 0, "fusion_lon": 0.0, "bike_id": "afa47eb6502fbe1ef295c92bc40c5f63", "lon": -77.0410705, "rental_uris": {"ios": "https://dc.lft.to/lastmile_qr_scan", "android": "https://dc.lft.to/lastmile_qr_scan"}}, {"name": "4d732586b63711ea780ebfb3ba096c77", "fusion_lat": 0.0, "type": "electric_scooter", "lat": 38.96385316666667, "is_reserved": 0, "is_disabled": 0, "fusion_lon": 0.0, "bike_id": "4d732586b63711ea780ebfb3ba096c77", "lon": -77.03509283333334, "rental_uris": {"ios": "https://dc.lft.to/lastmile_qr_scan", "android": "https://dc.lft.to/lastmile_qr_scan"}}, {"name": "8f73022be34a86b90bdcaf69300c0a3b", "fusion_lat": 0.0, "type": "electric_bike", "lat": 39.024222333333334, "is_reserved": 0, "is_disabled": 0, "fusion_lon": 0.0, "bike_id": "8f73022be34a86b90bdcaf69300c0a3b", "lon": -77.12503066666666, "rental_uris": {"ios": "https://dc.lft.to/lastmile_qr_scan", "android": "https://dc.lft.to/lastmile_qr_scan"}}, {"name": "eaec441643d20c679ad382a7dfbea8e4", "fusion_lat": 0.0, "type": "electric_scooter", "lat": 38.9003375, "is_reserved": 0, "is_disabled": 0, "fusion_lon": 0.0, "bike_id": "eaec441643d20c679ad382a7dfbea8e4", "lon": -77.011954, "rental_uris": {"ios": "https://dc.lft.to/lastmile_qr_scan", "android": "https://dc.lft.to/lastmile_qr_scan"}}, {"name": "fbc3ec89f1480861446fa1bd8a9dbe29", "fusion_lat": 0.0, "type": "electric_scooter", "lat": 38.90606016666667, "is_reserved": 0, "is_disabled": 0, "fusion_lon": 0.0, "bike_id": "fbc3ec89f1480861446fa1bd8a9dbe29", "lon": -77.05618933333334, "rental_uris": {"ios": "https://dc.lft.to/lastmile_qr_scan", "android": "https://dc.lft.to/lastmile_qr_scan"}}, {"name": "c8de37435e1e1c2ea0f55c40bad09a6c", "fusion_lat": 0.0, "type": "electric_scooter", "lat": 38.943313833333335, "is_reserved": 0, "is_disabled": 0, "fusion_lon": 0.0, "bike_id": "c8de37435e1e1c2ea0f55c40bad09a6c", "lon": -77.06052083333333, "rental_uris": {"ios": "https://dc.lft.to/lastmile_qr_scan", "android": "https://dc.lft.to/lastmile_qr_scan"}}, {"name": "7b2bc85dd32c620f1df61696e33eb799", "fusion_lat": 0.0, "type": "electric_scooter", "lat": 38.8956005, "is_reserved": 0, "is_disabled": 0, "fusion_lon": 0.0, "bike_id": "7b2bc85dd32c620f1df61696e33eb799", "lon": -77.046791, "rental_uris": {"ios": "https://dc.lft.to/lastmile_qr_scan", "android": "https://dc.lft.to/lastmile_qr_scan"}}, {"name": "ed1f015931ab9b6e493f92cb2fe5ff84", "fusion_lat": 0.0, "type": "electric_scooter", "lat": 38.870825333333336, "is_reserved": 0, "is_disabled": 0, "fusion_lon": 0.0, "bike_id": "ed1f015931ab9b6e493f92cb2fe5ff84", "lon": -77.01121316666666, "rental_uris": {"ios": "https://dc.lft.to/lastmile_qr_scan", "android": "https://dc.lft.to/lastmile_qr_scan"}}, {"name": "370e45c43d86aef967dfca6851dcd637", "fusion_lat": 0.0, "type": "electric_scooter", "lat": 38.934614833333335, "is_reserved": 0, "is_disabled": 0, "fusion_lon": 0.0, "bike_id": "370e45c43d86aef967dfca6851dcd637", "lon": -77.08634116666667, "rental_uris": {"ios": "https://dc.lft.to/lastmile_qr_scan", "android": "https://dc.lft.to/lastmile_qr_scan"}}, {"name": "43a0319256dc8624688e830d8b194401", "fusion_lat": 0.0, "type": "electric_scooter", "lat": 38.9056875, "is_reserved": 0, "is_disabled": 0, "fusion_lon": 0.0, "bike_id": "43a0319256dc8624688e830d8b194401", "lon": -77.05709783333333, "rental_uris": {"ios": "https://dc.lft.to/lastmile_qr_scan", "android": "https://dc.lft.to/lastmile_qr_scan"}}, {"name": "44eb591133ab0c56625be7168f6a28a8", "fusion_lat": 0.0, "type": "electric_scooter", "lat": 38.869141, "is_reserved": 0, "is_disabled": 0, "fusion_lon": 0.0, "bike_id": "44eb591133ab0c56625be7168f6a28a8", "lon": -76.97497433333334, "rental_uris": {"ios": "https://dc.lft.to/lastmile_qr_scan", "android": "https://dc.lft.to/lastmile_qr_scan"}}, {"name": "21a2ba2471e555ee683aaecb5eaee624", "fusion_lat": 0.0, "type": "electric_scooter", "lat": 38.906642166666664, "is_reserved": 0, "is_disabled": 0, "fusion_lon": 0.0, "bike_id": "21a2ba2471e555ee683aaecb5eaee624", "lon": -77.03817966666666, "rental_uris": {"ios": "https://dc.lft.to/lastmile_qr_scan", "android": "https://dc.lft.to/lastmile_qr_scan"}}, {"name": "bbade7789638146ade85dac40a7e19a7", "fusion_lat": 0.0, "type": "electric_scooter", "lat": 38.899462666666665, "is_reserved": 0, "is_disabled": 0, "fusion_lon": 0.0, "bike_id": "bbade7789638146ade85dac40a7e19a7", "lon": -77.02193483333333, "rental_uris": {"ios": "https://dc.lft.to/lastmile_qr_scan", "android": "https://dc.lft.to/lastmile_qr_scan"}}, {"name": "fa12fec1925cc6e783f11d220fb8e298", "fusion_lat": 0.0, "type": "electric_scooter", "lat": 38.914777, "is_reserved": 0, "is_disabled": 0, "fusion_lon": 0.0, "bike_id": "fa12fec1925cc6e783f11d220fb8e298", "lon": -77.04598266666666, "rental_uris": {"ios": "https://dc.lft.to/lastmile_qr_scan", "android": "https://dc.lft.to/lastmile_qr_scan"}}, {"name": "d6527f50593abd86f57c811c64f31065", "fusion_lat": 0.0, "type": "electric_scooter", "lat": 38.919298166666664, "is_reserved": 0, "is_disabled": 0, "fusion_lon": 0.0, "bike_id": "d6527f50593abd86f57c811c64f31065", "lon": -77.02355933333334, "rental_uris": {"ios": "https://dc.lft.to/lastmile_qr_scan", "android": "https://dc.lft.to/lastmile_qr_scan"}}, {"name": "dced6ca78541cf9fd6165de6c676521f", "fusion_lat": 0.0, "type": "electric_scooter", "lat": 38.9096775, "is_reserved": 0, "is_disabled": 0, "fusion_lon": 0.0, "bike_id": "dced6ca78541cf9fd6165de6c676521f", "lon": -77.04478466666667, "rental_uris": {"ios": "https://dc.lft.to/lastmile_qr_scan", "android": "https://dc.lft.to/lastmile_qr_scan"}}, {"name": "a217dd7d02b8147e3314927b4e88b935", "fusion_lat": 0.0, "type": "electric_scooter", "lat": 38.95832566666667, "is_reserved": 0, "is_disabled": 0, "fusion_lon": 0.0, "bike_id": "a217dd7d02b8147e3314927b4e88b935", "lon": -77.02686466666667, "rental_uris": {"ios": "https://dc.lft.to/lastmile_qr_scan", "android": "https://dc.lft.to/lastmile_qr_scan"}}, {"name": "97b22d899a1a645bdcdef92c02b3af27", "fusion_lat": 0.0, "type": "electric_scooter", "lat": 38.924188, "is_reserved": 0, "is_disabled": 0, "fusion_lon": 0.0, "bike_id": "97b22d899a1a645bdcdef92c02b3af27", "lon": -77.019443, "rental_uris": {"ios": "https://dc.lft.to/lastmile_qr_scan", "android": "https://dc.lft.to/lastmile_qr_scan"}}, {"name": "ea40da873d9426fabd2f5287f114a9cd", "fusion_lat": 0.0, "type": "electric_bike", "lat": 38.954800666666664, "is_reserved": 0, "is_disabled": 0, "fusion_lon": 0.0, "bike_id": "ea40da873d9426fabd2f5287f114a9cd", "lon": -77.0823985, "rental_uris": {"ios": "https://dc.lft.to/lastmile_qr_scan", "android": "https://dc.lft.to/lastmile_qr_scan"}}, {"name": "1fe03b92086c3e59fee9eb4dc2c6f31b", "fusion_lat": 0.0, "type": "electric_scooter", "lat": 38.89654216666667, "is_reserved": 0, "is_disabled": 0, "fusion_lon": 0.0, "bike_id": "1fe03b92086c3e59fee9eb4dc2c6f31b", "lon": -77.0493765, "rental_uris": {"ios": "https://dc.lft.to/lastmile_qr_scan", "android": "https://dc.lft.to/lastmile_qr_scan"}}, {"name": "bcbc8792fcd1f086c12a513e3400da71", "fusion_lat": 0.0, "type": "electric_scooter", "lat": 38.904825833333334, "is_reserved": 0, "is_disabled": 0, "fusion_lon": 0.0, "bike_id": "bcbc8792fcd1f086c12a513e3400da71", "lon": -77.04161816666667, "rental_uris": {"ios": "https://dc.lft.to/lastmile_qr_scan", "android": "https://dc.lft.to/lastmile_qr_scan"}}, {"name": "dc2afbcdd138f964c47402b9bd7366f4", "fusion_lat": 0.0, "type": "electric_scooter", "lat": 38.89847016666667, "is_reserved": 0, "is_disabled": 0, "fusion_lon": 0.0, "bike_id": "dc2afbcdd138f964c47402b9bd7366f4", "lon": -76.99030866666666, "rental_uris": {"ios": "https://dc.lft.to/lastmile_qr_scan", "android": "https://dc.lft.to/lastmile_qr_scan"}}, {"name": "d2170c198b273eb6a02c1b9f25ba58f8", "fusion_lat": 0.0, "type": "electric_scooter", "lat": 38.932027166666664, "is_reserved": 0, "is_disabled": 0, "fusion_lon": 0.0, "bike_id": "d2170c198b273eb6a02c1b9f25ba58f8", "lon": -77.02777033333334, "rental_uris": {"ios": "https://dc.lft.to/lastmile_qr_scan", "android": "https://dc.lft.to/lastmile_qr_scan"}}, {"name": "e2965f0544fe12b032f76e002c215d1f", "fusion_lat": 0.0, "type": "electric_scooter", "lat": 38.89833316666667, "is_reserved": 0, "is_disabled": 0, "fusion_lon": 0.0, "bike_id": "e2965f0544fe12b032f76e002c215d1f", "lon": -76.945689, "rental_uris": {"ios": "https://dc.lft.to/lastmile_qr_scan", "android": "https://dc.lft.to/lastmile_qr_scan"}}, {"name": "e059a165865c3cd4c47165364d4473eb", "fusion_lat": 0.0, "type": "electric_scooter", "lat": 38.9037915, "is_reserved": 0, "is_disabled": 0, "fusion_lon": 0.0, "bike_id": "e059a165865c3cd4c47165364d4473eb", "lon": -77.01092383333334, "rental_uris": {"ios": "https://dc.lft.to/lastmile_qr_scan", "android": "https://dc.lft.to/lastmile_qr_scan"}}, {"name": "08c06d64f3147310532916eea3619b6f", "fusion_lat": 0.0, "type": "electric_scooter", "lat": 38.88654666666667, "is_reserved": 0, "is_disabled": 0, "fusion_lon": 0.0, "bike_id": "08c06d64f3147310532916eea3619b6f", "lon": -77.01371766666666, "rental_uris": {"ios": "https://dc.lft.to/lastmile_qr_scan", "android": "https://dc.lft.to/lastmile_qr_scan"}}, {"name": "88d604d79eb0c58f9f4249458ece0f40", "fusion_lat": 0.0, "type": "electric_scooter", "lat": 38.89531233333334, "is_reserved": 0, "is_disabled": 0, "fusion_lon": 0.0, "bike_id": "88d604d79eb0c58f9f4249458ece0f40", "lon": -77.04286933333333, "rental_uris": {"ios": "https://dc.lft.to/lastmile_qr_scan", "android": "https://dc.lft.to/lastmile_qr_scan"}}, {"name": "38a37c15fbca350d4065e131f38dfc21", "fusion_lat": 0.0, "type": "electric_bike", "lat": 38.80221133333333, "is_reserved": 0, "is_disabled": 0, "fusion_lon": 0.0, "bike_id": "38a37c15fbca350d4065e131f38dfc21", "lon": -77.07915916666667, "rental_uris": {"ios": "https://dc.lft.to/lastmile_qr_scan", "android": "https://dc.lft.to/lastmile_qr_scan"}}, {"name": "54ca4339f046f64ecf2fe39220710d06", "fusion_lat": 0.0, "type": "electric_scooter", "lat": 38.92031166666666, "is_reserved": 0, "is_disabled": 0, "fusion_lon": 0.0, "bike_id": "54ca4339f046f64ecf2fe39220710d06", "lon": -76.978026, "rental_uris": {"ios": "https://dc.lft.to/lastmile_qr_scan", "android": "https://dc.lft.to/lastmile_qr_scan"}}, {"name": "bbdf855fcf7912b9cc3b406605b4807a", "fusion_lat": 0.0, "type": "electric_scooter", "lat": 38.914117833333336, "is_reserved": 0, "is_disabled": 0, "fusion_lon": 0.0, "bike_id": "bbdf855fcf7912b9cc3b406605b4807a", "lon": -77.024126, "rental_uris": {"ios": "https://dc.lft.to/lastmile_qr_scan", "android": "https://dc.lft.to/lastmile_qr_scan"}}, {"name": "e3648fe378a47d4c314a73e7e05574d3", "fusion_lat": 0.0, "type": "electric_scooter", "lat": 38.912546, "is_reserved": 0, "is_disabled": 0, "fusion_lon": 0.0, "bike_id": "e3648fe378a47d4c314a73e7e05574d3", "lon": -77.03840083333333, "rental_uris": {"ios": "https://dc.lft.to/lastmile_qr_scan", "android": "https://dc.lft.to/lastmile_qr_scan"}}, {"name": "faaa4b4d33cdd5db308a85df9a8e233d", "fusion_lat": 0.0, "type": "electric_bike", "lat": 38.9068385, "is_reserved": 0, "is_disabled": 0, "fusion_lon": 0.0, "bike_id": "faaa4b4d33cdd5db308a85df9a8e233d", "lon": -76.95184216666667, "rental_uris": {"ios": "https://dc.lft.to/lastmile_qr_scan", "android": "https://dc.lft.to/lastmile_qr_scan"}}, {"name": "e7fc3d20cb9229051e408b58c21d2d8e", "fusion_lat": 0.0, "type": "electric_scooter", "lat": 38.9170465, "is_reserved": 0, "is_disabled": 0, "fusion_lon": 0.0, "bike_id": "e7fc3d20cb9229051e408b58c21d2d8e", "lon": -77.0373725, "rental_uris": {"ios": "https://dc.lft.to/lastmile_qr_scan", "android": "https://dc.lft.to/lastmile_qr_scan"}}, {"name": "d31e20d5a200ce700a630db9010f52ab", "fusion_lat": 0.0, "type": "electric_scooter", "lat": 38.906093, "is_reserved": 0, "is_disabled": 0, "fusion_lon": 0.0, "bike_id": "d31e20d5a200ce700a630db9010f52ab", "lon": -77.02410166666667, "rental_uris": {"ios": "https://dc.lft.to/lastmile_qr_scan", "android": "https://dc.lft.to/lastmile_qr_scan"}}, {"name": "818e8dff9ef6b6a4ed4d54b6e37c91f5", "fusion_lat": 0.0, "type": "electric_scooter", "lat": 38.89357833333333, "is_reserved": 0, "is_disabled": 0, "fusion_lon": 0.0, "bike_id": "818e8dff9ef6b6a4ed4d54b6e37c91f5", "lon": -76.94985566666666, "rental_uris": {"ios": "https://dc.lft.to/lastmile_qr_scan", "android": "https://dc.lft.to/lastmile_qr_scan"}}, {"name": "39113baa4f905bbf91e95b1bb9c1b9a7", "fusion_lat": 0.0, "type": "electric_scooter", "lat": 38.89223483333333, "is_reserved": 0, "is_disabled": 0, "fusion_lon": 0.0, "bike_id": "39113baa4f905bbf91e95b1bb9c1b9a7", "lon": -77.01372233333333, "rental_uris": {"ios": "https://dc.lft.to/lastmile_qr_scan", "android": "https://dc.lft.to/lastmile_qr_scan"}}, {"name": "878e4edcc7579e02c523c5a99927f192", "fusion_lat": 0.0, "type": "electric_scooter", "lat": 38.91046083333333, "is_reserved": 0, "is_disabled": 0, "fusion_lon": 0.0, "bike_id": "878e4edcc7579e02c523c5a99927f192", "lon": -77.04240933333334, "rental_uris": {"ios": "https://dc.lft.to/lastmile_qr_scan", "android": "https://dc.lft.to/lastmile_qr_scan"}}, {"name": "7b136e0fd92a0d9f25a7bd047bbd83cf", "fusion_lat": 0.0, "type": "electric_scooter", "lat": 38.900432, "is_reserved": 0, "is_disabled": 0, "fusion_lon": 0.0, "bike_id": "7b136e0fd92a0d9f25a7bd047bbd83cf", "lon": -76.98824233333333, "rental_uris": {"ios": "https://dc.lft.to/lastmile_qr_scan", "android": "https://dc.lft.to/lastmile_qr_scan"}}, {"name": "be0967ad89dd4c87ccf4c697fe65dfcc", "fusion_lat": 0.0, "type": "electric_scooter", "lat": 38.911098, "is_reserved": 0, "is_disabled": 0, "fusion_lon": 0.0, "bike_id": "be0967ad89dd4c87ccf4c697fe65dfcc", "lon": -77.039202, "rental_uris": {"ios": "https://dc.lft.to/lastmile_qr_scan", "android": "https://dc.lft.to/lastmile_qr_scan"}}, {"name": "22e99cd51fbdb9ad0c128623330c5d21", "fusion_lat": 0.0, "type": "electric_bike", "lat": 38.869100833333334, "is_reserved": 0, "is_disabled": 0, "fusion_lon": 0.0, "bike_id": "22e99cd51fbdb9ad0c128623330c5d21", "lon": -77.13179516666666, "rental_uris": {"ios": "https://dc.lft.to/lastmile_qr_scan", "android": "https://dc.lft.to/lastmile_qr_scan"}}, {"name": "81acd03e1d5a9ab7c41247dd304802c5", "fusion_lat": 0.0, "type": "electric_scooter", "lat": 38.910235666666665, "is_reserved": 0, "is_disabled": 0, "fusion_lon": 0.0, "bike_id": "81acd03e1d5a9ab7c41247dd304802c5", "lon": -77.00758483333334, "rental_uris": {"ios": "https://dc.lft.to/lastmile_qr_scan", "android": "https://dc.lft.to/lastmile_qr_scan"}}, {"name": "e9b5ad374df6b35d53592b6883cbe7f4", "fusion_lat": 0.0, "type": "electric_scooter", "lat": 38.90698866666666, "is_reserved": 0, "is_disabled": 0, "fusion_lon": 0.0, "bike_id": "e9b5ad374df6b35d53592b6883cbe7f4", "lon": -77.02395683333333, "rental_uris": {"ios": "https://dc.lft.to/lastmile_qr_scan", "android": "https://dc.lft.to/lastmile_qr_scan"}}, {"name": "83099d431fd140313ee90100922f4301", "fusion_lat": 0.0, "type": "electric_bike", "lat": 38.89457566666667, "is_reserved": 0, "is_disabled": 0, "fusion_lon": 0.0, "bike_id": "83099d431fd140313ee90100922f4301", "lon": -77.02327583333333, "rental_uris": {"ios": "https://dc.lft.to/lastmile_qr_scan", "android": "https://dc.lft.to/lastmile_qr_scan"}}, {"name": "5f8a4f98933963f50903c5a3ace84cfc", "fusion_lat": 0.0, "type": "electric_scooter", "lat": 38.909671833333334, "is_reserved": 0, "is_disabled": 0, "fusion_lon": 0.0, "bike_id": "5f8a4f98933963f50903c5a3ace84cfc", "lon": -77.02179883333334, "rental_uris": {"ios": "https://dc.lft.to/lastmile_qr_scan", "android": "https://dc.lft.to/lastmile_qr_scan"}}, {"name": "da508c41b7fac166d7ecc13a064caa5a", "fusion_lat": 0.0, "type": "electric_scooter", "lat": 38.90367216666667, "is_reserved": 0, "is_disabled": 0, "fusion_lon": 0.0, "bike_id": "da508c41b7fac166d7ecc13a064caa5a", "lon": -77.03202116666667, "rental_uris": {"ios": "https://dc.lft.to/lastmile_qr_scan", "android": "https://dc.lft.to/lastmile_qr_scan"}}, {"name": "eaf2897514fdea0049a3dc843bf03b61", "fusion_lat": 0.0, "type": "electric_scooter", "lat": 38.84425483333333, "is_reserved": 0, "is_disabled": 0, "fusion_lon": 0.0, "bike_id": "eaf2897514fdea0049a3dc843bf03b61", "lon": -76.9977845, "rental_uris": {"ios": "https://dc.lft.to/lastmile_qr_scan", "android": "https://dc.lft.to/lastmile_qr_scan"}}, {"name": "b992433d877c13aaf97d1397e1ec78a6", "fusion_lat": 0.0, "type": "electric_scooter", "lat": 38.90566783333333, "is_reserved": 0, "is_disabled": 0, "fusion_lon": 0.0, "bike_id": "b992433d877c13aaf97d1397e1ec78a6", "lon": -77.022076, "rental_uris": {"ios": "https://dc.lft.to/lastmile_qr_scan", "android": "https://dc.lft.to/lastmile_qr_scan"}}, {"name": "cc937473d4f9188b85a19f560ced0251", "fusion_lat": 0.0, "type": "electric_scooter", "lat": 38.90363166666667, "is_reserved": 0, "is_disabled": 0, "fusion_lon": 0.0, "bike_id": "cc937473d4f9188b85a19f560ced0251", "lon": -77.04650916666667, "rental_uris": {"ios": "https://dc.lft.to/lastmile_qr_scan", "android": "https://dc.lft.to/lastmile_qr_scan"}}, {"name": "6c08205798eb27a0c6077d873f160fc7", "fusion_lat": 0.0, "type": "electric_bike", "lat": 38.834340166666664, "is_reserved": 0, "is_disabled": 0, "fusion_lon": 0.0, "bike_id": "6c08205798eb27a0c6077d873f160fc7", "lon": -77.0082385, "rental_uris": {"ios": "https://dc.lft.to/lastmile_qr_scan", "android": "https://dc.lft.to/lastmile_qr_scan"}}, {"name": "1eacc85cb576a07334c549a30dbfbf6f", "fusion_lat": 0.0, "type": "electric_scooter", "lat": 38.93152216666667, "is_reserved": 0, "is_disabled": 0, "fusion_lon": 0.0, "bike_id": "1eacc85cb576a07334c549a30dbfbf6f", "lon": -77.02968033333333, "rental_uris": {"ios": "https://dc.lft.to/lastmile_qr_scan", "android": "https://dc.lft.to/lastmile_qr_scan"}}, {"name": "91df8a7fe82ae9e32e900743c552f8b5", "fusion_lat": 0.0, "type": "electric_bike", "lat": 38.8078895, "is_reserved": 0, "is_disabled": 0, "fusion_lon": 0.0, "bike_id": "91df8a7fe82ae9e32e900743c552f8b5", "lon": -77.12964216666667, "rental_uris": {"ios": "https://dc.lft.to/lastmile_qr_scan", "android": "https://dc.lft.to/lastmile_qr_scan"}}, {"name": "18d99f61978458278efe18bd15889bc8", "fusion_lat": 0.0, "type": "electric_scooter", "lat": 38.89407516666667, "is_reserved": 0, "is_disabled": 0, "fusion_lon": 0.0, "bike_id": "18d99f61978458278efe18bd15889bc8", "lon": -76.9323905, "rental_uris": {"ios": "https://dc.lft.to/lastmile_qr_scan", "android": "https://dc.lft.to/lastmile_qr_scan"}}, {"name": "af675f07f835bd353266fe13924a5385", "fusion_lat": 0.0, "type": "electric_scooter", "lat": 38.95906083333333, "is_reserved": 0, "is_disabled": 0, "fusion_lon": 0.0, "bike_id": "af675f07f835bd353266fe13924a5385", "lon": -77.08077033333333, "rental_uris": {"ios": "https://dc.lft.to/lastmile_qr_scan", "android": "https://dc.lft.to/lastmile_qr_scan"}}, {"name": "e3609b1a7e10be37614abafa4c3c5bb8", "fusion_lat": 0.0, "type": "electric_scooter", "lat": 38.9469875, "is_reserved": 0, "is_disabled": 0, "fusion_lon": 0.0, "bike_id": "e3609b1a7e10be37614abafa4c3c5bb8", "lon": -77.0193935, "rental_uris": {"ios": "https://dc.lft.to/lastmile_qr_scan", "android": "https://dc.lft.to/lastmile_qr_scan"}}, {"name": "00d9e100a536723c0d9c7962073f215a", "fusion_lat": 0.0, "type": "electric_scooter", "lat": 38.902522, "is_reserved": 0, "is_disabled": 0, "fusion_lon": 0.0, "bike_id": "00d9e100a536723c0d9c7962073f215a", "lon": -77.04473183333333, "rental_uris": {"ios": "https://dc.lft.to/lastmile_qr_scan", "android": "https://dc.lft.to/lastmile_qr_scan"}}, {"name": "5b158636dc0f2fc0738d255d20c35d75", "fusion_lat": 0.0, "type": "electric_scooter", "lat": 38.921002333333334, "is_reserved": 0, "is_disabled": 0, "fusion_lon": 0.0, "bike_id": "5b158636dc0f2fc0738d255d20c35d75", "lon": -76.991902, "rental_uris": {"ios": "https://dc.lft.to/lastmile_qr_scan", "android": "https://dc.lft.to/lastmile_qr_scan"}}, {"name": "8ab0114d6cc2823fdcb59ffefa262bfe", "fusion_lat": 0.0, "type": "electric_bike", "lat": 38.957151, "is_reserved": 0, "is_disabled": 0, "fusion_lon": 0.0, "bike_id": "8ab0114d6cc2823fdcb59ffefa262bfe", "lon": -77.01479983333333, "rental_uris": {"ios": "https://dc.lft.to/lastmile_qr_scan", "android": "https://dc.lft.to/lastmile_qr_scan"}}, {"name": "95d83622b38d4fb25b7e662b4e76ec3b", "fusion_lat": 0.0, "type": "electric_scooter", "lat": 38.85838733333333, "is_reserved": 0, "is_disabled": 0, "fusion_lon": 0.0, "bike_id": "95d83622b38d4fb25b7e662b4e76ec3b", "lon": -76.98890433333334, "rental_uris": {"ios": "https://dc.lft.to/lastmile_qr_scan", "android": "https://dc.lft.to/lastmile_qr_scan"}}, {"name": "75efccf22889f84fbb85425611069609", "fusion_lat": 0.0, "type": "electric_scooter", "lat": 38.90327633333333, "is_reserved": 0, "is_disabled": 0, "fusion_lon": 0.0, "bike_id": "75efccf22889f84fbb85425611069609", "lon": -77.04455833333333, "rental_uris": {"ios": "https://dc.lft.to/lastmile_qr_scan", "android": "https://dc.lft.to/lastmile_qr_scan"}}, {"name": "c9131dad231c54469ed8bebc0fa47bdd", "fusion_lat": 0.0, "type": "electric_scooter", "lat": 38.92044033333333, "is_reserved": 0, "is_disabled": 0, "fusion_lon": 0.0, "bike_id": "c9131dad231c54469ed8bebc0fa47bdd", "lon": -77.01749766666667, "rental_uris": {"ios": "https://dc.lft.to/lastmile_qr_scan", "android": "https://dc.lft.to/lastmile_qr_scan"}}, {"name": "ce0f6705ebeab1bc3fd0aade695fe9b0", "fusion_lat": 0.0, "type": "electric_scooter", "lat": 38.904154166666665, "is_reserved": 0, "is_disabled": 0, "fusion_lon": 0.0, "bike_id": "ce0f6705ebeab1bc3fd0aade695fe9b0", "lon": -76.99068716666666, "rental_uris": {"ios": "https://dc.lft.to/lastmile_qr_scan", "android": "https://dc.lft.to/lastmile_qr_scan"}}, {"name": "2a206563765a7302b1ce96dacc758e98", "fusion_lat": 0.0, "type": "electric_bike", "lat": 39.003786, "is_reserved": 0, "is_disabled": 0, "fusion_lon": 0.0, "bike_id": "2a206563765a7302b1ce96dacc758e98", "lon": -77.01286483333334, "rental_uris": {"ios": "https://dc.lft.to/lastmile_qr_scan", "android": "https://dc.lft.to/lastmile_qr_scan"}}, {"name": "db470a0a0413b3eda399a963321edbf6", "fusion_lat": 0.0, "type": "electric_scooter", "lat": 38.932096333333334, "is_reserved": 0, "is_disabled": 0, "fusion_lon": 0.0, "bike_id": "db470a0a0413b3eda399a963321edbf6", "lon": -77.03672816666666, "rental_uris": {"ios": "https://dc.lft.to/lastmile_qr_scan", "android": "https://dc.lft.to/lastmile_qr_scan"}}, {"name": "2f8ca1ff5e2207301c5a3c774d3185d4", "fusion_lat": 0.0, "type": "electric_scooter", "lat": 38.92353833333333, "is_reserved": 0, "is_disabled": 0, "fusion_lon": 0.0, "bike_id": "2f8ca1ff5e2207301c5a3c774d3185d4", "lon": -77.0543765, "rental_uris": {"ios": "https://dc.lft.to/lastmile_qr_scan", "android": "https://dc.lft.to/lastmile_qr_scan"}}, {"name": "bd53c47166146e58c376ce66a59cfec0", "fusion_lat": 0.0, "type": "electric_scooter", "lat": 38.90145966666667, "is_reserved": 0, "is_disabled": 0, "fusion_lon": 0.0, "bike_id": "bd53c47166146e58c376ce66a59cfec0", "lon": -77.04415, "rental_uris": {"ios": "https://dc.lft.to/lastmile_qr_scan", "android": "https://dc.lft.to/lastmile_qr_scan"}}, {"name": "fd6ded494d3976f98d8eb2852895e887", "fusion_lat": 0.0, "type": "electric_bike", "lat": 38.863882333333336, "is_reserved": 0, "is_disabled": 0, "fusion_lon": 0.0, "bike_id": "fd6ded494d3976f98d8eb2852895e887", "lon": -76.98989766666666, "rental_uris": {"ios": "https://dc.lft.to/lastmile_qr_scan", "android": "https://dc.lft.to/lastmile_qr_scan"}}, {"name": "c38ac6d1eff952068adadffc9d4a0b4b", "fusion_lat": 0.0, "type": "electric_scooter", "lat": 38.91188733333333, "is_reserved": 0, "is_disabled": 0, "fusion_lon": 0.0, "bike_id": "c38ac6d1eff952068adadffc9d4a0b4b", "lon": -77.03967716666666, "rental_uris": {"ios": "https://dc.lft.to/lastmile_qr_scan", "android": "https://dc.lft.to/lastmile_qr_scan"}}, {"name": "4b4d5d822f38977a91278ba7fc4c6f40", "fusion_lat": 0.0, "type": "electric_scooter", "lat": 38.9184235, "is_reserved": 0, "is_disabled": 0, "fusion_lon": 0.0, "bike_id": "4b4d5d822f38977a91278ba7fc4c6f40", "lon": -77.02598966666666, "rental_uris": {"ios": "https://dc.lft.to/lastmile_qr_scan", "android": "https://dc.lft.to/lastmile_qr_scan"}}, {"name": "3f1dd90661b7c8151c2118eb6b0201f4", "fusion_lat": 0.0, "type": "electric_scooter", "lat": 38.90064783333333, "is_reserved": 0, "is_disabled": 0, "fusion_lon": 0.0, "bike_id": "3f1dd90661b7c8151c2118eb6b0201f4", "lon": -77.04532233333333, "rental_uris": {"ios": "https://dc.lft.to/lastmile_qr_scan", "android": "https://dc.lft.to/lastmile_qr_scan"}}, {"name": "f9256f35a84c763ed9d6e07267286012", "fusion_lat": 0.0, "type": "electric_scooter", "lat": 38.91484883333333, "is_reserved": 0, "is_disabled": 0, "fusion_lon": 0.0, "bike_id": "f9256f35a84c763ed9d6e07267286012", "lon": -77.0325205, "rental_uris": {"ios": "https://dc.lft.to/lastmile_qr_scan", "android": "https://dc.lft.to/lastmile_qr_scan"}}, {"name": "0cc4c5a1807938e2f95398268056e1e8", "fusion_lat": 0.0, "type": "electric_scooter", "lat": 38.892303166666665, "is_reserved": 0, "is_disabled": 0, "fusion_lon": 0.0, "bike_id": "0cc4c5a1807938e2f95398268056e1e8", "lon": -77.0463965, "rental_uris": {"ios": "https://dc.lft.to/lastmile_qr_scan", "android": "https://dc.lft.to/lastmile_qr_scan"}}, {"name": "3e9bbc155de57605eee4c696832b2be1", "fusion_lat": 0.0, "type": "electric_bike", "lat": 38.94896083333333, "is_reserved": 0, "is_disabled": 0, "fusion_lon": 0.0, "bike_id": "3e9bbc155de57605eee4c696832b2be1", "lon": -76.96376916666667, "rental_uris": {"ios": "https://dc.lft.to/lastmile_qr_scan", "android": "https://dc.lft.to/lastmile_qr_scan"}}, {"name": "f5e6aeec461f06b29d5cd466347d9f05", "fusion_lat": 0.0, "type": "electric_scooter", "lat": 38.903644666666665, "is_reserved": 0, "is_disabled": 0, "fusion_lon": 0.0, "bike_id": "f5e6aeec461f06b29d5cd466347d9f05", "lon": -77.01088116666666, "rental_uris": {"ios": "https://dc.lft.to/lastmile_qr_scan", "android": "https://dc.lft.to/lastmile_qr_scan"}}, {"name": "ba6e586222cc3b7aa1f774ebdaf96ef0", "fusion_lat": 0.0, "type": "electric_scooter", "lat": 38.919872, "is_reserved": 0, "is_disabled": 0, "fusion_lon": 0.0, "bike_id": "ba6e586222cc3b7aa1f774ebdaf96ef0", "lon": -77.03330483333333, "rental_uris": {"ios": "https://dc.lft.to/lastmile_qr_scan", "android": "https://dc.lft.to/lastmile_qr_scan"}}, {"name": "9dde85645a239678f7b83de93c798c64", "fusion_lat": 0.0, "type": "electric_scooter", "lat": 38.908473666666666, "is_reserved": 0, "is_disabled": 0, "fusion_lon": 0.0, "bike_id": "9dde85645a239678f7b83de93c798c64", "lon": -77.04334016666667, "rental_uris": {"ios": "https://dc.lft.to/lastmile_qr_scan", "android": "https://dc.lft.to/lastmile_qr_scan"}}, {"name": "c05a11a3946b6f913dd3363cb8108199", "fusion_lat": 0.0, "type": "electric_scooter", "lat": 38.88465083333333, "is_reserved": 0, "is_disabled": 0, "fusion_lon": 0.0, "bike_id": "c05a11a3946b6f913dd3363cb8108199", "lon": -77.01501733333333, "rental_uris": {"ios": "https://dc.lft.to/lastmile_qr_scan", "android": "https://dc.lft.to/lastmile_qr_scan"}}, {"name": "5a20f25dc6197915ecc0049ce9e76f93", "fusion_lat": 0.0, "type": "electric_scooter", "lat": 38.89877283333333, "is_reserved": 0, "is_disabled": 0, "fusion_lon": 0.0, "bike_id": "5a20f25dc6197915ecc0049ce9e76f93", "lon": -76.93160366666666, "rental_uris": {"ios": "https://dc.lft.to/lastmile_qr_scan", "android": "https://dc.lft.to/lastmile_qr_scan"}}, {"name": "e2cd7cb4cdc50f479953ba30728d8e67", "fusion_lat": 0.0, "type": "electric_scooter", "lat": 38.87417133333334, "is_reserved": 0, "is_disabled": 0, "fusion_lon": 0.0, "bike_id": "e2cd7cb4cdc50f479953ba30728d8e67", "lon": -76.97177616666667, "rental_uris": {"ios": "https://dc.lft.to/lastmile_qr_scan", "android": "https://dc.lft.to/lastmile_qr_scan"}}, {"name": "16ea7907711981b110ba5487350d0b0a", "fusion_lat": 0.0, "type": "electric_scooter", "lat": 38.90447316666667, "is_reserved": 0, "is_disabled": 0, "fusion_lon": 0.0, "bike_id": "16ea7907711981b110ba5487350d0b0a", "lon": -77.034495, "rental_uris": {"ios": "https://dc.lft.to/lastmile_qr_scan", "android": "https://dc.lft.to/lastmile_qr_scan"}}, {"name": "c5d92d08fadda33bd5cadb7fcbd9f836", "fusion_lat": 0.0, "type": "electric_scooter", "lat": 38.891961, "is_reserved": 0, "is_disabled": 0, "fusion_lon": 0.0, "bike_id": "c5d92d08fadda33bd5cadb7fcbd9f836", "lon": -77.03027583333333, "rental_uris": {"ios": "https://dc.lft.to/lastmile_qr_scan", "android": "https://dc.lft.to/lastmile_qr_scan"}}, {"name": "80a563c1b29816469bfcccca4163ab8d", "fusion_lat": 0.0, "type": "electric_scooter", "lat": 38.897518166666664, "is_reserved": 0, "is_disabled": 0, "fusion_lon": 0.0, "bike_id": "80a563c1b29816469bfcccca4163ab8d", "lon": -77.02016716666667, "rental_uris": {"ios": "https://dc.lft.to/lastmile_qr_scan", "android": "https://dc.lft.to/lastmile_qr_scan"}}, {"name": "64f54a62e94863122ef3c93da5d62c37", "fusion_lat": 0.0, "type": "electric_scooter", "lat": 38.9160535, "is_reserved": 0, "is_disabled": 0, "fusion_lon": 0.0, "bike_id": "64f54a62e94863122ef3c93da5d62c37", "lon": -77.03202566666667, "rental_uris": {"ios": "https://dc.lft.to/lastmile_qr_scan", "android": "https://dc.lft.to/lastmile_qr_scan"}}, {"name": "4a7a83984abb7ab6dc7c5e77857dac13", "fusion_lat": 0.0, "type": "electric_bike", "lat": 39.038813, "is_reserved": 0, "is_disabled": 0, "fusion_lon": 0.0, "bike_id": "4a7a83984abb7ab6dc7c5e77857dac13", "lon": -76.99044216666667, "rental_uris": {"ios": "https://dc.lft.to/lastmile_qr_scan", "android": "https://dc.lft.to/lastmile_qr_scan"}}, {"name": "c5d4a10c7dcaceea94d261c59167db93", "fusion_lat": 0.0, "type": "electric_scooter", "lat": 38.943978333333334, "is_reserved": 0, "is_disabled": 0, "fusion_lon": 0.0, "bike_id": "c5d4a10c7dcaceea94d261c59167db93", "lon": -77.063302, "rental_uris": {"ios": "https://dc.lft.to/lastmile_qr_scan", "android": "https://dc.lft.to/lastmile_qr_scan"}}, {"name": "15b30a888dc35b27be632b32249cdf74", "fusion_lat": 0.0, "type": "electric_scooter", "lat": 38.88989683333333, "is_reserved": 0, "is_disabled": 0, "fusion_lon": 0.0, "bike_id": "15b30a888dc35b27be632b32249cdf74", "lon": -77.00117633333333, "rental_uris": {"ios": "https://dc.lft.to/lastmile_qr_scan", "android": "https://dc.lft.to/lastmile_qr_scan"}}, {"name": "38c7bc46f742a97e725dc44bd817ec2a", "fusion_lat": 0.0, "type": "electric_scooter", "lat": 38.94837166666667, "is_reserved": 0, "is_disabled": 0, "fusion_lon": 0.0, "bike_id": "38c7bc46f742a97e725dc44bd817ec2a", "lon": -77.02551433333333, "rental_uris": {"ios": "https://dc.lft.to/lastmile_qr_scan", "android": "https://dc.lft.to/lastmile_qr_scan"}}, {"name": "a590223ee65087e2f0f6ad27fc5013fc", "fusion_lat": 0.0, "type": "electric_scooter", "lat": 38.897282, "is_reserved": 0, "is_disabled": 0, "fusion_lon": 0.0, "bike_id": "a590223ee65087e2f0f6ad27fc5013fc", "lon": -77.02166583333333, "rental_uris": {"ios": "https://dc.lft.to/lastmile_qr_scan", "android": "https://dc.lft.to/lastmile_qr_scan"}}, {"name": "b11401ec6dec57ff70e0c93121280b1f", "fusion_lat": 0.0, "type": "electric_bike", "lat": 38.878696833333336, "is_reserved": 0, "is_disabled": 0, "fusion_lon": 0.0, "bike_id": "b11401ec6dec57ff70e0c93121280b1f", "lon": -77.02300716666667, "rental_uris": {"ios": "https://dc.lft.to/lastmile_qr_scan", "android": "https://dc.lft.to/lastmile_qr_scan"}}, {"name": "b819b55fb8834b9dbd25bc885225dced", "fusion_lat": 0.0, "type": "electric_scooter", "lat": 38.9156215, "is_reserved": 0, "is_disabled": 0, "fusion_lon": 0.0, "bike_id": "b819b55fb8834b9dbd25bc885225dced", "lon": -77.0323305, "rental_uris": {"ios": "https://dc.lft.to/lastmile_qr_scan", "android": "https://dc.lft.to/lastmile_qr_scan"}}, {"name": "21ad54850ca613dbace07293b903dbdf", "fusion_lat": 0.0, "type": "electric_bike", "lat": 38.870635666666665, "is_reserved": 0, "is_disabled": 0, "fusion_lon": 0.0, "bike_id": "21ad54850ca613dbace07293b903dbdf", "lon": -77.11076366666667, "rental_uris": {"ios": "https://dc.lft.to/lastmile_qr_scan", "android": "https://dc.lft.to/lastmile_qr_scan"}}, {"name": "113008aab8d274637f13cd12ea83e046", "fusion_lat": 0.0, "type": "electric_scooter", "lat": 38.8775175, "is_reserved": 0, "is_disabled": 0, "fusion_lon": 0.0, "bike_id": "113008aab8d274637f13cd12ea83e046", "lon": -76.97238633333333, "rental_uris": {"ios": "https://dc.lft.to/lastmile_qr_scan", "android": "https://dc.lft.to/lastmile_qr_scan"}}, {"name": "9c12e9e926b0256a420298d21ce72ef1", "fusion_lat": 0.0, "type": "electric_scooter", "lat": 38.92378766666667, "is_reserved": 0, "is_disabled": 0, "fusion_lon": 0.0, "bike_id": "9c12e9e926b0256a420298d21ce72ef1", "lon": -77.01916716666666, "rental_uris": {"ios": "https://dc.lft.to/lastmile_qr_scan", "android": "https://dc.lft.to/lastmile_qr_scan"}}, {"name": "4377d0db9c5acd4f7d142e85b1514d8d", "fusion_lat": 0.0, "type": "electric_scooter", "lat": 38.8869945, "is_reserved": 0, "is_disabled": 0, "fusion_lon": 0.0, "bike_id": "4377d0db9c5acd4f7d142e85b1514d8d", "lon": -77.03376216666666, "rental_uris": {"ios": "https://dc.lft.to/lastmile_qr_scan", "android": "https://dc.lft.to/lastmile_qr_scan"}}, {"name": "5d4d1334375199a5a38a80fea275659f", "fusion_lat": 0.0, "type": "electric_scooter", "lat": 38.912651, "is_reserved": 0, "is_disabled": 0, "fusion_lon": 0.0, "bike_id": "5d4d1334375199a5a38a80fea275659f", "lon": -77.00923083333333, "rental_uris": {"ios": "https://dc.lft.to/lastmile_qr_scan", "android": "https://dc.lft.to/lastmile_qr_scan"}}, {"name": "7a83eee74420a59d86480defad02fdd0", "fusion_lat": 0.0, "type": "electric_bike", "lat": 38.85788766666667, "is_reserved": 0, "is_disabled": 0, "fusion_lon": 0.0, "bike_id": "7a83eee74420a59d86480defad02fdd0", "lon": -76.98738933333334, "rental_uris": {"ios": "https://dc.lft.to/lastmile_qr_scan", "android": "https://dc.lft.to/lastmile_qr_scan"}}, {"name": "678e511ac7a1d09dbc7232927df2722a", "fusion_lat": 0.0, "type": "electric_scooter", "lat": 38.913281166666664, "is_reserved": 0, "is_disabled": 0, "fusion_lon": 0.0, "bike_id": "678e511ac7a1d09dbc7232927df2722a", "lon": -77.04534266666667, "rental_uris": {"ios": "https://dc.lft.to/lastmile_qr_scan", "android": "https://dc.lft.to/lastmile_qr_scan"}}, {"name": "a76e9a62df4728c76eb7d01c4842bb8e", "fusion_lat": 0.0, "type": "electric_scooter", "lat": 38.907634333333334, "is_reserved": 0, "is_disabled": 0, "fusion_lon": 0.0, "bike_id": "a76e9a62df4728c76eb7d01c4842bb8e", "lon": -77.03542016666667, "rental_uris": {"ios": "https://dc.lft.to/lastmile_qr_scan", "android": "https://dc.lft.to/lastmile_qr_scan"}}, {"name": "f6111ce3214f6bbcc549cc983260fc94", "fusion_lat": 0.0, "type": "electric_scooter", "lat": 38.89847233333333, "is_reserved": 0, "is_disabled": 0, "fusion_lon": 0.0, "bike_id": "f6111ce3214f6bbcc549cc983260fc94", "lon": -77.02591333333334, "rental_uris": {"ios": "https://dc.lft.to/lastmile_qr_scan", "android": "https://dc.lft.to/lastmile_qr_scan"}}, {"name": "db210070d1372fa950d32caa1b7cc54b", "fusion_lat": 0.0, "type": "electric_scooter", "lat": 38.910365666666664, "is_reserved": 0, "is_disabled": 0, "fusion_lon": 0.0, "bike_id": "db210070d1372fa950d32caa1b7cc54b", "lon": -77.043844, "rental_uris": {"ios": "https://dc.lft.to/lastmile_qr_scan", "android": "https://dc.lft.to/lastmile_qr_scan"}}, {"name": "cfb0488db567e6106dd27714aa447198", "fusion_lat": 0.0, "type": "electric_scooter", "lat": 38.904166000000004, "is_reserved": 0, "is_disabled": 0, "fusion_lon": 0.0, "bike_id": "cfb0488db567e6106dd27714aa447198", "lon": -76.9789015, "rental_uris": {"ios": "https://dc.lft.to/lastmile_qr_scan", "android": "https://dc.lft.to/lastmile_qr_scan"}}, {"name": "bcd4ffcbd7143776133b1fc30bde282a", "fusion_lat": 0.0, "type": "electric_bike", "lat": 38.95954566666666, "is_reserved": 0, "is_disabled": 0, "fusion_lon": 0.0, "bike_id": "bcd4ffcbd7143776133b1fc30bde282a", "lon": -77.10089483333333, "rental_uris": {"ios": "https://dc.lft.to/lastmile_qr_scan", "android": "https://dc.lft.to/lastmile_qr_scan"}}, {"name": "f31b36aed27384f18b7114e808ef770d", "fusion_lat": 0.0, "type": "electric_scooter", "lat": 38.918443833333335, "is_reserved": 0, "is_disabled": 0, "fusion_lon": 0.0, "bike_id": "f31b36aed27384f18b7114e808ef770d", "lon": -77.02602966666667, "rental_uris": {"ios": "https://dc.lft.to/lastmile_qr_scan", "android": "https://dc.lft.to/lastmile_qr_scan"}}, {"name": "8fa3030ff05021b01e5d325b958eb33a", "fusion_lat": 0.0, "type": "electric_scooter", "lat": 38.8950775, "is_reserved": 0, "is_disabled": 0, "fusion_lon": 0.0, "bike_id": "8fa3030ff05021b01e5d325b958eb33a", "lon": -76.99155383333333, "rental_uris": {"ios": "https://dc.lft.to/lastmile_qr_scan", "android": "https://dc.lft.to/lastmile_qr_scan"}}, {"name": "2d02bbb15c2dcfe893efe741933dea10", "fusion_lat": 0.0, "type": "electric_scooter", "lat": 38.907242833333335, "is_reserved": 0, "is_disabled": 0, "fusion_lon": 0.0, "bike_id": "2d02bbb15c2dcfe893efe741933dea10", "lon": -77.0053845, "rental_uris": {"ios": "https://dc.lft.to/lastmile_qr_scan", "android": "https://dc.lft.to/lastmile_qr_scan"}}, {"name": "5579988bbd5624e298ca731c2e2e7553", "fusion_lat": 0.0, "type": "electric_scooter", "lat": 38.91828366666667, "is_reserved": 0, "is_disabled": 0, "fusion_lon": 0.0, "bike_id": "5579988bbd5624e298ca731c2e2e7553", "lon": -77.02710033333334, "rental_uris": {"ios": "https://dc.lft.to/lastmile_qr_scan", "android": "https://dc.lft.to/lastmile_qr_scan"}}, {"name": "1b8fafac9d472e4f837e3fc32cd264e9", "fusion_lat": 0.0, "type": "electric_scooter", "lat": 38.88516516666667, "is_reserved": 0, "is_disabled": 0, "fusion_lon": 0.0, "bike_id": "1b8fafac9d472e4f837e3fc32cd264e9", "lon": -77.01728066666666, "rental_uris": {"ios": "https://dc.lft.to/lastmile_qr_scan", "android": "https://dc.lft.to/lastmile_qr_scan"}}, {"name": "81cf5185f0b0d8fd2312e4da207039a7", "fusion_lat": 0.0, "type": "electric_scooter", "lat": 38.91633133333333, "is_reserved": 0, "is_disabled": 0, "fusion_lon": 0.0, "bike_id": "81cf5185f0b0d8fd2312e4da207039a7", "lon": -77.00111683333333, "rental_uris": {"ios": "https://dc.lft.to/lastmile_qr_scan", "android": "https://dc.lft.to/lastmile_qr_scan"}}, {"name": "5c1f84d706c2bc48b9de640732fb92b2", "fusion_lat": 0.0, "type": "electric_scooter", "lat": 38.916272166666666, "is_reserved": 0, "is_disabled": 0, "fusion_lon": 0.0, "bike_id": "5c1f84d706c2bc48b9de640732fb92b2", "lon": -77.02156516666666, "rental_uris": {"ios": "https://dc.lft.to/lastmile_qr_scan", "android": "https://dc.lft.to/lastmile_qr_scan"}}, {"name": "36d21e0f96430ae0b5ef9ab0ba60a0e3", "fusion_lat": 0.0, "type": "electric_scooter", "lat": 38.901154166666664, "is_reserved": 0, "is_disabled": 0, "fusion_lon": 0.0, "bike_id": "36d21e0f96430ae0b5ef9ab0ba60a0e3", "lon": -77.03166633333333, "rental_uris": {"ios": "https://dc.lft.to/lastmile_qr_scan", "android": "https://dc.lft.to/lastmile_qr_scan"}}, {"name": "14e24681b60d5b34da0c16ab8042299d", "fusion_lat": 0.0, "type": "electric_scooter", "lat": 38.9066245, "is_reserved": 0, "is_disabled": 0, "fusion_lon": 0.0, "bike_id": "14e24681b60d5b34da0c16ab8042299d", "lon": -77.038215, "rental_uris": {"ios": "https://dc.lft.to/lastmile_qr_scan", "android": "https://dc.lft.to/lastmile_qr_scan"}}, {"name": "c820875c3e308d6d33fdb8566ff726dd", "fusion_lat": 0.0, "type": "electric_scooter", "lat": 38.905691833333336, "is_reserved": 0, "is_disabled": 0, "fusion_lon": 0.0, "bike_id": "c820875c3e308d6d33fdb8566ff726dd", "lon": -77.0414605, "rental_uris": {"ios": "https://dc.lft.to/lastmile_qr_scan", "android": "https://dc.lft.to/lastmile_qr_scan"}}, {"name": "0c5d81a703a739986031abcbab39c875", "fusion_lat": 0.0, "type": "electric_bike", "lat": 38.9396975, "is_reserved": 0, "is_disabled": 0, "fusion_lon": 0.0, "bike_id": "0c5d81a703a739986031abcbab39c875", "lon": -76.98657083333333, "rental_uris": {"ios": "https://dc.lft.to/lastmile_qr_scan", "android": "https://dc.lft.to/lastmile_qr_scan"}}, {"name": "8b74a9c0fd8443f1428c108fa7bf2a6e", "fusion_lat": 0.0, "type": "electric_scooter", "lat": 38.94312266666667, "is_reserved": 0, "is_disabled": 0, "fusion_lon": 0.0, "bike_id": "8b74a9c0fd8443f1428c108fa7bf2a6e", "lon": -77.05910766666666, "rental_uris": {"ios": "https://dc.lft.to/lastmile_qr_scan", "android": "https://dc.lft.to/lastmile_qr_scan"}}, {"name": "a81bd443ec4ef3272c402059c79ed074", "fusion_lat": 0.0, "type": "electric_scooter", "lat": 38.89848583333333, "is_reserved": 0, "is_disabled": 0, "fusion_lon": 0.0, "bike_id": "a81bd443ec4ef3272c402059c79ed074", "lon": -76.97562, "rental_uris": {"ios": "https://dc.lft.to/lastmile_qr_scan", "android": "https://dc.lft.to/lastmile_qr_scan"}}, {"name": "03ceb87515374027237f56d4d6d41292", "fusion_lat": 0.0, "type": "electric_scooter", "lat": 38.87657933333333, "is_reserved": 0, "is_disabled": 0, "fusion_lon": 0.0, "bike_id": "03ceb87515374027237f56d4d6d41292", "lon": -77.00829683333333, "rental_uris": {"ios": "https://dc.lft.to/lastmile_qr_scan", "android": "https://dc.lft.to/lastmile_qr_scan"}}, {"name": "88a9527c9bed34a52c8347f5483051a3", "fusion_lat": 0.0, "type": "electric_bike", "lat": 38.8813305, "is_reserved": 0, "is_disabled": 0, "fusion_lon": 0.0, "bike_id": "88a9527c9bed34a52c8347f5483051a3", "lon": -76.98091583333333, "rental_uris": {"ios": "https://dc.lft.to/lastmile_qr_scan", "android": "https://dc.lft.to/lastmile_qr_scan"}}, {"name": "ecbe84b24cac2051f64650d983bcd8c6", "fusion_lat": 0.0, "type": "electric_scooter", "lat": 38.88503933333333, "is_reserved": 0, "is_disabled": 0, "fusion_lon": 0.0, "bike_id": "ecbe84b24cac2051f64650d983bcd8c6", "lon": -77.00565316666666, "rental_uris": {"ios": "https://dc.lft.to/lastmile_qr_scan", "android": "https://dc.lft.to/lastmile_qr_scan"}}, {"name": "d5b83d1c4f5372362adcdb38ab20b0b5", "fusion_lat": 0.0, "type": "electric_scooter", "lat": 38.865121333333335, "is_reserved": 0, "is_disabled": 0, "fusion_lon": 0.0, "bike_id": "d5b83d1c4f5372362adcdb38ab20b0b5", "lon": -76.97345216666666, "rental_uris": {"ios": "https://dc.lft.to/lastmile_qr_scan", "android": "https://dc.lft.to/lastmile_qr_scan"}}, {"name": "5634632b61fdeaf2eb0c8e8db08d8f27", "fusion_lat": 0.0, "type": "electric_scooter", "lat": 38.883439, "is_reserved": 0, "is_disabled": 0, "fusion_lon": 0.0, "bike_id": "5634632b61fdeaf2eb0c8e8db08d8f27", "lon": -77.031631, "rental_uris": {"ios": "https://dc.lft.to/lastmile_qr_scan", "android": "https://dc.lft.to/lastmile_qr_scan"}}, {"name": "82d87a05ee7b30cded1bbbba36d04f10", "fusion_lat": 0.0, "type": "electric_scooter", "lat": 38.8947355, "is_reserved": 0, "is_disabled": 0, "fusion_lon": 0.0, "bike_id": "82d87a05ee7b30cded1bbbba36d04f10", "lon": -76.9840005, "rental_uris": {"ios": "https://dc.lft.to/lastmile_qr_scan", "android": "https://dc.lft.to/lastmile_qr_scan"}}, {"name": "9a295c5ae87b9485674335840550146e", "fusion_lat": 0.0, "type": "electric_scooter", "lat": 38.8991795, "is_reserved": 0, "is_disabled": 0, "fusion_lon": 0.0, "bike_id": "9a295c5ae87b9485674335840550146e", "lon": -76.93382733333334, "rental_uris": {"ios": "https://dc.lft.to/lastmile_qr_scan", "android": "https://dc.lft.to/lastmile_qr_scan"}}, {"name": "31a749c9cd4d583cc3fda6a8d89f13e3", "fusion_lat": 0.0, "type": "electric_bike", "lat": 38.8722045, "is_reserved": 0, "is_disabled": 0, "fusion_lon": 0.0, "bike_id": "31a749c9cd4d583cc3fda6a8d89f13e3", "lon": -77.01181016666666, "rental_uris": {"ios": "https://dc.lft.to/lastmile_qr_scan", "android": "https://dc.lft.to/lastmile_qr_scan"}}, {"name": "e6dc380fb29a2cfe075619f3f52cd170", "fusion_lat": 0.0, "type": "electric_bike", "lat": 38.862798166666664, "is_reserved": 0, "is_disabled": 0, "fusion_lon": 0.0, "bike_id": "e6dc380fb29a2cfe075619f3f52cd170", "lon": -76.98000783333333, "rental_uris": {"ios": "https://dc.lft.to/lastmile_qr_scan", "android": "https://dc.lft.to/lastmile_qr_scan"}}, {"name": "b8c2e4089f19f29035daf90a83ad0a55", "fusion_lat": 0.0, "type": "electric_scooter", "lat": 38.90724, "is_reserved": 0, "is_disabled": 0, "fusion_lon": 0.0, "bike_id": "b8c2e4089f19f29035daf90a83ad0a55", "lon": -77.044903, "rental_uris": {"ios": "https://dc.lft.to/lastmile_qr_scan", "android": "https://dc.lft.to/lastmile_qr_scan"}}, {"name": "45cff16eeb51c50e0eba1da0b6881a87", "fusion_lat": 0.0, "type": "electric_scooter", "lat": 38.9005255, "is_reserved": 0, "is_disabled": 0, "fusion_lon": 0.0, "bike_id": "45cff16eeb51c50e0eba1da0b6881a87", "lon": -77.00757833333333, "rental_uris": {"ios": "https://dc.lft.to/lastmile_qr_scan", "android": "https://dc.lft.to/lastmile_qr_scan"}}, {"name": "0ac1f070320fd8d70afd66d8481b5a18", "fusion_lat": 0.0, "type": "electric_scooter", "lat": 38.93699983333333, "is_reserved": 0, "is_disabled": 0, "fusion_lon": 0.0, "bike_id": "0ac1f070320fd8d70afd66d8481b5a18", "lon": -77.02398633333334, "rental_uris": {"ios": "https://dc.lft.to/lastmile_qr_scan", "android": "https://dc.lft.to/lastmile_qr_scan"}}, {"name": "93da40e4eb931897b9107a706abd3421", "fusion_lat": 0.0, "type": "electric_scooter", "lat": 38.896034666666665, "is_reserved": 0, "is_disabled": 0, "fusion_lon": 0.0, "bike_id": "93da40e4eb931897b9107a706abd3421", "lon": -77.054354, "rental_uris": {"ios": "https://dc.lft.to/lastmile_qr_scan", "android": "https://dc.lft.to/lastmile_qr_scan"}}, {"name": "0db59b71b34b30eacca1582aea78d777", "fusion_lat": 0.0, "type": "electric_scooter", "lat": 38.87665033333333, "is_reserved": 0, "is_disabled": 0, "fusion_lon": 0.0, "bike_id": "0db59b71b34b30eacca1582aea78d777", "lon": -77.00432733333334, "rental_uris": {"ios": "https://dc.lft.to/lastmile_qr_scan", "android": "https://dc.lft.to/lastmile_qr_scan"}}, {"name": "c8e6ac16c23bf654e41fff9826d78a97", "fusion_lat": 0.0, "type": "electric_bike", "lat": 38.930612833333335, "is_reserved": 0, "is_disabled": 0, "fusion_lon": 0.0, "bike_id": "c8e6ac16c23bf654e41fff9826d78a97", "lon": -77.03172383333333, "rental_uris": {"ios": "https://dc.lft.to/lastmile_qr_scan", "android": "https://dc.lft.to/lastmile_qr_scan"}}, {"name": "77767925958c1d100410ecaae5b8a01c", "fusion_lat": 0.0, "type": "electric_scooter", "lat": 38.9232385, "is_reserved": 0, "is_disabled": 0, "fusion_lon": 0.0, "bike_id": "77767925958c1d100410ecaae5b8a01c", "lon": -77.03620483333333, "rental_uris": {"ios": "https://dc.lft.to/lastmile_qr_scan", "android": "https://dc.lft.to/lastmile_qr_scan"}}, {"name": "b96f9cf705245c484f5b82ec5c63f5e1", "fusion_lat": 0.0, "type": "electric_scooter", "lat": 38.9156015, "is_reserved": 0, "is_disabled": 0, "fusion_lon": 0.0, "bike_id": "b96f9cf705245c484f5b82ec5c63f5e1", "lon": -77.01416116666667, "rental_uris": {"ios": "https://dc.lft.to/lastmile_qr_scan", "android": "https://dc.lft.to/lastmile_qr_scan"}}, {"name": "4399a888748d7e9671fe0465f4fd143f", "fusion_lat": 0.0, "type": "electric_scooter", "lat": 38.92149783333333, "is_reserved": 0, "is_disabled": 0, "fusion_lon": 0.0, "bike_id": "4399a888748d7e9671fe0465f4fd143f", "lon": -77.038655, "rental_uris": {"ios": "https://dc.lft.to/lastmile_qr_scan", "android": "https://dc.lft.to/lastmile_qr_scan"}}, {"name": "bc6f6f2b7528e8cd55e7a1ecf048127a", "fusion_lat": 0.0, "type": "electric_scooter", "lat": 38.9164465, "is_reserved": 0, "is_disabled": 0, "fusion_lon": 0.0, "bike_id": "bc6f6f2b7528e8cd55e7a1ecf048127a", "lon": -77.01584683333333, "rental_uris": {"ios": "https://dc.lft.to/lastmile_qr_scan", "android": "https://dc.lft.to/lastmile_qr_scan"}}, {"name": "3a2e2e11474b62763be9f7dece8d236a", "fusion_lat": 0.0, "type": "electric_scooter", "lat": 38.909636666666664, "is_reserved": 0, "is_disabled": 0, "fusion_lon": 0.0, "bike_id": "3a2e2e11474b62763be9f7dece8d236a", "lon": -77.01135266666667, "rental_uris": {"ios": "https://dc.lft.to/lastmile_qr_scan", "android": "https://dc.lft.to/lastmile_qr_scan"}}, {"name": "4ec2e852e8e5712a5fa97c710eace55c", "fusion_lat": 0.0, "type": "electric_scooter", "lat": 38.92480416666667, "is_reserved": 0, "is_disabled": 0, "fusion_lon": 0.0, "bike_id": "4ec2e852e8e5712a5fa97c710eace55c", "lon": -77.03934416666667, "rental_uris": {"ios": "https://dc.lft.to/lastmile_qr_scan", "android": "https://dc.lft.to/lastmile_qr_scan"}}, {"name": "84404b378a3861c17c1cdc5f0be09303", "fusion_lat": 0.0, "type": "electric_scooter", "lat": 38.916146166666664, "is_reserved": 0, "is_disabled": 0, "fusion_lon": 0.0, "bike_id": "84404b378a3861c17c1cdc5f0be09303", "lon": -77.0428255, "rental_uris": {"ios": "https://dc.lft.to/lastmile_qr_scan", "android": "https://dc.lft.to/lastmile_qr_scan"}}, {"name": "1e4d3d8c10b1eeb67df3d06989873458", "fusion_lat": 0.0, "type": "electric_scooter", "lat": 38.901347333333334, "is_reserved": 0, "is_disabled": 0, "fusion_lon": 0.0, "bike_id": "1e4d3d8c10b1eeb67df3d06989873458", "lon": -77.02997416666666, "rental_uris": {"ios": "https://dc.lft.to/lastmile_qr_scan", "android": "https://dc.lft.to/lastmile_qr_scan"}}, {"name": "8bee075d92f0da7316a1f92a1da6c137", "fusion_lat": 0.0, "type": "electric_scooter", "lat": 38.92568516666667, "is_reserved": 0, "is_disabled": 0, "fusion_lon": 0.0, "bike_id": "8bee075d92f0da7316a1f92a1da6c137", "lon": -77.02843583333333, "rental_uris": {"ios": "https://dc.lft.to/lastmile_qr_scan", "android": "https://dc.lft.to/lastmile_qr_scan"}}, {"name": "bbed329d539975629462ca9f83bf9bd9", "fusion_lat": 0.0, "type": "electric_scooter", "lat": 38.8997635, "is_reserved": 0, "is_disabled": 0, "fusion_lon": 0.0, "bike_id": "bbed329d539975629462ca9f83bf9bd9", "lon": -77.02942183333333, "rental_uris": {"ios": "https://dc.lft.to/lastmile_qr_scan", "android": "https://dc.lft.to/lastmile_qr_scan"}}, {"name": "7929bd18e4e1bd3db4d9cc577a9d5e7c", "fusion_lat": 0.0, "type": "electric_scooter", "lat": 38.9123645, "is_reserved": 0, "is_disabled": 0, "fusion_lon": 0.0, "bike_id": "7929bd18e4e1bd3db4d9cc577a9d5e7c", "lon": -77.009142, "rental_uris": {"ios": "https://dc.lft.to/lastmile_qr_scan", "android": "https://dc.lft.to/lastmile_qr_scan"}}, {"name": "4859564e4b1545377581a73c6c43419a", "fusion_lat": 0.0, "type": "electric_scooter", "lat": 38.902759333333336, "is_reserved": 0, "is_disabled": 0, "fusion_lon": 0.0, "bike_id": "4859564e4b1545377581a73c6c43419a", "lon": -76.99860283333334, "rental_uris": {"ios": "https://dc.lft.to/lastmile_qr_scan", "android": "https://dc.lft.to/lastmile_qr_scan"}}, {"name": "4a77ad5fa0bd3c81a8e5b9de5a74a210", "fusion_lat": 0.0, "type": "electric_scooter", "lat": 38.907173666666665, "is_reserved": 0, "is_disabled": 0, "fusion_lon": 0.0, "bike_id": "4a77ad5fa0bd3c81a8e5b9de5a74a210", "lon": -77.0417235, "rental_uris": {"ios": "https://dc.lft.to/lastmile_qr_scan", "android": "https://dc.lft.to/lastmile_qr_scan"}},