{"data": {"bikes": [{"name": "8c260cbe9be68cd11628fa5ef7800cde", "fusion_lat": 0.0, "fusion_lon": 0.0, "bike_id": "8c260cbe9be68cd11628fa5ef7800cde", "rental_uris": {"ios": "https://dc.lft.to/lastmile_qr_scan", "android": "https://dc.lft.to/lastmile_qr_scan"}, "type": "electric_scooter", "lat": 38.887414166666666, "is_disabled": 0, "lon": -77.0212555, "is_reserved": 0}, {"name": "8b6f50d4bf6473ae70a31bb7de137845", "fusion_lat": 0.0, "fusion_lon": 0.0, "bike_id": "8b6f50d4bf6473ae70a31bb7de137845", "rental_uris": {"ios": "https://dc.lft.to/lastmile_qr_scan", "android": "https://dc.lft.to/lastmile_qr_scan"}, "type": "electric_scooter", "lat": 38.90438, "is_disabled": 0, "lon": -77.038259, "is_reserved": 0}, {"name": "622369ff877c567a9aaf46443a560b78", "fusion_lat": 0.0, "fusion_lon": 0.0, "bike_id": "622369ff877c567a9aaf46443a560b78", "rental_uris": {"ios": "https://dc.lft.to/lastmile_qr_scan", "android": "https://dc.lft.to/lastmile_qr_scan"}, "type": "electric_scooter", "lat": 38.9248135, "is_disabled": 0, "lon": -77.02722266666666, "is_reserved": 0}, {"name": "867c138d4ab45dd08d6315948e66be56", "fusion_lat": 0.0, "fusion_lon": 0.0, "bike_id": "867c138d4ab45dd08d6315948e66be56", "rental_uris": {"ios": "https://dc.lft.to/lastmile_qr_scan", "android": "https://dc.lft.to/lastmile_qr_scan"}, "type": "electric_scooter", "lat": 38.903051166666664, "is_disabled": 0, "lon": -77.02366083333334, "is_reserved": 0}, {"name": "e0a715764f1ca4712b640394b4a7b3c8", "fusion_lat": 0.0, "fusion_lon": 0.0, "bike_id": "e0a715764f1ca4712b640394b4a7b3c8", "rental_uris": {"ios": "https://dc.lft.to/lastmile_qr_scan", "android": "https://dc.lft.to/lastmile_qr_scan"}, "type": "electric_scooter", "lat": 38.905461, "is_disabled": 0, "lon": -77.05709466666667, "is_reserved": 0}, {"name": "7c5bad12ad561b837c2776aa85919353", "fusion_lat": 0.0, "fusion_lon": 0.0, "bike_id": "7c5bad12ad561b837c2776aa85919353", "rental_uris": {"ios": "https://dc.lft.to/lastmile_qr_scan", "android": "https://dc.lft.to/lastmile_qr_scan"}, "type": "electric_scooter", "lat": 38.91701116666667, "is_disabled": 0, "lon": -77.0401395, "is_reserved": 0}, {"name": "ff35d7f60a8096b03a71ef13db1db39e", "fusion_lat": 0.0, "fusion_lon": 0.0, "bike_id": "ff35d7f60a8096b03a71ef13db1db39e", "rental_uris": {"ios": "https://dc.lft.to/lastmile_qr_scan", "android": "https://dc.lft.to/lastmile_qr_scan"}, "type": "electric_scooter", "lat": 38.938614333333334, "is_disabled": 0, "lon": -77.02486633333334, "is_reserved": 0}, {"name": "53e45349a837e2204b2752a30f841790", "fusion_lat": 0.0, "fusion_lon": 0.0, "bike_id": "53e45349a837e2204b2752a30f841790", "rental_uris": {"ios": "https://dc.lft.to/lastmile_qr_scan", "android": "https://dc.lft.to/lastmile_qr_scan"}, "type": "electric_bike", "lat": 38.9390625, "is_disabled": 0, "lon": -77.07690966666667, "is_reserved": 0}, {"name": "27282028d5c71e203f850bb854ce3fd9", "fusion_lat": 0.0, "fusion_lon": 0.0, "bike_id": "27282028d5c71e203f850bb854ce3fd9", "rental_uris": {"ios": "https://dc.lft.to/lastmile_qr_scan", "android": "https://dc.lft.to/lastmile_qr_scan"}, "type": "electric_scooter", "lat": 38.9052105, "is_disabled": 0, "lon": -77.059768, "is_reserved": 0}, {"name": "7cad6e25881e3002bafa12824c1664b6", "fusion_lat": 0.0, "fusion_lon": 0.0, "bike_id": "7cad6e25881e3002bafa12824c1664b6", "rental_uris": {"ios": "https://dc.lft.to/lastmile_qr_scan", "android": "https://dc.lft.to/lastmile_qr_scan"}, "type": "electric_scooter", "lat": 38.932412166666666, "is_disabled": 0, "lon": -77.03415333333334, "is_reserved": 0}, {"name": "cae2294b4813add0e9c077623ad189c1", "fusion_lat": 0.0, "fusion_lon": 0.0, "bike_id": "cae2294b4813add0e9c077623ad189c1", "rental_uris": {"ios": "https://dc.lft.to/lastmile_qr_scan", "android": "https://dc.lft.to/lastmile_qr_scan"}, "type": "electric_scooter", "lat": 38.9188055, "is_disabled": 0, "lon": -77.0417105, "is_reserved": 0}, {"name": "7c3f59aabf6fa0fedef544028b6b6615", "fusion_lat": 0.0, "fusion_lon": 0.0, "bike_id": "7c3f59aabf6fa0fedef544028b6b6615", "rental_uris": {"ios": "https://dc.lft.to/lastmile_qr_scan", "android": "https://dc.lft.to/lastmile_qr_scan"}, "type": "electric_scooter", "lat": 38.87630083333333, "is_disabled": 0, "lon": -77.01256033333334, "is_reserved": 0}, {"name": "4a383377380f7660d09864f86ea151c3", "fusion_lat": 0.0, "fusion_lon": 0.0, "bike_id": "4a383377380f7660d09864f86ea151c3", "rental_uris": {"ios": "https://dc.lft.to/lastmile_qr_scan", "android": "https://dc.lft.to/lastmile_qr_scan"}, "type": "electric_bike", "lat": 38.94622116666667, "is_disabled": 0, "lon": -76.93414083333333, "is_reserved": 0}, {"name": "0e68a5c5d628d23fbfe434984618a918", "fusion_lat": 0.0, "fusion_lon": 0.0, "bike_id": "0e68a5c5d628d23fbfe434984618a918", "rental_uris": {"ios": "https://dc.lft.to/lastmile_qr_scan", "android": "https://dc.lft.to/lastmile_qr_scan"}, "type": "electric_scooter", "lat": 38.9015385, "is_disabled": 0, "lon": -77.03233916666667, "is_reserved": 0}, {"name": "3f46357dd77ddfbdcaf4d4c87be595b7", "fusion_lat": 0.0, "fusion_lon": 0.0, "bike_id": "3f46357dd77ddfbdcaf4d4c87be595b7", "rental_uris": {"ios": "https://dc.lft.to/lastmile_qr_scan", "android": "https://dc.lft.to/lastmile_qr_scan"}, "type": "electric_scooter", "lat": 38.89878866666667, "is_disabled": 0, "lon": -77.03279383333333, "is_reserved": 0}, {"name": "beb1b1163135e174d1675414375728cd", "fusion_lat": 0.0, "fusion_lon": 0.0, "bike_id": "beb1b1163135e174d1675414375728cd", "rental_uris": {"ios": "https://dc.lft.to/lastmile_qr_scan", "android": "https://dc.lft.to/lastmile_qr_scan"}, "type": "electric_scooter", "lat": 38.9235645, "is_disabled": 0, "lon": -77.03522316666667, "is_reserved": 0}, {"name": "821313e764598bf91f3c86ea88ca2211", "fusion_lat": 0.0, "fusion_lon": 0.0, "bike_id": "821313e764598bf91f3c86ea88ca2211", "rental_uris": {"ios": "https://dc.lft.to/lastmile_qr_scan", "android": "https://dc.lft.to/lastmile_qr_scan"}, "type": "electric_scooter", "lat": 38.923472833333335, "is_disabled": 0, "lon": -77.035171, "is_reserved": 0}, {"name": "68eaeee7ba024f399358ee1a5ede4b59", "fusion_lat": 0.0, "fusion_lon": 0.0, "bike_id": "68eaeee7ba024f399358ee1a5ede4b59", "rental_uris": {"ios": "https://dc.lft.to/lastmile_qr_scan", "android": "https://dc.lft.to/lastmile_qr_scan"}, "type": "electric_scooter", "lat": 38.913362166666666, "is_disabled": 0, "lon": -77.01105366666667, "is_reserved": 0}, {"name": "cd6d26ae2bd357a18bb711067fb05cee", "fusion_lat": 0.0, "fusion_lon": 0.0, "bike_id": "cd6d26ae2bd357a18bb711067fb05cee", "rental_uris": {"ios": "https://dc.lft.to/lastmile_qr_scan", "android": "https://dc.lft.to/lastmile_qr_scan"}, "type": "electric_scooter", "lat": 38.90171266666667, "is_disabled": 0, "lon": -77.04730133333334, "is_reserved": 0}, {"name": "b20b7e1737bedd7bc28c69097dde5889", "fusion_lat": 0.0, "fusion_lon": 0.0, "bike_id": "b20b7e1737bedd7bc28c69097dde5889", "rental_uris": {"ios": "https://dc.lft.to/lastmile_qr_scan", "android": "https://dc.lft.to/lastmile_qr_scan"}, "type": "electric_scooter", "lat": 38.884925333333335, "is_disabled": 0, "lon": -77.00706466666666, "is_reserved": 0}, {"name": "b6f7e1867cdd2effa633353fab864131", "fusion_lat": 0.0, "fusion_lon": 0.0, "bike_id": "b6f7e1867cdd2effa633353fab864131", "rental_uris": {"ios": "https://dc.lft.to/lastmile_qr_scan", "android": "https://dc.lft.to/lastmile_qr_scan"}, "type": "electric_scooter", "lat": 38.92841833333333, "is_disabled": 0, "lon": -77.03298333333333, "is_reserved": 0}, {"name": "a94f55fa5f33436951c675a3e8699073", "fusion_lat": 0.0, "fusion_lon": 0.0, "bike_id": "a94f55fa5f33436951c675a3e8699073", "rental_uris": {"ios": "https://dc.lft.to/lastmile_qr_scan", "android": "https://dc.lft.to/lastmile_qr_scan"}, "type": "electric_scooter", "lat": 38.89775316666667, "is_disabled": 0, "lon": -77.024811, "is_reserved": 0}, {"name": "797f501a7a03f30095a7af580aa85572", "fusion_lat": 0.0, "fusion_lon": 0.0, "bike_id": "797f501a7a03f30095a7af580aa85572", "rental_uris": {"ios": "https://dc.lft.to/lastmile_qr_scan", "android": "https://dc.lft.to/lastmile_qr_scan"}, "type": "electric_scooter", "lat": 38.89484233333334, "is_disabled": 0, "lon": -77.00211666666667, "is_reserved": 0}, {"name": "b4513ab004c5165290eacf7f306e93fb", "fusion_lat": 0.0, "fusion_lon": 0.0, "bike_id": "b4513ab004c5165290eacf7f306e93fb", "rental_uris": {"ios": "https://dc.lft.to/lastmile_qr_scan", "android": "https://dc.lft.to/lastmile_qr_scan"}, "type": "electric_scooter", "lat": 38.95644083333333, "is_disabled": 0, "lon": -77.01497133333334, "is_reserved": 0}, {"name": "98e3d74ca82291e4ea614cc68192c98e", "fusion_lat": 0.0, "fusion_lon": 0.0, "bike_id": "98e3d74ca82291e4ea614cc68192c98e", "rental_uris": {"ios": "https://dc.lft.to/lastmile_qr_scan", "android": "https://dc.lft.to/lastmile_qr_scan"}, "type": "electric_scooter", "lat": 38.925686666666664, "is_disabled": 0, "lon": -77.03102566666666, "is_reserved": 0}, {"name": "949ba120587c06dabc8643f3dcd47069", "fusion_lat": 0.0, "fusion_lon": 0.0, "bike_id": "949ba120587c06dabc8643f3dcd47069", "rental_uris": {"ios": "https://dc.lft.to/lastmile_qr_scan", "android": "https://dc.lft.to/lastmile_qr_scan"}, "type": "electric_scooter", "lat": 38.9156165, "is_disabled": 0, "lon": -77.0459545, "is_reserved": 0}, {"name": "aacd6c6d7db4e874abd4641c340ae08d", "fusion_lat": 0.0, "fusion_lon": 0.0, "bike_id": "aacd6c6d7db4e874abd4641c340ae08d", "rental_uris": {"ios": "https://dc.lft.to/lastmile_qr_scan", "android": "https://dc.lft.to/lastmile_qr_scan"}, "type": "electric_scooter", "lat": 38.88644266666667, "is_disabled": 0, "lon": -77.000926, "is_reserved": 0}, {"name": "a9f39e40bb4dd170ffbe129b3218f18c", "fusion_lat": 0.0, "fusion_lon": 0.0, "bike_id": "a9f39e40bb4dd170ffbe129b3218f18c", "rental_uris": {"ios": "https://dc.lft.to/lastmile_qr_scan", "android": "https://dc.lft.to/lastmile_qr_scan"}, "type": "electric_scooter", "lat": 38.920774, "is_disabled": 0, "lon": -77.02389983333333, "is_reserved": 0}, {"name": "6ab93c5c876ba2ee34ae3c3907b4829a", "fusion_lat": 0.0, "fusion_lon": 0.0, "bike_id": "6ab93c5c876ba2ee34ae3c3907b4829a", "rental_uris": {"ios": "https://dc.lft.to/lastmile_qr_scan", "android": "https://dc.lft.to/lastmile_qr_scan"}, "type": "electric_bike", "lat": 38.8871185, "is_disabled": 0, "lon": -77.13312466666666, "is_reserved": 0}, {"name": "c1992064ce798089bc44d13e06074e79", "fusion_lat": 0.0, "fusion_lon": 0.0, "bike_id": "c1992064ce798089bc44d13e06074e79", "rental_uris": {"ios": "https://dc.lft.to/lastmile_qr_scan", "android": "https://dc.lft.to/lastmile_qr_scan"}, "type": "electric_bike", "lat": 38.970541833333336, "is_disabled": 0, "lon": -76.9607145, "is_reserved": 0}, {"name": "80f5bc23c7286b56a882382882666a64", "fusion_lat": 0.0, "fusion_lon": 0.0, "bike_id": "80f5bc23c7286b56a882382882666a64", "rental_uris": {"ios": "https://dc.lft.to/lastmile_qr_scan", "android": "https://dc.lft.to/lastmile_qr_scan"}, "type": "electric_scooter", "lat": 38.91015933333333, "is_disabled": 0, "lon": -77.03643416666667, "is_reserved": 0}, {"name": "854a1a3903b76584b0cfea88dd0fe925", "fusion_lat": 0.0, "fusion_lon": 0.0, "bike_id": "854a1a3903b76584b0cfea88dd0fe925", "rental_uris": {"ios": "https://dc.lft.to/lastmile_qr_scan", "android": "https://dc.lft.to/lastmile_qr_scan"}, "type": "electric_scooter", "lat": 38.92166183333333, "is_disabled": 0, "lon": -77.04360083333333, "is_reserved": 0}, {"name": "10da529c1a8b333b9161f248464302f4", "fusion_lat": 0.0, "fusion_lon": 0.0, "bike_id": "10da529c1a8b333b9161f248464302f4", "rental_uris": {"ios": "https://dc.lft.to/lastmile_qr_scan", "android": "https://dc.lft.to/lastmile_qr_scan"}, "type": "electric_scooter", "lat": 38.91131583333333, "is_disabled": 0, "lon": -77.0419355, "is_reserved": 0}, {"name": "e921fb3f5de570ff686156f3f0768967", "fusion_lat": 0.0, "fusion_lon": 0.0, "bike_id": "e921fb3f5de570ff686156f3f0768967", "rental_uris": {"ios": "https://dc.lft.to/lastmile_qr_scan", "android": "https://dc.lft.to/lastmile_qr_scan"}, "type": "electric_scooter", "lat": 38.91197233333333, "is_disabled": 0, "lon": -76.98478983333334, "is_reserved": 0}, {"name": "4740b6bd38ff6e6515b6b5e9639d79e0", "fusion_lat": 0.0, "fusion_lon": 0.0, "bike_id": "4740b6bd38ff6e6515b6b5e9639d79e0", "rental_uris": {"ios": "https://dc.lft.to/lastmile_qr_scan", "android": "https://dc.lft.to/lastmile_qr_scan"}, "type": "electric_scooter", "lat": 38.904958666666666, "is_disabled": 0, "lon": -77.04028183333334, "is_reserved": 0}, {"name": "09fc5c96add703a47a1d563389157710", "fusion_lat": 0.0, "fusion_lon": 0.0, "bike_id": "09fc5c96add703a47a1d563389157710", "rental_uris": {"ios": "https://dc.lft.to/lastmile_qr_scan", "android": "https://dc.lft.to/lastmile_qr_scan"}, "type": "electric_scooter", "lat": 38.90727966666667, "is_disabled": 0, "lon": -77.02374633333334, "is_reserved": 0}, {"name": "3789de6dba525cb44001668b2f98eebb", "fusion_lat": 0.0, "fusion_lon": 0.0, "bike_id": "3789de6dba525cb44001668b2f98eebb", "rental_uris": {"ios": "https://dc.lft.to/lastmile_qr_scan", "android": "https://dc.lft.to/lastmile_qr_scan"}, "type": "electric_scooter", "lat": 38.8918055, "is_disabled": 0, "lon": -77.03174066666666, "is_reserved": 0}, {"name": "490cbe8f97d10a60dde1175404be1c03", "fusion_lat": 0.0, "fusion_lon": 0.0, "bike_id": "490cbe8f97d10a60dde1175404be1c03", "rental_uris": {"ios": "https://dc.lft.to/lastmile_qr_scan", "android": "https://dc.lft.to/lastmile_qr_scan"}, "type": "electric_scooter", "lat": 38.90134166666667, "is_disabled": 0, "lon": -77.03955566666667, "is_reserved": 0}, {"name": "fe38738d6256a74fd709704891ece1cc", "fusion_lat": 0.0, "fusion_lon": 0.0, "bike_id": "fe38738d6256a74fd709704891ece1cc", "rental_uris": {"ios": "https://dc.lft.to/lastmile_qr_scan", "android": "https://dc.lft.to/lastmile_qr_scan"}, "type": "electric_bike", "lat": 38.87206966666667, "is_disabled": 0, "lon": -76.95487133333333, "is_reserved": 0}, {"name": "01313fb8d70fd2c9d162eeb66b8769cb", "fusion_lat": 0.0, "fusion_lon": 0.0, "bike_id": "01313fb8d70fd2c9d162eeb66b8769cb", "rental_uris": {"ios": "https://dc.lft.to/lastmile_qr_scan", "android": "https://dc.lft.to/lastmile_qr_scan"}, "type": "electric_scooter", "lat": 38.90579266666667, "is_disabled": 0, "lon": -77.00791683333334, "is_reserved": 0}, {"name": "2f9e932c558a9f886f2ceabd07056ebe", "fusion_lat": 0.0, "fusion_lon": 0.0, "bike_id": "2f9e932c558a9f886f2ceabd07056ebe", "rental_uris": {"ios": "https://dc.lft.to/lastmile_qr_scan", "android": "https://dc.lft.to/lastmile_qr_scan"}, "type": "electric_scooter", "lat": 38.90008866666667, "is_disabled": 0, "lon": -76.99597266666666, "is_reserved": 0}, {"name": "509387fda9ba664e021300d69a297c24", "fusion_lat": 0.0, "fusion_lon": 0.0, "bike_id": "509387fda9ba664e021300d69a297c24", "rental_uris": {"ios": "https://dc.lft.to/lastmile_qr_scan", "android": "https://dc.lft.to/lastmile_qr_scan"}, "type": "electric_scooter", "lat": 38.918368, "is_disabled": 0, "lon": -76.96554933333333, "is_reserved": 0}, {"name": "1b9e4b3ddc35845a747a61c0b7f71a5a", "fusion_lat": 0.0, "fusion_lon": 0.0, "bike_id": "1b9e4b3ddc35845a747a61c0b7f71a5a", "rental_uris": {"ios": "https://dc.lft.to/lastmile_qr_scan", "android": "https://dc.lft.to/lastmile_qr_scan"}, "type": "electric_scooter", "lat": 38.929778666666664, "is_disabled": 0, "lon": -77.05504283333333, "is_reserved": 0}, {"name": "4665be9b722cbc1ef5dd7203c1e4b075", "fusion_lat": 0.0, "fusion_lon": 0.0, "bike_id": "4665be9b722cbc1ef5dd7203c1e4b075", "rental_uris": {"ios": "https://dc.lft.to/lastmile_qr_scan", "android": "https://dc.lft.to/lastmile_qr_scan"}, "type": "electric_scooter", "lat": 38.902327666666665, "is_disabled": 0, "lon": -77.06266666666667, "is_reserved": 0}, {"name": "775fe3d0ca61bb29c1037088a3b53fe4", "fusion_lat": 0.0, "fusion_lon": 0.0, "bike_id": "775fe3d0ca61bb29c1037088a3b53fe4", "rental_uris": {"ios": "https://dc.lft.to/lastmile_qr_scan", "android": "https://dc.lft.to/lastmile_qr_scan"}, "type": "electric_scooter", "lat": 38.87699383333333, "is_disabled": 0, "lon": -77.017364, "is_reserved": 0}, {"name": "be430b38710834a9c257cc74a0aea76c", "fusion_lat": 0.0, "fusion_lon": 0.0, "bike_id": "be430b38710834a9c257cc74a0aea76c", "rental_uris": {"ios": "https://dc.lft.to/lastmile_qr_scan", "android": "https://dc.lft.to/lastmile_qr_scan"}, "type": "electric_scooter", "lat": 38.9024805, "is_disabled": 0, "lon": -76.94623183333333, "is_reserved": 0}, {"name": "467a356f0539626e147f4cd0551e90b7", "fusion_lat": 0.0, "fusion_lon": 0.0, "bike_id": "467a356f0539626e147f4cd0551e90b7", "rental_uris": {"ios": "https://dc.lft.to/lastmile_qr_scan", "android": "https://dc.lft.to/lastmile_qr_scan"}, "type": "electric_scooter", "lat": 38.91845516666667, "is_disabled": 0, "lon": -77.03216483333334, "is_reserved": 0}, {"name": "74ee5cf87b500da4a06c841a37f7348c", "fusion_lat": 0.0, "fusion_lon": 0.0, "bike_id": "74ee5cf87b500da4a06c841a37f7348c", "rental_uris": {"ios": "https://dc.lft.to/lastmile_qr_scan", "android": "https://dc.lft.to/lastmile_qr_scan"}, "type": "electric_scooter", "lat": 38.9040835, "is_disabled": 0, "lon": -77.02511516666667, "is_reserved": 0}, {"name": "1db0a05fdea1a11d41b1ddd35e7118f2", "fusion_lat": 0.0, "fusion_lon": 0.0, "bike_id": "1db0a05fdea1a11d41b1ddd35e7118f2", "rental_uris": {"ios": "https://dc.lft.to/lastmile_qr_scan", "android": "https://dc.lft.to/lastmile_qr_scan"}, "type": "electric_scooter", "lat": 38.89864466666667, "is_disabled": 0, "lon": -77.03351366666666, "is_reserved": 0}, {"name": "8fcbf1384489f5453fc755eba2c73a3b", "fusion_lat": 0.0, "fusion_lon": 0.0, "bike_id": "8fcbf1384489f5453fc755eba2c73a3b", "rental_uris": {"ios": "https://dc.lft.to/lastmile_qr_scan", "android": "https://dc.lft.to/lastmile_qr_scan"}, "type": "electric_scooter", "lat": 38.91267933333334, "is_disabled": 0, "lon": -77.01678366666667, "is_reserved": 0}, {"name": "fa4020c3f8fef41487b6ba299eece87c", "fusion_lat": 0.0, "fusion_lon": 0.0, "bike_id": "fa4020c3f8fef41487b6ba299eece87c", "rental_uris": {"ios": "https://dc.lft.to/lastmile_qr_scan", "android": "https://dc.lft.to/lastmile_qr_scan"}, "type": "electric_scooter", "lat": 38.921462, "is_disabled": 0, "lon": -77.03868883333334, "is_reserved": 0}, {"name": "a5a466eb2f0b69570adbcbbbe35553c5", "fusion_lat": 0.0, "fusion_lon": 0.0, "bike_id": "a5a466eb2f0b69570adbcbbbe35553c5", "rental_uris": {"ios": "https://dc.lft.to/lastmile_qr_scan", "android": "https://dc.lft.to/lastmile_qr_scan"}, "type": "electric_bike", "lat": 38.87489033333333, "is_disabled": 0, "lon": -77.04901283333334, "is_reserved": 0}, {"name": "15f7c52e8448248f53520a8cffdfb4fe", "fusion_lat": 0.0, "fusion_lon": 0.0, "bike_id": "15f7c52e8448248f53520a8cffdfb4fe", "rental_uris": {"ios": "https://dc.lft.to/lastmile_qr_scan", "android": "https://dc.lft.to/lastmile_qr_scan"}, "type": "electric_scooter", "lat": 38.9284345, "is_disabled": 0, "lon": -77.0140695, "is_reserved": 0}, {"name": "5ab9f6a479e6271d2af5bd2e3cde1f17", "fusion_lat": 0.0, "fusion_lon": 0.0, "bike_id": "5ab9f6a479e6271d2af5bd2e3cde1f17", "rental_uris": {"ios": "https://dc.lft.to/lastmile_qr_scan", "android": "https://dc.lft.to/lastmile_qr_scan"}, "type": "electric_scooter", "lat": 38.90304916666667, "is_disabled": 0, "lon": -77.02362283333333, "is_reserved": 0}, {"name": "d69e36da9a84bf4f0de4b0e087b29873", "fusion_lat": 0.0, "fusion_lon": 0.0, "bike_id": "d69e36da9a84bf4f0de4b0e087b29873", "rental_uris": {"ios": "https://dc.lft.to/lastmile_qr_scan", "android": "https://dc.lft.to/lastmile_qr_scan"}, "type": "electric_scooter", "lat": 38.91489133333333, "is_disabled": 0, "lon": -77.03827483333333, "is_reserved": 0}, {"name": "20a59667966514c4d8276aa2799b3aaf", "fusion_lat": 0.0, "fusion_lon": 0.0, "bike_id": "20a59667966514c4d8276aa2799b3aaf", "rental_uris": {"ios": "https://dc.lft.to/lastmile_qr_scan", "android": "https://dc.lft.to/lastmile_qr_scan"}, "type": "electric_scooter", "lat": 38.8851205, "is_disabled": 0, "lon": -77.00566, "is_reserved": 0}, {"name": "35c036157f9983117fab179868c51658", "fusion_lat": 0.0, "fusion_lon": 0.0, "bike_id": "35c036157f9983117fab179868c51658", "rental_uris": {"ios": "https://dc.lft.to/lastmile_qr_scan", "android": "https://dc.lft.to/lastmile_qr_scan"}, "type": "electric_scooter", "lat": 38.9260185, "is_disabled": 0, "lon": -77.021522, "is_reserved": 0}, {"name": "df675ed66addc0451bfc8a4ce9620d51", "fusion_lat": 0.0, "fusion_lon": 0.0, "bike_id": "df675ed66addc0451bfc8a4ce9620d51", "rental_uris": {"ios": "https://dc.lft.to/lastmile_qr_scan", "android": "https://dc.lft.to/lastmile_qr_scan"}, "type": "electric_scooter", "lat": 38.90453866666667, "is_disabled": 0, "lon": -77.02815083333333, "is_reserved": 0}, {"name": "837284f7c85981d1ed3b888fc9350d95", "fusion_lat": 0.0, "fusion_lon": 0.0, "bike_id": "837284f7c85981d1ed3b888fc9350d95", "rental_uris": {"ios": "https://dc.lft.to/lastmile_qr_scan", "android": "https://dc.lft.to/lastmile_qr_scan"}, "type": "electric_scooter", "lat": 38.92146183333333, "is_disabled": 0, "lon": -77.03484366666666, "is_reserved": 0}, {"name": "37be0db3ecd2c9b997db7edfef466d44", "fusion_lat": 0.0, "fusion_lon": 0.0, "bike_id": "37be0db3ecd2c9b997db7edfef466d44", "rental_uris": {"ios": "https://dc.lft.to/lastmile_qr_scan", "android": "https://dc.lft.to/lastmile_qr_scan"}, "type": "electric_scooter", "lat": 38.917105, "is_disabled": 0, "lon": -77.0258175, "is_reserved": 0}, {"name": "0889cd3cb18f0baff941911512663820", "fusion_lat": 0.0, "fusion_lon": 0.0, "bike_id": "0889cd3cb18f0baff941911512663820", "rental_uris": {"ios": "https://dc.lft.to/lastmile_qr_scan", "android": "https://dc.lft.to/lastmile_qr_scan"}, "type": "electric_bike", "lat": 38.990611666666666, "is_disabled": 0, "lon": -77.10031583333334, "is_reserved": 0}, {"name": "49656155529d94f5286a9993eb062928", "fusion_lat": 0.0, "fusion_lon": 0.0, "bike_id": "49656155529d94f5286a9993eb062928", "rental_uris": {"ios": "https://dc.lft.to/lastmile_qr_scan", "android": "https://dc.lft.to/lastmile_qr_scan"}, "type": "electric_bike", "lat": 38.99090783333333, "is_disabled": 0, "lon": -76.87494433333333, "is_reserved": 0}, {"name": "73ca4fb4df34924b7d20227bbabc2064", "fusion_lat": 0.0, "fusion_lon": 0.0, "bike_id": "73ca4fb4df34924b7d20227bbabc2064", "rental_uris": {"ios": "https://dc.lft.to/lastmile_qr_scan", "android": "https://dc.lft.to/lastmile_qr_scan"}, "type": "electric_scooter", "lat": 38.96214766666667, "is_disabled": 0, "lon": -77.028099, "is_reserved": 0}, {"name": "2aa4320869efd1ae496f58bd732b90c6", "fusion_lat": 0.0, "fusion_lon": 0.0, "bike_id": "2aa4320869efd1ae496f58bd732b90c6", "rental_uris": {"ios": "https://dc.lft.to/lastmile_qr_scan", "android": "https://dc.lft.to/lastmile_qr_scan"}, "type": "electric_scooter", "lat": 38.915914, "is_disabled": 0, "lon": -77.02353816666667, "is_reserved": 0}, {"name": "c6d2984858a5f2ce37bd2e1dc72a1860", "fusion_lat": 0.0, "fusion_lon": 0.0, "bike_id": "c6d2984858a5f2ce37bd2e1dc72a1860", "rental_uris": {"ios": "https://dc.lft.to/lastmile_qr_scan", "android": "https://dc.lft.to/lastmile_qr_scan"}, "type": "electric_scooter", "lat": 38.88512266666667, "is_disabled": 0, "lon": -76.9482545, "is_reserved": 0}, {"name": "54b142126079ead28638b5384297226c", "fusion_lat": 0.0, "fusion_lon": 0.0, "bike_id": "54b142126079ead28638b5384297226c", "rental_uris": {"ios": "https://dc.lft.to/lastmile_qr_scan", "android": "https://dc.lft.to/lastmile_qr_scan"}, "type": "electric_scooter", "lat": 38.9057035, "is_disabled": 0, "lon": -77.02217683333333, "is_reserved": 0}, {"name": "80b1ed1025cbc50e9d56dbf9dfcef4dc", "fusion_lat": 0.0, "fusion_lon": 0.0, "bike_id": "80b1ed1025cbc50e9d56dbf9dfcef4dc", "rental_uris": {"ios": "https://dc.lft.to/lastmile_qr_scan", "android": "https://dc.lft.to/lastmile_qr_scan"}, "type": "electric_scooter", "lat": 38.9157735, "is_disabled": 0, "lon": -77.02004416666666, "is_reserved": 0}, {"name": "8f180773dc68960879a04a7dddfb465d", "fusion_lat": 0.0, "fusion_lon": 0.0, "bike_id": "8f180773dc68960879a04a7dddfb465d", "rental_uris": {"ios": "https://dc.lft.to/lastmile_qr_scan", "android": "https://dc.lft.to/lastmile_qr_scan"}, "type": "electric_scooter", "lat": 38.9104075, "is_disabled": 0, "lon": -77.03631733333333, "is_reserved": 0}, {"name": "549153cc6fe55ccc94e51bc5b4b05131", "fusion_lat": 0.0, "fusion_lon": 0.0, "bike_id": "549153cc6fe55ccc94e51bc5b4b05131", "rental_uris": {"ios": "https://dc.lft.to/lastmile_qr_scan", "android": "https://dc.lft.to/lastmile_qr_scan"}, "type": "electric_scooter", "lat": 38.92119816666667, "is_disabled": 0, "lon": -77.036615, "is_reserved": 0}, {"name": "777975c9856fc97349e92a0c8eeef16e", "fusion_lat": 0.0, "fusion_lon": 0.0, "bike_id": "777975c9856fc97349e92a0c8eeef16e", "rental_uris": {"ios": "https://dc.lft.to/lastmile_qr_scan", "android": "https://dc.lft.to/lastmile_qr_scan"}, "type": "electric_scooter", "lat": 38.8858215, "is_disabled": 0, "lon": -77.012251, "is_reserved": 0}, {"name": "1ff06a0db84f62a20dcb9a8aedc2721e", "fusion_lat": 0.0, "fusion_lon": 0.0, "bike_id": "1ff06a0db84f62a20dcb9a8aedc2721e", "rental_uris": {"ios": "https://dc.lft.to/lastmile_qr_scan", "android": "https://dc.lft.to/lastmile_qr_scan"}, "type": "electric_bike", "lat": 38.9032565, "is_disabled": 0, "lon": -76.975311, "is_reserved": 0}, {"name": "316da937179e8f1902dcc50f899cb590", "fusion_lat": 0.0, "fusion_lon": 0.0, "bike_id": "316da937179e8f1902dcc50f899cb590", "rental_uris": {"ios": "https://dc.lft.to/lastmile_qr_scan", "android": "https://dc.lft.to/lastmile_qr_scan"}, "type": "electric_scooter", "lat": 38.89602333333333, "is_disabled": 0, "lon": -77.05437466666666, "is_reserved": 0}, {"name": "63cdf688c8b077e7bac935c7ede91fd1", "fusion_lat": 0.0, "fusion_lon": 0.0, "bike_id": "63cdf688c8b077e7bac935c7ede91fd1", "rental_uris": {"ios": "https://dc.lft.to/lastmile_qr_scan", "android": "https://dc.lft.to/lastmile_qr_scan"}, "type": "electric_scooter", "lat": 38.91598483333333, "is_disabled": 0, "lon": -77.0230415, "is_reserved": 0}, {"name": "9e6bc9c6efa2e9fb37a3a37607dd765f", "fusion_lat": 0.0, "fusion_lon": 0.0, "bike_id": "9e6bc9c6efa2e9fb37a3a37607dd765f", "rental_uris": {"ios": "https://dc.lft.to/lastmile_qr_scan", "android": "https://dc.lft.to/lastmile_qr_scan"}, "type": "electric_scooter", "lat": 38.920266, "is_disabled": 0, "lon": -76.99600166666667, "is_reserved": 0}, {"name": "14198b73f71a53a290ddb236317abcd8", "fusion_lat": 0.0, "fusion_lon": 0.0, "bike_id": "14198b73f71a53a290ddb236317abcd8", "rental_uris": {"ios": "https://dc.lft.to/lastmile_qr_scan", "android": "https://dc.lft.to/lastmile_qr_scan"}, "type": "electric_scooter", "lat": 38.918201, "is_disabled": 0, "lon": -77.0452615, "is_reserved": 0}, {"name": "4e17fe1ddbb32556144a5a88fba88544", "fusion_lat": 0.0, "fusion_lon": 0.0, "bike_id": "4e17fe1ddbb32556144a5a88fba88544", "rental_uris": {"ios": "https://dc.lft.to/lastmile_qr_scan", "android": "https://dc.lft.to/lastmile_qr_scan"}, "type": "electric_scooter", "lat": 38.9006255, "is_disabled": 0, "lon": -77.048914, "is_reserved": 0}, {"name": "a47919963a2170292f68cee3583af0e2", "fusion_lat": 0.0, "fusion_lon": 0.0, "bike_id": "a47919963a2170292f68cee3583af0e2", "rental_uris": {"ios": "https://dc.lft.to/lastmile_qr_scan", "android": "https://dc.lft.to/lastmile_qr_scan"}, "type": "electric_scooter", "lat": 38.8848525, "is_disabled": 0, "lon": -77.00711816666667, "is_reserved": 0}, {"name": "0bf86d7985d1f66060695476c842c851", "fusion_lat": 0.0, "fusion_lon": 0.0, "bike_id": "0bf86d7985d1f66060695476c842c851", "rental_uris": {"ios": "https://dc.lft.to/lastmile_qr_scan", "android": "https://dc.lft.to/lastmile_qr_scan"}, "type": "electric_bike", "lat": 38.945747833333336, "is_disabled": 0, "lon": -76.98775416666666, "is_reserved": 0}, {"name": "547207214bf433321789de3244cb106f", "fusion_lat": 0.0, "fusion_lon": 0.0, "bike_id": "547207214bf433321789de3244cb106f", "rental_uris": {"ios": "https://dc.lft.to/lastmile_qr_scan", "android": "https://dc.lft.to/lastmile_qr_scan"}, "type": "electric_scooter", "lat": 38.931747, "is_disabled": 0, "lon": -77.03636733333333, "is_reserved": 0}, {"name": "88b9d333323303585796d86c364ccd8d", "fusion_lat": 0.0, "fusion_lon": 0.0, "bike_id": "88b9d333323303585796d86c364ccd8d", "rental_uris": {"ios": "https://dc.lft.to/lastmile_qr_scan", "android": "https://dc.lft.to/lastmile_qr_scan"}, "type": "electric_scooter", "lat": 38.84618916666667, "is_disabled": 0, "lon": -76.99633133333333, "is_reserved": 0}, {"name": "a490edc6b15bea6a12ef7f22dc2423e3", "fusion_lat": 0.0, "fusion_lon": 0.0, "bike_id": "a490edc6b15bea6a12ef7f22dc2423e3", "rental_uris": {"ios": "https://dc.lft.to/lastmile_qr_scan", "android": "https://dc.lft.to/lastmile_qr_scan"}, "type": "electric_scooter", "lat": 38.88795616666667, "is_disabled": 0, "lon": -76.93357666666667, "is_reserved": 0}, {"name": "35c89b0f6311766e5d587da55057eff9", "fusion_lat": 0.0, "fusion_lon": 0.0, "bike_id": "35c89b0f6311766e5d587da55057eff9", "rental_uris": {"ios": "https://dc.lft.to/lastmile_qr_scan", "android": "https://dc.lft.to/lastmile_qr_scan"}, "type": "electric_scooter", "lat": 38.876501, "is_disabled": 0, "lon": -77.00733516666666, "is_reserved": 0}, {"name": "67fe641733b67ccb2c2495285bd36cc6", "fusion_lat": 0.0, "fusion_lon": 0.0, "bike_id": "67fe641733b67ccb2c2495285bd36cc6", "rental_uris": {"ios": "https://dc.lft.to/lastmile_qr_scan", "android": "https://dc.lft.to/lastmile_qr_scan"}, "type": "electric_bike", "lat": 38.936632833333334, "is_disabled": 0, "lon": -76.95497983333334, "is_reserved": 0}, {"name": "f11deb7a97bc08e71d0fde02bd1f4c41", "fusion_lat": 0.0, "fusion_lon": 0.0, "bike_id": "f11deb7a97bc08e71d0fde02bd1f4c41", "rental_uris": {"ios": "https://dc.lft.to/lastmile_qr_scan", "android": "https://dc.lft.to/lastmile_qr_scan"}, "type": "electric_scooter", "lat": 38.91568633333333, "is_disabled": 0, "lon": -77.04994216666667, "is_reserved": 0}, {"name": "919e475881a994d9dc2929d4ca0fcb3f", "fusion_lat": 0.0, "fusion_lon": 0.0, "bike_id": "919e475881a994d9dc2929d4ca0fcb3f", "rental_uris": {"ios": "https://dc.lft.to/lastmile_qr_scan", "android": "https://dc.lft.to/lastmile_qr_scan"}, "type": "electric_scooter", "lat": 38.92609233333334, "is_disabled": 0, "lon": -77.02159833333333, "is_reserved": 0}, {"name": "11f7909e074ce86dc87ecfbb31017908", "fusion_lat": 0.0, "fusion_lon": 0.0, "bike_id": "11f7909e074ce86dc87ecfbb31017908", "rental_uris": {"ios": "https://dc.lft.to/lastmile_qr_scan", "android": "https://dc.lft.to/lastmile_qr_scan"}, "type": "electric_scooter", "lat": 38.9024135, "is_disabled": 0, "lon": -77.01927833333333, "is_reserved": 0}, {"name": "55b71134e4bd6e88123cb703a8f7a267", "fusion_lat": 0.0, "fusion_lon": 0.0, "bike_id": "55b71134e4bd6e88123cb703a8f7a267", "rental_uris": {"ios": "https://dc.lft.to/lastmile_qr_scan", "android": "https://dc.lft.to/lastmile_qr_scan"}, "type": "electric_scooter", "lat": 38.9215505, "is_disabled": 0, "lon": -77.04696116666666, "is_reserved": 0}, {"name": "c6a0d563214720b57a854755a3cc1d54", "fusion_lat": 0.0, "fusion_lon": 0.0, "bike_id": "c6a0d563214720b57a854755a3cc1d54", "rental_uris": {"ios": "https://dc.lft.to/lastmile_qr_scan", "android": "https://dc.lft.to/lastmile_qr_scan"}, "type": "electric_scooter", "lat": 38.887356, "is_disabled": 0, "lon": -77.0153335, "is_reserved": 0}, {"name": "2a0347235eb833780c1284501ae4e4f6", "fusion_lat": 0.0, "fusion_lon": 0.0, "bike_id": "2a0347235eb833780c1284501ae4e4f6", "rental_uris": {"ios": "https://dc.lft.to/lastmile_qr_scan", "android": "https://dc.lft.to/lastmile_qr_scan"}, "type": "electric_scooter", "lat": 38.90719416666666, "is_disabled": 0, "lon": -77.0436625, "is_reserved": 0}, {"name": "b595968349516acd041963fc5160ffb1", "fusion_lat": 0.0, "fusion_lon": 0.0, "bike_id": "b595968349516acd041963fc5160ffb1", "rental_uris": {"ios": "https://dc.lft.to/lastmile_qr_scan", "android": "https://dc.lft.to/lastmile_qr_scan"}, "type": "electric_scooter", "lat": 38.904770666666664, "is_disabled": 0, "lon": -77.035696, "is_reserved": 0}, {"name": "0e5d1ec0ec98d16a4043d0f7a502cf29", "fusion_lat": 0.0, "fusion_lon": 0.0, "bike_id": "0e5d1ec0ec98d16a4043d0f7a502cf29", "rental_uris": {"ios": "https://dc.lft.to/lastmile_qr_scan", "android": "https://dc.lft.to/lastmile_qr_scan"}, "type": "electric_bike", "lat": 38.970709166666666, "is_disabled": 0, "lon": -77.0363995, "is_reserved": 0}, {"name": "3d791617c9db28c5513bf15fc2c1182e", "fusion_lat": 0.0, "fusion_lon": 0.0, "bike_id": "3d791617c9db28c5513bf15fc2c1182e", "rental_uris": {"ios": "https://dc.lft.to/lastmile_qr_scan", "android": "https://dc.lft.to/lastmile_qr_scan"}, "type": "electric_scooter", "lat": 38.86807983333333, "is_disabled": 0, "lon": -77.011785, "is_reserved": 0}, {"name": "271c13fe77d4c3dc9a088257dcf90c7b", "fusion_lat": 0.0, "fusion_lon": 0.0, "bike_id": "271c13fe77d4c3dc9a088257dcf90c7b", "rental_uris": {"ios": "https://dc.lft.to/lastmile_qr_scan", "android": "https://dc.lft.to/lastmile_qr_scan"}, "type": "electric_scooter", "lat": 38.866732999999996, "is_disabled": 0, "lon": -76.988879, "is_reserved": 0}, {"name": "52d50480f9d82f5c25676a3e21c3c3c6", "fusion_lat": 0.0, "fusion_lon": 0.0, "bike_id": "52d50480f9d82f5c25676a3e21c3c3c6", "rental_uris": {"ios": "https://dc.lft.to/lastmile_qr_scan", "android": "https://dc.lft.to/lastmile_qr_scan"}, "type": "electric_scooter", "lat": 38.89223916666667, "is_disabled": 0, "lon": -77.027948, "is_reserved": 0}, {"name": "ff58cf0ddbf950f9473875a9f9494e38", "fusion_lat": 0.0, "fusion_lon": 0.0, "bike_id": "ff58cf0ddbf950f9473875a9f9494e38", "rental_uris": {"ios": "https://dc.lft.to/lastmile_qr_scan", "android": "https://dc.lft.to/lastmile_qr_scan"}, "type": "electric_scooter", "lat": 38.917087, "is_disabled": 0, "lon": -77.03472816666667, "is_reserved": 0}, {"name": "d2adcfd7caaff4e26be98a5a163b4752", "fusion_lat": 0.0, "fusion_lon": 0.0, "bike_id": "d2adcfd7caaff4e26be98a5a163b4752", "rental_uris": {"ios": "https://dc.lft.to/lastmile_qr_scan", "android": "https://dc.lft.to/lastmile_qr_scan"}, "type": "electric_scooter", "lat": 38.927354333333334, "is_disabled": 0, "lon": -77.03288916666666, "is_reserved": 0}, {"name": "7aef16112c9d30916d13f329357fd1de", "fusion_lat": 0.0, "fusion_lon": 0.0, "bike_id": "7aef16112c9d30916d13f329357fd1de", "rental_uris": {"ios": "https://dc.lft.to/lastmile_qr_scan", "android": "https://dc.lft.to/lastmile_qr_scan"}, "type": "electric_scooter", "lat": 38.9282615, "is_disabled": 0, "lon": -77.02143866666667, "is_reserved": 0}, {"name": "810ec5fb957a78470f91872d14eda292", "fusion_lat": 0.0, "fusion_lon": 0.0, "bike_id": "810ec5fb957a78470f91872d14eda292", "rental_uris": {"ios": "https://dc.lft.to/lastmile_qr_scan", "android": "https://dc.lft.to/lastmile_qr_scan"}, "type": "electric_scooter", "lat": 38.89383733333333, "is_disabled": 0, "lon": -76.949964, "is_reserved": 0}, {"name": "3479bf8fa6f05453cedc330c3832d017", "fusion_lat": 0.0, "fusion_lon": 0.0, "bike_id": "3479bf8fa6f05453cedc330c3832d017", "rental_uris": {"ios": "https://dc.lft.to/lastmile_qr_scan", "android": "https://dc.lft.to/lastmile_qr_scan"}, "type": "electric_bike", "lat": 39.05458816666667, "is_disabled": 0, "lon": -77.1433005, "is_reserved": 0}, {"name": "89a771c9d5b73bf261a2f174e2062a4a", "fusion_lat": 0.0, "fusion_lon": 0.0, "bike_id": "89a771c9d5b73bf261a2f174e2062a4a", "rental_uris": {"ios": "https://dc.lft.to/lastmile_qr_scan", "android": "https://dc.lft.to/lastmile_qr_scan"}, "type": "electric_bike", "lat": 38.9459095, "is_disabled": 0, "lon": -77.34413266666667, "is_reserved": 0}, {"name": "244e2a86e136748bd51ad91c4758ae0d", "fusion_lat": 0.0, "fusion_lon": 0.0, "bike_id": "244e2a86e136748bd51ad91c4758ae0d", "rental_uris": {"ios": "https://dc.lft.to/lastmile_qr_scan", "android": "https://dc.lft.to/lastmile_qr_scan"}, "type": "electric_scooter", "lat": 38.93010966666667, "is_disabled": 0, "lon": -77.06188283333333, "is_reserved": 0}, {"name": "0900e77c357a6e044b1aa23245180969", "fusion_lat": 0.0, "fusion_lon": 0.0, "bike_id": "0900e77c357a6e044b1aa23245180969", "rental_uris": {"ios": "https://dc.lft.to/lastmile_qr_scan", "android": "https://dc.lft.to/lastmile_qr_scan"}, "type": "electric_scooter", "lat": 38.917017666666666, "is_disabled": 0, "lon": -77.02991033333333, "is_reserved": 0}, {"name": "38dc81f6acdffe2794dfd1f508e27c68", "fusion_lat": 0.0, "fusion_lon": 0.0, "bike_id": "38dc81f6acdffe2794dfd1f508e27c68", "rental_uris": {"ios": "https://dc.lft.to/lastmile_qr_scan", "android": "https://dc.lft.to/lastmile_qr_scan"}, "type": "electric_scooter", "lat": 38.9208705, "is_disabled": 0, "lon": -77.00058283333334, "is_reserved": 0}, {"name": "ced36685ff4ab02ef8924e0fe1d1a4aa", "fusion_lat": 0.0, "fusion_lon": 0.0, "bike_id": "ced36685ff4ab02ef8924e0fe1d1a4aa", "rental_uris": {"ios": "https://dc.lft.to/lastmile_qr_scan", "android": "https://dc.lft.to/lastmile_qr_scan"}, "type": "electric_scooter", "lat": 38.900825, "is_disabled": 0, "lon": -77.04918966666666, "is_reserved": 0}, {"name": "565a4703e22e49acb2bcc262d78e614c", "fusion_lat": 0.0, "fusion_lon": 0.0, "bike_id": "565a4703e22e49acb2bcc262d78e614c", "rental_uris": {"ios": "https://dc.lft.to/lastmile_qr_scan", "android": "https://dc.lft.to/lastmile_qr_scan"}, "type": "electric_scooter", "lat": 38.916272666666664, "is_disabled": 0, "lon": -77.03312266666667, "is_reserved": 0}, {"name": "c3c8e96c84efe98f1843ef72ab67b69e", "fusion_lat": 0.0, "fusion_lon": 0.0, "bike_id": "c3c8e96c84efe98f1843ef72ab67b69e", "rental_uris": {"ios": "https://dc.lft.to/lastmile_qr_scan", "android": "https://dc.lft.to/lastmile_qr_scan"}, "type": "electric_bike", "lat": 38.8697315, "is_disabled": 0, "lon": -77.13230366666667, "is_reserved": 0}, {"name": "92f813f9d8b30988072240bcc06fa57f", "fusion_lat": 0.0, "fusion_lon": 0.0, "bike_id": "92f813f9d8b30988072240bcc06fa57f", "rental_uris": {"ios": "https://dc.lft.to/lastmile_qr_scan", "android": "https://dc.lft.to/lastmile_qr_scan"}, "type": "electric_scooter", "lat": 38.93233083333333, "is_disabled": 0, "lon": -76.99936516666666, "is_reserved": 0}, {"name": "63c82c05271e0ff20cafc177ed44dd9a", "fusion_lat": 0.0, "fusion_lon": 0.0, "bike_id": "63c82c05271e0ff20cafc177ed44dd9a", "rental_uris": {"ios": "https://dc.lft.to/lastmile_qr_scan", "android": "https://dc.lft.to/lastmile_qr_scan"}, "type": "electric_scooter", "lat": 38.90963883333333, "is_disabled": 0, "lon": -77.03307533333333, "is_reserved": 0}, {"name": "db8fea1fa9e2328c4648e82018500fa2", "fusion_lat": 0.0, "fusion_lon": 0.0, "bike_id": "db8fea1fa9e2328c4648e82018500fa2", "rental_uris": {"ios": "https://dc.lft.to/lastmile_qr_scan", "android": "https://dc.lft.to/lastmile_qr_scan"}, "type": "electric_scooter", "lat": 38.88513533333333, "is_disabled": 0, "lon": -77.02490066666667, "is_reserved": 0}, {"name": "e02c6a438a4e1736cdb706abe64450f9", "fusion_lat": 0.0, "fusion_lon": 0.0, "bike_id": "e02c6a438a4e1736cdb706abe64450f9", "rental_uris": {"ios": "https://dc.lft.to/lastmile_qr_scan", "android": "https://dc.lft.to/lastmile_qr_scan"}, "type": "electric_scooter", "lat": 38.90567933333333, "is_disabled": 0, "lon": -77.0223105, "is_reserved": 0}, {"name": "47c14c0427ed79475fe8c0343c948e25", "fusion_lat": 0.0, "fusion_lon": 0.0, "bike_id": "47c14c0427ed79475fe8c0343c948e25", "rental_uris": {"ios": "https://dc.lft.to/lastmile_qr_scan", "android": "https://dc.lft.to/lastmile_qr_scan"}, "type": "electric_scooter", "lat": 38.92994783333333, "is_disabled": 0, "lon": -77.0782385, "is_reserved": 0}, {"name": "e2ebda8e5e1eeddb15291a49d5e4cc26", "fusion_lat": 0.0, "fusion_lon": 0.0, "bike_id": "e2ebda8e5e1eeddb15291a49d5e4cc26", "rental_uris": {"ios": "https://dc.lft.to/lastmile_qr_scan", "android": "https://dc.lft.to/lastmile_qr_scan"}, "type": "electric_scooter", "lat": 38.920285, "is_disabled": 0, "lon": -77.01142083333333, "is_reserved": 0}, {"name": "a308a07e36d59e31a6e44caee438347d", "fusion_lat": 0.0, "fusion_lon": 0.0, "bike_id": "a308a07e36d59e31a6e44caee438347d", "rental_uris": {"ios": "https://dc.lft.to/lastmile_qr_scan", "android": "https://dc.lft.to/lastmile_qr_scan"}, "type": "electric_scooter", "lat": 38.914029, "is_disabled": 0, "lon": -77.03174083333333, "is_reserved": 0}, {"name": "f9d230325498827614a5b4af9e4b5f86", "fusion_lat": 0.0, "fusion_lon": 0.0, "bike_id": "f9d230325498827614a5b4af9e4b5f86", "rental_uris": {"ios": "https://dc.lft.to/lastmile_qr_scan", "android": "https://dc.lft.to/lastmile_qr_scan"}, "type": "electric_scooter", "lat": 38.91941033333333, "is_disabled": 0, "lon": -77.01804166666666, "is_reserved": 0}, {"name": "1abdbbd005b78f4e8ca5b5f89bdcb6d2", "fusion_lat": 0.0, "fusion_lon": 0.0, "bike_id": "1abdbbd005b78f4e8ca5b5f89bdcb6d2", "rental_uris": {"ios": "https://dc.lft.to/lastmile_qr_scan", "android": "https://dc.lft.to/lastmile_qr_scan"}, "type": "electric_scooter", "lat": 38.89192366666666, "is_disabled": 0, "lon": -77.031734, "is_reserved": 0}, {"name": "944d1a23c93df0d31e6be81207d69227", "fusion_lat": 0.0, "fusion_lon": 0.0, "bike_id": "944d1a23c93df0d31e6be81207d69227", "rental_uris": {"ios": "https://dc.lft.to/lastmile_qr_scan", "android": "https://dc.lft.to/lastmile_qr_scan"}, "type": "electric_scooter", "lat": 38.90487016666667, "is_disabled": 0, "lon": -77.0294625, "is_reserved": 0}, {"name": "c19e39f4a88801d95538756c628e8878", "fusion_lat": 0.0, "fusion_lon": 0.0, "bike_id": "c19e39f4a88801d95538756c628e8878", "rental_uris": {"ios": "https://dc.lft.to/lastmile_qr_scan", "android": "https://dc.lft.to/lastmile_qr_scan"}, "type": "electric_scooter", "lat": 38.910089166666666, "is_disabled": 0, "lon": -77.0346905, "is_reserved": 0}, {"name": "0a2ae024dae2367b01f2b7f993c7704f", "fusion_lat": 0.0, "fusion_lon": 0.0, "bike_id": "0a2ae024dae2367b01f2b7f993c7704f", "rental_uris": {"ios": "https://dc.lft.to/lastmile_qr_scan", "android": "https://dc.lft.to/lastmile_qr_scan"}, "type": "electric_scooter", "lat": 38.937133833333334, "is_disabled": 0, "lon": -77.03267333333334, "is_reserved": 0}, {"name": "fcaed24511f19318a7e4cf8df64d49cb", "fusion_lat": 0.0, "fusion_lon": 0.0, "bike_id": "fcaed24511f19318a7e4cf8df64d49cb", "rental_uris": {"ios": "https://dc.lft.to/lastmile_qr_scan", "android": "https://dc.lft.to/lastmile_qr_scan"}, "type": "electric_scooter", "lat": 38.863555166666664, "is_disabled": 0, "lon": -76.9906355, "is_reserved": 0}, {"name": "e4835e816c53ae8cfde230a8e01d82b4", "fusion_lat": 0.0, "fusion_lon": 0.0, "bike_id": "e4835e816c53ae8cfde230a8e01d82b4", "rental_uris": {"ios": "https://dc.lft.to/lastmile_qr_scan", "android": "https://dc.lft.to/lastmile_qr_scan"}, "type": "electric_scooter", "lat": 38.9183375, "is_disabled": 0, "lon": -76.9655215, "is_reserved": 0}, {"name": "216ca945f852d45f7897fa3169c2db6e", "fusion_lat": 0.0, "fusion_lon": 0.0, "bike_id": "216ca945f852d45f7897fa3169c2db6e", "rental_uris": {"ios": "https://dc.lft.to/lastmile_qr_scan", "android": "https://dc.lft.to/lastmile_qr_scan"}, "type": "electric_scooter", "lat": 38.9149585, "is_disabled": 0, "lon": -77.0185745, "is_reserved": 0}, {"name": "9250eb9e879fa36f8b5572d67886f623", "fusion_lat": 0.0, "fusion_lon": 0.0, "bike_id": "9250eb9e879fa36f8b5572d67886f623", "rental_uris": {"ios": "https://dc.lft.to/lastmile_qr_scan", "android": "https://dc.lft.to/lastmile_qr_scan"}, "type": "electric_scooter", "lat": 38.883785, "is_disabled": 0, "lon": -76.99492483333333, "is_reserved": 0}, {"name": "295074d466fb4cfd0c54bd58db8e67dd", "fusion_lat": 0.0, "fusion_lon": 0.0, "bike_id": "295074d466fb4cfd0c54bd58db8e67dd", "rental_uris": {"ios": "https://dc.lft.to/lastmile_qr_scan", "android": "https://dc.lft.to/lastmile_qr_scan"}, "type": "electric_bike", "lat": 38.86525816666666, "is_disabled": 0, "lon": -77.12826016666666, "is_reserved": 0}, {"name": "327f14985242f3375619031fce3bf772", "fusion_lat": 0.0, "fusion_lon": 0.0, "bike_id": "327f14985242f3375619031fce3bf772", "rental_uris": {"ios": "https://dc.lft.to/lastmile_qr_scan", "android": "https://dc.lft.to/lastmile_qr_scan"}, "type": "electric_scooter", "lat": 38.90843133333333, "is_disabled": 0, "lon": -77.02383583333334, "is_reserved": 0}, {"name": "f89ac77aa9b11d33a007729adf6e586b", "fusion_lat": 0.0, "fusion_lon": 0.0, "bike_id": "f89ac77aa9b11d33a007729adf6e586b", "rental_uris": {"ios": "https://dc.lft.to/lastmile_qr_scan", "android": "https://dc.lft.to/lastmile_qr_scan"}, "type": "electric_scooter", "lat": 38.901976166666664, "is_disabled": 0, "lon": -77.05488383333334, "is_reserved": 0}, {"name": "7ed107776ff6858796f45abe1458267a", "fusion_lat": 0.0, "fusion_lon": 0.0, "bike_id": "7ed107776ff6858796f45abe1458267a", "rental_uris": {"ios": "https://dc.lft.to/lastmile_qr_scan", "android": "https://dc.lft.to/lastmile_qr_scan"}, "type": "electric_bike", "lat": 38.82448183333333, "is_disabled": 0, "lon": -77.0704705, "is_reserved": 0}, {"name": "11ce24f740cfb993bb6f5795af7a6bd2", "fusion_lat": 0.0, "fusion_lon": 0.0, "bike_id": "11ce24f740cfb993bb6f5795af7a6bd2", "rental_uris": {"ios": "https://dc.lft.to/lastmile_qr_scan", "android": "https://dc.lft.to/lastmile_qr_scan"}, "type": "electric_scooter", "lat": 38.86347333333333, "is_disabled": 0, "lon": -76.99053816666667, "is_reserved": 0}, {"name": "80dfd565ddcc6cb309d9e48f0af36714", "fusion_lat": 0.0, "fusion_lon": 0.0, "bike_id": "80dfd565ddcc6cb309d9e48f0af36714", "rental_uris": {"ios": "https://dc.lft.to/lastmile_qr_scan", "android": "https://dc.lft.to/lastmile_qr_scan"}, "type": "electric_scooter", "lat": 38.92284683333333, "is_disabled": 0, "lon": -77.04473616666667, "is_reserved": 0}, {"name": "97f83c14079a1e9920d1a299144deba7", "fusion_lat": 0.0, "fusion_lon": 0.0, "bike_id": "97f83c14079a1e9920d1a299144deba7", "rental_uris": {"ios": "https://dc.lft.to/lastmile_qr_scan", "android": "https://dc.lft.to/lastmile_qr_scan"}, "type": "electric_scooter", "lat": 38.9140275, "is_disabled": 0, "lon": -77.032194, "is_reserved": 0}, {"name": "033f4debdc30a9b3b5eb7d9259fe596f", "fusion_lat": 0.0, "fusion_lon": 0.0, "bike_id": "033f4debdc30a9b3b5eb7d9259fe596f", "rental_uris": {"ios": "https://dc.lft.to/lastmile_qr_scan", "android": "https://dc.lft.to/lastmile_qr_scan"}, "type": "electric_scooter", "lat": 38.92582733333333, "is_disabled": 0, "lon": -77.03062816666667, "is_reserved": 0}, {"name": "82eb0a7161e195290f6a7a3d11f53b9c", "fusion_lat": 0.0, "fusion_lon": 0.0, "bike_id": "82eb0a7161e195290f6a7a3d11f53b9c", "rental_uris": {"ios": "https://dc.lft.to/lastmile_qr_scan", "android": "https://dc.lft.to/lastmile_qr_scan"}, "type": "electric_bike", "lat": 38.91681116666667, "is_disabled": 0, "lon": -77.09572716666666, "is_reserved": 0}, {"name": "d0bd5f8b3f18c29f3b24f13c8c2026ea", "fusion_lat": 0.0, "fusion_lon": 0.0, "bike_id": "d0bd5f8b3f18c29f3b24f13c8c2026ea", "rental_uris": {"ios": "https://dc.lft.to/lastmile_qr_scan", "android": "https://dc.lft.to/lastmile_qr_scan"}, "type": "electric_scooter", "lat": 38.92268033333333, "is_disabled": 0, "lon": -77.04207716666667, "is_reserved": 0}, {"name": "f92a0c964ec4072ba57db099b7bddebb", "fusion_lat": 0.0, "fusion_lon": 0.0, "bike_id": "f92a0c964ec4072ba57db099b7bddebb", "rental_uris": {"ios": "https://dc.lft.to/lastmile_qr_scan", "android": "https://dc.lft.to/lastmile_qr_scan"}, "type": "electric_scooter", "lat": 38.887447, "is_disabled": 0, "lon": -77.022259, "is_reserved": 0}, {"name": "50e2ed6d49e54a2ac884cae4060a17a9", "fusion_lat": 0.0, "fusion_lon": 0.0, "bike_id": "50e2ed6d49e54a2ac884cae4060a17a9", "rental_uris": {"ios": "https://dc.lft.to/lastmile_qr_scan", "android": "https://dc.lft.to/lastmile_qr_scan"}, "type": "electric_scooter", "lat": 38.92456333333333, "is_disabled": 0, "lon": -76.99738366666666, "is_reserved": 0}, {"name": "0a3c7719d996dd5d237cbf284bc45e3b", "fusion_lat": 0.0, "fusion_lon": 0.0, "bike_id": "0a3c7719d996dd5d237cbf284bc45e3b", "rental_uris": {"ios": "https://dc.lft.to/lastmile_qr_scan", "android": "https://dc.lft.to/lastmile_qr_scan"}, "type": "electric_scooter", "lat": 38.915836166666665, "is_disabled": 0, "lon": -77.0467805, "is_reserved": 0}, {"name": "229d953f95c40bc45683d8919d3dbbaa", "fusion_lat": 0.0, "fusion_lon": 0.0, "bike_id": "229d953f95c40bc45683d8919d3dbbaa", "rental_uris": {"ios": "https://dc.lft.to/lastmile_qr_scan", "android": "https://dc.lft.to/lastmile_qr_scan"}, "type": "electric_scooter", "lat": 38.89859216666667, "is_disabled": 0, "lon": -77.01621933333334, "is_reserved": 0}, {"name": "2ed8b6d01d74ffcf5f3190ca19052c56", "fusion_lat": 0.0, "fusion_lon": 0.0, "bike_id": "2ed8b6d01d74ffcf5f3190ca19052c56", "rental_uris": {"ios": "https://dc.lft.to/lastmile_qr_scan", "android": "https://dc.lft.to/lastmile_qr_scan"}, "type": "electric_scooter", "lat": 38.901419833333335, "is_disabled": 0, "lon": -77.04394133333334, "is_reserved": 0}, {"name": "8bb7e321322d5638f5e1337ed224adb3", "fusion_lat": 0.0, "fusion_lon": 0.0, "bike_id": "8bb7e321322d5638f5e1337ed224adb3", "rental_uris": {"ios": "https://dc.lft.to/lastmile_qr_scan", "android": "https://dc.lft.to/lastmile_qr_scan"}, "type": "electric_scooter", "lat": 38.908110666666666, "is_disabled": 0, "lon": -77.03853716666667, "is_reserved": 0}, {"name": "a8f4167cb548ed788036e451865fea80", "fusion_lat": 0.0, "fusion_lon": 0.0, "bike_id": "a8f4167cb548ed788036e451865fea80", "rental_uris": {"ios": "https://dc.lft.to/lastmile_qr_scan", "android": "https://dc.lft.to/lastmile_qr_scan"}, "type": "electric_scooter", "lat": 38.939005, "is_disabled": 0, "lon": -77.02472816666666, "is_reserved": 0}, {"name": "daa6199cec58fa090f45531343093383", "fusion_lat": 0.0, "fusion_lon": 0.0, "bike_id": "daa6199cec58fa090f45531343093383", "rental_uris": {"ios": "https://dc.lft.to/lastmile_qr_scan", "android": "https://dc.lft.to/lastmile_qr_scan"}, "type": "electric_bike", "lat": 38.94992766666667, "is_disabled": 0, "lon": -77.35310133333333, "is_reserved": 0}, {"name": "8311e4a726add77607303f7d20968e02", "fusion_lat": 0.0, "fusion_lon": 0.0, "bike_id": "8311e4a726add77607303f7d20968e02", "rental_uris": {"ios": "https://dc.lft.to/lastmile_qr_scan", "android": "https://dc.lft.to/lastmile_qr_scan"}, "type": "electric_scooter", "lat": 38.9179145, "is_disabled": 0, "lon": -77.04364383333333, "is_reserved": 0}, {"name": "464f3fa862890f0daac40b38f853094a", "fusion_lat": 0.0, "fusion_lon": 0.0, "bike_id": "464f3fa862890f0daac40b38f853094a", "rental_uris": {"ios": "https://dc.lft.to/lastmile_qr_scan", "android": "https://dc.lft.to/lastmile_qr_scan"}, "type": "electric_scooter", "lat": 38.884117833333335, "is_disabled": 0, "lon": -77.03303033333333, "is_reserved": 0}, {"name": "973cb6a9bcf693988d1dee4126a76948", "fusion_lat": 0.0, "fusion_lon": 0.0, "bike_id": "973cb6a9bcf693988d1dee4126a76948", "rental_uris": {"ios": "https://dc.lft.to/lastmile_qr_scan", "android": "https://dc.lft.to/lastmile_qr_scan"}, "type": "electric_bike", "lat": 38.923473666666666, "is_disabled": 0, "lon": -76.99254816666667, "is_reserved": 0}, {"name": "7c0b991847d6e9a3240ab0796e58fc6a", "fusion_lat": 0.0, "fusion_lon": 0.0, "bike_id": "7c0b991847d6e9a3240ab0796e58fc6a", "rental_uris": {"ios": "https://dc.lft.to/lastmile_qr_scan", "android": "https://dc.lft.to/lastmile_qr_scan"}, "type": "electric_scooter", "lat": 38.9014895, "is_disabled": 0, "lon": -77.02856833333334, "is_reserved": 0}, {"name": "29c6a8c3e8f7503f53bd092d86d26e99", "fusion_lat": 0.0, "fusion_lon": 0.0, "bike_id": "29c6a8c3e8f7503f53bd092d86d26e99", "rental_uris": {"ios": "https://dc.lft.to/lastmile_qr_scan", "android": "https://dc.lft.to/lastmile_qr_scan"}, "type": "electric_scooter", "lat": 38.866604333333335, "is_disabled": 0, "lon": -76.98888966666667, "is_reserved": 0}, {"name": "ac1bdb9d69bcee9cccb366c9853449b6", "fusion_lat": 0.0, "fusion_lon": 0.0, "bike_id": "ac1bdb9d69bcee9cccb366c9853449b6", "rental_uris": {"ios": "https://dc.lft.to/lastmile_qr_scan", "android": "https://dc.lft.to/lastmile_qr_scan"}, "type": "electric_scooter", "lat": 38.893501, "is_disabled": 0, "lon": -77.00336616666667, "is_reserved": 0}, {"name": "ae3c294caa68722c9b6698f41465e1f1", "fusion_lat": 0.0, "fusion_lon": 0.0, "bike_id": "ae3c294caa68722c9b6698f41465e1f1", "rental_uris": {"ios": "https://dc.lft.to/lastmile_qr_scan", "android": "https://dc.lft.to/lastmile_qr_scan"}, "type": "electric_scooter", "lat": 38.8900185, "is_disabled": 0, "lon": -77.03695933333333, "is_reserved": 0}, {"name": "5bca7f6de9c55c1d28b50ff9fce92364", "fusion_lat": 0.0, "fusion_lon": 0.0, "bike_id": "5bca7f6de9c55c1d28b50ff9fce92364", "rental_uris": {"ios": "https://dc.lft.to/lastmile_qr_scan", "android": "https://dc.lft.to/lastmile_qr_scan"}, "type": "electric_scooter", "lat": 38.876401333333334, "is_disabled": 0, "lon": -77.007406, "is_reserved": 0}, {"name": "4700568e56c10d35c54b6259e7ae6f46", "fusion_lat": 0.0, "fusion_lon": 0.0, "bike_id": "4700568e56c10d35c54b6259e7ae6f46", "rental_uris": {"ios": "https://dc.lft.to/lastmile_qr_scan", "android": "https://dc.lft.to/lastmile_qr_scan"}, "type": "electric_scooter", "lat": 38.920292833333335, "is_disabled": 0, "lon": -77.0316005, "is_reserved": 0}, {"name": "1bd1c645acba274dea2afd4f70320d39", "fusion_lat": 0.0, "fusion_lon": 0.0, "bike_id": "1bd1c645acba274dea2afd4f70320d39", "rental_uris": {"ios": "https://dc.lft.to/lastmile_qr_scan", "android": "https://dc.lft.to/lastmile_qr_scan"}, "type": "electric_scooter", "lat": 38.9203885, "is_disabled": 0, "lon": -77.04817533333333, "is_reserved": 0}, {"name": "2cec54ba82a6206e8dc8276a81f58cec", "fusion_lat": 0.0, "fusion_lon": 0.0, "bike_id": "2cec54ba82a6206e8dc8276a81f58cec", "rental_uris": {"ios": "https://dc.lft.to/lastmile_qr_scan", "android": "https://dc.lft.to/lastmile_qr_scan"}, "type": "electric_bike", "lat": 38.990735666666666, "is_disabled": 0, "lon": -77.02381966666667, "is_reserved": 0}, {"name": "80916f86989804a785967a5ad2216a7e", "fusion_lat": 0.0, "fusion_lon": 0.0, "bike_id": "80916f86989804a785967a5ad2216a7e", "rental_uris": {"ios": "https://dc.lft.to/lastmile_qr_scan", "android": "https://dc.lft.to/lastmile_qr_scan"}, "type": "electric_scooter", "lat": 38.8811435, "is_disabled": 0, "lon": -77.02072233333334, "is_reserved": 0}, {"name": "a13e84cbd5d43f98a5ddc8f0764e2dc1", "fusion_lat": 0.0, "fusion_lon": 0.0, "bike_id": "a13e84cbd5d43f98a5ddc8f0764e2dc1", "rental_uris": {"ios": "https://dc.lft.to/lastmile_qr_scan", "android": "https://dc.lft.to/lastmile_qr_scan"}, "type": "electric_scooter", "lat": 38.91137716666667, "is_disabled": 0, "lon": -77.06236466666667, "is_reserved": 0}, {"name": "424f439916220497e7f64727ddd1573f", "fusion_lat": 0.0, "fusion_lon": 0.0, "bike_id": "424f439916220497e7f64727ddd1573f", "rental_uris": {"ios": "https://dc.lft.to/lastmile_qr_scan", "android": "https://dc.lft.to/lastmile_qr_scan"}, "type": "electric_bike", "lat": 38.88964, "is_disabled": 0, "lon": -76.9486305, "is_reserved": 0}, {"name": "364f4cb7b00e5fbc523394f67b172731", "fusion_lat": 0.0, "fusion_lon": 0.0, "bike_id": "364f4cb7b00e5fbc523394f67b172731", "rental_uris": {"ios": "https://dc.lft.to/lastmile_qr_scan", "android": "https://dc.lft.to/lastmile_qr_scan"}, "type": "electric_scooter", "lat": 38.907399166666664, "is_disabled": 0, "lon": -77.03223383333334, "is_reserved": 0}, {"name": "465161974901bf26b4f5fce50f2d9763", "fusion_lat": 0.0, "fusion_lon": 0.0, "bike_id": "465161974901bf26b4f5fce50f2d9763", "rental_uris": {"ios": "https://dc.lft.to/lastmile_qr_scan", "android": "https://dc.lft.to/lastmile_qr_scan"}, "type": "electric_scooter", "lat": 38.88746883333334, "is_disabled": 0, "lon": -77.028573, "is_reserved": 0}, {"name": "05c8541169df646f7ec9e81d64fcdcfe", "fusion_lat": 0.0, "fusion_lon": 0.0, "bike_id": "05c8541169df646f7ec9e81d64fcdcfe", "rental_uris": {"ios": "https://dc.lft.to/lastmile_qr_scan", "android": "https://dc.lft.to/lastmile_qr_scan"}, "type": "electric_scooter", "lat": 38.88743266666667, "is_disabled": 0, "lon": -77.0222765, "is_reserved": 0}, {"name": "2891659f607c7942a8c333f5af7816fa", "fusion_lat": 0.0, "fusion_lon": 0.0, "bike_id": "2891659f607c7942a8c333f5af7816fa", "rental_uris": {"ios": "https://dc.lft.to/lastmile_qr_scan", "android": "https://dc.lft.to/lastmile_qr_scan"}, "type": "electric_scooter", "lat": 38.907347333333334, "is_disabled": 0, "lon": -77.02371616666667, "is_reserved": 0}, {"name": "8cc23ca54a6f0379ed4a6cd07c306d25", "fusion_lat": 0.0, "fusion_lon": 0.0, "bike_id": "8cc23ca54a6f0379ed4a6cd07c306d25", "rental_uris": {"ios": "https://dc.lft.to/lastmile_qr_scan", "android": "https://dc.lft.to/lastmile_qr_scan"}, "type": "electric_scooter", "lat": 38.84435966666667, "is_disabled": 0, "lon": -76.984113, "is_reserved": 0}, {"name": "e183b39cfe15175e8613c2f483d8a911", "fusion_lat": 0.0, "fusion_lon": 0.0, "bike_id": "e183b39cfe15175e8613c2f483d8a911", "rental_uris": {"ios": "https://dc.lft.to/lastmile_qr_scan", "android": "https://dc.lft.to/lastmile_qr_scan"}, "type": "electric_scooter", "lat": 38.9013835, "is_disabled": 0, "lon": -77.013243, "is_reserved": 0}, {"name": "ef1b521395a9a40a2403e2a4f4e0bfe1", "fusion_lat": 0.0, "fusion_lon": 0.0, "bike_id": "ef1b521395a9a40a2403e2a4f4e0bfe1", "rental_uris": {"ios": "https://dc.lft.to/lastmile_qr_scan", "android": "https://dc.lft.to/lastmile_qr_scan"}, "type": "electric_scooter", "lat": 38.92893183333333, "is_disabled": 0, "lon": -77.016651, "is_reserved": 0}, {"name": "91566003f4349093df141d962519ab23", "fusion_lat": 0.0, "fusion_lon": 0.0, "bike_id": "91566003f4349093df141d962519ab23", "rental_uris": {"ios": "https://dc.lft.to/lastmile_qr_scan", "android": "https://dc.lft.to/lastmile_qr_scan"}, "type": "electric_bike", "lat": 38.888209333333336, "is_disabled": 0, "lon": -77.12742833333333, "is_reserved": 0}, {"name": "befd240f25de34b70a518a28dda0d103", "fusion_lat": 0.0, "fusion_lon": 0.0, "bike_id": "befd240f25de34b70a518a28dda0d103", "rental_uris": {"ios": "https://dc.lft.to/lastmile_qr_scan", "android": "https://dc.lft.to/lastmile_qr_scan"}, "type": "electric_bike", "lat": 38.97576183333334, "is_disabled": 0, "lon": -76.9638775, "is_reserved": 0}, {"name": "6b3e2328d0e1e4a3f28fbd5d9dd6da57", "fusion_lat": 0.0, "fusion_lon": 0.0, "bike_id": "6b3e2328d0e1e4a3f28fbd5d9dd6da57", "rental_uris": {"ios": "https://dc.lft.to/lastmile_qr_scan", "android": "https://dc.lft.to/lastmile_qr_scan"}, "type": "electric_bike", "lat": 38.992252, "is_disabled": 0, "lon": -76.877775, "is_reserved": 0}, {"name": "eccb5f7477fc048c7fc137d89891a9bd", "fusion_lat": 0.0, "fusion_lon": 0.0, "bike_id": "eccb5f7477fc048c7fc137d89891a9bd", "rental_uris": {"ios": "https://dc.lft.to/lastmile_qr_scan", "android": "https://dc.lft.to/lastmile_qr_scan"}, "type": "electric_scooter", "lat": 38.928617833333334, "is_disabled": 0, "lon": -77.03442, "is_reserved": 0}, {"name": "b90e9037e6794eee352d18e4cad44ec1", "fusion_lat": 0.0, "fusion_lon": 0.0, "bike_id": "b90e9037e6794eee352d18e4cad44ec1", "rental_uris": {"ios": "https://dc.lft.to/lastmile_qr_scan", "android": "https://dc.lft.to/lastmile_qr_scan"}, "type": "electric_scooter", "lat": 38.930463, "is_disabled": 0, "lon": -77.00416833333334, "is_reserved": 0}, {"name": "96188b3b496d67e3dde540729a62f641", "fusion_lat": 0.0, "fusion_lon": 0.0, "bike_id": "96188b3b496d67e3dde540729a62f641", "rental_uris": {"ios": "https://dc.lft.to/lastmile_qr_scan", "android": "https://dc.lft.to/lastmile_qr_scan"}, "type": "electric_bike", "lat": 39.115286, "is_disabled": 0, "lon": -77.195405, "is_reserved": 0}, {"name": "b5c9ec752244f759be820440631d7a2d", "fusion_lat": 0.0, "fusion_lon": 0.0, "bike_id": "b5c9ec752244f759be820440631d7a2d", "rental_uris": {"ios": "https://dc.lft.to/lastmile_qr_scan", "android": "https://dc.lft.to/lastmile_qr_scan"}, "type": "electric_scooter", "lat": 38.915686666666666, "is_disabled": 0, "lon": -77.0467935, "is_reserved": 0}, {"name": "b7b97c73da167739766780fe5e88a301", "fusion_lat": 0.0, "fusion_lon": 0.0, "bike_id": "b7b97c73da167739766780fe5e88a301", "rental_uris": {"ios": "https://dc.lft.to/lastmile_qr_scan", "android": "https://dc.lft.to/lastmile_qr_scan"}, "type": "electric_scooter", "lat": 38.94277866666667, "is_disabled": 0, "lon": -77.02353783333334, "is_reserved": 0}, {"name": "4cd4fc5143a9f5883e1afdd25831c2ea", "fusion_lat": 0.0, "fusion_lon": 0.0, "bike_id": "4cd4fc5143a9f5883e1afdd25831c2ea", "rental_uris": {"ios": "https://dc.lft.to/lastmile_qr_scan", "android": "https://dc.lft.to/lastmile_qr_scan"}, "type": "electric_bike", "lat": 38.85714083333333, "is_disabled": 0, "lon": -76.98116583333334, "is_reserved": 0}, {"name": "966a5c0096271139a784db73646ec4e8", "fusion_lat": 0.0, "fusion_lon": 0.0, "bike_id": "966a5c0096271139a784db73646ec4e8", "rental_uris": {"ios": "https://dc.lft.to/lastmile_qr_scan", "android": "https://dc.lft.to/lastmile_qr_scan"}, "type": "electric_bike", "lat": 38.919182, "is_disabled": 0, "lon": -77.0702785, "is_reserved": 0}, {"name": "d7e8ca9e777f538cc97f0db4c970c7fd", "fusion_lat": 0.0, "fusion_lon": 0.0, "bike_id": "d7e8ca9e777f538cc97f0db4c970c7fd", "rental_uris": {"ios": "https://dc.lft.to/lastmile_qr_scan", "android": "https://dc.lft.to/lastmile_qr_scan"}, "type": "electric_scooter", "lat": 38.838125166666664, "is_disabled": 0, "lon": -77.00436183333333, "is_reserved": 0}, {"name": "f3b9a3353d98a010696399fe389f2f31", "fusion_lat": 0.0, "fusion_lon": 0.0, "bike_id": "f3b9a3353d98a010696399fe389f2f31", "rental_uris": {"ios": "https://dc.lft.to/lastmile_qr_scan", "android": "https://dc.lft.to/lastmile_qr_scan"}, "type": "electric_scooter", "lat": 38.921831833333336, "is_disabled": 0, "lon": -77.0423645, "is_reserved": 0}, {"name": "63729132b1e6c57ea414f8dfa20e2ae4", "fusion_lat": 0.0, "fusion_lon": 0.0, "bike_id": "63729132b1e6c57ea414f8dfa20e2ae4", "rental_uris": {"ios": "https://dc.lft.to/lastmile_qr_scan", "android": "https://dc.lft.to/lastmile_qr_scan"}, "type": "electric_scooter", "lat": 38.88008883333333, "is_disabled": 0, "lon": -76.93115316666666, "is_reserved": 0}, {"name": "cb94df4fc033e0708a8248421b82c7db", "fusion_lat": 0.0, "fusion_lon": 0.0, "bike_id": "cb94df4fc033e0708a8248421b82c7db", "rental_uris": {"ios": "https://dc.lft.to/lastmile_qr_scan", "android": "https://dc.lft.to/lastmile_qr_scan"}, "type": "electric_scooter", "lat": 38.90568483333333, "is_disabled": 0, "lon": -77.02533683333333, "is_reserved": 0}, {"name": "e8cc5974b5dea8b4a4561b6af33812e5", "fusion_lat": 0.0, "fusion_lon": 0.0, "bike_id": "e8cc5974b5dea8b4a4561b6af33812e5", "rental_uris": {"ios": "https://dc.lft.to/lastmile_qr_scan", "android": "https://dc.lft.to/lastmile_qr_scan"}, "type": "electric_scooter", "lat": 38.895231, "is_disabled": 0, "lon": -77.0283765, "is_reserved": 0}, {"name": "48ff58e4fa99c86024bb187c82bd326e", "fusion_lat": 0.0, "fusion_lon": 0.0, "bike_id": "48ff58e4fa99c86024bb187c82bd326e", "rental_uris": {"ios": "https://dc.lft.to/lastmile_qr_scan", "android": "https://dc.lft.to/lastmile_qr_scan"}, "type": "electric_scooter", "lat": 38.903708, "is_disabled": 0, "lon": -77.01946033333333, "is_reserved": 0}, {"name": "05ed1704a9ce559c955c629d930fc019", "fusion_lat": 0.0, "fusion_lon": 0.0, "bike_id": "05ed1704a9ce559c955c629d930fc019", "rental_uris": {"ios": "https://dc.lft.to/lastmile_qr_scan", "android": "https://dc.lft.to/lastmile_qr_scan"}, "type": "electric_scooter", "lat": 38.90026733333333, "is_disabled": 0, "lon": -77.0118515, "is_reserved": 0}, {"name": "33387c8b03928a4d9f7e0db39ced7d88", "fusion_lat": 0.0, "fusion_lon": 0.0, "bike_id": "33387c8b03928a4d9f7e0db39ced7d88", "rental_uris": {"ios": "https://dc.lft.to/lastmile_qr_scan", "android": "https://dc.lft.to/lastmile_qr_scan"}, "type": "electric_scooter", "lat": 38.93897316666666, "is_disabled": 0, "lon": -77.02477883333333, "is_reserved": 0}, {"name": "ae67319d088ae65923c353badfed763b", "fusion_lat": 0.0, "fusion_lon": 0.0, "bike_id": "ae67319d088ae65923c353badfed763b", "rental_uris": {"ios": "https://dc.lft.to/lastmile_qr_scan", "android": "https://dc.lft.to/lastmile_qr_scan"}, "type": "electric_scooter", "lat": 38.85324033333333, "is_disabled": 0, "lon": -76.966019, "is_reserved": 0}, {"name": "dc9dbd4b7487cad338c873639772b7ef", "fusion_lat": 0.0, "fusion_lon": 0.0, "bike_id": "dc9dbd4b7487cad338c873639772b7ef", "rental_uris": {"ios": "https://dc.lft.to/lastmile_qr_scan", "android": "https://dc.lft.to/lastmile_qr_scan"}, "type": "electric_scooter", "lat": 38.86248233333333, "is_disabled": 0, "lon": -76.9952565, "is_reserved": 0}, {"name": "c669ff4507dba448e66e34d4e489c2e2", "fusion_lat": 0.0, "fusion_lon": 0.0, "bike_id": "c669ff4507dba448e66e34d4e489c2e2", "rental_uris": {"ios": "https://dc.lft.to/lastmile_qr_scan", "android": "https://dc.lft.to/lastmile_qr_scan"}, "type": "electric_bike", "lat": 38.988277, "is_disabled": 0, "lon": -76.987539, "is_reserved": 0}, {"name": "6142b5d92523b249999a0f4948d6a8c8", "fusion_lat": 0.0, "fusion_lon": 0.0, "bike_id": "6142b5d92523b249999a0f4948d6a8c8", "rental_uris": {"ios": "https://dc.lft.to/lastmile_qr_scan", "android": "https://dc.lft.to/lastmile_qr_scan"}, "type": "electric_scooter", "lat": 38.90522083333333, "is_disabled": 0, "lon": -77.00585033333333, "is_reserved": 0}, {"name": "fc1bbb1977e425b39ae42972b9f71b57", "fusion_lat": 0.0, "fusion_lon": 0.0, "bike_id": "fc1bbb1977e425b39ae42972b9f71b57", "rental_uris": {"ios": "https://dc.lft.to/lastmile_qr_scan", "android": "https://dc.lft.to/lastmile_qr_scan"}, "type": "electric_scooter", "lat": 38.90131866666667, "is_disabled": 0, "lon": -77.01788516666667, "is_reserved": 0}, {"name": "7dd1d67ad6d6c128ae68ae5ee6ca0c3f", "fusion_lat": 0.0, "fusion_lon": 0.0, "bike_id": "7dd1d67ad6d6c128ae68ae5ee6ca0c3f", "rental_uris": {"ios": "https://dc.lft.to/lastmile_qr_scan", "android": "https://dc.lft.to/lastmile_qr_scan"}, "type": "electric_scooter", "lat": 38.904995666666665, "is_disabled": 0, "lon": -76.99531716666667, "is_reserved": 0}, {"name": "9046082c6a129f8928581ca36d84be89", "fusion_lat": 0.0, "fusion_lon": 0.0, "bike_id": "9046082c6a129f8928581ca36d84be89", "rental_uris": {"ios": "https://dc.lft.to/lastmile_qr_scan", "android": "https://dc.lft.to/lastmile_qr_scan"}, "type": "electric_scooter", "lat": 38.896157333333335, "is_disabled": 0, "lon": -77.02807133333333, "is_reserved": 0}, {"name": "99cfc56732b200747849cfc5a029c0be", "fusion_lat": 0.0, "fusion_lon": 0.0, "bike_id": "99cfc56732b200747849cfc5a029c0be", "rental_uris": {"ios": "https://dc.lft.to/lastmile_qr_scan", "android": "https://dc.lft.to/lastmile_qr_scan"}, "type": "electric_scooter", "lat": 38.91118516666667, "is_disabled": 0, "lon": -77.04085883333333, "is_reserved": 0}, {"name": "2b93a84bdf070f962bf23c8012e81ce6", "fusion_lat": 0.0, "fusion_lon": 0.0, "bike_id": "2b93a84bdf070f962bf23c8012e81ce6", "rental_uris": {"ios": "https://dc.lft.to/lastmile_qr_scan", "android": "https://dc.lft.to/lastmile_qr_scan"}, "type": "electric_scooter", "lat": 38.90605866666667, "is_disabled": 0, "lon": -77.0395395, "is_reserved": 0}, {"name": "7b59f27432e936a98173c8b3fe94974c", "fusion_lat": 0.0, "fusion_lon": 0.0, "bike_id": "7b59f27432e936a98173c8b3fe94974c", "rental_uris": {"ios": "https://dc.lft.to/lastmile_qr_scan", "android": "https://dc.lft.to/lastmile_qr_scan"}, "type": "electric_scooter", "lat": 38.86209616666667, "is_disabled": 0, "lon": -76.9947455, "is_reserved": 0}, {"name": "b673810e153844e9e3ace7f8231ad6d0", "fusion_lat": 0.0, "fusion_lon": 0.0, "bike_id": "b673810e153844e9e3ace7f8231ad6d0", "rental_uris": {"ios": "https://dc.lft.to/lastmile_qr_scan", "android": "https://dc.lft.to/lastmile_qr_scan"}, "type": "electric_scooter", "lat": 38.905584166666664, "is_disabled": 0, "lon": -77.0400175, "is_reserved": 0}, {"name": "395e6615e530fe548eba2109e59e4ee4", "fusion_lat": 0.0, "fusion_lon": 0.0, "bike_id": "395e6615e530fe548eba2109e59e4ee4", "rental_uris": {"ios": "https://dc.lft.to/lastmile_qr_scan", "android": "https://dc.lft.to/lastmile_qr_scan"}, "type": "electric_scooter", "lat": 38.92471283333333, "is_disabled": 0, "lon": -77.02984433333333, "is_reserved": 0}, {"name": "545444d7e6a50a9708795b3ffcd3d344", "fusion_lat": 0.0, "fusion_lon": 0.0, "bike_id": "545444d7e6a50a9708795b3ffcd3d344", "rental_uris": {"ios": "https://dc.lft.to/lastmile_qr_scan", "android": "https://dc.lft.to/lastmile_qr_scan"}, "type": "electric_scooter", "lat": 38.887126, "is_disabled": 0, "lon": -77.013813, "is_reserved": 0}, {"name": "4c7fe69a4740fe9388fbd93bf6f8ccb0", "fusion_lat": 0.0, "fusion_lon": 0.0, "bike_id": "4c7fe69a4740fe9388fbd93bf6f8ccb0", "rental_uris": {"ios": "https://dc.lft.to/lastmile_qr_scan", "android": "https://dc.lft.to/lastmile_qr_scan"}, "type": "electric_scooter", "lat": 38.91681883333333, "is_disabled": 0, "lon": -77.0280565, "is_reserved": 0}, {"name": "be7d413041917d903b4de7ed4befde9f", "fusion_lat": 0.0, "fusion_lon": 0.0, "bike_id": "be7d413041917d903b4de7ed4befde9f", "rental_uris": {"ios": "https://dc.lft.to/lastmile_qr_scan", "android": "https://dc.lft.to/lastmile_qr_scan"}, "type": "electric_scooter", "lat": 38.91943033333333, "is_disabled": 0, "lon": -77.02495416666666, "is_reserved": 0}, {"name": "c5035c8fc828a43ed05df9a7e75618f6", "fusion_lat": 0.0, "fusion_lon": 0.0, "bike_id": "c5035c8fc828a43ed05df9a7e75618f6", "rental_uris": {"ios": "https://dc.lft.to/lastmile_qr_scan", "android": "https://dc.lft.to/lastmile_qr_scan"}, "type": "electric_scooter", "lat": 38.92049183333334, "is_disabled": 0, "lon": -77.02613716666667, "is_reserved": 0}, {"name": "cba94c496597e4975ac9db8f8117c444", "fusion_lat": 0.0, "fusion_lon": 0.0, "bike_id": "cba94c496597e4975ac9db8f8117c444", "rental_uris": {"ios": "https://dc.lft.to/lastmile_qr_scan", "android": "https://dc.lft.to/lastmile_qr_scan"}, "type": "electric_bike", "lat": 38.84514716666666, "is_disabled": 0, "lon": -77.077978, "is_reserved": 0}, {"name": "37c907da0da6b6d63a0c9a7186cceb1f", "fusion_lat": 0.0, "fusion_lon": 0.0, "bike_id": "37c907da0da6b6d63a0c9a7186cceb1f", "rental_uris": {"ios": "https://dc.lft.to/lastmile_qr_scan", "android": "https://dc.lft.to/lastmile_qr_scan"}, "type": "electric_scooter", "lat": 38.90360016666666, "is_disabled": 0, "lon": -77.062723, "is_reserved": 0}, {"name": "c996d2561c8aa2e566d3986f2818fee5", "fusion_lat": 0.0, "fusion_lon": 0.0, "bike_id": "c996d2561c8aa2e566d3986f2818fee5", "rental_uris": {"ios": "https://dc.lft.to/lastmile_qr_scan", "android": "https://dc.lft.to/lastmile_qr_scan"}, "type": "electric_scooter", "lat": 38.9083345, "is_disabled": 0, "lon": -76.99694216666667, "is_reserved": 0}, {"name": "42af69ba64f2af4b258d3b4a7b753914", "fusion_lat": 0.0, "fusion_lon": 0.0, "bike_id": "42af69ba64f2af4b258d3b4a7b753914", "rental_uris": {"ios": "https://dc.lft.to/lastmile_qr_scan", "android": "https://dc.lft.to/lastmile_qr_scan"}, "type": "electric_scooter", "lat": 38.9082995, "is_disabled": 0, "lon": -77.04878916666667, "is_reserved": 0}, {"name": "fab01a5923479a184c2bf91fcce7d81b", "fusion_lat": 0.0, "fusion_lon": 0.0, "bike_id": "fab01a5923479a184c2bf91fcce7d81b", "rental_uris": {"ios": "https://dc.lft.to/lastmile_qr_scan", "android": "https://dc.lft.to/lastmile_qr_scan"}, "type": "electric_scooter", "lat": 38.89810383333333, "is_disabled": 0, "lon": -77.04893366666667, "is_reserved": 0}, {"name": "81558121f132b5a4f98663b90d77037d", "fusion_lat": 0.0, "fusion_lon": 0.0, "bike_id": "81558121f132b5a4f98663b90d77037d", "rental_uris": {"ios": "https://dc.lft.to/lastmile_qr_scan", "android": "https://dc.lft.to/lastmile_qr_scan"}, "type": "electric_scooter", "lat": 38.95397633333333, "is_disabled": 0, "lon": -77.02754433333334, "is_reserved": 0}, {"name": "7f522db0e5b7c5f72fa46d487c5ba449", "fusion_lat": 0.0, "fusion_lon": 0.0, "bike_id": "7f522db0e5b7c5f72fa46d487c5ba449", "rental_uris": {"ios": "https://dc.lft.to/lastmile_qr_scan", "android": "https://dc.lft.to/lastmile_qr_scan"}, "type": "electric_scooter", "lat": 38.90377433333333, "is_disabled": 0, "lon": -77.06288366666666, "is_reserved": 0}, {"name": "c331a61f63c7482cdcab30b6449389a5", "fusion_lat": 0.0, "fusion_lon": 0.0, "bike_id": "c331a61f63c7482cdcab30b6449389a5", "rental_uris": {"ios": "https://dc.lft.to/lastmile_qr_scan", "android": "https://dc.lft.to/lastmile_qr_scan"}, "type": "electric_scooter", "lat": 38.886278, "is_disabled": 0, "lon": -77.02160383333333, "is_reserved": 0}, {"name": "fdf703ef66eff470a9b0d5761d4c0716", "fusion_lat": 0.0, "fusion_lon": 0.0, "bike_id": "fdf703ef66eff470a9b0d5761d4c0716", "rental_uris": {"ios": "https://dc.lft.to/lastmile_qr_scan", "android": "https://dc.lft.to/lastmile_qr_scan"}, "type": "electric_scooter", "lat": 38.90736016666666, "is_disabled": 0, "lon": -77.02597516666667, "is_reserved": 0}, {"name": "34b0f0021cdbbed02bf86f0206110732", "fusion_lat": 0.0, "fusion_lon": 0.0, "bike_id": "34b0f0021cdbbed02bf86f0206110732", "rental_uris": {"ios": "https://dc.lft.to/lastmile_qr_scan", "android": "https://dc.lft.to/lastmile_qr_scan"}, "type": "electric_scooter", "lat": 38.93568883333333, "is_disabled": 0, "lon": -77.02124883333333, "is_reserved": 0}, {"name": "6e2aaf3861e81f1eb509a225c3a51295", "fusion_lat": 0.0, "fusion_lon": 0.0, "bike_id": "6e2aaf3861e81f1eb509a225c3a51295", "rental_uris": {"ios": "https://dc.lft.to/lastmile_qr_scan", "android": "https://dc.lft.to/lastmile_qr_scan"}, "type": "electric_scooter", "lat": 38.918039, "is_disabled": 0, "lon": -77.03801333333334, "is_reserved": 0}, {"name": "139b79100beaa5c3e617a129146f2037", "fusion_lat": 0.0, "fusion_lon": 0.0, "bike_id": "139b79100beaa5c3e617a129146f2037", "rental_uris": {"ios": "https://dc.lft.to/lastmile_qr_scan", "android": "https://dc.lft.to/lastmile_qr_scan"}, "type": "electric_scooter", "lat": 38.925980333333335, "is_disabled": 0, "lon": -77.0215645, "is_reserved": 0}, {"name": "ef856f6f527d8d1baf5b537ca53c963c", "fusion_lat": 0.0, "fusion_lon": 0.0, "bike_id": "ef856f6f527d8d1baf5b537ca53c963c", "rental_uris": {"ios": "https://dc.lft.to/lastmile_qr_scan", "android": "https://dc.lft.to/lastmile_qr_scan"}, "type": "electric_scooter", "lat": 38.90530566666666, "is_disabled": 0, "lon": -77.050287, "is_reserved": 0}, {"name": "a14146f42bc550d16acae2dca7bbebd2", "fusion_lat": 0.0, "fusion_lon": 0.0, "bike_id": "a14146f42bc550d16acae2dca7bbebd2", "rental_uris": {"ios": "https://dc.lft.to/lastmile_qr_scan", "android": "https://dc.lft.to/lastmile_qr_scan"}, "type": "electric_scooter", "lat": 38.8990705, "is_disabled": 0, "lon": -76.93380716666667, "is_reserved": 0}, {"name": "082245e2e7fc8b5de3637a69c844fc5a", "fusion_lat": 0.0, "fusion_lon": 0.0, "bike_id": "082245e2e7fc8b5de3637a69c844fc5a", "rental_uris": {"ios": "https://dc.lft.to/lastmile_qr_scan", "android": "https://dc.lft.to/lastmile_qr_scan"}, "type": "electric_scooter", "lat": 38.908166333333334, "is_disabled": 0, "lon": -77.03946366666666, "is_reserved": 0}, {"name": "28b47a58acbdd91aa37fbd233f9e4090", "fusion_lat": 0.0, "fusion_lon": 0.0, "bike_id": "28b47a58acbdd91aa37fbd233f9e4090", "rental_uris": {"ios": "https://dc.lft.to/lastmile_qr_scan", "android": "https://dc.lft.to/lastmile_qr_scan"}, "type": "electric_scooter", "lat": 38.89896983333333, "is_disabled": 0, "lon": -77.032837, "is_reserved": 0}, {"name": "c16fd720b64826dca0b5698c667f7352", "fusion_lat": 0.0, "fusion_lon": 0.0, "bike_id": "c16fd720b64826dca0b5698c667f7352", "rental_uris": {"ios": "https://dc.lft.to/lastmile_qr_scan", "android": "https://dc.lft.to/lastmile_qr_scan"}, "type": "electric_scooter", "lat": 38.89694033333333, "is_disabled": 0, "lon": -77.02786016666667, "is_reserved": 0}, {"name": "9fd533f928517eb99b03723e7e46ed78", "fusion_lat": 0.0, "fusion_lon": 0.0, "bike_id": "9fd533f928517eb99b03723e7e46ed78", "rental_uris": {"ios": "https://dc.lft.to/lastmile_qr_scan", "android": "https://dc.lft.to/lastmile_qr_scan"}, "type": "electric_scooter", "lat": 38.9561315, "is_disabled": 0, "lon": -77.0328435, "is_reserved": 0}, {"name": "b597c8a348afe4699f3c74c3ff5e57c9", "fusion_lat": 0.0, "fusion_lon": 0.0, "bike_id": "b597c8a348afe4699f3c74c3ff5e57c9", "rental_uris": {"ios": "https://dc.lft.to/lastmile_qr_scan", "android": "https://dc.lft.to/lastmile_qr_scan"}, "type": "electric_bike", "lat": 38.8577905, "is_disabled": 0, "lon": -76.9875295, "is_reserved": 0}, {"name": "60a93553dd2cfb6a362f87a260c806cf", "fusion_lat": 0.0, "fusion_lon": 0.0, "bike_id": "60a93553dd2cfb6a362f87a260c806cf", "rental_uris": {"ios": "https://dc.lft.to/lastmile_qr_scan", "android": "https://dc.lft.to/lastmile_qr_scan"}, "type": "electric_scooter", "lat": 38.90273066666666, "is_disabled": 0, "lon": -76.94278366666667, "is_reserved": 0}, {"name": "ec68e2a52890f4dc5cdfef6709644ede", "fusion_lat": 0.0, "fusion_lon": 0.0, "bike_id": "ec68e2a52890f4dc5cdfef6709644ede", "rental_uris": {"ios": "https://dc.lft.to/lastmile_qr_scan", "android": "https://dc.lft.to/lastmile_qr_scan"}, "type": "electric_scooter", "lat": 38.90152883333333, "is_disabled": 0, "lon": -77.04058366666666, "is_reserved": 0}, {"name": "14955795de26f5722d76f193a9bb7d1b", "fusion_lat": 0.0, "fusion_lon": 0.0, "bike_id": "14955795de26f5722d76f193a9bb7d1b", "rental_uris": {"ios": "https://dc.lft.to/lastmile_qr_scan", "android": "https://dc.lft.to/lastmile_qr_scan"}, "type": "electric_scooter", "lat": 38.921167, "is_disabled": 0, "lon": -76.99393683333334, "is_reserved": 0}, {"name": "9bff3b9f96d670bd884ca4a076763ecb", "fusion_lat": 0.0, "fusion_lon": 0.0, "bike_id": "9bff3b9f96d670bd884ca4a076763ecb", "rental_uris": {"ios": "https://dc.lft.to/lastmile_qr_scan", "android": "https://dc.lft.to/lastmile_qr_scan"}, "type": "electric_bike", "lat": 38.96644233333333, "is_disabled": 0, "lon": -76.93024366666667, "is_reserved": 0}, {"name": "18123225a84a68e677c742eb30347297", "fusion_lat": 0.0, "fusion_lon": 0.0, "bike_id": "18123225a84a68e677c742eb30347297", "rental_uris": {"ios": "https://dc.lft.to/lastmile_qr_scan", "android": "https://dc.lft.to/lastmile_qr_scan"}, "type": "electric_scooter", "lat": 38.89862133333333, "is_disabled": 0, "lon": -77.0334895, "is_reserved": 0}, {"name": "51e19102b2ebb17428126026a65e7f3e", "fusion_lat": 0.0, "fusion_lon": 0.0, "bike_id": "51e19102b2ebb17428126026a65e7f3e", "rental_uris": {"ios": "https://dc.lft.to/lastmile_qr_scan", "android": "https://dc.lft.to/lastmile_qr_scan"}, "type": "electric_scooter", "lat": 38.941942166666664, "is_disabled": 0, "lon": -77.033311, "is_reserved": 0}, {"name": "9b293a11114ff78b65417df4f78b4382", "fusion_lat": 0.0, "fusion_lon": 0.0, "bike_id": "9b293a11114ff78b65417df4f78b4382", "rental_uris": {"ios": "https://dc.lft.to/lastmile_qr_scan", "android": "https://dc.lft.to/lastmile_qr_scan"}, "type": "electric_bike", "lat": 38.88768833333334, "is_disabled": 0, "lon": -77.1226065, "is_reserved": 0}, {"name": "835262411248180a2187b65af79dfd5c", "fusion_lat": 0.0, "fusion_lon": 0.0, "bike_id": "835262411248180a2187b65af79dfd5c", "rental_uris": {"ios": "https://dc.lft.to/lastmile_qr_scan", "android": "https://dc.lft.to/lastmile_qr_scan"}, "type": "electric_scooter", "lat": 38.93158066666667, "is_disabled": 0, "lon": -77.0291515, "is_reserved": 0}, {"name": "441027269afabb56e3a16ed84380e40c", "fusion_lat": 0.0, "fusion_lon": 0.0, "bike_id": "441027269afabb56e3a16ed84380e40c", "rental_uris": {"ios": "https://dc.lft.to/lastmile_qr_scan", "android": "https://dc.lft.to/lastmile_qr_scan"}, "type": "electric_scooter", "lat": 38.895668, "is_disabled": 0, "lon": -77.027947, "is_reserved": 0}, {"name": "e0871b3dd2cce4b975c020a496d7dab9", "fusion_lat": 0.0, "fusion_lon": 0.0, "bike_id": "e0871b3dd2cce4b975c020a496d7dab9", "rental_uris": {"ios": "https://dc.lft.to/lastmile_qr_scan", "android": "https://dc.lft.to/lastmile_qr_scan"}, "type": "electric_scooter", "lat": 38.876584666666666, "is_disabled": 0, "lon": -77.00435716666667, "is_reserved": 0}, {"name": "5e6f63ac905df09617bf84309a214793", "fusion_lat": 0.0, "fusion_lon": 0.0, "bike_id": "5e6f63ac905df09617bf84309a214793", "rental_uris": {"ios": "https://dc.lft.to/lastmile_qr_scan", "android": "https://dc.lft.to/lastmile_qr_scan"}, "type": "electric_bike", "lat": 38.831946333333335, "is_disabled": 0, "lon": -77.0768595, "is_reserved": 0}, {"name": "0ed45eb470ab59dd748bfcd042bc7177", "fusion_lat": 0.0, "fusion_lon": 0.0, "bike_id": "0ed45eb470ab59dd748bfcd042bc7177", "rental_uris": {"ios": "https://dc.lft.to/lastmile_qr_scan", "android": "https://dc.lft.to/lastmile_qr_scan"}, "type": "electric_scooter", "lat": 38.90193083333333, "is_disabled": 0, "lon": -77.0240665, "is_reserved": 0}, {"name": "30295e5b125469334dfa5622817e9da2", "fusion_lat": 0.0, "fusion_lon": 0.0, "bike_id": "30295e5b125469334dfa5622817e9da2", "rental_uris": {"ios": "https://dc.lft.to/lastmile_qr_scan", "android": "https://dc.lft.to/lastmile_qr_scan"}, "type": "electric_scooter", "lat": 38.91882616666667, "is_disabled": 0, "lon": -77.04161566666667, "is_reserved": 0}, {"name": "775c3c345b9ca1a6f4c482236afe8d56", "fusion_lat": 0.0, "fusion_lon": 0.0, "bike_id": "775c3c345b9ca1a6f4c482236afe8d56", "rental_uris": {"ios": "https://dc.lft.to/lastmile_qr_scan", "android": "https://dc.lft.to/lastmile_qr_scan"}, "type": "electric_scooter", "lat": 38.912116, "is_disabled": 0, "lon": -77.051221, "is_reserved": 0}, {"name": "b86cdfc538c8b559cdc03c4103dbdb64", "fusion_lat": 0.0, "fusion_lon": 0.0, "bike_id": "b86cdfc538c8b559cdc03c4103dbdb64", "rental_uris": {"ios": "https://dc.lft.to/lastmile_qr_scan", "android": "https://dc.lft.to/lastmile_qr_scan"}, "type": "electric_scooter", "lat": 38.913312, "is_disabled": 0, "lon": -77.0485975, "is_reserved": 0}, {"name": "9d56fa28a9d756f17f88f40385254498", "fusion_lat": 0.0, "fusion_lon": 0.0, "bike_id": "9d56fa28a9d756f17f88f40385254498", "rental_uris": {"ios": "https://dc.lft.to/lastmile_qr_scan", "android": "https://dc.lft.to/lastmile_qr_scan"}, "type": "electric_scooter", "lat": 38.91703966666667, "is_disabled": 0, "lon": -77.02437183333333, "is_reserved": 0}, {"name": "715e05eb8375a66c4420974b5724ba4c", "fusion_lat": 0.0, "fusion_lon": 0.0, "bike_id": "715e05eb8375a66c4420974b5724ba4c", "rental_uris": {"ios": "https://dc.lft.to/lastmile_qr_scan", "android": "https://dc.lft.to/lastmile_qr_scan"}, "type": "electric_scooter", "lat": 38.916962166666664, "is_disabled": 0, "lon": -77.0371725, "is_reserved": 0}, {"name": "f431aab3fc21af9ec7acf73b0c586282", "fusion_lat": 0.0, "fusion_lon": 0.0, "bike_id": "f431aab3fc21af9ec7acf73b0c586282", "rental_uris": {"ios": "https://dc.lft.to/lastmile_qr_scan", "android": "https://dc.lft.to/lastmile_qr_scan"}, "type": "electric_scooter", "lat": 38.90559566666667, "is_disabled": 0, "lon": -77.01093433333334, "is_reserved": 0}, {"name": "d6dfed3e576755bc4334ea5a9e7f97a5", "fusion_lat": 0.0, "fusion_lon": 0.0, "bike_id": "d6dfed3e576755bc4334ea5a9e7f97a5", "rental_uris": {"ios": "https://dc.lft.to/lastmile_qr_scan", "android": "https://dc.lft.to/lastmile_qr_scan"}, "type": "electric_scooter", "lat": 38.92587783333333, "is_disabled": 0, "lon": -77.05534616666667, "is_reserved": 0}, {"name": "da837671f5af061cec137a35ad4c5a04", "fusion_lat": 0.0, "fusion_lon": 0.0, "bike_id": "da837671f5af061cec137a35ad4c5a04", "rental_uris": {"ios": "https://dc.lft.to/lastmile_qr_scan", "android": "https://dc.lft.to/lastmile_qr_scan"}, "type": "electric_scooter", "lat": 38.89923783333333, "is_disabled": 0, "lon": -77.04063783333334, "is_reserved": 0}, {"name": "96c54a1d6df9821545fd807ccfcc22fa", "fusion_lat": 0.0, "fusion_lon": 0.0, "bike_id": "96c54a1d6df9821545fd807ccfcc22fa", "rental_uris": {"ios": "https://dc.lft.to/lastmile_qr_scan", "android": "https://dc.lft.to/lastmile_qr_scan"}, "type": "electric_bike", "lat": 38.9555235, "is_disabled": 0, "lon": -76.93542966666666, "is_reserved": 0}, {"name": "d1f35a5b5b188b9dd46001c6577595df", "fusion_lat": 0.0, "fusion_lon": 0.0, "bike_id": "d1f35a5b5b188b9dd46001c6577595df", "rental_uris": {"ios": "https://dc.lft.to/lastmile_qr_scan", "android": "https://dc.lft.to/lastmile_qr_scan"}, "type": "electric_bike", "lat": 38.828721, "is_disabled": 0, "lon": -77.112257, "is_reserved": 0}, {"name": "7df7efe45297ff3ee0dcfdc65a3d18c7", "fusion_lat": 0.0, "fusion_lon": 0.0, "bike_id": "7df7efe45297ff3ee0dcfdc65a3d18c7", "rental_uris": {"ios": "https://dc.lft.to/lastmile_qr_scan", "android": "https://dc.lft.to/lastmile_qr_scan"}, "type": "electric_scooter", "lat": 38.92054233333333, "is_disabled": 0, "lon": -76.9953465, "is_reserved": 0}, {"name": "3930b0fac8b5fce1c03683ef096e2e93", "fusion_lat": 0.0, "fusion_lon": 0.0, "bike_id": "3930b0fac8b5fce1c03683ef096e2e93", "rental_uris": {"ios": "https://dc.lft.to/lastmile_qr_scan", "android": "https://dc.lft.to/lastmile_qr_scan"}, "type": "electric_scooter", "lat": 38.921470666666664, "is_disabled": 0, "lon": -77.03867833333334, "is_reserved": 0}, {"name": "0c5ecd8b0f079958d7d969b5b5f06218", "fusion_lat": 0.0, "fusion_lon": 0.0, "bike_id": "0c5ecd8b0f079958d7d969b5b5f06218", "rental_uris": {"ios": "https://dc.lft.to/lastmile_qr_scan", "android": "https://dc.lft.to/lastmile_qr_scan"}, "type": "electric_scooter", "lat": 38.926454, "is_disabled": 0, "lon": -77.03712, "is_reserved": 0}, {"name": "ffd45eea40cb8627c324394909717e78", "fusion_lat": 0.0, "fusion_lon": 0.0, "bike_id": "ffd45eea40cb8627c324394909717e78", "rental_uris": {"ios": "https://dc.lft.to/lastmile_qr_scan", "android": "https://dc.lft.to/lastmile_qr_scan"}, "type": "electric_scooter", "lat": 38.863537, "is_disabled": 0, "lon": -76.99056116666667, "is_reserved": 0}, {"name": "d3feadd63640eeb783a6243fa7145af1", "fusion_lat": 0.0, "fusion_lon": 0.0, "bike_id": "d3feadd63640eeb783a6243fa7145af1", "rental_uris": {"ios": "https://dc.lft.to/lastmile_qr_scan", "android": "https://dc.lft.to/lastmile_qr_scan"}, "type": "electric_scooter", "lat": 38.9017365, "is_disabled": 0, "lon": -77.01890816666666, "is_reserved": 0}, {"name": "151f1c77567477bcf338332cf1e21116", "fusion_lat": 0.0, "fusion_lon": 0.0, "bike_id": "151f1c77567477bcf338332cf1e21116", "rental_uris": {"ios": "https://dc.lft.to/lastmile_qr_scan", "android": "https://dc.lft.to/lastmile_qr_scan"}, "type": "electric_scooter", "lat": 38.930680333333335, "is_disabled": 0, "lon": -77.03197133333333, "is_reserved": 0}, {"name": "b8f625655dd27640d1258b0727514711", "fusion_lat": 0.0, "fusion_lon": 0.0, "bike_id": "b8f625655dd27640d1258b0727514711", "rental_uris": {"ios": "https://dc.lft.to/lastmile_qr_scan", "android": "https://dc.lft.to/lastmile_qr_scan"}, "type": "electric_scooter", "lat": 38.904345, "is_disabled": 0, "lon": -77.04355316666667, "is_reserved": 0}, {"name": "49483283a8a607ee39d644d5aa646bd4", "fusion_lat": 0.0, "fusion_lon": 0.0, "bike_id": "49483283a8a607ee39d644d5aa646bd4", "rental_uris": {"ios": "https://dc.lft.to/lastmile_qr_scan", "android": "https://dc.lft.to/lastmile_qr_scan"}, "type": "electric_scooter", "lat": 38.90247933333333, "is_disabled": 0, "lon": -77.02697, "is_reserved": 0}, {"name": "f7ad6958c4b3b7102bf301838689fe1e", "fusion_lat": 0.0, "fusion_lon": 0.0, "bike_id": "f7ad6958c4b3b7102bf301838689fe1e", "rental_uris": {"ios": "https://dc.lft.to/lastmile_qr_scan", "android": "https://dc.lft.to/lastmile_qr_scan"}, "type": "electric_scooter", "lat": 38.909858166666666, "is_disabled": 0, "lon": -77.031873, "is_reserved": 0}, {"name": "738af07b4752244a7b54ab3163f874a9", "fusion_lat": 0.0, "fusion_lon": 0.0, "bike_id": "738af07b4752244a7b54ab3163f874a9", "rental_uris": {"ios": "https://dc.lft.to/lastmile_qr_scan", "android": "https://dc.lft.to/lastmile_qr_scan"}, "type": "electric_scooter", "lat": 38.93108316666667, "is_disabled": 0, "lon": -77.01247383333333, "is_reserved": 0}, {"name": "866e7d9428f7743915f8d9b1af3f7b52", "fusion_lat": 0.0, "fusion_lon": 0.0, "bike_id": "866e7d9428f7743915f8d9b1af3f7b52", "rental_uris": {"ios": "https://dc.lft.to/lastmile_qr_scan", "android": "https://dc.lft.to/lastmile_qr_scan"}, "type": "electric_scooter", "lat": 38.917953, "is_disabled": 0, "lon": -77.03461316666667, "is_reserved": 0}, {"name": "21daf9d3f6b7fbb9ac80683190cff6b4", "fusion_lat": 0.0, "fusion_lon": 0.0, "bike_id": "21daf9d3f6b7fbb9ac80683190cff6b4", "rental_uris": {"ios": "https://dc.lft.to/lastmile_qr_scan", "android": "https://dc.lft.to/lastmile_qr_scan"}, "type": "electric_scooter", "lat": 38.931884833333335, "is_disabled": 0, "lon": -77.02835116666667, "is_reserved": 0}, {"name": "52d0ddb4c86844bdd256e2b028018972", "fusion_lat": 0.0, "fusion_lon": 0.0, "bike_id": "52d0ddb4c86844bdd256e2b028018972", "rental_uris": {"ios": "https://dc.lft.to/lastmile_qr_scan", "android": "https://dc.lft.to/lastmile_qr_scan"}, "type": "electric_scooter", "lat": 38.89836916666667, "is_disabled": 0, "lon": -77.0433855, "is_reserved": 0}, {"name": "44357a2f01c603dfe4d4943251d8c8c3", "fusion_lat": 0.0, "fusion_lon": 0.0, "bike_id": "44357a2f01c603dfe4d4943251d8c8c3", "rental_uris": {"ios": "https://dc.lft.to/lastmile_qr_scan", "android": "https://dc.lft.to/lastmile_qr_scan"}, "type": "electric_scooter", "lat": 38.89808283333333, "is_disabled": 0, "lon": -77.05133433333333, "is_reserved": 0}, {"name": "4133112e843aaeb5f3deeebf92bb6f07", "fusion_lat": 0.0, "fusion_lon": 0.0, "bike_id": "4133112e843aaeb5f3deeebf92bb6f07", "rental_uris": {"ios": "https://dc.lft.to/lastmile_qr_scan", "android": "https://dc.lft.to/lastmile_qr_scan"}, "type": "electric_scooter", "lat": 38.892052666666665, "is_disabled": 0, "lon": -76.98805366666667, "is_reserved": 0}, {"name": "f3d1f55b7041b295eb4c523164a1496b", "fusion_lat": 0.0, "fusion_lon": 0.0, "bike_id": "f3d1f55b7041b295eb4c523164a1496b", "rental_uris": {"ios": "https://dc.lft.to/lastmile_qr_scan", "android": "https://dc.lft.to/lastmile_qr_scan"}, "type": "electric_scooter", "lat": 38.865089, "is_disabled": 0, "lon": -76.99008, "is_reserved": 0}, {"name": "515535da41165dc0456e4ee1344902f1", "fusion_lat": 0.0, "fusion_lon": 0.0, "bike_id": "515535da41165dc0456e4ee1344902f1", "rental_uris": {"ios": "https://dc.lft.to/lastmile_qr_scan", "android": "https://dc.lft.to/lastmile_qr_scan"}, "type": "electric_scooter", "lat": 38.906044, "is_disabled": 0, "lon": -77.04134233333333, "is_reserved": 0}, {"name": "010cce1192e55086de179317f7712973", "fusion_lat": 0.0, "fusion_lon": 0.0, "bike_id": "010cce1192e55086de179317f7712973", "rental_uris": {"ios": "https://dc.lft.to/lastmile_qr_scan", "android": "https://dc.lft.to/lastmile_qr_scan"}, "type": "electric_scooter", "lat": 38.866747, "is_disabled": 0, "lon": -76.988904, "is_reserved": 0}, {"name": "fd8dbe7752cf4ffeef22ff36f4a5d4d1", "fusion_lat": 0.0, "fusion_lon": 0.0, "bike_id": "fd8dbe7752cf4ffeef22ff36f4a5d4d1", "rental_uris": {"ios": "https://dc.lft.to/lastmile_qr_scan", "android": "https://dc.lft.to/lastmile_qr_scan"}, "type": "electric_scooter", "lat": 38.88429516666667, "is_disabled": 0, "lon": -76.954113, "is_reserved": 0}, {"name": "357dc891ea27271ce59e667dd9e4f3b9", "fusion_lat": 0.0, "fusion_lon": 0.0, "bike_id": "357dc891ea27271ce59e667dd9e4f3b9", "rental_uris": {"ios": "https://dc.lft.to/lastmile_qr_scan", "android": "https://dc.lft.to/lastmile_qr_scan"}, "type": "electric_scooter", "lat": 38.9147595, "is_disabled": 0, "lon": -77.034712, "is_reserved": 0}, {"name": "bbbe36a3b3e9b35d091e9906d9b117a4", "fusion_lat": 0.0, "fusion_lon": 0.0, "bike_id": "bbbe36a3b3e9b35d091e9906d9b117a4", "rental_uris": {"ios": "https://dc.lft.to/lastmile_qr_scan", "android": "https://dc.lft.to/lastmile_qr_scan"}, "type": "electric_bike", "lat": 39.08839366666667, "is_disabled": 0, "lon": -77.17804733333334, "is_reserved": 0}, {"name": "cacad15c39f5a51550bc4b9d95d67844", "fusion_lat": 0.0, "fusion_lon": 0.0, "bike_id": "cacad15c39f5a51550bc4b9d95d67844", "rental_uris": {"ios": "https://dc.lft.to/lastmile_qr_scan", "android": "https://dc.lft.to/lastmile_qr_scan"}, "type": "electric_scooter", "lat": 38.910528, "is_disabled": 0, "lon": -77.015109, "is_reserved": 0}, {"name": "38e34984781eda1dc48a4ddc061f4455", "fusion_lat": 0.0, "fusion_lon": 0.0, "bike_id": "38e34984781eda1dc48a4ddc061f4455", "rental_uris": {"ios": "https://dc.lft.to/lastmile_qr_scan", "android": "https://dc.lft.to/lastmile_qr_scan"}, "type": "electric_scooter", "lat": 38.91335466666666, "is_disabled": 0, "lon": -77.03261566666667, "is_reserved": 0}, {"name": "8f3230865a8f820e23bcfcfeb4f9ee16", "fusion_lat": 0.0, "fusion_lon": 0.0, "bike_id": "8f3230865a8f820e23bcfcfeb4f9ee16", "rental_uris": {"ios": "https://dc.lft.to/lastmile_qr_scan", "android": "https://dc.lft.to/lastmile_qr_scan"}, "type": "electric_scooter", "lat": 38.910739, "is_disabled": 0, "lon": -77.001518, "is_reserved": 0}, {"name": "408b3c1eae43fb7a7bda1e65d1203522", "fusion_lat": 0.0, "fusion_lon": 0.0, "bike_id": "408b3c1eae43fb7a7bda1e65d1203522", "rental_uris": {"ios": "https://dc.lft.to/lastmile_qr_scan", "android": "https://dc.lft.to/lastmile_qr_scan"}, "type": "electric_scooter", "lat": 38.916421166666666, "is_disabled": 0, "lon": -77.0506415, "is_reserved": 0}, {"name": "87698fe996b95ef7235bc5df36be5260", "fusion_lat": 0.0, "fusion_lon": 0.0, "bike_id": "87698fe996b95ef7235bc5df36be5260", "rental_uris": {"ios": "https://dc.lft.to/lastmile_qr_scan", "android": "https://dc.lft.to/lastmile_qr_scan"}, "type": "electric_bike", "lat": 38.9369595, "is_disabled": 0, "lon": -77.02699533333333, "is_reserved": 0}, {"name": "b9426c97e732cef9591a7bd81ba2568a", "fusion_lat": 0.0, "fusion_lon": 0.0, "bike_id": "b9426c97e732cef9591a7bd81ba2568a", "rental_uris": {"ios": "https://dc.lft.to/lastmile_qr_scan", "android": "https://dc.lft.to/lastmile_qr_scan"}, "type": "electric_scooter", "lat": 38.931877666666665, "is_disabled": 0, "lon": -77.02834366666667, "is_reserved": 0}, {"name": "90965f4e5a849ade93c6a4daf5746767", "fusion_lat": 0.0, "fusion_lon": 0.0, "bike_id": "90965f4e5a849ade93c6a4daf5746767", "rental_uris": {"ios": "https://dc.lft.to/lastmile_qr_scan", "android": "https://dc.lft.to/lastmile_qr_scan"}, "type": "electric_scooter", "lat": 38.905928, "is_disabled": 0, "lon": -77.07014833333334, "is_reserved": 0}, {"name": "d5b37dff62afd158d785a79decbebfc1", "fusion_lat": 0.0, "fusion_lon": 0.0, "bike_id": "d5b37dff62afd158d785a79decbebfc1", "rental_uris": {"ios": "https://dc.lft.to/lastmile_qr_scan", "android": "https://dc.lft.to/lastmile_qr_scan"}, "type": "electric_scooter", "lat": 38.90073566666667, "is_disabled": 0, "lon": -77.03922, "is_reserved": 0}, {"name": "a24af23653162fde97189320838fdec6", "fusion_lat": 0.0, "fusion_lon": 0.0, "bike_id": "a24af23653162fde97189320838fdec6", "rental_uris": {"ios": "https://dc.lft.to/lastmile_qr_scan", "android": "https://dc.lft.to/lastmile_qr_scan"}, "type": "electric_scooter", "lat": 38.909433166666666, "is_disabled": 0, "lon": -76.992267, "is_reserved": 0}, {"name": "8a0ec63977966b5ee93c079b622095c5", "fusion_lat": 0.0, "fusion_lon": 0.0, "bike_id": "8a0ec63977966b5ee93c079b622095c5", "rental_uris": {"ios": "https://dc.lft.to/lastmile_qr_scan", "android": "https://dc.lft.to/lastmile_qr_scan"}, "type": "electric_scooter", "lat": 38.897789333333336, "is_disabled": 0, "lon": -76.97100383333333, "is_reserved": 0}, {"name": "3199ce430de3f7843e3f5a5cf1fe77fd", "fusion_lat": 0.0, "fusion_lon": 0.0, "bike_id": "3199ce430de3f7843e3f5a5cf1fe77fd", "rental_uris": {"ios": "https://dc.lft.to/lastmile_qr_scan", "android": "https://dc.lft.to/lastmile_qr_scan"}, "type": "electric_scooter", "lat": 38.89530366666666, "is_disabled": 0, "lon": -77.00343383333333, "is_reserved": 0}, {"name": "649bd04fdb66b2127ae961f24dc55a12", "fusion_lat": 0.0, "fusion_lon": 0.0, "bike_id": "649bd04fdb66b2127ae961f24dc55a12", "rental_uris": {"ios": "https://dc.lft.to/lastmile_qr_scan", "android": "https://dc.lft.to/lastmile_qr_scan"}, "type": "electric_scooter", "lat": 38.905390833333335, "is_disabled": 0, "lon": -77.04756, "is_reserved": 0}, {"name": "1704b5d9d12c579f616d405bf5a3be71", "fusion_lat": 0.0, "fusion_lon": 0.0, "bike_id": "1704b5d9d12c579f616d405bf5a3be71", "rental_uris": {"ios": "https://dc.lft.to/lastmile_qr_scan", "android": "https://dc.lft.to/lastmile_qr_scan"}, "type": "electric_scooter", "lat": 38.897491, "is_disabled": 0, "lon": -77.0159855, "is_reserved": 0}, {"name": "f8525b931ac2615ec21c1194e1a15185", "fusion_lat": 0.0, "fusion_lon": 0.0, "bike_id": "f8525b931ac2615ec21c1194e1a15185", "rental_uris": {"ios": "https://dc.lft.to/lastmile_qr_scan", "android": "https://dc.lft.to/lastmile_qr_scan"}, "type": "electric_scooter", "lat": 38.924220166666665, "is_disabled": 0, "lon": -77.03541, "is_reserved": 0}, {"name": "99c95f41bba940e04ba1a681d1045604", "fusion_lat": 0.0, "fusion_lon": 0.0, "bike_id": "99c95f41bba940e04ba1a681d1045604", "rental_uris": {"ios": "https://dc.lft.to/lastmile_qr_scan", "android": "https://dc.lft.to/lastmile_qr_scan"}, "type": "electric_scooter", "lat": 38.899032, "is_disabled": 0, "lon": -77.03282216666666, "is_reserved": 0}, {"name": "6bb134aec4656e36b45d6b80c43c5a71", "fusion_lat": 0.0, "fusion_lon": 0.0, "bike_id": "6bb134aec4656e36b45d6b80c43c5a71", "rental_uris": {"ios": "https://dc.lft.to/lastmile_qr_scan", "android": "https://dc.lft.to/lastmile_qr_scan"}, "type": "electric_scooter", "lat": 38.921439, "is_disabled": 0, "lon": -77.02961366666666, "is_reserved": 0}, {"name": "96aecf6efd9cf878f344e9fc251e10ff", "fusion_lat": 0.0, "fusion_lon": 0.0, "bike_id": "96aecf6efd9cf878f344e9fc251e10ff", "rental_uris": {"ios": "https://dc.lft.to/lastmile_qr_scan", "android": "https://dc.lft.to/lastmile_qr_scan"}, "type": "electric_scooter", "lat": 38.899213833333334, "is_disabled": 0, "lon": -77.027933, "is_reserved": 0}, {"name": "54bb55de0ac8eac158e4e4aa2d29627b", "fusion_lat": 0.0, "fusion_lon": 0.0, "bike_id": "54bb55de0ac8eac158e4e4aa2d29627b", "rental_uris": {"ios": "https://dc.lft.to/lastmile_qr_scan", "android": "https://dc.lft.to/lastmile_qr_scan"}, "type": "electric_scooter", "lat": 38.914239333333335, "is_disabled": 0, "lon": -77.03203433333333, "is_reserved": 0}, {"name": "3f36fe731fa2b2c0df60d4b84d8ccd95", "fusion_lat": 0.0, "fusion_lon": 0.0, "bike_id": "3f36fe731fa2b2c0df60d4b84d8ccd95", "rental_uris": {"ios": "https://dc.lft.to/lastmile_qr_scan", "android": "https://dc.lft.to/lastmile_qr_scan"}, "type": "electric_scooter", "lat": 38.88529333333334, "is_disabled": 0, "lon": -76.9269825, "is_reserved": 0}, {"name": "0e05b13771b140178d1a17549acd2bd3", "fusion_lat": 0.0, "fusion_lon": 0.0, "bike_id": "0e05b13771b140178d1a17549acd2bd3", "rental_uris": {"ios": "https://dc.lft.to/lastmile_qr_scan", "android": "https://dc.lft.to/lastmile_qr_scan"}, "type": "electric_bike", "lat": 38.90227, "is_disabled": 0, "lon": -77.043541, "is_reserved": 0}, {"name": "4d0defc45dfba99085b274583a854e2b", "fusion_lat": 0.0, "fusion_lon": 0.0, "bike_id": "4d0defc45dfba99085b274583a854e2b", "rental_uris": {"ios": "https://dc.lft.to/lastmile_qr_scan", "android": "https://dc.lft.to/lastmile_qr_scan"}, "type": "electric_scooter", "lat": 38.933379333333335, "is_disabled": 0, "lon": -77.0413135, "is_reserved": 0}, {"name": "34039e4254de3ec7f894b51e2becbc00", "fusion_lat": 0.0, "fusion_lon": 0.0, "bike_id": "34039e4254de3ec7f894b51e2becbc00", "rental_uris": {"ios": "https://dc.lft.to/lastmile_qr_scan", "android": "https://dc.lft.to/lastmile_qr_scan"}, "type": "electric_scooter", "lat": 38.86736066666667, "is_disabled": 0, "lon": -76.97943333333333, "is_reserved": 0}, {"name": "cdb42474a8994be27391b31467deaef6", "fusion_lat": 0.0, "fusion_lon": 0.0, "bike_id": "cdb42474a8994be27391b31467deaef6", "rental_uris": {"ios": "https://dc.lft.to/lastmile_qr_scan", "android": "https://dc.lft.to/lastmile_qr_scan"}, "type": "electric_scooter", "lat": 38.923216833333335, "is_disabled": 0, "lon": -77.04624, "is_reserved": 0}, {"name": "6fdddf71bd40f3a075c10c9907238a8e", "fusion_lat": 0.0, "fusion_lon": 0.0, "bike_id": "6fdddf71bd40f3a075c10c9907238a8e", "rental_uris": {"ios": "https://dc.lft.to/lastmile_qr_scan", "android": "https://dc.lft.to/lastmile_qr_scan"}, "type": "electric_scooter", "lat": 38.918217, "is_disabled": 0, "lon": -77.012091, "is_reserved": 0}, {"name": "9b34fa7ce7cf8de0e2011acb980937d8", "fusion_lat": 0.0, "fusion_lon": 0.0, "bike_id": "9b34fa7ce7cf8de0e2011acb980937d8", "rental_uris": {"ios": "https://dc.lft.to/lastmile_qr_scan", "android": "https://dc.lft.to/lastmile_qr_scan"}, "type": "electric_bike", "lat": 38.936873166666665, "is_disabled": 0, "lon": -77.0270005, "is_reserved": 0}, {"name": "a12d3ad022c8b79afb112a5b6dc287aa", "fusion_lat": 0.0, "fusion_lon": 0.0, "bike_id": "a12d3ad022c8b79afb112a5b6dc287aa", "rental_uris": {"ios": "https://dc.lft.to/lastmile_qr_scan", "android": "https://dc.lft.to/lastmile_qr_scan"}, "type": "electric_bike", "lat": 38.902878666666666, "is_disabled": 0, "lon": -76.929316, "is_reserved": 0},