{"data": {"bikes": [{"name": "4f22c4ecad4d467041815ee449551d7e", "fusion_lat": 0.0, "fusion_lon": 0.0, "bike_id": "4f22c4ecad4d467041815ee449551d7e", "rental_uris": {"ios": "https://dc.lft.to/lastmile_qr_scan", "android": "https://dc.lft.to/lastmile_qr_scan"}, "type": "electric_scooter", "lat": 38.90539483333333, "is_disabled": 0, "lon": -77.05914116666666, "is_reserved": 0}, {"name": "de84e449299804b76bd04a2b3c033c4c", "fusion_lat": 0.0, "fusion_lon": 0.0, "bike_id": "de84e449299804b76bd04a2b3c033c4c", "rental_uris": {"ios": "https://dc.lft.to/lastmile_qr_scan", "android": "https://dc.lft.to/lastmile_qr_scan"}, "type": "electric_bike", "lat": 38.99245333333333, "is_disabled": 0, "lon": -77.04974916666667, "is_reserved": 0}, {"name": "7d50522490cbb9b47109fd142c20ed00", "fusion_lat": 0.0, "fusion_lon": 0.0, "bike_id": "7d50522490cbb9b47109fd142c20ed00", "rental_uris": {"ios": "https://dc.lft.to/lastmile_qr_scan", "android": "https://dc.lft.to/lastmile_qr_scan"}, "type": "electric_bike", "lat": 38.85714733333333, "is_disabled": 0, "lon": -76.98112066666667, "is_reserved": 0}, {"name": "50dfaf2c718474479d627a85138adb4e", "fusion_lat": 0.0, "fusion_lon": 0.0, "bike_id": "50dfaf2c718474479d627a85138adb4e", "rental_uris": {"ios": "https://dc.lft.to/lastmile_qr_scan", "android": "https://dc.lft.to/lastmile_qr_scan"}, "type": "electric_scooter", "lat": 38.91569966666667, "is_disabled": 0, "lon": -77.04675666666667, "is_reserved": 0}, {"name": "a0436e35fb8b3e374d885e89c059d6f6", "fusion_lat": 0.0, "fusion_lon": 0.0, "bike_id": "a0436e35fb8b3e374d885e89c059d6f6", "rental_uris": {"ios": "https://dc.lft.to/lastmile_qr_scan", "android": "https://dc.lft.to/lastmile_qr_scan"}, "type": "electric_scooter", "lat": 38.838112833333334, "is_disabled": 0, "lon": -77.00434733333333, "is_reserved": 0}, {"name": "fbf01d430563255715629fb503e964b8", "fusion_lat": 0.0, "fusion_lon": 0.0, "bike_id": "fbf01d430563255715629fb503e964b8", "rental_uris": {"ios": "https://dc.lft.to/lastmile_qr_scan", "android": "https://dc.lft.to/lastmile_qr_scan"}, "type": "electric_scooter", "lat": 38.9304785, "is_disabled": 0, "lon": -77.00416166666666, "is_reserved": 0}, {"name": "d5d0abde837fe95216f67405af45f95d", "fusion_lat": 0.0, "fusion_lon": 0.0, "bike_id": "d5d0abde837fe95216f67405af45f95d", "rental_uris": {"ios": "https://dc.lft.to/lastmile_qr_scan", "android": "https://dc.lft.to/lastmile_qr_scan"}, "type": "electric_bike", "lat": 38.91915216666666, "is_disabled": 0, "lon": -77.07023583333333, "is_reserved": 0}, {"name": "bf4bdded5371c811752b84367f24db48", "fusion_lat": 0.0, "fusion_lon": 0.0, "bike_id": "bf4bdded5371c811752b84367f24db48", "rental_uris": {"ios": "https://dc.lft.to/lastmile_qr_scan", "android": "https://dc.lft.to/lastmile_qr_scan"}, "type": "electric_scooter", "lat": 38.94281016666667, "is_disabled": 0, "lon": -77.02347333333333, "is_reserved": 0}, {"name": "9e26fe62532c31f88d372d73d6e02d5e", "fusion_lat": 0.0, "fusion_lon": 0.0, "bike_id": "9e26fe62532c31f88d372d73d6e02d5e", "rental_uris": {"ios": "https://dc.lft.to/lastmile_qr_scan", "android": "https://dc.lft.to/lastmile_qr_scan"}, "type": "electric_scooter", "lat": 38.874693, "is_disabled": 0, "lon": -77.00993633333333, "is_reserved": 0}, {"name": "a59f194162fdf180e97fae811b7e0717", "fusion_lat": 0.0, "fusion_lon": 0.0, "bike_id": "a59f194162fdf180e97fae811b7e0717", "rental_uris": {"ios": "https://dc.lft.to/lastmile_qr_scan", "android": "https://dc.lft.to/lastmile_qr_scan"}, "type": "electric_bike", "lat": 39.115127666666666, "is_disabled": 0, "lon": -77.19545466666666, "is_reserved": 0}, {"name": "b4a6ce582bdb02d95e9fbd96db77b75e", "fusion_lat": 0.0, "fusion_lon": 0.0, "bike_id": "b4a6ce582bdb02d95e9fbd96db77b75e", "rental_uris": {"ios": "https://dc.lft.to/lastmile_qr_scan", "android": "https://dc.lft.to/lastmile_qr_scan"}, "type": "electric_scooter", "lat": 38.93082, "is_disabled": 0, "lon": -77.02797166666667, "is_reserved": 0}, {"name": "f7d0915177264f4627986b08b157a872", "fusion_lat": 0.0, "fusion_lon": 0.0, "bike_id": "f7d0915177264f4627986b08b157a872", "rental_uris": {"ios": "https://dc.lft.to/lastmile_qr_scan", "android": "https://dc.lft.to/lastmile_qr_scan"}, "type": "electric_scooter", "lat": 38.88427883333333, "is_disabled": 0, "lon": -77.02468666666667, "is_reserved": 0}, {"name": "3f32e54981b82c38ae5f39c7c3b3c12d", "fusion_lat": 0.0, "fusion_lon": 0.0, "bike_id": "3f32e54981b82c38ae5f39c7c3b3c12d", "rental_uris": {"ios": "https://dc.lft.to/lastmile_qr_scan", "android": "https://dc.lft.to/lastmile_qr_scan"}, "type": "electric_scooter", "lat": 38.89548383333333, "is_disabled": 0, "lon": -77.0153945, "is_reserved": 0}, {"name": "d0adb728271dc5aa93455663dd22d9fc", "fusion_lat": 0.0, "fusion_lon": 0.0, "bike_id": "d0adb728271dc5aa93455663dd22d9fc", "rental_uris": {"ios": "https://dc.lft.to/lastmile_qr_scan", "android": "https://dc.lft.to/lastmile_qr_scan"}, "type": "electric_scooter", "lat": 38.883208833333335, "is_disabled": 0, "lon": -76.949421, "is_reserved": 0}, {"name": "98f074e0b6e42972cd01a825b8f8e095", "fusion_lat": 0.0, "fusion_lon": 0.0, "bike_id": "98f074e0b6e42972cd01a825b8f8e095", "rental_uris": {"ios": "https://dc.lft.to/lastmile_qr_scan", "android": "https://dc.lft.to/lastmile_qr_scan"}, "type": "electric_scooter", "lat": 38.902465, "is_disabled": 0, "lon": -77.0537475, "is_reserved": 0}, {"name": "8fd84daccf636db9a8a54524072a1686", "fusion_lat": 0.0, "fusion_lon": 0.0, "bike_id": "8fd84daccf636db9a8a54524072a1686", "rental_uris": {"ios": "https://dc.lft.to/lastmile_qr_scan", "android": "https://dc.lft.to/lastmile_qr_scan"}, "type": "electric_scooter", "lat": 38.90238883333333, "is_disabled": 0, "lon": -77.0019825, "is_reserved": 0}, {"name": "e55a06ee68c48fdcd65cac712f7dcd44", "fusion_lat": 0.0, "fusion_lon": 0.0, "bike_id": "e55a06ee68c48fdcd65cac712f7dcd44", "rental_uris": {"ios": "https://dc.lft.to/lastmile_qr_scan", "android": "https://dc.lft.to/lastmile_qr_scan"}, "type": "electric_scooter", "lat": 38.91809933333333, "is_disabled": 0, "lon": -77.01016466666667, "is_reserved": 0}, {"name": "96e01db15cd095cf7cdbefc359b617e4", "fusion_lat": 0.0, "fusion_lon": 0.0, "bike_id": "96e01db15cd095cf7cdbefc359b617e4", "rental_uris": {"ios": "https://dc.lft.to/lastmile_qr_scan", "android": "https://dc.lft.to/lastmile_qr_scan"}, "type": "electric_scooter", "lat": 38.921092, "is_disabled": 0, "lon": -77.04214666666667, "is_reserved": 0}, {"name": "063c9e1499c9ec8ff30930204e68e2d2", "fusion_lat": 0.0, "fusion_lon": 0.0, "bike_id": "063c9e1499c9ec8ff30930204e68e2d2", "rental_uris": {"ios": "https://dc.lft.to/lastmile_qr_scan", "android": "https://dc.lft.to/lastmile_qr_scan"}, "type": "electric_scooter", "lat": 38.899510666666664, "is_disabled": 0, "lon": -77.02961583333334, "is_reserved": 0}, {"name": "9d47bdb9ae376dd77e545ee9e6054d3d", "fusion_lat": 0.0, "fusion_lon": 0.0, "bike_id": "9d47bdb9ae376dd77e545ee9e6054d3d", "rental_uris": {"ios": "https://dc.lft.to/lastmile_qr_scan", "android": "https://dc.lft.to/lastmile_qr_scan"}, "type": "electric_scooter", "lat": 38.89832233333333, "is_disabled": 0, "lon": -76.94633116666667, "is_reserved": 0}, {"name": "190fdcc31a7b469d0d4632f9c09d270c", "fusion_lat": 0.0, "fusion_lon": 0.0, "bike_id": "190fdcc31a7b469d0d4632f9c09d270c", "rental_uris": {"ios": "https://dc.lft.to/lastmile_qr_scan", "android": "https://dc.lft.to/lastmile_qr_scan"}, "type": "electric_scooter", "lat": 38.908227, "is_disabled": 0, "lon": -76.99709866666667, "is_reserved": 0}, {"name": "aeb1920d40ccef18ef05e5e5a1cdceec", "fusion_lat": 0.0, "fusion_lon": 0.0, "bike_id": "aeb1920d40ccef18ef05e5e5a1cdceec", "rental_uris": {"ios": "https://dc.lft.to/lastmile_qr_scan", "android": "https://dc.lft.to/lastmile_qr_scan"}, "type": "electric_bike", "lat": 38.91591716666667, "is_disabled": 0, "lon": -76.97149633333333, "is_reserved": 0}, {"name": "5d7a0b36f2933bb87a68b934a795d74c", "fusion_lat": 0.0, "fusion_lon": 0.0, "bike_id": "5d7a0b36f2933bb87a68b934a795d74c", "rental_uris": {"ios": "https://dc.lft.to/lastmile_qr_scan", "android": "https://dc.lft.to/lastmile_qr_scan"}, "type": "electric_scooter", "lat": 38.911103833333335, "is_disabled": 0, "lon": -77.0317295, "is_reserved": 0}, {"name": "0a19a8ac60bbbfa489ada5d3bc47ac13", "fusion_lat": 0.0, "fusion_lon": 0.0, "bike_id": "0a19a8ac60bbbfa489ada5d3bc47ac13", "rental_uris": {"ios": "https://dc.lft.to/lastmile_qr_scan", "android": "https://dc.lft.to/lastmile_qr_scan"}, "type": "electric_scooter", "lat": 38.924735, "is_disabled": 0, "lon": -77.03940116666666, "is_reserved": 0}, {"name": "9814a1867eddae62a7d7bc467d50ba48", "fusion_lat": 0.0, "fusion_lon": 0.0, "bike_id": "9814a1867eddae62a7d7bc467d50ba48", "rental_uris": {"ios": "https://dc.lft.to/lastmile_qr_scan", "android": "https://dc.lft.to/lastmile_qr_scan"}, "type": "electric_bike", "lat": 38.867256833333336, "is_disabled": 0, "lon": -76.9894285, "is_reserved": 0}, {"name": "889f58dfc03b6a6aa6ffe01670ecb692", "fusion_lat": 0.0, "fusion_lon": 0.0, "bike_id": "889f58dfc03b6a6aa6ffe01670ecb692", "rental_uris": {"ios": "https://dc.lft.to/lastmile_qr_scan", "android": "https://dc.lft.to/lastmile_qr_scan"}, "type": "electric_bike", "lat": 38.86906183333333, "is_disabled": 0, "lon": -77.13178833333333, "is_reserved": 0}, {"name": "af69ce3eb5ca29ce1eb9d232d1731188", "fusion_lat": 0.0, "fusion_lon": 0.0, "bike_id": "af69ce3eb5ca29ce1eb9d232d1731188", "rental_uris": {"ios": "https://dc.lft.to/lastmile_qr_scan", "android": "https://dc.lft.to/lastmile_qr_scan"}, "type": "electric_scooter", "lat": 38.905740333333334, "is_disabled": 0, "lon": -77.02207066666666, "is_reserved": 0}, {"name": "387002641949096c361202036f565726", "fusion_lat": 0.0, "fusion_lon": 0.0, "bike_id": "387002641949096c361202036f565726", "rental_uris": {"ios": "https://dc.lft.to/lastmile_qr_scan", "android": "https://dc.lft.to/lastmile_qr_scan"}, "type": "electric_scooter", "lat": 38.903955333333336, "is_disabled": 0, "lon": -77.02805266666667, "is_reserved": 0}, {"name": "482f542ae3fcb8ad01661c82ced6e3c9", "fusion_lat": 0.0, "fusion_lon": 0.0, "bike_id": "482f542ae3fcb8ad01661c82ced6e3c9", "rental_uris": {"ios": "https://dc.lft.to/lastmile_qr_scan", "android": "https://dc.lft.to/lastmile_qr_scan"}, "type": "electric_scooter", "lat": 38.88487, "is_disabled": 0, "lon": -77.0204565, "is_reserved": 0}, {"name": "472a578497b11c93180d7a0d9610d7cd", "fusion_lat": 0.0, "fusion_lon": 0.0, "bike_id": "472a578497b11c93180d7a0d9610d7cd", "rental_uris": {"ios": "https://dc.lft.to/lastmile_qr_scan", "android": "https://dc.lft.to/lastmile_qr_scan"}, "type": "electric_scooter", "lat": 38.929889833333334, "is_disabled": 0, "lon": -77.03472633333334, "is_reserved": 0}, {"name": "49afe572983b1c5a47f3bd28e74287b1", "fusion_lat": 0.0, "fusion_lon": 0.0, "bike_id": "49afe572983b1c5a47f3bd28e74287b1", "rental_uris": {"ios": "https://dc.lft.to/lastmile_qr_scan", "android": "https://dc.lft.to/lastmile_qr_scan"}, "type": "electric_scooter", "lat": 38.917012166666666, "is_disabled": 0, "lon": -77.029794, "is_reserved": 0}, {"name": "bcc2fd21be527a5d4b60b798f54a8b1d", "fusion_lat": 0.0, "fusion_lon": 0.0, "bike_id": "bcc2fd21be527a5d4b60b798f54a8b1d", "rental_uris": {"ios": "https://dc.lft.to/lastmile_qr_scan", "android": "https://dc.lft.to/lastmile_qr_scan"}, "type": "electric_bike", "lat": 38.975403166666666, "is_disabled": 0, "lon": -76.99532083333334, "is_reserved": 0}, {"name": "a0a87f71e2e1df949fd78687a1752f89", "fusion_lat": 0.0, "fusion_lon": 0.0, "bike_id": "a0a87f71e2e1df949fd78687a1752f89", "rental_uris": {"ios": "https://dc.lft.to/lastmile_qr_scan", "android": "https://dc.lft.to/lastmile_qr_scan"}, "type": "electric_scooter", "lat": 38.90888233333333, "is_disabled": 0, "lon": -77.03389216666666, "is_reserved": 0}, {"name": "392bf3bcffd78a99b94819760ba8d871", "fusion_lat": 0.0, "fusion_lon": 0.0, "bike_id": "392bf3bcffd78a99b94819760ba8d871", "rental_uris": {"ios": "https://dc.lft.to/lastmile_qr_scan", "android": "https://dc.lft.to/lastmile_qr_scan"}, "type": "electric_scooter", "lat": 38.91317433333333, "is_disabled": 0, "lon": -77.0624975, "is_reserved": 0}, {"name": "9750d273e3c70713872b7960327ae4c2", "fusion_lat": 0.0, "fusion_lon": 0.0, "bike_id": "9750d273e3c70713872b7960327ae4c2", "rental_uris": {"ios": "https://dc.lft.to/lastmile_qr_scan", "android": "https://dc.lft.to/lastmile_qr_scan"}, "type": "electric_scooter", "lat": 38.88744366666667, "is_disabled": 0, "lon": -77.01533816666667, "is_reserved": 0}, {"name": "f4df5426036ec66e219d44e2b15b27ff", "fusion_lat": 0.0, "fusion_lon": 0.0, "bike_id": "f4df5426036ec66e219d44e2b15b27ff", "rental_uris": {"ios": "https://dc.lft.to/lastmile_qr_scan", "android": "https://dc.lft.to/lastmile_qr_scan"}, "type": "electric_bike", "lat": 38.88109466666667, "is_disabled": 0, "lon": -77.01770266666666, "is_reserved": 0}, {"name": "4700a623f80c398b4bd8f17bb27dc7f5", "fusion_lat": 0.0, "fusion_lon": 0.0, "bike_id": "4700a623f80c398b4bd8f17bb27dc7f5", "rental_uris": {"ios": "https://dc.lft.to/lastmile_qr_scan", "android": "https://dc.lft.to/lastmile_qr_scan"}, "type": "electric_scooter", "lat": 38.9013945, "is_disabled": 0, "lon": -77.04153, "is_reserved": 0}, {"name": "53704ca764bfcd762e31519ba8aa6656", "fusion_lat": 0.0, "fusion_lon": 0.0, "bike_id": "53704ca764bfcd762e31519ba8aa6656", "rental_uris": {"ios": "https://dc.lft.to/lastmile_qr_scan", "android": "https://dc.lft.to/lastmile_qr_scan"}, "type": "electric_scooter", "lat": 38.885459833333336, "is_disabled": 0, "lon": -77.00595833333334, "is_reserved": 0}, {"name": "9da602c23dee525dac3ce2d03d76c9ad", "fusion_lat": 0.0, "fusion_lon": 0.0, "bike_id": "9da602c23dee525dac3ce2d03d76c9ad", "rental_uris": {"ios": "https://dc.lft.to/lastmile_qr_scan", "android": "https://dc.lft.to/lastmile_qr_scan"}, "type": "electric_scooter", "lat": 38.93873333333333, "is_disabled": 0, "lon": -77.03223683333333, "is_reserved": 0}, {"name": "d024ee11c7d80a44a01aeba6e8bace90", "fusion_lat": 0.0, "fusion_lon": 0.0, "bike_id": "d024ee11c7d80a44a01aeba6e8bace90", "rental_uris": {"ios": "https://dc.lft.to/lastmile_qr_scan", "android": "https://dc.lft.to/lastmile_qr_scan"}, "type": "electric_scooter", "lat": 38.895390166666665, "is_disabled": 0, "lon": -77.0162635, "is_reserved": 0}, {"name": "80d79d762cfc291de46bb28b1a5b43ec", "fusion_lat": 0.0, "fusion_lon": 0.0, "bike_id": "80d79d762cfc291de46bb28b1a5b43ec", "rental_uris": {"ios": "https://dc.lft.to/lastmile_qr_scan", "android": "https://dc.lft.to/lastmile_qr_scan"}, "type": "electric_scooter", "lat": 38.904595666666665, "is_disabled": 0, "lon": -77.02821366666667, "is_reserved": 0}, {"name": "5f85240ab4629bb70b3c1caeae33228c", "fusion_lat": 0.0, "fusion_lon": 0.0, "bike_id": "5f85240ab4629bb70b3c1caeae33228c", "rental_uris": {"ios": "https://dc.lft.to/lastmile_qr_scan", "android": "https://dc.lft.to/lastmile_qr_scan"}, "type": "electric_scooter", "lat": 38.87664616666667, "is_disabled": 0, "lon": -77.00946, "is_reserved": 0}, {"name": "a98f9e764ed24e2c30c8e7b6f1f4b765", "fusion_lat": 0.0, "fusion_lon": 0.0, "bike_id": "a98f9e764ed24e2c30c8e7b6f1f4b765", "rental_uris": {"ios": "https://dc.lft.to/lastmile_qr_scan", "android": "https://dc.lft.to/lastmile_qr_scan"}, "type": "electric_scooter", "lat": 38.90968316666667, "is_disabled": 0, "lon": -77.039543, "is_reserved": 0}, {"name": "7af720efa53258f203ec1c035fa7bee0", "fusion_lat": 0.0, "fusion_lon": 0.0, "bike_id": "7af720efa53258f203ec1c035fa7bee0", "rental_uris": {"ios": "https://dc.lft.to/lastmile_qr_scan", "android": "https://dc.lft.to/lastmile_qr_scan"}, "type": "electric_scooter", "lat": 38.92725433333333, "is_disabled": 0, "lon": -77.02279866666667, "is_reserved": 0}, {"name": "fc10dfb9cca47d174462650fe8e0eb02", "fusion_lat": 0.0, "fusion_lon": 0.0, "bike_id": "fc10dfb9cca47d174462650fe8e0eb02", "rental_uris": {"ios": "https://dc.lft.to/lastmile_qr_scan", "android": "https://dc.lft.to/lastmile_qr_scan"}, "type": "electric_bike", "lat": 38.948922, "is_disabled": 0, "lon": -76.96371883333333, "is_reserved": 0}, {"name": "fd168a1268afdb568cc74905b78cd95e", "fusion_lat": 0.0, "fusion_lon": 0.0, "bike_id": "fd168a1268afdb568cc74905b78cd95e", "rental_uris": {"ios": "https://dc.lft.to/lastmile_qr_scan", "android": "https://dc.lft.to/lastmile_qr_scan"}, "type": "electric_scooter", "lat": 38.92669133333333, "is_disabled": 0, "lon": -77.01499933333334, "is_reserved": 0}, {"name": "fd22945885571fe9242e6caecd1b34b8", "fusion_lat": 0.0, "fusion_lon": 0.0, "bike_id": "fd22945885571fe9242e6caecd1b34b8", "rental_uris": {"ios": "https://dc.lft.to/lastmile_qr_scan", "android": "https://dc.lft.to/lastmile_qr_scan"}, "type": "electric_scooter", "lat": 38.86504083333333, "is_disabled": 0, "lon": -76.990008, "is_reserved": 0}, {"name": "41b10d71d7876ec3875d552369959953", "fusion_lat": 0.0, "fusion_lon": 0.0, "bike_id": "41b10d71d7876ec3875d552369959953", "rental_uris": {"ios": "https://dc.lft.to/lastmile_qr_scan", "android": "https://dc.lft.to/lastmile_qr_scan"}, "type": "electric_bike", "lat": 39.05267216666667, "is_disabled": 0, "lon": -77.04388466666667, "is_reserved": 0}, {"name": "3be98136487429ac46f1dc86b4cb0027", "fusion_lat": 0.0, "fusion_lon": 0.0, "bike_id": "3be98136487429ac46f1dc86b4cb0027", "rental_uris": {"ios": "https://dc.lft.to/lastmile_qr_scan", "android": "https://dc.lft.to/lastmile_qr_scan"}, "type": "electric_scooter", "lat": 38.89944466666667, "is_disabled": 0, "lon": -77.0478675, "is_reserved": 0}, {"name": "7a0e0cd5722f99b60a6fe646c4a4dfe0", "fusion_lat": 0.0, "fusion_lon": 0.0, "bike_id": "7a0e0cd5722f99b60a6fe646c4a4dfe0", "rental_uris": {"ios": "https://dc.lft.to/lastmile_qr_scan", "android": "https://dc.lft.to/lastmile_qr_scan"}, "type": "electric_scooter", "lat": 38.89481383333333, "is_disabled": 0, "lon": -76.99413633333333, "is_reserved": 0}, {"name": "a0ed619a166a745126205570eb99485b", "fusion_lat": 0.0, "fusion_lon": 0.0, "bike_id": "a0ed619a166a745126205570eb99485b", "rental_uris": {"ios": "https://dc.lft.to/lastmile_qr_scan", "android": "https://dc.lft.to/lastmile_qr_scan"}, "type": "electric_scooter", "lat": 38.91838283333333, "is_disabled": 0, "lon": -77.031693, "is_reserved": 0}, {"name": "3a089a8db0c77d4caa184a77f36fe955", "fusion_lat": 0.0, "fusion_lon": 0.0, "bike_id": "3a089a8db0c77d4caa184a77f36fe955", "rental_uris": {"ios": "https://dc.lft.to/lastmile_qr_scan", "android": "https://dc.lft.to/lastmile_qr_scan"}, "type": "electric_scooter", "lat": 38.89680033333333, "is_disabled": 0, "lon": -76.996355, "is_reserved": 0}, {"name": "fa582a805e059156652956598069aa35", "fusion_lat": 0.0, "fusion_lon": 0.0, "bike_id": "fa582a805e059156652956598069aa35", "rental_uris": {"ios": "https://dc.lft.to/lastmile_qr_scan", "android": "https://dc.lft.to/lastmile_qr_scan"}, "type": "electric_scooter", "lat": 38.9033655, "is_disabled": 0, "lon": -77.01614016666667, "is_reserved": 0}, {"name": "b948c1b80b0020890ddd2ccc8bb92ad3", "fusion_lat": 0.0, "fusion_lon": 0.0, "bike_id": "b948c1b80b0020890ddd2ccc8bb92ad3", "rental_uris": {"ios": "https://dc.lft.to/lastmile_qr_scan", "android": "https://dc.lft.to/lastmile_qr_scan"}, "type": "electric_scooter", "lat": 38.92812683333333, "is_disabled": 0, "lon": -77.00575083333334, "is_reserved": 0}, {"name": "54d3ad8244a65b86426e5f3388ee896b", "fusion_lat": 0.0, "fusion_lon": 0.0, "bike_id": "54d3ad8244a65b86426e5f3388ee896b", "rental_uris": {"ios": "https://dc.lft.to/lastmile_qr_scan", "android": "https://dc.lft.to/lastmile_qr_scan"}, "type": "electric_scooter", "lat": 38.863548333333334, "is_disabled": 0, "lon": -76.990549, "is_reserved": 0}, {"name": "7eb2d71837ac980f1c079a9e7f778fe4", "fusion_lat": 0.0, "fusion_lon": 0.0, "bike_id": "7eb2d71837ac980f1c079a9e7f778fe4", "rental_uris": {"ios": "https://dc.lft.to/lastmile_qr_scan", "android": "https://dc.lft.to/lastmile_qr_scan"}, "type": "electric_scooter", "lat": 38.89486216666667, "is_disabled": 0, "lon": -76.99515533333333, "is_reserved": 0}, {"name": "f09e4ee89484cb9fb4113078a39fba39", "fusion_lat": 0.0, "fusion_lon": 0.0, "bike_id": "f09e4ee89484cb9fb4113078a39fba39", "rental_uris": {"ios": "https://dc.lft.to/lastmile_qr_scan", "android": "https://dc.lft.to/lastmile_qr_scan"}, "type": "electric_scooter", "lat": 38.848820833333335, "is_disabled": 0, "lon": -77.00514216666667, "is_reserved": 0}, {"name": "3f460949f22462199e951f53d923ee06", "fusion_lat": 0.0, "fusion_lon": 0.0, "bike_id": "3f460949f22462199e951f53d923ee06", "rental_uris": {"ios": "https://dc.lft.to/lastmile_qr_scan", "android": "https://dc.lft.to/lastmile_qr_scan"}, "type": "electric_scooter", "lat": 38.91542366666667, "is_disabled": 0, "lon": -77.02204633333334, "is_reserved": 0}, {"name": "1ba106b3cfa775a29f2e4bd029270658", "fusion_lat": 0.0, "fusion_lon": 0.0, "bike_id": "1ba106b3cfa775a29f2e4bd029270658", "rental_uris": {"ios": "https://dc.lft.to/lastmile_qr_scan", "android": "https://dc.lft.to/lastmile_qr_scan"}, "type": "electric_scooter", "lat": 38.9003655, "is_disabled": 0, "lon": -76.99963, "is_reserved": 0}, {"name": "947e93a658818eaf8cf2ce3c2f2b6a33", "fusion_lat": 0.0, "fusion_lon": 0.0, "bike_id": "947e93a658818eaf8cf2ce3c2f2b6a33", "rental_uris": {"ios": "https://dc.lft.to/lastmile_qr_scan", "android": "https://dc.lft.to/lastmile_qr_scan"}, "type": "electric_scooter", "lat": 38.91452366666667, "is_disabled": 0, "lon": -77.0220555, "is_reserved": 0}, {"name": "d8e84b6763baa41cb25b0d83628801ef", "fusion_lat": 0.0, "fusion_lon": 0.0, "bike_id": "d8e84b6763baa41cb25b0d83628801ef", "rental_uris": {"ios": "https://dc.lft.to/lastmile_qr_scan", "android": "https://dc.lft.to/lastmile_qr_scan"}, "type": "electric_bike", "lat": 38.94152966666667, "is_disabled": 0, "lon": -77.00193533333334, "is_reserved": 0}, {"name": "416a92f6c2a0f8e7351e0f4494786968", "fusion_lat": 0.0, "fusion_lon": 0.0, "bike_id": "416a92f6c2a0f8e7351e0f4494786968", "rental_uris": {"ios": "https://dc.lft.to/lastmile_qr_scan", "android": "https://dc.lft.to/lastmile_qr_scan"}, "type": "electric_scooter", "lat": 38.918162, "is_disabled": 0, "lon": -77.0415265, "is_reserved": 0}, {"name": "614da89617b4b7885bdc25a2a00ec449", "fusion_lat": 0.0, "fusion_lon": 0.0, "bike_id": "614da89617b4b7885bdc25a2a00ec449", "rental_uris": {"ios": "https://dc.lft.to/lastmile_qr_scan", "android": "https://dc.lft.to/lastmile_qr_scan"}, "type": "electric_scooter", "lat": 38.910099, "is_disabled": 0, "lon": -77.013824, "is_reserved": 0}, {"name": "bbc93591910f879aa431c056863c350f", "fusion_lat": 0.0, "fusion_lon": 0.0, "bike_id": "bbc93591910f879aa431c056863c350f", "rental_uris": {"ios": "https://dc.lft.to/lastmile_qr_scan", "android": "https://dc.lft.to/lastmile_qr_scan"}, "type": "electric_scooter", "lat": 38.877804833333336, "is_disabled": 0, "lon": -77.0143615, "is_reserved": 0}, {"name": "8c85187eaec7b11770bacea828477300", "fusion_lat": 0.0, "fusion_lon": 0.0, "bike_id": "8c85187eaec7b11770bacea828477300", "rental_uris": {"ios": "https://dc.lft.to/lastmile_qr_scan", "android": "https://dc.lft.to/lastmile_qr_scan"}, "type": "electric_scooter", "lat": 38.9260315, "is_disabled": 0, "lon": -77.02155666666667, "is_reserved": 0}, {"name": "55d518a544e56646f844c2fca9ddad23", "fusion_lat": 0.0, "fusion_lon": 0.0, "bike_id": "55d518a544e56646f844c2fca9ddad23", "rental_uris": {"ios": "https://dc.lft.to/lastmile_qr_scan", "android": "https://dc.lft.to/lastmile_qr_scan"}, "type": "electric_scooter", "lat": 38.8849635, "is_disabled": 0, "lon": -77.00712816666666, "is_reserved": 0}, {"name": "a0a4c7bb76d147b2cf0b6a01531fa63d", "fusion_lat": 0.0, "fusion_lon": 0.0, "bike_id": "a0a4c7bb76d147b2cf0b6a01531fa63d", "rental_uris": {"ios": "https://dc.lft.to/lastmile_qr_scan", "android": "https://dc.lft.to/lastmile_qr_scan"}, "type": "electric_scooter", "lat": 38.918519833333335, "is_disabled": 0, "lon": -77.02592033333333, "is_reserved": 0}, {"name": "44200c2c706121deaf644471617d0d40", "fusion_lat": 0.0, "fusion_lon": 0.0, "bike_id": "44200c2c706121deaf644471617d0d40", "rental_uris": {"ios": "https://dc.lft.to/lastmile_qr_scan", "android": "https://dc.lft.to/lastmile_qr_scan"}, "type": "electric_scooter", "lat": 38.8978155, "is_disabled": 0, "lon": -77.024936, "is_reserved": 0}, {"name": "82be823370324cc6751b6ff5fe1c72ab", "fusion_lat": 0.0, "fusion_lon": 0.0, "bike_id": "82be823370324cc6751b6ff5fe1c72ab", "rental_uris": {"ios": "https://dc.lft.to/lastmile_qr_scan", "android": "https://dc.lft.to/lastmile_qr_scan"}, "type": "electric_scooter", "lat": 38.91692166666667, "is_disabled": 0, "lon": -77.0349205, "is_reserved": 0}, {"name": "600c84100921bee543443606fde18016", "fusion_lat": 0.0, "fusion_lon": 0.0, "bike_id": "600c84100921bee543443606fde18016", "rental_uris": {"ios": "https://dc.lft.to/lastmile_qr_scan", "android": "https://dc.lft.to/lastmile_qr_scan"}, "type": "electric_scooter", "lat": 38.88549066666667, "is_disabled": 0, "lon": -77.00600316666667, "is_reserved": 0}, {"name": "2675a712807cf2e2e332e61a0272f2a3", "fusion_lat": 0.0, "fusion_lon": 0.0, "bike_id": "2675a712807cf2e2e332e61a0272f2a3", "rental_uris": {"ios": "https://dc.lft.to/lastmile_qr_scan", "android": "https://dc.lft.to/lastmile_qr_scan"}, "type": "electric_scooter", "lat": 38.92577283333333, "is_disabled": 0, "lon": -77.03100716666667, "is_reserved": 0}, {"name": "266bdf3089673eef71316f55af18d4af", "fusion_lat": 0.0, "fusion_lon": 0.0, "bike_id": "266bdf3089673eef71316f55af18d4af", "rental_uris": {"ios": "https://dc.lft.to/lastmile_qr_scan", "android": "https://dc.lft.to/lastmile_qr_scan"}, "type": "electric_scooter", "lat": 38.95640616666667, "is_disabled": 0, "lon": -77.0149185, "is_reserved": 0}, {"name": "1206d3dd43ee55f73374b2d7b4efe409", "fusion_lat": 0.0, "fusion_lon": 0.0, "bike_id": "1206d3dd43ee55f73374b2d7b4efe409", "rental_uris": {"ios": "https://dc.lft.to/lastmile_qr_scan", "android": "https://dc.lft.to/lastmile_qr_scan"}, "type": "electric_scooter", "lat": 38.923597, "is_disabled": 0, "lon": -77.04389116666667, "is_reserved": 0}, {"name": "2c45c25dd67dd137703b58608dc448d3", "fusion_lat": 0.0, "fusion_lon": 0.0, "bike_id": "2c45c25dd67dd137703b58608dc448d3", "rental_uris": {"ios": "https://dc.lft.to/lastmile_qr_scan", "android": "https://dc.lft.to/lastmile_qr_scan"}, "type": "electric_scooter", "lat": 38.90148966666667, "is_disabled": 0, "lon": -77.03220833333333, "is_reserved": 0}, {"name": "36afcf7a1f5a56e046cec288f8c6b970", "fusion_lat": 0.0, "fusion_lon": 0.0, "bike_id": "36afcf7a1f5a56e046cec288f8c6b970", "rental_uris": {"ios": "https://dc.lft.to/lastmile_qr_scan", "android": "https://dc.lft.to/lastmile_qr_scan"}, "type": "electric_scooter", "lat": 38.90052583333333, "is_disabled": 0, "lon": -77.00067883333334, "is_reserved": 0}, {"name": "0c4285efb722181116c924f5ecccccd8", "fusion_lat": 0.0, "fusion_lon": 0.0, "bike_id": "0c4285efb722181116c924f5ecccccd8", "rental_uris": {"ios": "https://dc.lft.to/lastmile_qr_scan", "android": "https://dc.lft.to/lastmile_qr_scan"}, "type": "electric_scooter", "lat": 38.9226685, "is_disabled": 0, "lon": -77.0195145, "is_reserved": 0}, {"name": "fbead3e400d0ce7708b6df38492ad781", "fusion_lat": 0.0, "fusion_lon": 0.0, "bike_id": "fbead3e400d0ce7708b6df38492ad781", "rental_uris": {"ios": "https://dc.lft.to/lastmile_qr_scan", "android": "https://dc.lft.to/lastmile_qr_scan"}, "type": "electric_scooter", "lat": 38.92335033333333, "is_disabled": 0, "lon": -77.03515666666667, "is_reserved": 0}, {"name": "4c777b86e69a76c5ebbe3ce98376ce39", "fusion_lat": 0.0, "fusion_lon": 0.0, "bike_id": "4c777b86e69a76c5ebbe3ce98376ce39", "rental_uris": {"ios": "https://dc.lft.to/lastmile_qr_scan", "android": "https://dc.lft.to/lastmile_qr_scan"}, "type": "electric_scooter", "lat": 38.895306833333336, "is_disabled": 0, "lon": -76.98373233333334, "is_reserved": 0}, {"name": "d354d6195027b873d9fa4d958327c334", "fusion_lat": 0.0, "fusion_lon": 0.0, "bike_id": "d354d6195027b873d9fa4d958327c334", "rental_uris": {"ios": "https://dc.lft.to/lastmile_qr_scan", "android": "https://dc.lft.to/lastmile_qr_scan"}, "type": "electric_bike", "lat": 38.935597, "is_disabled": 0, "lon": -77.03699133333333, "is_reserved": 0}, {"name": "e9ad4ed1efb5b5cd21e142fb5dff0cee", "fusion_lat": 0.0, "fusion_lon": 0.0, "bike_id": "e9ad4ed1efb5b5cd21e142fb5dff0cee", "rental_uris": {"ios": "https://dc.lft.to/lastmile_qr_scan", "android": "https://dc.lft.to/lastmile_qr_scan"}, "type": "electric_scooter", "lat": 38.884944833333336, "is_disabled": 0, "lon": -77.0071375, "is_reserved": 0}, {"name": "b3376a8531688c8a3aa4ced565f80fb8", "fusion_lat": 0.0, "fusion_lon": 0.0, "bike_id": "b3376a8531688c8a3aa4ced565f80fb8", "rental_uris": {"ios": "https://dc.lft.to/lastmile_qr_scan", "android": "https://dc.lft.to/lastmile_qr_scan"}, "type": "electric_scooter", "lat": 38.93972433333333, "is_disabled": 0, "lon": -77.032058, "is_reserved": 0}, {"name": "b7631756c1555e1d272201948bc71a5a", "fusion_lat": 0.0, "fusion_lon": 0.0, "bike_id": "b7631756c1555e1d272201948bc71a5a", "rental_uris": {"ios": "https://dc.lft.to/lastmile_qr_scan", "android": "https://dc.lft.to/lastmile_qr_scan"}, "type": "electric_scooter", "lat": 38.914213, "is_disabled": 0, "lon": -77.041554, "is_reserved": 0}, {"name": "fab801b8203c85da826c0ad10326b041", "fusion_lat": 0.0, "fusion_lon": 0.0, "bike_id": "fab801b8203c85da826c0ad10326b041", "rental_uris": {"ios": "https://dc.lft.to/lastmile_qr_scan", "android": "https://dc.lft.to/lastmile_qr_scan"}, "type": "electric_scooter", "lat": 38.9284715, "is_disabled": 0, "lon": -77.032808, "is_reserved": 0}, {"name": "d0176ccdd28ff6acd088c3b89077d828", "fusion_lat": 0.0, "fusion_lon": 0.0, "bike_id": "d0176ccdd28ff6acd088c3b89077d828", "rental_uris": {"ios": "https://dc.lft.to/lastmile_qr_scan", "android": "https://dc.lft.to/lastmile_qr_scan"}, "type": "electric_scooter", "lat": 38.918361833333336, "is_disabled": 0, "lon": -76.96550266666667, "is_reserved": 0}, {"name": "0b72b9b1aade8aeb53db4a7eb7d09151", "fusion_lat": 0.0, "fusion_lon": 0.0, "bike_id": "0b72b9b1aade8aeb53db4a7eb7d09151", "rental_uris": {"ios": "https://dc.lft.to/lastmile_qr_scan", "android": "https://dc.lft.to/lastmile_qr_scan"}, "type": "electric_bike", "lat": 38.84846066666667, "is_disabled": 0, "lon": -77.080386, "is_reserved": 0}, {"name": "ba8d7be7e6bf284933ea4d6b7c2ee4df", "fusion_lat": 0.0, "fusion_lon": 0.0, "bike_id": "ba8d7be7e6bf284933ea4d6b7c2ee4df", "rental_uris": {"ios": "https://dc.lft.to/lastmile_qr_scan", "android": "https://dc.lft.to/lastmile_qr_scan"}, "type": "electric_scooter", "lat": 38.87574266666667, "is_disabled": 0, "lon": -77.019928, "is_reserved": 0}, {"name": "209406fb9c9bcf9b5088cb3e7a6840d8", "fusion_lat": 0.0, "fusion_lon": 0.0, "bike_id": "209406fb9c9bcf9b5088cb3e7a6840d8", "rental_uris": {"ios": "https://dc.lft.to/lastmile_qr_scan", "android": "https://dc.lft.to/lastmile_qr_scan"}, "type": "electric_scooter", "lat": 38.906695166666665, "is_disabled": 0, "lon": -77.041664, "is_reserved": 0}, {"name": "38ea28a27757bd679056ee39d1653a74", "fusion_lat": 0.0, "fusion_lon": 0.0, "bike_id": "38ea28a27757bd679056ee39d1653a74", "rental_uris": {"ios": "https://dc.lft.to/lastmile_qr_scan", "android": "https://dc.lft.to/lastmile_qr_scan"}, "type": "electric_scooter", "lat": 38.91552433333333, "is_disabled": 0, "lon": -77.0347655, "is_reserved": 0}, {"name": "8a1a6a412276dcf9cd8838745d11c20c", "fusion_lat": 0.0, "fusion_lon": 0.0, "bike_id": "8a1a6a412276dcf9cd8838745d11c20c", "rental_uris": {"ios": "https://dc.lft.to/lastmile_qr_scan", "android": "https://dc.lft.to/lastmile_qr_scan"}, "type": "electric_scooter", "lat": 38.925512166666664, "is_disabled": 0, "lon": -77.05186566666667, "is_reserved": 0}, {"name": "08d29729a925a8d27762e7ee3d26c533", "fusion_lat": 0.0, "fusion_lon": 0.0, "bike_id": "08d29729a925a8d27762e7ee3d26c533", "rental_uris": {"ios": "https://dc.lft.to/lastmile_qr_scan", "android": "https://dc.lft.to/lastmile_qr_scan"}, "type": "electric_scooter", "lat": 38.89991066666666, "is_disabled": 0, "lon": -76.99851833333334, "is_reserved": 0}, {"name": "fa4c920313c6dee2b62c582c11662efa", "fusion_lat": 0.0, "fusion_lon": 0.0, "bike_id": "fa4c920313c6dee2b62c582c11662efa", "rental_uris": {"ios": "https://dc.lft.to/lastmile_qr_scan", "android": "https://dc.lft.to/lastmile_qr_scan"}, "type": "electric_scooter", "lat": 38.88652666666667, "is_disabled": 0, "lon": -77.0338555, "is_reserved": 0}, {"name": "e6d548f9d75aedee0d9fdcb65c47ad51", "fusion_lat": 0.0, "fusion_lon": 0.0, "bike_id": "e6d548f9d75aedee0d9fdcb65c47ad51", "rental_uris": {"ios": "https://dc.lft.to/lastmile_qr_scan", "android": "https://dc.lft.to/lastmile_qr_scan"}, "type": "electric_scooter", "lat": 38.902851166666665, "is_disabled": 0, "lon": -77.038612, "is_reserved": 0}, {"name": "1fe6c0f60a697ca341a7a41bb0709dcf", "fusion_lat": 0.0, "fusion_lon": 0.0, "bike_id": "1fe6c0f60a697ca341a7a41bb0709dcf", "rental_uris": {"ios": "https://dc.lft.to/lastmile_qr_scan", "android": "https://dc.lft.to/lastmile_qr_scan"}, "type": "electric_scooter", "lat": 38.89341616666667, "is_disabled": 0, "lon": -77.04659883333333, "is_reserved": 0}, {"name": "d55161895d3f588a3a266b4abb1bbfdc", "fusion_lat": 0.0, "fusion_lon": 0.0, "bike_id": "d55161895d3f588a3a266b4abb1bbfdc", "rental_uris": {"ios": "https://dc.lft.to/lastmile_qr_scan", "android": "https://dc.lft.to/lastmile_qr_scan"}, "type": "electric_scooter", "lat": 38.8874635, "is_disabled": 0, "lon": -77.0222615, "is_reserved": 0}, {"name": "b11d31f41d73c7bb2ba6123b2a6377bf", "fusion_lat": 0.0, "fusion_lon": 0.0, "bike_id": "b11d31f41d73c7bb2ba6123b2a6377bf", "rental_uris": {"ios": "https://dc.lft.to/lastmile_qr_scan", "android": "https://dc.lft.to/lastmile_qr_scan"}, "type": "electric_scooter", "lat": 38.90427433333333, "is_disabled": 0, "lon": -77.0488655, "is_reserved": 0}, {"name": "8e0c18d7acf099df7c4f3c903f7623a5", "fusion_lat": 0.0, "fusion_lon": 0.0, "bike_id": "8e0c18d7acf099df7c4f3c903f7623a5", "rental_uris": {"ios": "https://dc.lft.to/lastmile_qr_scan", "android": "https://dc.lft.to/lastmile_qr_scan"}, "type": "electric_bike", "lat": 38.95890683333333, "is_disabled": 0, "lon": -76.966832, "is_reserved": 0}, {"name": "7fbb3fd13f204e844c5efc1ac7d774ad", "fusion_lat": 0.0, "fusion_lon": 0.0, "bike_id": "7fbb3fd13f204e844c5efc1ac7d774ad", "rental_uris": {"ios": "https://dc.lft.to/lastmile_qr_scan", "android": "https://dc.lft.to/lastmile_qr_scan"}, "type": "electric_scooter", "lat": 38.911155666666666, "is_disabled": 0, "lon": -77.03149283333333, "is_reserved": 0}, {"name": "2bc834caeb26758eec9d73ec639d39d1", "fusion_lat": 0.0, "fusion_lon": 0.0, "bike_id": "2bc834caeb26758eec9d73ec639d39d1", "rental_uris": {"ios": "https://dc.lft.to/lastmile_qr_scan", "android": "https://dc.lft.to/lastmile_qr_scan"}, "type": "electric_scooter", "lat": 38.917843500000004, "is_disabled": 0, "lon": -77.02307233333333, "is_reserved": 0}, {"name": "2135ac013728af6bf8f6852042d98e2e", "fusion_lat": 0.0, "fusion_lon": 0.0, "bike_id": "2135ac013728af6bf8f6852042d98e2e", "rental_uris": {"ios": "https://dc.lft.to/lastmile_qr_scan", "android": "https://dc.lft.to/lastmile_qr_scan"}, "type": "electric_scooter", "lat": 38.905199, "is_disabled": 0, "lon": -77.06521033333334, "is_reserved": 0}, {"name": "504eceeb3a19b9d13f4707125b1c7814", "fusion_lat": 0.0, "fusion_lon": 0.0, "bike_id": "504eceeb3a19b9d13f4707125b1c7814", "rental_uris": {"ios": "https://dc.lft.to/lastmile_qr_scan", "android": "https://dc.lft.to/lastmile_qr_scan"}, "type": "electric_scooter", "lat": 38.89678516666667, "is_disabled": 0, "lon": -76.947144, "is_reserved": 0}, {"name": "a72165d2f75f7b45205d7cf01a507533", "fusion_lat": 0.0, "fusion_lon": 0.0, "bike_id": "a72165d2f75f7b45205d7cf01a507533", "rental_uris": {"ios": "https://dc.lft.to/lastmile_qr_scan", "android": "https://dc.lft.to/lastmile_qr_scan"}, "type": "electric_scooter", "lat": 38.90603983333333, "is_disabled": 0, "lon": -77.04330766666666, "is_reserved": 0}, {"name": "4e95d6d4772e1950e05ffe637c0d7704", "fusion_lat": 0.0, "fusion_lon": 0.0, "bike_id": "4e95d6d4772e1950e05ffe637c0d7704", "rental_uris": {"ios": "https://dc.lft.to/lastmile_qr_scan", "android": "https://dc.lft.to/lastmile_qr_scan"}, "type": "electric_bike", "lat": 38.92449766666667, "is_disabled": 0, "lon": -77.00206016666667, "is_reserved": 0}, {"name": "d1f9c30607ac5d7303a55f7a86d42d27", "fusion_lat": 0.0, "fusion_lon": 0.0, "bike_id": "d1f9c30607ac5d7303a55f7a86d42d27", "rental_uris": {"ios": "https://dc.lft.to/lastmile_qr_scan", "android": "https://dc.lft.to/lastmile_qr_scan"}, "type": "electric_scooter", "lat": 38.927908, "is_disabled": 0, "lon": -77.027371, "is_reserved": 0}, {"name": "50ba90f54229b73553f63b3efd924325", "fusion_lat": 0.0, "fusion_lon": 0.0, "bike_id": "50ba90f54229b73553f63b3efd924325", "rental_uris": {"ios": "https://dc.lft.to/lastmile_qr_scan", "android": "https://dc.lft.to/lastmile_qr_scan"}, "type": "electric_bike", "lat": 38.80300166666667, "is_disabled": 0, "lon": -77.03986716666667, "is_reserved": 0}, {"name": "996342cb3a9bd679ac7e6335a25fccc7", "fusion_lat": 0.0, "fusion_lon": 0.0, "bike_id": "996342cb3a9bd679ac7e6335a25fccc7", "rental_uris": {"ios": "https://dc.lft.to/lastmile_qr_scan", "android": "https://dc.lft.to/lastmile_qr_scan"}, "type": "electric_scooter", "lat": 38.8874035, "is_disabled": 0, "lon": -77.01532666666667, "is_reserved": 0}, {"name": "af68ce767c606bb27e2e5e2ec3782bfa", "fusion_lat": 0.0, "fusion_lon": 0.0, "bike_id": "af68ce767c606bb27e2e5e2ec3782bfa", "rental_uris": {"ios": "https://dc.lft.to/lastmile_qr_scan", "android": "https://dc.lft.to/lastmile_qr_scan"}, "type": "electric_scooter", "lat": 38.91813116666667, "is_disabled": 0, "lon": -77.03563033333333, "is_reserved": 0}, {"name": "1f0713a528944b1405acc82aa7f939a7", "fusion_lat": 0.0, "fusion_lon": 0.0, "bike_id": "1f0713a528944b1405acc82aa7f939a7", "rental_uris": {"ios": "https://dc.lft.to/lastmile_qr_scan", "android": "https://dc.lft.to/lastmile_qr_scan"}, "type": "electric_scooter", "lat": 38.93496316666667, "is_disabled": 0, "lon": -77.024024, "is_reserved": 0}, {"name": "4adb6d8a0de2b0b885359a8a9b115786", "fusion_lat": 0.0, "fusion_lon": 0.0, "bike_id": "4adb6d8a0de2b0b885359a8a9b115786", "rental_uris": {"ios": "https://dc.lft.to/lastmile_qr_scan", "android": "https://dc.lft.to/lastmile_qr_scan"}, "type": "electric_scooter", "lat": 38.924817166666664, "is_disabled": 0, "lon": -77.0299675, "is_reserved": 0}, {"name": "1b034fbdfc1da7260873923da01e718a", "fusion_lat": 0.0, "fusion_lon": 0.0, "bike_id": "1b034fbdfc1da7260873923da01e718a", "rental_uris": {"ios": "https://dc.lft.to/lastmile_qr_scan", "android": "https://dc.lft.to/lastmile_qr_scan"}, "type": "electric_bike", "lat": 38.91679083333333, "is_disabled": 0, "lon": -77.0956705, "is_reserved": 0}, {"name": "9b12255b5119049e00bff9907b846172", "fusion_lat": 0.0, "fusion_lon": 0.0, "bike_id": "9b12255b5119049e00bff9907b846172", "rental_uris": {"ios": "https://dc.lft.to/lastmile_qr_scan", "android": "https://dc.lft.to/lastmile_qr_scan"}, "type": "electric_scooter", "lat": 38.906104166666665, "is_disabled": 0, "lon": -77.000615, "is_reserved": 0}, {"name": "17b58317ec2bff9f68213458c3b182c3", "fusion_lat": 0.0, "fusion_lon": 0.0, "bike_id": "17b58317ec2bff9f68213458c3b182c3", "rental_uris": {"ios": "https://dc.lft.to/lastmile_qr_scan", "android": "https://dc.lft.to/lastmile_qr_scan"}, "type": "electric_scooter", "lat": 38.908609, "is_disabled": 0, "lon": -77.0241655, "is_reserved": 0}, {"name": "ea9470c23d39c6a18af5a85e120f6daf", "fusion_lat": 0.0, "fusion_lon": 0.0, "bike_id": "ea9470c23d39c6a18af5a85e120f6daf", "rental_uris": {"ios": "https://dc.lft.to/lastmile_qr_scan", "android": "https://dc.lft.to/lastmile_qr_scan"}, "type": "electric_scooter", "lat": 38.884905833333335, "is_disabled": 0, "lon": -77.0071895, "is_reserved": 0}, {"name": "1eeb3a1dbf337fcba4a60efad84f9afc", "fusion_lat": 0.0, "fusion_lon": 0.0, "bike_id": "1eeb3a1dbf337fcba4a60efad84f9afc", "rental_uris": {"ios": "https://dc.lft.to/lastmile_qr_scan", "android": "https://dc.lft.to/lastmile_qr_scan"}, "type": "electric_scooter", "lat": 38.915504166666665, "is_disabled": 0, "lon": -76.983653, "is_reserved": 0}, {"name": "979d7b4b262ae3b26d4cc7f9e014a205", "fusion_lat": 0.0, "fusion_lon": 0.0, "bike_id": "979d7b4b262ae3b26d4cc7f9e014a205", "rental_uris": {"ios": "https://dc.lft.to/lastmile_qr_scan", "android": "https://dc.lft.to/lastmile_qr_scan"}, "type": "electric_bike", "lat": 38.9193315, "is_disabled": 0, "lon": -76.97506383333334, "is_reserved": 0}, {"name": "3ed7b37ed9c0ecdd5785186222a26feb", "fusion_lat": 0.0, "fusion_lon": 0.0, "bike_id": "3ed7b37ed9c0ecdd5785186222a26feb", "rental_uris": {"ios": "https://dc.lft.to/lastmile_qr_scan", "android": "https://dc.lft.to/lastmile_qr_scan"}, "type": "electric_scooter", "lat": 38.88988666666667, "is_disabled": 0, "lon": -77.00336866666666, "is_reserved": 0}, {"name": "c1a8991c35677e7483ef0dfffe38091e", "fusion_lat": 0.0, "fusion_lon": 0.0, "bike_id": "c1a8991c35677e7483ef0dfffe38091e", "rental_uris": {"ios": "https://dc.lft.to/lastmile_qr_scan", "android": "https://dc.lft.to/lastmile_qr_scan"}, "type": "electric_scooter", "lat": 38.885195833333334, "is_disabled": 0, "lon": -76.948259, "is_reserved": 0}, {"name": "c6d7143ba904621860e77b3b20ed958c", "fusion_lat": 0.0, "fusion_lon": 0.0, "bike_id": "c6d7143ba904621860e77b3b20ed958c", "rental_uris": {"ios": "https://dc.lft.to/lastmile_qr_scan", "android": "https://dc.lft.to/lastmile_qr_scan"}, "type": "electric_scooter", "lat": 38.9264815, "is_disabled": 0, "lon": -77.03853016666666, "is_reserved": 0}, {"name": "92060c9ad14faa7b60d1b1080546f81e", "fusion_lat": 0.0, "fusion_lon": 0.0, "bike_id": "92060c9ad14faa7b60d1b1080546f81e", "rental_uris": {"ios": "https://dc.lft.to/lastmile_qr_scan", "android": "https://dc.lft.to/lastmile_qr_scan"}, "type": "electric_scooter", "lat": 38.919249, "is_disabled": 0, "lon": -77.02938333333333, "is_reserved": 0}, {"name": "a9103f2ab2656bca3f2456f179461c41", "fusion_lat": 0.0, "fusion_lon": 0.0, "bike_id": "a9103f2ab2656bca3f2456f179461c41", "rental_uris": {"ios": "https://dc.lft.to/lastmile_qr_scan", "android": "https://dc.lft.to/lastmile_qr_scan"}, "type": "electric_scooter", "lat": 38.91412433333333, "is_disabled": 0, "lon": -77.0418035, "is_reserved": 0}, {"name": "9e5d985b6a32cec29576ff3fafe6b67d", "fusion_lat": 0.0, "fusion_lon": 0.0, "bike_id": "9e5d985b6a32cec29576ff3fafe6b67d", "rental_uris": {"ios": "https://dc.lft.to/lastmile_qr_scan", "android": "https://dc.lft.to/lastmile_qr_scan"}, "type": "electric_scooter", "lat": 38.904291, "is_disabled": 0, "lon": -76.97908683333333, "is_reserved": 0}, {"name": "08c120bc1a165875ba86bf9d7938fe74", "fusion_lat": 0.0, "fusion_lon": 0.0, "bike_id": "08c120bc1a165875ba86bf9d7938fe74", "rental_uris": {"ios": "https://dc.lft.to/lastmile_qr_scan", "android": "https://dc.lft.to/lastmile_qr_scan"}, "type": "electric_scooter", "lat": 38.899737333333334, "is_disabled": 0, "lon": -77.05528566666666, "is_reserved": 0}, {"name": "598721a0ac491a1e78b8e6518412f6af", "fusion_lat": 0.0, "fusion_lon": 0.0, "bike_id": "598721a0ac491a1e78b8e6518412f6af", "rental_uris": {"ios": "https://dc.lft.to/lastmile_qr_scan", "android": "https://dc.lft.to/lastmile_qr_scan"}, "type": "electric_scooter", "lat": 38.91540166666667, "is_disabled": 0, "lon": -77.01222366666667, "is_reserved": 0}, {"name": "70bef8ca883e4c928a80c8fbfe9d45a5", "fusion_lat": 0.0, "fusion_lon": 0.0, "bike_id": "70bef8ca883e4c928a80c8fbfe9d45a5", "rental_uris": {"ios": "https://dc.lft.to/lastmile_qr_scan", "android": "https://dc.lft.to/lastmile_qr_scan"}, "type": "electric_scooter", "lat": 38.94301983333333, "is_disabled": 0, "lon": -77.02760816666667, "is_reserved": 0}, {"name": "031e82b8a9256e8f3466851b2143ecd0", "fusion_lat": 0.0, "fusion_lon": 0.0, "bike_id": "031e82b8a9256e8f3466851b2143ecd0", "rental_uris": {"ios": "https://dc.lft.to/lastmile_qr_scan", "android": "https://dc.lft.to/lastmile_qr_scan"}, "type": "electric_scooter", "lat": 38.895012, "is_disabled": 0, "lon": -77.0094725, "is_reserved": 0}, {"name": "0af554bc7f455f89dd3eb5a4a7cc8952", "fusion_lat": 0.0, "fusion_lon": 0.0, "bike_id": "0af554bc7f455f89dd3eb5a4a7cc8952", "rental_uris": {"ios": "https://dc.lft.to/lastmile_qr_scan", "android": "https://dc.lft.to/lastmile_qr_scan"}, "type": "electric_bike", "lat": 38.902074166666665, "is_disabled": 0, "lon": -77.04374583333333, "is_reserved": 0}, {"name": "cf23eac5d9b4c931b8195900be50c1b3", "fusion_lat": 0.0, "fusion_lon": 0.0, "bike_id": "cf23eac5d9b4c931b8195900be50c1b3", "rental_uris": {"ios": "https://dc.lft.to/lastmile_qr_scan", "android": "https://dc.lft.to/lastmile_qr_scan"}, "type": "electric_scooter", "lat": 38.904591, "is_disabled": 0, "lon": -77.02820966666667, "is_reserved": 0}, {"name": "0e0fc266bab00b8a0e5cc369cd2d6b59", "fusion_lat": 0.0, "fusion_lon": 0.0, "bike_id": "0e0fc266bab00b8a0e5cc369cd2d6b59", "rental_uris": {"ios": "https://dc.lft.to/lastmile_qr_scan", "android": "https://dc.lft.to/lastmile_qr_scan"}, "type": "electric_scooter", "lat": 38.8955225, "is_disabled": 0, "lon": -77.0092245, "is_reserved": 0}, {"name": "459ccb50dff5e63bad5b8616f5ee6313", "fusion_lat": 0.0, "fusion_lon": 0.0, "bike_id": "459ccb50dff5e63bad5b8616f5ee6313", "rental_uris": {"ios": "https://dc.lft.to/lastmile_qr_scan", "android": "https://dc.lft.to/lastmile_qr_scan"}, "type": "electric_scooter", "lat": 38.902983666666664, "is_disabled": 0, "lon": -77.00213816666667, "is_reserved": 0}, {"name": "b8e3f61a13a3ee53bedf70738b74954b", "fusion_lat": 0.0, "fusion_lon": 0.0, "bike_id": "b8e3f61a13a3ee53bedf70738b74954b", "rental_uris": {"ios": "https://dc.lft.to/lastmile_qr_scan", "android": "https://dc.lft.to/lastmile_qr_scan"}, "type": "electric_scooter", "lat": 38.898543, "is_disabled": 0, "lon": -77.0280505, "is_reserved": 0}, {"name": "9c99ff457cecc5ae066a7b5264150216", "fusion_lat": 0.0, "fusion_lon": 0.0, "bike_id": "9c99ff457cecc5ae066a7b5264150216", "rental_uris": {"ios": "https://dc.lft.to/lastmile_qr_scan", "android": "https://dc.lft.to/lastmile_qr_scan"}, "type": "electric_scooter", "lat": 38.898915, "is_disabled": 0, "lon": -76.99349466666666, "is_reserved": 0}, {"name": "77d72200d6262f142f356fa7af2c6e15", "fusion_lat": 0.0, "fusion_lon": 0.0, "bike_id": "77d72200d6262f142f356fa7af2c6e15", "rental_uris": {"ios": "https://dc.lft.to/lastmile_qr_scan", "android": "https://dc.lft.to/lastmile_qr_scan"}, "type": "electric_scooter", "lat": 38.93616466666667, "is_disabled": 0, "lon": -77.03285716666667, "is_reserved": 0}, {"name": "57f5cf57533c73c6a1ab437a7ca01cf8", "fusion_lat": 0.0, "fusion_lon": 0.0, "bike_id": "57f5cf57533c73c6a1ab437a7ca01cf8", "rental_uris": {"ios": "https://dc.lft.to/lastmile_qr_scan", "android": "https://dc.lft.to/lastmile_qr_scan"}, "type": "electric_scooter", "lat": 38.91712666666667, "is_disabled": 0, "lon": -77.03446166666667, "is_reserved": 0}, {"name": "6d6f1c4a855ddd1ab7b3ac4688f07cb3", "fusion_lat": 0.0, "fusion_lon": 0.0, "bike_id": "6d6f1c4a855ddd1ab7b3ac4688f07cb3", "rental_uris": {"ios": "https://dc.lft.to/lastmile_qr_scan", "android": "https://dc.lft.to/lastmile_qr_scan"}, "type": "electric_scooter", "lat": 38.918467166666666, "is_disabled": 0, "lon": -77.035359, "is_reserved": 0}, {"name": "00d1bea1305ba804e0c1bf408b085369", "fusion_lat": 0.0, "fusion_lon": 0.0, "bike_id": "00d1bea1305ba804e0c1bf408b085369", "rental_uris": {"ios": "https://dc.lft.to/lastmile_qr_scan", "android": "https://dc.lft.to/lastmile_qr_scan"}, "type": "electric_scooter", "lat": 38.917743333333334, "is_disabled": 0, "lon": -77.034332, "is_reserved": 0}, {"name": "b5444720bd5c1966a4a655d540a80438", "fusion_lat": 0.0, "fusion_lon": 0.0, "bike_id": "b5444720bd5c1966a4a655d540a80438", "rental_uris": {"ios": "https://dc.lft.to/lastmile_qr_scan", "android": "https://dc.lft.to/lastmile_qr_scan"}, "type": "electric_scooter", "lat": 38.9103575, "is_disabled": 0, "lon": -77.04010883333333, "is_reserved": 0}, {"name": "be114fd669a9161527ea89c8f07d9188", "fusion_lat": 0.0, "fusion_lon": 0.0, "bike_id": "be114fd669a9161527ea89c8f07d9188", "rental_uris": {"ios": "https://dc.lft.to/lastmile_qr_scan", "android": "https://dc.lft.to/lastmile_qr_scan"}, "type": "electric_scooter", "lat": 38.8580865, "is_disabled": 0, "lon": -76.98654283333333, "is_reserved": 0}, {"name": "e513352ca2246445e1e6a9576e2cc1ae", "fusion_lat": 0.0, "fusion_lon": 0.0, "bike_id": "e513352ca2246445e1e6a9576e2cc1ae", "rental_uris": {"ios": "https://dc.lft.to/lastmile_qr_scan", "android": "https://dc.lft.to/lastmile_qr_scan"}, "type": "electric_scooter", "lat": 38.9131435, "is_disabled": 0, "lon": -76.986558, "is_reserved": 0}, {"name": "1b6929dab11da34d046c71c06515ceb5", "fusion_lat": 0.0, "fusion_lon": 0.0, "bike_id": "1b6929dab11da34d046c71c06515ceb5", "rental_uris": {"ios": "https://dc.lft.to/lastmile_qr_scan", "android": "https://dc.lft.to/lastmile_qr_scan"}, "type": "electric_bike", "lat": 38.91004016666667, "is_disabled": 0, "lon": -76.98416466666667, "is_reserved": 0}, {"name": "f19c36e7114dab8b229cb8807c86fa33", "fusion_lat": 0.0, "fusion_lon": 0.0, "bike_id": "f19c36e7114dab8b229cb8807c86fa33", "rental_uris": {"ios": "https://dc.lft.to/lastmile_qr_scan", "android": "https://dc.lft.to/lastmile_qr_scan"}, "type": "electric_scooter", "lat": 38.91115516666667, "is_disabled": 0, "lon": -77.04078883333334, "is_reserved": 0}, {"name": "6dde910d9f1ad0762292f2cc40b937d2", "fusion_lat": 0.0, "fusion_lon": 0.0, "bike_id": "6dde910d9f1ad0762292f2cc40b937d2", "rental_uris": {"ios": "https://dc.lft.to/lastmile_qr_scan", "android": "https://dc.lft.to/lastmile_qr_scan"}, "type": "electric_scooter", "lat": 38.94202833333333, "is_disabled": 0, "lon": -77.02591783333334, "is_reserved": 0}, {"name": "909794de208360d2066b84d45f65c7a0", "fusion_lat": 0.0, "fusion_lon": 0.0, "bike_id": "909794de208360d2066b84d45f65c7a0", "rental_uris": {"ios": "https://dc.lft.to/lastmile_qr_scan", "android": "https://dc.lft.to/lastmile_qr_scan"}, "type": "electric_scooter", "lat": 38.9058185, "is_disabled": 0, "lon": -77.02190716666667, "is_reserved": 0}, {"name": "733d0c09d00e770e1768d02ba3f0a32e", "fusion_lat": 0.0, "fusion_lon": 0.0, "bike_id": "733d0c09d00e770e1768d02ba3f0a32e", "rental_uris": {"ios": "https://dc.lft.to/lastmile_qr_scan", "android": "https://dc.lft.to/lastmile_qr_scan"}, "type": "electric_scooter", "lat": 38.89741766666667, "is_disabled": 0, "lon": -77.01312833333333, "is_reserved": 0}, {"name": "0a2440d4afb54eaf763c935eb825c905", "fusion_lat": 0.0, "fusion_lon": 0.0, "bike_id": "0a2440d4afb54eaf763c935eb825c905", "rental_uris": {"ios": "https://dc.lft.to/lastmile_qr_scan", "android": "https://dc.lft.to/lastmile_qr_scan"}, "type": "electric_scooter", "lat": 38.922285333333335, "is_disabled": 0, "lon": -76.975338, "is_reserved": 0}, {"name": "028cd5f1bcb066885eb619c6a6f3d8b3", "fusion_lat": 0.0, "fusion_lon": 0.0, "bike_id": "028cd5f1bcb066885eb619c6a6f3d8b3", "rental_uris": {"ios": "https://dc.lft.to/lastmile_qr_scan", "android": "https://dc.lft.to/lastmile_qr_scan"}, "type": "electric_scooter", "lat": 38.9024835, "is_disabled": 0, "lon": -77.01737783333333, "is_reserved": 0}, {"name": "910832a1bd0ac6b411d6aef8ecfa1c51", "fusion_lat": 0.0, "fusion_lon": 0.0, "bike_id": "910832a1bd0ac6b411d6aef8ecfa1c51", "rental_uris": {"ios": "https://dc.lft.to/lastmile_qr_scan", "android": "https://dc.lft.to/lastmile_qr_scan"}, "type": "electric_scooter", "lat": 38.9161525, "is_disabled": 0, "lon": -77.04881766666666, "is_reserved": 0}, {"name": "110843258867955499dcd2033055d542", "fusion_lat": 0.0, "fusion_lon": 0.0, "bike_id": "110843258867955499dcd2033055d542", "rental_uris": {"ios": "https://dc.lft.to/lastmile_qr_scan", "android": "https://dc.lft.to/lastmile_qr_scan"}, "type": "electric_scooter", "lat": 38.91929016666667, "is_disabled": 0, "lon": -77.04239166666666, "is_reserved": 0}, {"name": "caf7f4abb173b844b7730ab7c9be963d", "fusion_lat": 0.0, "fusion_lon": 0.0, "bike_id": "caf7f4abb173b844b7730ab7c9be963d", "rental_uris": {"ios": "https://dc.lft.to/lastmile_qr_scan", "android": "https://dc.lft.to/lastmile_qr_scan"}, "type": "electric_scooter", "lat": 38.8974255, "is_disabled": 0, "lon": -77.03352283333334, "is_reserved": 0}, {"name": "bd6c4746ed64a3df5115ce1c09d7c811", "fusion_lat": 0.0, "fusion_lon": 0.0, "bike_id": "bd6c4746ed64a3df5115ce1c09d7c811", "rental_uris": {"ios": "https://dc.lft.to/lastmile_qr_scan", "android": "https://dc.lft.to/lastmile_qr_scan"}, "type": "electric_scooter", "lat": 38.887204833333335, "is_disabled": 0, "lon": -76.99644716666667, "is_reserved": 0}, {"name": "54d323a964aa83c357646a16488cfe9d", "fusion_lat": 0.0, "fusion_lon": 0.0, "bike_id": "54d323a964aa83c357646a16488cfe9d", "rental_uris": {"ios": "https://dc.lft.to/lastmile_qr_scan", "android": "https://dc.lft.to/lastmile_qr_scan"}, "type": "electric_scooter", "lat": 38.90508916666667, "is_disabled": 0, "lon": -77.05787833333333, "is_reserved": 0}, {"name": "0c653e7ab512df3cb5c03496edb2f25b", "fusion_lat": 0.0, "fusion_lon": 0.0, "bike_id": "0c653e7ab512df3cb5c03496edb2f25b", "rental_uris": {"ios": "https://dc.lft.to/lastmile_qr_scan", "android": "https://dc.lft.to/lastmile_qr_scan"}, "type": "electric_scooter", "lat": 38.88502066666667, "is_disabled": 0, "lon": -77.0151065, "is_reserved": 0}, {"name": "99496eb1073869117a647768e3c204c3", "fusion_lat": 0.0, "fusion_lon": 0.0, "bike_id": "99496eb1073869117a647768e3c204c3", "rental_uris": {"ios": "https://dc.lft.to/lastmile_qr_scan", "android": "https://dc.lft.to/lastmile_qr_scan"}, "type": "electric_scooter", "lat": 38.911203666666665, "is_disabled": 0, "lon": -77.0445975, "is_reserved": 0}, {"name": "b6d7328278e8f0077a89747a1ee09d7f", "fusion_lat": 0.0, "fusion_lon": 0.0, "bike_id": "b6d7328278e8f0077a89747a1ee09d7f", "rental_uris": {"ios": "https://dc.lft.to/lastmile_qr_scan", "android": "https://dc.lft.to/lastmile_qr_scan"}, "type": "electric_scooter", "lat": 38.9046745, "is_disabled": 0, "lon": -77.032554, "is_reserved": 0}, {"name": "4b894e40151ca66e481f84748de1cde3", "fusion_lat": 0.0, "fusion_lon": 0.0, "bike_id": "4b894e40151ca66e481f84748de1cde3", "rental_uris": {"ios": "https://dc.lft.to/lastmile_qr_scan", "android": "https://dc.lft.to/lastmile_qr_scan"}, "type": "electric_scooter", "lat": 38.897253, "is_disabled": 0, "lon": -77.04800566666667, "is_reserved": 0}, {"name": "fc2e63e5d7b0573d55d97c8b58b1d72b", "fusion_lat": 0.0, "fusion_lon": 0.0, "bike_id": "fc2e63e5d7b0573d55d97c8b58b1d72b", "rental_uris": {"ios": "https://dc.lft.to/lastmile_qr_scan", "android": "https://dc.lft.to/lastmile_qr_scan"}, "type": "electric_scooter", "lat": 38.901405, "is_disabled": 0, "lon": -77.032473, "is_reserved": 0}, {"name": "e31cfcf87144e646c1fbd520c77c5e8a", "fusion_lat": 0.0, "fusion_lon": 0.0, "bike_id": "e31cfcf87144e646c1fbd520c77c5e8a", "rental_uris": {"ios": "https://dc.lft.to/lastmile_qr_scan", "android": "https://dc.lft.to/lastmile_qr_scan"}, "type": "electric_scooter", "lat": 38.9169, "is_disabled": 0, "lon": -77.03165816666667, "is_reserved": 0}, {"name": "2cd473acdb5967e6d460ce4eefcf214a", "fusion_lat": 0.0, "fusion_lon": 0.0, "bike_id": "2cd473acdb5967e6d460ce4eefcf214a", "rental_uris": {"ios": "https://dc.lft.to/lastmile_qr_scan", "android": "https://dc.lft.to/lastmile_qr_scan"}, "type": "electric_scooter", "lat": 38.9136285, "is_disabled": 0, "lon": -77.04162, "is_reserved": 0}, {"name": "9f2a8f242c73a32dc3eb17981bad01cd", "fusion_lat": 0.0, "fusion_lon": 0.0, "bike_id": "9f2a8f242c73a32dc3eb17981bad01cd", "rental_uris": {"ios": "https://dc.lft.to/lastmile_qr_scan", "android": "https://dc.lft.to/lastmile_qr_scan"}, "type": "electric_scooter", "lat": 38.910565, "is_disabled": 0, "lon": -77.04345383333333, "is_reserved": 0}, {"name": "076119fface756ba6ab32d4253637c85", "fusion_lat": 0.0, "fusion_lon": 0.0, "bike_id": "076119fface756ba6ab32d4253637c85", "rental_uris": {"ios": "https://dc.lft.to/lastmile_qr_scan", "android": "https://dc.lft.to/lastmile_qr_scan"}, "type": "electric_scooter", "lat": 38.895121, "is_disabled": 0, "lon": -76.94888466666667, "is_reserved": 0}, {"name": "1cac6ef7afd91eeb9d46dbcd77df3570", "fusion_lat": 0.0, "fusion_lon": 0.0, "bike_id": "1cac6ef7afd91eeb9d46dbcd77df3570", "rental_uris": {"ios": "https://dc.lft.to/lastmile_qr_scan", "android": "https://dc.lft.to/lastmile_qr_scan"}, "type": "electric_scooter", "lat": 38.92163566666667, "is_disabled": 0, "lon": -76.99399183333334, "is_reserved": 0}, {"name": "76084c5a8386c18c7bad4b28b449849f", "fusion_lat": 0.0, "fusion_lon": 0.0, "bike_id": "76084c5a8386c18c7bad4b28b449849f", "rental_uris": {"ios": "https://dc.lft.to/lastmile_qr_scan", "android": "https://dc.lft.to/lastmile_qr_scan"}, "type": "electric_scooter", "lat": 38.90236816666667, "is_disabled": 0, "lon": -77.0019785, "is_reserved": 0}, {"name": "bce57a402760bad87a758bcaa50abda7", "fusion_lat": 0.0, "fusion_lon": 0.0, "bike_id": "bce57a402760bad87a758bcaa50abda7", "rental_uris": {"ios": "https://dc.lft.to/lastmile_qr_scan", "android": "https://dc.lft.to/lastmile_qr_scan"}, "type": "electric_scooter", "lat": 38.90256933333333, "is_disabled": 0, "lon": -77.02846416666667, "is_reserved": 0}, {"name": "4cde2dea4e5d500a73cd8210cbaaf3d0", "fusion_lat": 0.0, "fusion_lon": 0.0, "bike_id": "4cde2dea4e5d500a73cd8210cbaaf3d0", "rental_uris": {"ios": "https://dc.lft.to/lastmile_qr_scan", "android": "https://dc.lft.to/lastmile_qr_scan"}, "type": "electric_scooter", "lat": 38.9057685, "is_disabled": 0, "lon": -77.00712916666667, "is_reserved": 0}, {"name": "3ec7a051d50c9b11ad85cf5155d63145", "fusion_lat": 0.0, "fusion_lon": 0.0, "bike_id": "3ec7a051d50c9b11ad85cf5155d63145", "rental_uris": {"ios": "https://dc.lft.to/lastmile_qr_scan", "android": "https://dc.lft.to/lastmile_qr_scan"}, "type": "electric_scooter", "lat": 38.895217, "is_disabled": 0, "lon": -77.01991583333333, "is_reserved": 0}, {"name": "31a19207bb9e2cef733d44d42d7dcfc2", "fusion_lat": 0.0, "fusion_lon": 0.0, "bike_id": "31a19207bb9e2cef733d44d42d7dcfc2", "rental_uris": {"ios": "https://dc.lft.to/lastmile_qr_scan", "android": "https://dc.lft.to/lastmile_qr_scan"}, "type": "electric_scooter", "lat": 38.9420595, "is_disabled": 0, "lon": -77.0183205, "is_reserved": 0}, {"name": "d698d75a716859f3a26863824fc5e260", "fusion_lat": 0.0, "fusion_lon": 0.0, "bike_id": "d698d75a716859f3a26863824fc5e260", "rental_uris": {"ios": "https://dc.lft.to/lastmile_qr_scan", "android": "https://dc.lft.to/lastmile_qr_scan"}, "type": "electric_scooter", "lat": 38.91405316666667, "is_disabled": 0, "lon": -77.0322935, "is_reserved": 0}, {"name": "5d3f99b04c81ef1631030c5cc32ccc81", "fusion_lat": 0.0, "fusion_lon": 0.0, "bike_id": "5d3f99b04c81ef1631030c5cc32ccc81", "rental_uris": {"ios": "https://dc.lft.to/lastmile_qr_scan", "android": "https://dc.lft.to/lastmile_qr_scan"}, "type": "electric_scooter", "lat": 38.8983355, "is_disabled": 0, "lon": -76.94631833333334, "is_reserved": 0}, {"name": "eebce714ccbd5fa88747c5fdc5ae429d", "fusion_lat": 0.0, "fusion_lon": 0.0, "bike_id": "eebce714ccbd5fa88747c5fdc5ae429d", "rental_uris": {"ios": "https://dc.lft.to/lastmile_qr_scan", "android": "https://dc.lft.to/lastmile_qr_scan"}, "type": "electric_scooter", "lat": 38.9118195, "is_disabled": 0, "lon": -77.00249533333333, "is_reserved": 0}, {"name": "8c8321f0ac116c8a183ef03f1eafd78a", "fusion_lat": 0.0, "fusion_lon": 0.0, "bike_id": "8c8321f0ac116c8a183ef03f1eafd78a", "rental_uris": {"ios": "https://dc.lft.to/lastmile_qr_scan", "android": "https://dc.lft.to/lastmile_qr_scan"}, "type": "electric_scooter", "lat": 38.890116166666665, "is_disabled": 0, "lon": -77.04917083333333, "is_reserved": 0}, {"name": "38349ecb7e66066b48045b90ca8e4f0a", "fusion_lat": 0.0, "fusion_lon": 0.0, "bike_id": "38349ecb7e66066b48045b90ca8e4f0a", "rental_uris": {"ios": "https://dc.lft.to/lastmile_qr_scan", "android": "https://dc.lft.to/lastmile_qr_scan"}, "type": "electric_scooter", "lat": 38.90781666666667, "is_disabled": 0, "lon": -77.045394, "is_reserved": 0}, {"name": "482f61eeab32376d70476037645fc5cb", "fusion_lat": 0.0, "fusion_lon": 0.0, "bike_id": "482f61eeab32376d70476037645fc5cb", "rental_uris": {"ios": "https://dc.lft.to/lastmile_qr_scan", "android": "https://dc.lft.to/lastmile_qr_scan"}, "type": "electric_scooter", "lat": 38.903957166666665, "is_disabled": 0, "lon": -77.04874766666667, "is_reserved": 0}, {"name": "51de90caae2efdcfe681a62f68a94206", "fusion_lat": 0.0, "fusion_lon": 0.0, "bike_id": "51de90caae2efdcfe681a62f68a94206", "rental_uris": {"ios": "https://dc.lft.to/lastmile_qr_scan", "android": "https://dc.lft.to/lastmile_qr_scan"}, "type": "electric_scooter", "lat": 38.90018633333333, "is_disabled": 0, "lon": -76.9986895, "is_reserved": 0}, {"name": "bb7b97f928c57f64b4c32fda503c8f84", "fusion_lat": 0.0, "fusion_lon": 0.0, "bike_id": "bb7b97f928c57f64b4c32fda503c8f84", "rental_uris": {"ios": "https://dc.lft.to/lastmile_qr_scan", "android": "https://dc.lft.to/lastmile_qr_scan"}, "type": "electric_scooter", "lat": 38.91644266666667, "is_disabled": 0, "lon": -77.04777883333334, "is_reserved": 0}, {"name": "2dcd870b330177d2f14876408a99fe88", "fusion_lat": 0.0, "fusion_lon": 0.0, "bike_id": "2dcd870b330177d2f14876408a99fe88", "rental_uris": {"ios": "https://dc.lft.to/lastmile_qr_scan", "android": "https://dc.lft.to/lastmile_qr_scan"}, "type": "electric_scooter", "lat": 38.905409166666665, "is_disabled": 0, "lon": -77.050016, "is_reserved": 0}, {"name": "75ef2095a2ada98422bcc4b89316232b", "fusion_lat": 0.0, "fusion_lon": 0.0, "bike_id": "75ef2095a2ada98422bcc4b89316232b", "rental_uris": {"ios": "https://dc.lft.to/lastmile_qr_scan", "android": "https://dc.lft.to/lastmile_qr_scan"}, "type": "electric_scooter", "lat": 38.92480366666667, "is_disabled": 0, "lon": -77.05211583333333, "is_reserved": 0}, {"name": "af7ac6221579d3f346eaf01d5288fd5a", "fusion_lat": 0.0, "fusion_lon": 0.0, "bike_id": "af7ac6221579d3f346eaf01d5288fd5a", "rental_uris": {"ios": "https://dc.lft.to/lastmile_qr_scan", "android": "https://dc.lft.to/lastmile_qr_scan"}, "type": "electric_scooter", "lat": 38.9000315, "is_disabled": 0, "lon": -77.00647683333334, "is_reserved": 0}, {"name": "5e659ef79f98882f343b38166ebc0e7d", "fusion_lat": 0.0, "fusion_lon": 0.0, "bike_id": "5e659ef79f98882f343b38166ebc0e7d", "rental_uris": {"ios": "https://dc.lft.to/lastmile_qr_scan", "android": "https://dc.lft.to/lastmile_qr_scan"}, "type": "electric_scooter", "lat": 38.884786166666665, "is_disabled": 0, "lon": -76.92949666666667, "is_reserved": 0}, {"name": "b35da745b5541958b7f114f0b1f925fd", "fusion_lat": 0.0, "fusion_lon": 0.0, "bike_id": "b35da745b5541958b7f114f0b1f925fd", "rental_uris": {"ios": "https://dc.lft.to/lastmile_qr_scan", "android": "https://dc.lft.to/lastmile_qr_scan"}, "type": "electric_scooter", "lat": 38.89441516666667, "is_disabled": 0, "lon": -77.021982, "is_reserved": 0}, {"name": "d0a9f98d176740c2507a71a5536c840d", "fusion_lat": 0.0, "fusion_lon": 0.0, "bike_id": "d0a9f98d176740c2507a71a5536c840d", "rental_uris": {"ios": "https://dc.lft.to/lastmile_qr_scan", "android": "https://dc.lft.to/lastmile_qr_scan"}, "type": "electric_scooter", "lat": 38.905397, "is_disabled": 0, "lon": -77.0454035, "is_reserved": 0}, {"name": "4ffddc0a2d76d8390dba21b65e8f33d7", "fusion_lat": 0.0, "fusion_lon": 0.0, "bike_id": "4ffddc0a2d76d8390dba21b65e8f33d7", "rental_uris": {"ios": "https://dc.lft.to/lastmile_qr_scan", "android": "https://dc.lft.to/lastmile_qr_scan"}, "type": "electric_scooter", "lat": 38.9340065, "is_disabled": 0, "lon": -77.041183, "is_reserved": 0}, {"name": "d8abdb00cb05dd940169d096f91b8cd4", "fusion_lat": 0.0, "fusion_lon": 0.0, "bike_id": "d8abdb00cb05dd940169d096f91b8cd4", "rental_uris": {"ios": "https://dc.lft.to/lastmile_qr_scan", "android": "https://dc.lft.to/lastmile_qr_scan"}, "type": "electric_scooter", "lat": 38.899411666666666, "is_disabled": 0, "lon": -77.05471716666666, "is_reserved": 0}, {"name": "a4e406285224a8e0ff9f18be76743d87", "fusion_lat": 0.0, "fusion_lon": 0.0, "bike_id": "a4e406285224a8e0ff9f18be76743d87", "rental_uris": {"ios": "https://dc.lft.to/lastmile_qr_scan", "android": "https://dc.lft.to/lastmile_qr_scan"}, "type": "electric_scooter", "lat": 38.879640333333334, "is_disabled": 0, "lon": -76.987445, "is_reserved": 0}, {"name": "d5af1292916b0897a6f079d74228786e", "fusion_lat": 0.0, "fusion_lon": 0.0, "bike_id": "d5af1292916b0897a6f079d74228786e", "rental_uris": {"ios": "https://dc.lft.to/lastmile_qr_scan", "android": "https://dc.lft.to/lastmile_qr_scan"}, "type": "electric_scooter", "lat": 38.881428666666665, "is_disabled": 0, "lon": -76.99161916666667, "is_reserved": 0}, {"name": "78f6b798447609409d1550cb885fa28a", "fusion_lat": 0.0, "fusion_lon": 0.0, "bike_id": "78f6b798447609409d1550cb885fa28a", "rental_uris": {"ios": "https://dc.lft.to/lastmile_qr_scan", "android": "https://dc.lft.to/lastmile_qr_scan"}, "type": "electric_scooter", "lat": 38.88771666666667, "is_disabled": 0, "lon": -77.015463, "is_reserved": 0}, {"name": "f88ece570276be49fc443619085e9cf9", "fusion_lat": 0.0, "fusion_lon": 0.0, "bike_id": "f88ece570276be49fc443619085e9cf9", "rental_uris": {"ios": "https://dc.lft.to/lastmile_qr_scan", "android": "https://dc.lft.to/lastmile_qr_scan"}, "type": "electric_scooter", "lat": 38.913763333333335, "is_disabled": 0, "lon": -77.04337283333334, "is_reserved": 0}, {"name": "1f78ae3b79c65a93f73dd680acee330b", "fusion_lat": 0.0, "fusion_lon": 0.0, "bike_id": "1f78ae3b79c65a93f73dd680acee330b", "rental_uris": {"ios": "https://dc.lft.to/lastmile_qr_scan", "android": "https://dc.lft.to/lastmile_qr_scan"}, "type": "electric_scooter", "lat": 38.904708, "is_disabled": 0, "lon": -77.02948833333333, "is_reserved": 0}, {"name": "cbd71ff02c128e5ecd65f746a5c97014", "fusion_lat": 0.0, "fusion_lon": 0.0, "bike_id": "cbd71ff02c128e5ecd65f746a5c97014", "rental_uris": {"ios": "https://dc.lft.to/lastmile_qr_scan", "android": "https://dc.lft.to/lastmile_qr_scan"}, "type": "electric_scooter", "lat": 38.90124866666667, "is_disabled": 0, "lon": -77.03177216666667, "is_reserved": 0}, {"name": "37435311a4d811665fd8083fe24019e8", "fusion_lat": 0.0, "fusion_lon": 0.0, "bike_id": "37435311a4d811665fd8083fe24019e8", "rental_uris": {"ios": "https://dc.lft.to/lastmile_qr_scan", "android": "https://dc.lft.to/lastmile_qr_scan"}, "type": "electric_scooter", "lat": 38.92148133333333, "is_disabled": 0, "lon": -77.0348155, "is_reserved": 0}, {"name": "1129b0f2ed92f930dca52730d10aa396", "fusion_lat": 0.0, "fusion_lon": 0.0, "bike_id": "1129b0f2ed92f930dca52730d10aa396", "rental_uris": {"ios": "https://dc.lft.to/lastmile_qr_scan", "android": "https://dc.lft.to/lastmile_qr_scan"}, "type": "electric_scooter", "lat": 38.91916033333333, "is_disabled": 0, "lon": -77.03919116666667, "is_reserved": 0}, {"name": "4dee3566c0d5b96cc0cb2210aabd9806", "fusion_lat": 0.0, "fusion_lon": 0.0, "bike_id": "4dee3566c0d5b96cc0cb2210aabd9806", "rental_uris": {"ios": "https://dc.lft.to/lastmile_qr_scan", "android": "https://dc.lft.to/lastmile_qr_scan"}, "type": "electric_scooter", "lat": 38.895018666666665, "is_disabled": 0, "lon": -77.02190016666667, "is_reserved": 0}, {"name": "09f6119ee65f5b32f03e99343b849b89", "fusion_lat": 0.0, "fusion_lon": 0.0, "bike_id": "09f6119ee65f5b32f03e99343b849b89", "rental_uris": {"ios": "https://dc.lft.to/lastmile_qr_scan", "android": "https://dc.lft.to/lastmile_qr_scan"}, "type": "electric_scooter", "lat": 38.92471833333333, "is_disabled": 0, "lon": -77.039379, "is_reserved": 0}, {"name": "ab2c3ea5db9134ab92484cbfd7675c9a", "fusion_lat": 0.0, "fusion_lon": 0.0, "bike_id": "ab2c3ea5db9134ab92484cbfd7675c9a", "rental_uris": {"ios": "https://dc.lft.to/lastmile_qr_scan", "android": "https://dc.lft.to/lastmile_qr_scan"}, "type": "electric_scooter", "lat": 38.8462145, "is_disabled": 0, "lon": -76.99631166666667, "is_reserved": 0}, {"name": "cd3acc689779b2056f320fd96341fcd1", "fusion_lat": 0.0, "fusion_lon": 0.0, "bike_id": "cd3acc689779b2056f320fd96341fcd1", "rental_uris": {"ios": "https://dc.lft.to/lastmile_qr_scan", "android": "https://dc.lft.to/lastmile_qr_scan"}, "type": "electric_bike", "lat": 38.8866415, "is_disabled": 0, "lon": -77.16234516666667, "is_reserved": 0}, {"name": "560dfdadcf9c4652402d32676136fa77", "fusion_lat": 0.0, "fusion_lon": 0.0, "bike_id": "560dfdadcf9c4652402d32676136fa77", "rental_uris": {"ios": "https://dc.lft.to/lastmile_qr_scan", "android": "https://dc.lft.to/lastmile_qr_scan"}, "type": "electric_scooter", "lat": 38.91864983333333, "is_disabled": 0, "lon": -77.03222116666667, "is_reserved": 0}, {"name": "462a6bf9ee5fcfef3a17bfbbbb8560c7", "fusion_lat": 0.0, "fusion_lon": 0.0, "bike_id": "462a6bf9ee5fcfef3a17bfbbbb8560c7", "rental_uris": {"ios": "https://dc.lft.to/lastmile_qr_scan", "android": "https://dc.lft.to/lastmile_qr_scan"}, "type": "electric_scooter", "lat": 38.899365, "is_disabled": 0, "lon": -77.0150585, "is_reserved": 0}, {"name": "a27e828c0c76e10707dba10cd63c221a", "fusion_lat": 0.0, "fusion_lon": 0.0, "bike_id": "a27e828c0c76e10707dba10cd63c221a", "rental_uris": {"ios": "https://dc.lft.to/lastmile_qr_scan", "android": "https://dc.lft.to/lastmile_qr_scan"}, "type": "electric_scooter", "lat": 38.909908333333334, "is_disabled": 0, "lon": -77.03193616666667, "is_reserved": 0}, {"name": "99a3b3d64d5e1d76bbff3d79c79ddf7a", "fusion_lat": 0.0, "fusion_lon": 0.0, "bike_id": "99a3b3d64d5e1d76bbff3d79c79ddf7a", "rental_uris": {"ios": "https://dc.lft.to/lastmile_qr_scan", "android": "https://dc.lft.to/lastmile_qr_scan"}, "type": "electric_scooter", "lat": 38.89244766666667, "is_disabled": 0, "lon": -77.0466175, "is_reserved": 0}, {"name": "9a0e0dd57a6e3fa55d8a6e93916ad5ae", "fusion_lat": 0.0, "fusion_lon": 0.0, "bike_id": "9a0e0dd57a6e3fa55d8a6e93916ad5ae", "rental_uris": {"ios": "https://dc.lft.to/lastmile_qr_scan", "android": "https://dc.lft.to/lastmile_qr_scan"}, "type": "electric_scooter", "lat": 38.914228, "is_disabled": 0, "lon": -77.04153033333333, "is_reserved": 0}, {"name": "717d366f1264b3264cf7bac95350a54d", "fusion_lat": 0.0, "fusion_lon": 0.0, "bike_id": "717d366f1264b3264cf7bac95350a54d", "rental_uris": {"ios": "https://dc.lft.to/lastmile_qr_scan", "android": "https://dc.lft.to/lastmile_qr_scan"}, "type": "electric_scooter", "lat": 38.8980205, "is_disabled": 0, "lon": -76.93051533333333, "is_reserved": 0}, {"name": "8dbf0b6f7532dba2fefd8de752ec215c", "fusion_lat": 0.0, "fusion_lon": 0.0, "bike_id": "8dbf0b6f7532dba2fefd8de752ec215c", "rental_uris": {"ios": "https://dc.lft.to/lastmile_qr_scan", "android": "https://dc.lft.to/lastmile_qr_scan"}, "type": "electric_scooter", "lat": 38.899739333333336, "is_disabled": 0, "lon": -77.01944933333333, "is_reserved": 0}, {"name": "912df9e175c6beeab34448b488551d07", "fusion_lat": 0.0, "fusion_lon": 0.0, "bike_id": "912df9e175c6beeab34448b488551d07", "rental_uris": {"ios": "https://dc.lft.to/lastmile_qr_scan", "android": "https://dc.lft.to/lastmile_qr_scan"}, "type": "electric_bike", "lat": 38.8315145, "is_disabled": 0, "lon": -76.9969425, "is_reserved": 0}, {"name": "5e9b3c41d29046c60fe790c77e85fc60", "fusion_lat": 0.0, "fusion_lon": 0.0, "bike_id": "5e9b3c41d29046c60fe790c77e85fc60", "rental_uris": {"ios": "https://dc.lft.to/lastmile_qr_scan", "android": "https://dc.lft.to/lastmile_qr_scan"}, "type": "electric_scooter", "lat": 38.885485, "is_disabled": 0, "lon": -77.00598566666666, "is_reserved": 0}, {"name": "6949a828d3547c68b0f882c65a990d1f", "fusion_lat": 0.0, "fusion_lon": 0.0, "bike_id": "6949a828d3547c68b0f882c65a990d1f", "rental_uris": {"ios": "https://dc.lft.to/lastmile_qr_scan", "android": "https://dc.lft.to/lastmile_qr_scan"}, "type": "electric_scooter", "lat": 38.890154, "is_disabled": 0, "lon": -76.9373935, "is_reserved": 0}, {"name": "e98753d79c436254d81aa4972209c9ce", "fusion_lat": 0.0, "fusion_lon": 0.0, "bike_id": "e98753d79c436254d81aa4972209c9ce", "rental_uris": {"ios": "https://dc.lft.to/lastmile_qr_scan", "android": "https://dc.lft.to/lastmile_qr_scan"}, "type": "electric_bike", "lat": 38.85794216666667, "is_disabled": 0, "lon": -77.0995495, "is_reserved": 0}, {"name": "3e6d6ea9a647a593246ce033f44029d1", "fusion_lat": 0.0, "fusion_lon": 0.0, "bike_id": "3e6d6ea9a647a593246ce033f44029d1", "rental_uris": {"ios": "https://dc.lft.to/lastmile_qr_scan", "android": "https://dc.lft.to/lastmile_qr_scan"}, "type": "electric_scooter", "lat": 38.9020195, "is_disabled": 0, "lon": -77.06116466666667, "is_reserved": 0}, {"name": "b35a93d02bb6a936f38b8ee3cb383c98", "fusion_lat": 0.0, "fusion_lon": 0.0, "bike_id": "b35a93d02bb6a936f38b8ee3cb383c98", "rental_uris": {"ios": "https://dc.lft.to/lastmile_qr_scan", "android": "https://dc.lft.to/lastmile_qr_scan"}, "type": "electric_scooter", "lat": 38.8959545, "is_disabled": 0, "lon": -77.01093733333333, "is_reserved": 0}, {"name": "8632c85216be1633d48ef9edd23aff94", "fusion_lat": 0.0, "fusion_lon": 0.0, "bike_id": "8632c85216be1633d48ef9edd23aff94", "rental_uris": {"ios": "https://dc.lft.to/lastmile_qr_scan", "android": "https://dc.lft.to/lastmile_qr_scan"}, "type": "electric_scooter", "lat": 38.918041833333334, "is_disabled": 0, "lon": -77.03442216666667, "is_reserved": 0}, {"name": "e3a6dd0c6b24f8014674baf1968b2a3f", "fusion_lat": 0.0, "fusion_lon": 0.0, "bike_id": "e3a6dd0c6b24f8014674baf1968b2a3f", "rental_uris": {"ios": "https://dc.lft.to/lastmile_qr_scan", "android": "https://dc.lft.to/lastmile_qr_scan"}, "type": "electric_scooter", "lat": 38.91979516666667, "is_disabled": 0, "lon": -77.02182816666667, "is_reserved": 0}, {"name": "79e341059ebaa279132b744ca3e3ad7b", "fusion_lat": 0.0, "fusion_lon": 0.0, "bike_id": "79e341059ebaa279132b744ca3e3ad7b", "rental_uris": {"ios": "https://dc.lft.to/lastmile_qr_scan", "android": "https://dc.lft.to/lastmile_qr_scan"}, "type": "electric_scooter", "lat": 38.913220833333334, "is_disabled": 0, "lon": -77.03231316666667, "is_reserved": 0}, {"name": "38be9fd4b707484500f553e15b6d7351", "fusion_lat": 0.0, "fusion_lon": 0.0, "bike_id": "38be9fd4b707484500f553e15b6d7351", "rental_uris": {"ios": "https://dc.lft.to/lastmile_qr_scan", "android": "https://dc.lft.to/lastmile_qr_scan"}, "type": "electric_scooter", "lat": 38.91417383333334, "is_disabled": 0, "lon": -77.02551766666667, "is_reserved": 0}, {"name": "d5133f0bc52ef679d829c8f029438da3", "fusion_lat": 0.0, "fusion_lon": 0.0, "bike_id": "d5133f0bc52ef679d829c8f029438da3", "rental_uris": {"ios": "https://dc.lft.to/lastmile_qr_scan", "android": "https://dc.lft.to/lastmile_qr_scan"}, "type": "electric_scooter", "lat": 38.9262955, "is_disabled": 0, "lon": -77.03789883333333, "is_reserved": 0}, {"name": "ec7a115142d26d2b4fc9460f716e3408", "fusion_lat": 0.0, "fusion_lon": 0.0, "bike_id": "ec7a115142d26d2b4fc9460f716e3408", "rental_uris": {"ios": "https://dc.lft.to/lastmile_qr_scan", "android": "https://dc.lft.to/lastmile_qr_scan"}, "type": "electric_scooter", "lat": 38.9217245, "is_disabled": 0, "lon": -77.0435725, "is_reserved": 0}, {"name": "b509a9c4d2b23194d255d874362c4c8e", "fusion_lat": 0.0, "fusion_lon": 0.0, "bike_id": "b509a9c4d2b23194d255d874362c4c8e", "rental_uris": {"ios": "https://dc.lft.to/lastmile_qr_scan", "android": "https://dc.lft.to/lastmile_qr_scan"}, "type": "electric_scooter", "lat": 38.8868055, "is_disabled": 0, "lon": -77.00099533333334, "is_reserved": 0}, {"name": "23bc4847554bf8292ae40ac1520c5a07", "fusion_lat": 0.0, "fusion_lon": 0.0, "bike_id": "23bc4847554bf8292ae40ac1520c5a07", "rental_uris": {"ios": "https://dc.lft.to/lastmile_qr_scan", "android": "https://dc.lft.to/lastmile_qr_scan"}, "type": "electric_scooter", "lat": 38.890579833333334, "is_disabled": 0, "lon": -77.0321045, "is_reserved": 0}, {"name": "697096e6a7ebf2f2b2746cc86c7c85ee", "fusion_lat": 0.0, "fusion_lon": 0.0, "bike_id": "697096e6a7ebf2f2b2746cc86c7c85ee", "rental_uris": {"ios": "https://dc.lft.to/lastmile_qr_scan", "android": "https://dc.lft.to/lastmile_qr_scan"}, "type": "electric_scooter", "lat": 38.90013783333333, "is_disabled": 0, "lon": -76.996001, "is_reserved": 0}, {"name": "1b5b395b70fc606edeb2b217cf314f8e", "fusion_lat": 0.0, "fusion_lon": 0.0, "bike_id": "1b5b395b70fc606edeb2b217cf314f8e", "rental_uris": {"ios": "https://dc.lft.to/lastmile_qr_scan", "android": "https://dc.lft.to/lastmile_qr_scan"}, "type": "electric_scooter", "lat": 38.918305833333335, "is_disabled": 0, "lon": -76.96551633333333, "is_reserved": 0}, {"name": "69d4d9df2ebcb95a61fef063faa237fe", "fusion_lat": 0.0, "fusion_lon": 0.0, "bike_id": "69d4d9df2ebcb95a61fef063faa237fe", "rental_uris": {"ios": "https://dc.lft.to/lastmile_qr_scan", "android": "https://dc.lft.to/lastmile_qr_scan"}, "type": "electric_scooter", "lat": 38.90512583333334, "is_disabled": 0, "lon": -77.0608495, "is_reserved": 0}, {"name": "bcd6a5f9de3b70eb28226dfdeca36b2a", "fusion_lat": 0.0, "fusion_lon": 0.0, "bike_id": "bcd6a5f9de3b70eb28226dfdeca36b2a", "rental_uris": {"ios": "https://dc.lft.to/lastmile_qr_scan", "android": "https://dc.lft.to/lastmile_qr_scan"}, "type": "electric_scooter", "lat": 38.926124333333334, "is_disabled": 0, "lon": -77.021553, "is_reserved": 0}, {"name": "1b66a5468fc305f38cc4ba17efbef1e8", "fusion_lat": 0.0, "fusion_lon": 0.0, "bike_id": "1b66a5468fc305f38cc4ba17efbef1e8", "rental_uris": {"ios": "https://dc.lft.to/lastmile_qr_scan", "android": "https://dc.lft.to/lastmile_qr_scan"}, "type": "electric_scooter", "lat": 38.91021583333333, "is_disabled": 0, "lon": -77.0364125, "is_reserved": 0}, {"name": "69782115f15dda0ba4093d8e242268bf", "fusion_lat": 0.0, "fusion_lon": 0.0, "bike_id": "69782115f15dda0ba4093d8e242268bf", "rental_uris": {"ios": "https://dc.lft.to/lastmile_qr_scan", "android": "https://dc.lft.to/lastmile_qr_scan"}, "type": "electric_bike", "lat": 38.887221333333336, "is_disabled": 0, "lon": -77.133122, "is_reserved": 0}, {"name": "b635c41df2d90c49d9ed13234444bc3c", "fusion_lat": 0.0, "fusion_lon": 0.0, "bike_id": "b635c41df2d90c49d9ed13234444bc3c", "rental_uris": {"ios": "https://dc.lft.to/lastmile_qr_scan", "android": "https://dc.lft.to/lastmile_qr_scan"}, "type": "electric_bike", "lat": 38.970598333333335, "is_disabled": 0, "lon": -76.960636, "is_reserved": 0}, {"name": "a4ad1cc415ce32049f4931275ecf0853", "fusion_lat": 0.0, "fusion_lon": 0.0, "bike_id": "a4ad1cc415ce32049f4931275ecf0853", "rental_uris": {"ios": "https://dc.lft.to/lastmile_qr_scan", "android": "https://dc.lft.to/lastmile_qr_scan"}, "type": "electric_scooter", "lat": 38.9056155, "is_disabled": 0, "lon": -77.00778933333333, "is_reserved": 0}, {"name": "c15bd0c28aef9cc9b1f6e10ca0c9927e", "fusion_lat": 0.0, "fusion_lon": 0.0, "bike_id": "c15bd0c28aef9cc9b1f6e10ca0c9927e", "rental_uris": {"ios": "https://dc.lft.to/lastmile_qr_scan", "android": "https://dc.lft.to/lastmile_qr_scan"}, "type": "electric_scooter", "lat": 38.912062666666664, "is_disabled": 0, "lon": -76.9848975, "is_reserved": 0}, {"name": "4f2a56b376337af8b7233d3b0a43dcd3", "fusion_lat": 0.0, "fusion_lon": 0.0, "bike_id": "4f2a56b376337af8b7233d3b0a43dcd3", "rental_uris": {"ios": "https://dc.lft.to/lastmile_qr_scan", "android": "https://dc.lft.to/lastmile_qr_scan"}, "type": "electric_scooter", "lat": 38.904762, "is_disabled": 0, "lon": -77.04031316666666, "is_reserved": 0}, {"name": "e8daaca3a1205dceff768bb51f6891d3", "fusion_lat": 0.0, "fusion_lon": 0.0, "bike_id": "e8daaca3a1205dceff768bb51f6891d3", "rental_uris": {"ios": "https://dc.lft.to/lastmile_qr_scan", "android": "https://dc.lft.to/lastmile_qr_scan"}, "type": "electric_scooter", "lat": 38.90142316666667, "is_disabled": 0, "lon": -77.039455, "is_reserved": 0}, {"name": "fc699ac509f366142b36848e34fb3ede", "fusion_lat": 0.0, "fusion_lon": 0.0, "bike_id": "fc699ac509f366142b36848e34fb3ede", "rental_uris": {"ios": "https://dc.lft.to/lastmile_qr_scan", "android": "https://dc.lft.to/lastmile_qr_scan"}, "type": "electric_scooter", "lat": 38.907258, "is_disabled": 0, "lon": -77.02367, "is_reserved": 0}, {"name": "f778322c2a3b98ead54305d59a9cac3c", "fusion_lat": 0.0, "fusion_lon": 0.0, "bike_id": "f778322c2a3b98ead54305d59a9cac3c", "rental_uris": {"ios": "https://dc.lft.to/lastmile_qr_scan", "android": "https://dc.lft.to/lastmile_qr_scan"}, "type": "electric_scooter", "lat": 38.891839833333336, "is_disabled": 0, "lon": -77.03168483333333, "is_reserved": 0}, {"name": "23098ba675fb1141940308f61d0567db", "fusion_lat": 0.0, "fusion_lon": 0.0, "bike_id": "23098ba675fb1141940308f61d0567db", "rental_uris": {"ios": "https://dc.lft.to/lastmile_qr_scan", "android": "https://dc.lft.to/lastmile_qr_scan"}, "type": "electric_scooter", "lat": 38.9004, "is_disabled": 0, "lon": -76.98821133333334, "is_reserved": 0}, {"name": "848f831ab7f05156e8659af774dc68d8", "fusion_lat": 0.0, "fusion_lon": 0.0, "bike_id": "848f831ab7f05156e8659af774dc68d8", "rental_uris": {"ios": "https://dc.lft.to/lastmile_qr_scan", "android": "https://dc.lft.to/lastmile_qr_scan"}, "type": "electric_scooter", "lat": 38.91920433333333, "is_disabled": 0, "lon": -77.0236725, "is_reserved": 0}, {"name": "8077c984cc61cc0278b61d2fd1e5b6fc", "fusion_lat": 0.0, "fusion_lon": 0.0, "bike_id": "8077c984cc61cc0278b61d2fd1e5b6fc", "rental_uris": {"ios": "https://dc.lft.to/lastmile_qr_scan", "android": "https://dc.lft.to/lastmile_qr_scan"}, "type": "electric_scooter", "lat": 38.92107416666666, "is_disabled": 0, "lon": -77.03243716666667, "is_reserved": 0}, {"name": "721701a3e8ea9b902b4b96bcef8f77d2", "fusion_lat": 0.0, "fusion_lon": 0.0, "bike_id": "721701a3e8ea9b902b4b96bcef8f77d2", "rental_uris": {"ios": "https://dc.lft.to/lastmile_qr_scan", "android": "https://dc.lft.to/lastmile_qr_scan"}, "type": "electric_scooter", "lat": 38.900485, "is_disabled": 0, "lon": -77.00072666666667, "is_reserved": 0}, {"name": "83e8d1c595fa7226943ecda41bce587d", "fusion_lat": 0.0, "fusion_lon": 0.0, "bike_id": "83e8d1c595fa7226943ecda41bce587d", "rental_uris": {"ios": "https://dc.lft.to/lastmile_qr_scan", "android": "https://dc.lft.to/lastmile_qr_scan"}, "type": "electric_scooter", "lat": 38.92758166666667, "is_disabled": 0, "lon": -77.00585766666667, "is_reserved": 0}, {"name": "ef3cd49b73ccb758b3c97f6aa5de082a", "fusion_lat": 0.0, "fusion_lon": 0.0, "bike_id": "ef3cd49b73ccb758b3c97f6aa5de082a", "rental_uris": {"ios": "https://dc.lft.to/lastmile_qr_scan", "android": "https://dc.lft.to/lastmile_qr_scan"}, "type": "electric_scooter", "lat": 38.90031366666667, "is_disabled": 0, "lon": -76.998464, "is_reserved": 0}, {"name": "219448831f6c7aa0e63382be1d77a2f3", "fusion_lat": 0.0, "fusion_lon": 0.0, "bike_id": "219448831f6c7aa0e63382be1d77a2f3", "rental_uris": {"ios": "https://dc.lft.to/lastmile_qr_scan", "android": "https://dc.lft.to/lastmile_qr_scan"}, "type": "electric_scooter", "lat": 38.929458, "is_disabled": 0, "lon": -77.018855, "is_reserved": 0}, {"name": "75ae941d9a9711214dcef1f64891c822", "fusion_lat": 0.0, "fusion_lon": 0.0, "bike_id": "75ae941d9a9711214dcef1f64891c822", "rental_uris": {"ios": "https://dc.lft.to/lastmile_qr_scan", "android": "https://dc.lft.to/lastmile_qr_scan"}, "type": "electric_scooter", "lat": 38.935926, "is_disabled": 0, "lon": -77.0584075, "is_reserved": 0}, {"name": "fe4c106f95d4cae35ef05d26c91a2fee", "fusion_lat": 0.0, "fusion_lon": 0.0, "bike_id": "fe4c106f95d4cae35ef05d26c91a2fee", "rental_uris": {"ios": "https://dc.lft.to/lastmile_qr_scan", "android": "https://dc.lft.to/lastmile_qr_scan"}, "type": "electric_scooter", "lat": 38.887517833333334, "is_disabled": 0, "lon": -76.9833525, "is_reserved": 0}, {"name": "d895e18631273e5f78a79d929a18037d", "fusion_lat": 0.0, "fusion_lon": 0.0, "bike_id": "d895e18631273e5f78a79d929a18037d", "rental_uris": {"ios": "https://dc.lft.to/lastmile_qr_scan", "android": "https://dc.lft.to/lastmile_qr_scan"}, "type": "electric_scooter", "lat": 38.919372333333335, "is_disabled": 0, "lon": -76.98071816666666, "is_reserved": 0}, {"name": "56b93a4a806efb5b952b3a865d624b6e", "fusion_lat": 0.0, "fusion_lon": 0.0, "bike_id": "56b93a4a806efb5b952b3a865d624b6e", "rental_uris": {"ios": "https://dc.lft.to/lastmile_qr_scan", "android": "https://dc.lft.to/lastmile_qr_scan"}, "type": "electric_scooter", "lat": 38.8832815, "is_disabled": 0, "lon": -77.0081655, "is_reserved": 0}, {"name": "c63fc8998279a42714893de9a2d896b7", "fusion_lat": 0.0, "fusion_lon": 0.0, "bike_id": "c63fc8998279a42714893de9a2d896b7", "rental_uris": {"ios": "https://dc.lft.to/lastmile_qr_scan", "android": "https://dc.lft.to/lastmile_qr_scan"}, "type": "electric_scooter", "lat": 38.895360333333336, "is_disabled": 0, "lon": -77.00344866666667, "is_reserved": 0}, {"name": "8ba7e25e7ddb856932ab67cf82689615", "fusion_lat": 0.0, "fusion_lon": 0.0, "bike_id": "8ba7e25e7ddb856932ab67cf82689615", "rental_uris": {"ios": "https://dc.lft.to/lastmile_qr_scan", "android": "https://dc.lft.to/lastmile_qr_scan"}, "type": "electric_scooter", "lat": 38.89997666666667, "is_disabled": 0, "lon": -77.027119, "is_reserved": 0}, {"name": "a8a3a50399ece82f25442926d8ace8cc", "fusion_lat": 0.0, "fusion_lon": 0.0, "bike_id": "a8a3a50399ece82f25442926d8ace8cc", "rental_uris": {"ios": "https://dc.lft.to/lastmile_qr_scan", "android": "https://dc.lft.to/lastmile_qr_scan"}, "type": "electric_scooter", "lat": 38.900956, "is_disabled": 0, "lon": -77.03946066666667, "is_reserved": 0}, {"name": "855f7603bcdeca5cec98a53479374fe0", "fusion_lat": 0.0, "fusion_lon": 0.0, "bike_id": "855f7603bcdeca5cec98a53479374fe0", "rental_uris": {"ios": "https://dc.lft.to/lastmile_qr_scan", "android": "https://dc.lft.to/lastmile_qr_scan"}, "type": "electric_scooter", "lat": 38.91751283333333, "is_disabled": 0, "lon": -77.04772616666666, "is_reserved": 0}, {"name": "6d8894d880b821c1d8c5571be67fcf8f", "fusion_lat": 0.0, "fusion_lon": 0.0, "bike_id": "6d8894d880b821c1d8c5571be67fcf8f", "rental_uris": {"ios": "https://dc.lft.to/lastmile_qr_scan", "android": "https://dc.lft.to/lastmile_qr_scan"}, "type": "electric_scooter", "lat": 38.91079533333333, "is_disabled": 0, "lon": -77.00150866666667, "is_reserved": 0}, {"name": "31ba7b2d4baa724712448e536dc733b9", "fusion_lat": 0.0, "fusion_lon": 0.0, "bike_id": "31ba7b2d4baa724712448e536dc733b9", "rental_uris": {"ios": "https://dc.lft.to/lastmile_qr_scan", "android": "https://dc.lft.to/lastmile_qr_scan"}, "type": "electric_scooter", "lat": 38.90371916666667, "is_disabled": 0, "lon": -77.0343645, "is_reserved": 0}, {"name": "f6209688c88e6d7833e0afaf34cf979d", "fusion_lat": 0.0, "fusion_lon": 0.0, "bike_id": "f6209688c88e6d7833e0afaf34cf979d", "rental_uris": {"ios": "https://dc.lft.to/lastmile_qr_scan", "android": "https://dc.lft.to/lastmile_qr_scan"}, "type": "electric_scooter", "lat": 38.91634766666667, "is_disabled": 0, "lon": -77.05060933333333, "is_reserved": 0}, {"name": "cab8d8873fcdf176562360bc984e0cfd", "fusion_lat": 0.0, "fusion_lon": 0.0, "bike_id": "cab8d8873fcdf176562360bc984e0cfd", "rental_uris": {"ios": "https://dc.lft.to/lastmile_qr_scan", "android": "https://dc.lft.to/lastmile_qr_scan"}, "type": "electric_scooter", "lat": 38.93191266666667, "is_disabled": 0, "lon": -77.02837966666667, "is_reserved": 0}, {"name": "bd573e0be3c025e982917bb4b4ded8af", "fusion_lat": 0.0, "fusion_lon": 0.0, "bike_id": "bd573e0be3c025e982917bb4b4ded8af", "rental_uris": {"ios": "https://dc.lft.to/lastmile_qr_scan", "android": "https://dc.lft.to/lastmile_qr_scan"}, "type": "electric_scooter", "lat": 38.905959, "is_disabled": 0, "lon": -77.07013116666667, "is_reserved": 0}, {"name": "354cb62ffbcf7b749dd9ca77e0e5e3c4", "fusion_lat": 0.0, "fusion_lon": 0.0, "bike_id": "354cb62ffbcf7b749dd9ca77e0e5e3c4", "rental_uris": {"ios": "https://dc.lft.to/lastmile_qr_scan", "android": "https://dc.lft.to/lastmile_qr_scan"}, "type": "electric_scooter", "lat": 38.909032833333335, "is_disabled": 0, "lon": -76.9919965, "is_reserved": 0}, {"name": "c83ca751aed887f09f9430be67394523", "fusion_lat": 0.0, "fusion_lon": 0.0, "bike_id": "c83ca751aed887f09f9430be67394523", "rental_uris": {"ios": "https://dc.lft.to/lastmile_qr_scan", "android": "https://dc.lft.to/lastmile_qr_scan"}, "type": "electric_scooter", "lat": 38.8978195, "is_disabled": 0, "lon": -76.97098266666667, "is_reserved": 0}, {"name": "4eaec0647b1aaae1092af9cd47d60052", "fusion_lat": 0.0, "fusion_lon": 0.0, "bike_id": "4eaec0647b1aaae1092af9cd47d60052", "rental_uris": {"ios": "https://dc.lft.to/lastmile_qr_scan", "android": "https://dc.lft.to/lastmile_qr_scan"}, "type": "electric_scooter", "lat": 38.885052333333334, "is_disabled": 0, "lon": -77.00570666666667, "is_reserved": 0}, {"name": "56de4f012c0bf4d626347bc1d96e44ed", "fusion_lat": 0.0, "fusion_lon": 0.0, "bike_id": "56de4f012c0bf4d626347bc1d96e44ed", "rental_uris": {"ios": "https://dc.lft.to/lastmile_qr_scan", "android": "https://dc.lft.to/lastmile_qr_scan"}, "type": "electric_scooter", "lat": 38.897779, "is_disabled": 0, "lon": -77.00722066666667, "is_reserved": 0}, {"name": "7b492efea900e6dc43ae5f7bc0e4a807", "fusion_lat": 0.0, "fusion_lon": 0.0, "bike_id": "7b492efea900e6dc43ae5f7bc0e4a807", "rental_uris": {"ios": "https://dc.lft.to/lastmile_qr_scan", "android": "https://dc.lft.to/lastmile_qr_scan"}, "type": "electric_scooter", "lat": 38.91750733333333, "is_disabled": 0, "lon": -77.02496783333333, "is_reserved": 0}, {"name": "aa930cd8f0c63283808174b2d29f2301", "fusion_lat": 0.0, "fusion_lon": 0.0, "bike_id": "aa930cd8f0c63283808174b2d29f2301", "rental_uris": {"ios": "https://dc.lft.to/lastmile_qr_scan", "android": "https://dc.lft.to/lastmile_qr_scan"}, "type": "electric_bike", "lat": 38.998335166666664, "is_disabled": 0, "lon": -77.02892333333334, "is_reserved": 0}, {"name": "8de42eeb5ec2304acaa8d1715da369af", "fusion_lat": 0.0, "fusion_lon": 0.0, "bike_id": "8de42eeb5ec2304acaa8d1715da369af", "rental_uris": {"ios": "https://dc.lft.to/lastmile_qr_scan", "android": "https://dc.lft.to/lastmile_qr_scan"}, "type": "electric_bike", "lat": 38.868610833333335, "is_disabled": 0, "lon": -76.9165645, "is_reserved": 0}, {"name": "bd364d1fa8b537570cbcc133f278f42a", "fusion_lat": 0.0, "fusion_lon": 0.0, "bike_id": "bd364d1fa8b537570cbcc133f278f42a", "rental_uris": {"ios": "https://dc.lft.to/lastmile_qr_scan", "android": "https://dc.lft.to/lastmile_qr_scan"}, "type": "electric_bike", "lat": 38.93189816666667, "is_disabled": 0, "lon": -77.22933316666666, "is_reserved": 0}, {"name": "ff1e22179178b3e47af4583c3bf00eca", "fusion_lat": 0.0, "fusion_lon": 0.0, "bike_id": "ff1e22179178b3e47af4583c3bf00eca", "rental_uris": {"ios": "https://dc.lft.to/lastmile_qr_scan", "android": "https://dc.lft.to/lastmile_qr_scan"}, "type": "electric_bike", "lat": 38.924282833333336, "is_disabled": 0, "lon": -77.05179466666667, "is_reserved": 0}, {"name": "983dcbdffe4dc2ac9fa7a4f220e8fff9", "fusion_lat": 0.0, "fusion_lon": 0.0, "bike_id": "983dcbdffe4dc2ac9fa7a4f220e8fff9", "rental_uris": {"ios": "https://dc.lft.to/lastmile_qr_scan", "android": "https://dc.lft.to/lastmile_qr_scan"}, "type": "electric_scooter", "lat": 38.90969066666667, "is_disabled": 0, "lon": -77.0217375, "is_reserved": 0}, {"name": "d93a24d32bf36794f1bc32f20dc3328e", "fusion_lat": 0.0, "fusion_lon": 0.0, "bike_id": "d93a24d32bf36794f1bc32f20dc3328e", "rental_uris": {"ios": "https://dc.lft.to/lastmile_qr_scan", "android": "https://dc.lft.to/lastmile_qr_scan"}, "type": "electric_scooter", "lat": 38.901065833333334, "is_disabled": 0, "lon": -77.03224233333333, "is_reserved": 0}, {"name": "1b19d0875eee93c6d710a5b93cf64cbc", "fusion_lat": 0.0, "fusion_lon": 0.0, "bike_id": "1b19d0875eee93c6d710a5b93cf64cbc", "rental_uris": {"ios": "https://dc.lft.to/lastmile_qr_scan", "android": "https://dc.lft.to/lastmile_qr_scan"}, "type": "electric_scooter", "lat": 38.9142495, "is_disabled": 0, "lon": -77.03905883333333, "is_reserved": 0}, {"name": "d96d887d9e718282314d7767d44d1699", "fusion_lat": 0.0, "fusion_lon": 0.0, "bike_id": "d96d887d9e718282314d7767d44d1699", "rental_uris": {"ios": "https://dc.lft.to/lastmile_qr_scan", "android": "https://dc.lft.to/lastmile_qr_scan"}, "type": "electric_scooter", "lat": 38.86655283333333, "is_disabled": 0, "lon": -76.98886166666666, "is_reserved": 0}, {"name": "f8a8fc6043b1c110dac95e9c7acd2fe4", "fusion_lat": 0.0, "fusion_lon": 0.0, "bike_id": "f8a8fc6043b1c110dac95e9c7acd2fe4", "rental_uris": {"ios": "https://dc.lft.to/lastmile_qr_scan", "android": "https://dc.lft.to/lastmile_qr_scan"}, "type": "electric_bike", "lat": 38.9356435, "is_disabled": 0, "lon": -76.95466483333334, "is_reserved": 0}, {"name": "3bf95281ead1ff560402f77af40141ca", "fusion_lat": 0.0, "fusion_lon": 0.0, "bike_id": "3bf95281ead1ff560402f77af40141ca", "rental_uris": {"ios": "https://dc.lft.to/lastmile_qr_scan", "android": "https://dc.lft.to/lastmile_qr_scan"}, "type": "electric_scooter", "lat": 38.8621115, "is_disabled": 0, "lon": -76.99475233333334, "is_reserved": 0}, {"name": "d92b849a3491081c312f0d9afdf40902", "fusion_lat": 0.0, "fusion_lon": 0.0, "bike_id": "d92b849a3491081c312f0d9afdf40902", "rental_uris": {"ios": "https://dc.lft.to/lastmile_qr_scan", "android": "https://dc.lft.to/lastmile_qr_scan"}, "type": "electric_bike", "lat": 38.91705666666667, "is_disabled": 0, "lon": -77.22106516666666, "is_reserved": 0}, {"name": "5f360e1a2609ad7e5b825dc7635871bc", "fusion_lat": 0.0, "fusion_lon": 0.0, "bike_id": "5f360e1a2609ad7e5b825dc7635871bc", "rental_uris": {"ios": "https://dc.lft.to/lastmile_qr_scan", "android": "https://dc.lft.to/lastmile_qr_scan"}, "type": "electric_bike", "lat": 38.898239333333336, "is_disabled": 0, "lon": -77.02478433333333, "is_reserved": 0}, {"name": "733b709b2a1cbef2ecbce08450cfe4ef", "fusion_lat": 0.0, "fusion_lon": 0.0, "bike_id": "733b709b2a1cbef2ecbce08450cfe4ef", "rental_uris": {"ios": "https://dc.lft.to/lastmile_qr_scan", "android": "https://dc.lft.to/lastmile_qr_scan"}, "type": "electric_scooter", "lat": 38.8763545, "is_disabled": 0, "lon": -77.00804483333333, "is_reserved": 0}, {"name": "b07967318fe9f05dc5ced2adba6a6713", "fusion_lat": 0.0, "fusion_lon": 0.0, "bike_id": "b07967318fe9f05dc5ced2adba6a6713", "rental_uris": {"ios": "https://dc.lft.to/lastmile_qr_scan", "android": "https://dc.lft.to/lastmile_qr_scan"}, "type": "electric_scooter", "lat": 38.93958583333333, "is_disabled": 0, "lon": -77.02780666666666, "is_reserved": 0}, {"name": "c2022557f9048ffc660f17a2d0d4bb40", "fusion_lat": 0.0, "fusion_lon": 0.0, "bike_id": "c2022557f9048ffc660f17a2d0d4bb40", "rental_uris": {"ios": "https://dc.lft.to/lastmile_qr_scan", "android": "https://dc.lft.to/lastmile_qr_scan"}, "type": "electric_scooter", "lat": 38.90044366666667, "is_disabled": 0, "lon": -77.012317, "is_reserved": 0}, {"name": "b6275092608e26f59486f95ccad5d718", "fusion_lat": 0.0, "fusion_lon": 0.0, "bike_id": "b6275092608e26f59486f95ccad5d718", "rental_uris": {"ios": "https://dc.lft.to/lastmile_qr_scan", "android": "https://dc.lft.to/lastmile_qr_scan"}, "type": "electric_bike", "lat": 39.03882383333333, "is_disabled": 0, "lon": -77.10910183333333, "is_reserved": 0}, {"name": "e23a18fa6dfeb2c15f14aacd738e24af", "fusion_lat": 0.0, "fusion_lon": 0.0, "bike_id": "e23a18fa6dfeb2c15f14aacd738e24af", "rental_uris": {"ios": "https://dc.lft.to/lastmile_qr_scan", "android": "https://dc.lft.to/lastmile_qr_scan"}, "type": "electric_scooter", "lat": 38.95608583333333, "is_disabled": 0, "lon": -77.027906, "is_reserved": 0}, {"name": "6cd5db55ef23bdd1c09758a3f6aaa34d", "fusion_lat": 0.0, "fusion_lon": 0.0, "bike_id": "6cd5db55ef23bdd1c09758a3f6aaa34d", "rental_uris": {"ios": "https://dc.lft.to/lastmile_qr_scan", "android": "https://dc.lft.to/lastmile_qr_scan"}, "type": "electric_scooter", "lat": 38.867014833333336, "is_disabled": 0, "lon": -76.98707716666667, "is_reserved": 0}, {"name": "8931873cd98dab3f1cc52f19e273998f", "fusion_lat": 0.0, "fusion_lon": 0.0, "bike_id": "8931873cd98dab3f1cc52f19e273998f", "rental_uris": {"ios": "https://dc.lft.to/lastmile_qr_scan", "android": "https://dc.lft.to/lastmile_qr_scan"}, "type": "electric_scooter", "lat": 38.90722066666667, "is_disabled": 0, "lon": -77.04386666666667, "is_reserved": 0}, {"name": "f575bc013ec75a9b4083fed6a721ef5f", "fusion_lat": 0.0, "fusion_lon": 0.0, "bike_id": "f575bc013ec75a9b4083fed6a721ef5f", "rental_uris": {"ios": "https://dc.lft.to/lastmile_qr_scan", "android": "https://dc.lft.to/lastmile_qr_scan"}, "type": "electric_scooter", "lat": 38.92513983333333, "is_disabled": 0, "lon": -77.051195, "is_reserved": 0}, {"name": "f585281b21e5d02df7f049558bb0582b", "fusion_lat": 0.0, "fusion_lon": 0.0, "bike_id": "f585281b21e5d02df7f049558bb0582b", "rental_uris": {"ios": "https://dc.lft.to/lastmile_qr_scan", "android": "https://dc.lft.to/lastmile_qr_scan"}, "type": "electric_scooter", "lat": 38.916338333333336, "is_disabled": 0, "lon": -77.0412605, "is_reserved": 0}, {"name": "15f92e8afb2fdbebdc06da1df20c1f43", "fusion_lat": 0.0, "fusion_lon": 0.0, "bike_id": "15f92e8afb2fdbebdc06da1df20c1f43", "rental_uris": {"ios": "https://dc.lft.to/lastmile_qr_scan", "android": "https://dc.lft.to/lastmile_qr_scan"}, "type": "electric_scooter", "lat": 38.89786333333333, "is_disabled": 0, "lon": -77.00920216666667, "is_reserved": 0}, {"name": "07759b9dc7a5503191233d55281741f9", "fusion_lat": 0.0, "fusion_lon": 0.0, "bike_id": "07759b9dc7a5503191233d55281741f9", "rental_uris": {"ios": "https://dc.lft.to/lastmile_qr_scan", "android": "https://dc.lft.to/lastmile_qr_scan"}, "type": "electric_scooter", "lat": 38.920135333333334, "is_disabled": 0, "lon": -77.03141783333334, "is_reserved": 0}, {"name": "e5fe634f61a9e1dbf8201ea478798535", "fusion_lat": 0.0, "fusion_lon": 0.0, "bike_id": "e5fe634f61a9e1dbf8201ea478798535", "rental_uris": {"ios": "https://dc.lft.to/lastmile_qr_scan", "android": "https://dc.lft.to/lastmile_qr_scan"}, "type": "electric_scooter", "lat": 38.929696666666665, "is_disabled": 0, "lon": -77.04205533333334, "is_reserved": 0}, {"name": "97fca14bd4bd51172dad83a8156fdfff", "fusion_lat": 0.0, "fusion_lon": 0.0, "bike_id": "97fca14bd4bd51172dad83a8156fdfff", "rental_uris": {"ios": "https://dc.lft.to/lastmile_qr_scan", "android": "https://dc.lft.to/lastmile_qr_scan"}, "type": "electric_scooter", "lat": 38.91480883333333, "is_disabled": 0, "lon": -77.03215616666667, "is_reserved": 0}, {"name": "4e3bd3c48e65993cc60201c7cd759951", "fusion_lat": 0.0, "fusion_lon": 0.0, "bike_id": "4e3bd3c48e65993cc60201c7cd759951", "rental_uris": {"ios": "https://dc.lft.to/lastmile_qr_scan", "android": "https://dc.lft.to/lastmile_qr_scan"}, "type": "electric_scooter", "lat": 38.89617716666667, "is_disabled": 0, "lon": -76.99635533333333, "is_reserved": 0}, {"name": "b83be6b9eeeeac1d606af49d7f40e863", "fusion_lat": 0.0, "fusion_lon": 0.0, "bike_id": "b83be6b9eeeeac1d606af49d7f40e863", "rental_uris": {"ios": "https://dc.lft.to/lastmile_qr_scan", "android": "https://dc.lft.to/lastmile_qr_scan"}, "type": "electric_scooter", "lat": 38.90179283333333, "is_disabled": 0, "lon": -76.9282585, "is_reserved": 0}, {"name": "0b69ea1066b6f1a76d228e7286700b97", "fusion_lat": 0.0, "fusion_lon": 0.0, "bike_id": "0b69ea1066b6f1a76d228e7286700b97", "rental_uris": {"ios": "https://dc.lft.to/lastmile_qr_scan", "android": "https://dc.lft.to/lastmile_qr_scan"}, "type": "electric_scooter", "lat": 38.9325565, "is_disabled": 0, "lon": -77.03279216666667, "is_reserved": 0}, {"name": "48c2170feb33aa73e5ae822f96738be1", "fusion_lat": 0.0, "fusion_lon": 0.0, "bike_id": "48c2170feb33aa73e5ae822f96738be1", "rental_uris": {"ios": "https://dc.lft.to/lastmile_qr_scan", "android": "https://dc.lft.to/lastmile_qr_scan"}, "type": "electric_scooter", "lat": 38.92078883333333, "is_disabled": 0, "lon": -77.02527666666667, "is_reserved": 0}, {"name": "d62bfc636a28e1d56b18e185dc946458", "fusion_lat": 0.0, "fusion_lon": 0.0, "bike_id": "d62bfc636a28e1d56b18e185dc946458", "rental_uris": {"ios": "https://dc.lft.to/lastmile_qr_scan", "android": "https://dc.lft.to/lastmile_qr_scan"}, "type": "electric_scooter", "lat": 38.9108, "is_disabled": 0, "lon": -77.0014885, "is_reserved": 0}, {"name": "ce95ef8b7ffaddd3992aa6c593968f61", "fusion_lat": 0.0, "fusion_lon": 0.0, "bike_id": "ce95ef8b7ffaddd3992aa6c593968f61", "rental_uris": {"ios": "https://dc.lft.to/lastmile_qr_scan", "android": "https://dc.lft.to/lastmile_qr_scan"}, "type": "electric_scooter", "lat": 38.89939566666666, "is_disabled": 0, "lon": -77.0461895, "is_reserved": 0}, {"name": "1c654476e4353a8a4ecdc9d3e7674544", "fusion_lat": 0.0, "fusion_lon": 0.0, "bike_id": "1c654476e4353a8a4ecdc9d3e7674544", "rental_uris": {"ios": "https://dc.lft.to/lastmile_qr_scan", "android": "https://dc.lft.to/lastmile_qr_scan"},