{"data": {"bikes": [{"name": "cb352e7affb91f6d992fad56796d4ca8", "fusion_lat": 0.0, "type": "electric_bike", "lat": 38.891889166666665, "is_reserved": 0, "is_disabled": 0, "fusion_lon": 0.0, "bike_id": "cb352e7affb91f6d992fad56796d4ca8", "lon": -77.122612, "rental_uris": {"ios": "https://dc.lft.to/lastmile_qr_scan", "android": "https://dc.lft.to/lastmile_qr_scan"}}, {"name": "57ad0fdae3eb51640ac68cfdeca7f081", "fusion_lat": 0.0, "type": "electric_scooter", "lat": 38.88876883333333, "is_reserved": 0, "is_disabled": 0, "fusion_lon": 0.0, "bike_id": "57ad0fdae3eb51640ac68cfdeca7f081", "lon": -76.99032483333333, "rental_uris": {"ios": "https://dc.lft.to/lastmile_qr_scan", "android": "https://dc.lft.to/lastmile_qr_scan"}}, {"name": "af01b96142376ef2a2e8784138bf3922", "fusion_lat": 0.0, "type": "electric_bike", "lat": 38.8129875, "is_reserved": 0, "is_disabled": 0, "fusion_lon": 0.0, "bike_id": "af01b96142376ef2a2e8784138bf3922", "lon": -77.11197266666667, "rental_uris": {"ios": "https://dc.lft.to/lastmile_qr_scan", "android": "https://dc.lft.to/lastmile_qr_scan"}}, {"name": "b024592a4b8d49134d1aa77dc6e25049", "fusion_lat": 0.0, "type": "electric_scooter", "lat": 38.92102883333333, "is_reserved": 0, "is_disabled": 0, "fusion_lon": 0.0, "bike_id": "b024592a4b8d49134d1aa77dc6e25049", "lon": -77.0177455, "rental_uris": {"ios": "https://dc.lft.to/lastmile_qr_scan", "android": "https://dc.lft.to/lastmile_qr_scan"}}, {"name": "0c819a52ffd51cc643ecb0ca2e0ed7b3", "fusion_lat": 0.0, "type": "electric_scooter", "lat": 38.902304, "is_reserved": 0, "is_disabled": 0, "fusion_lon": 0.0, "bike_id": "0c819a52ffd51cc643ecb0ca2e0ed7b3", "lon": -77.05148716666666, "rental_uris": {"ios": "https://dc.lft.to/lastmile_qr_scan", "android": "https://dc.lft.to/lastmile_qr_scan"}}, {"name": "48c11de2ddc0aab85625ad5187555b2b", "fusion_lat": 0.0, "type": "electric_scooter", "lat": 38.91065416666667, "is_reserved": 0, "is_disabled": 0, "fusion_lon": 0.0, "bike_id": "48c11de2ddc0aab85625ad5187555b2b", "lon": -77.05325283333333, "rental_uris": {"ios": "https://dc.lft.to/lastmile_qr_scan", "android": "https://dc.lft.to/lastmile_qr_scan"}}, {"name": "17b40b55303469e82cecf847eff6fc44", "fusion_lat": 0.0, "type": "electric_bike", "lat": 38.8319605, "is_reserved": 0, "is_disabled": 0, "fusion_lon": 0.0, "bike_id": "17b40b55303469e82cecf847eff6fc44", "lon": -77.07683516666667, "rental_uris": {"ios": "https://dc.lft.to/lastmile_qr_scan", "android": "https://dc.lft.to/lastmile_qr_scan"}}, {"name": "6f42b2452d17eaacd247d9ca29ffe6cf", "fusion_lat": 0.0, "type": "electric_scooter", "lat": 38.906769833333335, "is_reserved": 0, "is_disabled": 0, "fusion_lon": 0.0, "bike_id": "6f42b2452d17eaacd247d9ca29ffe6cf", "lon": -76.9781175, "rental_uris": {"ios": "https://dc.lft.to/lastmile_qr_scan", "android": "https://dc.lft.to/lastmile_qr_scan"}}, {"name": "b9dc46f8ed0f93c00890d400a1c73391", "fusion_lat": 0.0, "type": "electric_scooter", "lat": 38.912668, "is_reserved": 0, "is_disabled": 0, "fusion_lon": 0.0, "bike_id": "b9dc46f8ed0f93c00890d400a1c73391", "lon": -77.03636033333333, "rental_uris": {"ios": "https://dc.lft.to/lastmile_qr_scan", "android": "https://dc.lft.to/lastmile_qr_scan"}}, {"name": "461603d9201cdb3bc92be0fa243b9ec6", "fusion_lat": 0.0, "type": "electric_scooter", "lat": 38.920661333333335, "is_reserved": 0, "is_disabled": 0, "fusion_lon": 0.0, "bike_id": "461603d9201cdb3bc92be0fa243b9ec6", "lon": -77.04375616666667, "rental_uris": {"ios": "https://dc.lft.to/lastmile_qr_scan", "android": "https://dc.lft.to/lastmile_qr_scan"}}, {"name": "df4e2a24e9fa6ccea6366cbf8e96620b", "fusion_lat": 0.0, "type": "electric_bike", "lat": 38.9555515, "is_reserved": 0, "is_disabled": 0, "fusion_lon": 0.0, "bike_id": "df4e2a24e9fa6ccea6366cbf8e96620b", "lon": -76.935492, "rental_uris": {"ios": "https://dc.lft.to/lastmile_qr_scan", "android": "https://dc.lft.to/lastmile_qr_scan"}}, {"name": "ee97714291f5a4e842f265fd74a3a60d", "fusion_lat": 0.0, "type": "electric_scooter", "lat": 38.920663833333336, "is_reserved": 0, "is_disabled": 0, "fusion_lon": 0.0, "bike_id": "ee97714291f5a4e842f265fd74a3a60d", "lon": -77.04378866666667, "rental_uris": {"ios": "https://dc.lft.to/lastmile_qr_scan", "android": "https://dc.lft.to/lastmile_qr_scan"}}, {"name": "9fc7fe45e52028babbf2e4d109400946", "fusion_lat": 0.0, "type": "electric_scooter", "lat": 38.933601333333336, "is_reserved": 0, "is_disabled": 0, "fusion_lon": 0.0, "bike_id": "9fc7fe45e52028babbf2e4d109400946", "lon": -77.03727466666666, "rental_uris": {"ios": "https://dc.lft.to/lastmile_qr_scan", "android": "https://dc.lft.to/lastmile_qr_scan"}}, {"name": "4eb7e6e0a12b41bc489386e3230d57ba", "fusion_lat": 0.0, "type": "electric_scooter", "lat": 38.917112, "is_reserved": 0, "is_disabled": 0, "fusion_lon": 0.0, "bike_id": "4eb7e6e0a12b41bc489386e3230d57ba", "lon": -77.02898033333334, "rental_uris": {"ios": "https://dc.lft.to/lastmile_qr_scan", "android": "https://dc.lft.to/lastmile_qr_scan"}}, {"name": "b5b77a29feb86d7ba43155d2d53d3342", "fusion_lat": 0.0, "type": "electric_scooter", "lat": 38.915991, "is_reserved": 0, "is_disabled": 0, "fusion_lon": 0.0, "bike_id": "b5b77a29feb86d7ba43155d2d53d3342", "lon": -77.04517983333334, "rental_uris": {"ios": "https://dc.lft.to/lastmile_qr_scan", "android": "https://dc.lft.to/lastmile_qr_scan"}}, {"name": "4802ee5c9511848b4e45526cd00e95b0", "fusion_lat": 0.0, "type": "electric_scooter", "lat": 38.89222516666667, "is_reserved": 0, "is_disabled": 0, "fusion_lon": 0.0, "bike_id": "4802ee5c9511848b4e45526cd00e95b0", "lon": -77.02413883333334, "rental_uris": {"ios": "https://dc.lft.to/lastmile_qr_scan", "android": "https://dc.lft.to/lastmile_qr_scan"}}, {"name": "c8569b402c4f46d23e26af650cd953df", "fusion_lat": 0.0, "type": "electric_scooter", "lat": 38.91745816666667, "is_reserved": 0, "is_disabled": 0, "fusion_lon": 0.0, "bike_id": "c8569b402c4f46d23e26af650cd953df", "lon": -77.03645066666667, "rental_uris": {"ios": "https://dc.lft.to/lastmile_qr_scan", "android": "https://dc.lft.to/lastmile_qr_scan"}}, {"name": "c6d7d9a68f899903472f711b50bd2b5e", "fusion_lat": 0.0, "type": "electric_scooter", "lat": 38.892335833333334, "is_reserved": 0, "is_disabled": 0, "fusion_lon": 0.0, "bike_id": "c6d7d9a68f899903472f711b50bd2b5e", "lon": -77.0500505, "rental_uris": {"ios": "https://dc.lft.to/lastmile_qr_scan", "android": "https://dc.lft.to/lastmile_qr_scan"}}, {"name": "0a9ea5a0057da647c007a4afda79d122", "fusion_lat": 0.0, "type": "electric_scooter", "lat": 38.91501616666667, "is_reserved": 0, "is_disabled": 0, "fusion_lon": 0.0, "bike_id": "0a9ea5a0057da647c007a4afda79d122", "lon": -77.02202833333334, "rental_uris": {"ios": "https://dc.lft.to/lastmile_qr_scan", "android": "https://dc.lft.to/lastmile_qr_scan"}}, {"name": "5c645eb4b5a2c4ed6c10a350d7584701", "fusion_lat": 0.0, "type": "electric_scooter", "lat": 38.90566, "is_reserved": 0, "is_disabled": 0, "fusion_lon": 0.0, "bike_id": "5c645eb4b5a2c4ed6c10a350d7584701", "lon": -77.02220933333334, "rental_uris": {"ios": "https://dc.lft.to/lastmile_qr_scan", "android": "https://dc.lft.to/lastmile_qr_scan"}}, {"name": "bbca34bf4565605abc81a13c8227c5ae", "fusion_lat": 0.0, "type": "electric_bike", "lat": 38.88110416666667, "is_reserved": 0, "is_disabled": 0, "fusion_lon": 0.0, "bike_id": "bbca34bf4565605abc81a13c8227c5ae", "lon": -77.01675033333333, "rental_uris": {"ios": "https://dc.lft.to/lastmile_qr_scan", "android": "https://dc.lft.to/lastmile_qr_scan"}}, {"name": "bfba478832f39abfd09ecb8401ab7e87", "fusion_lat": 0.0, "type": "electric_scooter", "lat": 38.887463333333336, "is_reserved": 0, "is_disabled": 0, "fusion_lon": 0.0, "bike_id": "bfba478832f39abfd09ecb8401ab7e87", "lon": -77.02136066666667, "rental_uris": {"ios": "https://dc.lft.to/lastmile_qr_scan", "android": "https://dc.lft.to/lastmile_qr_scan"}}, {"name": "6cbbe3220909d53675c69be72b121ebf", "fusion_lat": 0.0, "type": "electric_scooter", "lat": 38.925233, "is_reserved": 0, "is_disabled": 0, "fusion_lon": 0.0, "bike_id": "6cbbe3220909d53675c69be72b121ebf", "lon": -77.05539616666667, "rental_uris": {"ios": "https://dc.lft.to/lastmile_qr_scan", "android": "https://dc.lft.to/lastmile_qr_scan"}}, {"name": "263dc6faf439f14b4a6c8059f9bcdbbc", "fusion_lat": 0.0, "type": "electric_scooter", "lat": 38.8996785, "is_reserved": 0, "is_disabled": 0, "fusion_lon": 0.0, "bike_id": "263dc6faf439f14b4a6c8059f9bcdbbc", "lon": -76.93963483333333, "rental_uris": {"ios": "https://dc.lft.to/lastmile_qr_scan", "android": "https://dc.lft.to/lastmile_qr_scan"}}, {"name": "78835165f142dd834cbaef22042aa410", "fusion_lat": 0.0, "type": "electric_scooter", "lat": 38.897544833333335, "is_reserved": 0, "is_disabled": 0, "fusion_lon": 0.0, "bike_id": "78835165f142dd834cbaef22042aa410", "lon": -77.03099416666667, "rental_uris": {"ios": "https://dc.lft.to/lastmile_qr_scan", "android": "https://dc.lft.to/lastmile_qr_scan"}}, {"name": "8edf4a2f148dbcbefa4d5341c8d43064", "fusion_lat": 0.0, "type": "electric_scooter", "lat": 38.90327283333333, "is_reserved": 0, "is_disabled": 0, "fusion_lon": 0.0, "bike_id": "8edf4a2f148dbcbefa4d5341c8d43064", "lon": -77.0656625, "rental_uris": {"ios": "https://dc.lft.to/lastmile_qr_scan", "android": "https://dc.lft.to/lastmile_qr_scan"}}, {"name": "712333ba101ea827a3965d58abbceed6", "fusion_lat": 0.0, "type": "electric_scooter", "lat": 38.884343333333334, "is_reserved": 0, "is_disabled": 0, "fusion_lon": 0.0, "bike_id": "712333ba101ea827a3965d58abbceed6", "lon": -76.95759666666666, "rental_uris": {"ios": "https://dc.lft.to/lastmile_qr_scan", "android": "https://dc.lft.to/lastmile_qr_scan"}}, {"name": "ac4a3cb161ef4543226725c5bd0271b2", "fusion_lat": 0.0, "type": "electric_scooter", "lat": 38.85712516666667, "is_reserved": 0, "is_disabled": 0, "fusion_lon": 0.0, "bike_id": "ac4a3cb161ef4543226725c5bd0271b2", "lon": -76.98133533333333, "rental_uris": {"ios": "https://dc.lft.to/lastmile_qr_scan", "android": "https://dc.lft.to/lastmile_qr_scan"}}, {"name": "dee2223a202e0265c490b14b4dde75bb", "fusion_lat": 0.0, "type": "electric_bike", "lat": 38.84848566666667, "is_reserved": 0, "is_disabled": 0, "fusion_lon": 0.0, "bike_id": "dee2223a202e0265c490b14b4dde75bb", "lon": -77.080437, "rental_uris": {"ios": "https://dc.lft.to/lastmile_qr_scan", "android": "https://dc.lft.to/lastmile_qr_scan"}}, {"name": "1cb0d848bbb0ec31c90ed0bfaa5c4c07", "fusion_lat": 0.0, "type": "electric_scooter", "lat": 38.931863, "is_reserved": 0, "is_disabled": 0, "fusion_lon": 0.0, "bike_id": "1cb0d848bbb0ec31c90ed0bfaa5c4c07", "lon": -77.02829116666666, "rental_uris": {"ios": "https://dc.lft.to/lastmile_qr_scan", "android": "https://dc.lft.to/lastmile_qr_scan"}}, {"name": "7eecd9a12b5704f8069a89b0622876db", "fusion_lat": 0.0, "type": "electric_scooter", "lat": 38.907292166666664, "is_reserved": 0, "is_disabled": 0, "fusion_lon": 0.0, "bike_id": "7eecd9a12b5704f8069a89b0622876db", "lon": -77.02974483333334, "rental_uris": {"ios": "https://dc.lft.to/lastmile_qr_scan", "android": "https://dc.lft.to/lastmile_qr_scan"}}, {"name": "16557729ab9019f16665ba55d634d5fb", "fusion_lat": 0.0, "type": "electric_scooter", "lat": 38.93971883333333, "is_reserved": 0, "is_disabled": 0, "fusion_lon": 0.0, "bike_id": "16557729ab9019f16665ba55d634d5fb", "lon": -77.0355905, "rental_uris": {"ios": "https://dc.lft.to/lastmile_qr_scan", "android": "https://dc.lft.to/lastmile_qr_scan"}}, {"name": "0e357922f4708cab34dfd01337821090", "fusion_lat": 0.0, "type": "electric_bike", "lat": 38.9126625, "is_reserved": 0, "is_disabled": 0, "fusion_lon": 0.0, "bike_id": "0e357922f4708cab34dfd01337821090", "lon": -77.03037516666667, "rental_uris": {"ios": "https://dc.lft.to/lastmile_qr_scan", "android": "https://dc.lft.to/lastmile_qr_scan"}}, {"name": "746212dc859cbb0e088b684f752a437e", "fusion_lat": 0.0, "type": "electric_scooter", "lat": 38.899005, "is_reserved": 0, "is_disabled": 0, "fusion_lon": 0.0, "bike_id": "746212dc859cbb0e088b684f752a437e", "lon": -77.03929233333334, "rental_uris": {"ios": "https://dc.lft.to/lastmile_qr_scan", "android": "https://dc.lft.to/lastmile_qr_scan"}}, {"name": "39b551c7592114346308c8c9d415d927", "fusion_lat": 0.0, "type": "electric_scooter", "lat": 38.90655433333333, "is_reserved": 0, "is_disabled": 0, "fusion_lon": 0.0, "bike_id": "39b551c7592114346308c8c9d415d927", "lon": -77.05309583333333, "rental_uris": {"ios": "https://dc.lft.to/lastmile_qr_scan", "android": "https://dc.lft.to/lastmile_qr_scan"}}, {"name": "0c6048d5390f27f5e66829d454eedfc4", "fusion_lat": 0.0, "type": "electric_scooter", "lat": 38.91618616666667, "is_reserved": 0, "is_disabled": 0, "fusion_lon": 0.0, "bike_id": "0c6048d5390f27f5e66829d454eedfc4", "lon": -77.03644166666666, "rental_uris": {"ios": "https://dc.lft.to/lastmile_qr_scan", "android": "https://dc.lft.to/lastmile_qr_scan"}}, {"name": "ff8f59c49e987505091bcf5ccb851601", "fusion_lat": 0.0, "type": "electric_scooter", "lat": 38.91932533333333, "is_reserved": 0, "is_disabled": 0, "fusion_lon": 0.0, "bike_id": "ff8f59c49e987505091bcf5ccb851601", "lon": -77.03178616666666, "rental_uris": {"ios": "https://dc.lft.to/lastmile_qr_scan", "android": "https://dc.lft.to/lastmile_qr_scan"}}, {"name": "48cba2fbe472eac49985254b39332673", "fusion_lat": 0.0, "type": "electric_scooter", "lat": 38.895498, "is_reserved": 0, "is_disabled": 0, "fusion_lon": 0.0, "bike_id": "48cba2fbe472eac49985254b39332673", "lon": -77.02922733333334, "rental_uris": {"ios": "https://dc.lft.to/lastmile_qr_scan", "android": "https://dc.lft.to/lastmile_qr_scan"}}, {"name": "f06da53a52d69d178e15fb0359e8fa9f", "fusion_lat": 0.0, "type": "electric_scooter", "lat": 38.8873485, "is_reserved": 0, "is_disabled": 0, "fusion_lon": 0.0, "bike_id": "f06da53a52d69d178e15fb0359e8fa9f", "lon": -77.01766166666667, "rental_uris": {"ios": "https://dc.lft.to/lastmile_qr_scan", "android": "https://dc.lft.to/lastmile_qr_scan"}}, {"name": "ee953f20dea633ac75b9602280c1568f", "fusion_lat": 0.0, "type": "electric_scooter", "lat": 38.9324955, "is_reserved": 0, "is_disabled": 0, "fusion_lon": 0.0, "bike_id": "ee953f20dea633ac75b9602280c1568f", "lon": -77.03277716666666, "rental_uris": {"ios": "https://dc.lft.to/lastmile_qr_scan", "android": "https://dc.lft.to/lastmile_qr_scan"}}, {"name": "21cd29b794b5a775b50e5e52786f5c0f", "fusion_lat": 0.0, "type": "electric_scooter", "lat": 38.92068033333334, "is_reserved": 0, "is_disabled": 0, "fusion_lon": 0.0, "bike_id": "21cd29b794b5a775b50e5e52786f5c0f", "lon": -76.99852083333333, "rental_uris": {"ios": "https://dc.lft.to/lastmile_qr_scan", "android": "https://dc.lft.to/lastmile_qr_scan"}}, {"name": "2e75d25229cbbfd2e22281b2742ea1ac", "fusion_lat": 0.0, "type": "electric_scooter", "lat": 38.91794466666666, "is_reserved": 0, "is_disabled": 0, "fusion_lon": 0.0, "bike_id": "2e75d25229cbbfd2e22281b2742ea1ac", "lon": -77.0231075, "rental_uris": {"ios": "https://dc.lft.to/lastmile_qr_scan", "android": "https://dc.lft.to/lastmile_qr_scan"}}, {"name": "574e7bffaf7734a5864dac76db63efd8", "fusion_lat": 0.0, "type": "electric_bike", "lat": 38.946257333333335, "is_reserved": 0, "is_disabled": 0, "fusion_lon": 0.0, "bike_id": "574e7bffaf7734a5864dac76db63efd8", "lon": -76.9463115, "rental_uris": {"ios": "https://dc.lft.to/lastmile_qr_scan", "android": "https://dc.lft.to/lastmile_qr_scan"}}, {"name": "83021bf5630b71439429e0240e9608de", "fusion_lat": 0.0, "type": "electric_scooter", "lat": 38.9215165, "is_reserved": 0, "is_disabled": 0, "fusion_lon": 0.0, "bike_id": "83021bf5630b71439429e0240e9608de", "lon": -77.034374, "rental_uris": {"ios": "https://dc.lft.to/lastmile_qr_scan", "android": "https://dc.lft.to/lastmile_qr_scan"}}, {"name": "66dec295ea4a61b16af834fb4539a9a5", "fusion_lat": 0.0, "type": "electric_scooter", "lat": 38.920834, "is_reserved": 0, "is_disabled": 0, "fusion_lon": 0.0, "bike_id": "66dec295ea4a61b16af834fb4539a9a5", "lon": -77.02403316666667, "rental_uris": {"ios": "https://dc.lft.to/lastmile_qr_scan", "android": "https://dc.lft.to/lastmile_qr_scan"}}, {"name": "b2ea932e452facb607b4daf24cc4094a", "fusion_lat": 0.0, "type": "electric_scooter", "lat": 38.90010516666667, "is_reserved": 0, "is_disabled": 0, "fusion_lon": 0.0, "bike_id": "b2ea932e452facb607b4daf24cc4094a", "lon": -77.03997283333334, "rental_uris": {"ios": "https://dc.lft.to/lastmile_qr_scan", "android": "https://dc.lft.to/lastmile_qr_scan"}}, {"name": "f58fdb4c4ff49aea5189d130c25e0eba", "fusion_lat": 0.0, "type": "electric_scooter", "lat": 38.880487333333335, "is_reserved": 0, "is_disabled": 0, "fusion_lon": 0.0, "bike_id": "f58fdb4c4ff49aea5189d130c25e0eba", "lon": -77.01329433333333, "rental_uris": {"ios": "https://dc.lft.to/lastmile_qr_scan", "android": "https://dc.lft.to/lastmile_qr_scan"}}, {"name": "305cb18525735d3d17d376a5d3eb4f3e", "fusion_lat": 0.0, "type": "electric_bike", "lat": 38.8730665, "is_reserved": 0, "is_disabled": 0, "fusion_lon": 0.0, "bike_id": "305cb18525735d3d17d376a5d3eb4f3e", "lon": -77.010917, "rental_uris": {"ios": "https://dc.lft.to/lastmile_qr_scan", "android": "https://dc.lft.to/lastmile_qr_scan"}}, {"name": "e55003527be78e43638fc4257204dc77", "fusion_lat": 0.0, "type": "electric_scooter", "lat": 38.911995, "is_reserved": 0, "is_disabled": 0, "fusion_lon": 0.0, "bike_id": "e55003527be78e43638fc4257204dc77", "lon": -77.04510416666666, "rental_uris": {"ios": "https://dc.lft.to/lastmile_qr_scan", "android": "https://dc.lft.to/lastmile_qr_scan"}}, {"name": "56c200d07c8847a1b1fc772754118fc2", "fusion_lat": 0.0, "type": "electric_scooter", "lat": 38.914219, "is_reserved": 0, "is_disabled": 0, "fusion_lon": 0.0, "bike_id": "56c200d07c8847a1b1fc772754118fc2", "lon": -77.02209983333333, "rental_uris": {"ios": "https://dc.lft.to/lastmile_qr_scan", "android": "https://dc.lft.to/lastmile_qr_scan"}}, {"name": "fc74bf50f602ad7f705332cb7d5d5005", "fusion_lat": 0.0, "type": "electric_scooter", "lat": 38.9090385, "is_reserved": 0, "is_disabled": 0, "fusion_lon": 0.0, "bike_id": "fc74bf50f602ad7f705332cb7d5d5005", "lon": -77.02718583333333, "rental_uris": {"ios": "https://dc.lft.to/lastmile_qr_scan", "android": "https://dc.lft.to/lastmile_qr_scan"}}, {"name": "d1c241547251a07f59bba2053b59f136", "fusion_lat": 0.0, "type": "electric_scooter", "lat": 38.917480166666664, "is_reserved": 0, "is_disabled": 0, "fusion_lon": 0.0, "bike_id": "d1c241547251a07f59bba2053b59f136", "lon": -77.036422, "rental_uris": {"ios": "https://dc.lft.to/lastmile_qr_scan", "android": "https://dc.lft.to/lastmile_qr_scan"}}, {"name": "3fb25b48987d52857f049dedf950029a", "fusion_lat": 0.0, "type": "electric_scooter", "lat": 38.903784, "is_reserved": 0, "is_disabled": 0, "fusion_lon": 0.0, "bike_id": "3fb25b48987d52857f049dedf950029a", "lon": -77.00744216666666, "rental_uris": {"ios": "https://dc.lft.to/lastmile_qr_scan", "android": "https://dc.lft.to/lastmile_qr_scan"}}, {"name": "51e1f5aafcb61cfd2268bea1eec9ed12", "fusion_lat": 0.0, "type": "electric_scooter", "lat": 38.932573, "is_reserved": 0, "is_disabled": 0, "fusion_lon": 0.0, "bike_id": "51e1f5aafcb61cfd2268bea1eec9ed12", "lon": -77.03859366666667, "rental_uris": {"ios": "https://dc.lft.to/lastmile_qr_scan", "android": "https://dc.lft.to/lastmile_qr_scan"}}, {"name": "205a15ca439b176140643050911d11d3", "fusion_lat": 0.0, "type": "electric_scooter", "lat": 38.912669666666666, "is_reserved": 0, "is_disabled": 0, "fusion_lon": 0.0, "bike_id": "205a15ca439b176140643050911d11d3", "lon": -77.06086583333334, "rental_uris": {"ios": "https://dc.lft.to/lastmile_qr_scan", "android": "https://dc.lft.to/lastmile_qr_scan"}}, {"name": "97f1b6f6cebf425a805184cc64f3b4b1", "fusion_lat": 0.0, "type": "electric_scooter", "lat": 38.91422883333333, "is_reserved": 0, "is_disabled": 0, "fusion_lon": 0.0, "bike_id": "97f1b6f6cebf425a805184cc64f3b4b1", "lon": -77.00884266666667, "rental_uris": {"ios": "https://dc.lft.to/lastmile_qr_scan", "android": "https://dc.lft.to/lastmile_qr_scan"}}, {"name": "a1c09501ab9c7d13979a8e1b2dc5c9a9", "fusion_lat": 0.0, "type": "electric_scooter", "lat": 38.9156885, "is_reserved": 0, "is_disabled": 0, "fusion_lon": 0.0, "bike_id": "a1c09501ab9c7d13979a8e1b2dc5c9a9", "lon": -77.04699766666667, "rental_uris": {"ios": "https://dc.lft.to/lastmile_qr_scan", "android": "https://dc.lft.to/lastmile_qr_scan"}}, {"name": "617116f831a589bf26b0d3f57908fb67", "fusion_lat": 0.0, "type": "electric_scooter", "lat": 38.89954683333333, "is_reserved": 0, "is_disabled": 0, "fusion_lon": 0.0, "bike_id": "617116f831a589bf26b0d3f57908fb67", "lon": -77.01615, "rental_uris": {"ios": "https://dc.lft.to/lastmile_qr_scan", "android": "https://dc.lft.to/lastmile_qr_scan"}}, {"name": "405d7b2007682c2ae104c5c1207f417b", "fusion_lat": 0.0, "type": "electric_scooter", "lat": 38.9025055, "is_reserved": 0, "is_disabled": 0, "fusion_lon": 0.0, "bike_id": "405d7b2007682c2ae104c5c1207f417b", "lon": -77.019408, "rental_uris": {"ios": "https://dc.lft.to/lastmile_qr_scan", "android": "https://dc.lft.to/lastmile_qr_scan"}}, {"name": "cf5ed5c1f33b916a894cb983cf722a43", "fusion_lat": 0.0, "type": "electric_scooter", "lat": 38.91916833333333, "is_reserved": 0, "is_disabled": 0, "fusion_lon": 0.0, "bike_id": "cf5ed5c1f33b916a894cb983cf722a43", "lon": -77.03218816666667, "rental_uris": {"ios": "https://dc.lft.to/lastmile_qr_scan", "android": "https://dc.lft.to/lastmile_qr_scan"}}, {"name": "7b8a6d5ee6c678a65286a0cddb5d7f44", "fusion_lat": 0.0, "type": "electric_scooter", "lat": 38.880673333333334, "is_reserved": 0, "is_disabled": 0, "fusion_lon": 0.0, "bike_id": "7b8a6d5ee6c678a65286a0cddb5d7f44", "lon": -76.93535116666666, "rental_uris": {"ios": "https://dc.lft.to/lastmile_qr_scan", "android": "https://dc.lft.to/lastmile_qr_scan"}}, {"name": "27f56795eee839ff3a1d5fad146154e2", "fusion_lat": 0.0, "type": "electric_bike", "lat": 38.927325, "is_reserved": 0, "is_disabled": 0, "fusion_lon": 0.0, "bike_id": "27f56795eee839ff3a1d5fad146154e2", "lon": -77.01340316666666, "rental_uris": {"ios": "https://dc.lft.to/lastmile_qr_scan", "android": "https://dc.lft.to/lastmile_qr_scan"}}, {"name": "7f9bb4540ecb019e61350c7e8de96b13", "fusion_lat": 0.0, "type": "electric_bike", "lat": 38.92006683333334, "is_reserved": 0, "is_disabled": 0, "fusion_lon": 0.0, "bike_id": "7f9bb4540ecb019e61350c7e8de96b13", "lon": -76.97498033333333, "rental_uris": {"ios": "https://dc.lft.to/lastmile_qr_scan", "android": "https://dc.lft.to/lastmile_qr_scan"}}, {"name": "2988deadae4bed659848558ee813ccf5", "fusion_lat": 0.0, "type": "electric_scooter", "lat": 38.9192465, "is_reserved": 0, "is_disabled": 0, "fusion_lon": 0.0, "bike_id": "2988deadae4bed659848558ee813ccf5", "lon": -77.03259466666667, "rental_uris": {"ios": "https://dc.lft.to/lastmile_qr_scan", "android": "https://dc.lft.to/lastmile_qr_scan"}}, {"name": "e377dacdbe647bdf74c38f5435a597dd", "fusion_lat": 0.0, "type": "electric_scooter", "lat": 38.8850955, "is_reserved": 0, "is_disabled": 0, "fusion_lon": 0.0, "bike_id": "e377dacdbe647bdf74c38f5435a597dd", "lon": -77.02194733333333, "rental_uris": {"ios": "https://dc.lft.to/lastmile_qr_scan", "android": "https://dc.lft.to/lastmile_qr_scan"}}, {"name": "6b9e7ad24833594acc9d609c9c8e0286", "fusion_lat": 0.0, "type": "electric_scooter", "lat": 38.912151333333334, "is_reserved": 0, "is_disabled": 0, "fusion_lon": 0.0, "bike_id": "6b9e7ad24833594acc9d609c9c8e0286", "lon": -77.0759205, "rental_uris": {"ios": "https://dc.lft.to/lastmile_qr_scan", "android": "https://dc.lft.to/lastmile_qr_scan"}}, {"name": "e08389d0b9e18ffe1413bcdbdc8815f2", "fusion_lat": 0.0, "type": "electric_scooter", "lat": 38.900411166666665, "is_reserved": 0, "is_disabled": 0, "fusion_lon": 0.0, "bike_id": "e08389d0b9e18ffe1413bcdbdc8815f2", "lon": -77.00191133333334, "rental_uris": {"ios": "https://dc.lft.to/lastmile_qr_scan", "android": "https://dc.lft.to/lastmile_qr_scan"}}, {"name": "9d76fbaf175119cce178d50b67e0f56f", "fusion_lat": 0.0, "type": "electric_scooter", "lat": 38.914043166666666, "is_reserved": 0, "is_disabled": 0, "fusion_lon": 0.0, "bike_id": "9d76fbaf175119cce178d50b67e0f56f", "lon": -77.0321925, "rental_uris": {"ios": "https://dc.lft.to/lastmile_qr_scan", "android": "https://dc.lft.to/lastmile_qr_scan"}}, {"name": "bd41e0e9c033deb113ab60c728920954", "fusion_lat": 0.0, "type": "electric_bike", "lat": 38.937043833333334, "is_reserved": 0, "is_disabled": 0, "fusion_lon": 0.0, "bike_id": "bd41e0e9c033deb113ab60c728920954", "lon": -77.03287866666666, "rental_uris": {"ios": "https://dc.lft.to/lastmile_qr_scan", "android": "https://dc.lft.to/lastmile_qr_scan"}}, {"name": "6b774340cf5c4e55bf1364bf4d5f797f", "fusion_lat": 0.0, "type": "electric_scooter", "lat": 38.895885, "is_reserved": 0, "is_disabled": 0, "fusion_lon": 0.0, "bike_id": "6b774340cf5c4e55bf1364bf4d5f797f", "lon": -76.93717883333333, "rental_uris": {"ios": "https://dc.lft.to/lastmile_qr_scan", "android": "https://dc.lft.to/lastmile_qr_scan"}}, {"name": "7f780df9f468bb443cc59d6d8ca88722", "fusion_lat": 0.0, "type": "electric_scooter", "lat": 38.93591383333333, "is_reserved": 0, "is_disabled": 0, "fusion_lon": 0.0, "bike_id": "7f780df9f468bb443cc59d6d8ca88722", "lon": -77.03517133333334, "rental_uris": {"ios": "https://dc.lft.to/lastmile_qr_scan", "android": "https://dc.lft.to/lastmile_qr_scan"}}, {"name": "dc9e8f7fef37d941efb2abc0521db4cd", "fusion_lat": 0.0, "type": "electric_scooter", "lat": 38.91253183333333, "is_reserved": 0, "is_disabled": 0, "fusion_lon": 0.0, "bike_id": "dc9e8f7fef37d941efb2abc0521db4cd", "lon": -77.0077315, "rental_uris": {"ios": "https://dc.lft.to/lastmile_qr_scan", "android": "https://dc.lft.to/lastmile_qr_scan"}}, {"name": "2578537b69b3c5a14462f11cd268bfbb", "fusion_lat": 0.0, "type": "electric_scooter", "lat": 38.89524383333333, "is_reserved": 0, "is_disabled": 0, "fusion_lon": 0.0, "bike_id": "2578537b69b3c5a14462f11cd268bfbb", "lon": -76.948887, "rental_uris": {"ios": "https://dc.lft.to/lastmile_qr_scan", "android": "https://dc.lft.to/lastmile_qr_scan"}}, {"name": "d84c2fa094bd2876356218cd450b2ab1", "fusion_lat": 0.0, "type": "electric_scooter", "lat": 38.920541666666665, "is_reserved": 0, "is_disabled": 0, "fusion_lon": 0.0, "bike_id": "d84c2fa094bd2876356218cd450b2ab1", "lon": -77.024513, "rental_uris": {"ios": "https://dc.lft.to/lastmile_qr_scan", "android": "https://dc.lft.to/lastmile_qr_scan"}}, {"name": "b45f32e87f90781be2246bce24a7416c", "fusion_lat": 0.0, "type": "electric_bike", "lat": 38.81052066666667, "is_reserved": 0, "is_disabled": 0, "fusion_lon": 0.0, "bike_id": "b45f32e87f90781be2246bce24a7416c", "lon": -77.0851685, "rental_uris": {"ios": "https://dc.lft.to/lastmile_qr_scan", "android": "https://dc.lft.to/lastmile_qr_scan"}}, {"name": "fd4ff7fb86362ecbf65b78cf330c1793", "fusion_lat": 0.0, "type": "electric_scooter", "lat": 38.939361166666664, "is_reserved": 0, "is_disabled": 0, "fusion_lon": 0.0, "bike_id": "fd4ff7fb86362ecbf65b78cf330c1793", "lon": -77.03676633333333, "rental_uris": {"ios": "https://dc.lft.to/lastmile_qr_scan", "android": "https://dc.lft.to/lastmile_qr_scan"}}, {"name": "96b3e22d47f755f6dc6526ae8d51f117", "fusion_lat": 0.0, "type": "electric_scooter", "lat": 38.9212425, "is_reserved": 0, "is_disabled": 0, "fusion_lon": 0.0, "bike_id": "96b3e22d47f755f6dc6526ae8d51f117", "lon": -77.01313066666667, "rental_uris": {"ios": "https://dc.lft.to/lastmile_qr_scan", "android": "https://dc.lft.to/lastmile_qr_scan"}}, {"name": "7308ae68b5b3c1da54357bb4782fda44", "fusion_lat": 0.0, "type": "electric_scooter", "lat": 38.9007625, "is_reserved": 0, "is_disabled": 0, "fusion_lon": 0.0, "bike_id": "7308ae68b5b3c1da54357bb4782fda44", "lon": -77.051989, "rental_uris": {"ios": "https://dc.lft.to/lastmile_qr_scan", "android": "https://dc.lft.to/lastmile_qr_scan"}}, {"name": "3fe437749a5c436e12fd02ccb8286db1", "fusion_lat": 0.0, "type": "electric_bike", "lat": 38.85419366666667, "is_reserved": 0, "is_disabled": 0, "fusion_lon": 0.0, "bike_id": "3fe437749a5c436e12fd02ccb8286db1", "lon": -76.9096005, "rental_uris": {"ios": "https://dc.lft.to/lastmile_qr_scan", "android": "https://dc.lft.to/lastmile_qr_scan"}}, {"name": "177eb9cff45b7fc31fd5d57bb855fb52", "fusion_lat": 0.0, "type": "electric_scooter", "lat": 38.906666666666666, "is_reserved": 0, "is_disabled": 0, "fusion_lon": 0.0, "bike_id": "177eb9cff45b7fc31fd5d57bb855fb52", "lon": -77.027092, "rental_uris": {"ios": "https://dc.lft.to/lastmile_qr_scan", "android": "https://dc.lft.to/lastmile_qr_scan"}}, {"name": "0abd12f285889d45fc408a4243f041fc", "fusion_lat": 0.0, "type": "electric_scooter", "lat": 38.93753266666667, "is_reserved": 0, "is_disabled": 0, "fusion_lon": 0.0, "bike_id": "0abd12f285889d45fc408a4243f041fc", "lon": -77.02489466666667, "rental_uris": {"ios": "https://dc.lft.to/lastmile_qr_scan", "android": "https://dc.lft.to/lastmile_qr_scan"}}, {"name": "083e0e9a5d96b75a8913cff4d839239f", "fusion_lat": 0.0, "type": "electric_scooter", "lat": 38.87662566666667, "is_reserved": 0, "is_disabled": 0, "fusion_lon": 0.0, "bike_id": "083e0e9a5d96b75a8913cff4d839239f", "lon": -77.00071316666667, "rental_uris": {"ios": "https://dc.lft.to/lastmile_qr_scan", "android": "https://dc.lft.to/lastmile_qr_scan"}}, {"name": "c63ebd5fc59b1cb44d56c4aabbb582af", "fusion_lat": 0.0, "type": "electric_scooter", "lat": 38.91772916666667, "is_reserved": 0, "is_disabled": 0, "fusion_lon": 0.0, "bike_id": "c63ebd5fc59b1cb44d56c4aabbb582af", "lon": -77.031858, "rental_uris": {"ios": "https://dc.lft.to/lastmile_qr_scan", "android": "https://dc.lft.to/lastmile_qr_scan"}}, {"name": "e7555d4f858c8a0234134309b9bad720", "fusion_lat": 0.0, "type": "electric_scooter", "lat": 38.892308666666665, "is_reserved": 0, "is_disabled": 0, "fusion_lon": 0.0, "bike_id": "e7555d4f858c8a0234134309b9bad720", "lon": -77.050008, "rental_uris": {"ios": "https://dc.lft.to/lastmile_qr_scan", "android": "https://dc.lft.to/lastmile_qr_scan"}}, {"name": "4eb276a56a3f6ff39ac3aaf0d470c10f", "fusion_lat": 0.0, "type": "electric_scooter", "lat": 38.935365, "is_reserved": 0, "is_disabled": 0, "fusion_lon": 0.0, "bike_id": "4eb276a56a3f6ff39ac3aaf0d470c10f", "lon": -77.03402966666667, "rental_uris": {"ios": "https://dc.lft.to/lastmile_qr_scan", "android": "https://dc.lft.to/lastmile_qr_scan"}}, {"name": "3015436c19d8adb1c575fb0534a58d1d", "fusion_lat": 0.0, "type": "electric_bike", "lat": 39.08852816666667, "is_reserved": 0, "is_disabled": 0, "fusion_lon": 0.0, "bike_id": "3015436c19d8adb1c575fb0534a58d1d", "lon": -77.1785215, "rental_uris": {"ios": "https://dc.lft.to/lastmile_qr_scan", "android": "https://dc.lft.to/lastmile_qr_scan"}}, {"name": "7fdfb5c34d2b7e7e5f248c3c28db20fe", "fusion_lat": 0.0, "type": "electric_bike", "lat": 38.935237, "is_reserved": 0, "is_disabled": 0, "fusion_lon": 0.0, "bike_id": "7fdfb5c34d2b7e7e5f248c3c28db20fe", "lon": -76.95065916666667, "rental_uris": {"ios": "https://dc.lft.to/lastmile_qr_scan", "android": "https://dc.lft.to/lastmile_qr_scan"}}, {"name": "267e201ea7e9df5d20df442e25f12da1", "fusion_lat": 0.0, "type": "electric_scooter", "lat": 38.907025, "is_reserved": 0, "is_disabled": 0, "fusion_lon": 0.0, "bike_id": "267e201ea7e9df5d20df442e25f12da1", "lon": -77.02982316666667, "rental_uris": {"ios": "https://dc.lft.to/lastmile_qr_scan", "android": "https://dc.lft.to/lastmile_qr_scan"}}, {"name": "821928ccd97d28feb5d52453316dcd58", "fusion_lat": 0.0, "type": "electric_scooter", "lat": 38.876639833333336, "is_reserved": 0, "is_disabled": 0, "fusion_lon": 0.0, "bike_id": "821928ccd97d28feb5d52453316dcd58", "lon": -77.00067533333333, "rental_uris": {"ios": "https://dc.lft.to/lastmile_qr_scan", "android": "https://dc.lft.to/lastmile_qr_scan"}}, {"name": "98e54050f6dfc18ff4f05622f642fa1f", "fusion_lat": 0.0, "type": "electric_scooter", "lat": 38.866967833333334, "is_reserved": 0, "is_disabled": 0, "fusion_lon": 0.0, "bike_id": "98e54050f6dfc18ff4f05622f642fa1f", "lon": -76.9890725, "rental_uris": {"ios": "https://dc.lft.to/lastmile_qr_scan", "android": "https://dc.lft.to/lastmile_qr_scan"}}, {"name": "4d39d25494480ee92810b26d96fbbec3", "fusion_lat": 0.0, "type": "electric_scooter", "lat": 38.906754, "is_reserved": 0, "is_disabled": 0, "fusion_lon": 0.0, "bike_id": "4d39d25494480ee92810b26d96fbbec3", "lon": -77.03843216666667, "rental_uris": {"ios": "https://dc.lft.to/lastmile_qr_scan", "android": "https://dc.lft.to/lastmile_qr_scan"}}, {"name": "fa94a7ec99e180a505559bbb45971689", "fusion_lat": 0.0, "type": "electric_bike", "lat": 39.05316766666667, "is_reserved": 0, "is_disabled": 0, "fusion_lon": 0.0, "bike_id": "fa94a7ec99e180a505559bbb45971689", "lon": -77.0477535, "rental_uris": {"ios": "https://dc.lft.to/lastmile_qr_scan", "android": "https://dc.lft.to/lastmile_qr_scan"}}, {"name": "04b335b3cf446c11eb2086c9ab1e5036", "fusion_lat": 0.0, "type": "electric_scooter", "lat": 38.865324333333334, "is_reserved": 0, "is_disabled": 0, "fusion_lon": 0.0, "bike_id": "04b335b3cf446c11eb2086c9ab1e5036", "lon": -76.9870395, "rental_uris": {"ios": "https://dc.lft.to/lastmile_qr_scan", "android": "https://dc.lft.to/lastmile_qr_scan"}}, {"name": "e573e9b7ece28970d829ceb7b097f728", "fusion_lat": 0.0, "type": "electric_scooter", "lat": 38.9024045, "is_reserved": 0, "is_disabled": 0, "fusion_lon": 0.0, "bike_id": "e573e9b7ece28970d829ceb7b097f728", "lon": -77.00203216666667, "rental_uris": {"ios": "https://dc.lft.to/lastmile_qr_scan", "android": "https://dc.lft.to/lastmile_qr_scan"}}, {"name": "d78aafd0be81dbf1d647c2d5e072048f", "fusion_lat": 0.0, "type": "electric_scooter", "lat": 38.9026995, "is_reserved": 0, "is_disabled": 0, "fusion_lon": 0.0, "bike_id": "d78aafd0be81dbf1d647c2d5e072048f", "lon": -76.98710533333333, "rental_uris": {"ios": "https://dc.lft.to/lastmile_qr_scan", "android": "https://dc.lft.to/lastmile_qr_scan"}}, {"name": "42a39c468de0c971c37daf95ac68f498", "fusion_lat": 0.0, "type": "electric_scooter", "lat": 38.923202, "is_reserved": 0, "is_disabled": 0, "fusion_lon": 0.0, "bike_id": "42a39c468de0c971c37daf95ac68f498", "lon": -77.0546715, "rental_uris": {"ios": "https://dc.lft.to/lastmile_qr_scan", "android": "https://dc.lft.to/lastmile_qr_scan"}}, {"name": "712af5ef603b39c4608288b027686192", "fusion_lat": 0.0, "type": "electric_scooter", "lat": 38.93012016666667, "is_reserved": 0, "is_disabled": 0, "fusion_lon": 0.0, "bike_id": "712af5ef603b39c4608288b027686192", "lon": -77.03781616666667, "rental_uris": {"ios": "https://dc.lft.to/lastmile_qr_scan", "android": "https://dc.lft.to/lastmile_qr_scan"}}, {"name": "ffc83f6b69192481ccbca3777262bbd5", "fusion_lat": 0.0, "type": "electric_scooter", "lat": 38.9268525, "is_reserved": 0, "is_disabled": 0, "fusion_lon": 0.0, "bike_id": "ffc83f6b69192481ccbca3777262bbd5", "lon": -77.02780933333334, "rental_uris": {"ios": "https://dc.lft.to/lastmile_qr_scan", "android": "https://dc.lft.to/lastmile_qr_scan"}}, {"name": "3596cac27bd541da359e9648e7688cb9", "fusion_lat": 0.0, "type": "electric_bike", "lat": 38.92866583333333, "is_reserved": 0, "is_disabled": 0, "fusion_lon": 0.0, "bike_id": "3596cac27bd541da359e9648e7688cb9", "lon": -76.96110716666666, "rental_uris": {"ios": "https://dc.lft.to/lastmile_qr_scan", "android": "https://dc.lft.to/lastmile_qr_scan"}}, {"name": "b32191fa1b41a546fec7d67f3a330fd2", "fusion_lat": 0.0, "type": "electric_scooter", "lat": 38.90431316666667, "is_reserved": 0, "is_disabled": 0, "fusion_lon": 0.0, "bike_id": "b32191fa1b41a546fec7d67f3a330fd2", "lon": -77.02593783333333, "rental_uris": {"ios": "https://dc.lft.to/lastmile_qr_scan", "android": "https://dc.lft.to/lastmile_qr_scan"}}, {"name": "1e58ee4a0f8b9817bbfd693c181ec167", "fusion_lat": 0.0, "type": "electric_scooter", "lat": 38.938704, "is_reserved": 0, "is_disabled": 0, "fusion_lon": 0.0, "bike_id": "1e58ee4a0f8b9817bbfd693c181ec167", "lon": -77.03257633333334, "rental_uris": {"ios": "https://dc.lft.to/lastmile_qr_scan", "android": "https://dc.lft.to/lastmile_qr_scan"}}, {"name": "4ce0e0f3838d3fd6066eed8a37748b08", "fusion_lat": 0.0, "type": "electric_scooter", "lat": 38.96564133333333, "is_reserved": 0, "is_disabled": 0, "fusion_lon": 0.0, "bike_id": "4ce0e0f3838d3fd6066eed8a37748b08", "lon": -77.01630716666666, "rental_uris": {"ios": "https://dc.lft.to/lastmile_qr_scan", "android": "https://dc.lft.to/lastmile_qr_scan"}}, {"name": "d5937e37c792b51ab43f252d788a27bd", "fusion_lat": 0.0, "type": "electric_scooter", "lat": 38.905766666666665, "is_reserved": 0, "is_disabled": 0, "fusion_lon": 0.0, "bike_id": "d5937e37c792b51ab43f252d788a27bd", "lon": -77.04874883333333, "rental_uris": {"ios": "https://dc.lft.to/lastmile_qr_scan", "android": "https://dc.lft.to/lastmile_qr_scan"}}, {"name": "019d1085c04d3481c6792e9dff711533", "fusion_lat": 0.0, "type": "electric_scooter", "lat": 38.89857216666667, "is_reserved": 0, "is_disabled": 0, "fusion_lon": 0.0, "bike_id": "019d1085c04d3481c6792e9dff711533", "lon": -77.01998233333333, "rental_uris": {"ios": "https://dc.lft.to/lastmile_qr_scan", "android": "https://dc.lft.to/lastmile_qr_scan"}}, {"name": "832c6c8f335ee7a4c028833fea807ae2", "fusion_lat": 0.0, "type": "electric_scooter", "lat": 38.9096945, "is_reserved": 0, "is_disabled": 0, "fusion_lon": 0.0, "bike_id": "832c6c8f335ee7a4c028833fea807ae2", "lon": -77.01714883333334, "rental_uris": {"ios": "https://dc.lft.to/lastmile_qr_scan", "android": "https://dc.lft.to/lastmile_qr_scan"}}, {"name": "50466c7cc6ab2a08a038f7fa419519df", "fusion_lat": 0.0, "type": "electric_bike", "lat": 38.98819816666666, "is_reserved": 0, "is_disabled": 0, "fusion_lon": 0.0, "bike_id": "50466c7cc6ab2a08a038f7fa419519df", "lon": -77.02656416666666, "rental_uris": {"ios": "https://dc.lft.to/lastmile_qr_scan", "android": "https://dc.lft.to/lastmile_qr_scan"}}, {"name": "c3f863fa505b10ac89b892e183976848", "fusion_lat": 0.0, "type": "electric_scooter", "lat": 38.907159666666665, "is_reserved": 0, "is_disabled": 0, "fusion_lon": 0.0, "bike_id": "c3f863fa505b10ac89b892e183976848", "lon": -77.03445533333333, "rental_uris": {"ios": "https://dc.lft.to/lastmile_qr_scan", "android": "https://dc.lft.to/lastmile_qr_scan"}}, {"name": "7b72544a4dfd78f417f9ef57659c9682", "fusion_lat": 0.0, "type": "electric_scooter", "lat": 38.91920533333333, "is_reserved": 0, "is_disabled": 0, "fusion_lon": 0.0, "bike_id": "7b72544a4dfd78f417f9ef57659c9682", "lon": -77.02342233333333, "rental_uris": {"ios": "https://dc.lft.to/lastmile_qr_scan", "android": "https://dc.lft.to/lastmile_qr_scan"}}, {"name": "a3d7bddc5c6b3714285c4e24f1277d55", "fusion_lat": 0.0, "type": "electric_scooter", "lat": 38.88039233333333, "is_reserved": 0, "is_disabled": 0, "fusion_lon": 0.0, "bike_id": "a3d7bddc5c6b3714285c4e24f1277d55", "lon": -76.92726066666667, "rental_uris": {"ios": "https://dc.lft.to/lastmile_qr_scan", "android": "https://dc.lft.to/lastmile_qr_scan"}}, {"name": "a94fb338abe1076c6f19613cda8b4df6", "fusion_lat": 0.0, "type": "electric_scooter", "lat": 38.93396516666667, "is_reserved": 0, "is_disabled": 0, "fusion_lon": 0.0, "bike_id": "a94fb338abe1076c6f19613cda8b4df6", "lon": -77.02721066666666, "rental_uris": {"ios": "https://dc.lft.to/lastmile_qr_scan", "android": "https://dc.lft.to/lastmile_qr_scan"}}, {"name": "6bece908c1ff0b1be3605478e32c1b1e", "fusion_lat": 0.0, "type": "electric_scooter", "lat": 38.90412666666667, "is_reserved": 0, "is_disabled": 0, "fusion_lon": 0.0, "bike_id": "6bece908c1ff0b1be3605478e32c1b1e", "lon": -77.00138966666667, "rental_uris": {"ios": "https://dc.lft.to/lastmile_qr_scan", "android": "https://dc.lft.to/lastmile_qr_scan"}}, {"name": "f2cf3bda466eccba94da561726ef8816", "fusion_lat": 0.0, "type": "electric_bike", "lat": 38.852284, "is_reserved": 0, "is_disabled": 0, "fusion_lon": 0.0, "bike_id": "f2cf3bda466eccba94da561726ef8816", "lon": -77.1033765, "rental_uris": {"ios": "https://dc.lft.to/lastmile_qr_scan", "android": "https://dc.lft.to/lastmile_qr_scan"}}, {"name": "871d0bf205965b6db248eda3127e308e", "fusion_lat": 0.0, "type": "electric_scooter", "lat": 38.90626066666667, "is_reserved": 0, "is_disabled": 0, "fusion_lon": 0.0, "bike_id": "871d0bf205965b6db248eda3127e308e", "lon": -77.03436266666667, "rental_uris": {"ios": "https://dc.lft.to/lastmile_qr_scan", "android": "https://dc.lft.to/lastmile_qr_scan"}}, {"name": "27f69fcddfac3be7d9077826df7fc792", "fusion_lat": 0.0, "type": "electric_bike", "lat": 38.88043966666667, "is_reserved": 0, "is_disabled": 0, "fusion_lon": 0.0, "bike_id": "27f69fcddfac3be7d9077826df7fc792", "lon": -77.0132605, "rental_uris": {"ios": "https://dc.lft.to/lastmile_qr_scan", "android": "https://dc.lft.to/lastmile_qr_scan"}}, {"name": "d780c5ed65b344977a68d7fb832ea3f5", "fusion_lat": 0.0, "type": "electric_scooter", "lat": 38.8837885, "is_reserved": 0, "is_disabled": 0, "fusion_lon": 0.0, "bike_id": "d780c5ed65b344977a68d7fb832ea3f5", "lon": -77.02591333333334, "rental_uris": {"ios": "https://dc.lft.to/lastmile_qr_scan", "android": "https://dc.lft.to/lastmile_qr_scan"}}, {"name": "0ad6c23056337b3aafdf4ba78667b87a", "fusion_lat": 0.0, "type": "electric_scooter", "lat": 38.8758015, "is_reserved": 0, "is_disabled": 0, "fusion_lon": 0.0, "bike_id": "0ad6c23056337b3aafdf4ba78667b87a", "lon": -77.01064183333334, "rental_uris": {"ios": "https://dc.lft.to/lastmile_qr_scan", "android": "https://dc.lft.to/lastmile_qr_scan"}}, {"name": "9fbf3099881dbbb34370fcd3ff52091e", "fusion_lat": 0.0, "type": "electric_scooter", "lat": 38.91804233333333, "is_reserved": 0, "is_disabled": 0, "fusion_lon": 0.0, "bike_id": "9fbf3099881dbbb34370fcd3ff52091e", "lon": -77.028207, "rental_uris": {"ios": "https://dc.lft.to/lastmile_qr_scan", "android": "https://dc.lft.to/lastmile_qr_scan"}}, {"name": "72229ff1217a82d0b75ce9133bc3474c", "fusion_lat": 0.0, "type": "electric_scooter", "lat": 38.90701466666667, "is_reserved": 0, "is_disabled": 0, "fusion_lon": 0.0, "bike_id": "72229ff1217a82d0b75ce9133bc3474c", "lon": -77.023895, "rental_uris": {"ios": "https://dc.lft.to/lastmile_qr_scan", "android": "https://dc.lft.to/lastmile_qr_scan"}}, {"name": "1551920f90d88d165330c18fba702a9e", "fusion_lat": 0.0, "type": "electric_scooter", "lat": 38.92061866666667, "is_reserved": 0, "is_disabled": 0, "fusion_lon": 0.0, "bike_id": "1551920f90d88d165330c18fba702a9e", "lon": -77.042505, "rental_uris": {"ios": "https://dc.lft.to/lastmile_qr_scan", "android": "https://dc.lft.to/lastmile_qr_scan"}}, {"name": "fbc5020084be17f2ac70065cb77e9658", "fusion_lat": 0.0, "type": "electric_scooter", "lat": 38.90718116666667, "is_reserved": 0, "is_disabled": 0, "fusion_lon": 0.0, "bike_id": "fbc5020084be17f2ac70065cb77e9658", "lon": -77.034464, "rental_uris": {"ios": "https://dc.lft.to/lastmile_qr_scan", "android": "https://dc.lft.to/lastmile_qr_scan"}}, {"name": "f0b0c741ef2e75acf67354a047f756ac", "fusion_lat": 0.0, "type": "electric_scooter", "lat": 38.9275185, "is_reserved": 0, "is_disabled": 0, "fusion_lon": 0.0, "bike_id": "f0b0c741ef2e75acf67354a047f756ac", "lon": -77.03471366666666, "rental_uris": {"ios": "https://dc.lft.to/lastmile_qr_scan", "android": "https://dc.lft.to/lastmile_qr_scan"}}, {"name": "514a7c677839e3058385ebbb3723952e", "fusion_lat": 0.0, "type": "electric_scooter", "lat": 38.920559, "is_reserved": 0, "is_disabled": 0, "fusion_lon": 0.0, "bike_id": "514a7c677839e3058385ebbb3723952e", "lon": -76.998865, "rental_uris": {"ios": "https://dc.lft.to/lastmile_qr_scan", "android": "https://dc.lft.to/lastmile_qr_scan"}}, {"name": "e2e8cb3091123353dce25758f542019e", "fusion_lat": 0.0, "type": "electric_bike", "lat": 38.8075475, "is_reserved": 0, "is_disabled": 0, "fusion_lon": 0.0, "bike_id": "e2e8cb3091123353dce25758f542019e", "lon": -77.0945515, "rental_uris": {"ios": "https://dc.lft.to/lastmile_qr_scan", "android": "https://dc.lft.to/lastmile_qr_scan"}}, {"name": "6caf6fddd7a6cdf6ae80f0297cbf44e4", "fusion_lat": 0.0, "type": "electric_scooter", "lat": 38.86662916666667, "is_reserved": 0, "is_disabled": 0, "fusion_lon": 0.0, "bike_id": "6caf6fddd7a6cdf6ae80f0297cbf44e4", "lon": -76.98882466666667, "rental_uris": {"ios": "https://dc.lft.to/lastmile_qr_scan", "android": "https://dc.lft.to/lastmile_qr_scan"}}, {"name": "48cd148c6a8bf01e247bde94696d1b2a", "fusion_lat": 0.0, "type": "electric_scooter", "lat": 38.90576033333333, "is_reserved": 0, "is_disabled": 0, "fusion_lon": 0.0, "bike_id": "48cd148c6a8bf01e247bde94696d1b2a", "lon": -77.0220895, "rental_uris": {"ios": "https://dc.lft.to/lastmile_qr_scan", "android": "https://dc.lft.to/lastmile_qr_scan"}}, {"name": "c5339f85b0efeebb99a69a00716e3586", "fusion_lat": 0.0, "type": "electric_bike", "lat": 38.9555715, "is_reserved": 0, "is_disabled": 0, "fusion_lon": 0.0, "bike_id": "c5339f85b0efeebb99a69a00716e3586", "lon": -77.07091316666667, "rental_uris": {"ios": "https://dc.lft.to/lastmile_qr_scan", "android": "https://dc.lft.to/lastmile_qr_scan"}}, {"name": "82f04b1e6d72caff43a086045b4d3a04", "fusion_lat": 0.0, "type": "electric_scooter", "lat": 38.88610766666667, "is_reserved": 0, "is_disabled": 0, "fusion_lon": 0.0, "bike_id": "82f04b1e6d72caff43a086045b4d3a04", "lon": -77.01961666666666, "rental_uris": {"ios": "https://dc.lft.to/lastmile_qr_scan", "android": "https://dc.lft.to/lastmile_qr_scan"}}, {"name": "21898a67a210c998ce5ca6d1da2b867c", "fusion_lat": 0.0, "type": "electric_bike", "lat": 38.94274766666667, "is_reserved": 0, "is_disabled": 0, "fusion_lon": 0.0, "bike_id": "21898a67a210c998ce5ca6d1da2b867c", "lon": -76.98073666666667, "rental_uris": {"ios": "https://dc.lft.to/lastmile_qr_scan", "android": "https://dc.lft.to/lastmile_qr_scan"}}, {"name": "1efcb19eddc51031e8f1627efc29baea", "fusion_lat": 0.0, "type": "electric_scooter", "lat": 38.902303333333336, "is_reserved": 0, "is_disabled": 0, "fusion_lon": 0.0, "bike_id": "1efcb19eddc51031e8f1627efc29baea", "lon": -77.01536233333333, "rental_uris": {"ios": "https://dc.lft.to/lastmile_qr_scan", "android": "https://dc.lft.to/lastmile_qr_scan"}}, {"name": "0d7c65b19605ba94c15deb2cf48dd696", "fusion_lat": 0.0, "type": "electric_scooter", "lat": 38.942290166666666, "is_reserved": 0, "is_disabled": 0, "fusion_lon": 0.0, "bike_id": "0d7c65b19605ba94c15deb2cf48dd696", "lon": -77.02158316666667, "rental_uris": {"ios": "https://dc.lft.to/lastmile_qr_scan", "android": "https://dc.lft.to/lastmile_qr_scan"}}, {"name": "5515316c47c3faa3928423e019a6f9c9", "fusion_lat": 0.0, "type": "electric_scooter", "lat": 38.921805, "is_reserved": 0, "is_disabled": 0, "fusion_lon": 0.0, "bike_id": "5515316c47c3faa3928423e019a6f9c9", "lon": -77.02669833333333, "rental_uris": {"ios": "https://dc.lft.to/lastmile_qr_scan", "android": "https://dc.lft.to/lastmile_qr_scan"}}, {"name": "7d9e7864bae1f9c939b6525cf8d2b821", "fusion_lat": 0.0, "type": "electric_bike", "lat": 38.87477533333333, "is_reserved": 0, "is_disabled": 0, "fusion_lon": 0.0, "bike_id": "7d9e7864bae1f9c939b6525cf8d2b821", "lon": -76.96537366666666, "rental_uris": {"ios": "https://dc.lft.to/lastmile_qr_scan", "android": "https://dc.lft.to/lastmile_qr_scan"}}, {"name": "af8e8e8b30cbed6829f9a70a90313579", "fusion_lat": 0.0, "type": "electric_scooter", "lat": 38.931481, "is_reserved": 0, "is_disabled": 0, "fusion_lon": 0.0, "bike_id": "af8e8e8b30cbed6829f9a70a90313579", "lon": -77.03879216666667, "rental_uris": {"ios": "https://dc.lft.to/lastmile_qr_scan", "android": "https://dc.lft.to/lastmile_qr_scan"}}, {"name": "28dffa0eef15aa8021ce9063c03ca600", "fusion_lat": 0.0, "type": "electric_scooter", "lat": 38.917812166666664, "is_reserved": 0, "is_disabled": 0, "fusion_lon": 0.0, "bike_id": "28dffa0eef15aa8021ce9063c03ca600", "lon": -77.02345083333333, "rental_uris": {"ios": "https://dc.lft.to/lastmile_qr_scan", "android": "https://dc.lft.to/lastmile_qr_scan"}}, {"name": "8dc55941caa7b420a10257f956e17827", "fusion_lat": 0.0, "type": "electric_scooter", "lat": 38.8921955, "is_reserved": 0, "is_disabled": 0, "fusion_lon": 0.0, "bike_id": "8dc55941caa7b420a10257f956e17827", "lon": -77.022298, "rental_uris": {"ios": "https://dc.lft.to/lastmile_qr_scan", "android": "https://dc.lft.to/lastmile_qr_scan"}}, {"name": "6c54c79d7d2130fd2573fda6dbcbaefd", "fusion_lat": 0.0, "type": "electric_scooter", "lat": 38.9080425, "is_reserved": 0, "is_disabled": 0, "fusion_lon": 0.0, "bike_id": "6c54c79d7d2130fd2573fda6dbcbaefd", "lon": -77.03825633333334, "rental_uris": {"ios": "https://dc.lft.to/lastmile_qr_scan", "android": "https://dc.lft.to/lastmile_qr_scan"}}, {"name": "d896e519963eb8afff1b3a25c92e75a5", "fusion_lat": 0.0, "type": "electric_scooter", "lat": 38.900401333333335, "is_reserved": 0, "is_disabled": 0, "fusion_lon": 0.0, "bike_id": "d896e519963eb8afff1b3a25c92e75a5", "lon": -76.9851885, "rental_uris": {"ios": "https://dc.lft.to/lastmile_qr_scan", "android": "https://dc.lft.to/lastmile_qr_scan"}}, {"name": "d81728bd191b7655f6f28d623ee7e3c9", "fusion_lat": 0.0, "type": "electric_scooter", "lat": 38.91645833333333, "is_reserved": 0, "is_disabled": 0, "fusion_lon": 0.0, "bike_id": "d81728bd191b7655f6f28d623ee7e3c9", "lon": -77.039065, "rental_uris": {"ios": "https://dc.lft.to/lastmile_qr_scan", "android": "https://dc.lft.to/lastmile_qr_scan"}}, {"name": "75316e837cc29bb5c06819e860340088", "fusion_lat": 0.0, "type": "electric_scooter", "lat": 38.91713266666667, "is_reserved": 0, "is_disabled": 0, "fusion_lon": 0.0, "bike_id": "75316e837cc29bb5c06819e860340088", "lon": -77.01246166666667, "rental_uris": {"ios": "https://dc.lft.to/lastmile_qr_scan", "android": "https://dc.lft.to/lastmile_qr_scan"}}, {"name": "faef43cb484e84ed41dd19346cb9b4d5", "fusion_lat": 0.0, "type": "electric_scooter", "lat": 38.88610116666667, "is_reserved": 0, "is_disabled": 0, "fusion_lon": 0.0, "bike_id": "faef43cb484e84ed41dd19346cb9b4d5", "lon": -76.97816883333333, "rental_uris": {"ios": "https://dc.lft.to/lastmile_qr_scan", "android": "https://dc.lft.to/lastmile_qr_scan"}}, {"name": "d7e9a6fc92da6d9f6a95b9f5b3cf7c62", "fusion_lat": 0.0, "type": "electric_scooter", "lat": 38.887386666666664, "is_reserved": 0, "is_disabled": 0, "fusion_lon": 0.0, "bike_id": "d7e9a6fc92da6d9f6a95b9f5b3cf7c62", "lon": -77.01538283333333, "rental_uris": {"ios": "https://dc.lft.to/lastmile_qr_scan", "android": "https://dc.lft.to/lastmile_qr_scan"}}, {"name": "fc3e9337a32cf042b8bbd06dcb938a4c", "fusion_lat": 0.0, "type": "electric_scooter", "lat": 38.915440833333335, "is_reserved": 0, "is_disabled": 0, "fusion_lon": 0.0, "bike_id": "fc3e9337a32cf042b8bbd06dcb938a4c", "lon": -77.03853116666667, "rental_uris": {"ios": "https://dc.lft.to/lastmile_qr_scan", "android": "https://dc.lft.to/lastmile_qr_scan"}}, {"name": "22e9d45eb230525bf4dbe44e9a103ba9", "fusion_lat": 0.0, "type": "electric_scooter", "lat": 38.918453666666665, "is_reserved": 0, "is_disabled": 0, "fusion_lon": 0.0, "bike_id": "22e9d45eb230525bf4dbe44e9a103ba9", "lon": -77.00172983333333, "rental_uris": {"ios": "https://dc.lft.to/lastmile_qr_scan", "android": "https://dc.lft.to/lastmile_qr_scan"}}, {"name": "68a76c717c1656c71d9f8a38551ae232", "fusion_lat": 0.0, "type": "electric_scooter", "lat": 38.90539533333333, "is_reserved": 0, "is_disabled": 0, "fusion_lon": 0.0, "bike_id": "68a76c717c1656c71d9f8a38551ae232", "lon": -77.06274, "rental_uris": {"ios": "https://dc.lft.to/lastmile_qr_scan", "android": "https://dc.lft.to/lastmile_qr_scan"}}, {"name": "8139639ec108c0f9057ffabf4288d9eb", "fusion_lat": 0.0, "type": "electric_scooter", "lat": 38.935508166666665, "is_reserved": 0, "is_disabled": 0, "fusion_lon": 0.0, "bike_id": "8139639ec108c0f9057ffabf4288d9eb", "lon": -77.05979383333333, "rental_uris": {"ios": "https://dc.lft.to/lastmile_qr_scan", "android": "https://dc.lft.to/lastmile_qr_scan"}}, {"name": "8180dbeceb01161941a66e95fab8c9ac", "fusion_lat": 0.0, "type": "electric_scooter", "lat": 38.9126045, "is_reserved": 0, "is_disabled": 0, "fusion_lon": 0.0, "bike_id": "8180dbeceb01161941a66e95fab8c9ac", "lon": -77.0386455, "rental_uris": {"ios": "https://dc.lft.to/lastmile_qr_scan", "android": "https://dc.lft.to/lastmile_qr_scan"}}, {"name": "bb9301d1a9d739b0b465cb872cccff83", "fusion_lat": 0.0, "type": "electric_scooter", "lat": 38.90794916666667, "is_reserved": 0, "is_disabled": 0, "fusion_lon": 0.0, "bike_id": "bb9301d1a9d739b0b465cb872cccff83", "lon": -77.03198516666667, "rental_uris": {"ios": "https://dc.lft.to/lastmile_qr_scan", "android": "https://dc.lft.to/lastmile_qr_scan"}}, {"name": "245aad1f321ec32dc8fe43668d15efa3", "fusion_lat": 0.0, "type": "electric_bike", "lat": 38.8863825, "is_reserved": 0, "is_disabled": 0, "fusion_lon": 0.0, "bike_id": "245aad1f321ec32dc8fe43668d15efa3", "lon": -76.9547975, "rental_uris": {"ios": "https://dc.lft.to/lastmile_qr_scan", "android": "https://dc.lft.to/lastmile_qr_scan"}}, {"name": "8bbedac97d721a92983bd99b25936113", "fusion_lat": 0.0, "type": "electric_bike", "lat": 38.898356, "is_reserved": 0, "is_disabled": 0, "fusion_lon": 0.0, "bike_id": "8bbedac97d721a92983bd99b25936113", "lon": -77.11802283333333, "rental_uris": {"ios": "https://dc.lft.to/lastmile_qr_scan", "android": "https://dc.lft.to/lastmile_qr_scan"}}, {"name": "03b4088ff62c8fff4f9c5ce27606b9e9", "fusion_lat": 0.0, "type": "electric_scooter", "lat": 38.92571366666667, "is_reserved": 0, "is_disabled": 0, "fusion_lon": 0.0, "bike_id": "03b4088ff62c8fff4f9c5ce27606b9e9", "lon": -77.02965716666667, "rental_uris": {"ios": "https://dc.lft.to/lastmile_qr_scan", "android": "https://dc.lft.to/lastmile_qr_scan"}}, {"name": "ad509038ac0886b6b4ad5c2dbbccee06", "fusion_lat": 0.0, "type": "electric_scooter", "lat": 38.936422666666665, "is_reserved": 0, "is_disabled": 0, "fusion_lon": 0.0, "bike_id": "ad509038ac0886b6b4ad5c2dbbccee06", "lon": -77.0346005, "rental_uris": {"ios": "https://dc.lft.to/lastmile_qr_scan", "android": "https://dc.lft.to/lastmile_qr_scan"}}, {"name": "0efc7d83a52cf1d4c620a61bb3730781", "fusion_lat": 0.0, "type": "electric_scooter", "lat": 38.92481316666667, "is_reserved": 0, "is_disabled": 0, "fusion_lon": 0.0, "bike_id": "0efc7d83a52cf1d4c620a61bb3730781", "lon": -77.02754166666666, "rental_uris": {"ios": "https://dc.lft.to/lastmile_qr_scan", "android": "https://dc.lft.to/lastmile_qr_scan"}}, {"name": "79f51529f7e6dcbed68eff5cfd1d0c73", "fusion_lat": 0.0, "type": "electric_bike", "lat": 38.90421766666667, "is_reserved": 0, "is_disabled": 0, "fusion_lon": 0.0, "bike_id": "79f51529f7e6dcbed68eff5cfd1d0c73", "lon": -76.98792866666666, "rental_uris": {"ios": "https://dc.lft.to/lastmile_qr_scan", "android": "https://dc.lft.to/lastmile_qr_scan"}}, {"name": "13e6619e7da8a05280e77ff11ea4373e", "fusion_lat": 0.0, "type": "electric_scooter", "lat": 38.9180315, "is_reserved": 0, "is_disabled": 0, "fusion_lon": 0.0, "bike_id": "13e6619e7da8a05280e77ff11ea4373e", "lon": -77.03996983333333, "rental_uris": {"ios": "https://dc.lft.to/lastmile_qr_scan", "android": "https://dc.lft.to/lastmile_qr_scan"}}, {"name": "ab8a5d460cde527108c2c2608689bba7", "fusion_lat": 0.0, "type": "electric_bike", "lat": 39.0890265, "is_reserved": 0, "is_disabled": 0, "fusion_lon": 0.0, "bike_id": "ab8a5d460cde527108c2c2608689bba7", "lon": -77.1784895, "rental_uris": {"ios": "https://dc.lft.to/lastmile_qr_scan", "android": "https://dc.lft.to/lastmile_qr_scan"}}, {"name": "22f7928b376f0b15e2df983d4404c349", "fusion_lat": 0.0, "type": "electric_scooter", "lat": 38.887317333333336, "is_reserved": 0, "is_disabled": 0, "fusion_lon": 0.0, "bike_id": "22f7928b376f0b15e2df983d4404c349", "lon": -77.01762216666667, "rental_uris": {"ios": "https://dc.lft.to/lastmile_qr_scan", "android": "https://dc.lft.to/lastmile_qr_scan"}}, {"name": "714584dabb73bbf62dd056d3890bbc16", "fusion_lat": 0.0, "type": "electric_bike", "lat": 38.84611133333333, "is_reserved": 0, "is_disabled": 0, "fusion_lon": 0.0, "bike_id": "714584dabb73bbf62dd056d3890bbc16", "lon": -76.97830833333333, "rental_uris": {"ios": "https://dc.lft.to/lastmile_qr_scan", "android": "https://dc.lft.to/lastmile_qr_scan"}}, {"name": "2f36782142b9a4b4e12eedd7083893da", "fusion_lat": 0.0, "type": "electric_scooter", "lat": 38.908022833333334, "is_reserved": 0, "is_disabled": 0, "fusion_lon": 0.0, "bike_id": "2f36782142b9a4b4e12eedd7083893da", "lon": -77.0382795, "rental_uris": {"ios": "https://dc.lft.to/lastmile_qr_scan", "android": "https://dc.lft.to/lastmile_qr_scan"}}, {"name": "432ee17266d6a27aa88c20583866ce72", "fusion_lat": 0.0, "type": "electric_scooter", "lat": 38.92840066666667, "is_reserved": 0, "is_disabled": 0, "fusion_lon": 0.0, "bike_id": "432ee17266d6a27aa88c20583866ce72", "lon": -77.01418333333334, "rental_uris": {"ios": "https://dc.lft.to/lastmile_qr_scan", "android": "https://dc.lft.to/lastmile_qr_scan"}}, {"name": "b9b2471d8ed4b8bd194c041a4c6d40a6", "fusion_lat": 0.0, "type": "electric_bike", "lat": 38.95356833333334, "is_reserved": 0, "is_disabled": 0, "fusion_lon": 0.0, "bike_id": "b9b2471d8ed4b8bd194c041a4c6d40a6", "lon": -76.98090433333333, "rental_uris": {"ios": "https://dc.lft.to/lastmile_qr_scan", "android": "https://dc.lft.to/lastmile_qr_scan"}}, {"name": "3475e4fe9350b73b67dbe2bea5637c5e", "fusion_lat": 0.0, "type": "electric_bike", "lat": 39.05814133333333, "is_reserved": 0, "is_disabled": 0, "fusion_lon": 0.0, "bike_id": "3475e4fe9350b73b67dbe2bea5637c5e", "lon": -77.12627366666666, "rental_uris": {"ios": "https://dc.lft.to/lastmile_qr_scan", "android": "https://dc.lft.to/lastmile_qr_scan"}}, {"name": "70ca175312f13f308699a7c68dd6fbab", "fusion_lat": 0.0, "type": "electric_scooter", "lat": 38.9193095, "is_reserved": 0, "is_disabled": 0, "fusion_lon": 0.0, "bike_id": "70ca175312f13f308699a7c68dd6fbab", "lon": -77.03183216666666, "rental_uris": {"ios": "https://dc.lft.to/lastmile_qr_scan", "android": "https://dc.lft.to/lastmile_qr_scan"}}, {"name": "052193aa747e45f356edd0389124a991", "fusion_lat": 0.0, "type": "electric_scooter", "lat": 38.90125316666666, "is_reserved": 0, "is_disabled": 0, "fusion_lon": 0.0, "bike_id": "052193aa747e45f356edd0389124a991", "lon": -77.017884, "rental_uris": {"ios": "https://dc.lft.to/lastmile_qr_scan", "android": "https://dc.lft.to/lastmile_qr_scan"}}, {"name": "0874c81c7b8648339b242b1fbc4be946", "fusion_lat": 0.0, "type": "electric_scooter", "lat": 38.905631, "is_reserved": 0, "is_disabled": 0, "fusion_lon": 0.0, "bike_id": "0874c81c7b8648339b242b1fbc4be946", "lon": -77.00515566666667, "rental_uris": {"ios": "https://dc.lft.to/lastmile_qr_scan", "android": "https://dc.lft.to/lastmile_qr_scan"}}, {"name": "c092c9a8c4e2507cefe0db9dedf493e8", "fusion_lat": 0.0, "type": "electric_scooter", "lat": 38.91985566666666, "is_reserved": 0, "is_disabled": 0, "fusion_lon": 0.0, "bike_id": "c092c9a8c4e2507cefe0db9dedf493e8", "lon": -77.02377, "rental_uris": {"ios": "https://dc.lft.to/lastmile_qr_scan", "android": "https://dc.lft.to/lastmile_qr_scan"}}, {"name": "87ef9ed04f3ffee7d0697ec5dccf34a1", "fusion_lat": 0.0, "type": "electric_scooter", "lat": 38.9026985, "is_reserved": 0, "is_disabled": 0, "fusion_lon": 0.0, "bike_id": "87ef9ed04f3ffee7d0697ec5dccf34a1", "lon": -76.998547, "rental_uris": {"ios": "https://dc.lft.to/lastmile_qr_scan", "android": "https://dc.lft.to/lastmile_qr_scan"}}, {"name": "663a589efd789095a0edb11d3c71657c", "fusion_lat": 0.0, "type": "electric_bike", "lat": 38.80228783333333, "is_reserved": 0, "is_disabled": 0, "fusion_lon": 0.0, "bike_id": "663a589efd789095a0edb11d3c71657c", "lon": -77.079157, "rental_uris": {"ios": "https://dc.lft.to/lastmile_qr_scan", "android": "https://dc.lft.to/lastmile_qr_scan"}}, {"name": "2d2aa71a4dfce9690b1cf8a0c3c7df53", "fusion_lat": 0.0, "type": "electric_bike", "lat": 38.935652166666664, "is_reserved": 0, "is_disabled": 0, "fusion_lon": 0.0, "bike_id": "2d2aa71a4dfce9690b1cf8a0c3c7df53", "lon": -77.10439166666667, "rental_uris": {"ios": "https://dc.lft.to/lastmile_qr_scan", "android": "https://dc.lft.to/lastmile_qr_scan"}}, {"name": "c2c964c16822859b8b399ff15c26c750", "fusion_lat": 0.0, "type": "electric_scooter", "lat": 38.886491, "is_reserved": 0, "is_disabled": 0, "fusion_lon": 0.0, "bike_id": "c2c964c16822859b8b399ff15c26c750", "lon": -77.01363533333334, "rental_uris": {"ios": "https://dc.lft.to/lastmile_qr_scan", "android": "https://dc.lft.to/lastmile_qr_scan"}}, {"name": "4f9f2cbca0400b01d2dda6b99dda5977", "fusion_lat": 0.0, "type": "electric_scooter", "lat": 38.918701666666664, "is_reserved": 0, "is_disabled": 0, "fusion_lon": 0.0, "bike_id": "4f9f2cbca0400b01d2dda6b99dda5977", "lon": -77.036783, "rental_uris": {"ios": "https://dc.lft.to/lastmile_qr_scan", "android": "https://dc.lft.to/lastmile_qr_scan"}}, {"name": "d4f2dcf21b3ac88176ab3df48a7963c2", "fusion_lat": 0.0, "type": "electric_scooter", "lat": 38.89529066666667, "is_reserved": 0, "is_disabled": 0, "fusion_lon": 0.0, "bike_id": "d4f2dcf21b3ac88176ab3df48a7963c2", "lon": -77.04289833333333, "rental_uris": {"ios": "https://dc.lft.to/lastmile_qr_scan", "android": "https://dc.lft.to/lastmile_qr_scan"}}, {"name": "44712202bacead1cb39701afa1010be6", "fusion_lat": 0.0, "type": "electric_scooter", "lat": 38.91126283333333, "is_reserved": 0, "is_disabled": 0, "fusion_lon": 0.0, "bike_id": "44712202bacead1cb39701afa1010be6", "lon": -77.02197233333334, "rental_uris": {"ios": "https://dc.lft.to/lastmile_qr_scan", "android": "https://dc.lft.to/lastmile_qr_scan"}}, {"name": "320c570e8344a45f22bdea39643b076a", "fusion_lat": 0.0, "type": "electric_scooter", "lat": 38.912634833333335, "is_reserved": 0, "is_disabled": 0, "fusion_lon": 0.0, "bike_id": "320c570e8344a45f22bdea39643b076a", "lon": -77.03869116666667, "rental_uris": {"ios": "https://dc.lft.to/lastmile_qr_scan", "android": "https://dc.lft.to/lastmile_qr_scan"}}, {"name": "a41b08c57325edb9293f6735f368bbcc", "fusion_lat": 0.0, "type": "electric_scooter", "lat": 38.909552, "is_reserved": 0, "is_disabled": 0, "fusion_lon": 0.0, "bike_id": "a41b08c57325edb9293f6735f368bbcc", "lon": -77.0237345, "rental_uris": {"ios": "https://dc.lft.to/lastmile_qr_scan", "android": "https://dc.lft.to/lastmile_qr_scan"}}, {"name": "828d71d399cb814fc418b3b7ee8e52e8", "fusion_lat": 0.0, "type": "electric_scooter", "lat": 38.90157933333333, "is_reserved": 0, "is_disabled": 0, "fusion_lon": 0.0, "bike_id": "828d71d399cb814fc418b3b7ee8e52e8", "lon": -76.93056716666666, "rental_uris": {"ios": "https://dc.lft.to/lastmile_qr_scan", "android": "https://dc.lft.to/lastmile_qr_scan"}}, {"name": "402352b8a1cdb4eb61226b8d6763a657", "fusion_lat": 0.0, "type": "electric_bike", "lat": 38.906834, "is_reserved": 0, "is_disabled": 0, "fusion_lon": 0.0, "bike_id": "402352b8a1cdb4eb61226b8d6763a657", "lon": -76.95186933333333, "rental_uris": {"ios": "https://dc.lft.to/lastmile_qr_scan", "android": "https://dc.lft.to/lastmile_qr_scan"}}, {"name": "bdb5949b6d13afe462bd61140e10969f", "fusion_lat": 0.0, "type": "electric_scooter", "lat": 38.9168895, "is_reserved": 0, "is_disabled": 0, "fusion_lon": 0.0, "bike_id": "bdb5949b6d13afe462bd61140e10969f", "lon": -77.031468, "rental_uris": {"ios": "https://dc.lft.to/lastmile_qr_scan", "android": "https://dc.lft.to/lastmile_qr_scan"}}, {"name": "89f1a8a6b76aba0f8df40e816060ba31", "fusion_lat": 0.0, "type": "electric_scooter", "lat": 38.912516333333336, "is_reserved": 0, "is_disabled": 0, "fusion_lon": 0.0, "bike_id": "89f1a8a6b76aba0f8df40e816060ba31", "lon": -77.03845233333334, "rental_uris": {"ios": "https://dc.lft.to/lastmile_qr_scan", "android": "https://dc.lft.to/lastmile_qr_scan"}}, {"name": "9c5c9f04e3a472698c1a6f660778f11c", "fusion_lat": 0.0, "type": "electric_scooter", "lat": 38.90614866666667, "is_reserved": 0, "is_disabled": 0, "fusion_lon": 0.0, "bike_id": "9c5c9f04e3a472698c1a6f660778f11c", "lon": -77.02412033333333, "rental_uris": {"ios": "https://dc.lft.to/lastmile_qr_scan", "android": "https://dc.lft.to/lastmile_qr_scan"}}, {"name": "a277643407dd696437dd318136108428", "fusion_lat": 0.0, "type": "electric_scooter", "lat": 38.952739666666666, "is_reserved": 0, "is_disabled": 0, "fusion_lon": 0.0, "bike_id": "a277643407dd696437dd318136108428", "lon": -77.0714225, "rental_uris": {"ios": "https://dc.lft.to/lastmile_qr_scan", "android": "https://dc.lft.to/lastmile_qr_scan"}}, {"name": "b77ee2f138a3197934162fb01376561b", "fusion_lat": 0.0, "type": "electric_scooter", "lat": 38.903548, "is_reserved": 0, "is_disabled": 0, "fusion_lon": 0.0, "bike_id": "b77ee2f138a3197934162fb01376561b", "lon": -77.01107033333334, "rental_uris": {"ios": "https://dc.lft.to/lastmile_qr_scan", "android": "https://dc.lft.to/lastmile_qr_scan"}}, {"name": "cf766c11c95ed06c0f5bb14d091e06df", "fusion_lat": 0.0, "type": "electric_scooter", "lat": 38.894836166666664, "is_reserved": 0, "is_disabled": 0, "fusion_lon": 0.0, "bike_id": "cf766c11c95ed06c0f5bb14d091e06df", "lon": -76.94874066666667, "rental_uris": {"ios": "https://dc.lft.to/lastmile_qr_scan", "android": "https://dc.lft.to/lastmile_qr_scan"}}, {"name": "6c7884448558c5018e6821abfd294e1c", "fusion_lat": 0.0, "type": "electric_scooter", "lat": 38.90109866666667, "is_reserved": 0, "is_disabled": 0, "fusion_lon": 0.0, "bike_id": "6c7884448558c5018e6821abfd294e1c", "lon": -77.04645316666667, "rental_uris": {"ios": "https://dc.lft.to/lastmile_qr_scan", "android": "https://dc.lft.to/lastmile_qr_scan"}}, {"name": "1af46975af46a6b60dda7ff9d866cf5c", "fusion_lat": 0.0, "type": "electric_scooter", "lat": 38.90254383333333, "is_reserved": 0, "is_disabled": 0, "fusion_lon": 0.0, "bike_id": "1af46975af46a6b60dda7ff9d866cf5c", "lon": -77.01758416666667, "rental_uris": {"ios": "https://dc.lft.to/lastmile_qr_scan", "android": "https://dc.lft.to/lastmile_qr_scan"}}, {"name": "9d236756e6952547914ba4a16f4c0e45", "fusion_lat": 0.0, "type": "electric_bike", "lat": 38.94555016666666, "is_reserved": 0, "is_disabled": 0, "fusion_lon": 0.0, "bike_id": "9d236756e6952547914ba4a16f4c0e45", "lon": -76.8954045, "rental_uris": {"ios": "https://dc.lft.to/lastmile_qr_scan", "android": "https://dc.lft.to/lastmile_qr_scan"}}, {"name": "7baf0e3807f2012d13866d6f328e20f9", "fusion_lat": 0.0, "type": "electric_scooter", "lat": 38.903847166666665, "is_reserved": 0, "is_disabled": 0, "fusion_lon": 0.0, "bike_id": "7baf0e3807f2012d13866d6f328e20f9", "lon": -77.0452585, "rental_uris": {"ios": "https://dc.lft.to/lastmile_qr_scan", "android": "https://dc.lft.to/lastmile_qr_scan"}}, {"name": "ee347038262fb66835b5a20fdd8b3044", "fusion_lat": 0.0, "type": "electric_scooter", "lat": 38.87565033333333, "is_reserved": 0, "is_disabled": 0, "fusion_lon": 0.0, "bike_id": "ee347038262fb66835b5a20fdd8b3044", "lon": -77.0060605, "rental_uris": {"ios": "https://dc.lft.to/lastmile_qr_scan", "android": "https://dc.lft.to/lastmile_qr_scan"}}, {"name": "c0b896f423d43eb47a794d9e33c57d7f", "fusion_lat": 0.0, "type": "electric_bike", "lat": 38.97329766666667, "is_reserved": 0, "is_disabled": 0, "fusion_lon": 0.0, "bike_id": "c0b896f423d43eb47a794d9e33c57d7f", "lon": -77.02150816666666, "rental_uris": {"ios": "https://dc.lft.to/lastmile_qr_scan", "android": "https://dc.lft.to/lastmile_qr_scan"}}, {"name": "2d09795e3f41c5783b6aa08bec619d6a", "fusion_lat": 0.0, "type": "electric_scooter", "lat": 38.91977466666667, "is_reserved": 0, "is_disabled": 0, "fusion_lon": 0.0, "bike_id": "2d09795e3f41c5783b6aa08bec619d6a", "lon": -77.03290416666667, "rental_uris": {"ios": "https://dc.lft.to/lastmile_qr_scan", "android": "https://dc.lft.to/lastmile_qr_scan"}}, {"name": "7d56a2da9ff728041b2bb5cd49050097", "fusion_lat": 0.0, "type": "electric_scooter", "lat": 38.89649516666667, "is_reserved": 0, "is_disabled": 0, "fusion_lon": 0.0, "bike_id": "7d56a2da9ff728041b2bb5cd49050097", "lon": -77.00921533333333, "rental_uris": {"ios": "https://dc.lft.to/lastmile_qr_scan", "android": "https://dc.lft.to/lastmile_qr_scan"}}, {"name": "bb67541fc14950799999aafd2594c5c4", "fusion_lat": 0.0, "type": "electric_scooter", "lat": 38.90573116666667, "is_reserved": 0, "is_disabled": 0, "fusion_lon": 0.0, "bike_id": "bb67541fc14950799999aafd2594c5c4", "lon": -77.00709883333333, "rental_uris": {"ios": "https://dc.lft.to/lastmile_qr_scan", "android": "https://dc.lft.to/lastmile_qr_scan"}}, {"name": "91f3da0d4e7365be9c73737b18c29078", "fusion_lat": 0.0, "type": "electric_scooter", "lat": 38.917101333333335, "is_reserved": 0, "is_disabled": 0, "fusion_lon": 0.0, "bike_id": "91f3da0d4e7365be9c73737b18c29078", "lon": -77.0386515, "rental_uris": {"ios": "https://dc.lft.to/lastmile_qr_scan", "android": "https://dc.lft.to/lastmile_qr_scan"}}, {"name": "06b182d9a05aa7e99742502793d05bea", "fusion_lat": 0.0, "type": "electric_scooter", "lat": 38.91408766666667, "is_reserved": 0, "is_disabled": 0, "fusion_lon": 0.0, "bike_id": "06b182d9a05aa7e99742502793d05bea", "lon": -77.0456735, "rental_uris": {"ios": "https://dc.lft.to/lastmile_qr_scan", "android": "https://dc.lft.to/lastmile_qr_scan"}}, {"name": "e13fa8508ece510a5647867eb81035a8", "fusion_lat": 0.0, "type": "electric_scooter", "lat": 38.938736666666664, "is_reserved": 0, "is_disabled": 0, "fusion_lon": 0.0, "bike_id": "e13fa8508ece510a5647867eb81035a8", "lon": -77.02916516666667, "rental_uris": {"ios": "https://dc.lft.to/lastmile_qr_scan", "android": "https://dc.lft.to/lastmile_qr_scan"}}, {"name": "cc121b7ec8d1b10c3870c5c0172ef5eb", "fusion_lat": 0.0, "type": "electric_scooter", "lat": 38.8804035, "is_reserved": 0, "is_disabled": 0, "fusion_lon": 0.0, "bike_id": "cc121b7ec8d1b10c3870c5c0172ef5eb", "lon": -77.0050695, "rental_uris": {"ios": "https://dc.lft.to/lastmile_qr_scan", "android": "https://dc.lft.to/lastmile_qr_scan"}}, {"name": "c1cfc16c23b6b517b7b635e79086f2df", "fusion_lat": 0.0, "type": "electric_scooter", "lat": 38.90275333333334, "is_reserved": 0, "is_disabled": 0, "fusion_lon": 0.0, "bike_id": "c1cfc16c23b6b517b7b635e79086f2df", "lon": -77.04352, "rental_uris": {"ios": "https://dc.lft.to/lastmile_qr_scan", "android": "https://dc.lft.to/lastmile_qr_scan"}}, {"name": "58be7ddd1a168d0d2e822f0dfa9b2d2a", "fusion_lat": 0.0, "type": "electric_scooter", "lat": 38.905705, "is_reserved": 0, "is_disabled": 0, "fusion_lon": 0.0, "bike_id": "58be7ddd1a168d0d2e822f0dfa9b2d2a", "lon": -77.02205283333333, "rental_uris": {"ios": "https://dc.lft.to/lastmile_qr_scan", "android": "https://dc.lft.to/lastmile_qr_scan"}}, {"name": "54dd4e55fa8b9baef41d4e39d8d4f6eb", "fusion_lat": 0.0, "type": "electric_scooter", "lat": 38.910542, "is_reserved": 0, "is_disabled": 0, "fusion_lon": 0.0, "bike_id": "54dd4e55fa8b9baef41d4e39d8d4f6eb", "lon": -77.052924, "rental_uris": {"ios": "https://dc.lft.to/lastmile_qr_scan", "android": "https://dc.lft.to/lastmile_qr_scan"}}, {"name": "569564d7f134f7ad0d6b92e14420e502", "fusion_lat": 0.0, "type": "electric_scooter", "lat": 38.900221, "is_reserved": 0, "is_disabled": 0, "fusion_lon": 0.0, "bike_id": "569564d7f134f7ad0d6b92e14420e502", "lon": -76.99556783333334, "rental_uris": {"ios": "https://dc.lft.to/lastmile_qr_scan", "android": "https://dc.lft.to/lastmile_qr_scan"}}, {"name": "7bb9f9bd78c21c68e5a14eeaf250851e", "fusion_lat": 0.0, "type": "electric_scooter", "lat": 38.87294466666667, "is_reserved": 0, "is_disabled": 0, "fusion_lon": 0.0, "bike_id": "7bb9f9bd78c21c68e5a14eeaf250851e", "lon": -77.00153866666666, "rental_uris": {"ios": "https://dc.lft.to/lastmile_qr_scan", "android": "https://dc.lft.to/lastmile_qr_scan"}}, {"name": "3ce9ccacd224801c42a4ef0a09ba8d71", "fusion_lat": 0.0, "type": "electric_scooter", "lat": 38.89347, "is_reserved": 0, "is_disabled": 0, "fusion_lon": 0.0, "bike_id": "3ce9ccacd224801c42a4ef0a09ba8d71", "lon": -76.99148466666666, "rental_uris": {"ios": "https://dc.lft.to/lastmile_qr_scan", "android": "https://dc.lft.to/lastmile_qr_scan"}}, {"name": "412e5c7a7cc88c67b9d9312cedaee9c9", "fusion_lat": 0.0, "type": "electric_bike", "lat": 38.949717666666665, "is_reserved": 0, "is_disabled": 0, "fusion_lon": 0.0, "bike_id": "412e5c7a7cc88c67b9d9312cedaee9c9", "lon": -76.97287616666667, "rental_uris": {"ios": "https://dc.lft.to/lastmile_qr_scan", "android": "https://dc.lft.to/lastmile_qr_scan"}}, {"name": "7235c0488dc7a7480e8a4b9df3fa6938", "fusion_lat": 0.0, "type": "electric_scooter", "lat": 38.90010433333333, "is_reserved": 0, "is_disabled": 0, "fusion_lon": 0.0, "bike_id": "7235c0488dc7a7480e8a4b9df3fa6938", "lon": -76.99704216666666, "rental_uris": {"ios": "https://dc.lft.to/lastmile_qr_scan", "android": "https://dc.lft.to/lastmile_qr_scan"}}, {"name": "79ce999038b9ab60f6a7ca28b172455a", "fusion_lat": 0.0, "type": "electric_bike", "lat": 38.875524, "is_reserved": 0, "is_disabled": 0, "fusion_lon": 0.0, "bike_id": "79ce999038b9ab60f6a7ca28b172455a", "lon": -76.96754983333334, "rental_uris": {"ios": "https://dc.lft.to/lastmile_qr_scan", "android": "https://dc.lft.to/lastmile_qr_scan"}}, {"name": "5cc1acfbad3372f46e9f4fefdfce4d68", "fusion_lat": 0.0, "type": "electric_scooter", "lat": 38.92974366666667, "is_reserved": 0, "is_disabled": 0, "fusion_lon": 0.0, "bike_id": "5cc1acfbad3372f46e9f4fefdfce4d68", "lon": -77.01962366666666, "rental_uris": {"ios": "https://dc.lft.to/lastmile_qr_scan", "android": "https://dc.lft.to/lastmile_qr_scan"}}, {"name": "8213e4455a22c3b510165239ba677230", "fusion_lat": 0.0, "type": "electric_scooter", "lat": 38.90959466666666, "is_reserved": 0, "is_disabled": 0, "fusion_lon": 0.0, "bike_id": "8213e4455a22c3b510165239ba677230", "lon": -77.04059016666666, "rental_uris": {"ios": "https://dc.lft.to/lastmile_qr_scan", "android": "https://dc.lft.to/lastmile_qr_scan"}}, {"name": "019b4a5f49aa7e018d8a308cb51e0a32", "fusion_lat": 0.0, "type": "electric_scooter", "lat": 38.90247816666667, "is_reserved": 0, "is_disabled": 0, "fusion_lon": 0.0, "bike_id": "019b4a5f49aa7e018d8a308cb51e0a32", "lon": -77.01796683333333, "rental_uris": {"ios": "https://dc.lft.to/lastmile_qr_scan", "android": "https://dc.lft.to/lastmile_qr_scan"}}, {"name": "16547f7a8b8adbd66fe409e37d111f0c", "fusion_lat": 0.0, "type": "electric_scooter", "lat": 38.93253166666667, "is_reserved": 0, "is_disabled": 0, "fusion_lon": 0.0, "bike_id": "16547f7a8b8adbd66fe409e37d111f0c", "lon": -77.04013083333334, "rental_uris": {"ios": "https://dc.lft.to/lastmile_qr_scan", "android": "https://dc.lft.to/lastmile_qr_scan"}}, {"name": "945fe9eeabb2eb4a8ef1b3bdfc93bde1", "fusion_lat": 0.0, "type": "electric_scooter", "lat": 38.90009116666667, "is_reserved": 0, "is_disabled": 0, "fusion_lon": 0.0, "bike_id": "945fe9eeabb2eb4a8ef1b3bdfc93bde1", "lon": -77.01119216666666, "rental_uris": {"ios": "https://dc.lft.to/lastmile_qr_scan", "android": "https://dc.lft.to/lastmile_qr_scan"}}, {"name": "e6e174ffbcfcc27306d7aae70813ba47", "fusion_lat": 0.0, "type": "electric_scooter", "lat": 38.90038083333334, "is_reserved": 0, "is_disabled": 0, "fusion_lon": 0.0, "bike_id": "e6e174ffbcfcc27306d7aae70813ba47", "lon": -77.00204783333334, "rental_uris": {"ios": "https://dc.lft.to/lastmile_qr_scan", "android": "https://dc.lft.to/lastmile_qr_scan"}}, {"name": "68bc6586caefe70721b72119b1d0f168", "fusion_lat": 0.0, "type": "electric_scooter", "lat": 38.9134695, "is_reserved": 0, "is_disabled": 0, "fusion_lon": 0.0, "bike_id": "68bc6586caefe70721b72119b1d0f168", "lon": -77.00345116666666, "rental_uris": {"ios": "https://dc.lft.to/lastmile_qr_scan", "android": "https://dc.lft.to/lastmile_qr_scan"}}, {"name": "cf9e0c156fcf5a98725021115f975a80", "fusion_lat": 0.0, "type": "electric_bike", "lat": 38.96834666666667, "is_reserved": 0, "is_disabled": 0, "fusion_lon": 0.0, "bike_id": "cf9e0c156fcf5a98725021115f975a80", "lon": -77.033332, "rental_uris": {"ios": "https://dc.lft.to/lastmile_qr_scan", "android": "https://dc.lft.to/lastmile_qr_scan"}}, {"name": "eb2b9fe2e623b0e859b5a5a36a238453", "fusion_lat": 0.0, "type": "electric_scooter", "lat": 38.900769333333336, "is_reserved": 0, "is_disabled": 0, "fusion_lon": 0.0, "bike_id": "eb2b9fe2e623b0e859b5a5a36a238453", "lon": -77.05201183333334, "rental_uris": {"ios": "https://dc.lft.to/lastmile_qr_scan", "android": "https://dc.lft.to/lastmile_qr_scan"}}, {"name": "9cdb8d12a2ec29433589a13d2543a0d5", "fusion_lat": 0.0, "type": "electric_scooter", "lat": 38.93206433333334, "is_reserved": 0, "is_disabled": 0, "fusion_lon": 0.0, "bike_id": "9cdb8d12a2ec29433589a13d2543a0d5", "lon": -77.02734083333333, "rental_uris": {"ios": "https://dc.lft.to/lastmile_qr_scan", "android": "https://dc.lft.to/lastmile_qr_scan"}}, {"name": "9c33ef93d8cf89e3f76bae3c1e4eeabe", "fusion_lat": 0.0, "type": "electric_scooter", "lat": 38.91774083333333, "is_reserved": 0, "is_disabled": 0, "fusion_lon": 0.0, "bike_id": "9c33ef93d8cf89e3f76bae3c1e4eeabe", "lon": -77.02953366666667, "rental_uris": {"ios": "https://dc.lft.to/lastmile_qr_scan", "android": "https://dc.lft.to/lastmile_qr_scan"}}, {"name": "4b4af1243ea8cb8bd7c2392df6aa3d16", "fusion_lat": 0.0, "type": "electric_scooter", "lat": 38.8955765, "is_reserved": 0, "is_disabled": 0, "fusion_lon": 0.0, "bike_id": "4b4af1243ea8cb8bd7c2392df6aa3d16", "lon": -77.01102383333334, "rental_uris": {"ios": "https://dc.lft.to/lastmile_qr_scan", "android": "https://dc.lft.to/lastmile_qr_scan"}}, {"name": "636123ae17530ebf481abe3787ad002e", "fusion_lat": 0.0, "type": "electric_scooter", "lat": 38.89906583333333, "is_reserved": 0, "is_disabled": 0, "fusion_lon": 0.0, "bike_id": "636123ae17530ebf481abe3787ad002e", "lon": -77.039144, "rental_uris": {"ios": "https://dc.lft.to/lastmile_qr_scan", "android": "https://dc.lft.to/lastmile_qr_scan"}}, {"name": "bc25017bce533370554304ed7ed6ace0", "fusion_lat": 0.0, "type": "electric_scooter", "lat": 38.874898333333334, "is_reserved": 0, "is_disabled": 0, "fusion_lon": 0.0, "bike_id": "bc25017bce533370554304ed7ed6ace0", "lon": -77.00175866666666, "rental_uris": {"ios": "https://dc.lft.to/lastmile_qr_scan", "android": "https://dc.lft.to/lastmile_qr_scan"}}, {"name": "327925dfa2e2a034689f95553e61acb7", "fusion_lat": 0.0, "type": "electric_scooter", "lat": 38.912211666666664, "is_reserved": 0, "is_disabled": 0, "fusion_lon": 0.0, "bike_id": "327925dfa2e2a034689f95553e61acb7", "lon": -77.04495416666667, "rental_uris": {"ios": "https://dc.lft.to/lastmile_qr_scan", "android": "https://dc.lft.to/lastmile_qr_scan"}}, {"name": "6f2b8efb72386de8e7188cc706edf190", "fusion_lat": 0.0, "type": "electric_scooter", "lat": 38.8998125, "is_reserved": 0, "is_disabled": 0, "fusion_lon": 0.0, "bike_id": "6f2b8efb72386de8e7188cc706edf190", "lon": -77.031299, "rental_uris": {"ios": "https://dc.lft.to/lastmile_qr_scan", "android": "https://dc.lft.to/lastmile_qr_scan"}}, {"name": "03bdd639f6849d395897e94c2c57a433", "fusion_lat": 0.0, "type": "electric_scooter", "lat": 38.9031495, "is_reserved": 0, "is_disabled": 0, "fusion_lon": 0.0, "bike_id": "03bdd639f6849d395897e94c2c57a433", "lon": -77.041645, "rental_uris": {"ios": "https://dc.lft.to/lastmile_qr_scan", "android": "https://dc.lft.to/lastmile_qr_scan"}}, {"name": "ccee2566f202a4963b3eeb26ebcde1f4", "fusion_lat": 0.0, "type": "electric_scooter", "lat": 38.93064483333333, "is_reserved": 0, "is_disabled": 0, "fusion_lon": 0.0, "bike_id": "ccee2566f202a4963b3eeb26ebcde1f4", "lon": -77.039561, "rental_uris": {"ios": "https://dc.lft.to/lastmile_qr_scan", "android": "https://dc.lft.to/lastmile_qr_scan"}}, {"name": "417c1a8990d13c4f6bc42e45011000a0", "fusion_lat": 0.0, "type": "electric_scooter", "lat": 38.896041833333335, "is_reserved": 0, "is_disabled": 0, "fusion_lon": 0.0, "bike_id": "417c1a8990d13c4f6bc42e45011000a0", "lon": -77.046871, "rental_uris": {"ios": "https://dc.lft.to/lastmile_qr_scan", "android": "https://dc.lft.to/lastmile_qr_scan"}}, {"name": "fa22dc91e7350e1a296b8c094486be4c", "fusion_lat": 0.0, "type": "electric_scooter", "lat": 38.91345333333334, "is_reserved": 0, "is_disabled": 0, "fusion_lon": 0.0, "bike_id": "fa22dc91e7350e1a296b8c094486be4c", "lon": -77.03116633333333, "rental_uris": {"ios": "https://dc.lft.to/lastmile_qr_scan", "android": "https://dc.lft.to/lastmile_qr_scan"}}, {"name": "76fd2c914d5d52d60bad7e1f9f220475", "fusion_lat": 0.0, "type": "electric_scooter", "lat": 38.91688716666667, "is_reserved": 0, "is_disabled": 0, "fusion_lon": 0.0, "bike_id": "76fd2c914d5d52d60bad7e1f9f220475", "lon": -77.037668, "rental_uris": {"ios": "https://dc.lft.to/lastmile_qr_scan", "android": "https://dc.lft.to/lastmile_qr_scan"}}, {"name": "e706dd2c812da796ef9c5cfffe94cdcb", "fusion_lat": 0.0, "type": "electric_scooter", "lat": 38.91068516666667, "is_reserved": 0, "is_disabled": 0, "fusion_lon": 0.0, "bike_id": "e706dd2c812da796ef9c5cfffe94cdcb", "lon": -77.00851383333334, "rental_uris": {"ios": "https://dc.lft.to/lastmile_qr_scan", "android": "https://dc.lft.to/lastmile_qr_scan"}}, {"name": "a5062022c839761a1d4f9fee66ae038f", "fusion_lat": 0.0, "type": "electric_scooter", "lat": 38.8882395, "is_reserved": 0, "is_disabled": 0, "fusion_lon": 0.0, "bike_id": "a5062022c839761a1d4f9fee66ae038f", "lon": -77.04936483333333, "rental_uris": {"ios": "https://dc.lft.to/lastmile_qr_scan", "android": "https://dc.lft.to/lastmile_qr_scan"}}, {"name": "00e04c21c8f5141abe20722322062f0b", "fusion_lat": 0.0, "type": "electric_bike", "lat": 38.91551666666667, "is_reserved": 0, "is_disabled": 0, "fusion_lon": 0.0, "bike_id": "00e04c21c8f5141abe20722322062f0b", "lon": -77.06756033333333, "rental_uris": {"ios": "https://dc.lft.to/lastmile_qr_scan", "android": "https://dc.lft.to/lastmile_qr_scan"}}, {"name": "328035713325ed4ff4ab4caac05da41e", "fusion_lat": 0.0, "type": "electric_scooter", "lat": 38.9201515, "is_reserved": 0, "is_disabled": 0, "fusion_lon": 0.0, "bike_id": "328035713325ed4ff4ab4caac05da41e", "lon": -77.03118266666667, "rental_uris": {"ios": "https://dc.lft.to/lastmile_qr_scan", "android": "https://dc.lft.to/lastmile_qr_scan"}}, {"name": "9992218522452e974108ca57ee693283", "fusion_lat": 0.0, "type": "electric_scooter", "lat": 38.926312333333335, "is_reserved": 0, "is_disabled": 0, "fusion_lon": 0.0, "bike_id": "9992218522452e974108ca57ee693283", "lon": -77.037972, "rental_uris": {"ios": "https://dc.lft.to/lastmile_qr_scan", "android": "https://dc.lft.to/lastmile_qr_scan"}}, {"name": "5685f0397f2c8691deb81772d21601d4", "fusion_lat": 0.0, "type": "electric_scooter", "lat": 38.892409666666666, "is_reserved": 0, "is_disabled": 0, "fusion_lon": 0.0, "bike_id": "5685f0397f2c8691deb81772d21601d4", "lon": -77.01522066666666, "rental_uris": {"ios": "https://dc.lft.to/lastmile_qr_scan", "android": "https://dc.lft.to/lastmile_qr_scan"}}, {"name": "fa2dc79b99ac74958695e252d7ccba0e", "fusion_lat": 0.0, "type": "electric_bike", "lat": 38.8637925, "is_reserved": 0, "is_disabled": 0, "fusion_lon": 0.0, "bike_id": "fa2dc79b99ac74958695e252d7ccba0e", "lon": -77.12899966666667, "rental_uris": {"ios": "https://dc.lft.to/lastmile_qr_scan", "android": "https://dc.lft.to/lastmile_qr_scan"}}, {"name": "c2247fe492482771e9920f3fbda85cca", "fusion_lat": 0.0, "type": "electric_scooter", "lat": 38.89960683333334, "is_reserved": 0, "is_disabled": 0, "fusion_lon": 0.0, "bike_id": "c2247fe492482771e9920f3fbda85cca", "lon": -77.0161405, "rental_uris": {"ios": "https://dc.lft.to/lastmile_qr_scan", "android": "https://dc.lft.to/lastmile_qr_scan"}}, {"name": "2b94318d163cc0697bb46d3a657ac7ed", "fusion_lat": 0.0, "type": "electric_bike", "lat": 38.97090766666667, "is_reserved": 0, "is_disabled": 0, "fusion_lon": 0.0, "bike_id": "2b94318d163cc0697bb46d3a657ac7ed", "lon": -77.069691, "rental_uris": {"ios": "https://dc.lft.to/lastmile_qr_scan", "android": "https://dc.lft.to/lastmile_qr_scan"}}, {"name": "2620d852212e4e34a985dc436ded685c", "fusion_lat": 0.0, "type": "electric_scooter", "lat": 38.912453, "is_reserved": 0, "is_disabled": 0, "fusion_lon": 0.0, "bike_id": "2620d852212e4e34a985dc436ded685c", "lon": -77.032145, "rental_uris": {"ios": "https://dc.lft.to/lastmile_qr_scan", "android": "https://dc.lft.to/lastmile_qr_scan"}}, {"name": "9767a7e87717ca84959e020f47746580", "fusion_lat": 0.0, "type": "electric_scooter", "lat": 38.94555833333333, "is_reserved": 0, "is_disabled": 0, "fusion_lon": 0.0, "bike_id": "9767a7e87717ca84959e020f47746580", "lon": -77.07770166666667, "rental_uris": {"ios": "https://dc.lft.to/lastmile_qr_scan", "android": "https://dc.lft.to/lastmile_qr_scan"}}, {"name": "c7dd892d7905405c7719860afec3939a", "fusion_lat": 0.0, "type": "electric_scooter", "lat": 38.89226983333333, "is_reserved": 0, "is_disabled": 0, "fusion_lon": 0.0, "bike_id": "c7dd892d7905405c7719860afec3939a", "lon": -77.0500635, "rental_uris": {"ios": "https://dc.lft.to/lastmile_qr_scan", "android": "https://dc.lft.to/lastmile_qr_scan"}}, {"name": "ed478e55114b2810784611b9070cd885", "fusion_lat": 0.0, "type": "electric_scooter", "lat": 38.901421166666665, "is_reserved": 0, "is_disabled": 0, "fusion_lon": 0.0, "bike_id": "ed478e55114b2810784611b9070cd885", "lon": -76.98948516666667, "rental_uris": {"ios": "https://dc.lft.to/lastmile_qr_scan", "android": "https://dc.lft.to/lastmile_qr_scan"}}, {"name": "5c99d799f1a93259d68073f95c3a8920", "fusion_lat": 0.0, "type": "electric_scooter", "lat": 38.90634083333333, "is_reserved": 0, "is_disabled": 0, "fusion_lon": 0.0, "bike_id": "5c99d799f1a93259d68073f95c3a8920", "lon": -77.0413015, "rental_uris": {"ios": "https://dc.lft.to/lastmile_qr_scan", "android": "https://dc.lft.to/lastmile_qr_scan"}}, {"name": "e1da427c24bddb5f726d33e5eb068ecd", "fusion_lat": 0.0, "type": "electric_scooter", "lat": 38.877544, "is_reserved": 0, "is_disabled": 0, "fusion_lon": 0.0, "bike_id": "e1da427c24bddb5f726d33e5eb068ecd", "lon": -77.02001433333334, "rental_uris": {"ios": "https://dc.lft.to/lastmile_qr_scan", "android": "https://dc.lft.to/lastmile_qr_scan"}}, {"name": "4e5fe0963da9a4b217421b841dd3855b", "fusion_lat": 0.0, "type": "electric_scooter", "lat": 38.9139905, "is_reserved": 0, "is_disabled": 0, "fusion_lon": 0.0, "bike_id": "4e5fe0963da9a4b217421b841dd3855b", "lon": -77.04176516666666, "rental_uris": {"ios": "https://dc.lft.to/lastmile_qr_scan", "android": "https://dc.lft.to/lastmile_qr_scan"}}, {"name": "19c9e8436eab0eaeca4dab81b477f467", "fusion_lat": 0.0, "type": "electric_scooter", "lat": 38.878932, "is_reserved": 0, "is_disabled": 0, "fusion_lon": 0.0, "bike_id": "19c9e8436eab0eaeca4dab81b477f467", "lon": -77.00570366666666, "rental_uris": {"ios": "https://dc.lft.to/lastmile_qr_scan", "android": "https://dc.lft.to/lastmile_qr_scan"}}, {"name": "27cce315d82f916c3a5e5fdbe2d3e70f", "fusion_lat": 0.0, "type": "electric_scooter", "lat": 38.90268116666667, "is_reserved": 0, "is_disabled": 0, "fusion_lon": 0.0, "bike_id": "27cce315d82f916c3a5e5fdbe2d3e70f", "lon": -77.06274266666667, "rental_uris": {"ios": "https://dc.lft.to/lastmile_qr_scan", "android": "https://dc.lft.to/lastmile_qr_scan"}}, {"name": "ee456fefa14ff72eb43a270b40a6998f", "fusion_lat": 0.0, "type": "electric_scooter", "lat": 38.906211666666664, "is_reserved": 0, "is_disabled": 0, "fusion_lon": 0.0, "bike_id": "ee456fefa14ff72eb43a270b40a6998f", "lon": -77.00697566666666, "rental_uris": {"ios": "https://dc.lft.to/lastmile_qr_scan", "android": "https://dc.lft.to/lastmile_qr_scan"}}, {"name": "52ca15e09f9233c65df11f7bf96ec015", "fusion_lat": 0.0, "type": "electric_bike", "lat": 38.842776666666666, "is_reserved": 0, "is_disabled": 0, "fusion_lon": 0.0, "bike_id": "52ca15e09f9233c65df11f7bf96ec015", "lon": -76.98838133333334, "rental_uris": {"ios": "https://dc.lft.to/lastmile_qr_scan", "android": "https://dc.lft.to/lastmile_qr_scan"}}, {"name": "3d3f1c9e669f1d8bbaead042474b4dc2", "fusion_lat": 0.0, "type": "electric_scooter", "lat": 38.9169875, "is_reserved": 0, "is_disabled": 0, "fusion_lon": 0.0, "bike_id": "3d3f1c9e669f1d8bbaead042474b4dc2", "lon": -77.01258683333333, "rental_uris": {"ios": "https://dc.lft.to/lastmile_qr_scan", "android": "https://dc.lft.to/lastmile_qr_scan"}}, {"name": "778f9f997420f4cb98a3bb71c74ddb86", "fusion_lat": 0.0, "type": "electric_scooter", "lat": 38.912133, "is_reserved": 0, "is_disabled": 0, "fusion_lon": 0.0, "bike_id": "778f9f997420f4cb98a3bb71c74ddb86", "lon": -77.03843683333334, "rental_uris": {"ios": "https://dc.lft.to/lastmile_qr_scan", "android": "https://dc.lft.to/lastmile_qr_scan"}}, {"name": "4c9d7174887dcdb831a4f90c42d7d694", "fusion_lat": 0.0, "type": "electric_scooter", "lat": 38.91422683333333, "is_reserved": 0, "is_disabled": 0, "fusion_lon": 0.0, "bike_id": "4c9d7174887dcdb831a4f90c42d7d694", "lon": -77.02207266666667, "rental_uris": {"ios": "https://dc.lft.to/lastmile_qr_scan", "android": "https://dc.lft.to/lastmile_qr_scan"}}, {"name": "4da97735117268e7d715c7b106b4384f", "fusion_lat": 0.0, "type": "electric_scooter", "lat": 38.918118666666665, "is_reserved": 0, "is_disabled": 0, "fusion_lon": 0.0, "bike_id": "4da97735117268e7d715c7b106b4384f", "lon": -77.040059, "rental_uris": {"ios": "https://dc.lft.to/lastmile_qr_scan", "android": "https://dc.lft.to/lastmile_qr_scan"}}, {"name": "6deafeb5585a2a786bfcc29e3366a35f", "fusion_lat": 0.0, "type": "electric_scooter", "lat": 38.903823333333335, "is_reserved": 0, "is_disabled": 0, "fusion_lon": 0.0, "bike_id": "6deafeb5585a2a786bfcc29e3366a35f", "lon": -77.04903533333334, "rental_uris": {"ios": "https://dc.lft.to/lastmile_qr_scan", "android": "https://dc.lft.to/lastmile_qr_scan"}}, {"name": "363b07026cf349bbb391568694f26ae8", "fusion_lat": 0.0, "type": "electric_scooter", "lat": 38.91676666666667, "is_reserved": 0, "is_disabled": 0, "fusion_lon": 0.0, "bike_id": "363b07026cf349bbb391568694f26ae8", "lon": -77.02976633333333, "rental_uris": {"ios": "https://dc.lft.to/lastmile_qr_scan", "android": "https://dc.lft.to/lastmile_qr_scan"}}, {"name": "3665118eec38cbb4e73567e8b15c056f", "fusion_lat": 0.0, "type": "electric_scooter", "lat": 38.899808666666665, "is_reserved": 0, "is_disabled": 0, "fusion_lon": 0.0, "bike_id": "3665118eec38cbb4e73567e8b15c056f", "lon": -77.0556475, "rental_uris": {"ios": "https://dc.lft.to/lastmile_qr_scan", "android": "https://dc.lft.to/lastmile_qr_scan"}}, {"name": "47642a8aa1a4e410d8778186bcc14433", "fusion_lat": 0.0, "type": "electric_scooter", "lat": 38.902855833333334, "is_reserved": 0, "is_disabled": 0, "fusion_lon": 0.0, "bike_id": "47642a8aa1a4e410d8778186bcc14433", "lon": -77.03643166666667, "rental_uris": {"ios": "https://dc.lft.to/lastmile_qr_scan", "android": "https://dc.lft.to/lastmile_qr_scan"}}, {"name": "01808dd2047882d79be8c46db7dc5251", "fusion_lat": 0.0, "type": "electric_scooter", "lat": 38.91325916666667, "is_reserved": 0, "is_disabled": 0, "fusion_lon": 0.0, "bike_id": "01808dd2047882d79be8c46db7dc5251", "lon": -77.0317315, "rental_uris": {"ios": "https://dc.lft.to/lastmile_qr_scan", "android": "https://dc.lft.to/lastmile_qr_scan"}}, {"name": "d750c47af7e9acd746bab443549ad5ec", "fusion_lat": 0.0, "type": "electric_scooter", "lat": 38.9024645, "is_reserved": 0, "is_disabled": 0, "fusion_lon": 0.0, "bike_id": "d750c47af7e9acd746bab443549ad5ec", "lon": -77.01753983333333, "rental_uris": {"ios": "https://dc.lft.to/lastmile_qr_scan", "android": "https://dc.lft.to/lastmile_qr_scan"}}, {"name": "d53d601906038fe8240351b53e2087d1", "fusion_lat": 0.0, "type": "electric_scooter", "lat": 38.915516833333335, "is_reserved": 0, "is_disabled": 0, "fusion_lon": 0.0, "bike_id": "d53d601906038fe8240351b53e2087d1", "lon": -77.04157166666667, "rental_uris": {"ios": "https://dc.lft.to/lastmile_qr_scan", "android": "https://dc.lft.to/lastmile_qr_scan"}}, {"name": "d0836144478aaf0db9b3922a8a967826", "fusion_lat": 0.0, "type": "electric_bike", "lat": 38.939541166666665, "is_reserved": 0, "is_disabled": 0, "fusion_lon": 0.0, "bike_id": "d0836144478aaf0db9b3922a8a967826", "lon": -77.36094916666667, "rental_uris": {"ios": "https://dc.lft.to/lastmile_qr_scan", "android": "https://dc.lft.to/lastmile_qr_scan"}}, {"name": "8a23602a3327ddfde49dff87d5583946", "fusion_lat": 0.0, "type": "electric_scooter", "lat": 38.909716, "is_reserved": 0, "is_disabled": 0, "fusion_lon": 0.0, "bike_id": "8a23602a3327ddfde49dff87d5583946", "lon": -77.021828, "rental_uris": {"ios": "https://dc.lft.to/lastmile_qr_scan", "android": "https://dc.lft.to/lastmile_qr_scan"}}, {"name": "63f22326f51ddb12b9b3ef16287a5044", "fusion_lat": 0.0, "type": "electric_bike", "lat": 38.95928416666667, "is_reserved": 0, "is_disabled": 0, "fusion_lon": 0.0, "bike_id": "63f22326f51ddb12b9b3ef16287a5044", "lon": -76.92539166666667, "rental_uris": {"ios": "https://dc.lft.to/lastmile_qr_scan", "android": "https://dc.lft.to/lastmile_qr_scan"}}, {"name": "260a2f1e3ec2aac638e29cea90eb4f8b", "fusion_lat": 0.0, "type": "electric_scooter", "lat": 38.876883166666666, "is_reserved": 0, "is_disabled": 0, "fusion_lon": 0.0, "bike_id": "260a2f1e3ec2aac638e29cea90eb4f8b", "lon": -77.01756833333333, "rental_uris": {"ios": "https://dc.lft.to/lastmile_qr_scan", "android": "https://dc.lft.to/lastmile_qr_scan"}}, {"name": "6c21cd4e0a8c4dac1cc3af6c834dfcc4", "fusion_lat": 0.0, "type": "electric_scooter", "lat": 38.9148205, "is_reserved": 0, "is_disabled": 0, "fusion_lon": 0.0, "bike_id": "6c21cd4e0a8c4dac1cc3af6c834dfcc4", "lon": -77.04084166666667, "rental_uris": {"ios": "https://dc.lft.to/lastmile_qr_scan", "android": "https://dc.lft.to/lastmile_qr_scan"}}, {"name": "fcc44f859379b1cff12744a866c6a099", "fusion_lat": 0.0, "type": "electric_bike", "lat": 38.926965, "is_reserved": 0, "is_disabled": 0, "fusion_lon": 0.0, "bike_id": "fcc44f859379b1cff12744a866c6a099", "lon": -77.0078745, "rental_uris": {"ios": "https://dc.lft.to/lastmile_qr_scan", "android": "https://dc.lft.to/lastmile_qr_scan"}}, {"name": "572aa2c57929dfd9393f0e0508132280", "fusion_lat": 0.0, "type": "electric_scooter", "lat": 38.90022416666667, "is_reserved": 0, "is_disabled": 0, "fusion_lon": 0.0, "bike_id": "572aa2c57929dfd9393f0e0508132280", "lon": -77.05323716666666, "rental_uris": {"ios": "https://dc.lft.to/lastmile_qr_scan", "android": "https://dc.lft.to/lastmile_qr_scan"}}, {"name": "de42c4daf17057d61050dc22be3308ff", "fusion_lat": 0.0, "type": "electric_scooter", "lat": 38.90737166666667, "is_reserved": 0, "is_disabled": 0, "fusion_lon": 0.0, "bike_id": "de42c4daf17057d61050dc22be3308ff", "lon": -77.03450483333333, "rental_uris": {"ios": "https://dc.lft.to/lastmile_qr_scan", "android": "https://dc.lft.to/lastmile_qr_scan"}}, {"name": "a393726201d230a5f8be5a70e24743df", "fusion_lat": 0.0, "type": "electric_bike", "lat": 38.84592966666666, "is_reserved": 0, "is_disabled": 0, "fusion_lon": 0.0, "bike_id": "a393726201d230a5f8be5a70e24743df", "lon": -76.96883, "rental_uris": {"ios": "https://dc.lft.to/lastmile_qr_scan", "android": "https://dc.lft.to/lastmile_qr_scan"}}, {"name": "cbf49bfccffd7034d7ce74f7c71620d9", "fusion_lat": 0.0, "type": "electric_bike", "lat": 38.877557833333334, "is_reserved": 0, "is_disabled": 0, "fusion_lon": 0.0, "bike_id": "cbf49bfccffd7034d7ce74f7c71620d9", "lon": -76.979829, "rental_uris": {"ios": "https://dc.lft.to/lastmile_qr_scan", "android": "https://dc.lft.to/lastmile_qr_scan"}}, {"name": "d8b6c1251dae19cc37e9594253dff46f", "fusion_lat": 0.0, "type": "electric_scooter", "lat": 38.935927, "is_reserved": 0, "is_disabled": 0, "fusion_lon": 0.0, "bike_id": "d8b6c1251dae19cc37e9594253dff46f", "lon": -77.05635783333334, "rental_uris": {"ios": "https://dc.lft.to/lastmile_qr_scan", "android": "https://dc.lft.to/lastmile_qr_scan"}}, {"name": "0ff57c109b19d3c6bf13f89bd3e8d438", "fusion_lat": 0.0, "type": "electric_scooter", "lat": 38.92825766666667, "is_reserved": 0, "is_disabled": 0, "fusion_lon": 0.0, "bike_id": "0ff57c109b19d3c6bf13f89bd3e8d438", "lon": -77.0225995, "rental_uris": {"ios": "https://dc.lft.to/lastmile_qr_scan", "android": "https://dc.lft.to/lastmile_qr_scan"}}, {"name": "73282dda3b1dbb2dcb2efc1029d7ecd5", "fusion_lat": 0.0, "type": "electric_scooter", "lat": 38.92358333333333, "is_reserved": 0, "is_disabled": 0, "fusion_lon": 0.0, "bike_id": "73282dda3b1dbb2dcb2efc1029d7ecd5", "lon": -77.05058033333333, "rental_uris": {"ios": "https://dc.lft.to/lastmile_qr_scan", "android": "https://dc.lft.to/lastmile_qr_scan"}}, {"name": "204b3922b3e81e3aa68365138b953d19", "fusion_lat": 0.0, "type": "electric_scooter", "lat": 38.87811833333333, "is_reserved": 0, "is_disabled": 0, "fusion_lon": 0.0, "bike_id": "204b3922b3e81e3aa68365138b953d19", "lon": -77.00568233333334, "rental_uris": {"ios": "https://dc.lft.to/lastmile_qr_scan", "android": "https://dc.lft.to/lastmile_qr_scan"}}, {"name": "744d0aa4c25ea09ffa6168d9cc62f938", "fusion_lat": 0.0, "type": "electric_scooter", "lat": 38.929711833333336, "is_reserved": 0, "is_disabled": 0, "fusion_lon": 0.0, "bike_id": "744d0aa4c25ea09ffa6168d9cc62f938", "lon": -77.02793483333333, "rental_uris": {"ios": "https://dc.lft.to/lastmile_qr_scan", "android": "https://dc.lft.to/lastmile_qr_scan"}}, {"name": "3db7f2f625f2ef57ff4c1790deea7696", "fusion_lat": 0.0, "type": "electric_scooter", "lat": 38.90025133333333, "is_reserved": 0, "is_disabled": 0, "fusion_lon": 0.0, "bike_id": "3db7f2f625f2ef57ff4c1790deea7696", "lon": -76.99861083333333, "rental_uris": {"ios": "https://dc.lft.to/lastmile_qr_scan", "android": "https://dc.lft.to/lastmile_qr_scan"}}, {"name": "249914109f331bf109c3164e81e82057", "fusion_lat": 0.0, "type": "electric_scooter", "lat": 38.912594, "is_reserved": 0, "is_disabled": 0, "fusion_lon": 0.0, "bike_id": "249914109f331bf109c3164e81e82057", "lon": -77.0387025, "rental_uris": {"ios": "https://dc.lft.to/lastmile_qr_scan", "android": "https://dc.lft.to/lastmile_qr_scan"}}, {"name": "9ed0470a08963b8de60492399fc17cc3", "fusion_lat": 0.0, "type": "electric_bike", "lat": 38.85322933333333, "is_reserved": 0, "is_disabled": 0, "fusion_lon": 0.0, "bike_id": "9ed0470a08963b8de60492399fc17cc3", "lon": -76.98013233333333, "rental_uris": {"ios": "https://dc.lft.to/lastmile_qr_scan", "android": "https://dc.lft.to/lastmile_qr_scan"}}, {"name": "5117883d166702fe645a182b42f6fd4d", "fusion_lat": 0.0, "type": "electric_scooter", "lat": 38.93671833333333, "is_reserved": 0, "is_disabled": 0, "fusion_lon": 0.0, "bike_id": "5117883d166702fe645a182b42f6fd4d", "lon": -77.0363655, "rental_uris": {"ios": "https://dc.lft.to/lastmile_qr_scan", "android": "https://dc.lft.to/lastmile_qr_scan"}}, {"name": "5ec179b78b2630535b97a94432a6f62e", "fusion_lat": 0.0, "type": "electric_scooter", "lat": 38.93108866666667, "is_reserved": 0, "is_disabled": 0, "fusion_lon": 0.0, "bike_id": "5ec179b78b2630535b97a94432a6f62e", "lon": -77.03513316666667, "rental_uris": {"ios": "https://dc.lft.to/lastmile_qr_scan", "android": "https://dc.lft.to/lastmile_qr_scan"}}, {"name": "4f6601b571dcab70b4300675400a35c3", "fusion_lat": 0.0, "type": "electric_scooter", "lat": 38.908888833333336, "is_reserved": 0, "is_disabled": 0, "fusion_lon": 0.0, "bike_id": "4f6601b571dcab70b4300675400a35c3", "lon": -77.04938916666667, "rental_uris": {"ios": "https://dc.lft.to/lastmile_qr_scan", "android": "https://dc.lft.to/lastmile_qr_scan"}}, {"name": "2f3f1fd94d4a5b332bfbc25fc10427e9", "fusion_lat": 0.0, "type": "electric_scooter", "lat": 38.9051355, "is_reserved": 0, "is_disabled": 0, "fusion_lon": 0.0, "bike_id": "2f3f1fd94d4a5b332bfbc25fc10427e9", "lon": -77.06879816666667, "rental_uris": {"ios": "https://dc.lft.to/lastmile_qr_scan", "android": "https://dc.lft.to/lastmile_qr_scan"}}, {"name": "8f4fa1b6c4f1181005edff0b7b833569", "fusion_lat": 0.0, "type": "electric_scooter", "lat": 38.927867666666664, "is_reserved": 0, "is_disabled": 0, "fusion_lon": 0.0, "bike_id": "8f4fa1b6c4f1181005edff0b7b833569", "lon": -77.0278865, "rental_uris": {"ios": "https://dc.lft.to/lastmile_qr_scan", "android": "https://dc.lft.to/lastmile_qr_scan"}}, {"name": "6ac2436746f3b73a9c253cb252aa8c10", "fusion_lat": 0.0, "type": "electric_scooter", "lat": 38.911285166666666, "is_reserved": 0, "is_disabled": 0, "fusion_lon": 0.0, "bike_id": "6ac2436746f3b73a9c253cb252aa8c10", "lon": -77.04773416666667, "rental_uris": {"ios": "https://dc.lft.to/lastmile_qr_scan", "android": "https://dc.lft.to/lastmile_qr_scan"}}, {"name": "5a85f1c3ac4d99b7e44c2faf041fc222", "fusion_lat": 0.0, "type": "electric_scooter", "lat": 38.92704633333334, "is_reserved": 0, "is_disabled": 0, "fusion_lon": 0.0, "bike_id": "5a85f1c3ac4d99b7e44c2faf041fc222", "lon": -77.0372805, "rental_uris": {"ios": "https://dc.lft.to/lastmile_qr_scan", "android": "https://dc.lft.to/lastmile_qr_scan"}}, {"name": "1be9e18b2adc57489a2034cd1e58ce94", "fusion_lat": 0.0, "type": "electric_scooter", "lat": 38.93612733333333, "is_reserved": 0, "is_disabled": 0, "fusion_lon": 0.0, "bike_id": "1be9e18b2adc57489a2034cd1e58ce94", "lon": -77.05591116666666, "rental_uris": {"ios": "https://dc.lft.to/lastmile_qr_scan", "android": "https://dc.lft.to/lastmile_qr_scan"}},