{"data": {"bikes": [{"is_disabled": 0, "rental_uris": {"android": "https://dc.lft.to/lastmile_qr_scan", "ios": "https://dc.lft.to/lastmile_qr_scan"}, "is_reserved": 0, "name": "5c67f7fcc49087650a76f746b800b36b", "lon": -76.94892266666666, "type": "electric_scooter", "bike_id": "5c67f7fcc49087650a76f746b800b36b", "fusion_lon": 0.0, "lat": 38.89516533333333, "fusion_lat": 0.0}, {"is_disabled": 0, "rental_uris": {"android": "https://dc.lft.to/lastmile_qr_scan", "ios": "https://dc.lft.to/lastmile_qr_scan"}, "is_reserved": 0, "name": "a1c43592d86c0fd44baecdf7188141ed", "lon": -77.02786866666666, "type": "electric_scooter", "bike_id": "a1c43592d86c0fd44baecdf7188141ed", "fusion_lon": 0.0, "lat": 38.96129883333333, "fusion_lat": 0.0}, {"is_disabled": 0, "rental_uris": {"android": "https://dc.lft.to/lastmile_qr_scan", "ios": "https://dc.lft.to/lastmile_qr_scan"}, "is_reserved": 0, "name": "b34cb949f314c0ab839777faed51592c", "lon": -77.02722133333333, "type": "electric_scooter", "bike_id": "b34cb949f314c0ab839777faed51592c", "fusion_lon": 0.0, "lat": 38.91099766666667, "fusion_lat": 0.0}, {"is_disabled": 0, "rental_uris": {"android": "https://dc.lft.to/lastmile_qr_scan", "ios": "https://dc.lft.to/lastmile_qr_scan"}, "is_reserved": 0, "name": "79c3e7c7e6ec2a4e6993ef5124cf91a3", "lon": -77.0020555, "type": "electric_scooter", "bike_id": "79c3e7c7e6ec2a4e6993ef5124cf91a3", "fusion_lon": 0.0, "lat": 38.902407833333335, "fusion_lat": 0.0}, {"is_disabled": 0, "rental_uris": {"android": "https://dc.lft.to/lastmile_qr_scan", "ios": "https://dc.lft.to/lastmile_qr_scan"}, "is_reserved": 0, "name": "290cb07b02265ec44b3f2cde4e170f46", "lon": -77.01228583333334, "type": "electric_scooter", "bike_id": "290cb07b02265ec44b3f2cde4e170f46", "fusion_lon": 0.0, "lat": 38.91496433333333, "fusion_lat": 0.0}, {"is_disabled": 0, "rental_uris": {"android": "https://dc.lft.to/lastmile_qr_scan", "ios": "https://dc.lft.to/lastmile_qr_scan"}, "is_reserved": 0, "name": "84ac8ccc3eb1d7124fa1d7a8b6f9d39e", "lon": -77.0676515, "type": "electric_scooter", "bike_id": "84ac8ccc3eb1d7124fa1d7a8b6f9d39e", "fusion_lon": 0.0, "lat": 38.904983666666666, "fusion_lat": 0.0}, {"is_disabled": 0, "rental_uris": {"android": "https://dc.lft.to/lastmile_qr_scan", "ios": "https://dc.lft.to/lastmile_qr_scan"}, "is_reserved": 0, "name": "61d8faa505558564829ca07d22d452ed", "lon": -77.0329595, "type": "electric_scooter", "bike_id": "61d8faa505558564829ca07d22d452ed", "fusion_lon": 0.0, "lat": 38.908415833333336, "fusion_lat": 0.0}, {"is_disabled": 0, "rental_uris": {"android": "https://dc.lft.to/lastmile_qr_scan", "ios": "https://dc.lft.to/lastmile_qr_scan"}, "is_reserved": 0, "name": "9d2056f5e192609a148fc305d5def18a", "lon": -77.03275383333333, "type": "electric_scooter", "bike_id": "9d2056f5e192609a148fc305d5def18a", "fusion_lon": 0.0, "lat": 38.932639333333334, "fusion_lat": 0.0}, {"is_disabled": 0, "rental_uris": {"android": "https://dc.lft.to/lastmile_qr_scan", "ios": "https://dc.lft.to/lastmile_qr_scan"}, "is_reserved": 0, "name": "9cc7a73f31c798558ad45b421a2b8849", "lon": -77.02853416666666, "type": "electric_scooter", "bike_id": "9cc7a73f31c798558ad45b421a2b8849", "fusion_lon": 0.0, "lat": 38.90228616666667, "fusion_lat": 0.0}, {"is_disabled": 0, "rental_uris": {"android": "https://dc.lft.to/lastmile_qr_scan", "ios": "https://dc.lft.to/lastmile_qr_scan"}, "is_reserved": 0, "name": "37e4bd3ebd7744a327264d0550ecb97e", "lon": -77.03188016666667, "type": "electric_scooter", "bike_id": "37e4bd3ebd7744a327264d0550ecb97e", "fusion_lon": 0.0, "lat": 38.9306865, "fusion_lat": 0.0}, {"is_disabled": 0, "rental_uris": {"android": "https://dc.lft.to/lastmile_qr_scan", "ios": "https://dc.lft.to/lastmile_qr_scan"}, "is_reserved": 0, "name": "7ec96260c49a41373f00bb4ea0c701ee", "lon": -77.04456883333333, "type": "electric_scooter", "bike_id": "7ec96260c49a41373f00bb4ea0c701ee", "fusion_lon": 0.0, "lat": 38.914011333333335, "fusion_lat": 0.0}, {"is_disabled": 0, "rental_uris": {"android": "https://dc.lft.to/lastmile_qr_scan", "ios": "https://dc.lft.to/lastmile_qr_scan"}, "is_reserved": 0, "name": "ec7dfd5ce0a627dd683faf9b45da311a", "lon": -77.022264, "type": "electric_scooter", "bike_id": "ec7dfd5ce0a627dd683faf9b45da311a", "fusion_lon": 0.0, "lat": 38.914140333333336, "fusion_lat": 0.0}, {"is_disabled": 0, "rental_uris": {"android": "https://dc.lft.to/lastmile_qr_scan", "ios": "https://dc.lft.to/lastmile_qr_scan"}, "is_reserved": 0, "name": "21c5c0ffc0ab7def239536479411dfbc", "lon": -77.0072625, "type": "electric_scooter", "bike_id": "21c5c0ffc0ab7def239536479411dfbc", "fusion_lon": 0.0, "lat": 38.905693, "fusion_lat": 0.0}, {"is_disabled": 0, "rental_uris": {"android": "https://dc.lft.to/lastmile_qr_scan", "ios": "https://dc.lft.to/lastmile_qr_scan"}, "is_reserved": 0, "name": "b331a9ce245ab02a3e17140da8e0f8d5", "lon": -77.01989216666666, "type": "electric_scooter", "bike_id": "b331a9ce245ab02a3e17140da8e0f8d5", "fusion_lon": 0.0, "lat": 38.89511733333333, "fusion_lat": 0.0}, {"is_disabled": 0, "rental_uris": {"android": "https://dc.lft.to/lastmile_qr_scan", "ios": "https://dc.lft.to/lastmile_qr_scan"}, "is_reserved": 0, "name": "1d86d4c9a3992999d7ce38ddf5587c3b", "lon": -76.99901366666667, "type": "electric_scooter", "bike_id": "1d86d4c9a3992999d7ce38ddf5587c3b", "fusion_lon": 0.0, "lat": 38.92453483333333, "fusion_lat": 0.0}, {"is_disabled": 0, "rental_uris": {"android": "https://dc.lft.to/lastmile_qr_scan", "ios": "https://dc.lft.to/lastmile_qr_scan"}, "is_reserved": 0, "name": "651c4d9dfc002da90e376e83408f60c8", "lon": -76.9794885, "type": "electric_scooter", "bike_id": "651c4d9dfc002da90e376e83408f60c8", "fusion_lon": 0.0, "lat": 38.905009666666665, "fusion_lat": 0.0}, {"is_disabled": 0, "rental_uris": {"android": "https://dc.lft.to/lastmile_qr_scan", "ios": "https://dc.lft.to/lastmile_qr_scan"}, "is_reserved": 0, "name": "2b490e69e101ec6d125bc8e637d54854", "lon": -77.04008616666667, "type": "electric_scooter", "bike_id": "2b490e69e101ec6d125bc8e637d54854", "fusion_lon": 0.0, "lat": 38.920938166666666, "fusion_lat": 0.0}, {"is_disabled": 0, "rental_uris": {"android": "https://dc.lft.to/lastmile_qr_scan", "ios": "https://dc.lft.to/lastmile_qr_scan"}, "is_reserved": 0, "name": "5f31b99045811880acbe738e7a4a63ff", "lon": -77.02009366666667, "type": "electric_scooter", "bike_id": "5f31b99045811880acbe738e7a4a63ff", "fusion_lon": 0.0, "lat": 38.9241505, "fusion_lat": 0.0}, {"is_disabled": 0, "rental_uris": {"android": "https://dc.lft.to/lastmile_qr_scan", "ios": "https://dc.lft.to/lastmile_qr_scan"}, "is_reserved": 0, "name": "563658f6de33c97f9def6bed62510c04", "lon": -77.034728, "type": "electric_scooter", "bike_id": "563658f6de33c97f9def6bed62510c04", "fusion_lon": 0.0, "lat": 38.90747983333333, "fusion_lat": 0.0}, {"is_disabled": 0, "rental_uris": {"android": "https://dc.lft.to/lastmile_qr_scan", "ios": "https://dc.lft.to/lastmile_qr_scan"}, "is_reserved": 0, "name": "d837717c7bfeb274162cc29725bd7249", "lon": -77.04532033333334, "type": "electric_scooter", "bike_id": "d837717c7bfeb274162cc29725bd7249", "fusion_lon": 0.0, "lat": 38.903984333333334, "fusion_lat": 0.0}, {"is_disabled": 0, "rental_uris": {"android": "https://dc.lft.to/lastmile_qr_scan", "ios": "https://dc.lft.to/lastmile_qr_scan"}, "is_reserved": 0, "name": "a436a341f262605571c6725516497acd", "lon": -77.039393, "type": "electric_scooter", "bike_id": "a436a341f262605571c6725516497acd", "fusion_lon": 0.0, "lat": 38.897794, "fusion_lat": 0.0}, {"is_disabled": 0, "rental_uris": {"android": "https://dc.lft.to/lastmile_qr_scan", "ios": "https://dc.lft.to/lastmile_qr_scan"}, "is_reserved": 0, "name": "e566280732e7897f907c63b2d76f836d", "lon": -77.02524066666666, "type": "electric_scooter", "bike_id": "e566280732e7897f907c63b2d76f836d", "fusion_lon": 0.0, "lat": 38.921384, "fusion_lat": 0.0}, {"is_disabled": 0, "rental_uris": {"android": "https://dc.lft.to/lastmile_qr_scan", "ios": "https://dc.lft.to/lastmile_qr_scan"}, "is_reserved": 0, "name": "99b60ccba2199fecf9aa16832e4732f4", "lon": -77.01618033333334, "type": "electric_scooter", "bike_id": "99b60ccba2199fecf9aa16832e4732f4", "fusion_lon": 0.0, "lat": 38.90372433333334, "fusion_lat": 0.0}, {"is_disabled": 0, "rental_uris": {"android": "https://dc.lft.to/lastmile_qr_scan", "ios": "https://dc.lft.to/lastmile_qr_scan"}, "is_reserved": 0, "name": "b9ee9c362d3ddf42bd6c00c229cdde98", "lon": -77.0284855, "type": "electric_scooter", "bike_id": "b9ee9c362d3ddf42bd6c00c229cdde98", "fusion_lon": 0.0, "lat": 38.93299566666666, "fusion_lat": 0.0}, {"is_disabled": 0, "rental_uris": {"android": "https://dc.lft.to/lastmile_qr_scan", "ios": "https://dc.lft.to/lastmile_qr_scan"}, "is_reserved": 0, "name": "87284095f7e8d881cfd363703405107f", "lon": -77.0509185, "type": "electric_scooter", "bike_id": "87284095f7e8d881cfd363703405107f", "fusion_lon": 0.0, "lat": 38.90526283333333, "fusion_lat": 0.0}, {"is_disabled": 0, "rental_uris": {"android": "https://dc.lft.to/lastmile_qr_scan", "ios": "https://dc.lft.to/lastmile_qr_scan"}, "is_reserved": 0, "name": "692553d0108cd0d55c525b68182f587e", "lon": -76.980697, "type": "electric_scooter", "bike_id": "692553d0108cd0d55c525b68182f587e", "fusion_lon": 0.0, "lat": 38.91671783333334, "fusion_lat": 0.0}, {"is_disabled": 0, "rental_uris": {"android": "https://dc.lft.to/lastmile_qr_scan", "ios": "https://dc.lft.to/lastmile_qr_scan"}, "is_reserved": 0, "name": "c1faf9419b7995000033f7211d5a2e0b", "lon": -77.017599, "type": "electric_scooter", "bike_id": "c1faf9419b7995000033f7211d5a2e0b", "fusion_lon": 0.0, "lat": 38.902709, "fusion_lat": 0.0}, {"is_disabled": 0, "rental_uris": {"android": "https://dc.lft.to/lastmile_qr_scan", "ios": "https://dc.lft.to/lastmile_qr_scan"}, "is_reserved": 0, "name": "d23b1f44a350543a0313151d96cf889e", "lon": -77.0335135, "type": "electric_scooter", "bike_id": "d23b1f44a350543a0313151d96cf889e", "fusion_lon": 0.0, "lat": 38.9223565, "fusion_lat": 0.0}, {"is_disabled": 0, "rental_uris": {"android": "https://dc.lft.to/lastmile_qr_scan", "ios": "https://dc.lft.to/lastmile_qr_scan"}, "is_reserved": 0, "name": "c82f22303b7e685230fa7e29cda379e6", "lon": -77.0384785, "type": "electric_scooter", "bike_id": "c82f22303b7e685230fa7e29cda379e6", "fusion_lon": 0.0, "lat": 38.903800833333335, "fusion_lat": 0.0}, {"is_disabled": 0, "rental_uris": {"android": "https://dc.lft.to/lastmile_qr_scan", "ios": "https://dc.lft.to/lastmile_qr_scan"}, "is_reserved": 0, "name": "c7f906416fa9510ddc3973d44b80139e", "lon": -77.012917, "type": "electric_scooter", "bike_id": "c7f906416fa9510ddc3973d44b80139e", "fusion_lon": 0.0, "lat": 38.90068, "fusion_lat": 0.0}, {"is_disabled": 0, "rental_uris": {"android": "https://dc.lft.to/lastmile_qr_scan", "ios": "https://dc.lft.to/lastmile_qr_scan"}, "is_reserved": 0, "name": "7698a2df23778355e6e6b83bc072a7b5", "lon": -76.988275, "type": "electric_bike", "bike_id": "7698a2df23778355e6e6b83bc072a7b5", "fusion_lon": 0.0, "lat": 38.985643333333336, "fusion_lat": 0.0}, {"is_disabled": 0, "rental_uris": {"android": "https://dc.lft.to/lastmile_qr_scan", "ios": "https://dc.lft.to/lastmile_qr_scan"}, "is_reserved": 0, "name": "6fc5c96aa61fcf7f2d3f5f9ffd223698", "lon": -77.016954, "type": "electric_scooter", "bike_id": "6fc5c96aa61fcf7f2d3f5f9ffd223698", "fusion_lon": 0.0, "lat": 38.97493, "fusion_lat": 0.0}, {"is_disabled": 0, "rental_uris": {"android": "https://dc.lft.to/lastmile_qr_scan", "ios": "https://dc.lft.to/lastmile_qr_scan"}, "is_reserved": 0, "name": "9ff27645e1aff8ea8e958233ac9a963d", "lon": -77.03441133333334, "type": "electric_scooter", "bike_id": "9ff27645e1aff8ea8e958233ac9a963d", "fusion_lon": 0.0, "lat": 38.90569766666667, "fusion_lat": 0.0}, {"is_disabled": 0, "rental_uris": {"android": "https://dc.lft.to/lastmile_qr_scan", "ios": "https://dc.lft.to/lastmile_qr_scan"}, "is_reserved": 0, "name": "ab320c74f28be00d63607dbf7c1f1b2b", "lon": -76.98779866666666, "type": "electric_scooter", "bike_id": "ab320c74f28be00d63607dbf7c1f1b2b", "fusion_lon": 0.0, "lat": 38.84470783333333, "fusion_lat": 0.0}, {"is_disabled": 0, "rental_uris": {"android": "https://dc.lft.to/lastmile_qr_scan", "ios": "https://dc.lft.to/lastmile_qr_scan"}, "is_reserved": 0, "name": "f20de0558a7a07ad0f80fdf0f4ab4577", "lon": -77.03039683333333, "type": "electric_scooter", "bike_id": "f20de0558a7a07ad0f80fdf0f4ab4577", "fusion_lon": 0.0, "lat": 38.9311365, "fusion_lat": 0.0}, {"is_disabled": 0, "rental_uris": {"android": "https://dc.lft.to/lastmile_qr_scan", "ios": "https://dc.lft.to/lastmile_qr_scan"}, "is_reserved": 0, "name": "e5f463379b1806b4b11b5675d90c76b7", "lon": -77.02748233333334, "type": "electric_scooter", "bike_id": "e5f463379b1806b4b11b5675d90c76b7", "fusion_lon": 0.0, "lat": 38.943107, "fusion_lat": 0.0}, {"is_disabled": 0, "rental_uris": {"android": "https://dc.lft.to/lastmile_qr_scan", "ios": "https://dc.lft.to/lastmile_qr_scan"}, "is_reserved": 0, "name": "5cfa6c8d7851c9440d1f178e36449874", "lon": -77.04698216666667, "type": "electric_scooter", "bike_id": "5cfa6c8d7851c9440d1f178e36449874", "fusion_lon": 0.0, "lat": 38.897387, "fusion_lat": 0.0}, {"is_disabled": 0, "rental_uris": {"android": "https://dc.lft.to/lastmile_qr_scan", "ios": "https://dc.lft.to/lastmile_qr_scan"}, "is_reserved": 0, "name": "cbff82f1e49f5c1dd0b76d76ce52602f", "lon": -77.07277433333333, "type": "electric_scooter", "bike_id": "cbff82f1e49f5c1dd0b76d76ce52602f", "fusion_lon": 0.0, "lat": 38.934737, "fusion_lat": 0.0}, {"is_disabled": 0, "rental_uris": {"android": "https://dc.lft.to/lastmile_qr_scan", "ios": "https://dc.lft.to/lastmile_qr_scan"}, "is_reserved": 0, "name": "83df2b89745cd9f51db1dc84141c8b87", "lon": -77.04620333333334, "type": "electric_scooter", "bike_id": "83df2b89745cd9f51db1dc84141c8b87", "fusion_lon": 0.0, "lat": 38.92314666666667, "fusion_lat": 0.0}, {"is_disabled": 0, "rental_uris": {"android": "https://dc.lft.to/lastmile_qr_scan", "ios": "https://dc.lft.to/lastmile_qr_scan"}, "is_reserved": 0, "name": "1f1581bd8718bb174d002e892192fab4", "lon": -77.10647866666666, "type": "electric_bike", "bike_id": "1f1581bd8718bb174d002e892192fab4", "fusion_lon": 0.0, "lat": 39.030015, "fusion_lat": 0.0}, {"is_disabled": 0, "rental_uris": {"android": "https://dc.lft.to/lastmile_qr_scan", "ios": "https://dc.lft.to/lastmile_qr_scan"}, "is_reserved": 0, "name": "e59ae33c3d3e036b48ef4253959e407d", "lon": -77.03666316666667, "type": "electric_scooter", "bike_id": "e59ae33c3d3e036b48ef4253959e407d", "fusion_lon": 0.0, "lat": 38.9125165, "fusion_lat": 0.0}, {"is_disabled": 0, "rental_uris": {"android": "https://dc.lft.to/lastmile_qr_scan", "ios": "https://dc.lft.to/lastmile_qr_scan"}, "is_reserved": 0, "name": "7c2efebeadbe774ff4f304de8af0e496", "lon": -77.0272855, "type": "electric_scooter", "bike_id": "7c2efebeadbe774ff4f304de8af0e496", "fusion_lon": 0.0, "lat": 38.90851033333333, "fusion_lat": 0.0}, {"is_disabled": 0, "rental_uris": {"android": "https://dc.lft.to/lastmile_qr_scan", "ios": "https://dc.lft.to/lastmile_qr_scan"}, "is_reserved": 0, "name": "c1eebbf3497f26b1f73186b46780d863", "lon": -77.02721883333334, "type": "electric_scooter", "bike_id": "c1eebbf3497f26b1f73186b46780d863", "fusion_lon": 0.0, "lat": 38.94087533333333, "fusion_lat": 0.0}, {"is_disabled": 0, "rental_uris": {"android": "https://dc.lft.to/lastmile_qr_scan", "ios": "https://dc.lft.to/lastmile_qr_scan"}, "is_reserved": 0, "name": "1da1c82ab601940678954dff73a24f9c", "lon": -76.93783916666666, "type": "electric_scooter", "bike_id": "1da1c82ab601940678954dff73a24f9c", "fusion_lon": 0.0, "lat": 38.89967933333333, "fusion_lat": 0.0}, {"is_disabled": 0, "rental_uris": {"android": "https://dc.lft.to/lastmile_qr_scan", "ios": "https://dc.lft.to/lastmile_qr_scan"}, "is_reserved": 0, "name": "cd7d1852731074d3c1b0c881c6bb4b8b", "lon": -77.03165516666667, "type": "electric_scooter", "bike_id": "cd7d1852731074d3c1b0c881c6bb4b8b", "fusion_lon": 0.0, "lat": 38.927943166666665, "fusion_lat": 0.0}, {"is_disabled": 0, "rental_uris": {"android": "https://dc.lft.to/lastmile_qr_scan", "ios": "https://dc.lft.to/lastmile_qr_scan"}, "is_reserved": 0, "name": "800d8c15d9652faaef865da1e3a9ed96", "lon": -77.02774233333334, "type": "electric_scooter", "bike_id": "800d8c15d9652faaef865da1e3a9ed96", "fusion_lon": 0.0, "lat": 38.9269255, "fusion_lat": 0.0}, {"is_disabled": 0, "rental_uris": {"android": "https://dc.lft.to/lastmile_qr_scan", "ios": "https://dc.lft.to/lastmile_qr_scan"}, "is_reserved": 0, "name": "a74905ea2ebd327f8a4044aac1476021", "lon": -77.04377916666667, "type": "electric_scooter", "bike_id": "a74905ea2ebd327f8a4044aac1476021", "fusion_lon": 0.0, "lat": 38.921298666666665, "fusion_lat": 0.0}, {"is_disabled": 0, "rental_uris": {"android": "https://dc.lft.to/lastmile_qr_scan", "ios": "https://dc.lft.to/lastmile_qr_scan"}, "is_reserved": 0, "name": "f293b05e686c2c2746cb92887f17d678", "lon": -77.038538, "type": "electric_scooter", "bike_id": "f293b05e686c2c2746cb92887f17d678", "fusion_lon": 0.0, "lat": 38.90677733333333, "fusion_lat": 0.0}, {"is_disabled": 0, "rental_uris": {"android": "https://dc.lft.to/lastmile_qr_scan", "ios": "https://dc.lft.to/lastmile_qr_scan"}, "is_reserved": 0, "name": "16c6881b13c0fc66d52dc663dcb42d1f", "lon": -77.05942383333333, "type": "electric_scooter", "bike_id": "16c6881b13c0fc66d52dc663dcb42d1f", "fusion_lon": 0.0, "lat": 38.93677016666667, "fusion_lat": 0.0}, {"is_disabled": 0, "rental_uris": {"android": "https://dc.lft.to/lastmile_qr_scan", "ios": "https://dc.lft.to/lastmile_qr_scan"}, "is_reserved": 0, "name": "2678ccb521c366aee3071b16360cdfa3", "lon": -77.00918366666667, "type": "electric_scooter", "bike_id": "2678ccb521c366aee3071b16360cdfa3", "fusion_lon": 0.0, "lat": 38.95951133333333, "fusion_lat": 0.0}, {"is_disabled": 0, "rental_uris": {"android": "https://dc.lft.to/lastmile_qr_scan", "ios": "https://dc.lft.to/lastmile_qr_scan"}, "is_reserved": 0, "name": "7254935d2cde415ac8a7dfbab3ad7cf1", "lon": -77.02106016666667, "type": "electric_bike", "bike_id": "7254935d2cde415ac8a7dfbab3ad7cf1", "fusion_lon": 0.0, "lat": 39.02302266666667, "fusion_lat": 0.0}, {"is_disabled": 0, "rental_uris": {"android": "https://dc.lft.to/lastmile_qr_scan", "ios": "https://dc.lft.to/lastmile_qr_scan"}, "is_reserved": 0, "name": "e8dc73dfac70d7747abec1ca3f8de375", "lon": -77.03857383333333, "type": "electric_scooter", "bike_id": "e8dc73dfac70d7747abec1ca3f8de375", "fusion_lon": 0.0, "lat": 38.91717716666667, "fusion_lat": 0.0}, {"is_disabled": 0, "rental_uris": {"android": "https://dc.lft.to/lastmile_qr_scan", "ios": "https://dc.lft.to/lastmile_qr_scan"}, "is_reserved": 0, "name": "f8acff37de82af29916f578b376c72ea", "lon": -77.12901883333333, "type": "electric_bike", "bike_id": "f8acff37de82af29916f578b376c72ea", "fusion_lon": 0.0, "lat": 38.86378, "fusion_lat": 0.0}, {"is_disabled": 0, "rental_uris": {"android": "https://dc.lft.to/lastmile_qr_scan", "ios": "https://dc.lft.to/lastmile_qr_scan"}, "is_reserved": 0, "name": "da890e115c4a68d102007645f73efa0f", "lon": -77.072687, "type": "electric_scooter", "bike_id": "da890e115c4a68d102007645f73efa0f", "fusion_lon": 0.0, "lat": 38.90674383333333, "fusion_lat": 0.0}, {"is_disabled": 0, "rental_uris": {"android": "https://dc.lft.to/lastmile_qr_scan", "ios": "https://dc.lft.to/lastmile_qr_scan"}, "is_reserved": 0, "name": "17a91c1b088d1b554911286efdee60c6", "lon": -77.03790733333334, "type": "electric_scooter", "bike_id": "17a91c1b088d1b554911286efdee60c6", "fusion_lon": 0.0, "lat": 38.93022333333333, "fusion_lat": 0.0}, {"is_disabled": 0, "rental_uris": {"android": "https://dc.lft.to/lastmile_qr_scan", "ios": "https://dc.lft.to/lastmile_qr_scan"}, "is_reserved": 0, "name": "a26e82ea2e8a22dd4c9716c3ada34b3a", "lon": -77.03215, "type": "electric_scooter", "bike_id": "a26e82ea2e8a22dd4c9716c3ada34b3a", "fusion_lon": 0.0, "lat": 38.925821, "fusion_lat": 0.0}, {"is_disabled": 0, "rental_uris": {"android": "https://dc.lft.to/lastmile_qr_scan", "ios": "https://dc.lft.to/lastmile_qr_scan"}, "is_reserved": 0, "name": "8b3820b35e2927b1cbbaac73052f11d7", "lon": -77.02194783333333, "type": "electric_scooter", "bike_id": "8b3820b35e2927b1cbbaac73052f11d7", "fusion_lon": 0.0, "lat": 38.905135, "fusion_lat": 0.0}, {"is_disabled": 0, "rental_uris": {"android": "https://dc.lft.to/lastmile_qr_scan", "ios": "https://dc.lft.to/lastmile_qr_scan"}, "is_reserved": 0, "name": "09d1f34060e5c15039a0d4a4b3c969cc", "lon": -76.98769966666667, "type": "electric_scooter", "bike_id": "09d1f34060e5c15039a0d4a4b3c969cc", "fusion_lon": 0.0, "lat": 38.844517, "fusion_lat": 0.0}, {"is_disabled": 0, "rental_uris": {"android": "https://dc.lft.to/lastmile_qr_scan", "ios": "https://dc.lft.to/lastmile_qr_scan"}, "is_reserved": 0, "name": "63bd8abe1e153b288648aad1c7cf62fd", "lon": -77.02918183333334, "type": "electric_scooter", "bike_id": "63bd8abe1e153b288648aad1c7cf62fd", "fusion_lon": 0.0, "lat": 38.924823333333336, "fusion_lat": 0.0}, {"is_disabled": 0, "rental_uris": {"android": "https://dc.lft.to/lastmile_qr_scan", "ios": "https://dc.lft.to/lastmile_qr_scan"}, "is_reserved": 0, "name": "4d2a7bc0570105647dc7af45c60b5e35", "lon": -77.02954866666667, "type": "electric_scooter", "bike_id": "4d2a7bc0570105647dc7af45c60b5e35", "fusion_lon": 0.0, "lat": 38.899902166666664, "fusion_lat": 0.0}, {"is_disabled": 0, "rental_uris": {"android": "https://dc.lft.to/lastmile_qr_scan", "ios": "https://dc.lft.to/lastmile_qr_scan"}, "is_reserved": 0, "name": "76a5342133707531e07ad4124140a393", "lon": -77.0419785, "type": "electric_scooter", "bike_id": "76a5342133707531e07ad4124140a393", "fusion_lon": 0.0, "lat": 38.91664333333333, "fusion_lat": 0.0}, {"is_disabled": 0, "rental_uris": {"android": "https://dc.lft.to/lastmile_qr_scan", "ios": "https://dc.lft.to/lastmile_qr_scan"}, "is_reserved": 0, "name": "e9787aba72288966c3862fe40f4b55bb", "lon": -76.9846585, "type": "electric_scooter", "bike_id": "e9787aba72288966c3862fe40f4b55bb", "fusion_lon": 0.0, "lat": 38.8936535, "fusion_lat": 0.0}, {"is_disabled": 0, "rental_uris": {"android": "https://dc.lft.to/lastmile_qr_scan", "ios": "https://dc.lft.to/lastmile_qr_scan"}, "is_reserved": 0, "name": "7ba9c58ce068d3ccbf7cac135e86be51", "lon": -77.03473716666667, "type": "electric_scooter", "bike_id": "7ba9c58ce068d3ccbf7cac135e86be51", "fusion_lon": 0.0, "lat": 38.91108283333333, "fusion_lat": 0.0}, {"is_disabled": 0, "rental_uris": {"android": "https://dc.lft.to/lastmile_qr_scan", "ios": "https://dc.lft.to/lastmile_qr_scan"}, "is_reserved": 0, "name": "34ce0f826261bbce13b4cad20a5cbaf3", "lon": -77.03692866666667, "type": "electric_scooter", "bike_id": "34ce0f826261bbce13b4cad20a5cbaf3", "fusion_lon": 0.0, "lat": 38.9363545, "fusion_lat": 0.0}, {"is_disabled": 0, "rental_uris": {"android": "https://dc.lft.to/lastmile_qr_scan", "ios": "https://dc.lft.to/lastmile_qr_scan"}, "is_reserved": 0, "name": "6137f5cbef36f1455603f98a56a2932a", "lon": -77.03252783333333, "type": "electric_scooter", "bike_id": "6137f5cbef36f1455603f98a56a2932a", "fusion_lon": 0.0, "lat": 38.909777166666665, "fusion_lat": 0.0}, {"is_disabled": 0, "rental_uris": {"android": "https://dc.lft.to/lastmile_qr_scan", "ios": "https://dc.lft.to/lastmile_qr_scan"}, "is_reserved": 0, "name": "30c65fa0118f2594bd4bda55e861c64a", "lon": -77.0120475, "type": "electric_scooter", "bike_id": "30c65fa0118f2594bd4bda55e861c64a", "fusion_lon": 0.0, "lat": 38.9274605, "fusion_lat": 0.0}, {"is_disabled": 0, "rental_uris": {"android": "https://dc.lft.to/lastmile_qr_scan", "ios": "https://dc.lft.to/lastmile_qr_scan"}, "is_reserved": 0, "name": "fa18c04ea118523d1d368bbe1bbfb99f", "lon": -77.029172, "type": "electric_scooter", "bike_id": "fa18c04ea118523d1d368bbe1bbfb99f", "fusion_lon": 0.0, "lat": 38.9396945, "fusion_lat": 0.0}, {"is_disabled": 0, "rental_uris": {"android": "https://dc.lft.to/lastmile_qr_scan", "ios": "https://dc.lft.to/lastmile_qr_scan"}, "is_reserved": 0, "name": "df61d337e88b838294f9e75e5ece1e73", "lon": -77.05789266666666, "type": "electric_scooter", "bike_id": "df61d337e88b838294f9e75e5ece1e73", "fusion_lon": 0.0, "lat": 38.90508483333333, "fusion_lat": 0.0}, {"is_disabled": 0, "rental_uris": {"android": "https://dc.lft.to/lastmile_qr_scan", "ios": "https://dc.lft.to/lastmile_qr_scan"}, "is_reserved": 0, "name": "88f08243e5c73ea22ec0cde3e6ebfecb", "lon": -76.9355805, "type": "electric_scooter", "bike_id": "88f08243e5c73ea22ec0cde3e6ebfecb", "fusion_lon": 0.0, "lat": 38.90157416666667, "fusion_lat": 0.0}, {"is_disabled": 0, "rental_uris": {"android": "https://dc.lft.to/lastmile_qr_scan", "ios": "https://dc.lft.to/lastmile_qr_scan"}, "is_reserved": 0, "name": "f257e2ccb69d042aba41b4600f05722e", "lon": -76.9855075, "type": "electric_scooter", "bike_id": "f257e2ccb69d042aba41b4600f05722e", "fusion_lon": 0.0, "lat": 38.904197333333336, "fusion_lat": 0.0}, {"is_disabled": 0, "rental_uris": {"android": "https://dc.lft.to/lastmile_qr_scan", "ios": "https://dc.lft.to/lastmile_qr_scan"}, "is_reserved": 0, "name": "2578b4011250f5846d5f67fa9fb01d88", "lon": -77.0545735, "type": "electric_scooter", "bike_id": "2578b4011250f5846d5f67fa9fb01d88", "fusion_lon": 0.0, "lat": 38.928989, "fusion_lat": 0.0}, {"is_disabled": 0, "rental_uris": {"android": "https://dc.lft.to/lastmile_qr_scan", "ios": "https://dc.lft.to/lastmile_qr_scan"}, "is_reserved": 0, "name": "401ebbc8fde0847d70037ad83d15157a", "lon": -76.951972, "type": "electric_bike", "bike_id": "401ebbc8fde0847d70037ad83d15157a", "fusion_lon": 0.0, "lat": 38.906832666666666, "fusion_lat": 0.0}, {"is_disabled": 0, "rental_uris": {"android": "https://dc.lft.to/lastmile_qr_scan", "ios": "https://dc.lft.to/lastmile_qr_scan"}, "is_reserved": 0, "name": "566816a91c551634bbd5fa35295456a1", "lon": -77.03216533333334, "type": "electric_scooter", "bike_id": "566816a91c551634bbd5fa35295456a1", "fusion_lon": 0.0, "lat": 38.92580683333333, "fusion_lat": 0.0}, {"is_disabled": 0, "rental_uris": {"android": "https://dc.lft.to/lastmile_qr_scan", "ios": "https://dc.lft.to/lastmile_qr_scan"}, "is_reserved": 0, "name": "ee86cc36721e094f4412cc1b6c661df0", "lon": -76.97234533333334, "type": "electric_scooter", "bike_id": "ee86cc36721e094f4412cc1b6c661df0", "fusion_lon": 0.0, "lat": 38.8546005, "fusion_lat": 0.0}, {"is_disabled": 0, "rental_uris": {"android": "https://dc.lft.to/lastmile_qr_scan", "ios": "https://dc.lft.to/lastmile_qr_scan"}, "is_reserved": 0, "name": "81f457920502315f4688f182f83c6614", "lon": -77.0093145, "type": "electric_scooter", "bike_id": "81f457920502315f4688f182f83c6614", "fusion_lon": 0.0, "lat": 38.87117966666667, "fusion_lat": 0.0}, {"is_disabled": 0, "rental_uris": {"android": "https://dc.lft.to/lastmile_qr_scan", "ios": "https://dc.lft.to/lastmile_qr_scan"}, "is_reserved": 0, "name": "0d6028b98da6d809095155d2d989e04e", "lon": -77.00928033333334, "type": "electric_scooter", "bike_id": "0d6028b98da6d809095155d2d989e04e", "fusion_lon": 0.0, "lat": 38.89838983333333, "fusion_lat": 0.0}, {"is_disabled": 0, "rental_uris": {"android": "https://dc.lft.to/lastmile_qr_scan", "ios": "https://dc.lft.to/lastmile_qr_scan"}, "is_reserved": 0, "name": "4c1e9e91b9a7e0cb1c90f8b0155518b3", "lon": -77.01141183333333, "type": "electric_scooter", "bike_id": "4c1e9e91b9a7e0cb1c90f8b0155518b3", "fusion_lon": 0.0, "lat": 38.90964866666667, "fusion_lat": 0.0}, {"is_disabled": 0, "rental_uris": {"android": "https://dc.lft.to/lastmile_qr_scan", "ios": "https://dc.lft.to/lastmile_qr_scan"}, "is_reserved": 0, "name": "c0d9e3fafcd64ba39fd68e9756ab57af", "lon": -76.98078066666666, "type": "electric_scooter", "bike_id": "c0d9e3fafcd64ba39fd68e9756ab57af", "fusion_lon": 0.0, "lat": 38.901713, "fusion_lat": 0.0}, {"is_disabled": 0, "rental_uris": {"android": "https://dc.lft.to/lastmile_qr_scan", "ios": "https://dc.lft.to/lastmile_qr_scan"}, "is_reserved": 0, "name": "0833d350bbbaf7e1cabd0890a4521758", "lon": -77.0437565, "type": "electric_scooter", "bike_id": "0833d350bbbaf7e1cabd0890a4521758", "fusion_lon": 0.0, "lat": 38.925738333333335, "fusion_lat": 0.0}, {"is_disabled": 0, "rental_uris": {"android": "https://dc.lft.to/lastmile_qr_scan", "ios": "https://dc.lft.to/lastmile_qr_scan"}, "is_reserved": 0, "name": "f15d8a749be57ecebb79dc5384901d31", "lon": -77.02376316666667, "type": "electric_scooter", "bike_id": "f15d8a749be57ecebb79dc5384901d31", "fusion_lon": 0.0, "lat": 38.902078833333334, "fusion_lat": 0.0}, {"is_disabled": 0, "rental_uris": {"android": "https://dc.lft.to/lastmile_qr_scan", "ios": "https://dc.lft.to/lastmile_qr_scan"}, "is_reserved": 0, "name": "dcd785f58fa33518b8ad2896e54cec8d", "lon": -77.11444366666667, "type": "electric_bike", "bike_id": "dcd785f58fa33518b8ad2896e54cec8d", "fusion_lon": 0.0, "lat": 38.879462333333336, "fusion_lat": 0.0}, {"is_disabled": 0, "rental_uris": {"android": "https://dc.lft.to/lastmile_qr_scan", "ios": "https://dc.lft.to/lastmile_qr_scan"}, "is_reserved": 0, "name": "7cc5c032789388d167d2586c69e83462", "lon": -76.989555, "type": "electric_scooter", "bike_id": "7cc5c032789388d167d2586c69e83462", "fusion_lon": 0.0, "lat": 38.84403966666667, "fusion_lat": 0.0}, {"is_disabled": 0, "rental_uris": {"android": "https://dc.lft.to/lastmile_qr_scan", "ios": "https://dc.lft.to/lastmile_qr_scan"}, "is_reserved": 0, "name": "03e56627596198a020e8f58d5c2de26b", "lon": -77.01747566666667, "type": "electric_scooter", "bike_id": "03e56627596198a020e8f58d5c2de26b", "fusion_lon": 0.0, "lat": 38.87717683333333, "fusion_lat": 0.0}, {"is_disabled": 0, "rental_uris": {"android": "https://dc.lft.to/lastmile_qr_scan", "ios": "https://dc.lft.to/lastmile_qr_scan"}, "is_reserved": 0, "name": "fba773d3635848b9b1417343b1259e6c", "lon": -77.0326405, "type": "electric_scooter", "bike_id": "fba773d3635848b9b1417343b1259e6c", "fusion_lon": 0.0, "lat": 38.935237, "fusion_lat": 0.0}, {"is_disabled": 0, "rental_uris": {"android": "https://dc.lft.to/lastmile_qr_scan", "ios": "https://dc.lft.to/lastmile_qr_scan"}, "is_reserved": 0, "name": "ebe4f0cccd0ab2ca8e4b432dca820836", "lon": -77.04153983333333, "type": "electric_scooter", "bike_id": "ebe4f0cccd0ab2ca8e4b432dca820836", "fusion_lon": 0.0, "lat": 38.91182383333334, "fusion_lat": 0.0}, {"is_disabled": 0, "rental_uris": {"android": "https://dc.lft.to/lastmile_qr_scan", "ios": "https://dc.lft.to/lastmile_qr_scan"}, "is_reserved": 0, "name": "6732ab32b252d856b5b38394ff5eac73", "lon": -77.021969, "type": "electric_scooter", "bike_id": "6732ab32b252d856b5b38394ff5eac73", "fusion_lon": 0.0, "lat": 38.92103, "fusion_lat": 0.0}, {"is_disabled": 0, "rental_uris": {"android": "https://dc.lft.to/lastmile_qr_scan", "ios": "https://dc.lft.to/lastmile_qr_scan"}, "is_reserved": 0, "name": "afbf4088af342e501fa5e93750a4c092", "lon": -77.09104083333334, "type": "electric_scooter", "bike_id": "afbf4088af342e501fa5e93750a4c092", "fusion_lon": 0.0, "lat": 38.95643883333334, "fusion_lat": 0.0}, {"is_disabled": 0, "rental_uris": {"android": "https://dc.lft.to/lastmile_qr_scan", "ios": "https://dc.lft.to/lastmile_qr_scan"}, "is_reserved": 0, "name": "fd33c94a13ac6a80ef84f165570d3a64", "lon": -77.04175516666666, "type": "electric_scooter", "bike_id": "fd33c94a13ac6a80ef84f165570d3a64", "fusion_lon": 0.0, "lat": 38.915537, "fusion_lat": 0.0}, {"is_disabled": 0, "rental_uris": {"android": "https://dc.lft.to/lastmile_qr_scan", "ios": "https://dc.lft.to/lastmile_qr_scan"}, "is_reserved": 0, "name": "a6cd4e7fb724d1eecea4f66ca91bc2fd", "lon": -76.99535633333333, "type": "electric_scooter", "bike_id": "a6cd4e7fb724d1eecea4f66ca91bc2fd", "fusion_lon": 0.0, "lat": 38.862558, "fusion_lat": 0.0}, {"is_disabled": 0, "rental_uris": {"android": "https://dc.lft.to/lastmile_qr_scan", "ios": "https://dc.lft.to/lastmile_qr_scan"}, "is_reserved": 0, "name": "2969984261f01c5d24dd2c0002e316c3", "lon": -77.0222245, "type": "electric_scooter", "bike_id": "2969984261f01c5d24dd2c0002e316c3", "fusion_lon": 0.0, "lat": 38.9126795, "fusion_lat": 0.0}, {"is_disabled": 0, "rental_uris": {"android": "https://dc.lft.to/lastmile_qr_scan", "ios": "https://dc.lft.to/lastmile_qr_scan"}, "is_reserved": 0, "name": "4e2f2f9712d338624fe1fc18ff570c9a", "lon": -77.04005733333334, "type": "electric_scooter", "bike_id": "4e2f2f9712d338624fe1fc18ff570c9a", "fusion_lon": 0.0, "lat": 38.9071525, "fusion_lat": 0.0}, {"is_disabled": 0, "rental_uris": {"android": "https://dc.lft.to/lastmile_qr_scan", "ios": "https://dc.lft.to/lastmile_qr_scan"}, "is_reserved": 0, "name": "f36e0853f4f0dce8ee3147e0aeeb76e7", "lon": -77.03001883333333, "type": "electric_scooter", "bike_id": "f36e0853f4f0dce8ee3147e0aeeb76e7", "fusion_lon": 0.0, "lat": 38.9248405, "fusion_lat": 0.0}, {"is_disabled": 0, "rental_uris": {"android": "https://dc.lft.to/lastmile_qr_scan", "ios": "https://dc.lft.to/lastmile_qr_scan"}, "is_reserved": 0, "name": "1d331f387ef726528330b1572beb5d94", "lon": -77.01753733333334, "type": "electric_scooter", "bike_id": "1d331f387ef726528330b1572beb5d94", "fusion_lon": 0.0, "lat": 38.883282666666666, "fusion_lat": 0.0}, {"is_disabled": 0, "rental_uris": {"android": "https://dc.lft.to/lastmile_qr_scan", "ios": "https://dc.lft.to/lastmile_qr_scan"}, "is_reserved": 0, "name": "51bc53d5843ca65e9327c4b7775283e2", "lon": -77.0439635, "type": "electric_scooter", "bike_id": "51bc53d5843ca65e9327c4b7775283e2", "fusion_lon": 0.0, "lat": 38.902833666666666, "fusion_lat": 0.0}, {"is_disabled": 0, "rental_uris": {"android": "https://dc.lft.to/lastmile_qr_scan", "ios": "https://dc.lft.to/lastmile_qr_scan"}, "is_reserved": 0, "name": "534ebb4f3516d76e8ebff5b72023c165", "lon": -77.02397183333333, "type": "electric_scooter", "bike_id": "534ebb4f3516d76e8ebff5b72023c165", "fusion_lon": 0.0, "lat": 38.934858166666665, "fusion_lat": 0.0}, {"is_disabled": 0, "rental_uris": {"android": "https://dc.lft.to/lastmile_qr_scan", "ios": "https://dc.lft.to/lastmile_qr_scan"}, "is_reserved": 0, "name": "b949f0b4ef8b55c5ac5f12a3c13f75dd", "lon": -77.03983183333334, "type": "electric_bike", "bike_id": "b949f0b4ef8b55c5ac5f12a3c13f75dd", "fusion_lon": 0.0, "lat": 38.802992833333334, "fusion_lat": 0.0}, {"is_disabled": 0, "rental_uris": {"android": "https://dc.lft.to/lastmile_qr_scan", "ios": "https://dc.lft.to/lastmile_qr_scan"}, "is_reserved": 0, "name": "82cd5d7462556291d06eef89bc92cf17", "lon": -77.01535483333333, "type": "electric_scooter", "bike_id": "82cd5d7462556291d06eef89bc92cf17", "fusion_lon": 0.0, "lat": 38.88740116666666, "fusion_lat": 0.0}, {"is_disabled": 0, "rental_uris": {"android": "https://dc.lft.to/lastmile_qr_scan", "ios": "https://dc.lft.to/lastmile_qr_scan"}, "is_reserved": 0, "name": "5de07e50059e348a96aa2b293c85c4c6", "lon": -77.011083, "type": "electric_scooter", "bike_id": "5de07e50059e348a96aa2b293c85c4c6", "fusion_lon": 0.0, "lat": 38.90973283333334, "fusion_lat": 0.0}, {"is_disabled": 0, "rental_uris": {"android": "https://dc.lft.to/lastmile_qr_scan", "ios": "https://dc.lft.to/lastmile_qr_scan"}, "is_reserved": 0, "name": "a9237a4cdb6c604ac9146a19b34d539b", "lon": -77.01505633333333, "type": "electric_scooter", "bike_id": "a9237a4cdb6c604ac9146a19b34d539b", "fusion_lon": 0.0, "lat": 38.8726825, "fusion_lat": 0.0}, {"is_disabled": 0, "rental_uris": {"android": "https://dc.lft.to/lastmile_qr_scan", "ios": "https://dc.lft.to/lastmile_qr_scan"}, "is_reserved": 0, "name": "64c65cb1f892cdc4647fd524fff06ef2", "lon": -77.007134, "type": "electric_scooter", "bike_id": "64c65cb1f892cdc4647fd524fff06ef2", "fusion_lon": 0.0, "lat": 38.884924, "fusion_lat": 0.0}, {"is_disabled": 0, "rental_uris": {"android": "https://dc.lft.to/lastmile_qr_scan", "ios": "https://dc.lft.to/lastmile_qr_scan"}, "is_reserved": 0, "name": "6575b339e42e6d516011aa1d42581fc7", "lon": -76.9838145, "type": "electric_scooter", "bike_id": "6575b339e42e6d516011aa1d42581fc7", "fusion_lon": 0.0, "lat": 38.915408, "fusion_lat": 0.0}, {"is_disabled": 0, "rental_uris": {"android": "https://dc.lft.to/lastmile_qr_scan", "ios": "https://dc.lft.to/lastmile_qr_scan"}, "is_reserved": 0, "name": "473cd14fe238348884c1791599e19c1a", "lon": -77.03142733333334, "type": "electric_scooter", "bike_id": "473cd14fe238348884c1791599e19c1a", "fusion_lon": 0.0, "lat": 38.9248295, "fusion_lat": 0.0}, {"is_disabled": 0, "rental_uris": {"android": "https://dc.lft.to/lastmile_qr_scan", "ios": "https://dc.lft.to/lastmile_qr_scan"}, "is_reserved": 0, "name": "351ba5379215faa4ed0b7bf96063e05a", "lon": -77.04088266666666, "type": "electric_scooter", "bike_id": "351ba5379215faa4ed0b7bf96063e05a", "fusion_lon": 0.0, "lat": 38.900346, "fusion_lat": 0.0}, {"is_disabled": 0, "rental_uris": {"android": "https://dc.lft.to/lastmile_qr_scan", "ios": "https://dc.lft.to/lastmile_qr_scan"}, "is_reserved": 0, "name": "51c18ded37066a451e8df860b24d3d73", "lon": -77.036608, "type": "electric_scooter", "bike_id": "51c18ded37066a451e8df860b24d3d73", "fusion_lon": 0.0, "lat": 38.912472666666666, "fusion_lat": 0.0}, {"is_disabled": 0, "rental_uris": {"android": "https://dc.lft.to/lastmile_qr_scan", "ios": "https://dc.lft.to/lastmile_qr_scan"}, "is_reserved": 0, "name": "f8e1f764bc0efdd8c621703f7fadde42", "lon": -77.09581466666667, "type": "electric_bike", "bike_id": "f8e1f764bc0efdd8c621703f7fadde42", "fusion_lon": 0.0, "lat": 38.9168, "fusion_lat": 0.0}, {"is_disabled": 0, "rental_uris": {"android": "https://dc.lft.to/lastmile_qr_scan", "ios": "https://dc.lft.to/lastmile_qr_scan"}, "is_reserved": 0, "name": "01f1fe73388fc4270614ed135757b4a7", "lon": -77.03204133333334, "type": "electric_scooter", "bike_id": "01f1fe73388fc4270614ed135757b4a7", "fusion_lon": 0.0, "lat": 38.88349683333333, "fusion_lat": 0.0}, {"is_disabled": 0, "rental_uris": {"android": "https://dc.lft.to/lastmile_qr_scan", "ios": "https://dc.lft.to/lastmile_qr_scan"}, "is_reserved": 0, "name": "0b5008c997d71e44f77f55f7d12ec91b", "lon": -76.98030233333333, "type": "electric_bike", "bike_id": "0b5008c997d71e44f77f55f7d12ec91b", "fusion_lon": 0.0, "lat": 38.887549166666666, "fusion_lat": 0.0}, {"is_disabled": 0, "rental_uris": {"android": "https://dc.lft.to/lastmile_qr_scan", "ios": "https://dc.lft.to/lastmile_qr_scan"}, "is_reserved": 0, "name": "5bcef9acae895d2e517fd8d678384caf", "lon": -77.03442933333334, "type": "electric_scooter", "bike_id": "5bcef9acae895d2e517fd8d678384caf", "fusion_lon": 0.0, "lat": 38.90974383333333, "fusion_lat": 0.0}, {"is_disabled": 0, "rental_uris": {"android": "https://dc.lft.to/lastmile_qr_scan", "ios": "https://dc.lft.to/lastmile_qr_scan"}, "is_reserved": 0, "name": "7c853f0ce2a4fffc72e4ee4621e6c40b", "lon": -77.0319505, "type": "electric_scooter", "bike_id": "7c853f0ce2a4fffc72e4ee4621e6c40b", "fusion_lon": 0.0, "lat": 38.917102666666665, "fusion_lat": 0.0}, {"is_disabled": 0, "rental_uris": {"android": "https://dc.lft.to/lastmile_qr_scan", "ios": "https://dc.lft.to/lastmile_qr_scan"}, "is_reserved": 0, "name": "7c2c3cecb4abd0fab2713d0c242fe433", "lon": -77.025883, "type": "electric_scooter", "bike_id": "7c2c3cecb4abd0fab2713d0c242fe433", "fusion_lon": 0.0, "lat": 38.94204166666667, "fusion_lat": 0.0}, {"is_disabled": 0, "rental_uris": {"android": "https://dc.lft.to/lastmile_qr_scan", "ios": "https://dc.lft.to/lastmile_qr_scan"}, "is_reserved": 0, "name": "0b29a76fc3efa2bce370db0744d91c51", "lon": -77.02392116666667, "type": "electric_scooter", "bike_id": "0b29a76fc3efa2bce370db0744d91c51", "fusion_lon": 0.0, "lat": 38.905841, "fusion_lat": 0.0}, {"is_disabled": 0, "rental_uris": {"android": "https://dc.lft.to/lastmile_qr_scan", "ios": "https://dc.lft.to/lastmile_qr_scan"}, "is_reserved": 0, "name": "4cf97db1fe69e426d1717bc1f71fc830", "lon": -77.02796366666666, "type": "electric_scooter", "bike_id": "4cf97db1fe69e426d1717bc1f71fc830", "fusion_lon": 0.0, "lat": 38.93079216666667, "fusion_lat": 0.0}, {"is_disabled": 0, "rental_uris": {"android": "https://dc.lft.to/lastmile_qr_scan", "ios": "https://dc.lft.to/lastmile_qr_scan"}, "is_reserved": 0, "name": "57d320307fae82ed97e7bec5dacc27fd", "lon": -77.02400783333333, "type": "electric_scooter", "bike_id": "57d320307fae82ed97e7bec5dacc27fd", "fusion_lon": 0.0, "lat": 38.90707, "fusion_lat": 0.0}, {"is_disabled": 0, "rental_uris": {"android": "https://dc.lft.to/lastmile_qr_scan", "ios": "https://dc.lft.to/lastmile_qr_scan"}, "is_reserved": 0, "name": "e9d573aa08dadd6aca84485561f74426", "lon": -76.98658266666666, "type": "electric_scooter", "bike_id": "e9d573aa08dadd6aca84485561f74426", "fusion_lon": 0.0, "lat": 38.91315016666667, "fusion_lat": 0.0}, {"is_disabled": 0, "rental_uris": {"android": "https://dc.lft.to/lastmile_qr_scan", "ios": "https://dc.lft.to/lastmile_qr_scan"}, "is_reserved": 0, "name": "d3157b5f9eed8843fedc9cd111d5054e", "lon": -77.02813833333333, "type": "electric_scooter", "bike_id": "d3157b5f9eed8843fedc9cd111d5054e", "fusion_lon": 0.0, "lat": 38.90464033333333, "fusion_lat": 0.0}, {"is_disabled": 0, "rental_uris": {"android": "https://dc.lft.to/lastmile_qr_scan", "ios": "https://dc.lft.to/lastmile_qr_scan"}, "is_reserved": 0, "name": "840ec06d3cf263f1e32458d1999520e6", "lon": -76.99339966666666, "type": "electric_scooter", "bike_id": "840ec06d3cf263f1e32458d1999520e6", "fusion_lon": 0.0, "lat": 38.899016833333334, "fusion_lat": 0.0}, {"is_disabled": 0, "rental_uris": {"android": "https://dc.lft.to/lastmile_qr_scan", "ios": "https://dc.lft.to/lastmile_qr_scan"}, "is_reserved": 0, "name": "e7b769a847f43820dad7a5304018a4c5", "lon": -77.01563633333333, "type": "electric_bike", "bike_id": "e7b769a847f43820dad7a5304018a4c5", "fusion_lon": 0.0, "lat": 38.950117666666664, "fusion_lat": 0.0}, {"is_disabled": 0, "rental_uris": {"android": "https://dc.lft.to/lastmile_qr_scan", "ios": "https://dc.lft.to/lastmile_qr_scan"}, "is_reserved": 0, "name": "604009bbd2a4d355af80cfe70d097f9a", "lon": -77.03209383333333, "type": "electric_scooter", "bike_id": "604009bbd2a4d355af80cfe70d097f9a", "fusion_lon": 0.0, "lat": 38.910454, "fusion_lat": 0.0}, {"is_disabled": 0, "rental_uris": {"android": "https://dc.lft.to/lastmile_qr_scan", "ios": "https://dc.lft.to/lastmile_qr_scan"}, "is_reserved": 0, "name": "67741c6b712fdf399c14ea6c0f93fbd4", "lon": -76.98656166666666, "type": "electric_scooter", "bike_id": "67741c6b712fdf399c14ea6c0f93fbd4", "fusion_lon": 0.0, "lat": 38.85805783333333, "fusion_lat": 0.0}, {"is_disabled": 0, "rental_uris": {"android": "https://dc.lft.to/lastmile_qr_scan", "ios": "https://dc.lft.to/lastmile_qr_scan"}, "is_reserved": 0, "name": "d662df755178a63991c3023c37c61a75", "lon": -77.03856633333334, "type": "electric_scooter", "bike_id": "d662df755178a63991c3023c37c61a75", "fusion_lon": 0.0, "lat": 38.91714916666667, "fusion_lat": 0.0}, {"is_disabled": 0, "rental_uris": {"android": "https://dc.lft.to/lastmile_qr_scan", "ios": "https://dc.lft.to/lastmile_qr_scan"}, "is_reserved": 0, "name": "7315725ec3dee6b35957186cf7331fb7", "lon": -76.98420266666666, "type": "electric_bike", "bike_id": "7315725ec3dee6b35957186cf7331fb7", "fusion_lon": 0.0, "lat": 38.910054833333334, "fusion_lat": 0.0}, {"is_disabled": 0, "rental_uris": {"android": "https://dc.lft.to/lastmile_qr_scan", "ios": "https://dc.lft.to/lastmile_qr_scan"}, "is_reserved": 0, "name": "026aaf5b0815c17fb03ab37347139981", "lon": -77.0029515, "type": "electric_scooter", "bike_id": "026aaf5b0815c17fb03ab37347139981", "fusion_lon": 0.0, "lat": 38.905623, "fusion_lat": 0.0}, {"is_disabled": 0, "rental_uris": {"android": "https://dc.lft.to/lastmile_qr_scan", "ios": "https://dc.lft.to/lastmile_qr_scan"}, "is_reserved": 0, "name": "50ba83fbb80b917db61874bbc04db18c", "lon": -77.03095083333334, "type": "electric_scooter", "bike_id": "50ba83fbb80b917db61874bbc04db18c", "fusion_lon": 0.0, "lat": 38.9095785, "fusion_lat": 0.0}, {"is_disabled": 0, "rental_uris": {"android": "https://dc.lft.to/lastmile_qr_scan", "ios": "https://dc.lft.to/lastmile_qr_scan"}, "is_reserved": 0, "name": "6fc7b2f04d70b6fac7825844d09de4b2", "lon": -77.0343285, "type": "electric_scooter", "bike_id": "6fc7b2f04d70b6fac7825844d09de4b2", "fusion_lon": 0.0, "lat": 38.91768916666667, "fusion_lat": 0.0}, {"is_disabled": 0, "rental_uris": {"android": "https://dc.lft.to/lastmile_qr_scan", "ios": "https://dc.lft.to/lastmile_qr_scan"}, "is_reserved": 0, "name": "67616b82cda08a85f958d4fd71bc250f", "lon": -76.948949, "type": "electric_scooter", "bike_id": "67616b82cda08a85f958d4fd71bc250f", "fusion_lon": 0.0, "lat": 38.895287, "fusion_lat": 0.0}, {"is_disabled": 0, "rental_uris": {"android": "https://dc.lft.to/lastmile_qr_scan", "ios": "https://dc.lft.to/lastmile_qr_scan"}, "is_reserved": 0, "name": "29775c53f9bbe0e00e2a879dcede8d44", "lon": -77.04311166666666, "type": "electric_scooter", "bike_id": "29775c53f9bbe0e00e2a879dcede8d44", "fusion_lon": 0.0, "lat": 38.911062, "fusion_lat": 0.0}, {"is_disabled": 0, "rental_uris": {"android": "https://dc.lft.to/lastmile_qr_scan", "ios": "https://dc.lft.to/lastmile_qr_scan"}, "is_reserved": 0, "name": "31b71468ddfbcd8b76db733fbce1275b", "lon": -77.0401185, "type": "electric_scooter", "bike_id": "31b71468ddfbcd8b76db733fbce1275b", "fusion_lon": 0.0, "lat": 38.91038533333333, "fusion_lat": 0.0}, {"is_disabled": 0, "rental_uris": {"android": "https://dc.lft.to/lastmile_qr_scan", "ios": "https://dc.lft.to/lastmile_qr_scan"}, "is_reserved": 0, "name": "033eae48171a4ef06fa143f7774b3231", "lon": -77.03990516666667, "type": "electric_scooter", "bike_id": "033eae48171a4ef06fa143f7774b3231", "fusion_lon": 0.0, "lat": 38.91804783333333, "fusion_lat": 0.0}, {"is_disabled": 0, "rental_uris": {"android": "https://dc.lft.to/lastmile_qr_scan", "ios": "https://dc.lft.to/lastmile_qr_scan"}, "is_reserved": 0, "name": "9023eb3c6568a0ebe74a4dc794c44606", "lon": -77.04355916666667, "type": "electric_bike", "bike_id": "9023eb3c6568a0ebe74a4dc794c44606", "fusion_lon": 0.0, "lat": 38.902164, "fusion_lat": 0.0}, {"is_disabled": 0, "rental_uris": {"android": "https://dc.lft.to/lastmile_qr_scan", "ios": "https://dc.lft.to/lastmile_qr_scan"}, "is_reserved": 0, "name": "9013ccde157a413dead4f7affd1a4f96", "lon": -77.0366605, "type": "electric_scooter", "bike_id": "9013ccde157a413dead4f7affd1a4f96", "fusion_lon": 0.0, "lat": 38.91715883333333, "fusion_lat": 0.0}, {"is_disabled": 0, "rental_uris": {"android": "https://dc.lft.to/lastmile_qr_scan", "ios": "https://dc.lft.to/lastmile_qr_scan"}, "is_reserved": 0, "name": "ad2e3cf1429053bd1d4cc1b1b88aea45", "lon": -77.02261033333333, "type": "electric_scooter", "bike_id": "ad2e3cf1429053bd1d4cc1b1b88aea45", "fusion_lon": 0.0, "lat": 38.928261, "fusion_lat": 0.0}, {"is_disabled": 0, "rental_uris": {"android": "https://dc.lft.to/lastmile_qr_scan", "ios": "https://dc.lft.to/lastmile_qr_scan"}, "is_reserved": 0, "name": "94901ba8f5b9551ab9b2e43bed4848c2", "lon": -77.0332205, "type": "electric_bike", "bike_id": "94901ba8f5b9551ab9b2e43bed4848c2", "fusion_lon": 0.0, "lat": 38.92657116666667, "fusion_lat": 0.0}, {"is_disabled": 0, "rental_uris": {"android": "https://dc.lft.to/lastmile_qr_scan", "ios": "https://dc.lft.to/lastmile_qr_scan"}, "is_reserved": 0, "name": "de9ec240e7eed73146a31341b7724410", "lon": -77.02957316666667, "type": "electric_bike", "bike_id": "de9ec240e7eed73146a31341b7724410", "fusion_lon": 0.0, "lat": 38.93712, "fusion_lat": 0.0}, {"is_disabled": 0, "rental_uris": {"android": "https://dc.lft.to/lastmile_qr_scan", "ios": "https://dc.lft.to/lastmile_qr_scan"}, "is_reserved": 0, "name": "9ef4925273ec6e38a93f4ccab56f5e4e", "lon": -76.9637165, "type": "electric_bike", "bike_id": "9ef4925273ec6e38a93f4ccab56f5e4e", "fusion_lon": 0.0, "lat": 38.948990333333334, "fusion_lat": 0.0}, {"is_disabled": 0, "rental_uris": {"android": "https://dc.lft.to/lastmile_qr_scan", "ios": "https://dc.lft.to/lastmile_qr_scan"}, "is_reserved": 0, "name": "1ab841d348b2b141be40363e491b064a", "lon": -77.0437985, "type": "electric_bike", "bike_id": "1ab841d348b2b141be40363e491b064a", "fusion_lon": 0.0, "lat": 39.05269166666667, "fusion_lat": 0.0}, {"is_disabled": 0, "rental_uris": {"android": "https://dc.lft.to/lastmile_qr_scan", "ios": "https://dc.lft.to/lastmile_qr_scan"}, "is_reserved": 0, "name": "4dc139cd5697e7c13bb57abe3ca711b9", "lon": -77.02206683333333, "type": "electric_scooter", "bike_id": "4dc139cd5697e7c13bb57abe3ca711b9", "fusion_lon": 0.0, "lat": 38.91109466666666, "fusion_lat": 0.0}, {"is_disabled": 0, "rental_uris": {"android": "https://dc.lft.to/lastmile_qr_scan", "ios": "https://dc.lft.to/lastmile_qr_scan"}, "is_reserved": 0, "name": "ae71e23c989b1816034f42cdb940d000", "lon": -77.017546, "type": "electric_scooter", "bike_id": "ae71e23c989b1816034f42cdb940d000", "fusion_lon": 0.0, "lat": 38.91354883333333, "fusion_lat": 0.0}, {"is_disabled": 0, "rental_uris": {"android": "https://dc.lft.to/lastmile_qr_scan", "ios": "https://dc.lft.to/lastmile_qr_scan"}, "is_reserved": 0, "name": "749576c6f5fbcc189df04342ce1ce0a2", "lon": -77.0161695, "type": "electric_scooter", "bike_id": "749576c6f5fbcc189df04342ce1ce0a2", "fusion_lon": 0.0, "lat": 38.898500166666665, "fusion_lat": 0.0}, {"is_disabled": 0, "rental_uris": {"android": "https://dc.lft.to/lastmile_qr_scan", "ios": "https://dc.lft.to/lastmile_qr_scan"}, "is_reserved": 0, "name": "738b070d786258aa9235a8caf499b216", "lon": -76.99490183333333, "type": "electric_scooter", "bike_id": "738b070d786258aa9235a8caf499b216", "fusion_lon": 0.0, "lat": 38.932266, "fusion_lat": 0.0}, {"is_disabled": 0, "rental_uris": {"android": "https://dc.lft.to/lastmile_qr_scan", "ios": "https://dc.lft.to/lastmile_qr_scan"}, "is_reserved": 0, "name": "f1cc6d1a8c94ba3493124afaa919c124", "lon": -77.02823833333333, "type": "electric_scooter", "bike_id": "f1cc6d1a8c94ba3493124afaa919c124", "fusion_lon": 0.0, "lat": 38.917577666666666, "fusion_lat": 0.0}, {"is_disabled": 0, "rental_uris": {"android": "https://dc.lft.to/lastmile_qr_scan", "ios": "https://dc.lft.to/lastmile_qr_scan"}, "is_reserved": 0, "name": "6b4b9c17f08c261520e341ccc0a996ac", "lon": -77.0012265, "type": "electric_scooter", "bike_id": "6b4b9c17f08c261520e341ccc0a996ac", "fusion_lon": 0.0, "lat": 38.91246016666667, "fusion_lat": 0.0}, {"is_disabled": 0, "rental_uris": {"android": "https://dc.lft.to/lastmile_qr_scan", "ios": "https://dc.lft.to/lastmile_qr_scan"}, "is_reserved": 0, "name": "0455120da7770d908ce2e36c7a73e2c2", "lon": -77.01015466666666, "type": "electric_scooter", "bike_id": "0455120da7770d908ce2e36c7a73e2c2", "fusion_lon": 0.0, "lat": 38.87969483333333, "fusion_lat": 0.0}, {"is_disabled": 0, "rental_uris": {"android": "https://dc.lft.to/lastmile_qr_scan", "ios": "https://dc.lft.to/lastmile_qr_scan"}, "is_reserved": 0, "name": "5e39d4f729701ef812554a9381dd5049", "lon": -77.061756, "type": "electric_bike", "bike_id": "5e39d4f729701ef812554a9381dd5049", "fusion_lon": 0.0, "lat": 38.812711666666665, "fusion_lat": 0.0}, {"is_disabled": 0, "rental_uris": {"android": "https://dc.lft.to/lastmile_qr_scan", "ios": "https://dc.lft.to/lastmile_qr_scan"}, "is_reserved": 0, "name": "ba6b1427242c5b937a6701d1b01b9e14", "lon": -77.07905583333333, "type": "electric_bike", "bike_id": "ba6b1427242c5b937a6701d1b01b9e14", "fusion_lon": 0.0, "lat": 38.8394045, "fusion_lat": 0.0}, {"is_disabled": 0, "rental_uris": {"android": "https://dc.lft.to/lastmile_qr_scan", "ios": "https://dc.lft.to/lastmile_qr_scan"}, "is_reserved": 0, "name": "bfb2efe6854058266605b03d915b8e70", "lon": -77.00899083333333, "type": "electric_scooter", "bike_id": "bfb2efe6854058266605b03d915b8e70", "fusion_lon": 0.0, "lat": 38.8954275, "fusion_lat": 0.0}, {"is_disabled": 0, "rental_uris": {"android": "https://dc.lft.to/lastmile_qr_scan", "ios": "https://dc.lft.to/lastmile_qr_scan"}, "is_reserved": 0, "name": "07db29c93c81c44e34602b8d96b20054", "lon": -77.03399883333333, "type": "electric_scooter", "bike_id": "07db29c93c81c44e34602b8d96b20054", "fusion_lon": 0.0, "lat": 38.9196725, "fusion_lat": 0.0}, {"is_disabled": 0, "rental_uris": {"android": "https://dc.lft.to/lastmile_qr_scan", "ios": "https://dc.lft.to/lastmile_qr_scan"}, "is_reserved": 0, "name": "8327bd389d22a9c7819c8b583a964b46", "lon": -77.061047, "type": "electric_scooter", "bike_id": "8327bd389d22a9c7819c8b583a964b46", "fusion_lon": 0.0, "lat": 38.943707, "fusion_lat": 0.0}, {"is_disabled": 0, "rental_uris": {"android": "https://dc.lft.to/lastmile_qr_scan", "ios": "https://dc.lft.to/lastmile_qr_scan"}, "is_reserved": 0, "name": "f6e365e959dce4ff62332f78639ca49c", "lon": -77.02391433333334, "type": "electric_scooter", "bike_id": "f6e365e959dce4ff62332f78639ca49c", "fusion_lon": 0.0, "lat": 38.916839333333336, "fusion_lat": 0.0}, {"is_disabled": 0, "rental_uris": {"android": "https://dc.lft.to/lastmile_qr_scan", "ios": "https://dc.lft.to/lastmile_qr_scan"}, "is_reserved": 0, "name": "87010c9de53295aac548839f667d61f1", "lon": -76.99172, "type": "electric_bike", "bike_id": "87010c9de53295aac548839f667d61f1", "fusion_lon": 0.0, "lat": 38.97254433333333, "fusion_lat": 0.0}, {"is_disabled": 0, "rental_uris": {"android": "https://dc.lft.to/lastmile_qr_scan", "ios": "https://dc.lft.to/lastmile_qr_scan"}, "is_reserved": 0, "name": "8256a3f0cc465da41becb12939db89eb", "lon": -77.0467325, "type": "electric_scooter", "bike_id": "8256a3f0cc465da41becb12939db89eb", "fusion_lon": 0.0, "lat": 38.90738966666667, "fusion_lat": 0.0}, {"is_disabled": 0, "rental_uris": {"android": "https://dc.lft.to/lastmile_qr_scan", "ios": "https://dc.lft.to/lastmile_qr_scan"}, "is_reserved": 0, "name": "52262d634f46d2e2b6248e8214e875f5", "lon": -77.0415715, "type": "electric_scooter", "bike_id": "52262d634f46d2e2b6248e8214e875f5", "fusion_lon": 0.0, "lat": 38.91265966666667, "fusion_lat": 0.0}, {"is_disabled": 0, "rental_uris": {"android": "https://dc.lft.to/lastmile_qr_scan", "ios": "https://dc.lft.to/lastmile_qr_scan"}, "is_reserved": 0, "name": "f6f90cf6090c05270027e708b7d908d3", "lon": -77.01715383333334, "type": "electric_scooter", "bike_id": "f6f90cf6090c05270027e708b7d908d3", "fusion_lon": 0.0, "lat": 38.905148, "fusion_lat": 0.0}, {"is_disabled": 0, "rental_uris": {"android": "https://dc.lft.to/lastmile_qr_scan", "ios": "https://dc.lft.to/lastmile_qr_scan"}, "is_reserved": 0, "name": "0dc148d9119ce4b9630f1fe7f766f30e", "lon": -77.04668066666666, "type": "electric_scooter", "bike_id": "0dc148d9119ce4b9630f1fe7f766f30e", "fusion_lon": 0.0, "lat": 38.907384666666665, "fusion_lat": 0.0}, {"is_disabled": 0, "rental_uris": {"android": "https://dc.lft.to/lastmile_qr_scan", "ios": "https://dc.lft.to/lastmile_qr_scan"}, "is_reserved": 0, "name": "61c62b5e63508246dd5589198365bac0", "lon": -77.06098833333333, "type": "electric_scooter", "bike_id": "61c62b5e63508246dd5589198365bac0", "fusion_lon": 0.0, "lat": 38.94367283333333, "fusion_lat": 0.0}, {"is_disabled": 0, "rental_uris": {"android": "https://dc.lft.to/lastmile_qr_scan", "ios": "https://dc.lft.to/lastmile_qr_scan"}, "is_reserved": 0, "name": "2f517b6f0a2c123b60503c666f7b5682", "lon": -77.03445033333334, "type": "electric_scooter", "bike_id": "2f517b6f0a2c123b60503c666f7b5682", "fusion_lon": 0.0, "lat": 38.93435766666666, "fusion_lat": 0.0}, {"is_disabled": 0, "rental_uris": {"android": "https://dc.lft.to/lastmile_qr_scan", "ios": "https://dc.lft.to/lastmile_qr_scan"}, "is_reserved": 0, "name": "c28393f3edfcab95b0686a874e164b91", "lon": -77.01781416666667, "type": "electric_scooter", "bike_id": "c28393f3edfcab95b0686a874e164b91", "fusion_lon": 0.0, "lat": 38.91906633333333, "fusion_lat": 0.0}, {"is_disabled": 0, "rental_uris": {"android": "https://dc.lft.to/lastmile_qr_scan", "ios": "https://dc.lft.to/lastmile_qr_scan"}, "is_reserved": 0, "name": "47fa648cc7cda7741a7c7e9b5ba6daec", "lon": -76.9988545, "type": "electric_scooter", "bike_id": "47fa648cc7cda7741a7c7e9b5ba6daec", "fusion_lon": 0.0, "lat": 38.889744, "fusion_lat": 0.0}, {"is_disabled": 0, "rental_uris": {"android": "https://dc.lft.to/lastmile_qr_scan", "ios": "https://dc.lft.to/lastmile_qr_scan"}, "is_reserved": 0, "name": "35f0223c826cf9f906dda326094e52c2", "lon": -77.0469975, "type": "electric_scooter", "bike_id": "35f0223c826cf9f906dda326094e52c2", "fusion_lon": 0.0, "lat": 38.915656, "fusion_lat": 0.0}, {"is_disabled": 0, "rental_uris": {"android": "https://dc.lft.to/lastmile_qr_scan", "ios": "https://dc.lft.to/lastmile_qr_scan"}, "is_reserved": 0, "name": "8a6c8482cb8692f22c06952df632f9a7", "lon": -77.05527416666666, "type": "electric_scooter", "bike_id": "8a6c8482cb8692f22c06952df632f9a7", "fusion_lon": 0.0, "lat": 38.92164916666667, "fusion_lat": 0.0}, {"is_disabled": 0, "rental_uris": {"android": "https://dc.lft.to/lastmile_qr_scan", "ios": "https://dc.lft.to/lastmile_qr_scan"}, "is_reserved": 0, "name": "f87c64bdc79297045c7d226e47683a24", "lon": -77.03349333333334, "type": "electric_scooter", "bike_id": "f87c64bdc79297045c7d226e47683a24", "fusion_lon": 0.0, "lat": 38.937864833333336, "fusion_lat": 0.0}, {"is_disabled": 0, "rental_uris": {"android": "https://dc.lft.to/lastmile_qr_scan", "ios": "https://dc.lft.to/lastmile_qr_scan"}, "is_reserved": 0, "name": "341d5d95273c468f44ae4d498edb2b3e", "lon": -77.04029166666666, "type": "electric_scooter", "bike_id": "341d5d95273c468f44ae4d498edb2b3e", "fusion_lon": 0.0, "lat": 38.9242095, "fusion_lat": 0.0}, {"is_disabled": 0, "rental_uris": {"android": "https://dc.lft.to/lastmile_qr_scan", "ios": "https://dc.lft.to/lastmile_qr_scan"}, "is_reserved": 0, "name": "915ee3f5e9d1dadf32db00b498bd5130", "lon": -77.03443033333333, "type": "electric_scooter", "bike_id": "915ee3f5e9d1dadf32db00b498bd5130", "fusion_lon": 0.0, "lat": 38.9149815, "fusion_lat": 0.0}, {"is_disabled": 0, "rental_uris": {"android": "https://dc.lft.to/lastmile_qr_scan", "ios": "https://dc.lft.to/lastmile_qr_scan"}, "is_reserved": 0, "name": "399061a2bdf67b8dccdde70ad7cfb84e", "lon": -77.00336416666667, "type": "electric_scooter", "bike_id": "399061a2bdf67b8dccdde70ad7cfb84e", "fusion_lon": 0.0, "lat": 38.8831515, "fusion_lat": 0.0}, {"is_disabled": 0, "rental_uris": {"android": "https://dc.lft.to/lastmile_qr_scan", "ios": "https://dc.lft.to/lastmile_qr_scan"}, "is_reserved": 0, "name": "8ab6416b2c4d8ded96476178956b6752", "lon": -77.0374925, "type": "electric_scooter", "bike_id": "8ab6416b2c4d8ded96476178956b6752", "fusion_lon": 0.0, "lat": 38.91190916666667, "fusion_lat": 0.0}, {"is_disabled": 0, "rental_uris": {"android": "https://dc.lft.to/lastmile_qr_scan", "ios": "https://dc.lft.to/lastmile_qr_scan"}, "is_reserved": 0, "name": "1a12c14d6aa7ba8608fd61bacc4357a5", "lon": -76.97900466666667, "type": "electric_bike", "bike_id": "1a12c14d6aa7ba8608fd61bacc4357a5", "fusion_lon": 0.0, "lat": 38.85496833333333, "fusion_lat": 0.0}, {"is_disabled": 0, "rental_uris": {"android": "https://dc.lft.to/lastmile_qr_scan", "ios": "https://dc.lft.to/lastmile_qr_scan"}, "is_reserved": 0, "name": "aea7cbf1ab58c90390fe9c58810ad5a7", "lon": -77.01636483333333, "type": "electric_scooter", "bike_id": "aea7cbf1ab58c90390fe9c58810ad5a7", "fusion_lon": 0.0, "lat": 38.8830875, "fusion_lat": 0.0}, {"is_disabled": 0, "rental_uris": {"android": "https://dc.lft.to/lastmile_qr_scan", "ios": "https://dc.lft.to/lastmile_qr_scan"}, "is_reserved": 0, "name": "ba8e9f0bfcf7c318999b5aeb47e35fc5", "lon": -77.03651816666667, "type": "electric_scooter", "bike_id": "ba8e9f0bfcf7c318999b5aeb47e35fc5", "fusion_lon": 0.0, "lat": 38.902892333333334, "fusion_lat": 0.0}, {"is_disabled": 0, "rental_uris": {"android": "https://dc.lft.to/lastmile_qr_scan", "ios": "https://dc.lft.to/lastmile_qr_scan"}, "is_reserved": 0, "name": "e2f558875e15149fe9135821b7aaa19a", "lon": -76.91595616666666, "type": "electric_bike", "bike_id": "e2f558875e15149fe9135821b7aaa19a", "fusion_lon": 0.0, "lat": 38.88009366666667, "fusion_lat": 0.0}, {"is_disabled": 0, "rental_uris": {"android": "https://dc.lft.to/lastmile_qr_scan", "ios": "https://dc.lft.to/lastmile_qr_scan"}, "is_reserved": 0, "name": "9120ed2c68be62b45349f156dd515e6b", "lon": -77.0076845, "type": "electric_scooter", "bike_id": "9120ed2c68be62b45349f156dd515e6b", "fusion_lon": 0.0, "lat": 38.87113166666666, "fusion_lat": 0.0}, {"is_disabled": 0, "rental_uris": {"android": "https://dc.lft.to/lastmile_qr_scan", "ios": "https://dc.lft.to/lastmile_qr_scan"}, "is_reserved": 0, "name": "980136c0261b08510369fcc2af4a3ce0", "lon": -77.02700033333333, "type": "electric_scooter", "bike_id": "980136c0261b08510369fcc2af4a3ce0", "fusion_lon": 0.0, "lat": 38.899794166666666, "fusion_lat": 0.0}, {"is_disabled": 0, "rental_uris": {"android": "https://dc.lft.to/lastmile_qr_scan", "ios": "https://dc.lft.to/lastmile_qr_scan"}, "is_reserved": 0, "name": "9981c8a82219b8364a35c7467f99a2e2", "lon": -76.97975366666667, "type": "electric_scooter", "bike_id": "9981c8a82219b8364a35c7467f99a2e2", "fusion_lon": 0.0, "lat": 38.87071783333333, "fusion_lat": 0.0}, {"is_disabled": 0, "rental_uris": {"android": "https://dc.lft.to/lastmile_qr_scan", "ios": "https://dc.lft.to/lastmile_qr_scan"}, "is_reserved": 0, "name": "dc36c74e444cc89038a75f5c84c35736", "lon": -76.98342466666666, "type": "electric_scooter", "bike_id": "dc36c74e444cc89038a75f5c84c35736", "fusion_lon": 0.0, "lat": 38.91274516666667, "fusion_lat": 0.0}, {"is_disabled": 0, "rental_uris": {"android": "https://dc.lft.to/lastmile_qr_scan", "ios": "https://dc.lft.to/lastmile_qr_scan"}, "is_reserved": 0, "name": "0a4dd954c076117aa3e4836c6e218ba3", "lon": -77.05098316666667, "type": "electric_scooter", "bike_id": "0a4dd954c076117aa3e4836c6e218ba3", "fusion_lon": 0.0, "lat": 38.923435, "fusion_lat": 0.0}, {"is_disabled": 0, "rental_uris": {"android": "https://dc.lft.to/lastmile_qr_scan", "ios": "https://dc.lft.to/lastmile_qr_scan"}, "is_reserved": 0, "name": "93fa168dc427d1ed85e6a9a5a18d6c1f", "lon": -76.99535016666667, "type": "electric_scooter", "bike_id": "93fa168dc427d1ed85e6a9a5a18d6c1f", "fusion_lon": 0.0, "lat": 38.8625555, "fusion_lat": 0.0}, {"is_disabled": 0, "rental_uris": {"android": "https://dc.lft.to/lastmile_qr_scan", "ios": "https://dc.lft.to/lastmile_qr_scan"}, "is_reserved": 0, "name": "e9fdc06dde69906105c1ffbe65d65e7d", "lon": -76.9081855, "type": "electric_bike", "bike_id": "e9fdc06dde69906105c1ffbe65d65e7d", "fusion_lon": 0.0, "lat": 38.99455833333333, "fusion_lat": 0.0}, {"is_disabled": 0, "rental_uris": {"android": "https://dc.lft.to/lastmile_qr_scan", "ios": "https://dc.lft.to/lastmile_qr_scan"}, "is_reserved": 0, "name": "8892bbac81a3127d50e7795a9f043b9d", "lon": -76.9489685, "type": "electric_scooter", "bike_id": "8892bbac81a3127d50e7795a9f043b9d", "fusion_lon": 0.0, "lat": 38.895293833333334, "fusion_lat": 0.0}, {"is_disabled": 0, "rental_uris": {"android": "https://dc.lft.to/lastmile_qr_scan", "ios": "https://dc.lft.to/lastmile_qr_scan"}, "is_reserved": 0, "name": "35fd41e27eb514dee5911b7a30b7c681", "lon": -77.0194565, "type": "electric_scooter", "bike_id": "35fd41e27eb514dee5911b7a30b7c681", "fusion_lon": 0.0, "lat": 38.947009, "fusion_lat": 0.0}, {"is_disabled": 0, "rental_uris": {"android": "https://dc.lft.to/lastmile_qr_scan", "ios": "https://dc.lft.to/lastmile_qr_scan"}, "is_reserved": 0, "name": "a710a892a156fbb2f3094fc6e94e4a0d", "lon": -77.01223116666667, "type": "electric_scooter", "bike_id": "a710a892a156fbb2f3094fc6e94e4a0d", "fusion_lon": 0.0, "lat": 38.916969, "fusion_lat": 0.0}, {"is_disabled": 0, "rental_uris": {"android": "https://dc.lft.to/lastmile_qr_scan", "ios": "https://dc.lft.to/lastmile_qr_scan"}, "is_reserved": 0, "name": "14e5161ef96d3f4cbe63b788b60a5a12", "lon": -76.96565416666667, "type": "electric_scooter", "bike_id": "14e5161ef96d3f4cbe63b788b60a5a12", "fusion_lon": 0.0, "lat": 38.91839233333334, "fusion_lat": 0.0}, {"is_disabled": 0, "rental_uris": {"android": "https://dc.lft.to/lastmile_qr_scan", "ios": "https://dc.lft.to/lastmile_qr_scan"}, "is_reserved": 0, "name": "a1d52fa57b83a2006c4a3d38ffe2dce4", "lon": -77.04348083333333, "type": "electric_scooter", "bike_id": "a1d52fa57b83a2006c4a3d38ffe2dce4", "fusion_lon": 0.0, "lat": 38.91180033333333, "fusion_lat": 0.0}, {"is_disabled": 0, "rental_uris": {"android": "https://dc.lft.to/lastmile_qr_scan", "ios": "https://dc.lft.to/lastmile_qr_scan"}, "is_reserved": 0, "name": "07f898b47e853bfc69701fdf409cca03", "lon": -76.947223, "type": "electric_scooter", "bike_id": "07f898b47e853bfc69701fdf409cca03", "fusion_lon": 0.0, "lat": 38.89684166666667, "fusion_lat": 0.0}, {"is_disabled": 0, "rental_uris": {"android": "https://dc.lft.to/lastmile_qr_scan", "ios": "https://dc.lft.to/lastmile_qr_scan"}, "is_reserved": 0, "name": "79a1b19910dfc49aa3d3b9f9d19be05e", "lon": -76.966849, "type": "electric_bike", "bike_id": "79a1b19910dfc49aa3d3b9f9d19be05e", "fusion_lon": 0.0, "lat": 38.958919333333334, "fusion_lat": 0.0}, {"is_disabled": 0, "rental_uris": {"android": "https://dc.lft.to/lastmile_qr_scan", "ios": "https://dc.lft.to/lastmile_qr_scan"}, "is_reserved": 0, "name": "11d705fee4e6e9635461b29c4389ad6d", "lon": -77.04878433333333, "type": "electric_scooter", "bike_id": "11d705fee4e6e9635461b29c4389ad6d", "fusion_lon": 0.0, "lat": 38.903946166666664, "fusion_lat": 0.0}, {"is_disabled": 0, "rental_uris": {"android": "https://dc.lft.to/lastmile_qr_scan", "ios": "https://dc.lft.to/lastmile_qr_scan"}, "is_reserved": 0, "name": "9685ecdcc1b8bf5a43d88aa442f3d0f7", "lon": -77.04660483333333, "type": "electric_scooter", "bike_id": "9685ecdcc1b8bf5a43d88aa442f3d0f7", "fusion_lon": 0.0, "lat": 38.89341266666667, "fusion_lat": 0.0}, {"is_disabled": 0, "rental_uris": {"android": "https://dc.lft.to/lastmile_qr_scan", "ios": "https://dc.lft.to/lastmile_qr_scan"}, "is_reserved": 0, "name": "6da5dda12040093e68fbcd283e53ab77", "lon": -77.01992433333334, "type": "electric_scooter", "bike_id": "6da5dda12040093e68fbcd283e53ab77", "fusion_lon": 0.0, "lat": 38.875739833333334, "fusion_lat": 0.0}, {"is_disabled": 0, "rental_uris": {"android": "https://dc.lft.to/lastmile_qr_scan", "ios": "https://dc.lft.to/lastmile_qr_scan"}, "is_reserved": 0, "name": "17e15172e25077395169333de50283ea", "lon": -77.00199683333334, "type": "electric_scooter", "bike_id": "17e15172e25077395169333de50283ea", "fusion_lon": 0.0, "lat": 38.9004005, "fusion_lat": 0.0}, {"is_disabled": 0, "rental_uris": {"android": "https://dc.lft.to/lastmile_qr_scan", "ios": "https://dc.lft.to/lastmile_qr_scan"}, "is_reserved": 0, "name": "15375d65ce09ea0564d90b2e05c9e23d", "lon": -77.06536083333333, "type": "electric_scooter", "bike_id": "15375d65ce09ea0564d90b2e05c9e23d", "fusion_lon": 0.0, "lat": 38.905229166666665, "fusion_lat": 0.0}, {"is_disabled": 0, "rental_uris": {"android": "https://dc.lft.to/lastmile_qr_scan", "ios": "https://dc.lft.to/lastmile_qr_scan"}, "is_reserved": 0, "name": "ce6b4b0e741c3235eb4ce6edb036f0d6", "lon": -77.05194616666667, "type": "electric_scooter", "bike_id": "ce6b4b0e741c3235eb4ce6edb036f0d6", "fusion_lon": 0.0, "lat": 38.9254815, "fusion_lat": 0.0}, {"is_disabled": 0, "rental_uris": {"android": "https://dc.lft.to/lastmile_qr_scan", "ios": "https://dc.lft.to/lastmile_qr_scan"}, "is_reserved": 0, "name": "bf791c5fb28f2e0894da6d289f76b1b4", "lon": -77.080471, "type": "electric_bike", "bike_id": "bf791c5fb28f2e0894da6d289f76b1b4", "fusion_lon": 0.0, "lat": 38.84847466666667, "fusion_lat": 0.0}, {"is_disabled": 0, "rental_uris": {"android": "https://dc.lft.to/lastmile_qr_scan", "ios": "https://dc.lft.to/lastmile_qr_scan"}, "is_reserved": 0, "name": "cacadad62d011df4df11561dec092e06", "lon": -77.022275, "type": "electric_scooter", "bike_id": "cacadad62d011df4df11561dec092e06", "fusion_lon": 0.0, "lat": 38.887449, "fusion_lat": 0.0}, {"is_disabled": 0, "rental_uris": {"android": "https://dc.lft.to/lastmile_qr_scan", "ios": "https://dc.lft.to/lastmile_qr_scan"}, "is_reserved": 0, "name": "3b0f1dd2119847209184eb8bce0c8193", "lon": -77.02698216666667, "type": "electric_scooter", "bike_id": "3b0f1dd2119847209184eb8bce0c8193", "fusion_lon": 0.0, "lat": 38.9074065, "fusion_lat": 0.0}, {"is_disabled": 0, "rental_uris": {"android": "https://dc.lft.to/lastmile_qr_scan", "ios": "https://dc.lft.to/lastmile_qr_scan"}, "is_reserved": 0, "name": "8475aaa4dafda8ad734b42d234a64d56", "lon": -77.04161183333333, "type": "electric_scooter", "bike_id": "8475aaa4dafda8ad734b42d234a64d56", "fusion_lon": 0.0, "lat": 38.914205333333335, "fusion_lat": 0.0}, {"is_disabled": 0, "rental_uris": {"android": "https://dc.lft.to/lastmile_qr_scan", "ios": "https://dc.lft.to/lastmile_qr_scan"}, "is_reserved": 0, "name": "8b484eeb2381e91d2078443fc41790a3", "lon": -77.02048, "type": "electric_scooter", "bike_id": "8b484eeb2381e91d2078443fc41790a3", "fusion_lon": 0.0, "lat": 38.9155575, "fusion_lat": 0.0}, {"is_disabled": 0, "rental_uris": {"android": "https://dc.lft.to/lastmile_qr_scan", "ios": "https://dc.lft.to/lastmile_qr_scan"}, "is_reserved": 0, "name": "dc3e2c8e085e2727d5ce3842579b7fe6", "lon": -77.05418333333333, "type": "electric_scooter", "bike_id": "dc3e2c8e085e2727d5ce3842579b7fe6", "fusion_lon": 0.0, "lat": 38.928249, "fusion_lat": 0.0}, {"is_disabled": 0, "rental_uris": {"android": "https://dc.lft.to/lastmile_qr_scan", "ios": "https://dc.lft.to/lastmile_qr_scan"}, "is_reserved": 0, "name": "d0b6d36d495145ddd0cdbc31ef96fd10", "lon": -77.02414566666667, "type": "electric_scooter", "bike_id": "d0b6d36d495145ddd0cdbc31ef96fd10", "fusion_lon": 0.0, "lat": 38.9096075, "fusion_lat": 0.0}, {"is_disabled": 0, "rental_uris": {"android": "https://dc.lft.to/lastmile_qr_scan", "ios": "https://dc.lft.to/lastmile_qr_scan"}, "is_reserved": 0, "name": "e62dfa0faea39bb19edca5a304a53be5", "lon": -77.04109716666666, "type": "electric_scooter", "bike_id": "e62dfa0faea39bb19edca5a304a53be5", "fusion_lon": 0.0, "lat": 38.924496833333336, "fusion_lat": 0.0}, {"is_disabled": 0, "rental_uris": {"android": "https://dc.lft.to/lastmile_qr_scan", "ios": "https://dc.lft.to/lastmile_qr_scan"}, "is_reserved": 0, "name": "e8042a49a4f0b5649f289035eb0939a7", "lon": -77.07275716666666, "type": "electric_scooter", "bike_id": "e8042a49a4f0b5649f289035eb0939a7", "fusion_lon": 0.0, "lat": 38.93476066666667, "fusion_lat": 0.0}, {"is_disabled": 0, "rental_uris": {"android": "https://dc.lft.to/lastmile_qr_scan", "ios": "https://dc.lft.to/lastmile_qr_scan"}, "is_reserved": 0, "name": "e613f339851f717362564732a40a47eb", "lon": -77.04487616666667, "type": "electric_scooter", "bike_id": "e613f339851f717362564732a40a47eb", "fusion_lon": 0.0, "lat": 38.924268833333336, "fusion_lat": 0.0}, {"is_disabled": 0, "rental_uris": {"android": "https://dc.lft.to/lastmile_qr_scan", "ios": "https://dc.lft.to/lastmile_qr_scan"}, "is_reserved": 0, "name": "5352ba12b229441a6a93e9112b54b5a6", "lon": -77.032406, "type": "electric_scooter", "bike_id": "5352ba12b229441a6a93e9112b54b5a6", "fusion_lon": 0.0, "lat": 38.914859666666665, "fusion_lat": 0.0}, {"is_disabled": 0, "rental_uris": {"android": "https://dc.lft.to/lastmile_qr_scan", "ios": "https://dc.lft.to/lastmile_qr_scan"}, "is_reserved": 0, "name": "1a07497fb7289c984d7f9dbd9b120aa4", "lon": -76.99452416666666, "type": "electric_scooter", "bike_id": "1a07497fb7289c984d7f9dbd9b120aa4", "fusion_lon": 0.0, "lat": 38.922802, "fusion_lat": 0.0}, {"is_disabled": 0, "rental_uris": {"android": "https://dc.lft.to/lastmile_qr_scan", "ios": "https://dc.lft.to/lastmile_qr_scan"}, "is_reserved": 0, "name": "eac0d51e67fc0cab98f2fd1c128913dd", "lon": -77.023088, "type": "electric_scooter", "bike_id": "eac0d51e67fc0cab98f2fd1c128913dd", "fusion_lon": 0.0, "lat": 38.8958325, "fusion_lat": 0.0}, {"is_disabled": 0, "rental_uris": {"android": "https://dc.lft.to/lastmile_qr_scan", "ios": "https://dc.lft.to/lastmile_qr_scan"}, "is_reserved": 0, "name": "0879b5ea526a79ddc665263b2c9bde91", "lon": -77.0018505, "type": "electric_scooter", "bike_id": "0879b5ea526a79ddc665263b2c9bde91", "fusion_lon": 0.0, "lat": 38.900492, "fusion_lat": 0.0}, {"is_disabled": 0, "rental_uris": {"android": "https://dc.lft.to/lastmile_qr_scan", "ios": "https://dc.lft.to/lastmile_qr_scan"}, "is_reserved": 0, "name": "e56e1f39c17faf9fd0d47943882303e9", "lon": -77.02784483333333, "type": "electric_scooter", "bike_id": "e56e1f39c17faf9fd0d47943882303e9", "fusion_lon": 0.0, "lat": 38.918159333333335, "fusion_lat": 0.0}, {"is_disabled": 0, "rental_uris": {"android": "https://dc.lft.to/lastmile_qr_scan", "ios": "https://dc.lft.to/lastmile_qr_scan"}, "is_reserved": 0, "name": "9f88e7d70f50b3a34eb8c1bbd2358910", "lon": -77.032597, "type": "electric_scooter", "bike_id": "9f88e7d70f50b3a34eb8c1bbd2358910", "fusion_lon": 0.0, "lat": 38.935262333333334, "fusion_lat": 0.0}, {"is_disabled": 0, "rental_uris": {"android": "https://dc.lft.to/lastmile_qr_scan", "ios": "https://dc.lft.to/lastmile_qr_scan"}, "is_reserved": 0, "name": "bb3aa2eb86fd5d3b004e34575b68fb3a", "lon": -76.99161616666666, "type": "electric_scooter", "bike_id": "bb3aa2eb86fd5d3b004e34575b68fb3a", "fusion_lon": 0.0, "lat": 38.897713833333334, "fusion_lat": 0.0}, {"is_disabled": 0, "rental_uris": {"android": "https://dc.lft.to/lastmile_qr_scan", "ios": "https://dc.lft.to/lastmile_qr_scan"}, "is_reserved": 0, "name": "64a7dd6696ea011e14a83f80957e0a7c", "lon": -77.05334583333334, "type": "electric_scooter", "bike_id": "64a7dd6696ea011e14a83f80957e0a7c", "fusion_lon": 0.0, "lat": 38.927914333333334, "fusion_lat": 0.0}, {"is_disabled": 0, "rental_uris": {"android": "https://dc.lft.to/lastmile_qr_scan", "ios": "https://dc.lft.to/lastmile_qr_scan"}, "is_reserved": 0, "name": "5ef7978e5bcfc1ded4472772ba370285", "lon": -77.028302, "type": "electric_bike", "bike_id": "5ef7978e5bcfc1ded4472772ba370285", "fusion_lon": 0.0, "lat": 38.93297283333333, "fusion_lat": 0.0}, {"is_disabled": 0, "rental_uris": {"android": "https://dc.lft.to/lastmile_qr_scan", "ios": "https://dc.lft.to/lastmile_qr_scan"}, "is_reserved": 0, "name": "6646379ffbc7805dfb709d5768e92f9c", "lon": -77.03340916666667, "type": "electric_scooter", "bike_id": "6646379ffbc7805dfb709d5768e92f9c", "fusion_lon": 0.0, "lat": 38.917935666666665, "fusion_lat": 0.0}, {"is_disabled": 0, "rental_uris": {"android": "https://dc.lft.to/lastmile_qr_scan", "ios": "https://dc.lft.to/lastmile_qr_scan"}, "is_reserved": 0, "name": "8bb2654cc83abbcb50065c3fd6fe711a", "lon": -77.02317233333333, "type": "electric_scooter", "bike_id": "8bb2654cc83abbcb50065c3fd6fe711a", "fusion_lon": 0.0, "lat": 38.92089516666667, "fusion_lat": 0.0}, {"is_disabled": 0, "rental_uris": {"android": "https://dc.lft.to/lastmile_qr_scan", "ios": "https://dc.lft.to/lastmile_qr_scan"}, "is_reserved": 0, "name": "975155e51efc694106a1f8fbe03d3b7d", "lon": -77.02176866666667, "type": "electric_scooter", "bike_id": "975155e51efc694106a1f8fbe03d3b7d", "fusion_lon": 0.0, "lat": 38.89477016666667, "fusion_lat": 0.0}, {"is_disabled": 0, "rental_uris": {"android": "https://dc.lft.to/lastmile_qr_scan", "ios": "https://dc.lft.to/lastmile_qr_scan"}, "is_reserved": 0, "name": "69f9c1ac97fd923fca05d6950d51a438", "lon": -77.03212716666667, "type": "electric_scooter", "bike_id": "69f9c1ac97fd923fca05d6950d51a438", "fusion_lon": 0.0, "lat": 38.918433, "fusion_lat": 0.0}, {"is_disabled": 0, "rental_uris": {"android": "https://dc.lft.to/lastmile_qr_scan", "ios": "https://dc.lft.to/lastmile_qr_scan"}, "is_reserved": 0, "name": "2543907ebcae16a0f3b8b0c5ca902013", "lon": -76.99634616666667, "type": "electric_scooter", "bike_id": "2543907ebcae16a0f3b8b0c5ca902013", "fusion_lon": 0.0, "lat": 38.84623833333333, "fusion_lat": 0.0}, {"is_disabled": 0, "rental_uris": {"android": "https://dc.lft.to/lastmile_qr_scan", "ios": "https://dc.lft.to/lastmile_qr_scan"}, "is_reserved": 0, "name": "0dc3cef00c35d178303b70e74fb466d4", "lon": -77.0392235, "type": "electric_scooter", "bike_id": "0dc3cef00c35d178303b70e74fb466d4", "fusion_lon": 0.0, "lat": 38.9191525, "fusion_lat": 0.0}, {"is_disabled": 0, "rental_uris": {"android": "https://dc.lft.to/lastmile_qr_scan", "ios": "https://dc.lft.to/lastmile_qr_scan"}, "is_reserved": 0, "name": "333d3899ecb9540136c4c05d10903b60", "lon": -77.12739983333333, "type": "electric_bike", "bike_id": "333d3899ecb9540136c4c05d10903b60", "fusion_lon": 0.0, "lat": 38.89566333333333, "fusion_lat": 0.0}, {"is_disabled": 0, "rental_uris": {"android": "https://dc.lft.to/lastmile_qr_scan", "ios": "https://dc.lft.to/lastmile_qr_scan"}, "is_reserved": 0, "name": "c6b367ea8c857c03c965eb9f001c6ca6", "lon": -76.930545, "type": "electric_scooter", "bike_id": "c6b367ea8c857c03c965eb9f001c6ca6", "fusion_lon": 0.0, "lat": 38.8979615, "fusion_lat": 0.0}, {"is_disabled": 0, "rental_uris": {"android": "https://dc.lft.to/lastmile_qr_scan", "ios": "https://dc.lft.to/lastmile_qr_scan"}, "is_reserved": 0, "name": "3ae0fef3b94676e2ee8dbd1511a402fd", "lon": -77.0406045, "type": "electric_scooter", "bike_id": "3ae0fef3b94676e2ee8dbd1511a402fd", "fusion_lon": 0.0, "lat": 38.900396, "fusion_lat": 0.0}, {"is_disabled": 0, "rental_uris": {"android": "https://dc.lft.to/lastmile_qr_scan", "ios": "https://dc.lft.to/lastmile_qr_scan"}, "is_reserved": 0, "name": "643ed293c38b621e5c18508a8e6cff26", "lon": -77.03642083333334, "type": "electric_scooter", "bike_id": "643ed293c38b621e5c18508a8e6cff26", "fusion_lon": 0.0, "lat": 38.9281065, "fusion_lat": 0.0}, {"is_disabled": 0, "rental_uris": {"android": "https://dc.lft.to/lastmile_qr_scan", "ios": "https://dc.lft.to/lastmile_qr_scan"}, "is_reserved": 0, "name": "04096e0199e349820dd6a65fb51e9a4e", "lon": -77.04159466666667, "type": "electric_scooter", "bike_id": "04096e0199e349820dd6a65fb51e9a4e", "fusion_lon": 0.0, "lat": 38.9142385, "fusion_lat": 0.0}, {"is_disabled": 0, "rental_uris": {"android": "https://dc.lft.to/lastmile_qr_scan", "ios": "https://dc.lft.to/lastmile_qr_scan"}, "is_reserved": 0, "name": "6079763c9c4ab99272daf14c658c93f8", "lon": -77.00591116666666, "type": "electric_scooter", "bike_id": "6079763c9c4ab99272daf14c658c93f8", "fusion_lon": 0.0, "lat": 38.927558, "fusion_lat": 0.0}, {"is_disabled": 0, "rental_uris": {"android": "https://dc.lft.to/lastmile_qr_scan", "ios": "https://dc.lft.to/lastmile_qr_scan"}, "is_reserved": 0, "name": "d2f041c0a66469dab43fe21bd473e70a", "lon": -77.0081675, "type": "electric_scooter", "bike_id": "d2f041c0a66469dab43fe21bd473e70a", "fusion_lon": 0.0, "lat": 38.88338266666667, "fusion_lat": 0.0}, {"is_disabled": 0, "rental_uris": {"android": "https://dc.lft.to/lastmile_qr_scan", "ios": "https://dc.lft.to/lastmile_qr_scan"}, "is_reserved": 0, "name": "52a8a2002e44fd45d7fbd5cbead63292", "lon": -77.01852933333333, "type": "electric_scooter", "bike_id": "52a8a2002e44fd45d7fbd5cbead63292", "fusion_lon": 0.0, "lat": 38.95428966666667, "fusion_lat": 0.0}, {"is_disabled": 0, "rental_uris": {"android": "https://dc.lft.to/lastmile_qr_scan", "ios": "https://dc.lft.to/lastmile_qr_scan"}, "is_reserved": 0, "name": "5e1ba73292e8ddd898d942588b5891e2", "lon": -77.00082533333334, "type": "electric_bike", "bike_id": "5e1ba73292e8ddd898d942588b5891e2", "fusion_lon": 0.0, "lat": 38.8859925, "fusion_lat": 0.0}, {"is_disabled": 0, "rental_uris": {"android": "https://dc.lft.to/lastmile_qr_scan", "ios": "https://dc.lft.to/lastmile_qr_scan"}, "is_reserved": 0, "name": "b7731de983cf16a0b455fdb0d4a1d0f8", "lon": -77.02123766666666, "type": "electric_bike", "bike_id": "b7731de983cf16a0b455fdb0d4a1d0f8", "fusion_lon": 0.0, "lat": 38.935796, "fusion_lat": 0.0}, {"is_disabled": 0, "rental_uris": {"android": "https://dc.lft.to/lastmile_qr_scan", "ios": "https://dc.lft.to/lastmile_qr_scan"}, "is_reserved": 0, "name": "4625883927e8665a7b6a12b084435d53", "lon": -76.99533933333333, "type": "electric_scooter", "bike_id": "4625883927e8665a7b6a12b084435d53", "fusion_lon": 0.0, "lat": 38.884184833333336, "fusion_lat": 0.0}, {"is_disabled": 0, "rental_uris": {"android": "https://dc.lft.to/lastmile_qr_scan", "ios": "https://dc.lft.to/lastmile_qr_scan"}, "is_reserved": 0, "name": "0735764a98c12d9b29899b4ba60825ce", "lon": -77.03254583333333, "type": "electric_scooter", "bike_id": "0735764a98c12d9b29899b4ba60825ce", "fusion_lon": 0.0, "lat": 38.9210485, "fusion_lat": 0.0}, {"is_disabled": 0, "rental_uris": {"android": "https://dc.lft.to/lastmile_qr_scan", "ios": "https://dc.lft.to/lastmile_qr_scan"}, "is_reserved": 0, "name": "81b89bc0cc7078280aedd87e9e538d13", "lon": -77.02372966666667, "type": "electric_scooter", "bike_id": "81b89bc0cc7078280aedd87e9e538d13", "fusion_lon": 0.0, "lat": 38.91907916666667, "fusion_lat": 0.0}, {"is_disabled": 0, "rental_uris": {"android": "https://dc.lft.to/lastmile_qr_scan", "ios": "https://dc.lft.to/lastmile_qr_scan"}, "is_reserved": 0, "name": "1d30fe784a4c44f1d937db557aab00db", "lon": -77.018959, "type": "electric_scooter", "bike_id": "1d30fe784a4c44f1d937db557aab00db", "fusion_lon": 0.0, "lat": 38.929574, "fusion_lat": 0.0}, {"is_disabled": 0, "rental_uris": {"android": "https://dc.lft.to/lastmile_qr_scan", "ios": "https://dc.lft.to/lastmile_qr_scan"}, "is_reserved": 0, "name": "0f2239c0eb5108ee913481b49c7ad4df", "lon": -77.0433055, "type": "electric_scooter", "bike_id": "0f2239c0eb5108ee913481b49c7ad4df", "fusion_lon": 0.0, "lat": 38.9234045, "fusion_lat": 0.0}, {"is_disabled": 0, "rental_uris": {"android": "https://dc.lft.to/lastmile_qr_scan", "ios": "https://dc.lft.to/lastmile_qr_scan"}, "is_reserved": 0, "name": "cf73c3a4f00b029bd595b5b7219f8b82", "lon": -77.008773, "type": "electric_scooter", "bike_id": "cf73c3a4f00b029bd595b5b7219f8b82", "fusion_lon": 0.0, "lat": 38.90574766666667, "fusion_lat": 0.0}, {"is_disabled": 0, "rental_uris": {"android": "https://dc.lft.to/lastmile_qr_scan", "ios": "https://dc.lft.to/lastmile_qr_scan"}, "is_reserved": 0, "name": "87d7aeaa8a7d3c81b00272d98d0127b5", "lon": -77.012312, "type": "electric_scooter", "bike_id": "87d7aeaa8a7d3c81b00272d98d0127b5", "fusion_lon": 0.0, "lat": 38.9072015, "fusion_lat": 0.0}, {"is_disabled": 0, "rental_uris": {"android": "https://dc.lft.to/lastmile_qr_scan", "ios": "https://dc.lft.to/lastmile_qr_scan"}, "is_reserved": 0, "name": "e2e36ee294394c68892cebc4d46e38af", "lon": -76.98816266666667, "type": "electric_scooter", "bike_id": "e2e36ee294394c68892cebc4d46e38af", "fusion_lon": 0.0, "lat": 38.9004045, "fusion_lat": 0.0}, {"is_disabled": 0, "rental_uris": {"android": "https://dc.lft.to/lastmile_qr_scan", "ios": "https://dc.lft.to/lastmile_qr_scan"}, "is_reserved": 0, "name": "3271fd95303b387c1d6693f0ce4b49b4", "lon": -76.9320395, "type": "electric_bike", "bike_id": "3271fd95303b387c1d6693f0ce4b49b4", "fusion_lon": 0.0, "lat": 38.87234483333334, "fusion_lat": 0.0}, {"is_disabled": 0, "rental_uris": {"android": "https://dc.lft.to/lastmile_qr_scan", "ios": "https://dc.lft.to/lastmile_qr_scan"}, "is_reserved": 0, "name": "ec70eaa9db5dabc130189baa3d4b9cab", "lon": -77.03441383333333, "type": "electric_scooter", "bike_id": "ec70eaa9db5dabc130189baa3d4b9cab", "fusion_lon": 0.0, "lat": 38.908888833333336, "fusion_lat": 0.0}, {"is_disabled": 0, "rental_uris": {"android": "https://dc.lft.to/lastmile_qr_scan", "ios": "https://dc.lft.to/lastmile_qr_scan"}, "is_reserved": 0, "name": "39a3e9b55f49c6477f2f21700d947145", "lon": -76.997031, "type": "electric_scooter", "bike_id": "39a3e9b55f49c6477f2f21700d947145", "fusion_lon": 0.0, "lat": 38.83865766666667, "fusion_lat": 0.0}, {"is_disabled": 0, "rental_uris": {"android": "https://dc.lft.to/lastmile_qr_scan", "ios": "https://dc.lft.to/lastmile_qr_scan"}, "is_reserved": 0, "name": "145eb0b89e540b226ca2b324b81ad598", "lon": -77.03904983333334, "type": "electric_scooter", "bike_id": "145eb0b89e540b226ca2b324b81ad598", "fusion_lon": 0.0, "lat": 38.9142775, "fusion_lat": 0.0}, {"is_disabled": 0, "rental_uris": {"android": "https://dc.lft.to/lastmile_qr_scan", "ios": "https://dc.lft.to/lastmile_qr_scan"}, "is_reserved": 0, "name": "9320f4c40be577cd14a1a6381fdae005", "lon": -76.980748, "type": "electric_scooter", "bike_id": "9320f4c40be577cd14a1a6381fdae005", "fusion_lon": 0.0, "lat": 38.91935566666667, "fusion_lat": 0.0}, {"is_disabled": 0, "rental_uris": {"android": "https://dc.lft.to/lastmile_qr_scan", "ios": "https://dc.lft.to/lastmile_qr_scan"}, "is_reserved": 0, "name": "6b2914f93c2d0e5720d6ed489e90a508", "lon": -76.98891933333333, "type": "electric_scooter", "bike_id": "6b2914f93c2d0e5720d6ed489e90a508", "fusion_lon": 0.0, "lat": 38.86675116666667, "fusion_lat": 0.0}, {"is_disabled": 0, "rental_uris": {"android": "https://dc.lft.to/lastmile_qr_scan", "ios": "https://dc.lft.to/lastmile_qr_scan"}, "is_reserved": 0, "name": "9ac3aa1bd5436f4d26d62d8cec39db98", "lon": -77.01175933333333, "type": "electric_scooter", "bike_id": "9ac3aa1bd5436f4d26d62d8cec39db98", "fusion_lon": 0.0, "lat": 38.8679965, "fusion_lat": 0.0}, {"is_disabled": 0, "rental_uris": {"android": "https://dc.lft.to/lastmile_qr_scan", "ios": "https://dc.lft.to/lastmile_qr_scan"}, "is_reserved": 0, "name": "5608f805b16ccba3d483683ce2fa035f", "lon": -77.344187, "type": "electric_bike", "bike_id": "5608f805b16ccba3d483683ce2fa035f", "fusion_lon": 0.0, "lat": 38.94593066666667, "fusion_lat": 0.0}, {"is_disabled": 0, "rental_uris": {"android": "https://dc.lft.to/lastmile_qr_scan", "ios": "https://dc.lft.to/lastmile_qr_scan"}, "is_reserved": 0, "name": "065e79b016e85371076f9fcb3f072dd4", "lon": -77.14332066666667, "type": "electric_bike", "bike_id": "065e79b016e85371076f9fcb3f072dd4", "fusion_lon": 0.0, "lat": 39.054635166666664, "fusion_lat": 0.0}, {"is_disabled": 0, "rental_uris": {"android": "https://dc.lft.to/lastmile_qr_scan", "ios": "https://dc.lft.to/lastmile_qr_scan"}, "is_reserved": 0, "name": "e39cddc768cd66dfc76434833deb6298", "lon": -77.03449383333333, "type": "electric_scooter", "bike_id": "e39cddc768cd66dfc76434833deb6298", "fusion_lon": 0.0, "lat": 38.916662333333335, "fusion_lat": 0.0}, {"is_disabled": 0, "rental_uris": {"android": "https://dc.lft.to/lastmile_qr_scan", "ios": "https://dc.lft.to/lastmile_qr_scan"}, "is_reserved": 0, "name": "ef927a13d6d746eaa81f00d3ba6c6761", "lon": -77.0330355, "type": "electric_scooter", "bike_id": "ef927a13d6d746eaa81f00d3ba6c6761", "fusion_lon": 0.0, "lat": 38.92746066666667, "fusion_lat": 0.0}, {"is_disabled": 0, "rental_uris": {"android": "https://dc.lft.to/lastmile_qr_scan", "ios": "https://dc.lft.to/lastmile_qr_scan"}, "is_reserved": 0, "name": "e50bd37fa6594f49582623c67f616bcf", "lon": -77.01229183333334, "type": "electric_scooter", "bike_id": "e50bd37fa6594f49582623c67f616bcf", "fusion_lon": 0.0, "lat": 38.9149725, "fusion_lat": 0.0}, {"is_disabled": 0, "rental_uris": {"android": "https://dc.lft.to/lastmile_qr_scan", "ios": "https://dc.lft.to/lastmile_qr_scan"}, "is_reserved": 0, "name": "aa8b864339e8a80364edce0e08e06eaa", "lon": -76.948954, "type": "electric_scooter", "bike_id": "aa8b864339e8a80364edce0e08e06eaa", "fusion_lon": 0.0, "lat": 38.895283, "fusion_lat": 0.0}, {"is_disabled": 0, "rental_uris": {"android": "https://dc.lft.to/lastmile_qr_scan", "ios": "https://dc.lft.to/lastmile_qr_scan"}, "is_reserved": 0, "name": "faec6e5a338763a5ee9b584d8efb9d7f", "lon": -77.06193816666666, "type": "electric_scooter", "bike_id": "faec6e5a338763a5ee9b584d8efb9d7f", "fusion_lon": 0.0, "lat": 38.93017966666667, "fusion_lat": 0.0}, {"is_disabled": 0, "rental_uris": {"android": "https://dc.lft.to/lastmile_qr_scan", "ios": "https://dc.lft.to/lastmile_qr_scan"}, "is_reserved": 0, "name": "b00057e01085adb043c11a3e823aa519", "lon": -77.03659183333333, "type": "electric_scooter", "bike_id": "b00057e01085adb043c11a3e823aa519", "fusion_lon": 0.0, "lat": 38.922569333333335, "fusion_lat": 0.0}, {"is_disabled": 0, "rental_uris": {"android": "https://dc.lft.to/lastmile_qr_scan", "ios": "https://dc.lft.to/lastmile_qr_scan"}, "is_reserved": 0, "name": "596f7b0746c2e0ce4135f1c06d878811", "lon": -77.07074483333334, "type": "electric_scooter", "bike_id": "596f7b0746c2e0ce4135f1c06d878811", "fusion_lon": 0.0, "lat": 38.919469666666664, "fusion_lat": 0.0}, {"is_disabled": 0, "rental_uris": {"android": "https://dc.lft.to/lastmile_qr_scan", "ios": "https://dc.lft.to/lastmile_qr_scan"}, "is_reserved": 0, "name": "42f3909f5af929229cb7d4946d383c39", "lon": -77.05131233333333, "type": "electric_scooter", "bike_id": "42f3909f5af929229cb7d4946d383c39", "fusion_lon": 0.0, "lat": 38.905901166666666, "fusion_lat": 0.0}, {"is_disabled": 0, "rental_uris": {"android": "https://dc.lft.to/lastmile_qr_scan", "ios": "https://dc.lft.to/lastmile_qr_scan"}, "is_reserved": 0, "name": "d3fc1a2e3801c1ebf426e0a11bb359d5", "lon": -76.99907116666667, "type": "electric_scooter", "bike_id": "d3fc1a2e3801c1ebf426e0a11bb359d5", "fusion_lon": 0.0, "lat": 38.90025033333333, "fusion_lat": 0.0}, {"is_disabled": 0, "rental_uris": {"android": "https://dc.lft.to/lastmile_qr_scan", "ios": "https://dc.lft.to/lastmile_qr_scan"}, "is_reserved": 0, "name": "b9dcb3645bbf86aebe537086f9525db8", "lon": -77.03464333333334, "type": "electric_scooter", "bike_id": "b9dcb3645bbf86aebe537086f9525db8", "fusion_lon": 0.0, "lat": 38.92156333333333, "fusion_lat": 0.0}, {"is_disabled": 0, "rental_uris": {"android": "https://dc.lft.to/lastmile_qr_scan", "ios": "https://dc.lft.to/lastmile_qr_scan"}, "is_reserved": 0, "name": "a6a330958ee040325631e911a8c7ff13", "lon": -76.952091, "type": "electric_scooter", "bike_id": "a6a330958ee040325631e911a8c7ff13", "fusion_lon": 0.0, "lat": 38.892511666666664, "fusion_lat": 0.0}, {"is_disabled": 0, "rental_uris": {"android": "https://dc.lft.to/lastmile_qr_scan", "ios": "https://dc.lft.to/lastmile_qr_scan"}, "is_reserved": 0, "name": "14d9db924ce88bc9cc27af57cfbc7faa", "lon": -77.0436265, "type": "electric_scooter", "bike_id": "14d9db924ce88bc9cc27af57cfbc7faa", "fusion_lon": 0.0, "lat": 38.8983285, "fusion_lat": 0.0}, {"is_disabled": 0, "rental_uris": {"android": "https://dc.lft.to/lastmile_qr_scan", "ios": "https://dc.lft.to/lastmile_qr_scan"}, "is_reserved": 0, "name": "a8af33b51adc8d8d9beafb759fdf7afc", "lon": -76.98372933333333, "type": "electric_scooter", "bike_id": "a8af33b51adc8d8d9beafb759fdf7afc", "fusion_lon": 0.0, "lat": 38.914955, "fusion_lat": 0.0}, {"is_disabled": 0, "rental_uris": {"android": "https://dc.lft.to/lastmile_qr_scan", "ios": "https://dc.lft.to/lastmile_qr_scan"}, "is_reserved": 0, "name": "4bc64a6d3eef6d4772ec90c1fd2e4b8f", "lon": -77.046556, "type": "electric_scooter", "bike_id": "4bc64a6d3eef6d4772ec90c1fd2e4b8f", "fusion_lon": 0.0, "lat": 38.90502216666667, "fusion_lat": 0.0}, {"is_disabled": 0, "rental_uris": {"android": "https://dc.lft.to/lastmile_qr_scan", "ios": "https://dc.lft.to/lastmile_qr_scan"}, "is_reserved": 0, "name": "b809249195d3a9a5ca203b208e58696d", "lon": -77.04460466666667, "type": "electric_scooter", "bike_id": "b809249195d3a9a5ca203b208e58696d", "fusion_lon": 0.0, "lat": 38.918625, "fusion_lat": 0.0}, {"is_disabled": 0, "rental_uris": {"android": "https://dc.lft.to/lastmile_qr_scan", "ios": "https://dc.lft.to/lastmile_qr_scan"}, "is_reserved": 0, "name": "87e9a5e8c73d86835074938b4347bf2d", "lon": -77.0790025, "type": "electric_bike", "bike_id": "87e9a5e8c73d86835074938b4347bf2d", "fusion_lon": 0.0, "lat": 38.839354, "fusion_lat": 0.0}, {"is_disabled": 0, "rental_uris": {"android": "https://dc.lft.to/lastmile_qr_scan", "ios": "https://dc.lft.to/lastmile_qr_scan"}, "is_reserved": 0, "name": "6984405eb1841ae52deaf35b68287f12", "lon": -77.0401505, "type": "electric_scooter", "bike_id": "6984405eb1841ae52deaf35b68287f12", "fusion_lon": 0.0, "lat": 38.9208495, "fusion_lat": 0.0}, {"is_disabled": 0, "rental_uris": {"android": "https://dc.lft.to/lastmile_qr_scan", "ios": "https://dc.lft.to/lastmile_qr_scan"}, "is_reserved": 0, "name": "40746d0f7adc57dbb82e9a28b71f6f65", "lon": -77.00333533333334, "type": "electric_scooter", "bike_id": "40746d0f7adc57dbb82e9a28b71f6f65", "fusion_lon": 0.0, "lat": 38.9046125, "fusion_lat": 0.0}, {"is_disabled": 0, "rental_uris": {"android": "https://dc.lft.to/lastmile_qr_scan", "ios": "https://dc.lft.to/lastmile_qr_scan"}, "is_reserved": 0, "name": "8b244faf496e44c91a08f06efbc81223", "lon": -77.03058933333334, "type": "electric_scooter", "bike_id": "8b244faf496e44c91a08f06efbc81223", "fusion_lon": 0.0, "lat": 38.89979666666667, "fusion_lat": 0.0}, {"is_disabled": 0, "rental_uris": {"android": "https://dc.lft.to/lastmile_qr_scan", "ios": "https://dc.lft.to/lastmile_qr_scan"}, "is_reserved": 0, "name": "71f50d33b6589cba6d7693d082586553", "lon": -77.02373166666666, "type": "electric_scooter", "bike_id": "71f50d33b6589cba6d7693d082586553", "fusion_lon": 0.0, "lat": 38.9325075, "fusion_lat": 0.0}, {"is_disabled": 0, "rental_uris": {"android": "https://dc.lft.to/lastmile_qr_scan", "ios": "https://dc.lft.to/lastmile_qr_scan"}, "is_reserved": 0, "name": "8ab5c6371c26aa3c84353d7f0032be1a", "lon": -76.93375066666667, "type": "electric_scooter", "bike_id": "8ab5c6371c26aa3c84353d7f0032be1a", "fusion_lon": 0.0, "lat": 38.89922966666666, "fusion_lat": 0.0}, {"is_disabled": 0, "rental_uris": {"android": "https://dc.lft.to/lastmile_qr_scan", "ios": "https://dc.lft.to/lastmile_qr_scan"}, "is_reserved": 0, "name": "a5dc253653844ee1d318e70d69455016", "lon": -76.96527416666666, "type": "electric_scooter", "bike_id": "a5dc253653844ee1d318e70d69455016", "fusion_lon": 0.0, "lat": 38.8762835, "fusion_lat": 0.0}, {"is_disabled": 0, "rental_uris": {"android": "https://dc.lft.to/lastmile_qr_scan", "ios": "https://dc.lft.to/lastmile_qr_scan"}, "is_reserved": 0, "name": "2a332f49e23475302209eec3fad5ec43", "lon": -77.00917416666667, "type": "electric_scooter", "bike_id": "2a332f49e23475302209eec3fad5ec43", "fusion_lon": 0.0, "lat": 38.89557383333333, "fusion_lat": 0.0}, {"is_disabled": 0, "rental_uris": {"android": "https://dc.lft.to/lastmile_qr_scan", "ios": "https://dc.lft.to/lastmile_qr_scan"}, "is_reserved": 0, "name": "3ea7fe7665f09c1b5e0590851c331698", "lon": -77.02522966666666, "type": "electric_scooter", "bike_id": "3ea7fe7665f09c1b5e0590851c331698", "fusion_lon": 0.0, "lat": 38.919461, "fusion_lat": 0.0}, {"is_disabled": 0, "rental_uris": {"android": "https://dc.lft.to/lastmile_qr_scan", "ios": "https://dc.lft.to/lastmile_qr_scan"}, "is_reserved": 0, "name": "cea1de16f9604a3a41bb4cd83438e9d2", "lon": -77.02253583333334, "type": "electric_scooter", "bike_id": "cea1de16f9604a3a41bb4cd83438e9d2", "fusion_lon": 0.0, "lat": 38.886407166666665, "fusion_lat": 0.0}, {"is_disabled": 0, "rental_uris": {"android": "https://dc.lft.to/lastmile_qr_scan", "ios": "https://dc.lft.to/lastmile_qr_scan"}, "is_reserved": 0, "name": "3f2c1fed6fca895ff90b4d376b71e715", "lon": -76.99003683333333, "type": "electric_scooter", "bike_id": "3f2c1fed6fca895ff90b4d376b71e715", "fusion_lon": 0.0, "lat": 38.86504166666667, "fusion_lat": 0.0}, {"is_disabled": 0, "rental_uris": {"android": "https://dc.lft.to/lastmile_qr_scan", "ios": "https://dc.lft.to/lastmile_qr_scan"}, "is_reserved": 0, "name": "c5b6a7d93163fa0c0a9021b78357868b", "lon": -77.02847333333334, "type": "electric_scooter", "bike_id": "c5b6a7d93163fa0c0a9021b78357868b", "fusion_lon": 0.0, "lat": 38.922412, "fusion_lat": 0.0}, {"is_disabled": 0, "rental_uris": {"android": "https://dc.lft.to/lastmile_qr_scan", "ios": "https://dc.lft.to/lastmile_qr_scan"}, "is_reserved": 0, "name": "66da0057db025786204dac31b05dc6ad", "lon": -77.01256483333333, "type": "electric_scooter", "bike_id": "66da0057db025786204dac31b05dc6ad", "fusion_lon": 0.0, "lat": 38.908463166666664, "fusion_lat": 0.0}, {"is_disabled": 0, "rental_uris": {"android": "https://dc.lft.to/lastmile_qr_scan", "ios": "https://dc.lft.to/lastmile_qr_scan"}, "is_reserved": 0, "name": "8ecb423b654fb04bdb9ecd4d29f31a2d", "lon": -77.02984983333333, "type": "electric_scooter", "bike_id": "8ecb423b654fb04bdb9ecd4d29f31a2d", "fusion_lon": 0.0, "lat": 38.90712533333333, "fusion_lat": 0.0}, {"is_disabled": 0, "rental_uris": {"android": "https://dc.lft.to/lastmile_qr_scan", "ios": "https://dc.lft.to/lastmile_qr_scan"}, "is_reserved": 0, "name": "95af02be5a194c3d319e82cf9328d0bd", "lon": -77.03189333333333, "type": "electric_bike", "bike_id": "95af02be5a194c3d319e82cf9328d0bd", "fusion_lon": 0.0, "lat": 38.920016333333336, "fusion_lat": 0.0}, {"is_disabled": 0, "rental_uris": {"android": "https://dc.lft.to/lastmile_qr_scan", "ios": "https://dc.lft.to/lastmile_qr_scan"}, "is_reserved": 0, "name": "75f46bc4813c54169a6f9b917bec74f0", "lon": -77.04192016666667, "type": "electric_scooter", "bike_id": "75f46bc4813c54169a6f9b917bec74f0", "fusion_lon": 0.0, "lat": 38.916769, "fusion_lat": 0.0}, {"is_disabled": 0, "rental_uris": {"android": "https://dc.lft.to/lastmile_qr_scan", "ios": "https://dc.lft.to/lastmile_qr_scan"}, "is_reserved": 0, "name": "0e0cce09b1a3929cc8e5364aea884f52", "lon": -77.11501633333333, "type": "electric_bike", "bike_id": "0e0cce09b1a3929cc8e5364aea884f52", "fusion_lon": 0.0, "lat": 38.88208266666667, "fusion_lat": 0.0}, {"is_disabled": 0, "rental_uris": {"android": "https://dc.lft.to/lastmile_qr_scan", "ios": "https://dc.lft.to/lastmile_qr_scan"}, "is_reserved": 0, "name": "df97dcdf99721dca92b43a90dbcdd7f1", "lon": -77.05927266666667, "type": "electric_scooter", "bike_id": "df97dcdf99721dca92b43a90dbcdd7f1", "fusion_lon": 0.0, "lat": 38.86241666666667, "fusion_lat": 0.0}, {"is_disabled": 0, "rental_uris": {"android": "https://dc.lft.to/lastmile_qr_scan", "ios": "https://dc.lft.to/lastmile_qr_scan"}, "is_reserved": 0, "name": "258278c3afd2127ee8261ff6e9332230", "lon": -77.02191933333333, "type": "electric_scooter", "bike_id": "258278c3afd2127ee8261ff6e9332230", "fusion_lon": 0.0, "lat": 38.909774666666664, "fusion_lat": 0.0}, {"is_disabled": 0, "rental_uris": {"android": "https://dc.lft.to/lastmile_qr_scan", "ios": "https://dc.lft.to/lastmile_qr_scan"}, "is_reserved": 0, "name": "219f7cf4749cb3cdca202a2a0f335a0e", "lon": -77.03087216666667, "type": "electric_scooter", "bike_id": "219f7cf4749cb3cdca202a2a0f335a0e", "fusion_lon": 0.0, "lat": 38.92240916666667, "fusion_lat": 0.0}, {"is_disabled": 0, "rental_uris": {"android": "https://dc.lft.to/lastmile_qr_scan", "ios": "https://dc.lft.to/lastmile_qr_scan"}, "is_reserved": 0, "name": "d0ce55e1359baaf12a8c75a320bf9ba3", "lon": -76.97996983333333, "type": "electric_scooter", "bike_id": "d0ce55e1359baaf12a8c75a320bf9ba3", "fusion_lon": 0.0, "lat": 38.88875083333333, "fusion_lat": 0.0}, {"is_disabled": 0, "rental_uris": {"android": "https://dc.lft.to/lastmile_qr_scan", "ios": "https://dc.lft.to/lastmile_qr_scan"}, "is_reserved": 0, "name": "bf159d58847b6a91272a46507aa9796d", "lon": -77.0218155, "type": "electric_scooter", "bike_id": "bf159d58847b6a91272a46507aa9796d", "fusion_lon": 0.0, "lat": 38.90169066666667, "fusion_lat": 0.0}, {"is_disabled": 0, "rental_uris": {"android": "https://dc.lft.to/lastmile_qr_scan", "ios": "https://dc.lft.to/lastmile_qr_scan"}, "is_reserved": 0, "name": "7bb2a487305a10c8d7e07168a0cfb948", "lon": -76.98471683333334, "type": "electric_scooter", "bike_id": "7bb2a487305a10c8d7e07168a0cfb948", "fusion_lon": 0.0, "lat": 38.89352616666667, "fusion_lat": 0.0}, {"is_disabled": 0, "rental_uris": {"android": "https://dc.lft.to/lastmile_qr_scan", "ios": "https://dc.lft.to/lastmile_qr_scan"}, "is_reserved": 0, "name": "5e40f7ebefd849ec9a79283c4dee15da", "lon": -76.97737683333334, "type": "electric_scooter", "bike_id": "5e40f7ebefd849ec9a79283c4dee15da", "fusion_lon": 0.0, "lat": 38.8948745, "fusion_lat": 0.0}, {"is_disabled": 0, "rental_uris": {"android": "https://dc.lft.to/lastmile_qr_scan", "ios": "https://dc.lft.to/lastmile_qr_scan"}, "is_reserved": 0, "name": "658dbf46d980d6248ec4d16fc6d045d1", "lon": -77.03841483333333, "type": "electric_scooter", "bike_id": "658dbf46d980d6248ec4d16fc6d045d1", "fusion_lon": 0.0, "lat": 38.903839833333336, "fusion_lat": 0.0}, {"is_disabled": 0, "rental_uris": {"android": "https://dc.lft.to/lastmile_qr_scan", "ios": "https://dc.lft.to/lastmile_qr_scan"}, "is_reserved": 0, "name": "8689258d47141031c1739acd02560652", "lon": -77.032268, "type": "electric_scooter", "bike_id": "8689258d47141031c1739acd02560652", "fusion_lon": 0.0, "lat": 38.90958166666667, "fusion_lat": 0.0}, {"is_disabled": 0, "rental_uris": {"android": "https://dc.lft.to/lastmile_qr_scan", "ios": "https://dc.lft.to/lastmile_qr_scan"}, "is_reserved": 0, "name": "0e77e0fab6e06b053feaa5ac95cbb566", "lon": -77.02955433333334, "type": "electric_scooter", "bike_id": "0e77e0fab6e06b053feaa5ac95cbb566", "fusion_lon": 0.0, "lat": 38.9119795, "fusion_lat": 0.0}, {"is_disabled": 0, "rental_uris": {"android": "https://dc.lft.to/lastmile_qr_scan", "ios": "https://dc.lft.to/lastmile_qr_scan"},