{"data": {"bikes": [{"lat": 38.8999105, "fusion_lon": 0.0, "fusion_lat": 0.0, "is_disabled": 0, "type": "electric_scooter", "lon": -77.0317585, "rental_uris": {"android": "https://dc.lft.to/lastmile_qr_scan", "ios": "https://dc.lft.to/lastmile_qr_scan"}, "is_reserved": 0, "bike_id": "2a9dcd0998db807b0bcf6efd49958305", "name": "2a9dcd0998db807b0bcf6efd49958305"}, {"lat": 38.924133499999996, "fusion_lon": 0.0, "fusion_lat": 0.0, "is_disabled": 0, "type": "electric_scooter", "lon": -77.02002866666666, "rental_uris": {"android": "https://dc.lft.to/lastmile_qr_scan", "ios": "https://dc.lft.to/lastmile_qr_scan"}, "is_reserved": 0, "bike_id": "9753749148dbb307647c3e7b308c2079", "name": "9753749148dbb307647c3e7b308c2079"}, {"lat": 38.908463833333336, "fusion_lon": 0.0, "fusion_lat": 0.0, "is_disabled": 0, "type": "electric_scooter", "lon": -77.02599166666667, "rental_uris": {"android": "https://dc.lft.to/lastmile_qr_scan", "ios": "https://dc.lft.to/lastmile_qr_scan"}, "is_reserved": 0, "bike_id": "3bf97d93067729cfc36c97fbd9c528b0", "name": "3bf97d93067729cfc36c97fbd9c528b0"}, {"lat": 38.903218833333334, "fusion_lon": 0.0, "fusion_lat": 0.0, "is_disabled": 0, "type": "electric_scooter", "lon": -77.0517335, "rental_uris": {"android": "https://dc.lft.to/lastmile_qr_scan", "ios": "https://dc.lft.to/lastmile_qr_scan"}, "is_reserved": 0, "bike_id": "c7becc2ce9a9ec2a48f7f0303bad95c9", "name": "c7becc2ce9a9ec2a48f7f0303bad95c9"}, {"lat": 38.91272766666667, "fusion_lon": 0.0, "fusion_lat": 0.0, "is_disabled": 0, "type": "electric_scooter", "lon": -77.03267466666667, "rental_uris": {"android": "https://dc.lft.to/lastmile_qr_scan", "ios": "https://dc.lft.to/lastmile_qr_scan"}, "is_reserved": 0, "bike_id": "16590f1f45638afd6bab63f40ccc48d6", "name": "16590f1f45638afd6bab63f40ccc48d6"}, {"lat": 38.95882366666667, "fusion_lon": 0.0, "fusion_lat": 0.0, "is_disabled": 0, "type": "electric_scooter", "lon": -77.00770983333334, "rental_uris": {"android": "https://dc.lft.to/lastmile_qr_scan", "ios": "https://dc.lft.to/lastmile_qr_scan"}, "is_reserved": 0, "bike_id": "33b4194daacc9c655e18aae30dc57ca8", "name": "33b4194daacc9c655e18aae30dc57ca8"}, {"lat": 38.919704833333334, "fusion_lon": 0.0, "fusion_lat": 0.0, "is_disabled": 0, "type": "electric_scooter", "lon": -77.0184585, "rental_uris": {"android": "https://dc.lft.to/lastmile_qr_scan", "ios": "https://dc.lft.to/lastmile_qr_scan"}, "is_reserved": 0, "bike_id": "090faa424d0bfaeb39aa86d18246dd81", "name": "090faa424d0bfaeb39aa86d18246dd81"}, {"lat": 38.93969633333333, "fusion_lon": 0.0, "fusion_lat": 0.0, "is_disabled": 0, "type": "electric_scooter", "lon": -77.03206233333333, "rental_uris": {"android": "https://dc.lft.to/lastmile_qr_scan", "ios": "https://dc.lft.to/lastmile_qr_scan"}, "is_reserved": 0, "bike_id": "ae659a70efd7fc8d94284c481ef5d6c4", "name": "ae659a70efd7fc8d94284c481ef5d6c4"}, {"lat": 38.8447835, "fusion_lon": 0.0, "fusion_lat": 0.0, "is_disabled": 0, "type": "electric_bike", "lon": -76.97217133333334, "rental_uris": {"android": "https://dc.lft.to/lastmile_qr_scan", "ios": "https://dc.lft.to/lastmile_qr_scan"}, "is_reserved": 0, "bike_id": "f89651f17229cf592d0bb0a30257cd12", "name": "f89651f17229cf592d0bb0a30257cd12"}, {"lat": 38.902700833333334, "fusion_lon": 0.0, "fusion_lat": 0.0, "is_disabled": 0, "type": "electric_scooter", "lon": -77.03203683333334, "rental_uris": {"android": "https://dc.lft.to/lastmile_qr_scan", "ios": "https://dc.lft.to/lastmile_qr_scan"}, "is_reserved": 0, "bike_id": "486df9bafd76498e550cb81362dbec04", "name": "486df9bafd76498e550cb81362dbec04"}, {"lat": 38.949708666666666, "fusion_lon": 0.0, "fusion_lat": 0.0, "is_disabled": 0, "type": "electric_scooter", "lon": -77.06751833333334, "rental_uris": {"android": "https://dc.lft.to/lastmile_qr_scan", "ios": "https://dc.lft.to/lastmile_qr_scan"}, "is_reserved": 0, "bike_id": "662f16c07da2cf6507e71f97fe08b11b", "name": "662f16c07da2cf6507e71f97fe08b11b"}, {"lat": 38.86717983333333, "fusion_lon": 0.0, "fusion_lat": 0.0, "is_disabled": 0, "type": "electric_bike", "lon": -76.9894945, "rental_uris": {"android": "https://dc.lft.to/lastmile_qr_scan", "ios": "https://dc.lft.to/lastmile_qr_scan"}, "is_reserved": 0, "bike_id": "673c6ca5d03ecf9a4566e45cc999ce73", "name": "673c6ca5d03ecf9a4566e45cc999ce73"}, {"lat": 38.93275116666667, "fusion_lon": 0.0, "fusion_lat": 0.0, "is_disabled": 0, "type": "electric_scooter", "lon": -77.03915016666667, "rental_uris": {"android": "https://dc.lft.to/lastmile_qr_scan", "ios": "https://dc.lft.to/lastmile_qr_scan"}, "is_reserved": 0, "bike_id": "59bff3802ae888a2d6d895f944952af3", "name": "59bff3802ae888a2d6d895f944952af3"}, {"lat": 38.90015666666667, "fusion_lon": 0.0, "fusion_lat": 0.0, "is_disabled": 0, "type": "electric_scooter", "lon": -76.99293533333334, "rental_uris": {"android": "https://dc.lft.to/lastmile_qr_scan", "ios": "https://dc.lft.to/lastmile_qr_scan"}, "is_reserved": 0, "bike_id": "f090b6a1385726073ba11eef711e796e", "name": "f090b6a1385726073ba11eef711e796e"}, {"lat": 38.9002015, "fusion_lon": 0.0, "fusion_lat": 0.0, "is_disabled": 0, "type": "electric_scooter", "lon": -77.00162516666667, "rental_uris": {"android": "https://dc.lft.to/lastmile_qr_scan", "ios": "https://dc.lft.to/lastmile_qr_scan"}, "is_reserved": 0, "bike_id": "4386b73d3a5c7c8a76f92e88c9fc441e", "name": "4386b73d3a5c7c8a76f92e88c9fc441e"}, {"lat": 38.90926433333333, "fusion_lon": 0.0, "fusion_lat": 0.0, "is_disabled": 0, "type": "electric_scooter", "lon": -77.07276966666667, "rental_uris": {"android": "https://dc.lft.to/lastmile_qr_scan", "ios": "https://dc.lft.to/lastmile_qr_scan"}, "is_reserved": 0, "bike_id": "7699faa396d315ea1f361849511734e1", "name": "7699faa396d315ea1f361849511734e1"}, {"lat": 38.90571, "fusion_lon": 0.0, "fusion_lat": 0.0, "is_disabled": 0, "type": "electric_scooter", "lon": -77.02419566666667, "rental_uris": {"android": "https://dc.lft.to/lastmile_qr_scan", "ios": "https://dc.lft.to/lastmile_qr_scan"}, "is_reserved": 0, "bike_id": "012e553e409a39691a718c65e6976bdc", "name": "012e553e409a39691a718c65e6976bdc"}, {"lat": 38.900097833333334, "fusion_lon": 0.0, "fusion_lat": 0.0, "is_disabled": 0, "type": "electric_scooter", "lon": -77.0458335, "rental_uris": {"android": "https://dc.lft.to/lastmile_qr_scan", "ios": "https://dc.lft.to/lastmile_qr_scan"}, "is_reserved": 0, "bike_id": "d60374e1e9024de29263632b4d188259", "name": "d60374e1e9024de29263632b4d188259"}, {"lat": 38.90977083333333, "fusion_lon": 0.0, "fusion_lat": 0.0, "is_disabled": 0, "type": "electric_scooter", "lon": -77.04124366666667, "rental_uris": {"android": "https://dc.lft.to/lastmile_qr_scan", "ios": "https://dc.lft.to/lastmile_qr_scan"}, "is_reserved": 0, "bike_id": "e205668f02a88615ac9545d018a8bc87", "name": "e205668f02a88615ac9545d018a8bc87"}, {"lat": 38.92463266666667, "fusion_lon": 0.0, "fusion_lat": 0.0, "is_disabled": 0, "type": "electric_scooter", "lon": -77.02966066666667, "rental_uris": {"android": "https://dc.lft.to/lastmile_qr_scan", "ios": "https://dc.lft.to/lastmile_qr_scan"}, "is_reserved": 0, "bike_id": "260183d58a366390317c2ca683c1aa2f", "name": "260183d58a366390317c2ca683c1aa2f"}, {"lat": 38.91831333333333, "fusion_lon": 0.0, "fusion_lat": 0.0, "is_disabled": 0, "type": "electric_scooter", "lon": -77.02317516666666, "rental_uris": {"android": "https://dc.lft.to/lastmile_qr_scan", "ios": "https://dc.lft.to/lastmile_qr_scan"}, "is_reserved": 0, "bike_id": "8cb85c428893a115c29a3983e68952d8", "name": "8cb85c428893a115c29a3983e68952d8"}, {"lat": 38.931601, "fusion_lon": 0.0, "fusion_lat": 0.0, "is_disabled": 0, "type": "electric_scooter", "lon": -77.078377, "rental_uris": {"android": "https://dc.lft.to/lastmile_qr_scan", "ios": "https://dc.lft.to/lastmile_qr_scan"}, "is_reserved": 0, "bike_id": "70f7f619afacc26584fed96615887d4e", "name": "70f7f619afacc26584fed96615887d4e"}, {"lat": 38.91118633333333, "fusion_lon": 0.0, "fusion_lat": 0.0, "is_disabled": 0, "type": "electric_scooter", "lon": -77.04219816666667, "rental_uris": {"android": "https://dc.lft.to/lastmile_qr_scan", "ios": "https://dc.lft.to/lastmile_qr_scan"}, "is_reserved": 0, "bike_id": "b6d39c68cf9943629beadbbbc4426224", "name": "b6d39c68cf9943629beadbbbc4426224"}, {"lat": 38.894348, "fusion_lon": 0.0, "fusion_lat": 0.0, "is_disabled": 0, "type": "electric_scooter", "lon": -76.97912616666666, "rental_uris": {"android": "https://dc.lft.to/lastmile_qr_scan", "ios": "https://dc.lft.to/lastmile_qr_scan"}, "is_reserved": 0, "bike_id": "ab63ea624416f9d8e25364bda63784c6", "name": "ab63ea624416f9d8e25364bda63784c6"}, {"lat": 38.89297233333333, "fusion_lon": 0.0, "fusion_lat": 0.0, "is_disabled": 0, "type": "electric_scooter", "lon": -77.04874866666667, "rental_uris": {"android": "https://dc.lft.to/lastmile_qr_scan", "ios": "https://dc.lft.to/lastmile_qr_scan"}, "is_reserved": 0, "bike_id": "fca97260ea759d29736f6b5684dee626", "name": "fca97260ea759d29736f6b5684dee626"}, {"lat": 38.9036185, "fusion_lon": 0.0, "fusion_lat": 0.0, "is_disabled": 0, "type": "electric_scooter", "lon": -77.04492866666666, "rental_uris": {"android": "https://dc.lft.to/lastmile_qr_scan", "ios": "https://dc.lft.to/lastmile_qr_scan"}, "is_reserved": 0, "bike_id": "ed044092b8cc380e458a35d633e7ff91", "name": "ed044092b8cc380e458a35d633e7ff91"}, {"lat": 38.93582716666667, "fusion_lon": 0.0, "fusion_lat": 0.0, "is_disabled": 0, "type": "electric_bike", "lon": -77.10690116666666, "rental_uris": {"android": "https://dc.lft.to/lastmile_qr_scan", "ios": "https://dc.lft.to/lastmile_qr_scan"}, "is_reserved": 0, "bike_id": "44ac65a84ede2994f9850f1025d44eef", "name": "44ac65a84ede2994f9850f1025d44eef"}, {"lat": 38.900226833333335, "fusion_lon": 0.0, "fusion_lat": 0.0, "is_disabled": 0, "type": "electric_scooter", "lon": -76.9771655, "rental_uris": {"android": "https://dc.lft.to/lastmile_qr_scan", "ios": "https://dc.lft.to/lastmile_qr_scan"}, "is_reserved": 0, "bike_id": "45d15a3ae93e9c7915eacfd9ae1b3426", "name": "45d15a3ae93e9c7915eacfd9ae1b3426"}, {"lat": 38.914228, "fusion_lon": 0.0, "fusion_lat": 0.0, "is_disabled": 0, "type": "electric_scooter", "lon": -77.07106983333334, "rental_uris": {"android": "https://dc.lft.to/lastmile_qr_scan", "ios": "https://dc.lft.to/lastmile_qr_scan"}, "is_reserved": 0, "bike_id": "248ea29e685ebea1007310b7dda579a4", "name": "248ea29e685ebea1007310b7dda579a4"}, {"lat": 38.90277183333333, "fusion_lon": 0.0, "fusion_lat": 0.0, "is_disabled": 0, "type": "electric_scooter", "lon": -77.026468, "rental_uris": {"android": "https://dc.lft.to/lastmile_qr_scan", "ios": "https://dc.lft.to/lastmile_qr_scan"}, "is_reserved": 0, "bike_id": "a6c2e68fe35800001d75e86b1dff0fb8", "name": "a6c2e68fe35800001d75e86b1dff0fb8"}, {"lat": 38.91709633333333, "fusion_lon": 0.0, "fusion_lat": 0.0, "is_disabled": 0, "type": "electric_scooter", "lon": -77.04227866666666, "rental_uris": {"android": "https://dc.lft.to/lastmile_qr_scan", "ios": "https://dc.lft.to/lastmile_qr_scan"}, "is_reserved": 0, "bike_id": "6f00ce49d9d8ef4c48240f928ddda138", "name": "6f00ce49d9d8ef4c48240f928ddda138"}, {"lat": 38.897395333333336, "fusion_lon": 0.0, "fusion_lat": 0.0, "is_disabled": 0, "type": "electric_scooter", "lon": -77.029746, "rental_uris": {"android": "https://dc.lft.to/lastmile_qr_scan", "ios": "https://dc.lft.to/lastmile_qr_scan"}, "is_reserved": 0, "bike_id": "dbc758a2c356c93c5fc5a7f70b953636", "name": "dbc758a2c356c93c5fc5a7f70b953636"}, {"lat": 38.8934275, "fusion_lon": 0.0, "fusion_lat": 0.0, "is_disabled": 0, "type": "electric_scooter", "lon": -77.0465815, "rental_uris": {"android": "https://dc.lft.to/lastmile_qr_scan", "ios": "https://dc.lft.to/lastmile_qr_scan"}, "is_reserved": 0, "bike_id": "8e49d5231bad8272973faa9cc93da079", "name": "8e49d5231bad8272973faa9cc93da079"}, {"lat": 38.887428, "fusion_lon": 0.0, "fusion_lat": 0.0, "is_disabled": 0, "type": "electric_scooter", "lon": -77.02270933333334, "rental_uris": {"android": "https://dc.lft.to/lastmile_qr_scan", "ios": "https://dc.lft.to/lastmile_qr_scan"}, "is_reserved": 0, "bike_id": "d70ee8d50b2a48723008cb8fe30394e2", "name": "d70ee8d50b2a48723008cb8fe30394e2"}, {"lat": 38.9039145, "fusion_lon": 0.0, "fusion_lat": 0.0, "is_disabled": 0, "type": "electric_scooter", "lon": -77.03638683333334, "rental_uris": {"android": "https://dc.lft.to/lastmile_qr_scan", "ios": "https://dc.lft.to/lastmile_qr_scan"}, "is_reserved": 0, "bike_id": "240181d683401225a6f85d359223f99b", "name": "240181d683401225a6f85d359223f99b"}, {"lat": 38.9267215, "fusion_lon": 0.0, "fusion_lat": 0.0, "is_disabled": 0, "type": "electric_scooter", "lon": -77.07836633333334, "rental_uris": {"android": "https://dc.lft.to/lastmile_qr_scan", "ios": "https://dc.lft.to/lastmile_qr_scan"}, "is_reserved": 0, "bike_id": "c5ddb2108fb3525f3202b59755101549", "name": "c5ddb2108fb3525f3202b59755101549"}, {"lat": 38.898806, "fusion_lon": 0.0, "fusion_lat": 0.0, "is_disabled": 0, "type": "electric_scooter", "lon": -76.931812, "rental_uris": {"android": "https://dc.lft.to/lastmile_qr_scan", "ios": "https://dc.lft.to/lastmile_qr_scan"}, "is_reserved": 0, "bike_id": "a1f52c295288929bff151d828cddd732", "name": "a1f52c295288929bff151d828cddd732"}, {"lat": 38.884919333333336, "fusion_lon": 0.0, "fusion_lat": 0.0, "is_disabled": 0, "type": "electric_scooter", "lon": -77.00711983333333, "rental_uris": {"android": "https://dc.lft.to/lastmile_qr_scan", "ios": "https://dc.lft.to/lastmile_qr_scan"}, "is_reserved": 0, "bike_id": "c47086f5385f7450a4c28c8d477fab15", "name": "c47086f5385f7450a4c28c8d477fab15"}, {"lat": 38.894785666666664, "fusion_lon": 0.0, "fusion_lat": 0.0, "is_disabled": 0, "type": "electric_scooter", "lon": -77.02781016666667, "rental_uris": {"android": "https://dc.lft.to/lastmile_qr_scan", "ios": "https://dc.lft.to/lastmile_qr_scan"}, "is_reserved": 0, "bike_id": "510c41c9031e26d990eebeee91ae98d9", "name": "510c41c9031e26d990eebeee91ae98d9"}, {"lat": 38.90485133333333, "fusion_lon": 0.0, "fusion_lat": 0.0, "is_disabled": 0, "type": "electric_scooter", "lon": -77.04336016666667, "rental_uris": {"android": "https://dc.lft.to/lastmile_qr_scan", "ios": "https://dc.lft.to/lastmile_qr_scan"}, "is_reserved": 0, "bike_id": "afde45458cfde7a0cf7ffa0fab756c73", "name": "afde45458cfde7a0cf7ffa0fab756c73"}, {"lat": 38.922488666666666, "fusion_lon": 0.0, "fusion_lat": 0.0, "is_disabled": 0, "type": "electric_scooter", "lon": -77.099541, "rental_uris": {"android": "https://dc.lft.to/lastmile_qr_scan", "ios": "https://dc.lft.to/lastmile_qr_scan"}, "is_reserved": 0, "bike_id": "b3d6a1d3868c0f7182cb9526271fcd0b", "name": "b3d6a1d3868c0f7182cb9526271fcd0b"}, {"lat": 38.90076583333333, "fusion_lon": 0.0, "fusion_lat": 0.0, "is_disabled": 0, "type": "electric_scooter", "lon": -77.002059, "rental_uris": {"android": "https://dc.lft.to/lastmile_qr_scan", "ios": "https://dc.lft.to/lastmile_qr_scan"}, "is_reserved": 0, "bike_id": "670d7ea20588ae086cf5a74efc81e689", "name": "670d7ea20588ae086cf5a74efc81e689"}, {"lat": 38.93867616666667, "fusion_lon": 0.0, "fusion_lat": 0.0, "is_disabled": 0, "type": "electric_scooter", "lon": -77.026504, "rental_uris": {"android": "https://dc.lft.to/lastmile_qr_scan", "ios": "https://dc.lft.to/lastmile_qr_scan"}, "is_reserved": 0, "bike_id": "29d316332ee85394071135d05b6372cc", "name": "29d316332ee85394071135d05b6372cc"}, {"lat": 38.887565, "fusion_lon": 0.0, "fusion_lat": 0.0, "is_disabled": 0, "type": "electric_scooter", "lon": -77.01610116666667, "rental_uris": {"android": "https://dc.lft.to/lastmile_qr_scan", "ios": "https://dc.lft.to/lastmile_qr_scan"}, "is_reserved": 0, "bike_id": "1e15eb98da699967a66fd4942a23356e", "name": "1e15eb98da699967a66fd4942a23356e"}, {"lat": 38.9525595, "fusion_lon": 0.0, "fusion_lat": 0.0, "is_disabled": 0, "type": "electric_scooter", "lon": -77.00245166666667, "rental_uris": {"android": "https://dc.lft.to/lastmile_qr_scan", "ios": "https://dc.lft.to/lastmile_qr_scan"}, "is_reserved": 0, "bike_id": "e9715d6343149f1b46fdc6b3ea494cc4", "name": "e9715d6343149f1b46fdc6b3ea494cc4"}, {"lat": 38.878212, "fusion_lon": 0.0, "fusion_lat": 0.0, "is_disabled": 0, "type": "electric_scooter", "lon": -77.01935233333333, "rental_uris": {"android": "https://dc.lft.to/lastmile_qr_scan", "ios": "https://dc.lft.to/lastmile_qr_scan"}, "is_reserved": 0, "bike_id": "7f7107c055ca00b3cb3d5c4d7853336e", "name": "7f7107c055ca00b3cb3d5c4d7853336e"}, {"lat": 38.9265545, "fusion_lon": 0.0, "fusion_lat": 0.0, "is_disabled": 0, "type": "electric_scooter", "lon": -77.02475433333333, "rental_uris": {"android": "https://dc.lft.to/lastmile_qr_scan", "ios": "https://dc.lft.to/lastmile_qr_scan"}, "is_reserved": 0, "bike_id": "191dc4e372e4878724eddb1afaadf3f3", "name": "191dc4e372e4878724eddb1afaadf3f3"}, {"lat": 38.896203, "fusion_lon": 0.0, "fusion_lat": 0.0, "is_disabled": 0, "type": "electric_scooter", "lon": -77.02167916666667, "rental_uris": {"android": "https://dc.lft.to/lastmile_qr_scan", "ios": "https://dc.lft.to/lastmile_qr_scan"}, "is_reserved": 0, "bike_id": "7fe5bebb51bc0225308f2e6a94f44276", "name": "7fe5bebb51bc0225308f2e6a94f44276"}, {"lat": 38.913357, "fusion_lon": 0.0, "fusion_lat": 0.0, "is_disabled": 0, "type": "electric_scooter", "lon": -77.01997966666667, "rental_uris": {"android": "https://dc.lft.to/lastmile_qr_scan", "ios": "https://dc.lft.to/lastmile_qr_scan"}, "is_reserved": 0, "bike_id": "2b7606210c106de0bf1db13940ac0842", "name": "2b7606210c106de0bf1db13940ac0842"}, {"lat": 38.957386166666666, "fusion_lon": 0.0, "fusion_lat": 0.0, "is_disabled": 0, "type": "electric_bike", "lon": -77.0022355, "rental_uris": {"android": "https://dc.lft.to/lastmile_qr_scan", "ios": "https://dc.lft.to/lastmile_qr_scan"}, "is_reserved": 0, "bike_id": "a5328f7479ffb9cf94dedf43b7b06130", "name": "a5328f7479ffb9cf94dedf43b7b06130"}, {"lat": 38.9034205, "fusion_lon": 0.0, "fusion_lat": 0.0, "is_disabled": 0, "type": "electric_scooter", "lon": -77.04332833333333, "rental_uris": {"android": "https://dc.lft.to/lastmile_qr_scan", "ios": "https://dc.lft.to/lastmile_qr_scan"}, "is_reserved": 0, "bike_id": "af9c870f8d20b473f8905ef99b8a5cd6", "name": "af9c870f8d20b473f8905ef99b8a5cd6"}, {"lat": 38.9114005, "fusion_lon": 0.0, "fusion_lat": 0.0, "is_disabled": 0, "type": "electric_scooter", "lon": -76.99011383333334, "rental_uris": {"android": "https://dc.lft.to/lastmile_qr_scan", "ios": "https://dc.lft.to/lastmile_qr_scan"}, "is_reserved": 0, "bike_id": "00d038ce7133a06f08119f3b03269db4", "name": "00d038ce7133a06f08119f3b03269db4"}, {"lat": 38.88598116666667, "fusion_lon": 0.0, "fusion_lat": 0.0, "is_disabled": 0, "type": "electric_scooter", "lon": -76.95263566666667, "rental_uris": {"android": "https://dc.lft.to/lastmile_qr_scan", "ios": "https://dc.lft.to/lastmile_qr_scan"}, "is_reserved": 0, "bike_id": "e94bc55e0bcf905d140fd5a41ee998ea", "name": "e94bc55e0bcf905d140fd5a41ee998ea"}, {"lat": 38.9024235, "fusion_lon": 0.0, "fusion_lat": 0.0, "is_disabled": 0, "type": "electric_scooter", "lon": -77.04616133333333, "rental_uris": {"android": "https://dc.lft.to/lastmile_qr_scan", "ios": "https://dc.lft.to/lastmile_qr_scan"}, "is_reserved": 0, "bike_id": "acaf68b154b65a61d08ce8767922e409", "name": "acaf68b154b65a61d08ce8767922e409"}, {"lat": 38.90385366666667, "fusion_lon": 0.0, "fusion_lat": 0.0, "is_disabled": 0, "type": "electric_scooter", "lon": -77.0135405, "rental_uris": {"android": "https://dc.lft.to/lastmile_qr_scan", "ios": "https://dc.lft.to/lastmile_qr_scan"}, "is_reserved": 0, "bike_id": "93c545152f361d4a5e7eea5be1a4876e", "name": "93c545152f361d4a5e7eea5be1a4876e"}, {"lat": 38.903894666666666, "fusion_lon": 0.0, "fusion_lat": 0.0, "is_disabled": 0, "type": "electric_scooter", "lon": -76.97908433333333, "rental_uris": {"android": "https://dc.lft.to/lastmile_qr_scan", "ios": "https://dc.lft.to/lastmile_qr_scan"}, "is_reserved": 0, "bike_id": "ee9eaddf32a7560aab0c58d3ab39e9b4", "name": "ee9eaddf32a7560aab0c58d3ab39e9b4"}, {"lat": 38.88989083333333, "fusion_lon": 0.0, "fusion_lat": 0.0, "is_disabled": 0, "type": "electric_scooter", "lon": -76.99817283333333, "rental_uris": {"android": "https://dc.lft.to/lastmile_qr_scan", "ios": "https://dc.lft.to/lastmile_qr_scan"}, "is_reserved": 0, "bike_id": "862771ed226ec51802ea8247fdfb450d", "name": "862771ed226ec51802ea8247fdfb450d"}, {"lat": 38.91194266666667, "fusion_lon": 0.0, "fusion_lat": 0.0, "is_disabled": 0, "type": "electric_scooter", "lon": -77.038607, "rental_uris": {"android": "https://dc.lft.to/lastmile_qr_scan", "ios": "https://dc.lft.to/lastmile_qr_scan"}, "is_reserved": 0, "bike_id": "edf6d3522fa2487034f5b262d16e23c5", "name": "edf6d3522fa2487034f5b262d16e23c5"}, {"lat": 38.90064383333333, "fusion_lon": 0.0, "fusion_lat": 0.0, "is_disabled": 0, "type": "electric_scooter", "lon": -77.02965016666667, "rental_uris": {"android": "https://dc.lft.to/lastmile_qr_scan", "ios": "https://dc.lft.to/lastmile_qr_scan"}, "is_reserved": 0, "bike_id": "521514b4dbcac897aeb39bfcd38cae50", "name": "521514b4dbcac897aeb39bfcd38cae50"}, {"lat": 38.923778, "fusion_lon": 0.0, "fusion_lat": 0.0, "is_disabled": 0, "type": "electric_scooter", "lon": -77.03128083333333, "rental_uris": {"android": "https://dc.lft.to/lastmile_qr_scan", "ios": "https://dc.lft.to/lastmile_qr_scan"}, "is_reserved": 0, "bike_id": "13cc4bf6f1820c7b98202f5a97932c5a", "name": "13cc4bf6f1820c7b98202f5a97932c5a"}, {"lat": 38.893760666666665, "fusion_lon": 0.0, "fusion_lat": 0.0, "is_disabled": 0, "type": "electric_scooter", "lon": -77.047918, "rental_uris": {"android": "https://dc.lft.to/lastmile_qr_scan", "ios": "https://dc.lft.to/lastmile_qr_scan"}, "is_reserved": 0, "bike_id": "0ee31b216e0dd1a58cc781718c472e60", "name": "0ee31b216e0dd1a58cc781718c472e60"}, {"lat": 39.010387333333334, "fusion_lon": 0.0, "fusion_lat": 0.0, "is_disabled": 0, "type": "electric_bike", "lon": -76.91121333333334, "rental_uris": {"android": "https://dc.lft.to/lastmile_qr_scan", "ios": "https://dc.lft.to/lastmile_qr_scan"}, "is_reserved": 0, "bike_id": "c2a920cb94986ef5fc16c0409e87dc81", "name": "c2a920cb94986ef5fc16c0409e87dc81"}, {"lat": 38.884522833333335, "fusion_lon": 0.0, "fusion_lat": 0.0, "is_disabled": 0, "type": "electric_scooter", "lon": -77.0104585, "rental_uris": {"android": "https://dc.lft.to/lastmile_qr_scan", "ios": "https://dc.lft.to/lastmile_qr_scan"}, "is_reserved": 0, "bike_id": "8d066359ccaef8f3a1aa87898a55781b", "name": "8d066359ccaef8f3a1aa87898a55781b"}, {"lat": 38.90970266666667, "fusion_lon": 0.0, "fusion_lat": 0.0, "is_disabled": 0, "type": "electric_scooter", "lon": -77.03884783333334, "rental_uris": {"android": "https://dc.lft.to/lastmile_qr_scan", "ios": "https://dc.lft.to/lastmile_qr_scan"}, "is_reserved": 0, "bike_id": "98b1dc1ad29a58c7c26db6614c1207b9", "name": "98b1dc1ad29a58c7c26db6614c1207b9"}, {"lat": 38.90579416666667, "fusion_lon": 0.0, "fusion_lat": 0.0, "is_disabled": 0, "type": "electric_scooter", "lon": -77.04667033333334, "rental_uris": {"android": "https://dc.lft.to/lastmile_qr_scan", "ios": "https://dc.lft.to/lastmile_qr_scan"}, "is_reserved": 0, "bike_id": "c8dfd77339c686e2eeb475ffbd1e9020", "name": "c8dfd77339c686e2eeb475ffbd1e9020"}, {"lat": 38.91888816666667, "fusion_lon": 0.0, "fusion_lat": 0.0, "is_disabled": 0, "type": "electric_scooter", "lon": -77.02180066666666, "rental_uris": {"android": "https://dc.lft.to/lastmile_qr_scan", "ios": "https://dc.lft.to/lastmile_qr_scan"}, "is_reserved": 0, "bike_id": "de3173e0fd2b89fab776e94ed7ad5ef8", "name": "de3173e0fd2b89fab776e94ed7ad5ef8"}, {"lat": 38.892213166666664, "fusion_lon": 0.0, "fusion_lat": 0.0, "is_disabled": 0, "type": "electric_scooter", "lon": -77.026851, "rental_uris": {"android": "https://dc.lft.to/lastmile_qr_scan", "ios": "https://dc.lft.to/lastmile_qr_scan"}, "is_reserved": 0, "bike_id": "64c6683792ec9451001bc3dde243a326", "name": "64c6683792ec9451001bc3dde243a326"}, {"lat": 38.93534283333334, "fusion_lon": 0.0, "fusion_lat": 0.0, "is_disabled": 0, "type": "electric_scooter", "lon": -77.03389083333333, "rental_uris": {"android": "https://dc.lft.to/lastmile_qr_scan", "ios": "https://dc.lft.to/lastmile_qr_scan"}, "is_reserved": 0, "bike_id": "5191acd5854e90835b0bef5c89e4218c", "name": "5191acd5854e90835b0bef5c89e4218c"}, {"lat": 38.838460833333336, "fusion_lon": 0.0, "fusion_lat": 0.0, "is_disabled": 0, "type": "electric_scooter", "lon": -76.999707, "rental_uris": {"android": "https://dc.lft.to/lastmile_qr_scan", "ios": "https://dc.lft.to/lastmile_qr_scan"}, "is_reserved": 0, "bike_id": "4076a50a8f37bbcd3ba517aa2116dff8", "name": "4076a50a8f37bbcd3ba517aa2116dff8"}, {"lat": 38.911195, "fusion_lon": 0.0, "fusion_lat": 0.0, "is_disabled": 0, "type": "electric_scooter", "lon": -77.042193, "rental_uris": {"android": "https://dc.lft.to/lastmile_qr_scan", "ios": "https://dc.lft.to/lastmile_qr_scan"}, "is_reserved": 0, "bike_id": "b68032b36c233add32d36fa32cc6ac27", "name": "b68032b36c233add32d36fa32cc6ac27"}, {"lat": 38.90509766666667, "fusion_lon": 0.0, "fusion_lat": 0.0, "is_disabled": 0, "type": "electric_scooter", "lon": -77.0447755, "rental_uris": {"android": "https://dc.lft.to/lastmile_qr_scan", "ios": "https://dc.lft.to/lastmile_qr_scan"}, "is_reserved": 0, "bike_id": "909456a82157df8f3a5bc114715ba0f5", "name": "909456a82157df8f3a5bc114715ba0f5"}, {"lat": 38.89555333333333, "fusion_lon": 0.0, "fusion_lat": 0.0, "is_disabled": 0, "type": "electric_scooter", "lon": -77.01098116666667, "rental_uris": {"android": "https://dc.lft.to/lastmile_qr_scan", "ios": "https://dc.lft.to/lastmile_qr_scan"}, "is_reserved": 0, "bike_id": "641700ec7e9511d728d72a3b10763c82", "name": "641700ec7e9511d728d72a3b10763c82"}, {"lat": 38.920561, "fusion_lon": 0.0, "fusion_lat": 0.0, "is_disabled": 0, "type": "electric_scooter", "lon": -77.03260766666666, "rental_uris": {"android": "https://dc.lft.to/lastmile_qr_scan", "ios": "https://dc.lft.to/lastmile_qr_scan"}, "is_reserved": 0, "bike_id": "865c957e3eea018498517d2a0a3106f7", "name": "865c957e3eea018498517d2a0a3106f7"}, {"lat": 38.970623833333335, "fusion_lon": 0.0, "fusion_lat": 0.0, "is_disabled": 0, "type": "electric_bike", "lon": -76.9600535, "rental_uris": {"android": "https://dc.lft.to/lastmile_qr_scan", "ios": "https://dc.lft.to/lastmile_qr_scan"}, "is_reserved": 0, "bike_id": "df614b425a00c00a100491ce060ead8b", "name": "df614b425a00c00a100491ce060ead8b"}, {"lat": 38.928453166666664, "fusion_lon": 0.0, "fusion_lat": 0.0, "is_disabled": 0, "type": "electric_scooter", "lon": -76.993617, "rental_uris": {"android": "https://dc.lft.to/lastmile_qr_scan", "ios": "https://dc.lft.to/lastmile_qr_scan"}, "is_reserved": 0, "bike_id": "586f0c63fd55931c1819e456fc8e99c5", "name": "586f0c63fd55931c1819e456fc8e99c5"}, {"lat": 38.917844333333335, "fusion_lon": 0.0, "fusion_lat": 0.0, "is_disabled": 0, "type": "electric_scooter", "lon": -77.041006, "rental_uris": {"android": "https://dc.lft.to/lastmile_qr_scan", "ios": "https://dc.lft.to/lastmile_qr_scan"}, "is_reserved": 0, "bike_id": "0cb855bda48a27ac3b0cb41518ead9f4", "name": "0cb855bda48a27ac3b0cb41518ead9f4"}, {"lat": 38.8605215, "fusion_lon": 0.0, "fusion_lat": 0.0, "is_disabled": 0, "type": "electric_scooter", "lon": -76.9907545, "rental_uris": {"android": "https://dc.lft.to/lastmile_qr_scan", "ios": "https://dc.lft.to/lastmile_qr_scan"}, "is_reserved": 0, "bike_id": "fab7fabf3ebc9e25891bc2791d3d073c", "name": "fab7fabf3ebc9e25891bc2791d3d073c"}, {"lat": 38.92273866666667, "fusion_lon": 0.0, "fusion_lat": 0.0, "is_disabled": 0, "type": "electric_scooter", "lon": -76.994067, "rental_uris": {"android": "https://dc.lft.to/lastmile_qr_scan", "ios": "https://dc.lft.to/lastmile_qr_scan"}, "is_reserved": 0, "bike_id": "ec2793a72d082252351aa9ccede0fb13", "name": "ec2793a72d082252351aa9ccede0fb13"}, {"lat": 38.9184855, "fusion_lon": 0.0, "fusion_lat": 0.0, "is_disabled": 0, "type": "electric_scooter", "lon": -77.04501283333333, "rental_uris": {"android": "https://dc.lft.to/lastmile_qr_scan", "ios": "https://dc.lft.to/lastmile_qr_scan"}, "is_reserved": 0, "bike_id": "806c6d2d8a9601fe0822b19108a406dd", "name": "806c6d2d8a9601fe0822b19108a406dd"}, {"lat": 38.8650705, "fusion_lon": 0.0, "fusion_lat": 0.0, "is_disabled": 0, "type": "electric_scooter", "lon": -76.99004916666667, "rental_uris": {"android": "https://dc.lft.to/lastmile_qr_scan", "ios": "https://dc.lft.to/lastmile_qr_scan"}, "is_reserved": 0, "bike_id": "d681144d6fcbd9be678e2fd9b6b2301c", "name": "d681144d6fcbd9be678e2fd9b6b2301c"}, {"lat": 38.89999683333333, "fusion_lon": 0.0, "fusion_lat": 0.0, "is_disabled": 0, "type": "electric_scooter", "lon": -77.0465005, "rental_uris": {"android": "https://dc.lft.to/lastmile_qr_scan", "ios": "https://dc.lft.to/lastmile_qr_scan"}, "is_reserved": 0, "bike_id": "06ec3509e6b32bb7ef6f9ef9b74ae363", "name": "06ec3509e6b32bb7ef6f9ef9b74ae363"}, {"lat": 38.8766215, "fusion_lon": 0.0, "fusion_lat": 0.0, "is_disabled": 0, "type": "electric_scooter", "lon": -77.0157725, "rental_uris": {"android": "https://dc.lft.to/lastmile_qr_scan", "ios": "https://dc.lft.to/lastmile_qr_scan"}, "is_reserved": 0, "bike_id": "fae05a3ae57cc89c5d7479147bcd2e82", "name": "fae05a3ae57cc89c5d7479147bcd2e82"}, {"lat": 38.921381333333336, "fusion_lon": 0.0, "fusion_lat": 0.0, "is_disabled": 0, "type": "electric_scooter", "lon": -77.00957066666666, "rental_uris": {"android": "https://dc.lft.to/lastmile_qr_scan", "ios": "https://dc.lft.to/lastmile_qr_scan"}, "is_reserved": 0, "bike_id": "4eba4b697583927fdc23f4269a702ea3", "name": "4eba4b697583927fdc23f4269a702ea3"}, {"lat": 38.90502166666667, "fusion_lon": 0.0, "fusion_lat": 0.0, "is_disabled": 0, "type": "electric_scooter", "lon": -77.0343705, "rental_uris": {"android": "https://dc.lft.to/lastmile_qr_scan", "ios": "https://dc.lft.to/lastmile_qr_scan"}, "is_reserved": 0, "bike_id": "824f9e417408a1dd15fe78111a1bb10f", "name": "824f9e417408a1dd15fe78111a1bb10f"}, {"lat": 38.89839333333333, "fusion_lon": 0.0, "fusion_lat": 0.0, "is_disabled": 0, "type": "electric_scooter", "lon": -77.03316783333334, "rental_uris": {"android": "https://dc.lft.to/lastmile_qr_scan", "ios": "https://dc.lft.to/lastmile_qr_scan"}, "is_reserved": 0, "bike_id": "63ee63ca56b220709166d86b842f1d75", "name": "63ee63ca56b220709166d86b842f1d75"}, {"lat": 38.8287585, "fusion_lon": 0.0, "fusion_lat": 0.0, "is_disabled": 0, "type": "electric_bike", "lon": -77.11221083333334, "rental_uris": {"android": "https://dc.lft.to/lastmile_qr_scan", "ios": "https://dc.lft.to/lastmile_qr_scan"}, "is_reserved": 0, "bike_id": "ea12332e21e35b7c67cf20bf17d1c63a", "name": "ea12332e21e35b7c67cf20bf17d1c63a"}, {"lat": 38.898876333333334, "fusion_lon": 0.0, "fusion_lat": 0.0, "is_disabled": 0, "type": "electric_scooter", "lon": -76.93160466666667, "rental_uris": {"android": "https://dc.lft.to/lastmile_qr_scan", "ios": "https://dc.lft.to/lastmile_qr_scan"}, "is_reserved": 0, "bike_id": "ddc11eb000cf29041921c162b31d421e", "name": "ddc11eb000cf29041921c162b31d421e"}, {"lat": 38.990899166666665, "fusion_lon": 0.0, "fusion_lat": 0.0, "is_disabled": 0, "type": "electric_bike", "lon": -76.87494333333333, "rental_uris": {"android": "https://dc.lft.to/lastmile_qr_scan", "ios": "https://dc.lft.to/lastmile_qr_scan"}, "is_reserved": 0, "bike_id": "be55fe5565f77314360ada22d8187ae7", "name": "be55fe5565f77314360ada22d8187ae7"}, {"lat": 38.91191466666667, "fusion_lon": 0.0, "fusion_lat": 0.0, "is_disabled": 0, "type": "electric_scooter", "lon": -77.0449755, "rental_uris": {"android": "https://dc.lft.to/lastmile_qr_scan", "ios": "https://dc.lft.to/lastmile_qr_scan"}, "is_reserved": 0, "bike_id": "b2bc5abe85eb047c4c0cfbbbce0bb331", "name": "b2bc5abe85eb047c4c0cfbbbce0bb331"}, {"lat": 38.90527016666667, "fusion_lon": 0.0, "fusion_lat": 0.0, "is_disabled": 0, "type": "electric_scooter", "lon": -77.00583783333333, "rental_uris": {"android": "https://dc.lft.to/lastmile_qr_scan", "ios": "https://dc.lft.to/lastmile_qr_scan"}, "is_reserved": 0, "bike_id": "b77761f3c6b9fdd1e69b5702ebc04fed", "name": "b77761f3c6b9fdd1e69b5702ebc04fed"}, {"lat": 38.88503983333333, "fusion_lon": 0.0, "fusion_lat": 0.0, "is_disabled": 0, "type": "electric_scooter", "lon": -77.02158383333334, "rental_uris": {"android": "https://dc.lft.to/lastmile_qr_scan", "ios": "https://dc.lft.to/lastmile_qr_scan"}, "is_reserved": 0, "bike_id": "7ef4a048f63543bf960b89c6b665c0c1", "name": "7ef4a048f63543bf960b89c6b665c0c1"}, {"lat": 38.90659633333333, "fusion_lon": 0.0, "fusion_lat": 0.0, "is_disabled": 0, "type": "electric_scooter", "lon": -77.05150266666666, "rental_uris": {"android": "https://dc.lft.to/lastmile_qr_scan", "ios": "https://dc.lft.to/lastmile_qr_scan"}, "is_reserved": 0, "bike_id": "71c6c7ebd8ff9562eeefd29b86928f45", "name": "71c6c7ebd8ff9562eeefd29b86928f45"}, {"lat": 38.913431, "fusion_lon": 0.0, "fusion_lat": 0.0, "is_disabled": 0, "type": "electric_scooter", "lon": -77.04170616666667, "rental_uris": {"android": "https://dc.lft.to/lastmile_qr_scan", "ios": "https://dc.lft.to/lastmile_qr_scan"}, "is_reserved": 0, "bike_id": "d9d3b4c5d7af5baf4c2c2675225e5ba9", "name": "d9d3b4c5d7af5baf4c2c2675225e5ba9"}, {"lat": 38.93106233333334, "fusion_lon": 0.0, "fusion_lat": 0.0, "is_disabled": 0, "type": "electric_scooter", "lon": -77.03786633333333, "rental_uris": {"android": "https://dc.lft.to/lastmile_qr_scan", "ios": "https://dc.lft.to/lastmile_qr_scan"}, "is_reserved": 0, "bike_id": "a91fdf5a25bc3fc8f18fe5498418337d", "name": "a91fdf5a25bc3fc8f18fe5498418337d"}, {"lat": 38.90034433333334, "fusion_lon": 0.0, "fusion_lat": 0.0, "is_disabled": 0, "type": "electric_scooter", "lon": -76.99625616666667, "rental_uris": {"android": "https://dc.lft.to/lastmile_qr_scan", "ios": "https://dc.lft.to/lastmile_qr_scan"}, "is_reserved": 0, "bike_id": "2c3d16e001c211ea23387782f2fa0bc5", "name": "2c3d16e001c211ea23387782f2fa0bc5"}, {"lat": 38.935816, "fusion_lon": 0.0, "fusion_lat": 0.0, "is_disabled": 0, "type": "electric_scooter", "lon": -77.01935216666666, "rental_uris": {"android": "https://dc.lft.to/lastmile_qr_scan", "ios": "https://dc.lft.to/lastmile_qr_scan"}, "is_reserved": 0, "bike_id": "45767f22c648f3ab5fbf2025e79f30e0", "name": "45767f22c648f3ab5fbf2025e79f30e0"}, {"lat": 38.901953666666664, "fusion_lon": 0.0, "fusion_lat": 0.0, "is_disabled": 0, "type": "electric_scooter", "lon": -77.02537683333334, "rental_uris": {"android": "https://dc.lft.to/lastmile_qr_scan", "ios": "https://dc.lft.to/lastmile_qr_scan"}, "is_reserved": 0, "bike_id": "9382d3069c2fcbf600a7bc3b29e300f2", "name": "9382d3069c2fcbf600a7bc3b29e300f2"}, {"lat": 38.88419733333333, "fusion_lon": 0.0, "fusion_lat": 0.0, "is_disabled": 0, "type": "electric_scooter", "lon": -76.9954895, "rental_uris": {"android": "https://dc.lft.to/lastmile_qr_scan", "ios": "https://dc.lft.to/lastmile_qr_scan"}, "is_reserved": 0, "bike_id": "aaf080e488bf926373bbebdadb435dc1", "name": "aaf080e488bf926373bbebdadb435dc1"}, {"lat": 38.864490833333335, "fusion_lon": 0.0, "fusion_lat": 0.0, "is_disabled": 0, "type": "electric_scooter", "lon": -76.98989766666666, "rental_uris": {"android": "https://dc.lft.to/lastmile_qr_scan", "ios": "https://dc.lft.to/lastmile_qr_scan"}, "is_reserved": 0, "bike_id": "feb219c06c7584fd7f9faeb5e8a82911", "name": "feb219c06c7584fd7f9faeb5e8a82911"}, {"lat": 38.934581, "fusion_lon": 0.0, "fusion_lat": 0.0, "is_disabled": 0, "type": "electric_scooter", "lon": -76.96413233333334, "rental_uris": {"android": "https://dc.lft.to/lastmile_qr_scan", "ios": "https://dc.lft.to/lastmile_qr_scan"}, "is_reserved": 0, "bike_id": "7c09a7392ca33da4413a6058a898ef0b", "name": "7c09a7392ca33da4413a6058a898ef0b"}, {"lat": 38.926786666666665, "fusion_lon": 0.0, "fusion_lat": 0.0, "is_disabled": 0, "type": "electric_scooter", "lon": -77.0075415, "rental_uris": {"android": "https://dc.lft.to/lastmile_qr_scan", "ios": "https://dc.lft.to/lastmile_qr_scan"}, "is_reserved": 0, "bike_id": "b6a0a9d70ef92291fe77b33eac395a39", "name": "b6a0a9d70ef92291fe77b33eac395a39"}, {"lat": 38.962095166666664, "fusion_lon": 0.0, "fusion_lat": 0.0, "is_disabled": 0, "type": "electric_scooter", "lon": -77.02339683333334, "rental_uris": {"android": "https://dc.lft.to/lastmile_qr_scan", "ios": "https://dc.lft.to/lastmile_qr_scan"}, "is_reserved": 0, "bike_id": "2168feb5d1fc5a624f4cd288ee787e8b", "name": "2168feb5d1fc5a624f4cd288ee787e8b"}, {"lat": 38.933770333333335, "fusion_lon": 0.0, "fusion_lat": 0.0, "is_disabled": 0, "type": "electric_scooter", "lon": -77.05725733333334, "rental_uris": {"android": "https://dc.lft.to/lastmile_qr_scan", "ios": "https://dc.lft.to/lastmile_qr_scan"}, "is_reserved": 0, "bike_id": "b40e1156943a28a12a5f66b1efc53eff", "name": "b40e1156943a28a12a5f66b1efc53eff"}, {"lat": 38.90316283333333, "fusion_lon": 0.0, "fusion_lat": 0.0, "is_disabled": 0, "type": "electric_scooter", "lon": -77.03477666666667, "rental_uris": {"android": "https://dc.lft.to/lastmile_qr_scan", "ios": "https://dc.lft.to/lastmile_qr_scan"}, "is_reserved": 0, "bike_id": "bb1762764fc05f1338b6d654ac4e8bfe", "name": "bb1762764fc05f1338b6d654ac4e8bfe"}, {"lat": 38.922582166666665, "fusion_lon": 0.0, "fusion_lat": 0.0, "is_disabled": 0, "type": "electric_scooter", "lon": -77.04300766666667, "rental_uris": {"android": "https://dc.lft.to/lastmile_qr_scan", "ios": "https://dc.lft.to/lastmile_qr_scan"}, "is_reserved": 0, "bike_id": "b38b8fadfc2560d6cf73f4e021f8f48d", "name": "b38b8fadfc2560d6cf73f4e021f8f48d"}, {"lat": 38.91257516666667, "fusion_lon": 0.0, "fusion_lat": 0.0, "is_disabled": 0, "type": "electric_scooter", "lon": -77.0386455, "rental_uris": {"android": "https://dc.lft.to/lastmile_qr_scan", "ios": "https://dc.lft.to/lastmile_qr_scan"}, "is_reserved": 0, "bike_id": "96f74d6756075ec77a53f545aaeb4142", "name": "96f74d6756075ec77a53f545aaeb4142"}, {"lat": 38.909681166666665, "fusion_lon": 0.0, "fusion_lat": 0.0, "is_disabled": 0, "type": "electric_scooter", "lon": -77.03942083333334, "rental_uris": {"android": "https://dc.lft.to/lastmile_qr_scan", "ios": "https://dc.lft.to/lastmile_qr_scan"}, "is_reserved": 0, "bike_id": "055fcbd78ee406a7af889efb009706f8", "name": "055fcbd78ee406a7af889efb009706f8"}, {"lat": 38.900271833333335, "fusion_lon": 0.0, "fusion_lat": 0.0, "is_disabled": 0, "type": "electric_scooter", "lon": -77.0002555, "rental_uris": {"android": "https://dc.lft.to/lastmile_qr_scan", "ios": "https://dc.lft.to/lastmile_qr_scan"}, "is_reserved": 0, "bike_id": "0f565fcccd9e5866c4a8c102f9649888", "name": "0f565fcccd9e5866c4a8c102f9649888"}, {"lat": 38.892320166666664, "fusion_lon": 0.0, "fusion_lat": 0.0, "is_disabled": 0, "type": "electric_scooter", "lon": -77.05005216666666, "rental_uris": {"android": "https://dc.lft.to/lastmile_qr_scan", "ios": "https://dc.lft.to/lastmile_qr_scan"}, "is_reserved": 0, "bike_id": "fd2de2623180eb47c0574b49fc1863f1", "name": "fd2de2623180eb47c0574b49fc1863f1"}, {"lat": 38.9218325, "fusion_lon": 0.0, "fusion_lat": 0.0, "is_disabled": 0, "type": "electric_scooter", "lon": -77.0388915, "rental_uris": {"android": "https://dc.lft.to/lastmile_qr_scan", "ios": "https://dc.lft.to/lastmile_qr_scan"}, "is_reserved": 0, "bike_id": "5cfb97a6cbddb85b9bca93f3b32c281f", "name": "5cfb97a6cbddb85b9bca93f3b32c281f"}, {"lat": 38.914596333333336, "fusion_lon": 0.0, "fusion_lat": 0.0, "is_disabled": 0, "type": "electric_scooter", "lon": -77.04151883333333, "rental_uris": {"android": "https://dc.lft.to/lastmile_qr_scan", "ios": "https://dc.lft.to/lastmile_qr_scan"}, "is_reserved": 0, "bike_id": "1ae2b0177c7f5c5644e04bc635284867", "name": "1ae2b0177c7f5c5644e04bc635284867"}, {"lat": 38.9117715, "fusion_lon": 0.0, "fusion_lat": 0.0, "is_disabled": 0, "type": "electric_scooter", "lon": -77.08441616666667, "rental_uris": {"android": "https://dc.lft.to/lastmile_qr_scan", "ios": "https://dc.lft.to/lastmile_qr_scan"}, "is_reserved": 0, "bike_id": "0b37f5cea0239068429a9ca93c86af30", "name": "0b37f5cea0239068429a9ca93c86af30"}, {"lat": 38.90065933333333, "fusion_lon": 0.0, "fusion_lat": 0.0, "is_disabled": 0, "type": "electric_scooter", "lon": -77.027344, "rental_uris": {"android": "https://dc.lft.to/lastmile_qr_scan", "ios": "https://dc.lft.to/lastmile_qr_scan"}, "is_reserved": 0, "bike_id": "259fa18199ff4c03f79f91eebc7bfbd6", "name": "259fa18199ff4c03f79f91eebc7bfbd6"}, {"lat": 38.9302535, "fusion_lon": 0.0, "fusion_lat": 0.0, "is_disabled": 0, "type": "electric_scooter", "lon": -77.0129665, "rental_uris": {"android": "https://dc.lft.to/lastmile_qr_scan", "ios": "https://dc.lft.to/lastmile_qr_scan"}, "is_reserved": 0, "bike_id": "96d468b726ccdd9b222e0aaa6b8ad528", "name": "96d468b726ccdd9b222e0aaa6b8ad528"}, {"lat": 38.93173916666667, "fusion_lon": 0.0, "fusion_lat": 0.0, "is_disabled": 0, "type": "electric_scooter", "lon": -77.034119, "rental_uris": {"android": "https://dc.lft.to/lastmile_qr_scan", "ios": "https://dc.lft.to/lastmile_qr_scan"}, "is_reserved": 0, "bike_id": "a74362ac5ec02f60f6f41fcb4f1f5500", "name": "a74362ac5ec02f60f6f41fcb4f1f5500"}, {"lat": 38.9202995, "fusion_lon": 0.0, "fusion_lat": 0.0, "is_disabled": 0, "type": "electric_scooter", "lon": -77.0170105, "rental_uris": {"android": "https://dc.lft.to/lastmile_qr_scan", "ios": "https://dc.lft.to/lastmile_qr_scan"}, "is_reserved": 0, "bike_id": "b2e2f33509b9516708745cd7a18d073d", "name": "b2e2f33509b9516708745cd7a18d073d"}, {"lat": 38.897945, "fusion_lon": 0.0, "fusion_lat": 0.0, "is_disabled": 0, "type": "electric_scooter", "lon": -77.0281535, "rental_uris": {"android": "https://dc.lft.to/lastmile_qr_scan", "ios": "https://dc.lft.to/lastmile_qr_scan"}, "is_reserved": 0, "bike_id": "663adf612d9467b496db64fe13401326", "name": "663adf612d9467b496db64fe13401326"}, {"lat": 38.90096666666667, "fusion_lon": 0.0, "fusion_lat": 0.0, "is_disabled": 0, "type": "electric_scooter", "lon": -76.99479833333334, "rental_uris": {"android": "https://dc.lft.to/lastmile_qr_scan", "ios": "https://dc.lft.to/lastmile_qr_scan"}, "is_reserved": 0, "bike_id": "0fd7380118eac7393d9ce964c2ce3475", "name": "0fd7380118eac7393d9ce964c2ce3475"}, {"lat": 38.88386766666667, "fusion_lon": 0.0, "fusion_lat": 0.0, "is_disabled": 0, "type": "electric_scooter", "lon": -76.98551316666666, "rental_uris": {"android": "https://dc.lft.to/lastmile_qr_scan", "ios": "https://dc.lft.to/lastmile_qr_scan"}, "is_reserved": 0, "bike_id": "b7590a24e5738b45aed7654a9df601ba", "name": "b7590a24e5738b45aed7654a9df601ba"}, {"lat": 38.922452666666665, "fusion_lon": 0.0, "fusion_lat": 0.0, "is_disabled": 0, "type": "electric_scooter", "lon": -77.0423855, "rental_uris": {"android": "https://dc.lft.to/lastmile_qr_scan", "ios": "https://dc.lft.to/lastmile_qr_scan"}, "is_reserved": 0, "bike_id": "5d3ca82baa65764135baa1ab19a7b080", "name": "5d3ca82baa65764135baa1ab19a7b080"}, {"lat": 38.90364866666667, "fusion_lon": 0.0, "fusion_lat": 0.0, "is_disabled": 0, "type": "electric_scooter", "lon": -77.05793533333333, "rental_uris": {"android": "https://dc.lft.to/lastmile_qr_scan", "ios": "https://dc.lft.to/lastmile_qr_scan"}, "is_reserved": 0, "bike_id": "181fc867814bec6ff999f028d4dc02e7", "name": "181fc867814bec6ff999f028d4dc02e7"}, {"lat": 38.91110116666667, "fusion_lon": 0.0, "fusion_lat": 0.0, "is_disabled": 0, "type": "electric_scooter", "lon": -77.020972, "rental_uris": {"android": "https://dc.lft.to/lastmile_qr_scan", "ios": "https://dc.lft.to/lastmile_qr_scan"}, "is_reserved": 0, "bike_id": "9bd9f2a93a7fd75357ffb109b9961361", "name": "9bd9f2a93a7fd75357ffb109b9961361"}, {"lat": 38.911965, "fusion_lon": 0.0, "fusion_lat": 0.0, "is_disabled": 0, "type": "electric_scooter", "lon": -77.01880883333334, "rental_uris": {"android": "https://dc.lft.to/lastmile_qr_scan", "ios": "https://dc.lft.to/lastmile_qr_scan"}, "is_reserved": 0, "bike_id": "cc956485a7461ac8dd6da2012f89253b", "name": "cc956485a7461ac8dd6da2012f89253b"}, {"lat": 38.903774, "fusion_lon": 0.0, "fusion_lat": 0.0, "is_disabled": 0, "type": "electric_scooter", "lon": -77.02975716666667, "rental_uris": {"android": "https://dc.lft.to/lastmile_qr_scan", "ios": "https://dc.lft.to/lastmile_qr_scan"}, "is_reserved": 0, "bike_id": "497adb33444dc22bc03b5f08c5d95c62", "name": "497adb33444dc22bc03b5f08c5d95c62"}, {"lat": 38.90095066666667, "fusion_lon": 0.0, "fusion_lat": 0.0, "is_disabled": 0, "type": "electric_scooter", "lon": -77.03924466666666, "rental_uris": {"android": "https://dc.lft.to/lastmile_qr_scan", "ios": "https://dc.lft.to/lastmile_qr_scan"}, "is_reserved": 0, "bike_id": "af3f74490b9a3bb0e335e622d50f9dfa", "name": "af3f74490b9a3bb0e335e622d50f9dfa"}, {"lat": 38.869756, "fusion_lon": 0.0, "fusion_lat": 0.0, "is_disabled": 0, "type": "electric_bike", "lon": -77.13229733333333, "rental_uris": {"android": "https://dc.lft.to/lastmile_qr_scan", "ios": "https://dc.lft.to/lastmile_qr_scan"}, "is_reserved": 0, "bike_id": "141953b6e7ee14b0f805637372da71c6", "name": "141953b6e7ee14b0f805637372da71c6"}, {"lat": 38.947859666666666, "fusion_lon": 0.0, "fusion_lat": 0.0, "is_disabled": 0, "type": "electric_scooter", "lon": -77.06751466666667, "rental_uris": {"android": "https://dc.lft.to/lastmile_qr_scan", "ios": "https://dc.lft.to/lastmile_qr_scan"}, "is_reserved": 0, "bike_id": "bc2eacea431b5a261d9f8bb256631be5", "name": "bc2eacea431b5a261d9f8bb256631be5"}, {"lat": 38.95640216666666, "fusion_lon": 0.0, "fusion_lat": 0.0, "is_disabled": 0, "type": "electric_scooter", "lon": -77.03297466666666, "rental_uris": {"android": "https://dc.lft.to/lastmile_qr_scan", "ios": "https://dc.lft.to/lastmile_qr_scan"}, "is_reserved": 0, "bike_id": "c66ab0396b6a450b49d4e8261eafdda9", "name": "c66ab0396b6a450b49d4e8261eafdda9"}, {"lat": 38.89561633333334, "fusion_lon": 0.0, "fusion_lat": 0.0, "is_disabled": 0, "type": "electric_scooter", "lon": -77.00901533333334, "rental_uris": {"android": "https://dc.lft.to/lastmile_qr_scan", "ios": "https://dc.lft.to/lastmile_qr_scan"}, "is_reserved": 0, "bike_id": "51781de4f12efcea38fe5239eb64e996", "name": "51781de4f12efcea38fe5239eb64e996"}, {"lat": 38.92262916666667, "fusion_lon": 0.0, "fusion_lat": 0.0, "is_disabled": 0, "type": "electric_scooter", "lon": -77.03213866666667, "rental_uris": {"android": "https://dc.lft.to/lastmile_qr_scan", "ios": "https://dc.lft.to/lastmile_qr_scan"}, "is_reserved": 0, "bike_id": "0012fa3ac95240efe71ccd7fe6c702d7", "name": "0012fa3ac95240efe71ccd7fe6c702d7"}, {"lat": 38.934019, "fusion_lon": 0.0, "fusion_lat": 0.0, "is_disabled": 0, "type": "electric_scooter", "lon": -76.98030233333333, "rental_uris": {"android": "https://dc.lft.to/lastmile_qr_scan", "ios": "https://dc.lft.to/lastmile_qr_scan"}, "is_reserved": 0, "bike_id": "5c7cdde4bbc25da90c644aa461fda2ce", "name": "5c7cdde4bbc25da90c644aa461fda2ce"}, {"lat": 38.93399933333333, "fusion_lon": 0.0, "fusion_lat": 0.0, "is_disabled": 0, "type": "electric_scooter", "lon": -77.02722033333333, "rental_uris": {"android": "https://dc.lft.to/lastmile_qr_scan", "ios": "https://dc.lft.to/lastmile_qr_scan"}, "is_reserved": 0, "bike_id": "fca89798fc625dceb9d7f5b0c17d29f2", "name": "fca89798fc625dceb9d7f5b0c17d29f2"}, {"lat": 38.91731933333333, "fusion_lon": 0.0, "fusion_lat": 0.0, "is_disabled": 0, "type": "electric_scooter", "lon": -77.02281433333333, "rental_uris": {"android": "https://dc.lft.to/lastmile_qr_scan", "ios": "https://dc.lft.to/lastmile_qr_scan"}, "is_reserved": 0, "bike_id": "69af2a14baa655ff5ca83bc3855af5d0", "name": "69af2a14baa655ff5ca83bc3855af5d0"}, {"lat": 38.9259225, "fusion_lon": 0.0, "fusion_lat": 0.0, "is_disabled": 0, "type": "electric_scooter", "lon": -77.03996233333334, "rental_uris": {"android": "https://dc.lft.to/lastmile_qr_scan", "ios": "https://dc.lft.to/lastmile_qr_scan"}, "is_reserved": 0, "bike_id": "a3a39152449087c61a86061ef2cb6c1b", "name": "a3a39152449087c61a86061ef2cb6c1b"}, {"lat": 38.956386333333334, "fusion_lon": 0.0, "fusion_lat": 0.0, "is_disabled": 0, "type": "electric_scooter", "lon": -77.0362505, "rental_uris": {"android": "https://dc.lft.to/lastmile_qr_scan", "ios": "https://dc.lft.to/lastmile_qr_scan"}, "is_reserved": 0, "bike_id": "ad3f5559312af891cf8163e28bf7d33f", "name": "ad3f5559312af891cf8163e28bf7d33f"}, {"lat": 38.924273, "fusion_lon": 0.0, "fusion_lat": 0.0, "is_disabled": 0, "type": "electric_scooter", "lon": -77.05610383333334, "rental_uris": {"android": "https://dc.lft.to/lastmile_qr_scan", "ios": "https://dc.lft.to/lastmile_qr_scan"}, "is_reserved": 0, "bike_id": "f72b6300027107c419e1b343aee01e67", "name": "f72b6300027107c419e1b343aee01e67"}, {"lat": 38.9170915, "fusion_lon": 0.0, "fusion_lat": 0.0, "is_disabled": 0, "type": "electric_scooter", "lon": -77.09210566666667, "rental_uris": {"android": "https://dc.lft.to/lastmile_qr_scan", "ios": "https://dc.lft.to/lastmile_qr_scan"}, "is_reserved": 0, "bike_id": "ad37a8cbb7a7a0b29f62cd05c2cd0934", "name": "ad37a8cbb7a7a0b29f62cd05c2cd0934"}, {"lat": 38.90491033333333, "fusion_lon": 0.0, "fusion_lat": 0.0, "is_disabled": 0, "type": "electric_scooter", "lon": -77.0293345, "rental_uris": {"android": "https://dc.lft.to/lastmile_qr_scan", "ios": "https://dc.lft.to/lastmile_qr_scan"}, "is_reserved": 0, "bike_id": "db1272ff366b480d331fd3a21b1a952a", "name": "db1272ff366b480d331fd3a21b1a952a"}, {"lat": 38.903066833333334, "fusion_lon": 0.0, "fusion_lat": 0.0, "is_disabled": 0, "type": "electric_scooter", "lon": -77.03424433333333, "rental_uris": {"android": "https://dc.lft.to/lastmile_qr_scan", "ios": "https://dc.lft.to/lastmile_qr_scan"}, "is_reserved": 0, "bike_id": "ea315929fb5e857773783704c960647d", "name": "ea315929fb5e857773783704c960647d"}, {"lat": 38.894949833333335, "fusion_lon": 0.0, "fusion_lat": 0.0, "is_disabled": 0, "type": "electric_scooter", "lon": -77.02118566666667, "rental_uris": {"android": "https://dc.lft.to/lastmile_qr_scan", "ios": "https://dc.lft.to/lastmile_qr_scan"}, "is_reserved": 0, "bike_id": "43f34bf903f5ba0bf170affc4cbb4e99", "name": "43f34bf903f5ba0bf170affc4cbb4e99"}, {"lat": 38.913680166666666, "fusion_lon": 0.0, "fusion_lat": 0.0, "is_disabled": 0, "type": "electric_scooter", "lon": -77.0222435, "rental_uris": {"android": "https://dc.lft.to/lastmile_qr_scan", "ios": "https://dc.lft.to/lastmile_qr_scan"}, "is_reserved": 0, "bike_id": "bc92e29e5ec9d3ab077f0804b17cc2c9", "name": "bc92e29e5ec9d3ab077f0804b17cc2c9"}, {"lat": 38.9041675, "fusion_lon": 0.0, "fusion_lat": 0.0, "is_disabled": 0, "type": "electric_scooter", "lon": -77.03960983333333, "rental_uris": {"android": "https://dc.lft.to/lastmile_qr_scan", "ios": "https://dc.lft.to/lastmile_qr_scan"}, "is_reserved": 0, "bike_id": "b761a7eb4babea824ab26b3c80c417ad", "name": "b761a7eb4babea824ab26b3c80c417ad"}, {"lat": 38.905081, "fusion_lon": 0.0, "fusion_lat": 0.0, "is_disabled": 0, "type": "electric_scooter", "lon": -77.04648516666667, "rental_uris": {"android": "https://dc.lft.to/lastmile_qr_scan", "ios": "https://dc.lft.to/lastmile_qr_scan"}, "is_reserved": 0, "bike_id": "c466bef4262d9701173a1e0d3896c450", "name": "c466bef4262d9701173a1e0d3896c450"}, {"lat": 38.892836, "fusion_lon": 0.0, "fusion_lat": 0.0, "is_disabled": 0, "type": "electric_bike", "lon": -76.97629, "rental_uris": {"android": "https://dc.lft.to/lastmile_qr_scan", "ios": "https://dc.lft.to/lastmile_qr_scan"}, "is_reserved": 0, "bike_id": "c7ec4cc9d7cbf50a82012f2b1c31049b", "name": "c7ec4cc9d7cbf50a82012f2b1c31049b"}, {"lat": 38.877836, "fusion_lon": 0.0, "fusion_lat": 0.0, "is_disabled": 0, "type": "electric_scooter", "lon": -76.9941045, "rental_uris": {"android": "https://dc.lft.to/lastmile_qr_scan", "ios": "https://dc.lft.to/lastmile_qr_scan"}, "is_reserved": 0, "bike_id": "50f36e1c971e2a3fcc52e0277156246f", "name": "50f36e1c971e2a3fcc52e0277156246f"}, {"lat": 38.91826666666667, "fusion_lon": 0.0, "fusion_lat": 0.0, "is_disabled": 0, "type": "electric_scooter", "lon": -77.02696866666666, "rental_uris": {"android": "https://dc.lft.to/lastmile_qr_scan", "ios": "https://dc.lft.to/lastmile_qr_scan"}, "is_reserved": 0, "bike_id": "0419b9debdb263dd7d3221f27e62c962", "name": "0419b9debdb263dd7d3221f27e62c962"}, {"lat": 38.903801, "fusion_lon": 0.0, "fusion_lat": 0.0, "is_disabled": 0, "type": "electric_scooter", "lon": -77.029869, "rental_uris": {"android": "https://dc.lft.to/lastmile_qr_scan", "ios": "https://dc.lft.to/lastmile_qr_scan"}, "is_reserved": 0, "bike_id": "ff27377c5d090420e2d6209b8b063a1c", "name": "ff27377c5d090420e2d6209b8b063a1c"}, {"lat": 38.89921566666666, "fusion_lon": 0.0, "fusion_lat": 0.0, "is_disabled": 0, "type": "electric_scooter", "lon": -76.986092, "rental_uris": {"android": "https://dc.lft.to/lastmile_qr_scan", "ios": "https://dc.lft.to/lastmile_qr_scan"}, "is_reserved": 0, "bike_id": "b2332f853e7b052736118435bf8385a0", "name": "b2332f853e7b052736118435bf8385a0"}, {"lat": 38.89881966666667, "fusion_lon": 0.0, "fusion_lat": 0.0, "is_disabled": 0, "type": "electric_scooter", "lon": -77.05295516666666, "rental_uris": {"android": "https://dc.lft.to/lastmile_qr_scan", "ios": "https://dc.lft.to/lastmile_qr_scan"}, "is_reserved": 0, "bike_id": "39418c6da0a377e0c630ba492b7e71ef", "name": "39418c6da0a377e0c630ba492b7e71ef"}, {"lat": 38.933731333333334, "fusion_lon": 0.0, "fusion_lat": 0.0, "is_disabled": 0, "type": "electric_scooter", "lon": -77.0387425, "rental_uris": {"android": "https://dc.lft.to/lastmile_qr_scan", "ios": "https://dc.lft.to/lastmile_qr_scan"}, "is_reserved": 0, "bike_id": "51cd9420911b3b002f8ae29b0c2b79d9", "name": "51cd9420911b3b002f8ae29b0c2b79d9"}, {"lat": 38.92406866666666, "fusion_lon": 0.0, "fusion_lat": 0.0, "is_disabled": 0, "type": "electric_bike", "lon": -77.02504866666666, "rental_uris": {"android": "https://dc.lft.to/lastmile_qr_scan", "ios": "https://dc.lft.to/lastmile_qr_scan"}, "is_reserved": 0, "bike_id": "7d9f0c9ff73458bf61a1a7ed9dbb21ee", "name": "7d9f0c9ff73458bf61a1a7ed9dbb21ee"}, {"lat": 38.9180905, "fusion_lon": 0.0, "fusion_lat": 0.0, "is_disabled": 0, "type": "electric_scooter", "lon": -77.03438333333334, "rental_uris": {"android": "https://dc.lft.to/lastmile_qr_scan", "ios": "https://dc.lft.to/lastmile_qr_scan"}, "is_reserved": 0, "bike_id": "66f0cd61919ca2720335eab5375b1193", "name": "66f0cd61919ca2720335eab5375b1193"}, {"lat": 38.89985633333333, "fusion_lon": 0.0, "fusion_lat": 0.0, "is_disabled": 0, "type": "electric_scooter", "lon": -77.01982383333333, "rental_uris": {"android": "https://dc.lft.to/lastmile_qr_scan", "ios": "https://dc.lft.to/lastmile_qr_scan"}, "is_reserved": 0, "bike_id": "d33e18e3b6e6ccf44f75e823ebb30087", "name": "d33e18e3b6e6ccf44f75e823ebb30087"}, {"lat": 38.923637666666664, "fusion_lon": 0.0, "fusion_lat": 0.0, "is_disabled": 0, "type": "electric_scooter", "lon": -77.05046933333334, "rental_uris": {"android": "https://dc.lft.to/lastmile_qr_scan", "ios": "https://dc.lft.to/lastmile_qr_scan"}, "is_reserved": 0, "bike_id": "08872e938297cdbe6b192dcfed09f9bd", "name": "08872e938297cdbe6b192dcfed09f9bd"}, {"lat": 38.9037905, "fusion_lon": 0.0, "fusion_lat": 0.0, "is_disabled": 0, "type": "electric_scooter", "lon": -77.04497933333333, "rental_uris": {"android": "https://dc.lft.to/lastmile_qr_scan", "ios": "https://dc.lft.to/lastmile_qr_scan"}, "is_reserved": 0, "bike_id": "0468df720e79318103822cc02509fe2f", "name": "0468df720e79318103822cc02509fe2f"}, {"lat": 38.92065683333333, "fusion_lon": 0.0, "fusion_lat": 0.0, "is_disabled": 0, "type": "electric_scooter", "lon": -76.97609166666666, "rental_uris": {"android": "https://dc.lft.to/lastmile_qr_scan", "ios": "https://dc.lft.to/lastmile_qr_scan"}, "is_reserved": 0, "bike_id": "89ab2a30e3d76edc5e63c948acb94fa7", "name": "89ab2a30e3d76edc5e63c948acb94fa7"}, {"lat": 38.90697866666667, "fusion_lon": 0.0, "fusion_lat": 0.0, "is_disabled": 0, "type": "electric_scooter", "lon": -76.9861445, "rental_uris": {"android": "https://dc.lft.to/lastmile_qr_scan", "ios": "https://dc.lft.to/lastmile_qr_scan"}, "is_reserved": 0, "bike_id": "d245ef7bcb5e3d2e8364b24acaf0c38e", "name": "d245ef7bcb5e3d2e8364b24acaf0c38e"}, {"lat": 38.848446, "fusion_lon": 0.0, "fusion_lat": 0.0, "is_disabled": 0, "type": "electric_bike", "lon": -77.08044283333334, "rental_uris": {"android": "https://dc.lft.to/lastmile_qr_scan", "ios": "https://dc.lft.to/lastmile_qr_scan"}, "is_reserved": 0, "bike_id": "6eabb6c5e3242fe7a6171c56c8328ad2", "name": "6eabb6c5e3242fe7a6171c56c8328ad2"}, {"lat": 38.870873833333334, "fusion_lon": 0.0, "fusion_lat": 0.0, "is_disabled": 0, "type": "electric_scooter", "lon": -77.01110433333334, "rental_uris": {"android": "https://dc.lft.to/lastmile_qr_scan", "ios": "https://dc.lft.to/lastmile_qr_scan"}, "is_reserved": 0, "bike_id": "bb08c612447b4d6d927565bd42d69559", "name": "bb08c612447b4d6d927565bd42d69559"}, {"lat": 38.90037783333333, "fusion_lon": 0.0, "fusion_lat": 0.0, "is_disabled": 0, "type": "electric_scooter", "lon": -77.01225316666667, "rental_uris": {"android": "https://dc.lft.to/lastmile_qr_scan", "ios": "https://dc.lft.to/lastmile_qr_scan"}, "is_reserved": 0, "bike_id": "954cc7ecabca7e66c3e5a879fcc5b2a7", "name": "954cc7ecabca7e66c3e5a879fcc5b2a7"}, {"lat": 38.959613166666664, "fusion_lon": 0.0, "fusion_lat": 0.0, "is_disabled": 0, "type": "electric_bike", "lon": -76.98170666666667, "rental_uris": {"android": "https://dc.lft.to/lastmile_qr_scan", "ios": "https://dc.lft.to/lastmile_qr_scan"}, "is_reserved": 0, "bike_id": "cb7148a082f3cc3832f5144c487be20d", "name": "cb7148a082f3cc3832f5144c487be20d"}, {"lat": 38.887928, "fusion_lon": 0.0, "fusion_lat": 0.0, "is_disabled": 0, "type": "electric_scooter", "lon": -76.95108816666666, "rental_uris": {"android": "https://dc.lft.to/lastmile_qr_scan", "ios": "https://dc.lft.to/lastmile_qr_scan"}, "is_reserved": 0, "bike_id": "e79ae558e819c279fd4c84483877773c", "name": "e79ae558e819c279fd4c84483877773c"}, {"lat": 38.91851, "fusion_lon": 0.0, "fusion_lat": 0.0, "is_disabled": 0, "type": "electric_scooter", "lon": -77.04824283333333, "rental_uris": {"android": "https://dc.lft.to/lastmile_qr_scan", "ios": "https://dc.lft.to/lastmile_qr_scan"}, "is_reserved": 0, "bike_id": "65e8066222b9577a09f3d365feb09131", "name": "65e8066222b9577a09f3d365feb09131"}, {"lat": 38.89229433333333, "fusion_lon": 0.0, "fusion_lat": 0.0, "is_disabled": 0, "type": "electric_scooter", "lon": -77.0030825, "rental_uris": {"android": "https://dc.lft.to/lastmile_qr_scan", "ios": "https://dc.lft.to/lastmile_qr_scan"}, "is_reserved": 0, "bike_id": "08d7c61db262be7d739c9066f117cd17", "name": "08d7c61db262be7d739c9066f117cd17"}, {"lat": 38.922525, "fusion_lon": 0.0, "fusion_lat": 0.0, "is_disabled": 0, "type": "electric_scooter", "lon": -77.0195925, "rental_uris": {"android": "https://dc.lft.to/lastmile_qr_scan", "ios": "https://dc.lft.to/lastmile_qr_scan"}, "is_reserved": 0, "bike_id": "d4c0b658f2f63bd98acb25e4e57c8f89", "name": "d4c0b658f2f63bd98acb25e4e57c8f89"}, {"lat": 38.915491, "fusion_lon": 0.0, "fusion_lat": 0.0, "is_disabled": 0, "type": "electric_scooter", "lon": -77.01233033333334, "rental_uris": {"android": "https://dc.lft.to/lastmile_qr_scan", "ios": "https://dc.lft.to/lastmile_qr_scan"}, "is_reserved": 0, "bike_id": "e6893e2a674bf6a6f7985d45fe966238", "name": "e6893e2a674bf6a6f7985d45fe966238"}, {"lat": 38.90363933333333, "fusion_lon": 0.0, "fusion_lat": 0.0, "is_disabled": 0, "type": "electric_scooter", "lon": -77.02160316666667, "rental_uris": {"android": "https://dc.lft.to/lastmile_qr_scan", "ios": "https://dc.lft.to/lastmile_qr_scan"}, "is_reserved": 0, "bike_id": "05f8e8db5b472e99de1ac27e5c6189b8", "name": "05f8e8db5b472e99de1ac27e5c6189b8"}, {"lat": 38.90574266666667, "fusion_lon": 0.0, "fusion_lat": 0.0, "is_disabled": 0, "type": "electric_scooter", "lon": -77.00585083333333, "rental_uris": {"android": "https://dc.lft.to/lastmile_qr_scan", "ios": "https://dc.lft.to/lastmile_qr_scan"}, "is_reserved": 0, "bike_id": "bcc568657c68b42b5f264082295fec10", "name": "bcc568657c68b42b5f264082295fec10"}, {"lat": 38.904459833333334, "fusion_lon": 0.0, "fusion_lat": 0.0, "is_disabled": 0, "type": "electric_scooter", "lon": -77.03234333333333, "rental_uris": {"android": "https://dc.lft.to/lastmile_qr_scan", "ios": "https://dc.lft.to/lastmile_qr_scan"}, "is_reserved": 0, "bike_id": "cafc6bdcd89d8a20f8691cee8423d16d", "name": "cafc6bdcd89d8a20f8691cee8423d16d"}, {"lat": 38.905154, "fusion_lon": 0.0, "fusion_lat": 0.0, "is_disabled": 0, "type": "electric_scooter", "lon": -77.0297855, "rental_uris": {"android": "https://dc.lft.to/lastmile_qr_scan", "ios": "https://dc.lft.to/lastmile_qr_scan"}, "is_reserved": 0, "bike_id": "920a8eef83ac910583da4e51f0e31e7a", "name": "920a8eef83ac910583da4e51f0e31e7a"}, {"lat": 38.9051145, "fusion_lon": 0.0, "fusion_lat": 0.0, "is_disabled": 0, "type": "electric_scooter", "lon": -77.04332416666666, "rental_uris": {"android": "https://dc.lft.to/lastmile_qr_scan", "ios": "https://dc.lft.to/lastmile_qr_scan"}, "is_reserved": 0, "bike_id": "0b879d1e8156b0325014051def2f2e64", "name": "0b879d1e8156b0325014051def2f2e64"}, {"lat": 38.91761566666667, "fusion_lon": 0.0, "fusion_lat": 0.0, "is_disabled": 0, "type": "electric_scooter", "lon": -77.00363983333334, "rental_uris": {"android": "https://dc.lft.to/lastmile_qr_scan", "ios": "https://dc.lft.to/lastmile_qr_scan"}, "is_reserved": 0, "bike_id": "ed27cb6c4d7575ef276158a2a9a86798", "name": "ed27cb6c4d7575ef276158a2a9a86798"}, {"lat": 38.947301333333336, "fusion_lon": 0.0, "fusion_lat": 0.0, "is_disabled": 0, "type": "electric_bike", "lon": -76.9567565, "rental_uris": {"android": "https://dc.lft.to/lastmile_qr_scan", "ios": "https://dc.lft.to/lastmile_qr_scan"}, "is_reserved": 0, "bike_id": "46b00e131c2500737fe5e84f9f73d4bf", "name": "46b00e131c2500737fe5e84f9f73d4bf"}, {"lat": 38.851647, "fusion_lon": 0.0, "fusion_lat": 0.0, "is_disabled": 0, "type": "electric_scooter", "lon": -76.99454733333333, "rental_uris": {"android": "https://dc.lft.to/lastmile_qr_scan", "ios": "https://dc.lft.to/lastmile_qr_scan"}, "is_reserved": 0, "bike_id": "19cb9fe490d4cfbfef36dde48c30c514", "name": "19cb9fe490d4cfbfef36dde48c30c514"}, {"lat": 38.887722833333335, "fusion_lon": 0.0, "fusion_lat": 0.0, "is_disabled": 0, "type": "electric_scooter", "lon": -76.9326365, "rental_uris": {"android": "https://dc.lft.to/lastmile_qr_scan", "ios": "https://dc.lft.to/lastmile_qr_scan"}, "is_reserved": 0, "bike_id": "f6afe94b22a198fdc64b8e9b18106acc", "name": "f6afe94b22a198fdc64b8e9b18106acc"}, {"lat": 38.9135295, "fusion_lon": 0.0, "fusion_lat": 0.0, "is_disabled": 0, "type": "electric_scooter", "lon": -77.0152235, "rental_uris": {"android": "https://dc.lft.to/lastmile_qr_scan", "ios": "https://dc.lft.to/lastmile_qr_scan"}, "is_reserved": 0, "bike_id": "e01143a9ca5a82f74221a96060f35cf4", "name": "e01143a9ca5a82f74221a96060f35cf4"}, {"lat": 38.9264015, "fusion_lon": 0.0, "fusion_lat": 0.0, "is_disabled": 0, "type": "electric_scooter", "lon": -77.0251265, "rental_uris": {"android": "https://dc.lft.to/lastmile_qr_scan", "ios": "https://dc.lft.to/lastmile_qr_scan"}, "is_reserved": 0, "bike_id": "bbc56222c39b2e799064b59d17b8b97a", "name": "bbc56222c39b2e799064b59d17b8b97a"}, {"lat": 38.91618016666666, "fusion_lon": 0.0, "fusion_lat": 0.0, "is_disabled": 0, "type": "electric_scooter", "lon": -77.02135966666667, "rental_uris": {"android": "https://dc.lft.to/lastmile_qr_scan", "ios": "https://dc.lft.to/lastmile_qr_scan"}, "is_reserved": 0, "bike_id": "59b86d38d1fb6d26019359e8f91f7b10", "name": "59b86d38d1fb6d26019359e8f91f7b10"}, {"lat": 38.883247833333336, "fusion_lon": 0.0, "fusion_lat": 0.0, "is_disabled": 0, "type": "electric_scooter", "lon": -77.01705616666666, "rental_uris": {"android": "https://dc.lft.to/lastmile_qr_scan", "ios": "https://dc.lft.to/lastmile_qr_scan"}, "is_reserved": 0, "bike_id": "c78f6ca52e11559d93896f2de5ab21c2", "name": "c78f6ca52e11559d93896f2de5ab21c2"}, {"lat": 38.8763935, "fusion_lon": 0.0, "fusion_lat": 0.0, "is_disabled": 0, "type": "electric_scooter", "lon": -77.00384083333333, "rental_uris": {"android": "https://dc.lft.to/lastmile_qr_scan", "ios": "https://dc.lft.to/lastmile_qr_scan"}, "is_reserved": 0, "bike_id": "ebc53e7d080e5b3976f595179fe545be", "name": "ebc53e7d080e5b3976f595179fe545be"}, {"lat": 38.99045266666667, "fusion_lon": 0.0, "fusion_lat": 0.0, "is_disabled": 0, "type": "electric_bike", "lon": -77.0695605, "rental_uris": {"android": "https://dc.lft.to/lastmile_qr_scan", "ios": "https://dc.lft.to/lastmile_qr_scan"}, "is_reserved": 0, "bike_id": "fc3b9a746b7f996d7e28df7e235c6302", "name": "fc3b9a746b7f996d7e28df7e235c6302"}, {"lat": 38.90386633333333, "fusion_lon": 0.0, "fusion_lat": 0.0, "is_disabled": 0, "type": "electric_scooter", "lon": -77.0446845, "rental_uris": {"android": "https://dc.lft.to/lastmile_qr_scan", "ios": "https://dc.lft.to/lastmile_qr_scan"}, "is_reserved": 0, "bike_id": "6b61ddbec3777434881901e6015473cf", "name": "6b61ddbec3777434881901e6015473cf"}, {"lat": 38.89361133333333, "fusion_lon": 0.0, "fusion_lat": 0.0, "is_disabled": 0, "type": "electric_scooter", "lon": -77.00334216666667, "rental_uris": {"android": "https://dc.lft.to/lastmile_qr_scan", "ios": "https://dc.lft.to/lastmile_qr_scan"}, "is_reserved": 0, "bike_id": "49d54c5584d75d2fef23d0245a7e5369", "name": "49d54c5584d75d2fef23d0245a7e5369"}, {"lat": 38.90561066666667, "fusion_lon": 0.0, "fusion_lat": 0.0, "is_disabled": 0, "type": "electric_scooter", "lon": -76.981398, "rental_uris": {"android": "https://dc.lft.to/lastmile_qr_scan", "ios": "https://dc.lft.to/lastmile_qr_scan"}, "is_reserved": 0, "bike_id": "f4d050c443e8fbccc41412d3bbc33ef3", "name": "f4d050c443e8fbccc41412d3bbc33ef3"}, {"lat": 38.92864933333333, "fusion_lon": 0.0, "fusion_lat": 0.0, "is_disabled": 0, "type": "electric_scooter", "lon": -77.034449, "rental_uris": {"android": "https://dc.lft.to/lastmile_qr_scan", "ios": "https://dc.lft.to/lastmile_qr_scan"}, "is_reserved": 0, "bike_id": "62baf677c8ac8045225e201aa3a332be", "name": "62baf677c8ac8045225e201aa3a332be"}, {"lat": 38.91722733333334, "fusion_lon": 0.0, "fusion_lat": 0.0, "is_disabled": 0, "type": "electric_scooter", "lon": -77.02701466666667, "rental_uris": {"android": "https://dc.lft.to/lastmile_qr_scan", "ios": "https://dc.lft.to/lastmile_qr_scan"}, "is_reserved": 0, "bike_id": "47498539bafc7a383335a55c756fec2e", "name": "47498539bafc7a383335a55c756fec2e"}, {"lat": 38.905071166666666, "fusion_lon": 0.0, "fusion_lat": 0.0, "is_disabled": 0, "type": "electric_scooter", "lon": -77.02943233333333, "rental_uris": {"android": "https://dc.lft.to/lastmile_qr_scan", "ios": "https://dc.lft.to/lastmile_qr_scan"}, "is_reserved": 0, "bike_id": "fb24495b8a884c95823ec5d764e356b0", "name": "fb24495b8a884c95823ec5d764e356b0"}, {"lat": 38.903277333333335, "fusion_lon": 0.0, "fusion_lat": 0.0, "is_disabled": 0, "type": "electric_scooter", "lon": -77.03831533333333, "rental_uris": {"android": "https://dc.lft.to/lastmile_qr_scan", "ios": "https://dc.lft.to/lastmile_qr_scan"}, "is_reserved": 0, "bike_id": "3d90ffd99a1a6f5eabc49abc643d9a72", "name": "3d90ffd99a1a6f5eabc49abc643d9a72"}, {"lat": 38.89559933333334, "fusion_lon": 0.0, "fusion_lat": 0.0, "is_disabled": 0, "type": "electric_scooter", "lon": -77.04677333333333, "rental_uris": {"android": "https://dc.lft.to/lastmile_qr_scan", "ios": "https://dc.lft.to/lastmile_qr_scan"}, "is_reserved": 0, "bike_id": "d45133c4dbf4bb85a7d96f6917c41a7d", "name": "d45133c4dbf4bb85a7d96f6917c41a7d"}, {"lat": 38.898526833333335, "fusion_lon": 0.0, "fusion_lat": 0.0, "is_disabled": 0, "type": "electric_bike", "lon": -76.93189183333334, "rental_uris": {"android": "https://dc.lft.to/lastmile_qr_scan", "ios": "https://dc.lft.to/lastmile_qr_scan"}, "is_reserved": 0, "bike_id": "4d630048a5dba955337bb77f26f71ade", "name": "4d630048a5dba955337bb77f26f71ade"}, {"lat": 38.89621133333333, "fusion_lon": 0.0, "fusion_lat": 0.0, "is_disabled": 0, "type": "electric_scooter", "lon": -76.99933366666667, "rental_uris": {"android": "https://dc.lft.to/lastmile_qr_scan", "ios": "https://dc.lft.to/lastmile_qr_scan"}, "is_reserved": 0, "bike_id": "b9a7dc7631c1f894d763f44733c1ed47", "name": "b9a7dc7631c1f894d763f44733c1ed47"}, {"lat": 38.94603766666667, "fusion_lon": 0.0, "fusion_lat": 0.0, "is_disabled": 0, "type": "electric_scooter", "lon": -77.02984883333333, "rental_uris": {"android": "https://dc.lft.to/lastmile_qr_scan", "ios": "https://dc.lft.to/lastmile_qr_scan"}, "is_reserved": 0, "bike_id": "dd98dba2a38095f96f5ead3068b32f50", "name": "dd98dba2a38095f96f5ead3068b32f50"}, {"lat": 38.910272666666664, "fusion_lon": 0.0, "fusion_lat": 0.0, "is_disabled": 0, "type": "electric_scooter", "lon": -77.0075555, "rental_uris": {"android": "https://dc.lft.to/lastmile_qr_scan", "ios": "https://dc.lft.to/lastmile_qr_scan"}, "is_reserved": 0, "bike_id": "31faa56ff7b972b7676564a2ff9c9dee", "name": "31faa56ff7b972b7676564a2ff9c9dee"}, {"lat": 38.958498166666665, "fusion_lon": 0.0, "fusion_lat": 0.0, "is_disabled": 0, "type": "electric_scooter", "lon": -77.02904233333334, "rental_uris": {"android": "https://dc.lft.to/lastmile_qr_scan", "ios": "https://dc.lft.to/lastmile_qr_scan"}, "is_reserved": 0, "bike_id": "912ae78a38962a9cd92a36d5044ec326", "name": "912ae78a38962a9cd92a36d5044ec326"}, {"lat": 38.8844865, "fusion_lon": 0.0, "fusion_lat": 0.0, "is_disabled": 0, "type": "electric_scooter", "lon": -77.02373666666666, "rental_uris": {"android": "https://dc.lft.to/lastmile_qr_scan", "ios": "https://dc.lft.to/lastmile_qr_scan"}, "is_reserved": 0, "bike_id": "b7db956df3a2ec7e2452aac50c0245b1", "name": "b7db956df3a2ec7e2452aac50c0245b1"}, {"lat": 38.90705466666667, "fusion_lon": 0.0, "fusion_lat": 0.0, "is_disabled": 0, "type": "electric_scooter", "lon": -77.03598833333334, "rental_uris": {"android": "https://dc.lft.to/lastmile_qr_scan", "ios": "https://dc.lft.to/lastmile_qr_scan"}, "is_reserved": 0, "bike_id": "e792d0f151984b3523e55c099384ff91", "name": "e792d0f151984b3523e55c099384ff91"}, {"lat": 38.912631166666664, "fusion_lon": 0.0, "fusion_lat": 0.0, "is_disabled": 0, "type": "electric_scooter", "lon": -77.038689, "rental_uris": {"android": "https://dc.lft.to/lastmile_qr_scan", "ios": "https://dc.lft.to/lastmile_qr_scan"}, "is_reserved": 0, "bike_id": "58fbe3443db9e1e922286d0e30b61d84", "name": "58fbe3443db9e1e922286d0e30b61d84"}, {"lat": 38.91497233333333, "fusion_lon": 0.0, "fusion_lat": 0.0, "is_disabled": 0, "type": "electric_scooter", "lon": -77.0121285, "rental_uris": {"android": "https://dc.lft.to/lastmile_qr_scan", "ios": "https://dc.lft.to/lastmile_qr_scan"}, "is_reserved": 0, "bike_id": "9cea2c552b09289be463a01af80c6ee4", "name": "9cea2c552b09289be463a01af80c6ee4"}, {"lat": 38.9245295, "fusion_lon": 0.0, "fusion_lat": 0.0, "is_disabled": 0, "type": "electric_scooter", "lon": -77.0390845, "rental_uris": {"android": "https://dc.lft.to/lastmile_qr_scan", "ios": "https://dc.lft.to/lastmile_qr_scan"}, "is_reserved": 0, "bike_id": "f0254357218a2594ef88a1f6a8318d05", "name": "f0254357218a2594ef88a1f6a8318d05"}, {"lat": 38.936793, "fusion_lon": 0.0, "fusion_lat": 0.0, "is_disabled": 0, "type": "electric_scooter", "lon": -77.03622166666666, "rental_uris": {"android": "https://dc.lft.to/lastmile_qr_scan", "ios": "https://dc.lft.to/lastmile_qr_scan"}, "is_reserved": 0, "bike_id": "0eefa33e29580ae5c71cc814c51ccb24", "name": "0eefa33e29580ae5c71cc814c51ccb24"}, {"lat": 38.92386883333333, "fusion_lon": 0.0, "fusion_lat": 0.0, "is_disabled": 0, "type": "electric_scooter", "lon": -77.04090433333333, "rental_uris": {"android": "https://dc.lft.to/lastmile_qr_scan", "ios": "https://dc.lft.to/lastmile_qr_scan"}, "is_reserved": 0, "bike_id": "02b00c04789c7b3f0d7f7936b1eeea14", "name": "02b00c04789c7b3f0d7f7936b1eeea14"}, {"lat": 38.867193, "fusion_lon": 0.0, "fusion_lat": 0.0, "is_disabled": 0, "type": "electric_scooter", "lon": -76.9873605, "rental_uris": {"android": "https://dc.lft.to/lastmile_qr_scan", "ios": "https://dc.lft.to/lastmile_qr_scan"}, "is_reserved": 0, "bike_id": "7964f0c0eb581e7eb32b60709bb14a68", "name": "7964f0c0eb581e7eb32b60709bb14a68"}, {"lat": 38.9091345, "fusion_lon": 0.0, "fusion_lat": 0.0, "is_disabled": 0, "type": "electric_scooter", "lon": -77.04399416666666, "rental_uris": {"android": "https://dc.lft.to/lastmile_qr_scan", "ios": "https://dc.lft.to/lastmile_qr_scan"}, "is_reserved": 0, "bike_id": "3f329a613bd710cc60bcd625e0112a86", "name": "3f329a613bd710cc60bcd625e0112a86"}, {"lat": 38.88589866666667, "fusion_lon": 0.0, "fusion_lat": 0.0, "is_disabled": 0, "type": "electric_scooter", "lon": -77.02566933333334, "rental_uris": {"android": "https://dc.lft.to/lastmile_qr_scan", "ios": "https://dc.lft.to/lastmile_qr_scan"}, "is_reserved": 0, "bike_id": "75204ab7299f5cd57701e8e67c46293b", "name": "75204ab7299f5cd57701e8e67c46293b"}, {"lat": 38.90476133333333, "fusion_lon": 0.0, "fusion_lat": 0.0, "is_disabled": 0, "type": "electric_scooter", "lon": -77.00721966666667, "rental_uris": {"android": "https://dc.lft.to/lastmile_qr_scan", "ios": "https://dc.lft.to/lastmile_qr_scan"}, "is_reserved": 0, "bike_id": "28c69c58f54ee1780e3636c7ae9edbba", "name": "28c69c58f54ee1780e3636c7ae9edbba"}, {"lat": 38.93913633333333, "fusion_lon": 0.0, "fusion_lat": 0.0, "is_disabled": 0, "type": "electric_scooter", "lon": -77.06040616666667, "rental_uris": {"android": "https://dc.lft.to/lastmile_qr_scan", "ios": "https://dc.lft.to/lastmile_qr_scan"}, "is_reserved": 0, "bike_id": "61619382f637e965df135e033d7990ab", "name": "61619382f637e965df135e033d7990ab"}, {"lat": 38.88448833333333, "fusion_lon": 0.0, "fusion_lat": 0.0, "is_disabled": 0, "type": "electric_scooter", "lon": -76.996148, "rental_uris": {"android": "https://dc.lft.to/lastmile_qr_scan", "ios": "https://dc.lft.to/lastmile_qr_scan"}, "is_reserved": 0, "bike_id": "10712b7662359846db9dfc1f400ddfeb", "name": "10712b7662359846db9dfc1f400ddfeb"}, {"lat": 38.907943, "fusion_lon": 0.0, "fusion_lat": 0.0, "is_disabled": 0, "type": "electric_scooter", "lon": -76.94119266666667, "rental_uris": {"android": "https://dc.lft.to/lastmile_qr_scan", "ios": "https://dc.lft.to/lastmile_qr_scan"}, "is_reserved": 0, "bike_id": "922ffe408d02f2013f8da842b8ecd292", "name": "922ffe408d02f2013f8da842b8ecd292"}, {"lat": 38.892282, "fusion_lon": 0.0, "fusion_lat": 0.0, "is_disabled": 0, "type": "electric_scooter", "lon": -77.0282865, "rental_uris": {"android": "https://dc.lft.to/lastmile_qr_scan", "ios": "https://dc.lft.to/lastmile_qr_scan"}, "is_reserved": 0, "bike_id": "1ba099bfa68b5614fbbb484a697d90fe", "name": "1ba099bfa68b5614fbbb484a697d90fe"}, {"lat": 38.92907183333333, "fusion_lon": 0.0, "fusion_lat": 0.0, "is_disabled": 0, "type": "electric_scooter", "lon": -77.063932, "rental_uris": {"android": "https://dc.lft.to/lastmile_qr_scan", "ios": "https://dc.lft.to/lastmile_qr_scan"}, "is_reserved": 0, "bike_id": "92716cba9959e83b82acffa06f44ba2c", "name": "92716cba9959e83b82acffa06f44ba2c"}, {"lat": 38.90866616666667, "fusion_lon": 0.0, "fusion_lat": 0.0, "is_disabled": 0, "type": "electric_scooter", "lon": -77.02300883333334, "rental_uris": {"android": "https://dc.lft.to/lastmile_qr_scan", "ios": "https://dc.lft.to/lastmile_qr_scan"}, "is_reserved": 0, "bike_id": "f55238e3827333a9f8c3fe60bc24dd02", "name": "f55238e3827333a9f8c3fe60bc24dd02"}, {"lat": 38.904469666666664, "fusion_lon": 0.0, "fusion_lat": 0.0, "is_disabled": 0, "type": "electric_scooter", "lon": -77.05145, "rental_uris": {"android": "https://dc.lft.to/lastmile_qr_scan", "ios": "https://dc.lft.to/lastmile_qr_scan"}, "is_reserved": 0, "bike_id": "4867edbe5f1d44cc8f34d10caf154b71", "name": "4867edbe5f1d44cc8f34d10caf154b71"}, {"lat": 38.917112833333334, "fusion_lon": 0.0, "fusion_lat": 0.0, "is_disabled": 0, "type": "electric_scooter", "lon": -77.02935366666667, "rental_uris": {"android": "https://dc.lft.to/lastmile_qr_scan", "ios": "https://dc.lft.to/lastmile_qr_scan"}, "is_reserved": 0, "bike_id": "864a8ffb3d394dffbdf14dc06a9424ed", "name": "864a8ffb3d394dffbdf14dc06a9424ed"}, {"lat": 38.926126833333335, "fusion_lon": 0.0, "fusion_lat": 0.0, "is_disabled": 0, "type": "electric_scooter", "lon": -77.02162383333334, "rental_uris": {"android": "https://dc.lft.to/lastmile_qr_scan", "ios": "https://dc.lft.to/lastmile_qr_scan"}, "is_reserved": 0, "bike_id": "8b6db0645d00716d1a057e6f4d4aef0f", "name": "8b6db0645d00716d1a057e6f4d4aef0f"}, {"lat": 38.909466, "fusion_lon": 0.0, "fusion_lat": 0.0, "is_disabled": 0, "type": "electric_scooter", "lon": -77.04864983333333, "rental_uris": {"android": "https://dc.lft.to/lastmile_qr_scan", "ios": "https://dc.lft.to/lastmile_qr_scan"}, "is_reserved": 0, "bike_id": "777766bebc1ca26d0f67b5ad480df092", "name": "777766bebc1ca26d0f67b5ad480df092"}, {"lat": 38.942810333333334, "fusion_lon": 0.0, "fusion_lat": 0.0, "is_disabled": 0, "type": "electric_scooter", "lon": -77.029266, "rental_uris": {"android": "https://dc.lft.to/lastmile_qr_scan", "ios": "https://dc.lft.to/lastmile_qr_scan"}, "is_reserved": 0, "bike_id": "ab3c4cc1063516d870067d6776055b7f", "name": "ab3c4cc1063516d870067d6776055b7f"}, {"lat": 38.9052655, "fusion_lon": 0.0, "fusion_lat": 0.0, "is_disabled": 0, "type": "electric_scooter", "lon": -77.05111183333334, "rental_uris": {"android": "https://dc.lft.to/lastmile_qr_scan", "ios": "https://dc.lft.to/lastmile_qr_scan"}, "is_reserved": 0, "bike_id": "d66bec2391fc9f917f50bf45412a54c9", "name": "d66bec2391fc9f917f50bf45412a54c9"}, {"lat": 38.87535233333333, "fusion_lon": 0.0, "fusion_lat": 0.0, "is_disabled": 0, "type": "electric_scooter", "lon": -77.00554416666667, "rental_uris": {"android": "https://dc.lft.to/lastmile_qr_scan", "ios": "https://dc.lft.to/lastmile_qr_scan"}, "is_reserved": 0, "bike_id": "e3682b8a5f9d877a1c45593f0d4ba969", "name": "e3682b8a5f9d877a1c45593f0d4ba969"}, {"lat": 38.884524166666665, "fusion_lon": 0.0, "fusion_lat": 0.0, "is_disabled": 0, "type": "electric_scooter", "lon": -76.99388316666666, "rental_uris": {"android": "https://dc.lft.to/lastmile_qr_scan", "ios": "https://dc.lft.to/lastmile_qr_scan"}, "is_reserved": 0, "bike_id": "8714022970f02877fd4ca16263ff0f46", "name": "8714022970f02877fd4ca16263ff0f46"}, {"lat": 38.909328, "fusion_lon": 0.0, "fusion_lat": 0.0, "is_disabled": 0, "type": "electric_scooter", "lon": -77.03947683333334, "rental_uris": {"android": "https://dc.lft.to/lastmile_qr_scan", "ios": "https://dc.lft.to/lastmile_qr_scan"}, "is_reserved": 0, "bike_id": "c958f9ce154e93466137d5d8b4325419", "name": "c958f9ce154e93466137d5d8b4325419"}, {"lat": 38.924248166666665, "fusion_lon": 0.0, "fusion_lat": 0.0, "is_disabled": 0, "type": "electric_scooter", "lon": -77.040419, "rental_uris": {"android": "https://dc.lft.to/lastmile_qr_scan", "ios": "https://dc.lft.to/lastmile_qr_scan"}, "is_reserved": 0, "bike_id": "fb51fa63c5dba6a026532a1152465826", "name": "fb51fa63c5dba6a026532a1152465826"}, {"lat": 38.895562166666664, "fusion_lon": 0.0, "fusion_lat": 0.0, "is_disabled": 0, "type": "electric_scooter", "lon": -77.0467675, "rental_uris": {"android": "https://dc.lft.to/lastmile_qr_scan", "ios": "https://dc.lft.to/lastmile_qr_scan"}, "is_reserved": 0, "bike_id": "ce9d46ae6a5367485dda0e56b247425c", "name": "ce9d46ae6a5367485dda0e56b247425c"}, {"lat": 38.936636166666666, "fusion_lon": 0.0, "fusion_lat": 0.0, "is_disabled": 0, "type": "electric_scooter", "lon": -77.032606, "rental_uris": {"android": "https://dc.lft.to/lastmile_qr_scan", "ios": "https://dc.lft.to/lastmile_qr_scan"}, "is_reserved": 0, "bike_id": "b431782f1c9dcbfb45ca01fd108321d6", "name": "b431782f1c9dcbfb45ca01fd108321d6"}, {"lat": 38.9057865, "fusion_lon": 0.0, "fusion_lat": 0.0, "is_disabled": 0, "type": "electric_scooter", "lon": -77.04660366666667, "rental_uris": {"android": "https://dc.lft.to/lastmile_qr_scan", "ios": "https://dc.lft.to/lastmile_qr_scan"}, "is_reserved": 0, "bike_id": "77ea4d186121b40329d4c032387ca10a", "name": "77ea4d186121b40329d4c032387ca10a"}, {"lat": 38.9090445, "fusion_lon": 0.0, "fusion_lat": 0.0, "is_disabled": 0, "type": "electric_scooter", "lon": -77.00299833333334, "rental_uris": {"android": "https://dc.lft.to/lastmile_qr_scan", "ios": "https://dc.lft.to/lastmile_qr_scan"}, "is_reserved": 0, "bike_id": "7c51371f20b2126f3066c40b214c2039", "name": "7c51371f20b2126f3066c40b214c2039"}, {"lat": 38.939138166666666, "fusion_lon": 0.0, "fusion_lat": 0.0, "is_disabled": 0, "type": "electric_scooter", "lon": -77.060448, "rental_uris": {"android": "https://dc.lft.to/lastmile_qr_scan", "ios": "https://dc.lft.to/lastmile_qr_scan"}, "is_reserved": 0, "bike_id": "2874a80bf7bb0e32ed5747854d8eca37", "name": "2874a80bf7bb0e32ed5747854d8eca37"}, {"lat": 38.90781883333333, "fusion_lon": 0.0, "fusion_lat": 0.0, "is_disabled": 0, "type": "electric_scooter", "lon": -77.06403633333333, "rental_uris": {"android": "https://dc.lft.to/lastmile_qr_scan", "ios": "https://dc.lft.to/lastmile_qr_scan"}, "is_reserved": 0, "bike_id": "9047321b4ec4e91192eb74c2e127ee06", "name": "9047321b4ec4e91192eb74c2e127ee06"}, {"lat": 38.90987233333333, "fusion_lon": 0.0, "fusion_lat": 0.0, "is_disabled": 0, "type": "electric_scooter", "lon": -77.04258366666667, "rental_uris": {"android": "https://dc.lft.to/lastmile_qr_scan", "ios": "https://dc.lft.to/lastmile_qr_scan"}, "is_reserved": 0, "bike_id": "da0ced0cd9b4c278cf479b86d69dce61", "name": "da0ced0cd9b4c278cf479b86d69dce61"}, {"lat": 38.89756216666667, "fusion_lon": 0.0, "fusion_lat": 0.0, "is_disabled": 0, "type": "electric_scooter", "lon": -77.02987083333333, "rental_uris": {"android": "https://dc.lft.to/lastmile_qr_scan", "ios": "https://dc.lft.to/lastmile_qr_scan"}, "is_reserved": 0, "bike_id": "a65a6033efe82ab773b3aaa0674a5fde", "name": "a65a6033efe82ab773b3aaa0674a5fde"}, {"lat": 39.02299683333333, "fusion_lon": 0.0, "fusion_lat": 0.0, "is_disabled": 0, "type": "electric_bike", "lon": -77.0210745, "rental_uris": {"android": "https://dc.lft.to/lastmile_qr_scan", "ios": "https://dc.lft.to/lastmile_qr_scan"}, "is_reserved": 0, "bike_id": "537de1a07fc07c82d7162b0bd510c013", "name": "537de1a07fc07c82d7162b0bd510c013"}, {"lat": 38.863785, "fusion_lon": 0.0, "fusion_lat": 0.0, "is_disabled": 0, "type": "electric_bike", "lon": -77.12899466666667, "rental_uris": {"android": "https://dc.lft.to/lastmile_qr_scan", "ios": "https://dc.lft.to/lastmile_qr_scan"}, "is_reserved": 0, "bike_id": "660fa2689c86748e3440710b76905078", "name": "660fa2689c86748e3440710b76905078"}, {"lat": 38.9142915, "fusion_lon": 0.0, "fusion_lat": 0.0, "is_disabled": 0, "type": "electric_scooter", "lon": -77.00195883333333, "rental_uris": {"android": "https://dc.lft.to/lastmile_qr_scan", "ios": "https://dc.lft.to/lastmile_qr_scan"}, "is_reserved": 0, "bike_id": "d1dbc91edc896b80ee694587d6851233", "name": "d1dbc91edc896b80ee694587d6851233"}, {"lat": 38.9081845, "fusion_lon": 0.0, "fusion_lat": 0.0, "is_disabled": 0, "type": "electric_scooter", "lon": -77.03942833333333, "rental_uris": {"android": "https://dc.lft.to/lastmile_qr_scan", "ios": "https://dc.lft.to/lastmile_qr_scan"}, "is_reserved": 0, "bike_id": "d3fed8ebc9f5e661411cf64287a92f55", "name": "d3fed8ebc9f5e661411cf64287a92f55"}, {"lat": 38.896188333333335, "fusion_lon": 0.0, "fusion_lat": 0.0, "is_disabled": 0, "type": "electric_scooter", "lon": -77.01157966666666, "rental_uris": {"android": "https://dc.lft.to/lastmile_qr_scan", "ios": "https://dc.lft.to/lastmile_qr_scan"}, "is_reserved": 0, "bike_id": "dba3e0aa85fcdc1555a0d95faa3ef8fb", "name": "dba3e0aa85fcdc1555a0d95faa3ef8fb"}, {"lat": 38.91267533333333, "fusion_lon": 0.0, "fusion_lat": 0.0, "is_disabled": 0, "type": "electric_scooter", "lon": -77.04553616666666, "rental_uris": {"android": "https://dc.lft.to/lastmile_qr_scan", "ios": "https://dc.lft.to/lastmile_qr_scan"}, "is_reserved": 0, "bike_id": "0acd54ae551aec247fb70336eef598c2", "name": "0acd54ae551aec247fb70336eef598c2"}, {"lat": 38.898684833333334, "fusion_lon": 0.0, "fusion_lat": 0.0, "is_disabled": 0, "type": "electric_scooter", "lon": -76.94664416666667, "rental_uris": {"android": "https://dc.lft.to/lastmile_qr_scan", "ios": "https://dc.lft.to/lastmile_qr_scan"}, "is_reserved": 0, "bike_id": "918b6763a9c48b1ca5ac7a36f40d9fe3", "name": "918b6763a9c48b1ca5ac7a36f40d9fe3"}, {"lat": 38.934611, "fusion_lon": 0.0, "fusion_lat": 0.0, "is_disabled": 0, "type": "electric_bike", "lon": -77.08949066666666, "rental_uris": {"android": "https://dc.lft.to/lastmile_qr_scan", "ios": "https://dc.lft.to/lastmile_qr_scan"}, "is_reserved": 0, "bike_id": "9303efcf4140954ca7979601bc2f107d", "name": "9303efcf4140954ca7979601bc2f107d"}, {"lat": 38.8999735, "fusion_lon": 0.0, "fusion_lat": 0.0, "is_disabled": 0, "type": "electric_scooter", "lon": -77.03172266666667, "rental_uris": {"android": "https://dc.lft.to/lastmile_qr_scan", "ios": "https://dc.lft.to/lastmile_qr_scan"}, "is_reserved": 0, "bike_id": "44cc15b7d04183443a32d0b84d87ddab", "name": "44cc15b7d04183443a32d0b84d87ddab"}, {"lat": 38.920621833333335, "fusion_lon": 0.0, "fusion_lat": 0.0, "is_disabled": 0, "type": "electric_scooter", "lon": -77.04250883333333, "rental_uris": {"android": "https://dc.lft.to/lastmile_qr_scan", "ios": "https://dc.lft.to/lastmile_qr_scan"}, "is_reserved": 0, "bike_id": "83710c823915effc97794bfa154503da", "name": "83710c823915effc97794bfa154503da"}, {"lat": 38.91968216666667, "fusion_lon": 0.0, "fusion_lat": 0.0, "is_disabled": 0, "type": "electric_bike", "lon": -77.03208316666667, "rental_uris": {"android": "https://dc.lft.to/lastmile_qr_scan", "ios": "https://dc.lft.to/lastmile_qr_scan"}, "is_reserved": 0, "bike_id": "64dac2944a87089500e0e163d9ab3135", "name": "64dac2944a87089500e0e163d9ab3135"}, {"lat": 38.90054633333333, "fusion_lon": 0.0, "fusion_lat": 0.0, "is_disabled": 0, "type": "electric_scooter", "lon": -77.031719, "rental_uris": {"android": "https://dc.lft.to/lastmile_qr_scan", "ios": "https://dc.lft.to/lastmile_qr_scan"}, "is_reserved": 0, "bike_id": "defda7a00938740c9ef09d95127a6a21", "name": "defda7a00938740c9ef09d95127a6a21"}, {"lat": 38.9043125, "fusion_lon": 0.0, "fusion_lat": 0.0, "is_disabled": 0, "type": "electric_scooter", "lon": -77.04661583333333, "rental_uris": {"android": "https://dc.lft.to/lastmile_qr_scan", "ios": "https://dc.lft.to/lastmile_qr_scan"}, "is_reserved": 0, "bike_id": "0ce82c4a0118b3440f9123c49ecbb9ff", "name": "0ce82c4a0118b3440f9123c49ecbb9ff"}, {"lat": 38.90288066666667, "fusion_lon": 0.0, "fusion_lat": 0.0, "is_disabled": 0, "type": "electric_scooter", "lon": -76.936599, "rental_uris": {"android": "https://dc.lft.to/lastmile_qr_scan", "ios": "https://dc.lft.to/lastmile_qr_scan"}, "is_reserved": 0, "bike_id": "e0e9b0ce4126e02d1748d56dbd999d6a", "name": "e0e9b0ce4126e02d1748d56dbd999d6a"}, {"lat": 38.894003833333336, "fusion_lon": 0.0, "fusion_lat": 0.0, "is_disabled": 0, "type": "electric_scooter", "lon": -77.02135783333334, "rental_uris": {"android": "https://dc.lft.to/lastmile_qr_scan", "ios": "https://dc.lft.to/lastmile_qr_scan"}, "is_reserved": 0, "bike_id": "7298055e72d8cc7abeabd8f764bb1901", "name": "7298055e72d8cc7abeabd8f764bb1901"}, {"lat": 38.90794266666666, "fusion_lon": 0.0, "fusion_lat": 0.0, "is_disabled": 0, "type": "electric_scooter", "lon": -76.94119783333333, "rental_uris": {"android": "https://dc.lft.to/lastmile_qr_scan", "ios": "https://dc.lft.to/lastmile_qr_scan"}, "is_reserved": 0, "bike_id": "06a9bedd07602c1b80af0fdb21856fc9", "name": "06a9bedd07602c1b80af0fdb21856fc9"}, {"lat": 38.91177183333333, "fusion_lon": 0.0, "fusion_lat": 0.0, "is_disabled": 0, "type": "electric_scooter", "lon": -76.987737, "rental_uris": {"android": "https://dc.lft.to/lastmile_qr_scan", "ios": "https://dc.lft.to/lastmile_qr_scan"}, "is_reserved": 0, "bike_id": "aeadc25eff7c088096d3303700f332fa", "name": "aeadc25eff7c088096d3303700f332fa"}, {"lat": 38.88737066666667, "fusion_lon": 0.0, "fusion_lat": 0.0, "is_disabled": 0, "type": "electric_scooter", "lon": -77.023943, "rental_uris": {"android": "https://dc.lft.to/lastmile_qr_scan", "ios": "https://dc.lft.to/lastmile_qr_scan"}, "is_reserved": 0, "bike_id": "8421bae21b49a07c082cbc3bd92a15d4", "name": "8421bae21b49a07c082cbc3bd92a15d4"}, {"lat": 38.914266166666664, "fusion_lon": 0.0, "fusion_lat": 0.0, "is_disabled": 0, "type": "electric_scooter", "lon": -77.04017066666667, "rental_uris": {"android": "https://dc.lft.to/lastmile_qr_scan", "ios": "https://dc.lft.to/lastmile_qr_scan"}, "is_reserved": 0, "bike_id": "e07d37e7be8389e94910f32982e7d03f", "name": "e07d37e7be8389e94910f32982e7d03f"}, {"lat": 38.921217, "fusion_lon": 0.0, "fusion_lat": 0.0, "is_disabled": 0, "type": "electric_scooter", "lon": -77.03662983333334, "rental_uris": {"android": "https://dc.lft.to/lastmile_qr_scan", "ios": "https://dc.lft.to/lastmile_qr_scan"}, "is_reserved": 0, "bike_id": "66bae37a2bafbda872984b403ae1d141", "name": "66bae37a2bafbda872984b403ae1d141"}, {"lat": 38.92163516666667, "fusion_lon": 0.0, "fusion_lat": 0.0, "is_disabled": 0, "type": "electric_scooter", "lon": -77.04363283333333, "rental_uris": {"android": "https://dc.lft.to/lastmile_qr_scan", "ios": "https://dc.lft.to/lastmile_qr_scan"}, "is_reserved": 0, "bike_id": "35d9de47f917b7ba02eb6c2388776040", "name": "35d9de47f917b7ba02eb6c2388776040"}, {"lat": 38.855625333333336, "fusion_lon": 0.0, "fusion_lat": 0.0, "is_disabled": 0, "type": "electric_scooter", "lon": -76.98703366666666, "rental_uris": {"android": "https://dc.lft.to/lastmile_qr_scan", "ios": "https://dc.lft.to/lastmile_qr_scan"}, "is_reserved": 0, "bike_id": "c0ce6013a27f8fdb41d340ab31b2aaa6", "name": "c0ce6013a27f8fdb41d340ab31b2aaa6"}, {"lat": 38.942231, "fusion_lon": 0.0, "fusion_lat": 0.0, "is_disabled": 0, "type": "electric_scooter", "lon": -77.06165083333333, "rental_uris": {"android": "https://dc.lft.to/lastmile_qr_scan", "ios": "https://dc.lft.to/lastmile_qr_scan"}, "is_reserved": 0, "bike_id": "defd24ee2adcb623768b20add530a0a0", "name": "defd24ee2adcb623768b20add530a0a0"}, {"lat": 38.888241, "fusion_lon": 0.0, "fusion_lat": 0.0, "is_disabled": 0, "type": "electric_bike", "lon": -77.12741333333334, "rental_uris": {"android": "https://dc.lft.to/lastmile_qr_scan", "ios": "https://dc.lft.to/lastmile_qr_scan"}, "is_reserved": 0, "bike_id": "9f4164608b7a2de43df3af7e8a48039b", "name": "9f4164608b7a2de43df3af7e8a48039b"}, {"lat": 38.90410466666667, "fusion_lon": 0.0, "fusion_lat": 0.0, "is_disabled": 0, "type": "electric_scooter", "lon": -77.0433255, "rental_uris": {"android": "https://dc.lft.to/lastmile_qr_scan", "ios": "https://dc.lft.to/lastmile_qr_scan"}, "is_reserved": 0, "bike_id": "e6cf7637b8074109f6d472d18c00d6f3", "name": "e6cf7637b8074109f6d472d18c00d6f3"}, {"lat": 38.902682, "fusion_lon": 0.0, "fusion_lat": 0.0, "is_disabled": 0, "type": "electric_scooter", "lon": -77.0263805, "rental_uris": {"android": "https://dc.lft.to/lastmile_qr_scan", "ios": "https://dc.lft.to/lastmile_qr_scan"}, "is_reserved": 0, "bike_id": "6cb4b9171b947bc8ac1487ecbeff360a", "name": "6cb4b9171b947bc8ac1487ecbeff360a"}, {"lat": 38.905824833333334, "fusion_lon": 0.0, "fusion_lat": 0.0, "is_disabled": 0, "type": "electric_scooter", "lon": -77.00588566666667, "rental_uris": {"android": "https://dc.lft.to/lastmile_qr_scan", "ios": "https://dc.lft.to/lastmile_qr_scan"}, "is_reserved": 0, "bike_id": "8d99fadc780f2a9483fa0cc8366f521e", "name": "8d99fadc780f2a9483fa0cc8366f521e"}, {"lat": 38.89889383333333, "fusion_lon": 0.0, "fusion_lat": 0.0, "is_disabled": 0, "type": "electric_scooter", "lon": -76.93160033333334, "rental_uris": {"android": "https://dc.lft.to/lastmile_qr_scan", "ios": "https://dc.lft.to/lastmile_qr_scan"}, "is_reserved": 0, "bike_id": "f5e5e12f59108f71e7e2c278398a5aaa", "name": "f5e5e12f59108f71e7e2c278398a5aaa"}, {"lat": 38.91114833333334, "fusion_lon": 0.0, "fusion_lat": 0.0, "is_disabled": 0, "type": "electric_scooter", "lon": -77.03830416666666, "rental_uris": {"android": "https://dc.lft.to/lastmile_qr_scan", "ios": "https://dc.lft.to/lastmile_qr_scan"}, "is_reserved": 0, "bike_id": "428fb84755b2b9d6e91f364eafed02ac", "name": "428fb84755b2b9d6e91f364eafed02ac"}, {"lat": 38.90246233333333, "fusion_lon": 0.0, "fusion_lat": 0.0, "is_disabled": 0, "type": "electric_scooter", "lon": -77.0342925, "rental_uris": {"android": "https://dc.lft.to/lastmile_qr_scan", "ios": "https://dc.lft.to/lastmile_qr_scan"}, "is_reserved": 0, "bike_id": "5ef3632e4d8069817900d01b33131b08", "name": "5ef3632e4d8069817900d01b33131b08"}, {"lat": 38.90244883333333, "fusion_lon": 0.0, "fusion_lat": 0.0, "is_disabled": 0, "type": "electric_scooter", "lon": -76.9988895, "rental_uris": {"android": "https://dc.lft.to/lastmile_qr_scan", "ios": "https://dc.lft.to/lastmile_qr_scan"}, "is_reserved": 0, "bike_id": "1fd3b4fe741ecbb0e8b5dd99eb409d89", "name": "1fd3b4fe741ecbb0e8b5dd99eb409d89"}, {"lat": 38.902643833333336, "fusion_lon": 0.0, "fusion_lat": 0.0, "is_disabled": 0, "type": "electric_scooter", "lon": -77.034748, "rental_uris": {"android": "https://dc.lft.to/lastmile_qr_scan", "ios": "https://dc.lft.to/lastmile_qr_scan"}, "is_reserved": 0, "bike_id": "9468183ea8595a2a12d51f7f15eb26a6", "name": "9468183ea8595a2a12d51f7f15eb26a6"}, {"lat": 38.900867, "fusion_lon": 0.0, "fusion_lat": 0.0, "is_disabled": 0, "type": "electric_scooter", "lon": -77.00210983333334, "rental_uris": {"android": "https://dc.lft.to/lastmile_qr_scan", "ios": "https://dc.lft.to/lastmile_qr_scan"}, "is_reserved": 0, "bike_id": "4dcb7b1df51e145cb2b8931623a5f7d6", "name": "4dcb7b1df51e145cb2b8931623a5f7d6"}, {"lat": 38.916987, "fusion_lon": 0.0, "fusion_lat": 0.0, "is_disabled": 0, "type": "electric_scooter", "lon": -77.03569116666667, "rental_uris": {"android": "https://dc.lft.to/lastmile_qr_scan", "ios": "https://dc.lft.to/lastmile_qr_scan"}, "is_reserved": 0, "bike_id": "94949e1a254a7c04b666178f4963b29f", "name": "94949e1a254a7c04b666178f4963b29f"}, {"lat": 38.917562, "fusion_lon": 0.0, "fusion_lat": 0.0, "is_disabled": 0, "type": "electric_scooter", "lon": -77.02486833333333, "rental_uris": {"android": "https://dc.lft.to/lastmile_qr_scan", "ios": "https://dc.lft.to/lastmile_qr_scan"}, "is_reserved": 0, "bike_id": "f978517e81e1bd9b9cfcfb1387af3eb7", "name": "f978517e81e1bd9b9cfcfb1387af3eb7"}, {"lat": 38.85219633333333, "fusion_lon": 0.0, "fusion_lat": 0.0, "is_disabled": 0, "type": "electric_bike", "lon": -77.12960583333333, "rental_uris": {"android": "https://dc.lft.to/lastmile_qr_scan", "ios": "https://dc.lft.to/lastmile_qr_scan"}, "is_reserved": 0, "bike_id": "024cb4cd6960f433867e69e13999ba3a", "name": "024cb4cd6960f433867e69e13999ba3a"}, {"lat": 38.912581333333335, "fusion_lon": 0.0, "fusion_lat": 0.0, "is_disabled": 0, "type": "electric_scooter", "lon": -77.00926283333334, "rental_uris": {"android": "https://dc.lft.to/lastmile_qr_scan", "ios": "https://dc.lft.to/lastmile_qr_scan"}, "is_reserved": 0, "bike_id": "fe8b2760becc6c24017133bcee4f0dde", "name": "fe8b2760becc6c24017133bcee4f0dde"}, {"lat": 38.89485083333334, "fusion_lon": 0.0, "fusion_lat": 0.0, "is_disabled": 0, "type": "electric_scooter", "lon": -76.9951725, "rental_uris": {"android": "https://dc.lft.to/lastmile_qr_scan", "ios": "https://dc.lft.to/lastmile_qr_scan"}, "is_reserved": 0, "bike_id": "185a97740cb095910c41935a7082cfdd", "name": "185a97740cb095910c41935a7082cfdd"}, {"lat": 38.905003666666666, "fusion_lon": 0.0, "fusion_lat": 0.0, "is_disabled": 0, "type": "electric_scooter", "lon": -77.040867, "rental_uris": {"android": "https://dc.lft.to/lastmile_qr_scan", "ios": "https://dc.lft.to/lastmile_qr_scan"}, "is_reserved": 0, "bike_id": "5d22953803bf4019f98020e308e53a27", "name": "5d22953803bf4019f98020e308e53a27"}, {"lat": 38.913308, "fusion_lon": 0.0, "fusion_lat": 0.0, "is_disabled": 0, "type": "electric_scooter", "lon": -77.04529866666667, "rental_uris": {"android": "https://dc.lft.to/lastmile_qr_scan", "ios": "https://dc.lft.to/lastmile_qr_scan"}, "is_reserved": 0, "bike_id": "6213e2af753888c63249d818657380ea", "name": "6213e2af753888c63249d818657380ea"}, {"lat": 38.9096095, "fusion_lon": 0.0, "fusion_lat": 0.0, "is_disabled": 0, "type": "electric_scooter", "lon": -77.032519, "rental_uris": {"android": "https://dc.lft.to/lastmile_qr_scan", "ios": "https://dc.lft.to/lastmile_qr_scan"}, "is_reserved": 0, "bike_id": "b984ecfe62900c1aee143726bd4a13b1", "name": "b984ecfe62900c1aee143726bd4a13b1"}, {"lat": 38.865962833333334, "fusion_lon": 0.0, "fusion_lat": 0.0, "is_disabled": 0, "type": "electric_bike", "lon": -76.9323015, "rental_uris": {"android": "https://dc.lft.to/lastmile_qr_scan", "ios": "https://dc.lft.to/lastmile_qr_scan"}, "is_reserved": 0, "bike_id": "01df3502d8b6e4d1c4eef2a22486759f", "name": "01df3502d8b6e4d1c4eef2a22486759f"}, {"lat": 38.905788, "fusion_lon": 0.0, "fusion_lat": 0.0, "is_disabled": 0, "type": "electric_scooter", "lon": -77.005987, "rental_uris": {"android": "https://dc.lft.to/lastmile_qr_scan", "ios": "https://dc.lft.to/lastmile_qr_scan"}, "is_reserved": 0, "bike_id": "8fe28f0112fcfbe75495881c14e94741", "name": "8fe28f0112fcfbe75495881c14e94741"}, {"lat": 38.87462433333334, "fusion_lon": 0.0, "fusion_lat": 0.0, "is_disabled": 0, "type": "electric_scooter", "lon": -77.00594916666667, "rental_uris": {"android": "https://dc.lft.to/lastmile_qr_scan", "ios": "https://dc.lft.to/lastmile_qr_scan"}, "is_reserved": 0, "bike_id": "c621fd174829cb60c04a43096d88c72e", "name": "c621fd174829cb60c04a43096d88c72e"}, {"lat": 38.90859533333333, "fusion_lon": 0.0, "fusion_lat": 0.0, "is_disabled": 0, "type": "electric_scooter", "lon": -77.04549833333333, "rental_uris": {"android": "https://dc.lft.to/lastmile_qr_scan", "ios": "https://dc.lft.to/lastmile_qr_scan"}, "is_reserved": 0, "bike_id": "4f565ea88b1c96dba480cd218e8c1d6f", "name": "4f565ea88b1c96dba480cd218e8c1d6f"}, {"lat": 38.941323, "fusion_lon": 0.0, "fusion_lat": 0.0, "is_disabled": 0, "type": "electric_scooter", "lon": -77.09202916666666, "rental_uris": {"android": "https://dc.lft.to/lastmile_qr_scan", "ios": "https://dc.lft.to/lastmile_qr_scan"}, "is_reserved": 0, "bike_id": "d0dec498eade708e76650c0b0fd1b09a", "name": "d0dec498eade708e76650c0b0fd1b09a"}, {"lat": 38.95567666666667, "fusion_lon": 0.0, "fusion_lat": 0.0, "is_disabled": 0, "type": "electric_scooter", "lon": -77.00637733333333, "rental_uris": {"android": "https://dc.lft.to/lastmile_qr_scan", "ios": "https://dc.lft.to/lastmile_qr_scan"}, "is_reserved": 0, "bike_id": "d55783872b9d0bc24931986c22339980", "name": "d55783872b9d0bc24931986c22339980"}, {"lat": 38.8965895, "fusion_lon": 0.0, "fusion_lat": 0.0, "is_disabled": 0, "type": "electric_scooter", "lon": -77.02674783333333, "rental_uris": {"android": "https://dc.lft.to/lastmile_qr_scan", "ios": "https://dc.lft.to/lastmile_qr_scan"}, "is_reserved": 0, "bike_id": "f73ee840c2351d0d8d0b47f77a309e84", "name": "f73ee840c2351d0d8d0b47f77a309e84"}, {"lat": 38.9126905, "fusion_lon": 0.0, "fusion_lat": 0.0, "is_disabled": 0, "type": "electric_scooter", "lon": -77.07255416666666, "rental_uris": {"android": "https://dc.lft.to/lastmile_qr_scan", "ios": "https://dc.lft.to/lastmile_qr_scan"}, "is_reserved": 0, "bike_id": "ed2f6717928a4e80786d1887f1b50105", "name": "ed2f6717928a4e80786d1887f1b50105"}, {"lat": 38.904957333333336, "fusion_lon": 0.0, "fusion_lat": 0.0, "is_disabled": 0, "type": "electric_scooter", "lon": -76.98687933333333, "rental_uris": {"android": "https://dc.lft.to/lastmile_qr_scan", "ios": "https://dc.lft.to/lastmile_qr_scan"}, "is_reserved": 0, "bike_id": "8c63e74eb8bd714234adcd0fbe7d991d", "name": "8c63e74eb8bd714234adcd0fbe7d991d"}, {"lat": 38.904107, "fusion_lon": 0.0, "fusion_lat": 0.0, "is_disabled": 0, "type": "electric_scooter", "lon": -77.00136683333334, "rental_uris": {"android": "https://dc.lft.to/lastmile_qr_scan", "ios": "https://dc.lft.to/lastmile_qr_scan"}, "is_reserved": 0, "bike_id": "aec05f581fd81d0120ea78da75368b45", "name": "aec05f581fd81d0120ea78da75368b45"}, {"lat": 38.899739, "fusion_lon": 0.0, "fusion_lat": 0.0, "is_disabled": 0, "type": "electric_scooter", "lon": -77.0289315, "rental_uris": {"android": "https://dc.lft.to/lastmile_qr_scan", "ios": "https://dc.lft.to/lastmile_qr_scan"}, "is_reserved": 0, "bike_id": "7f265675cfb43cced18f55d2cab5a72f", "name": "7f265675cfb43cced18f55d2cab5a72f"}, {"lat": 38.91030133333334, "fusion_lon": 0.0, "fusion_lat": 0.0, "is_disabled": 0, "type": "electric_scooter", "lon": -77.041545, "rental_uris": {"android": "https://dc.lft.to/lastmile_qr_scan", "ios": "https://dc.lft.to/lastmile_qr_scan"}, "is_reserved": 0, "bike_id": "89dc3d938c4e90dea7b9659f486bfe9b", "name": "89dc3d938c4e90dea7b9659f486bfe9b"},