{"data": {"bikes": [{"rental_uris": {"ios": "https://dc.lft.to/lastmile_qr_scan", "android": "https://dc.lft.to/lastmile_qr_scan"}, "lon": -77.041649, "type": "electric_scooter", "fusion_lat": 0.0, "lat": 38.91340833333334, "name": "b86db59d1bd40e7f5372be4cbfb6a940", "fusion_lon": 0.0, "bike_id": "b86db59d1bd40e7f5372be4cbfb6a940", "is_disabled": 0, "is_reserved": 0}, {"rental_uris": {"ios": "https://dc.lft.to/lastmile_qr_scan", "android": "https://dc.lft.to/lastmile_qr_scan"}, "lon": -76.98231416666667, "type": "electric_scooter", "fusion_lat": 0.0, "lat": 38.867657333333334, "name": "334dd5e93e164c9c420f86e83e468110", "fusion_lon": 0.0, "bike_id": "334dd5e93e164c9c420f86e83e468110", "is_disabled": 0, "is_reserved": 0}, {"rental_uris": {"ios": "https://dc.lft.to/lastmile_qr_scan", "android": "https://dc.lft.to/lastmile_qr_scan"}, "lon": -77.00341916666666, "type": "electric_scooter", "fusion_lat": 0.0, "lat": 38.900545666666666, "name": "856faa2cd457978d8e7e83cebcf46ffd", "fusion_lon": 0.0, "bike_id": "856faa2cd457978d8e7e83cebcf46ffd", "is_disabled": 0, "is_reserved": 0}, {"rental_uris": {"ios": "https://dc.lft.to/lastmile_qr_scan", "android": "https://dc.lft.to/lastmile_qr_scan"}, "lon": -76.99609966666667, "type": "electric_scooter", "fusion_lat": 0.0, "lat": 38.88567583333333, "name": "7d4b226076502ad5752e87c872955aae", "fusion_lon": 0.0, "bike_id": "7d4b226076502ad5752e87c872955aae", "is_disabled": 0, "is_reserved": 0}, {"rental_uris": {"ios": "https://dc.lft.to/lastmile_qr_scan", "android": "https://dc.lft.to/lastmile_qr_scan"}, "lon": -77.04614366666667, "type": "electric_scooter", "fusion_lat": 0.0, "lat": 38.909720166666666, "name": "5eb5a8fe83b09bc8e6ef1f3d191297c0", "fusion_lon": 0.0, "bike_id": "5eb5a8fe83b09bc8e6ef1f3d191297c0", "is_disabled": 0, "is_reserved": 0}, {"rental_uris": {"ios": "https://dc.lft.to/lastmile_qr_scan", "android": "https://dc.lft.to/lastmile_qr_scan"}, "lon": -77.05678433333334, "type": "electric_scooter", "fusion_lat": 0.0, "lat": 38.923407833333336, "name": "9749b738950f0218f4d2a4e65f80efa0", "fusion_lon": 0.0, "bike_id": "9749b738950f0218f4d2a4e65f80efa0", "is_disabled": 0, "is_reserved": 0}, {"rental_uris": {"ios": "https://dc.lft.to/lastmile_qr_scan", "android": "https://dc.lft.to/lastmile_qr_scan"}, "lon": -77.04376633333334, "type": "electric_scooter", "fusion_lat": 0.0, "lat": 38.9072485, "name": "ae2ce96dec38838bf2b0d2d293231b05", "fusion_lon": 0.0, "bike_id": "ae2ce96dec38838bf2b0d2d293231b05", "is_disabled": 0, "is_reserved": 0}, {"rental_uris": {"ios": "https://dc.lft.to/lastmile_qr_scan", "android": "https://dc.lft.to/lastmile_qr_scan"}, "lon": -77.07185366666667, "type": "electric_scooter", "fusion_lat": 0.0, "lat": 38.91995766666667, "name": "2506f6f0e4ceadcaece40d3bbd7472d2", "fusion_lon": 0.0, "bike_id": "2506f6f0e4ceadcaece40d3bbd7472d2", "is_disabled": 0, "is_reserved": 0}, {"rental_uris": {"ios": "https://dc.lft.to/lastmile_qr_scan", "android": "https://dc.lft.to/lastmile_qr_scan"}, "lon": -77.034605, "type": "electric_scooter", "fusion_lat": 0.0, "lat": 38.9167015, "name": "3764114104b5f89354c18e1b504d8848", "fusion_lon": 0.0, "bike_id": "3764114104b5f89354c18e1b504d8848", "is_disabled": 0, "is_reserved": 0}, {"rental_uris": {"ios": "https://dc.lft.to/lastmile_qr_scan", "android": "https://dc.lft.to/lastmile_qr_scan"}, "lon": -77.02570133333333, "type": "electric_scooter", "fusion_lat": 0.0, "lat": 38.88748533333333, "name": "5bbd1b77633b40b1ae11a527f01a0552", "fusion_lon": 0.0, "bike_id": "5bbd1b77633b40b1ae11a527f01a0552", "is_disabled": 0, "is_reserved": 0}, {"rental_uris": {"ios": "https://dc.lft.to/lastmile_qr_scan", "android": "https://dc.lft.to/lastmile_qr_scan"}, "lon": -76.9876045, "type": "electric_scooter", "fusion_lat": 0.0, "lat": 38.84498216666667, "name": "5ee2cf7f38a96347580a6933e53e9725", "fusion_lon": 0.0, "bike_id": "5ee2cf7f38a96347580a6933e53e9725", "is_disabled": 0, "is_reserved": 0}, {"rental_uris": {"ios": "https://dc.lft.to/lastmile_qr_scan", "android": "https://dc.lft.to/lastmile_qr_scan"}, "lon": -77.035265, "type": "electric_scooter", "fusion_lat": 0.0, "lat": 38.93596516666667, "name": "aee4b1c13b07888542d6d38310b52f19", "fusion_lon": 0.0, "bike_id": "aee4b1c13b07888542d6d38310b52f19", "is_disabled": 0, "is_reserved": 0}, {"rental_uris": {"ios": "https://dc.lft.to/lastmile_qr_scan", "android": "https://dc.lft.to/lastmile_qr_scan"}, "lon": -77.03723066666667, "type": "electric_scooter", "fusion_lat": 0.0, "lat": 38.9267185, "name": "138606a8bd6e1ab980f61a2268351601", "fusion_lon": 0.0, "bike_id": "138606a8bd6e1ab980f61a2268351601", "is_disabled": 0, "is_reserved": 0}, {"rental_uris": {"ios": "https://dc.lft.to/lastmile_qr_scan", "android": "https://dc.lft.to/lastmile_qr_scan"}, "lon": -77.02596133333333, "type": "electric_scooter", "fusion_lat": 0.0, "lat": 38.88743766666666, "name": "2f60c1dd39f66904566803048e8cb8c5", "fusion_lon": 0.0, "bike_id": "2f60c1dd39f66904566803048e8cb8c5", "is_disabled": 0, "is_reserved": 0}, {"rental_uris": {"ios": "https://dc.lft.to/lastmile_qr_scan", "android": "https://dc.lft.to/lastmile_qr_scan"}, "lon": -77.04165, "type": "electric_scooter", "fusion_lat": 0.0, "lat": 38.90239916666667, "name": "bfae1af5d65f8d201b7f4ee1a41cac24", "fusion_lon": 0.0, "bike_id": "bfae1af5d65f8d201b7f4ee1a41cac24", "is_disabled": 0, "is_reserved": 0}, {"rental_uris": {"ios": "https://dc.lft.to/lastmile_qr_scan", "android": "https://dc.lft.to/lastmile_qr_scan"}, "lon": -77.0384065, "type": "electric_scooter", "fusion_lat": 0.0, "lat": 38.9104575, "name": "fc11658c74e9bf9e10a32fa72334786d", "fusion_lon": 0.0, "bike_id": "fc11658c74e9bf9e10a32fa72334786d", "is_disabled": 0, "is_reserved": 0}, {"rental_uris": {"ios": "https://dc.lft.to/lastmile_qr_scan", "android": "https://dc.lft.to/lastmile_qr_scan"}, "lon": -77.00336216666666, "type": "electric_scooter", "fusion_lat": 0.0, "lat": 38.893558, "name": "5b4c9579433aaee9f024186e3dc8b5d8", "fusion_lon": 0.0, "bike_id": "5b4c9579433aaee9f024186e3dc8b5d8", "is_disabled": 0, "is_reserved": 0}, {"rental_uris": {"ios": "https://dc.lft.to/lastmile_qr_scan", "android": "https://dc.lft.to/lastmile_qr_scan"}, "lon": -77.0326, "type": "electric_bike", "fusion_lat": 0.0, "lat": 38.93902383333333, "name": "9d88f83fa822f036258c7719d0039255", "fusion_lon": 0.0, "bike_id": "9d88f83fa822f036258c7719d0039255", "is_disabled": 0, "is_reserved": 0}, {"rental_uris": {"ios": "https://dc.lft.to/lastmile_qr_scan", "android": "https://dc.lft.to/lastmile_qr_scan"}, "lon": -76.9759455, "type": "electric_scooter", "fusion_lat": 0.0, "lat": 38.903315166666665, "name": "537af4ab704791e935e450a4ecd4a05c", "fusion_lon": 0.0, "bike_id": "537af4ab704791e935e450a4ecd4a05c", "is_disabled": 0, "is_reserved": 0}, {"rental_uris": {"ios": "https://dc.lft.to/lastmile_qr_scan", "android": "https://dc.lft.to/lastmile_qr_scan"}, "lon": -77.04372083333334, "type": "electric_scooter", "fusion_lat": 0.0, "lat": 38.933414166666665, "name": "3d7eb447e24b056dfd13f4f38a9f54d6", "fusion_lon": 0.0, "bike_id": "3d7eb447e24b056dfd13f4f38a9f54d6", "is_disabled": 0, "is_reserved": 0}, {"rental_uris": {"ios": "https://dc.lft.to/lastmile_qr_scan", "android": "https://dc.lft.to/lastmile_qr_scan"}, "lon": -77.04989233333333, "type": "electric_scooter", "fusion_lat": 0.0, "lat": 38.901179, "name": "242c7fb5f61d0786d7016b1e6d19be72", "fusion_lon": 0.0, "bike_id": "242c7fb5f61d0786d7016b1e6d19be72", "is_disabled": 0, "is_reserved": 0}, {"rental_uris": {"ios": "https://dc.lft.to/lastmile_qr_scan", "android": "https://dc.lft.to/lastmile_qr_scan"}, "lon": -77.0336615, "type": "electric_scooter", "fusion_lat": 0.0, "lat": 38.93592833333334, "name": "24a6cd830cc04cfb6376ee6804fba44b", "fusion_lon": 0.0, "bike_id": "24a6cd830cc04cfb6376ee6804fba44b", "is_disabled": 0, "is_reserved": 0}, {"rental_uris": {"ios": "https://dc.lft.to/lastmile_qr_scan", "android": "https://dc.lft.to/lastmile_qr_scan"}, "lon": -77.03364433333333, "type": "electric_scooter", "fusion_lat": 0.0, "lat": 38.90275366666667, "name": "eccaf9dab80f75fc6c315db7cdcd1015", "fusion_lon": 0.0, "bike_id": "eccaf9dab80f75fc6c315db7cdcd1015", "is_disabled": 0, "is_reserved": 0}, {"rental_uris": {"ios": "https://dc.lft.to/lastmile_qr_scan", "android": "https://dc.lft.to/lastmile_qr_scan"}, "lon": -77.01355466666666, "type": "electric_scooter", "fusion_lat": 0.0, "lat": 38.871213166666664, "name": "36ba735be8b2d5a37321943ac9001f0d", "fusion_lon": 0.0, "bike_id": "36ba735be8b2d5a37321943ac9001f0d", "is_disabled": 0, "is_reserved": 0}, {"rental_uris": {"ios": "https://dc.lft.to/lastmile_qr_scan", "android": "https://dc.lft.to/lastmile_qr_scan"}, "lon": -77.03250016666667, "type": "electric_scooter", "fusion_lat": 0.0, "lat": 38.92928666666667, "name": "7f9c6ae291227f7a976701bbde23d354", "fusion_lon": 0.0, "bike_id": "7f9c6ae291227f7a976701bbde23d354", "is_disabled": 0, "is_reserved": 0}, {"rental_uris": {"ios": "https://dc.lft.to/lastmile_qr_scan", "android": "https://dc.lft.to/lastmile_qr_scan"}, "lon": -77.025382, "type": "electric_scooter", "fusion_lat": 0.0, "lat": 38.921178833333336, "name": "479c8018d37e442b3dfc03069e890125", "fusion_lon": 0.0, "bike_id": "479c8018d37e442b3dfc03069e890125", "is_disabled": 0, "is_reserved": 0}, {"rental_uris": {"ios": "https://dc.lft.to/lastmile_qr_scan", "android": "https://dc.lft.to/lastmile_qr_scan"}, "lon": -76.98700533333333, "type": "electric_scooter", "fusion_lat": 0.0, "lat": 38.900083333333335, "name": "e6ff542cf513b0af1ee38ea4d1c7401a", "fusion_lon": 0.0, "bike_id": "e6ff542cf513b0af1ee38ea4d1c7401a", "is_disabled": 0, "is_reserved": 0}, {"rental_uris": {"ios": "https://dc.lft.to/lastmile_qr_scan", "android": "https://dc.lft.to/lastmile_qr_scan"}, "lon": -77.06085316666666, "type": "electric_scooter", "fusion_lat": 0.0, "lat": 38.9053435, "name": "6f3a88f7aeabb3b8c9197569cb3bec83", "fusion_lon": 0.0, "bike_id": "6f3a88f7aeabb3b8c9197569cb3bec83", "is_disabled": 0, "is_reserved": 0}, {"rental_uris": {"ios": "https://dc.lft.to/lastmile_qr_scan", "android": "https://dc.lft.to/lastmile_qr_scan"}, "lon": -77.022669, "type": "electric_scooter", "fusion_lat": 0.0, "lat": 38.9169745, "name": "05caafb3eb3b25fcd9c69dd665131003", "fusion_lon": 0.0, "bike_id": "05caafb3eb3b25fcd9c69dd665131003", "is_disabled": 0, "is_reserved": 0}, {"rental_uris": {"ios": "https://dc.lft.to/lastmile_qr_scan", "android": "https://dc.lft.to/lastmile_qr_scan"}, "lon": -77.00693833333334, "type": "electric_scooter", "fusion_lat": 0.0, "lat": 38.90539666666667, "name": "d5c09cbef3fb3def07b4fbb8f75e25d2", "fusion_lon": 0.0, "bike_id": "d5c09cbef3fb3def07b4fbb8f75e25d2", "is_disabled": 0, "is_reserved": 0}, {"rental_uris": {"ios": "https://dc.lft.to/lastmile_qr_scan", "android": "https://dc.lft.to/lastmile_qr_scan"}, "lon": -77.02173616666667, "type": "electric_scooter", "fusion_lat": 0.0, "lat": 38.90840733333334, "name": "15b74599d312137a38c8e4e5b2d9132d", "fusion_lon": 0.0, "bike_id": "15b74599d312137a38c8e4e5b2d9132d", "is_disabled": 0, "is_reserved": 0}, {"rental_uris": {"ios": "https://dc.lft.to/lastmile_qr_scan", "android": "https://dc.lft.to/lastmile_qr_scan"}, "lon": -77.03340533333333, "type": "electric_scooter", "fusion_lat": 0.0, "lat": 38.898421166666665, "name": "e53694c3f1f0210ca75984f2ceca50dd", "fusion_lon": 0.0, "bike_id": "e53694c3f1f0210ca75984f2ceca50dd", "is_disabled": 0, "is_reserved": 0}, {"rental_uris": {"ios": "https://dc.lft.to/lastmile_qr_scan", "android": "https://dc.lft.to/lastmile_qr_scan"}, "lon": -76.94925383333333, "type": "electric_scooter", "fusion_lat": 0.0, "lat": 38.894816166666665, "name": "ebea5884458e9fc281349ade2540243e", "fusion_lon": 0.0, "bike_id": "ebea5884458e9fc281349ade2540243e", "is_disabled": 0, "is_reserved": 0}, {"rental_uris": {"ios": "https://dc.lft.to/lastmile_qr_scan", "android": "https://dc.lft.to/lastmile_qr_scan"}, "lon": -77.04999433333333, "type": "electric_scooter", "fusion_lat": 0.0, "lat": 38.8922925, "name": "026ebba6820b20e7349e4ac31b035fb0", "fusion_lon": 0.0, "bike_id": "026ebba6820b20e7349e4ac31b035fb0", "is_disabled": 0, "is_reserved": 0}, {"rental_uris": {"ios": "https://dc.lft.to/lastmile_qr_scan", "android": "https://dc.lft.to/lastmile_qr_scan"}, "lon": -77.02255983333333, "type": "electric_scooter", "fusion_lat": 0.0, "lat": 38.9126985, "name": "9ae81d69d17ba244db7aee1404b496fe", "fusion_lon": 0.0, "bike_id": "9ae81d69d17ba244db7aee1404b496fe", "is_disabled": 0, "is_reserved": 0}, {"rental_uris": {"ios": "https://dc.lft.to/lastmile_qr_scan", "android": "https://dc.lft.to/lastmile_qr_scan"}, "lon": -77.11244366666666, "type": "electric_bike", "fusion_lat": 0.0, "lat": 38.81239683333333, "name": "99c3044c77199ccf70f19f99ee11e505", "fusion_lon": 0.0, "bike_id": "99c3044c77199ccf70f19f99ee11e505", "is_disabled": 0, "is_reserved": 0}, {"rental_uris": {"ios": "https://dc.lft.to/lastmile_qr_scan", "android": "https://dc.lft.to/lastmile_qr_scan"}, "lon": -77.0220725, "type": "electric_scooter", "fusion_lat": 0.0, "lat": 38.88717316666666, "name": "149bca2e1670804dd36508f49d14af56", "fusion_lon": 0.0, "bike_id": "149bca2e1670804dd36508f49d14af56", "is_disabled": 0, "is_reserved": 0}, {"rental_uris": {"ios": "https://dc.lft.to/lastmile_qr_scan", "android": "https://dc.lft.to/lastmile_qr_scan"}, "lon": -76.95243566666667, "type": "electric_bike", "fusion_lat": 0.0, "lat": 38.90703116666667, "name": "277f2eee2fb2af24b64417a047cf4a94", "fusion_lon": 0.0, "bike_id": "277f2eee2fb2af24b64417a047cf4a94", "is_disabled": 0, "is_reserved": 0}, {"rental_uris": {"ios": "https://dc.lft.to/lastmile_qr_scan", "android": "https://dc.lft.to/lastmile_qr_scan"}, "lon": -77.0790305, "type": "electric_bike", "fusion_lat": 0.0, "lat": 38.8393335, "name": "5d565ea0b599f958bc99e0ed0865f802", "fusion_lon": 0.0, "bike_id": "5d565ea0b599f958bc99e0ed0865f802", "is_disabled": 0, "is_reserved": 0}, {"rental_uris": {"ios": "https://dc.lft.to/lastmile_qr_scan", "android": "https://dc.lft.to/lastmile_qr_scan"}, "lon": -77.0009115, "type": "electric_scooter", "fusion_lat": 0.0, "lat": 38.873721, "name": "469371b41744c3c47a45ae15cf36c786", "fusion_lon": 0.0, "bike_id": "469371b41744c3c47a45ae15cf36c786", "is_disabled": 0, "is_reserved": 0}, {"rental_uris": {"ios": "https://dc.lft.to/lastmile_qr_scan", "android": "https://dc.lft.to/lastmile_qr_scan"}, "lon": -77.02979566666667, "type": "electric_scooter", "fusion_lat": 0.0, "lat": 38.895569333333334, "name": "333ee03fee8c38b55e11f0aeb2bcb1b4", "fusion_lon": 0.0, "bike_id": "333ee03fee8c38b55e11f0aeb2bcb1b4", "is_disabled": 0, "is_reserved": 0}, {"rental_uris": {"ios": "https://dc.lft.to/lastmile_qr_scan", "android": "https://dc.lft.to/lastmile_qr_scan"}, "lon": -77.01120066666667, "type": "electric_scooter", "fusion_lat": 0.0, "lat": 38.9133005, "name": "21a258abf887639b94ecd2b0fa5aab1a", "fusion_lon": 0.0, "bike_id": "21a258abf887639b94ecd2b0fa5aab1a", "is_disabled": 0, "is_reserved": 0}, {"rental_uris": {"ios": "https://dc.lft.to/lastmile_qr_scan", "android": "https://dc.lft.to/lastmile_qr_scan"}, "lon": -77.05090516666667, "type": "electric_bike", "fusion_lat": 0.0, "lat": 38.813381, "name": "11f6caa2993e977f0aff3a2999aeb106", "fusion_lon": 0.0, "bike_id": "11f6caa2993e977f0aff3a2999aeb106", "is_disabled": 0, "is_reserved": 0}, {"rental_uris": {"ios": "https://dc.lft.to/lastmile_qr_scan", "android": "https://dc.lft.to/lastmile_qr_scan"}, "lon": -77.11427966666666, "type": "electric_bike", "fusion_lat": 0.0, "lat": 38.84301133333334, "name": "dbd771b51d246ee8fe068e75400aef4a", "fusion_lon": 0.0, "bike_id": "dbd771b51d246ee8fe068e75400aef4a", "is_disabled": 0, "is_reserved": 0}, {"rental_uris": {"ios": "https://dc.lft.to/lastmile_qr_scan", "android": "https://dc.lft.to/lastmile_qr_scan"}, "lon": -76.99955533333333, "type": "electric_scooter", "fusion_lat": 0.0, "lat": 38.90868733333333, "name": "37ae7aabcab74a80aa344665fb54f153", "fusion_lon": 0.0, "bike_id": "37ae7aabcab74a80aa344665fb54f153", "is_disabled": 0, "is_reserved": 0}, {"rental_uris": {"ios": "https://dc.lft.to/lastmile_qr_scan", "android": "https://dc.lft.to/lastmile_qr_scan"}, "lon": -77.03705166666667, "type": "electric_scooter", "fusion_lat": 0.0, "lat": 38.9166525, "name": "9d155a17e00e208ca4da27d0fe625add", "fusion_lon": 0.0, "bike_id": "9d155a17e00e208ca4da27d0fe625add", "is_disabled": 0, "is_reserved": 0}, {"rental_uris": {"ios": "https://dc.lft.to/lastmile_qr_scan", "android": "https://dc.lft.to/lastmile_qr_scan"}, "lon": -77.02896983333333, "type": "electric_scooter", "fusion_lat": 0.0, "lat": 38.88428716666667, "name": "bfe9bbc47d9cb292acee1bcea5348b5c", "fusion_lon": 0.0, "bike_id": "bfe9bbc47d9cb292acee1bcea5348b5c", "is_disabled": 0, "is_reserved": 0}, {"rental_uris": {"ios": "https://dc.lft.to/lastmile_qr_scan", "android": "https://dc.lft.to/lastmile_qr_scan"}, "lon": -77.01533083333334, "type": "electric_scooter", "fusion_lat": 0.0, "lat": 38.88738033333333, "name": "e1726d0e5d1a0dc447bae1ece859d56a", "fusion_lon": 0.0, "bike_id": "e1726d0e5d1a0dc447bae1ece859d56a", "is_disabled": 0, "is_reserved": 0}, {"rental_uris": {"ios": "https://dc.lft.to/lastmile_qr_scan", "android": "https://dc.lft.to/lastmile_qr_scan"}, "lon": -77.02517683333333, "type": "electric_scooter", "fusion_lat": 0.0, "lat": 38.92139266666667, "name": "5e1b0a2dca777bd49b1b8f7ded58f0cf", "fusion_lon": 0.0, "bike_id": "5e1b0a2dca777bd49b1b8f7ded58f0cf", "is_disabled": 0, "is_reserved": 0}, {"rental_uris": {"ios": "https://dc.lft.to/lastmile_qr_scan", "android": "https://dc.lft.to/lastmile_qr_scan"}, "lon": -77.02196216666667, "type": "electric_scooter", "fusion_lat": 0.0, "lat": 38.911289, "name": "02427acaa8493a8a93128c14b7a3ba5c", "fusion_lon": 0.0, "bike_id": "02427acaa8493a8a93128c14b7a3ba5c", "is_disabled": 0, "is_reserved": 0}, {"rental_uris": {"ios": "https://dc.lft.to/lastmile_qr_scan", "android": "https://dc.lft.to/lastmile_qr_scan"}, "lon": -77.03228016666667, "type": "electric_scooter", "fusion_lat": 0.0, "lat": 38.921663333333335, "name": "8159d7dc68191e27d51da2ec65561453", "fusion_lon": 0.0, "bike_id": "8159d7dc68191e27d51da2ec65561453", "is_disabled": 0, "is_reserved": 0}, {"rental_uris": {"ios": "https://dc.lft.to/lastmile_qr_scan", "android": "https://dc.lft.to/lastmile_qr_scan"}, "lon": -77.00207383333333, "type": "electric_scooter", "fusion_lat": 0.0, "lat": 38.90223016666667, "name": "3622a3b73ab317158748da97e97579f8", "fusion_lon": 0.0, "bike_id": "3622a3b73ab317158748da97e97579f8", "is_disabled": 0, "is_reserved": 0}, {"rental_uris": {"ios": "https://dc.lft.to/lastmile_qr_scan", "android": "https://dc.lft.to/lastmile_qr_scan"}, "lon": -77.03254466666667, "type": "electric_scooter", "fusion_lat": 0.0, "lat": 38.93563966666667, "name": "527b06c6811a115a4c8575925ffb210d", "fusion_lon": 0.0, "bike_id": "527b06c6811a115a4c8575925ffb210d", "is_disabled": 0, "is_reserved": 0}, {"rental_uris": {"ios": "https://dc.lft.to/lastmile_qr_scan", "android": "https://dc.lft.to/lastmile_qr_scan"}, "lon": -77.00738883333334, "type": "electric_scooter", "fusion_lat": 0.0, "lat": 38.955210666666666, "name": "6549ffe8067c34ef1d3bf49c388801e1", "fusion_lon": 0.0, "bike_id": "6549ffe8067c34ef1d3bf49c388801e1", "is_disabled": 0, "is_reserved": 0}, {"rental_uris": {"ios": "https://dc.lft.to/lastmile_qr_scan", "android": "https://dc.lft.to/lastmile_qr_scan"}, "lon": -77.02499, "type": "electric_scooter", "fusion_lat": 0.0, "lat": 38.9396115, "name": "9ab9facf5e91cd6739988f94003caf2f", "fusion_lon": 0.0, "bike_id": "9ab9facf5e91cd6739988f94003caf2f", "is_disabled": 0, "is_reserved": 0}, {"rental_uris": {"ios": "https://dc.lft.to/lastmile_qr_scan", "android": "https://dc.lft.to/lastmile_qr_scan"}, "lon": -77.026109, "type": "electric_scooter", "fusion_lat": 0.0, "lat": 38.90524716666667, "name": "b204431b2c705506e80cc73d65a1ccfa", "fusion_lon": 0.0, "bike_id": "b204431b2c705506e80cc73d65a1ccfa", "is_disabled": 0, "is_reserved": 0}, {"rental_uris": {"ios": "https://dc.lft.to/lastmile_qr_scan", "android": "https://dc.lft.to/lastmile_qr_scan"}, "lon": -77.02350016666666, "type": "electric_scooter", "fusion_lat": 0.0, "lat": 38.922773, "name": "cdf23b8a5d6b7f0de5e814a60102af7d", "fusion_lon": 0.0, "bike_id": "cdf23b8a5d6b7f0de5e814a60102af7d", "is_disabled": 0, "is_reserved": 0}, {"rental_uris": {"ios": "https://dc.lft.to/lastmile_qr_scan", "android": "https://dc.lft.to/lastmile_qr_scan"}, "lon": -77.03853183333334, "type": "electric_scooter", "fusion_lat": 0.0, "lat": 38.932013, "name": "1e7e8b76d280923ec7ac54059c89d6ec", "fusion_lon": 0.0, "bike_id": "1e7e8b76d280923ec7ac54059c89d6ec", "is_disabled": 0, "is_reserved": 0}, {"rental_uris": {"ios": "https://dc.lft.to/lastmile_qr_scan", "android": "https://dc.lft.to/lastmile_qr_scan"}, "lon": -77.03207433333333, "type": "electric_scooter", "fusion_lat": 0.0, "lat": 38.919904, "name": "5aeb077d6d76b7141251404907a41b37", "fusion_lon": 0.0, "bike_id": "5aeb077d6d76b7141251404907a41b37", "is_disabled": 0, "is_reserved": 0}, {"rental_uris": {"ios": "https://dc.lft.to/lastmile_qr_scan", "android": "https://dc.lft.to/lastmile_qr_scan"}, "lon": -77.067844, "type": "electric_scooter", "fusion_lat": 0.0, "lat": 38.952107166666664, "name": "7ca1c77d470e4897a0afa3344f7de9c6", "fusion_lon": 0.0, "bike_id": "7ca1c77d470e4897a0afa3344f7de9c6", "is_disabled": 0, "is_reserved": 0}, {"rental_uris": {"ios": "https://dc.lft.to/lastmile_qr_scan", "android": "https://dc.lft.to/lastmile_qr_scan"}, "lon": -76.9912165, "type": "electric_scooter", "fusion_lat": 0.0, "lat": 38.90016966666666, "name": "c507ac565ef44f7171c758b1289f44ab", "fusion_lon": 0.0, "bike_id": "c507ac565ef44f7171c758b1289f44ab", "is_disabled": 0, "is_reserved": 0}, {"rental_uris": {"ios": "https://dc.lft.to/lastmile_qr_scan", "android": "https://dc.lft.to/lastmile_qr_scan"}, "lon": -77.02389216666667, "type": "electric_scooter", "fusion_lat": 0.0, "lat": 38.91978433333333, "name": "628cafc57863b0e8fee1559436a0651c", "fusion_lon": 0.0, "bike_id": "628cafc57863b0e8fee1559436a0651c", "is_disabled": 0, "is_reserved": 0}, {"rental_uris": {"ios": "https://dc.lft.to/lastmile_qr_scan", "android": "https://dc.lft.to/lastmile_qr_scan"}, "lon": -77.026178, "type": "electric_scooter", "fusion_lat": 0.0, "lat": 38.898294, "name": "bdf81855eab57abec02e41660c2a4105", "fusion_lon": 0.0, "bike_id": "bdf81855eab57abec02e41660c2a4105", "is_disabled": 0, "is_reserved": 0}, {"rental_uris": {"ios": "https://dc.lft.to/lastmile_qr_scan", "android": "https://dc.lft.to/lastmile_qr_scan"}, "lon": -77.03590616666666, "type": "electric_bike", "fusion_lat": 0.0, "lat": 38.90690566666667, "name": "e3745f9b07fa037c7a34447ccee0e9fe", "fusion_lon": 0.0, "bike_id": "e3745f9b07fa037c7a34447ccee0e9fe", "is_disabled": 0, "is_reserved": 0}, {"rental_uris": {"ios": "https://dc.lft.to/lastmile_qr_scan", "android": "https://dc.lft.to/lastmile_qr_scan"}, "lon": -77.02710466666667, "type": "electric_scooter", "fusion_lat": 0.0, "lat": 38.88143133333333, "name": "7b88d6e51c155cd5cf9b4cf06dfbeba7", "fusion_lon": 0.0, "bike_id": "7b88d6e51c155cd5cf9b4cf06dfbeba7", "is_disabled": 0, "is_reserved": 0}, {"rental_uris": {"ios": "https://dc.lft.to/lastmile_qr_scan", "android": "https://dc.lft.to/lastmile_qr_scan"}, "lon": -77.0279665, "type": "electric_scooter", "fusion_lat": 0.0, "lat": 38.899602333333334, "name": "4c29157242afb9d9c21ba32231c7a702", "fusion_lon": 0.0, "bike_id": "4c29157242afb9d9c21ba32231c7a702", "is_disabled": 0, "is_reserved": 0}, {"rental_uris": {"ios": "https://dc.lft.to/lastmile_qr_scan", "android": "https://dc.lft.to/lastmile_qr_scan"}, "lon": -77.07155016666667, "type": "electric_scooter", "fusion_lat": 0.0, "lat": 38.95840583333333, "name": "915e1abd388dfe47266446f71485a02a", "fusion_lon": 0.0, "bike_id": "915e1abd388dfe47266446f71485a02a", "is_disabled": 0, "is_reserved": 0}, {"rental_uris": {"ios": "https://dc.lft.to/lastmile_qr_scan", "android": "https://dc.lft.to/lastmile_qr_scan"}, "lon": -77.01980566666667, "type": "electric_scooter", "fusion_lat": 0.0, "lat": 38.9119625, "name": "a2db365c0906a88cbf4caf045ecea73e", "fusion_lon": 0.0, "bike_id": "a2db365c0906a88cbf4caf045ecea73e", "is_disabled": 0, "is_reserved": 0}, {"rental_uris": {"ios": "https://dc.lft.to/lastmile_qr_scan", "android": "https://dc.lft.to/lastmile_qr_scan"}, "lon": -77.0490045, "type": "electric_scooter", "fusion_lat": 0.0, "lat": 38.88843766666667, "name": "fea111ddb630f006940b6de525dfd6b0", "fusion_lon": 0.0, "bike_id": "fea111ddb630f006940b6de525dfd6b0", "is_disabled": 0, "is_reserved": 0}, {"rental_uris": {"ios": "https://dc.lft.to/lastmile_qr_scan", "android": "https://dc.lft.to/lastmile_qr_scan"}, "lon": -77.04045933333333, "type": "electric_scooter", "fusion_lat": 0.0, "lat": 38.9298765, "name": "e250ac9e72b3d1c20fcdc393eb0523b4", "fusion_lon": 0.0, "bike_id": "e250ac9e72b3d1c20fcdc393eb0523b4", "is_disabled": 0, "is_reserved": 0}, {"rental_uris": {"ios": "https://dc.lft.to/lastmile_qr_scan", "android": "https://dc.lft.to/lastmile_qr_scan"}, "lon": -77.02383933333333, "type": "electric_scooter", "fusion_lat": 0.0, "lat": 38.90707366666667, "name": "7398f105e90cf728e5ac390ccb905af7", "fusion_lon": 0.0, "bike_id": "7398f105e90cf728e5ac390ccb905af7", "is_disabled": 0, "is_reserved": 0}, {"rental_uris": {"ios": "https://dc.lft.to/lastmile_qr_scan", "android": "https://dc.lft.to/lastmile_qr_scan"}, "lon": -77.031864, "type": "electric_scooter", "fusion_lat": 0.0, "lat": 38.908762, "name": "796d1b4172e50704ce2f17d93b33dc9b", "fusion_lon": 0.0, "bike_id": "796d1b4172e50704ce2f17d93b33dc9b", "is_disabled": 0, "is_reserved": 0}, {"rental_uris": {"ios": "https://dc.lft.to/lastmile_qr_scan", "android": "https://dc.lft.to/lastmile_qr_scan"}, "lon": -77.03892733333333, "type": "electric_scooter", "fusion_lat": 0.0, "lat": 38.902368833333334, "name": "218d0f717ef257733ecc849feb3daeb8", "fusion_lon": 0.0, "bike_id": "218d0f717ef257733ecc849feb3daeb8", "is_disabled": 0, "is_reserved": 0}, {"rental_uris": {"ios": "https://dc.lft.to/lastmile_qr_scan", "android": "https://dc.lft.to/lastmile_qr_scan"}, "lon": -77.01511266666667, "type": "electric_scooter", "fusion_lat": 0.0, "lat": 38.887320833333334, "name": "b36568bba90a130269ecbf6186a271bd", "fusion_lon": 0.0, "bike_id": "b36568bba90a130269ecbf6186a271bd", "is_disabled": 0, "is_reserved": 0}, {"rental_uris": {"ios": "https://dc.lft.to/lastmile_qr_scan", "android": "https://dc.lft.to/lastmile_qr_scan"}, "lon": -77.04865666666667, "type": "electric_scooter", "fusion_lat": 0.0, "lat": 38.912491, "name": "838ef08c958ebec22a0d90543c95c613", "fusion_lon": 0.0, "bike_id": "838ef08c958ebec22a0d90543c95c613", "is_disabled": 0, "is_reserved": 0}, {"rental_uris": {"ios": "https://dc.lft.to/lastmile_qr_scan", "android": "https://dc.lft.to/lastmile_qr_scan"}, "lon": -77.03087366666666, "type": "electric_scooter", "fusion_lat": 0.0, "lat": 38.90990016666667, "name": "3f49233ed8c9ab7566aabb2821a79790", "fusion_lon": 0.0, "bike_id": "3f49233ed8c9ab7566aabb2821a79790", "is_disabled": 0, "is_reserved": 0}, {"rental_uris": {"ios": "https://dc.lft.to/lastmile_qr_scan", "android": "https://dc.lft.to/lastmile_qr_scan"}, "lon": -77.03794566666667, "type": "electric_scooter", "fusion_lat": 0.0, "lat": 38.925688666666666, "name": "6bcd570a8ec0a829ef0902ed7752d012", "fusion_lon": 0.0, "bike_id": "6bcd570a8ec0a829ef0902ed7752d012", "is_disabled": 0, "is_reserved": 0}, {"rental_uris": {"ios": "https://dc.lft.to/lastmile_qr_scan", "android": "https://dc.lft.to/lastmile_qr_scan"}, "lon": -76.9043435, "type": "electric_bike", "fusion_lat": 0.0, "lat": 38.897741833333335, "name": "6630c95a5164292de5b3aa20b6f09dd1", "fusion_lon": 0.0, "bike_id": "6630c95a5164292de5b3aa20b6f09dd1", "is_disabled": 0, "is_reserved": 0}, {"rental_uris": {"ios": "https://dc.lft.to/lastmile_qr_scan", "android": "https://dc.lft.to/lastmile_qr_scan"}, "lon": -77.0199385, "type": "electric_scooter", "fusion_lat": 0.0, "lat": 38.904686833333336, "name": "5099af98af653a4654d8a2f924f66b70", "fusion_lon": 0.0, "bike_id": "5099af98af653a4654d8a2f924f66b70", "is_disabled": 0, "is_reserved": 0}, {"rental_uris": {"ios": "https://dc.lft.to/lastmile_qr_scan", "android": "https://dc.lft.to/lastmile_qr_scan"}, "lon": -77.02315116666666, "type": "electric_scooter", "fusion_lat": 0.0, "lat": 38.92949483333334, "name": "08aabd93dfaf3589ac33d5e5062656c5", "fusion_lon": 0.0, "bike_id": "08aabd93dfaf3589ac33d5e5062656c5", "is_disabled": 0, "is_reserved": 0}, {"rental_uris": {"ios": "https://dc.lft.to/lastmile_qr_scan", "android": "https://dc.lft.to/lastmile_qr_scan"}, "lon": -77.00722316666666, "type": "electric_scooter", "fusion_lat": 0.0, "lat": 38.884917333333334, "name": "c9e08e13852fd5b162cffcc03809447b", "fusion_lon": 0.0, "bike_id": "c9e08e13852fd5b162cffcc03809447b", "is_disabled": 0, "is_reserved": 0}, {"rental_uris": {"ios": "https://dc.lft.to/lastmile_qr_scan", "android": "https://dc.lft.to/lastmile_qr_scan"}, "lon": -76.99761983333333, "type": "electric_scooter", "fusion_lat": 0.0, "lat": 38.921958000000004, "name": "b0de73c40c73ce60c38857fa0744a6ac", "fusion_lon": 0.0, "bike_id": "b0de73c40c73ce60c38857fa0744a6ac", "is_disabled": 0, "is_reserved": 0}, {"rental_uris": {"ios": "https://dc.lft.to/lastmile_qr_scan", "android": "https://dc.lft.to/lastmile_qr_scan"}, "lon": -77.03439283333333, "type": "electric_scooter", "fusion_lat": 0.0, "lat": 38.90365116666667, "name": "1874c9fd6b7e8c91ca363dc706f84744", "fusion_lon": 0.0, "bike_id": "1874c9fd6b7e8c91ca363dc706f84744", "is_disabled": 0, "is_reserved": 0}, {"rental_uris": {"ios": "https://dc.lft.to/lastmile_qr_scan", "android": "https://dc.lft.to/lastmile_qr_scan"}, "lon": -77.03785933333333, "type": "electric_scooter", "fusion_lat": 0.0, "lat": 38.93612066666667, "name": "607b852c146877ccf1633a1e7e3f3d4d", "fusion_lon": 0.0, "bike_id": "607b852c146877ccf1633a1e7e3f3d4d", "is_disabled": 0, "is_reserved": 0}, {"rental_uris": {"ios": "https://dc.lft.to/lastmile_qr_scan", "android": "https://dc.lft.to/lastmile_qr_scan"}, "lon": -77.02339333333333, "type": "electric_scooter", "fusion_lat": 0.0, "lat": 38.883426, "name": "0ca68a63aafdfac25d85d90c17eeab9e", "fusion_lon": 0.0, "bike_id": "0ca68a63aafdfac25d85d90c17eeab9e", "is_disabled": 0, "is_reserved": 0}, {"rental_uris": {"ios": "https://dc.lft.to/lastmile_qr_scan", "android": "https://dc.lft.to/lastmile_qr_scan"}, "lon": -77.02606083333333, "type": "electric_bike", "fusion_lat": 0.0, "lat": 38.9620275, "name": "601c8410c989def2f44be2d91962bce3", "fusion_lon": 0.0, "bike_id": "601c8410c989def2f44be2d91962bce3", "is_disabled": 0, "is_reserved": 0}, {"rental_uris": {"ios": "https://dc.lft.to/lastmile_qr_scan", "android": "https://dc.lft.to/lastmile_qr_scan"}, "lon": -77.024164, "type": "electric_scooter", "fusion_lat": 0.0, "lat": 38.90974083333333, "name": "d8e0a95c0f4d2cb6f9c0d67606bf0438", "fusion_lon": 0.0, "bike_id": "d8e0a95c0f4d2cb6f9c0d67606bf0438", "is_disabled": 0, "is_reserved": 0}, {"rental_uris": {"ios": "https://dc.lft.to/lastmile_qr_scan", "android": "https://dc.lft.to/lastmile_qr_scan"}, "lon": -77.0322745, "type": "electric_scooter", "fusion_lat": 0.0, "lat": 38.89643083333333, "name": "bb131246fa686e74fb2120f44a52c472", "fusion_lon": 0.0, "bike_id": "bb131246fa686e74fb2120f44a52c472", "is_disabled": 0, "is_reserved": 0}, {"rental_uris": {"ios": "https://dc.lft.to/lastmile_qr_scan", "android": "https://dc.lft.to/lastmile_qr_scan"}, "lon": -77.091585, "type": "electric_bike", "fusion_lat": 0.0, "lat": 38.9676835, "name": "5302c33b592dc908e40535b930b5bb09", "fusion_lon": 0.0, "bike_id": "5302c33b592dc908e40535b930b5bb09", "is_disabled": 0, "is_reserved": 0}, {"rental_uris": {"ios": "https://dc.lft.to/lastmile_qr_scan", "android": "https://dc.lft.to/lastmile_qr_scan"}, "lon": -77.04408766666667, "type": "electric_scooter", "fusion_lat": 0.0, "lat": 38.87429216666666, "name": "da306aea2899fccae6614c8ea2019884", "fusion_lon": 0.0, "bike_id": "da306aea2899fccae6614c8ea2019884", "is_disabled": 0, "is_reserved": 0}, {"rental_uris": {"ios": "https://dc.lft.to/lastmile_qr_scan", "android": "https://dc.lft.to/lastmile_qr_scan"}, "lon": -77.03125666666666, "type": "electric_scooter", "fusion_lat": 0.0, "lat": 38.973816666666664, "name": "b91cb8adaf0f373f106b5544100e0c3b", "fusion_lon": 0.0, "bike_id": "b91cb8adaf0f373f106b5544100e0c3b", "is_disabled": 0, "is_reserved": 0}, {"rental_uris": {"ios": "https://dc.lft.to/lastmile_qr_scan", "android": "https://dc.lft.to/lastmile_qr_scan"}, "lon": -76.9617525, "type": "electric_bike", "fusion_lat": 0.0, "lat": 38.9186345, "name": "1e8a35c70e04d41a5f6e15b50b199a45", "fusion_lon": 0.0, "bike_id": "1e8a35c70e04d41a5f6e15b50b199a45", "is_disabled": 0, "is_reserved": 0}, {"rental_uris": {"ios": "https://dc.lft.to/lastmile_qr_scan", "android": "https://dc.lft.to/lastmile_qr_scan"}, "lon": -77.03387483333333, "type": "electric_scooter", "fusion_lat": 0.0, "lat": 38.92156816666667, "name": "f93d6b0d28db9444e6912432c24d9cd7", "fusion_lon": 0.0, "bike_id": "f93d6b0d28db9444e6912432c24d9cd7", "is_disabled": 0, "is_reserved": 0}, {"rental_uris": {"ios": "https://dc.lft.to/lastmile_qr_scan", "android": "https://dc.lft.to/lastmile_qr_scan"}, "lon": -77.05600466666667, "type": "electric_scooter", "fusion_lat": 0.0, "lat": 38.936997166666664, "name": "66becce82210e822f3d19c2647462558", "fusion_lon": 0.0, "bike_id": "66becce82210e822f3d19c2647462558", "is_disabled": 0, "is_reserved": 0}, {"rental_uris": {"ios": "https://dc.lft.to/lastmile_qr_scan", "android": "https://dc.lft.to/lastmile_qr_scan"}, "lon": -77.01335983333334, "type": "electric_scooter", "fusion_lat": 0.0, "lat": 38.966099, "name": "9b7af51d5cdaf9e8596c42562cfcd82f", "fusion_lon": 0.0, "bike_id": "9b7af51d5cdaf9e8596c42562cfcd82f", "is_disabled": 0, "is_reserved": 0}, {"rental_uris": {"ios": "https://dc.lft.to/lastmile_qr_scan", "android": "https://dc.lft.to/lastmile_qr_scan"}, "lon": -77.04180633333333, "type": "electric_scooter", "fusion_lat": 0.0, "lat": 38.90129666666667, "name": "b3340a78140aa8681ac5e5ba569845e9", "fusion_lon": 0.0, "bike_id": "b3340a78140aa8681ac5e5ba569845e9", "is_disabled": 0, "is_reserved": 0}, {"rental_uris": {"ios": "https://dc.lft.to/lastmile_qr_scan", "android": "https://dc.lft.to/lastmile_qr_scan"}, "lon": -77.04181666666666, "type": "electric_scooter", "fusion_lat": 0.0, "lat": 38.920565333333336, "name": "a9fac4157a970e70cc341d60a4ae0075", "fusion_lon": 0.0, "bike_id": "a9fac4157a970e70cc341d60a4ae0075", "is_disabled": 0, "is_reserved": 0}, {"rental_uris": {"ios": "https://dc.lft.to/lastmile_qr_scan", "android": "https://dc.lft.to/lastmile_qr_scan"}, "lon": -77.13091816666666, "type": "electric_bike", "fusion_lat": 0.0, "lat": 38.861640666666666, "name": "65789f5f6ab97f19592241aefd9235ee", "fusion_lon": 0.0, "bike_id": "65789f5f6ab97f19592241aefd9235ee", "is_disabled": 0, "is_reserved": 0}, {"rental_uris": {"ios": "https://dc.lft.to/lastmile_qr_scan", "android": "https://dc.lft.to/lastmile_qr_scan"}, "lon": -77.02866916666666, "type": "electric_scooter", "fusion_lat": 0.0, "lat": 38.90730966666667, "name": "a5a63daf6cb45619f5d0ef95e74a6f93", "fusion_lon": 0.0, "bike_id": "a5a63daf6cb45619f5d0ef95e74a6f93", "is_disabled": 0, "is_reserved": 0}, {"rental_uris": {"ios": "https://dc.lft.to/lastmile_qr_scan", "android": "https://dc.lft.to/lastmile_qr_scan"}, "lon": -77.00359833333333, "type": "electric_scooter", "fusion_lat": 0.0, "lat": 38.90707316666666, "name": "403a808a946289c4dfc448cfa431faca", "fusion_lon": 0.0, "bike_id": "403a808a946289c4dfc448cfa431faca", "is_disabled": 0, "is_reserved": 0}, {"rental_uris": {"ios": "https://dc.lft.to/lastmile_qr_scan", "android": "https://dc.lft.to/lastmile_qr_scan"}, "lon": -77.027072, "type": "electric_scooter", "fusion_lat": 0.0, "lat": 38.9067615, "name": "cc17fb27ffc2648139b555efa4f8c544", "fusion_lon": 0.0, "bike_id": "cc17fb27ffc2648139b555efa4f8c544", "is_disabled": 0, "is_reserved": 0}, {"rental_uris": {"ios": "https://dc.lft.to/lastmile_qr_scan", "android": "https://dc.lft.to/lastmile_qr_scan"}, "lon": -77.0248775, "type": "electric_scooter", "fusion_lat": 0.0, "lat": 38.9040555, "name": "2e2a505da30f876bed0e3c2b774a41f4", "fusion_lon": 0.0, "bike_id": "2e2a505da30f876bed0e3c2b774a41f4", "is_disabled": 0, "is_reserved": 0}, {"rental_uris": {"ios": "https://dc.lft.to/lastmile_qr_scan", "android": "https://dc.lft.to/lastmile_qr_scan"}, "lon": -77.03354433333334, "type": "electric_scooter", "fusion_lat": 0.0, "lat": 38.8995185, "name": "154473fb931bc7cd5f54aae1432fd7e5", "fusion_lon": 0.0, "bike_id": "154473fb931bc7cd5f54aae1432fd7e5", "is_disabled": 0, "is_reserved": 0}, {"rental_uris": {"ios": "https://dc.lft.to/lastmile_qr_scan", "android": "https://dc.lft.to/lastmile_qr_scan"}, "lon": -77.04658583333334, "type": "electric_scooter", "fusion_lat": 0.0, "lat": 38.90564233333333, "name": "6e19451bc16739f4998c818b67734943", "fusion_lon": 0.0, "bike_id": "6e19451bc16739f4998c818b67734943", "is_disabled": 0, "is_reserved": 0}, {"rental_uris": {"ios": "https://dc.lft.to/lastmile_qr_scan", "android": "https://dc.lft.to/lastmile_qr_scan"}, "lon": -76.98829466666666, "type": "electric_scooter", "fusion_lat": 0.0, "lat": 38.880275, "name": "fa8a6cc36876ba5dc3bb5db13ca72d88", "fusion_lon": 0.0, "bike_id": "fa8a6cc36876ba5dc3bb5db13ca72d88", "is_disabled": 0, "is_reserved": 0}, {"rental_uris": {"ios": "https://dc.lft.to/lastmile_qr_scan", "android": "https://dc.lft.to/lastmile_qr_scan"}, "lon": -77.0321, "type": "electric_scooter", "fusion_lat": 0.0, "lat": 38.887056333333334, "name": "54b9c8aed2c83642a37270e7c24d783e", "fusion_lon": 0.0, "bike_id": "54b9c8aed2c83642a37270e7c24d783e", "is_disabled": 0, "is_reserved": 0}, {"rental_uris": {"ios": "https://dc.lft.to/lastmile_qr_scan", "android": "https://dc.lft.to/lastmile_qr_scan"}, "lon": -77.04226383333334, "type": "electric_scooter", "fusion_lat": 0.0, "lat": 38.91109766666667, "name": "843611830ce01daa7308af6dcaedec06", "fusion_lon": 0.0, "bike_id": "843611830ce01daa7308af6dcaedec06", "is_disabled": 0, "is_reserved": 0}, {"rental_uris": {"ios": "https://dc.lft.to/lastmile_qr_scan", "android": "https://dc.lft.to/lastmile_qr_scan"}, "lon": -77.05133916666666, "type": "electric_bike", "fusion_lat": 0.0, "lat": 38.907281, "name": "721453cc166dc635f68562530b5d8100", "fusion_lon": 0.0, "bike_id": "721453cc166dc635f68562530b5d8100", "is_disabled": 0, "is_reserved": 0}, {"rental_uris": {"ios": "https://dc.lft.to/lastmile_qr_scan", "android": "https://dc.lft.to/lastmile_qr_scan"}, "lon": -77.010908, "type": "electric_scooter", "fusion_lat": 0.0, "lat": 38.894004833333334, "name": "0c02718816c6ed896d951614eb4e44ab", "fusion_lon": 0.0, "bike_id": "0c02718816c6ed896d951614eb4e44ab", "is_disabled": 0, "is_reserved": 0}, {"rental_uris": {"ios": "https://dc.lft.to/lastmile_qr_scan", "android": "https://dc.lft.to/lastmile_qr_scan"}, "lon": -77.02708366666667, "type": "electric_bike", "fusion_lat": 0.0, "lat": 38.931242833333336, "name": "dec5274a4f6954f25d84ae294454963c", "fusion_lon": 0.0, "bike_id": "dec5274a4f6954f25d84ae294454963c", "is_disabled": 0, "is_reserved": 0}, {"rental_uris": {"ios": "https://dc.lft.to/lastmile_qr_scan", "android": "https://dc.lft.to/lastmile_qr_scan"}, "lon": -77.12810983333334, "type": "electric_bike", "fusion_lat": 0.0, "lat": 38.86535716666667, "name": "b983555a3627a67181f4a2266568c779", "fusion_lon": 0.0, "bike_id": "b983555a3627a67181f4a2266568c779", "is_disabled": 0, "is_reserved": 0}, {"rental_uris": {"ios": "https://dc.lft.to/lastmile_qr_scan", "android": "https://dc.lft.to/lastmile_qr_scan"}, "lon": -76.94716916666667, "type": "electric_scooter", "fusion_lat": 0.0, "lat": 38.8967115, "name": "e3a80811066775433a5635015634447c", "fusion_lon": 0.0, "bike_id": "e3a80811066775433a5635015634447c", "is_disabled": 0, "is_reserved": 0}, {"rental_uris": {"ios": "https://dc.lft.to/lastmile_qr_scan", "android": "https://dc.lft.to/lastmile_qr_scan"}, "lon": -77.016937, "type": "electric_scooter", "fusion_lat": 0.0, "lat": 38.90510333333334, "name": "84ade503dddc735f8048ab60210677a8", "fusion_lon": 0.0, "bike_id": "84ade503dddc735f8048ab60210677a8", "is_disabled": 0, "is_reserved": 0}, {"rental_uris": {"ios": "https://dc.lft.to/lastmile_qr_scan", "android": "https://dc.lft.to/lastmile_qr_scan"}, "lon": -77.07045266666667, "type": "electric_bike", "fusion_lat": 0.0, "lat": 38.82446866666667, "name": "f17b49ff2a9c2ea0d428e99c350f1ee7", "fusion_lon": 0.0, "bike_id": "f17b49ff2a9c2ea0d428e99c350f1ee7", "is_disabled": 0, "is_reserved": 0}, {"rental_uris": {"ios": "https://dc.lft.to/lastmile_qr_scan", "android": "https://dc.lft.to/lastmile_qr_scan"}, "lon": -77.02409216666666, "type": "electric_bike", "fusion_lat": 0.0, "lat": 38.99448183333333, "name": "bea7d010119f3db6064114718ec496c0", "fusion_lon": 0.0, "bike_id": "bea7d010119f3db6064114718ec496c0", "is_disabled": 0, "is_reserved": 0}, {"rental_uris": {"ios": "https://dc.lft.to/lastmile_qr_scan", "android": "https://dc.lft.to/lastmile_qr_scan"}, "lon": -77.068885, "type": "electric_scooter", "fusion_lat": 0.0, "lat": 38.940301833333336, "name": "26aa9a0527869a013ab0bdfe0c3e208c", "fusion_lon": 0.0, "bike_id": "26aa9a0527869a013ab0bdfe0c3e208c", "is_disabled": 0, "is_reserved": 0}, {"rental_uris": {"ios": "https://dc.lft.to/lastmile_qr_scan", "android": "https://dc.lft.to/lastmile_qr_scan"}, "lon": -77.1298205, "type": "electric_bike", "fusion_lat": 0.0, "lat": 38.799896333333336, "name": "545532a004e2f3120118741e967ed13c", "fusion_lon": 0.0, "bike_id": "545532a004e2f3120118741e967ed13c", "is_disabled": 0, "is_reserved": 0}, {"rental_uris": {"ios": "https://dc.lft.to/lastmile_qr_scan", "android": "https://dc.lft.to/lastmile_qr_scan"}, "lon": -77.04375316666666, "type": "electric_scooter", "fusion_lat": 0.0, "lat": 38.8922295, "name": "1ab057fcf129689c03f93f16e3ce9c2c", "fusion_lon": 0.0, "bike_id": "1ab057fcf129689c03f93f16e3ce9c2c", "is_disabled": 0, "is_reserved": 0}, {"rental_uris": {"ios": "https://dc.lft.to/lastmile_qr_scan", "android": "https://dc.lft.to/lastmile_qr_scan"}, "lon": -77.0639385, "type": "electric_scooter", "fusion_lat": 0.0, "lat": 38.929063666666664, "name": "b6703897422162c5f7fa25c87f0370ba", "fusion_lon": 0.0, "bike_id": "b6703897422162c5f7fa25c87f0370ba", "is_disabled": 0, "is_reserved": 0}, {"rental_uris": {"ios": "https://dc.lft.to/lastmile_qr_scan", "android": "https://dc.lft.to/lastmile_qr_scan"}, "lon": -77.02409233333333, "type": "electric_scooter", "fusion_lat": 0.0, "lat": 38.9098045, "name": "9ae3ec5e2dc2bde7aa0b3133d8306315", "fusion_lon": 0.0, "bike_id": "9ae3ec5e2dc2bde7aa0b3133d8306315", "is_disabled": 0, "is_reserved": 0}, {"rental_uris": {"ios": "https://dc.lft.to/lastmile_qr_scan", "android": "https://dc.lft.to/lastmile_qr_scan"}, "lon": -77.0265055, "type": "electric_scooter", "fusion_lat": 0.0, "lat": 38.938616833333334, "name": "177cc8e8d142dfd2e9495b34b370e998", "fusion_lon": 0.0, "bike_id": "177cc8e8d142dfd2e9495b34b370e998", "is_disabled": 0, "is_reserved": 0}, {"rental_uris": {"ios": "https://dc.lft.to/lastmile_qr_scan", "android": "https://dc.lft.to/lastmile_qr_scan"}, "lon": -77.0096765, "type": "electric_scooter", "fusion_lat": 0.0, "lat": 38.907864000000004, "name": "f0db2f18311e97fbbc4893a06b1d8bfa", "fusion_lon": 0.0, "bike_id": "f0db2f18311e97fbbc4893a06b1d8bfa", "is_disabled": 0, "is_reserved": 0}, {"rental_uris": {"ios": "https://dc.lft.to/lastmile_qr_scan", "android": "https://dc.lft.to/lastmile_qr_scan"}, "lon": -77.02041333333334, "type": "electric_scooter", "fusion_lat": 0.0, "lat": 38.879387, "name": "f68f309152bf7cb111d647ee31a0b015", "fusion_lon": 0.0, "bike_id": "f68f309152bf7cb111d647ee31a0b015", "is_disabled": 0, "is_reserved": 0}, {"rental_uris": {"ios": "https://dc.lft.to/lastmile_qr_scan", "android": "https://dc.lft.to/lastmile_qr_scan"}, "lon": -77.03252533333334, "type": "electric_scooter", "fusion_lat": 0.0, "lat": 38.92907816666666, "name": "59299d0535f6033e16e18cc557f01505", "fusion_lon": 0.0, "bike_id": "59299d0535f6033e16e18cc557f01505", "is_disabled": 0, "is_reserved": 0}, {"rental_uris": {"ios": "https://dc.lft.to/lastmile_qr_scan", "android": "https://dc.lft.to/lastmile_qr_scan"}, "lon": -77.0216025, "type": "electric_scooter", "fusion_lat": 0.0, "lat": 38.904375, "name": "9de31bd91cb99b784fad73cb285df8dc", "fusion_lon": 0.0, "bike_id": "9de31bd91cb99b784fad73cb285df8dc", "is_disabled": 0, "is_reserved": 0}, {"rental_uris": {"ios": "https://dc.lft.to/lastmile_qr_scan", "android": "https://dc.lft.to/lastmile_qr_scan"}, "lon": -77.06759983333333, "type": "electric_scooter", "fusion_lat": 0.0, "lat": 38.915719, "name": "6410c6b1362039598a9e03d95a916eaf", "fusion_lon": 0.0, "bike_id": "6410c6b1362039598a9e03d95a916eaf", "is_disabled": 0, "is_reserved": 0}, {"rental_uris": {"ios": "https://dc.lft.to/lastmile_qr_scan", "android": "https://dc.lft.to/lastmile_qr_scan"}, "lon": -77.02574666666666, "type": "electric_scooter", "fusion_lat": 0.0, "lat": 38.89617583333333, "name": "fbb74ea7353a8d911a3b29e3ee6e470d", "fusion_lon": 0.0, "bike_id": "fbb74ea7353a8d911a3b29e3ee6e470d", "is_disabled": 0, "is_reserved": 0}, {"rental_uris": {"ios": "https://dc.lft.to/lastmile_qr_scan", "android": "https://dc.lft.to/lastmile_qr_scan"}, "lon": -76.96628983333333, "type": "electric_bike", "fusion_lat": 0.0, "lat": 38.94201783333333, "name": "a91e99396e8cc32331a8063b73c11530", "fusion_lon": 0.0, "bike_id": "a91e99396e8cc32331a8063b73c11530", "is_disabled": 0, "is_reserved": 0}, {"rental_uris": {"ios": "https://dc.lft.to/lastmile_qr_scan", "android": "https://dc.lft.to/lastmile_qr_scan"}, "lon": -76.93752583333334, "type": "electric_scooter", "fusion_lat": 0.0, "lat": 38.89044066666666, "name": "0946b56cbbdd5b9f4a29872cb1721ea6", "fusion_lon": 0.0, "bike_id": "0946b56cbbdd5b9f4a29872cb1721ea6", "is_disabled": 0, "is_reserved": 0}, {"rental_uris": {"ios": "https://dc.lft.to/lastmile_qr_scan", "android": "https://dc.lft.to/lastmile_qr_scan"}, "lon": -77.02989583333333, "type": "electric_scooter", "fusion_lat": 0.0, "lat": 38.916963333333335, "name": "d5e5ef30750791298bce955fe7f772e7", "fusion_lon": 0.0, "bike_id": "d5e5ef30750791298bce955fe7f772e7", "is_disabled": 0, "is_reserved": 0}, {"rental_uris": {"ios": "https://dc.lft.to/lastmile_qr_scan", "android": "https://dc.lft.to/lastmile_qr_scan"}, "lon": -77.04688, "type": "electric_scooter", "fusion_lat": 0.0, "lat": 38.92100083333333, "name": "8710a324570167f60bd0eb07a1bd8cb2", "fusion_lon": 0.0, "bike_id": "8710a324570167f60bd0eb07a1bd8cb2", "is_disabled": 0, "is_reserved": 0}, {"rental_uris": {"ios": "https://dc.lft.to/lastmile_qr_scan", "android": "https://dc.lft.to/lastmile_qr_scan"}, "lon": -77.023934, "type": "electric_scooter", "fusion_lat": 0.0, "lat": 38.95290933333333, "name": "ca050ab87d275461cbda91ca26ec1107", "fusion_lon": 0.0, "bike_id": "ca050ab87d275461cbda91ca26ec1107", "is_disabled": 0, "is_reserved": 0}, {"rental_uris": {"ios": "https://dc.lft.to/lastmile_qr_scan", "android": "https://dc.lft.to/lastmile_qr_scan"}, "lon": -77.0387085, "type": "electric_scooter", "fusion_lat": 0.0, "lat": 38.9170205, "name": "6a29b24f2eee91043f6a972e40e66f00", "fusion_lon": 0.0, "bike_id": "6a29b24f2eee91043f6a972e40e66f00", "is_disabled": 0, "is_reserved": 0}, {"rental_uris": {"ios": "https://dc.lft.to/lastmile_qr_scan", "android": "https://dc.lft.to/lastmile_qr_scan"}, "lon": -77.020588, "type": "electric_scooter", "fusion_lat": 0.0, "lat": 38.9201965, "name": "e1e0f27c8d9ef1e4aea9e767f34d84cc", "fusion_lon": 0.0, "bike_id": "e1e0f27c8d9ef1e4aea9e767f34d84cc", "is_disabled": 0, "is_reserved": 0}, {"rental_uris": {"ios": "https://dc.lft.to/lastmile_qr_scan", "android": "https://dc.lft.to/lastmile_qr_scan"}, "lon": -77.03816916666666, "type": "electric_scooter", "fusion_lat": 0.0, "lat": 38.9255785, "name": "e22b11cd4da1089a7269fd189c95f3be", "fusion_lon": 0.0, "bike_id": "e22b11cd4da1089a7269fd189c95f3be", "is_disabled": 0, "is_reserved": 0}, {"rental_uris": {"ios": "https://dc.lft.to/lastmile_qr_scan", "android": "https://dc.lft.to/lastmile_qr_scan"}, "lon": -77.03384566666666, "type": "electric_scooter", "fusion_lat": 0.0, "lat": 38.921623333333336, "name": "9305e251c0b2ee519f025619755c3de9", "fusion_lon": 0.0, "bike_id": "9305e251c0b2ee519f025619755c3de9", "is_disabled": 0, "is_reserved": 0}, {"rental_uris": {"ios": "https://dc.lft.to/lastmile_qr_scan", "android": "https://dc.lft.to/lastmile_qr_scan"}, "lon": -77.02072316666667, "type": "electric_scooter", "fusion_lat": 0.0, "lat": 38.904163, "name": "c03815824f39454a4b59fab68563ab28", "fusion_lon": 0.0, "bike_id": "c03815824f39454a4b59fab68563ab28", "is_disabled": 0, "is_reserved": 0}, {"rental_uris": {"ios": "https://dc.lft.to/lastmile_qr_scan", "android": "https://dc.lft.to/lastmile_qr_scan"}, "lon": -77.036471, "type": "electric_bike", "fusion_lat": 0.0, "lat": 38.956339166666666, "name": "87183e101a6fbf748f6713521ddbd56b", "fusion_lon": 0.0, "bike_id": "87183e101a6fbf748f6713521ddbd56b", "is_disabled": 0, "is_reserved": 0}, {"rental_uris": {"ios": "https://dc.lft.to/lastmile_qr_scan", "android": "https://dc.lft.to/lastmile_qr_scan"}, "lon": -77.02496266666667, "type": "electric_scooter", "fusion_lat": 0.0, "lat": 38.9429205, "name": "b53ba89cce6f637041f133c86fad37b9", "fusion_lon": 0.0, "bike_id": "b53ba89cce6f637041f133c86fad37b9", "is_disabled": 0, "is_reserved": 0}, {"rental_uris": {"ios": "https://dc.lft.to/lastmile_qr_scan", "android": "https://dc.lft.to/lastmile_qr_scan"}, "lon": -77.0269025, "type": "electric_scooter", "fusion_lat": 0.0, "lat": 38.900168, "name": "777d828d3ad77b1b94c006e883d3ad89", "fusion_lon": 0.0, "bike_id": "777d828d3ad77b1b94c006e883d3ad89", "is_disabled": 0, "is_reserved": 0}, {"rental_uris": {"ios": "https://dc.lft.to/lastmile_qr_scan", "android": "https://dc.lft.to/lastmile_qr_scan"}, "lon": -77.0025355, "type": "electric_scooter", "fusion_lat": 0.0, "lat": 38.901470833333335, "name": "4055001dbdae2cb403506a775decaca4", "fusion_lon": 0.0, "bike_id": "4055001dbdae2cb403506a775decaca4", "is_disabled": 0, "is_reserved": 0}, {"rental_uris": {"ios": "https://dc.lft.to/lastmile_qr_scan", "android": "https://dc.lft.to/lastmile_qr_scan"}, "lon": -77.01509383333334, "type": "electric_scooter", "fusion_lat": 0.0, "lat": 38.91349483333333, "name": "168c8d50e59f957c61c0c372fd300033", "fusion_lon": 0.0, "bike_id": "168c8d50e59f957c61c0c372fd300033", "is_disabled": 0, "is_reserved": 0}, {"rental_uris": {"ios": "https://dc.lft.to/lastmile_qr_scan", "android": "https://dc.lft.to/lastmile_qr_scan"}, "lon": -77.0003735, "type": "electric_scooter", "fusion_lat": 0.0, "lat": 38.90701833333333, "name": "03d583a18df6599526a1abee258b2d3c", "fusion_lon": 0.0, "bike_id": "03d583a18df6599526a1abee258b2d3c", "is_disabled": 0, "is_reserved": 0}, {"rental_uris": {"ios": "https://dc.lft.to/lastmile_qr_scan", "android": "https://dc.lft.to/lastmile_qr_scan"}, "lon": -77.03161, "type": "electric_scooter", "fusion_lat": 0.0, "lat": 38.914177, "name": "02c94f08e259cbac0fdb7bfc82753b74", "fusion_lon": 0.0, "bike_id": "02c94f08e259cbac0fdb7bfc82753b74", "is_disabled": 0, "is_reserved": 0}, {"rental_uris": {"ios": "https://dc.lft.to/lastmile_qr_scan", "android": "https://dc.lft.to/lastmile_qr_scan"}, "lon": -77.0647225, "type": "electric_bike", "fusion_lat": 0.0, "lat": 38.9738485, "name": "4f27cabc7c9bf86d87dc7df4e53b0d1c", "fusion_lon": 0.0, "bike_id": "4f27cabc7c9bf86d87dc7df4e53b0d1c", "is_disabled": 0, "is_reserved": 0}, {"rental_uris": {"ios": "https://dc.lft.to/lastmile_qr_scan", "android": "https://dc.lft.to/lastmile_qr_scan"}, "lon": -77.00209016666666, "type": "electric_scooter", "fusion_lat": 0.0, "lat": 38.905178666666664, "name": "eeb66cd1925fbb1d70e8fcc58b13fb1f", "fusion_lon": 0.0, "bike_id": "eeb66cd1925fbb1d70e8fcc58b13fb1f", "is_disabled": 0, "is_reserved": 0}, {"rental_uris": {"ios": "https://dc.lft.to/lastmile_qr_scan", "android": "https://dc.lft.to/lastmile_qr_scan"}, "lon": -77.04150166666666, "type": "electric_scooter", "fusion_lat": 0.0, "lat": 38.914971333333334, "name": "35eabaaf569bd3bcc8e98a943a0b00bf", "fusion_lon": 0.0, "bike_id": "35eabaaf569bd3bcc8e98a943a0b00bf", "is_disabled": 0, "is_reserved": 0}, {"rental_uris": {"ios": "https://dc.lft.to/lastmile_qr_scan", "android": "https://dc.lft.to/lastmile_qr_scan"}, "lon": -77.00505866666667, "type": "electric_scooter", "fusion_lat": 0.0, "lat": 38.875361166666664, "name": "b62904847a79098045436b4537123927", "fusion_lon": 0.0, "bike_id": "b62904847a79098045436b4537123927", "is_disabled": 0, "is_reserved": 0}, {"rental_uris": {"ios": "https://dc.lft.to/lastmile_qr_scan", "android": "https://dc.lft.to/lastmile_qr_scan"}, "lon": -76.9916975, "type": "electric_scooter", "fusion_lat": 0.0, "lat": 38.87924183333333, "name": "56e387ddfbccce8df83be5489bf7e0bd", "fusion_lon": 0.0, "bike_id": "56e387ddfbccce8df83be5489bf7e0bd", "is_disabled": 0, "is_reserved": 0}, {"rental_uris": {"ios": "https://dc.lft.to/lastmile_qr_scan", "android": "https://dc.lft.to/lastmile_qr_scan"}, "lon": -77.02316733333333, "type": "electric_scooter", "fusion_lat": 0.0, "lat": 38.917709333333335, "name": "26747b33d7342439e4fa1a8e0905a618", "fusion_lon": 0.0, "bike_id": "26747b33d7342439e4fa1a8e0905a618", "is_disabled": 0, "is_reserved": 0}, {"rental_uris": {"ios": "https://dc.lft.to/lastmile_qr_scan", "android": "https://dc.lft.to/lastmile_qr_scan"}, "lon": -77.36086416666667, "type": "electric_bike", "fusion_lat": 0.0, "lat": 38.93970783333333, "name": "c6fbd3fc81bdd55132ee8520cda0821e", "fusion_lon": 0.0, "bike_id": "c6fbd3fc81bdd55132ee8520cda0821e", "is_disabled": 0, "is_reserved": 0}, {"rental_uris": {"ios": "https://dc.lft.to/lastmile_qr_scan", "android": "https://dc.lft.to/lastmile_qr_scan"}, "lon": -77.00103983333334, "type": "electric_scooter", "fusion_lat": 0.0, "lat": 38.894312666666664, "name": "d7f9b129e099d29b4dfb2c5b5fb2a560", "fusion_lon": 0.0, "bike_id": "d7f9b129e099d29b4dfb2c5b5fb2a560", "is_disabled": 0, "is_reserved": 0}, {"rental_uris": {"ios": "https://dc.lft.to/lastmile_qr_scan", "android": "https://dc.lft.to/lastmile_qr_scan"}, "lon": -77.0459775, "type": "electric_scooter", "fusion_lat": 0.0, "lat": 38.902253, "name": "95f854de294fb7d86843e7d866dfda8f", "fusion_lon": 0.0, "bike_id": "95f854de294fb7d86843e7d866dfda8f", "is_disabled": 0, "is_reserved": 0}, {"rental_uris": {"ios": "https://dc.lft.to/lastmile_qr_scan", "android": "https://dc.lft.to/lastmile_qr_scan"}, "lon": -77.02103766666667, "type": "electric_scooter", "fusion_lat": 0.0, "lat": 38.910117666666665, "name": "37b8abf3672de7abc3a041188ba9a61a", "fusion_lon": 0.0, "bike_id": "37b8abf3672de7abc3a041188ba9a61a", "is_disabled": 0, "is_reserved": 0}, {"rental_uris": {"ios": "https://dc.lft.to/lastmile_qr_scan", "android": "https://dc.lft.to/lastmile_qr_scan"}, "lon": -77.0254475, "type": "electric_scooter", "fusion_lat": 0.0, "lat": 38.941, "name": "7088a32473a153a2739ae24d61cd0d9f", "fusion_lon": 0.0, "bike_id": "7088a32473a153a2739ae24d61cd0d9f", "is_disabled": 0, "is_reserved": 0}, {"rental_uris": {"ios": "https://dc.lft.to/lastmile_qr_scan", "android": "https://dc.lft.to/lastmile_qr_scan"}, "lon": -76.97983983333333, "type": "electric_bike", "fusion_lat": 0.0, "lat": 38.877553, "name": "f6f1539e4c75f835b1b8610a585221f2", "fusion_lon": 0.0, "bike_id": "f6f1539e4c75f835b1b8610a585221f2", "is_disabled": 0, "is_reserved": 0}, {"rental_uris": {"ios": "https://dc.lft.to/lastmile_qr_scan", "android": "https://dc.lft.to/lastmile_qr_scan"}, "lon": -77.0328805, "type": "electric_scooter", "fusion_lat": 0.0, "lat": 38.92211133333333, "name": "eab993600bf5fa03392aaaf5b2d942fb", "fusion_lon": 0.0, "bike_id": "eab993600bf5fa03392aaaf5b2d942fb", "is_disabled": 0, "is_reserved": 0}, {"rental_uris": {"ios": "https://dc.lft.to/lastmile_qr_scan", "android": "https://dc.lft.to/lastmile_qr_scan"}, "lon": -76.99944266666667, "type": "electric_scooter", "fusion_lat": 0.0, "lat": 38.919331, "name": "dd885d50ac7f5926bea3507454d96774", "fusion_lon": 0.0, "bike_id": "dd885d50ac7f5926bea3507454d96774", "is_disabled": 0, "is_reserved": 0}, {"rental_uris": {"ios": "https://dc.lft.to/lastmile_qr_scan", "android": "https://dc.lft.to/lastmile_qr_scan"}, "lon": -77.02728516666667, "type": "electric_scooter", "fusion_lat": 0.0, "lat": 38.92855683333333, "name": "af25cb5b4f3cca516d3d83134adfef90", "fusion_lon": 0.0, "bike_id": "af25cb5b4f3cca516d3d83134adfef90", "is_disabled": 0, "is_reserved": 0}, {"rental_uris": {"ios": "https://dc.lft.to/lastmile_qr_scan", "android": "https://dc.lft.to/lastmile_qr_scan"}, "lon": -77.03202183333333, "type": "electric_scooter", "fusion_lat": 0.0, "lat": 38.91653616666667, "name": "e985916dd5382c2c26e2cee07a4cfb35", "fusion_lon": 0.0, "bike_id": "e985916dd5382c2c26e2cee07a4cfb35", "is_disabled": 0, "is_reserved": 0}, {"rental_uris": {"ios": "https://dc.lft.to/lastmile_qr_scan", "android": "https://dc.lft.to/lastmile_qr_scan"}, "lon": -77.01231216666666, "type": "electric_scooter", "fusion_lat": 0.0, "lat": 38.91551783333333, "name": "33eb03b61fdd3e6b98fc93a054d7001a", "fusion_lon": 0.0, "bike_id": "33eb03b61fdd3e6b98fc93a054d7001a", "is_disabled": 0, "is_reserved": 0}, {"rental_uris": {"ios": "https://dc.lft.to/lastmile_qr_scan", "android": "https://dc.lft.to/lastmile_qr_scan"}, "lon": -77.02831766666667, "type": "electric_scooter", "fusion_lat": 0.0, "lat": 38.93294566666667, "name": "13b430156612a47e2236f2474ff388d7", "fusion_lon": 0.0, "bike_id": "13b430156612a47e2236f2474ff388d7", "is_disabled": 0, "is_reserved": 0}, {"rental_uris": {"ios": "https://dc.lft.to/lastmile_qr_scan", "android": "https://dc.lft.to/lastmile_qr_scan"}, "lon": -77.0345825, "type": "electric_scooter", "fusion_lat": 0.0, "lat": 38.9080635, "name": "c8881c71260ea1b3463e37916699d8bc", "fusion_lon": 0.0, "bike_id": "c8881c71260ea1b3463e37916699d8bc", "is_disabled": 0, "is_reserved": 0}, {"rental_uris": {"ios": "https://dc.lft.to/lastmile_qr_scan", "android": "https://dc.lft.to/lastmile_qr_scan"}, "lon": -76.94779433333333, "type": "electric_bike", "fusion_lat": 0.0, "lat": 38.89442533333333, "name": "842e40606c26bf27edbf52da781bf122", "fusion_lon": 0.0, "bike_id": "842e40606c26bf27edbf52da781bf122", "is_disabled": 0, "is_reserved": 0}, {"rental_uris": {"ios": "https://dc.lft.to/lastmile_qr_scan", "android": "https://dc.lft.to/lastmile_qr_scan"}, "lon": -77.02535116666667, "type": "electric_scooter", "fusion_lat": 0.0, "lat": 38.89240216666666, "name": "b3e5ba2db9ca96b8365b1c9fa7cf6019", "fusion_lon": 0.0, "bike_id": "b3e5ba2db9ca96b8365b1c9fa7cf6019", "is_disabled": 0, "is_reserved": 0}, {"rental_uris": {"ios": "https://dc.lft.to/lastmile_qr_scan", "android": "https://dc.lft.to/lastmile_qr_scan"}, "lon": -77.038745, "type": "electric_scooter", "fusion_lat": 0.0, "lat": 38.90819316666666, "name": "29ea1ecacada1abb11db31d8f37a2c17", "fusion_lon": 0.0, "bike_id": "29ea1ecacada1abb11db31d8f37a2c17", "is_disabled": 0, "is_reserved": 0}, {"rental_uris": {"ios": "https://dc.lft.to/lastmile_qr_scan", "android": "https://dc.lft.to/lastmile_qr_scan"}, "lon": -77.01859866666666, "type": "electric_scooter", "fusion_lat": 0.0, "lat": 38.892655, "name": "468552486ed0bed6aeea8d713fc2861e", "fusion_lon": 0.0, "bike_id": "468552486ed0bed6aeea8d713fc2861e", "is_disabled": 0, "is_reserved": 0}, {"rental_uris": {"ios": "https://dc.lft.to/lastmile_qr_scan", "android": "https://dc.lft.to/lastmile_qr_scan"}, "lon": -76.99181983333334, "type": "electric_scooter", "fusion_lat": 0.0, "lat": 38.905069833333336, "name": "601cf032d7b8c91ca92d7f417ee49a46", "fusion_lon": 0.0, "bike_id": "601cf032d7b8c91ca92d7f417ee49a46", "is_disabled": 0, "is_reserved": 0}, {"rental_uris": {"ios": "https://dc.lft.to/lastmile_qr_scan", "android": "https://dc.lft.to/lastmile_qr_scan"}, "lon": -77.04999166666667, "type": "electric_scooter", "fusion_lat": 0.0, "lat": 38.89234483333333, "name": "0c4696e2d06e850db3dcd959e30be1a0", "fusion_lon": 0.0, "bike_id": "0c4696e2d06e850db3dcd959e30be1a0", "is_disabled": 0, "is_reserved": 0}, {"rental_uris": {"ios": "https://dc.lft.to/lastmile_qr_scan", "android": "https://dc.lft.to/lastmile_qr_scan"}, "lon": -77.02971866666667, "type": "electric_scooter", "fusion_lat": 0.0, "lat": 38.907802833333335, "name": "3c9646641cc53f092314cd9047890ac7", "fusion_lon": 0.0, "bike_id": "3c9646641cc53f092314cd9047890ac7", "is_disabled": 0, "is_reserved": 0}, {"rental_uris": {"ios": "https://dc.lft.to/lastmile_qr_scan", "android": "https://dc.lft.to/lastmile_qr_scan"}, "lon": -76.97817466666666, "type": "electric_scooter", "fusion_lat": 0.0, "lat": 38.895269, "name": "544c77507d8ea0ed97b5941a2e6f5cbc", "fusion_lon": 0.0, "bike_id": "544c77507d8ea0ed97b5941a2e6f5cbc", "is_disabled": 0, "is_reserved": 0}, {"rental_uris": {"ios": "https://dc.lft.to/lastmile_qr_scan", "android": "https://dc.lft.to/lastmile_qr_scan"}, "lon": -76.99019616666666, "type": "electric_scooter", "fusion_lat": 0.0, "lat": 38.85871266666667, "name": "2d83065a23c6b49e378c8558ee5323a7", "fusion_lon": 0.0, "bike_id": "2d83065a23c6b49e378c8558ee5323a7", "is_disabled": 0, "is_reserved": 0}, {"rental_uris": {"ios": "https://dc.lft.to/lastmile_qr_scan", "android": "https://dc.lft.to/lastmile_qr_scan"}, "lon": -77.03726116666667, "type": "electric_scooter", "fusion_lat": 0.0, "lat": 38.917117833333336, "name": "23f24bf00cf678785180ef539d6b9a7a", "fusion_lon": 0.0, "bike_id": "23f24bf00cf678785180ef539d6b9a7a", "is_disabled": 0, "is_reserved": 0}, {"rental_uris": {"ios": "https://dc.lft.to/lastmile_qr_scan", "android": "https://dc.lft.to/lastmile_qr_scan"}, "lon": -77.0317605, "type": "electric_scooter", "fusion_lat": 0.0, "lat": 38.901135333333336, "name": "bccb14d3228595f91d038d43f42e2eb2", "fusion_lon": 0.0, "bike_id": "bccb14d3228595f91d038d43f42e2eb2", "is_disabled": 0, "is_reserved": 0}, {"rental_uris": {"ios": "https://dc.lft.to/lastmile_qr_scan", "android": "https://dc.lft.to/lastmile_qr_scan"}, "lon": -77.03483583333333, "type": "electric_scooter", "fusion_lat": 0.0, "lat": 38.917115833333334, "name": "ec83de24d33cbe569a28e45b124496e6", "fusion_lon": 0.0, "bike_id": "ec83de24d33cbe569a28e45b124496e6", "is_disabled": 0, "is_reserved": 0}, {"rental_uris": {"ios": "https://dc.lft.to/lastmile_qr_scan", "android": "https://dc.lft.to/lastmile_qr_scan"}, "lon": -77.025414, "type": "electric_scooter", "fusion_lat": 0.0, "lat": 38.92072783333333, "name": "6405350c4da8b4bfbdcc9997dbf1e726", "fusion_lon": 0.0, "bike_id": "6405350c4da8b4bfbdcc9997dbf1e726", "is_disabled": 0, "is_reserved": 0}, {"rental_uris": {"ios": "https://dc.lft.to/lastmile_qr_scan", "android": "https://dc.lft.to/lastmile_qr_scan"}, "lon": -77.04850216666667, "type": "electric_scooter", "fusion_lat": 0.0, "lat": 38.91965916666667, "name": "3b75d4ea79a166a45aad753445cc912c", "fusion_lon": 0.0, "bike_id": "3b75d4ea79a166a45aad753445cc912c", "is_disabled": 0, "is_reserved": 0}, {"rental_uris": {"ios": "https://dc.lft.to/lastmile_qr_scan", "android": "https://dc.lft.to/lastmile_qr_scan"}, "lon": -77.09549966666667, "type": "electric_bike", "fusion_lat": 0.0, "lat": 38.837353666666665, "name": "c4a74ae54aed2181f2400cb51d920a6b", "fusion_lon": 0.0, "bike_id": "c4a74ae54aed2181f2400cb51d920a6b", "is_disabled": 0, "is_reserved": 0}, {"rental_uris": {"ios": "https://dc.lft.to/lastmile_qr_scan", "android": "https://dc.lft.to/lastmile_qr_scan"}, "lon": -76.94944833333334, "type": "electric_scooter", "fusion_lat": 0.0, "lat": 38.88315766666667, "name": "68475748f3a2c8fe0bdda794f176b2be", "fusion_lon": 0.0, "bike_id": "68475748f3a2c8fe0bdda794f176b2be", "is_disabled": 0, "is_reserved": 0}, {"rental_uris": {"ios": "https://dc.lft.to/lastmile_qr_scan", "android": "https://dc.lft.to/lastmile_qr_scan"}, "lon": -77.041579, "type": "electric_scooter", "fusion_lat": 0.0, "lat": 38.91738, "name": "b7c50030e24361bb1b1e4d37125c6a72", "fusion_lon": 0.0, "bike_id": "b7c50030e24361bb1b1e4d37125c6a72", "is_disabled": 0, "is_reserved": 0}, {"rental_uris": {"ios": "https://dc.lft.to/lastmile_qr_scan", "android": "https://dc.lft.to/lastmile_qr_scan"}, "lon": -77.00374933333333, "type": "electric_bike", "fusion_lat": 0.0, "lat": 38.83604616666667, "name": "ab962b44c8c46049d4a5f5c022daa2f5", "fusion_lon": 0.0, "bike_id": "ab962b44c8c46049d4a5f5c022daa2f5", "is_disabled": 0, "is_reserved": 0}, {"rental_uris": {"ios": "https://dc.lft.to/lastmile_qr_scan", "android": "https://dc.lft.to/lastmile_qr_scan"}, "lon": -76.97135166666666, "type": "electric_bike", "fusion_lat": 0.0, "lat": 38.92356916666667, "name": "69f45a6036c0731127f79eb9c50a3a1f", "fusion_lon": 0.0, "bike_id": "69f45a6036c0731127f79eb9c50a3a1f", "is_disabled": 0, "is_reserved": 0}, {"rental_uris": {"ios": "https://dc.lft.to/lastmile_qr_scan", "android": "https://dc.lft.to/lastmile_qr_scan"}, "lon": -77.02439633333333, "type": "electric_bike", "fusion_lat": 0.0, "lat": 38.916926, "name": "7bd956b7e6fcf66fdf20a9d1de8d1d2c", "fusion_lon": 0.0, "bike_id": "7bd956b7e6fcf66fdf20a9d1de8d1d2c", "is_disabled": 0, "is_reserved": 0}, {"rental_uris": {"ios": "https://dc.lft.to/lastmile_qr_scan", "android": "https://dc.lft.to/lastmile_qr_scan"}, "lon": -76.9978025, "type": "electric_scooter", "fusion_lat": 0.0, "lat": 38.844274666666664, "name": "374f04036f9b41cae1ef20722cc1a92e", "fusion_lon": 0.0, "bike_id": "374f04036f9b41cae1ef20722cc1a92e", "is_disabled": 0, "is_reserved": 0}, {"rental_uris": {"ios": "https://dc.lft.to/lastmile_qr_scan", "android": "https://dc.lft.to/lastmile_qr_scan"}, "lon": -77.028067, "type": "electric_scooter", "fusion_lat": 0.0, "lat": 38.916763, "name": "a5acb5ad8ce2d2d78c8b45c92239892a", "fusion_lon": 0.0, "bike_id": "a5acb5ad8ce2d2d78c8b45c92239892a", "is_disabled": 0, "is_reserved": 0}, {"rental_uris": {"ios": "https://dc.lft.to/lastmile_qr_scan", "android": "https://dc.lft.to/lastmile_qr_scan"}, "lon": -77.03289066666666, "type": "electric_scooter", "fusion_lat": 0.0, "lat": 38.956534, "name": "b87ec96b8f6c663ba605d1c9356cc7b4", "fusion_lon": 0.0, "bike_id": "b87ec96b8f6c663ba605d1c9356cc7b4", "is_disabled": 0, "is_reserved": 0}, {"rental_uris": {"ios": "https://dc.lft.to/lastmile_qr_scan", "android": "https://dc.lft.to/lastmile_qr_scan"}, "lon": -77.10919433333333, "type": "electric_bike", "fusion_lat": 0.0, "lat": 39.05197116666667, "name": "bc3ff2224c1ca607ab47dea9a2f5f495", "fusion_lon": 0.0, "bike_id": "bc3ff2224c1ca607ab47dea9a2f5f495", "is_disabled": 0, "is_reserved": 0}, {"rental_uris": {"ios": "https://dc.lft.to/lastmile_qr_scan", "android": "https://dc.lft.to/lastmile_qr_scan"}, "lon": -77.0151705, "type": "electric_scooter", "fusion_lat": 0.0, "lat": 38.91873, "name": "59e1bc2eb928581a1f174adffa85c137", "fusion_lon": 0.0, "bike_id": "59e1bc2eb928581a1f174adffa85c137", "is_disabled": 0, "is_reserved": 0}, {"rental_uris": {"ios": "https://dc.lft.to/lastmile_qr_scan", "android": "https://dc.lft.to/lastmile_qr_scan"}, "lon": -77.00092116666667, "type": "electric_scooter", "fusion_lat": 0.0, "lat": 38.87375933333333, "name": "e686fcdc79deaa89a01f293a0165d316", "fusion_lon": 0.0, "bike_id": "e686fcdc79deaa89a01f293a0165d316", "is_disabled": 0, "is_reserved": 0}, {"rental_uris": {"ios": "https://dc.lft.to/lastmile_qr_scan", "android": "https://dc.lft.to/lastmile_qr_scan"}, "lon": -77.0028995, "type": "electric_bike", "fusion_lat": 0.0, "lat": 38.911609166666665, "name": "315abdd93b58b23cbc50f080917291fb", "fusion_lon": 0.0, "bike_id": "315abdd93b58b23cbc50f080917291fb", "is_disabled": 0, "is_reserved": 0}, {"rental_uris": {"ios": "https://dc.lft.to/lastmile_qr_scan", "android": "https://dc.lft.to/lastmile_qr_scan"}, "lon": -76.9760785, "type": "electric_bike", "fusion_lat": 0.0, "lat": 38.91310433333334, "name": "219eed840cf37e8b879f92120dd91001", "fusion_lon": 0.0, "bike_id": "219eed840cf37e8b879f92120dd91001", "is_disabled": 0, "is_reserved": 0}, {"rental_uris": {"ios": "https://dc.lft.to/lastmile_qr_scan", "android": "https://dc.lft.to/lastmile_qr_scan"}, "lon": -77.04390466666666, "type": "electric_scooter", "fusion_lat": 0.0, "lat": 38.922784, "name": "a9caefc3862ceba90f279922c87ae647", "fusion_lon": 0.0, "bike_id": "a9caefc3862ceba90f279922c87ae647", "is_disabled": 0, "is_reserved": 0}, {"rental_uris": {"ios": "https://dc.lft.to/lastmile_qr_scan", "android": "https://dc.lft.to/lastmile_qr_scan"}, "lon": -77.02401, "type": "electric_scooter", "fusion_lat": 0.0, "lat": 38.88741983333333, "name": "d3052c112ae67107f4ae9e779ca6c5b4", "fusion_lon": 0.0, "bike_id": "d3052c112ae67107f4ae9e779ca6c5b4", "is_disabled": 0, "is_reserved": 0}, {"rental_uris": {"ios": "https://dc.lft.to/lastmile_qr_scan", "android": "https://dc.lft.to/lastmile_qr_scan"}, "lon": -76.97190883333333, "type": "electric_scooter", "fusion_lat": 0.0, "lat": 38.91261433333333, "name": "2c3eaf2af0542eda02a02d4e7719cafe", "fusion_lon": 0.0, "bike_id": "2c3eaf2af0542eda02a02d4e7719cafe", "is_disabled": 0, "is_reserved": 0}, {"rental_uris": {"ios": "https://dc.lft.to/lastmile_qr_scan", "android": "https://dc.lft.to/lastmile_qr_scan"}, "lon": -77.0107455, "type": "electric_scooter", "fusion_lat": 0.0, "lat": 38.871068, "name": "08443279bbbd2b91b87da7dbf7a499a6", "fusion_lon": 0.0, "bike_id": "08443279bbbd2b91b87da7dbf7a499a6", "is_disabled": 0, "is_reserved": 0}, {"rental_uris": {"ios": "https://dc.lft.to/lastmile_qr_scan", "android": "https://dc.lft.to/lastmile_qr_scan"}, "lon": -77.01816233333334, "type": "electric_scooter", "fusion_lat": 0.0, "lat": 38.9081095, "name": "91c0b5317482d1773e4895be6e5d3a76", "fusion_lon": 0.0, "bike_id": "91c0b5317482d1773e4895be6e5d3a76", "is_disabled": 0, "is_reserved": 0}, {"rental_uris": {"ios": "https://dc.lft.to/lastmile_qr_scan", "android": "https://dc.lft.to/lastmile_qr_scan"}, "lon": -77.02002666666667, "type": "electric_scooter", "fusion_lat": 0.0, "lat": 38.892492833333336, "name": "45c2be720ff5bcea75043bbc3d666b2d", "fusion_lon": 0.0, "bike_id": "45c2be720ff5bcea75043bbc3d666b2d", "is_disabled": 0, "is_reserved": 0}, {"rental_uris": {"ios": "https://dc.lft.to/lastmile_qr_scan", "android": "https://dc.lft.to/lastmile_qr_scan"}, "lon": -76.99031433333333, "type": "electric_scooter", "fusion_lat": 0.0, "lat": 38.85866883333333, "name": "f2cd6fd073ddba2eba67e54ce7b19966", "fusion_lon": 0.0, "bike_id": "f2cd6fd073ddba2eba67e54ce7b19966", "is_disabled": 0, "is_reserved": 0}, {"rental_uris": {"ios": "https://dc.lft.to/lastmile_qr_scan", "android": "https://dc.lft.to/lastmile_qr_scan"}, "lon": -77.02316466666667, "type": "electric_scooter", "fusion_lat": 0.0, "lat": 38.88736166666666, "name": "79881387fbaf12e6df405b0c764e3df1", "fusion_lon": 0.0, "bike_id": "79881387fbaf12e6df405b0c764e3df1", "is_disabled": 0, "is_reserved": 0}, {"rental_uris": {"ios": "https://dc.lft.to/lastmile_qr_scan", "android": "https://dc.lft.to/lastmile_qr_scan"}, "lon": -77.03060216666667, "type": "electric_scooter", "fusion_lat": 0.0, "lat": 38.92251616666667, "name": "90cc7136f8cf27914cc4d10cd6b71365", "fusion_lon": 0.0, "bike_id": "90cc7136f8cf27914cc4d10cd6b71365", "is_disabled": 0, "is_reserved": 0}, {"rental_uris": {"ios": "https://dc.lft.to/lastmile_qr_scan", "android": "https://dc.lft.to/lastmile_qr_scan"}, "lon": -77.044512, "type": "electric_scooter", "fusion_lat": 0.0, "lat": 38.91877983333333, "name": "9f922cc76057821255069ee5bd8c89a4", "fusion_lon": 0.0, "bike_id": "9f922cc76057821255069ee5bd8c89a4", "is_disabled": 0, "is_reserved": 0}, {"rental_uris": {"ios": "https://dc.lft.to/lastmile_qr_scan", "android": "https://dc.lft.to/lastmile_qr_scan"}, "lon": -77.05599716666667, "type": "electric_scooter", "fusion_lat": 0.0, "lat": 38.92782916666667, "name": "1544721b928f47e59d812f09c9269d8e", "fusion_lon": 0.0, "bike_id": "1544721b928f47e59d812f09c9269d8e", "is_disabled": 0, "is_reserved": 0}, {"rental_uris": {"ios": "https://dc.lft.to/lastmile_qr_scan", "android": "https://dc.lft.to/lastmile_qr_scan"}, "lon": -77.09521516666666, "type": "electric_bike", "fusion_lat": 0.0, "lat": 38.83812433333333, "name": "86cd527571b4997aad992038a90d57b6", "fusion_lon": 0.0, "bike_id": "86cd527571b4997aad992038a90d57b6", "is_disabled": 0, "is_reserved": 0}, {"rental_uris": {"ios": "https://dc.lft.to/lastmile_qr_scan", "android": "https://dc.lft.to/lastmile_qr_scan"}, "lon": -77.043734, "type": "electric_scooter", "fusion_lat": 0.0, "lat": 38.89221366666666, "name": "6e83c782c2a9f8a785a9c9c0b50658de", "fusion_lon": 0.0, "bike_id": "6e83c782c2a9f8a785a9c9c0b50658de", "is_disabled": 0, "is_reserved": 0}, {"rental_uris": {"ios": "https://dc.lft.to/lastmile_qr_scan", "android": "https://dc.lft.to/lastmile_qr_scan"}, "lon": -77.038437, "type": "electric_scooter", "fusion_lat": 0.0, "lat": 38.9110065, "name": "696051b8f35b6b9861ae21e154d8fa81", "fusion_lon": 0.0, "bike_id": "696051b8f35b6b9861ae21e154d8fa81", "is_disabled": 0, "is_reserved": 0}, {"rental_uris": {"ios": "https://dc.lft.to/lastmile_qr_scan", "android": "https://dc.lft.to/lastmile_qr_scan"}, "lon": -77.02801833333334, "type": "electric_scooter", "fusion_lat": 0.0, "lat": 38.89382533333333, "name": "326cb447634fbf9574cf3a68f19bb5b2", "fusion_lon": 0.0, "bike_id": "326cb447634fbf9574cf3a68f19bb5b2", "is_disabled": 0, "is_reserved": 0}, {"rental_uris": {"ios": "https://dc.lft.to/lastmile_qr_scan", "android": "https://dc.lft.to/lastmile_qr_scan"}, "lon": -77.04186166666666, "type": "electric_scooter", "fusion_lat": 0.0, "lat": 38.905681, "name": "c82acbb5f23af1962dd6e55f0a0e4d2f", "fusion_lon": 0.0, "bike_id": "c82acbb5f23af1962dd6e55f0a0e4d2f", "is_disabled": 0, "is_reserved": 0}, {"rental_uris": {"ios": "https://dc.lft.to/lastmile_qr_scan", "android": "https://dc.lft.to/lastmile_qr_scan"}, "lon": -76.95817366666667, "type": "electric_scooter", "fusion_lat": 0.0, "lat": 38.8905825, "name": "ba26bfbb8e216a74ffef60e658981c1d", "fusion_lon": 0.0, "bike_id": "ba26bfbb8e216a74ffef60e658981c1d", "is_disabled": 0, "is_reserved": 0}, {"rental_uris": {"ios": "https://dc.lft.to/lastmile_qr_scan", "android": "https://dc.lft.to/lastmile_qr_scan"}, "lon": -77.04365166666666, "type": "electric_scooter", "fusion_lat": 0.0, "lat": 38.902436, "name": "4c8a00965b574ff5d91235441874ba24", "fusion_lon": 0.0, "bike_id": "4c8a00965b574ff5d91235441874ba24", "is_disabled": 0, "is_reserved": 0}, {"rental_uris": {"ios": "https://dc.lft.to/lastmile_qr_scan", "android": "https://dc.lft.to/lastmile_qr_scan"}, "lon": -77.03345216666666, "type": "electric_scooter", "fusion_lat": 0.0, "lat": 38.8851275, "name": "affe617435ff4c44a9a05ebb22fd7aac", "fusion_lon": 0.0, "bike_id": "affe617435ff4c44a9a05ebb22fd7aac", "is_disabled": 0, "is_reserved": 0}, {"rental_uris": {"ios": "https://dc.lft.to/lastmile_qr_scan", "android": "https://dc.lft.to/lastmile_qr_scan"}, "lon": -77.04521316666667, "type": "electric_scooter", "fusion_lat": 0.0, "lat": 38.90970316666667, "name": "3bb4a6d09050682123e4d05994795acf", "fusion_lon": 0.0, "bike_id": "3bb4a6d09050682123e4d05994795acf", "is_disabled": 0, "is_reserved": 0}, {"rental_uris": {"ios": "https://dc.lft.to/lastmile_qr_scan", "android": "https://dc.lft.to/lastmile_qr_scan"}, "lon": -77.02476833333333, "type": "electric_scooter", "fusion_lat": 0.0, "lat": 38.9171065, "name": "48ca97fdc61c51bc9b7e6d82afca25d7", "fusion_lon": 0.0, "bike_id": "48ca97fdc61c51bc9b7e6d82afca25d7", "is_disabled": 0, "is_reserved": 0}, {"rental_uris": {"ios": "https://dc.lft.to/lastmile_qr_scan", "android": "https://dc.lft.to/lastmile_qr_scan"}, "lon": -76.995515, "type": "electric_scooter", "fusion_lat": 0.0, "lat": 38.8623305, "name": "f25ea801afb025ae2bebc10ee35508f0", "fusion_lon": 0.0, "bike_id": "f25ea801afb025ae2bebc10ee35508f0", "is_disabled": 0, "is_reserved": 0}, {"rental_uris": {"ios": "https://dc.lft.to/lastmile_qr_scan", "android": "https://dc.lft.to/lastmile_qr_scan"}, "lon": -77.0102485, "type": "electric_scooter", "fusion_lat": 0.0, "lat": 38.918134333333334, "name": "1fc1f9b507855ac1503021582c1f9b23", "fusion_lon": 0.0, "bike_id": "1fc1f9b507855ac1503021582c1f9b23", "is_disabled": 0, "is_reserved": 0}, {"rental_uris": {"ios": "https://dc.lft.to/lastmile_qr_scan", "android": "https://dc.lft.to/lastmile_qr_scan"}, "lon": -77.03145216666667, "type": "electric_scooter", "fusion_lat": 0.0, "lat": 38.91406083333333, "name": "8a2a98eacaa53025230c5ed4acf05079", "fusion_lon": 0.0, "bike_id": "8a2a98eacaa53025230c5ed4acf05079", "is_disabled": 0, "is_reserved": 0}, {"rental_uris": {"ios": "https://dc.lft.to/lastmile_qr_scan", "android": "https://dc.lft.to/lastmile_qr_scan"}, "lon": -76.989976, "type": "electric_scooter", "fusion_lat": 0.0, "lat": 38.90391016666667, "name": "d061d9a6fe7dde4012a1b0e02e94da38", "fusion_lon": 0.0, "bike_id": "d061d9a6fe7dde4012a1b0e02e94da38", "is_disabled": 0, "is_reserved": 0}, {"rental_uris": {"ios": "https://dc.lft.to/lastmile_qr_scan", "android": "https://dc.lft.to/lastmile_qr_scan"}, "lon": -77.04378116666666, "type": "electric_scooter", "fusion_lat": 0.0, "lat": 38.90732333333333, "name": "9ebbdeea9ce19a3d5864efd61aaf1612", "fusion_lon": 0.0, "bike_id": "9ebbdeea9ce19a3d5864efd61aaf1612", "is_disabled": 0, "is_reserved": 0}, {"rental_uris": {"ios": "https://dc.lft.to/lastmile_qr_scan", "android": "https://dc.lft.to/lastmile_qr_scan"}, "lon": -77.01896733333334, "type": "electric_scooter", "fusion_lat": 0.0, "lat": 38.90354466666667, "name": "2d4e43a2ae7e7d8a2060ba33161c3142", "fusion_lon": 0.0, "bike_id": "2d4e43a2ae7e7d8a2060ba33161c3142", "is_disabled": 0, "is_reserved": 0}, {"rental_uris": {"ios": "https://dc.lft.to/lastmile_qr_scan", "android": "https://dc.lft.to/lastmile_qr_scan"}, "lon": -77.01991183333334, "type": "electric_scooter", "fusion_lat": 0.0, "lat": 38.937840666666666, "name": "09985bfa4fa6505c4686518f1a771b99", "fusion_lon": 0.0, "bike_id": "09985bfa4fa6505c4686518f1a771b99", "is_disabled": 0, "is_reserved": 0}, {"rental_uris": {"ios": "https://dc.lft.to/lastmile_qr_scan", "android": "https://dc.lft.to/lastmile_qr_scan"}, "lon": -76.98309816666666, "type": "electric_scooter", "fusion_lat": 0.0, "lat": 38.89975833333333, "name": "f68717e45150fe3611a158d3d0df690f", "fusion_lon": 0.0, "bike_id": "f68717e45150fe3611a158d3d0df690f", "is_disabled": 0, "is_reserved": 0}, {"rental_uris": {"ios": "https://dc.lft.to/lastmile_qr_scan", "android": "https://dc.lft.to/lastmile_qr_scan"}, "lon": -77.03472716666667, "type": "electric_scooter", "fusion_lat": 0.0, "lat": 38.918160666666665, "name": "eca0b7380f0f2e215cafc27692d236b8", "fusion_lon": 0.0, "bike_id": "eca0b7380f0f2e215cafc27692d236b8", "is_disabled": 0, "is_reserved": 0}, {"rental_uris": {"ios": "https://dc.lft.to/lastmile_qr_scan", "android": "https://dc.lft.to/lastmile_qr_scan"}, "lon": -76.99823566666667, "type": "electric_scooter", "fusion_lat": 0.0, "lat": 38.9004735, "name": "20df30d010f902130d690800f53de722", "fusion_lon": 0.0, "bike_id": "20df30d010f902130d690800f53de722", "is_disabled": 0, "is_reserved": 0}, {"rental_uris": {"ios": "https://dc.lft.to/lastmile_qr_scan", "android": "https://dc.lft.to/lastmile_qr_scan"}, "lon": -77.0544935, "type": "electric_scooter", "fusion_lat": 0.0, "lat": 38.928152833333336, "name": "f25dac2906e75d15bc5fbbe27ea89a53", "fusion_lon": 0.0, "bike_id": "f25dac2906e75d15bc5fbbe27ea89a53", "is_disabled": 0, "is_reserved": 0}, {"rental_uris": {"ios": "https://dc.lft.to/lastmile_qr_scan", "android": "https://dc.lft.to/lastmile_qr_scan"}, "lon": -77.00197866666667, "type": "electric_scooter", "fusion_lat": 0.0, "lat": 38.89446, "name": "35b5b485e67590130a051ff497e69d65", "fusion_lon": 0.0, "bike_id": "35b5b485e67590130a051ff497e69d65", "is_disabled": 0, "is_reserved": 0}, {"rental_uris": {"ios": "https://dc.lft.to/lastmile_qr_scan", "android": "https://dc.lft.to/lastmile_qr_scan"}, "lon": -77.0318795, "type": "electric_scooter", "fusion_lat": 0.0, "lat": 38.908440166666665, "name": "0ed9a01f56830d9e81b93061be3526da", "fusion_lon": 0.0, "bike_id": "0ed9a01f56830d9e81b93061be3526da", "is_disabled": 0, "is_reserved": 0}, {"rental_uris": {"ios": "https://dc.lft.to/lastmile_qr_scan", "android": "https://dc.lft.to/lastmile_qr_scan"}, "lon": -77.0421155, "type": "electric_scooter", "fusion_lat": 0.0, "lat": 38.9231565, "name": "f197585fc630be46451b6c17eb2af30f", "fusion_lon": 0.0, "bike_id": "f197585fc630be46451b6c17eb2af30f", "is_disabled": 0, "is_reserved": 0}, {"rental_uris": {"ios": "https://dc.lft.to/lastmile_qr_scan", "android": "https://dc.lft.to/lastmile_qr_scan"}, "lon": -76.99334, "type": "electric_bike", "fusion_lat": 0.0, "lat": 38.96193516666666, "name": "89a0b4fc135bd38bbe1823ffcdbd550f", "fusion_lon": 0.0, "bike_id": "89a0b4fc135bd38bbe1823ffcdbd550f", "is_disabled": 0, "is_reserved": 0}, {"rental_uris": {"ios": "https://dc.lft.to/lastmile_qr_scan", "android": "https://dc.lft.to/lastmile_qr_scan"}, "lon": -77.0270725, "type": "electric_scooter", "fusion_lat": 0.0, "lat": 38.8995835, "name": "eab147e49567fc8ac7c9d09c737c022a", "fusion_lon": 0.0, "bike_id": "eab147e49567fc8ac7c9d09c737c022a", "is_disabled": 0, "is_reserved": 0}, {"rental_uris": {"ios": "https://dc.lft.to/lastmile_qr_scan", "android": "https://dc.lft.to/lastmile_qr_scan"}, "lon": -77.0186675, "type": "electric_scooter", "fusion_lat": 0.0, "lat": 38.9489525, "name": "105c7fc35ef86bed1f6d79329bbf647b", "fusion_lon": 0.0, "bike_id": "105c7fc35ef86bed1f6d79329bbf647b", "is_disabled": 0, "is_reserved": 0}, {"rental_uris": {"ios": "https://dc.lft.to/lastmile_qr_scan", "android": "https://dc.lft.to/lastmile_qr_scan"}, "lon": -77.02926033333334, "type": "electric_scooter", "fusion_lat": 0.0, "lat": 38.882203833333335, "name": "8bd15f0956e616032a740bf69f83f7b8", "fusion_lon": 0.0, "bike_id": "8bd15f0956e616032a740bf69f83f7b8", "is_disabled": 0, "is_reserved": 0}, {"rental_uris": {"ios": "https://dc.lft.to/lastmile_qr_scan", "android": "https://dc.lft.to/lastmile_qr_scan"}, "lon": -77.06638416666667, "type": "electric_scooter", "fusion_lat": 0.0, "lat": 38.91381783333333, "name": "24fe394ce1c6163ae6eeb8c4bf967039", "fusion_lon": 0.0, "bike_id": "24fe394ce1c6163ae6eeb8c4bf967039", "is_disabled": 0, "is_reserved": 0}, {"rental_uris": {"ios": "https://dc.lft.to/lastmile_qr_scan", "android": "https://dc.lft.to/lastmile_qr_scan"}, "lon": -77.055796, "type": "electric_scooter", "fusion_lat": 0.0, "lat": 38.8995495, "name": "1fb53de794029f04a8cde96f45b9bdfb", "fusion_lon": 0.0, "bike_id": "1fb53de794029f04a8cde96f45b9bdfb", "is_disabled": 0, "is_reserved": 0}, {"rental_uris": {"ios": "https://dc.lft.to/lastmile_qr_scan", "android": "https://dc.lft.to/lastmile_qr_scan"}, "lon": -77.02503083333333, "type": "electric_scooter", "fusion_lat": 0.0, "lat": 38.919144333333335, "name": "4bbaee9288fc125a5b352fd0c8970b80", "fusion_lon": 0.0, "bike_id": "4bbaee9288fc125a5b352fd0c8970b80", "is_disabled": 0, "is_reserved": 0}, {"rental_uris": {"ios": "https://dc.lft.to/lastmile_qr_scan", "android": "https://dc.lft.to/lastmile_qr_scan"}, "lon": -77.03271133333334, "type": "electric_bike", "fusion_lat": 0.0, "lat": 38.934284166666664, "name": "2e93fa304cd2e63fe7069d55a4dc1975", "fusion_lon": 0.0, "bike_id": "2e93fa304cd2e63fe7069d55a4dc1975", "is_disabled": 0, "is_reserved": 0}, {"rental_uris": {"ios": "https://dc.lft.to/lastmile_qr_scan", "android": "https://dc.lft.to/lastmile_qr_scan"}, "lon": -77.03328516666667, "type": "electric_scooter", "fusion_lat": 0.0, "lat": 38.898984166666665, "name": "ee30b3f4715287486b4d60cb065c49dd", "fusion_lon": 0.0, "bike_id": "ee30b3f4715287486b4d60cb065c49dd", "is_disabled": 0, "is_reserved": 0}, {"rental_uris": {"ios": "https://dc.lft.to/lastmile_qr_scan", "android": "https://dc.lft.to/lastmile_qr_scan"}, "lon": -77.0460225, "type": "electric_scooter", "fusion_lat": 0.0, "lat": 38.90259183333333, "name": "aecb9411d0631d571aebfeb37056b691", "fusion_lon": 0.0, "bike_id": "aecb9411d0631d571aebfeb37056b691", "is_disabled": 0, "is_reserved": 0}, {"rental_uris": {"ios": "https://dc.lft.to/lastmile_qr_scan", "android": "https://dc.lft.to/lastmile_qr_scan"}, "lon": -77.021206, "type": "electric_scooter", "fusion_lat": 0.0, "lat": 38.903138166666665, "name": "66415ee1160499b336c8544cce98e78f", "fusion_lon": 0.0, "bike_id": "66415ee1160499b336c8544cce98e78f", "is_disabled": 0, "is_reserved": 0}, {"rental_uris": {"ios": "https://dc.lft.to/lastmile_qr_scan", "android": "https://dc.lft.to/lastmile_qr_scan"}, "lon": -76.9981365, "type": "electric_scooter", "fusion_lat": 0.0, "lat": 38.90009966666667, "name": "e3d69834057dc53923048de43be1dff0", "fusion_lon": 0.0, "bike_id": "e3d69834057dc53923048de43be1dff0", "is_disabled": 0, "is_reserved": 0}, {"rental_uris": {"ios": "https://dc.lft.to/lastmile_qr_scan", "android": "https://dc.lft.to/lastmile_qr_scan"}, "lon": -77.35310083333333, "type": "electric_bike", "fusion_lat": 0.0, "lat": 38.95001033333333, "name": "5d3ae86bfc0eaf933c31fe10d6c29529", "fusion_lon": 0.0, "bike_id": "5d3ae86bfc0eaf933c31fe10d6c29529", "is_disabled": 0, "is_reserved": 0}, {"rental_uris": {"ios": "https://dc.lft.to/lastmile_qr_scan", "android": "https://dc.lft.to/lastmile_qr_scan"}, "lon": -76.93176566666666, "type": "electric_scooter", "fusion_lat": 0.0, "lat": 38.8987975, "name": "2a48f4f4221a7463c6c2479f1dea210b", "fusion_lon": 0.0, "bike_id": "2a48f4f4221a7463c6c2479f1dea210b", "is_disabled": 0, "is_reserved": 0}, {"rental_uris": {"ios": "https://dc.lft.to/lastmile_qr_scan", "android": "https://dc.lft.to/lastmile_qr_scan"}, "lon": -77.03831116666667, "type": "electric_scooter", "fusion_lat": 0.0, "lat": 38.93141583333333, "name": "6c0a81d99980373b8ec3c3f8babd9ee7", "fusion_lon": 0.0, "bike_id": "6c0a81d99980373b8ec3c3f8babd9ee7", "is_disabled": 0, "is_reserved": 0}, {"rental_uris": {"ios": "https://dc.lft.to/lastmile_qr_scan", "android": "https://dc.lft.to/lastmile_qr_scan"}, "lon": -77.00425833333334, "type": "electric_scooter", "fusion_lat": 0.0, "lat": 38.876385, "name": "51c1eb78ab37bca8b39768b4edadf4b7", "fusion_lon": 0.0, "bike_id": "51c1eb78ab37bca8b39768b4edadf4b7", "is_disabled": 0, "is_reserved": 0}, {"rental_uris": {"ios": "https://dc.lft.to/lastmile_qr_scan", "android": "https://dc.lft.to/lastmile_qr_scan"}, "lon": -77.0318695, "type": "electric_scooter", "fusion_lat": 0.0, "lat": 38.913311666666665, "name": "5ea4abe9e3c23b2c3169211eb0a8df52", "fusion_lon": 0.0, "bike_id": "5ea4abe9e3c23b2c3169211eb0a8df52", "is_disabled": 0, "is_reserved": 0}, {"rental_uris": {"ios": "https://dc.lft.to/lastmile_qr_scan", "android": "https://dc.lft.to/lastmile_qr_scan"}, "lon": -77.0284195, "type": "electric_scooter", "fusion_lat": 0.0, "lat": 38.94263333333333, "name": "0b4338ecb209f6e445c8597982ed40ff", "fusion_lon": 0.0, "bike_id": "0b4338ecb209f6e445c8597982ed40ff", "is_disabled": 0, "is_reserved": 0}, {"rental_uris": {"ios": "https://dc.lft.to/lastmile_qr_scan", "android": "https://dc.lft.to/lastmile_qr_scan"}, "lon": -77.00724933333333, "type": "electric_scooter", "fusion_lat": 0.0, "lat": 38.884926, "name": "9cfa53df2cc002e7afa1acd1dbdf2b32", "fusion_lon": 0.0, "bike_id": "9cfa53df2cc002e7afa1acd1dbdf2b32", "is_disabled": 0, "is_reserved": 0}, {"rental_uris": {"ios": "https://dc.lft.to/lastmile_qr_scan", "android": "https://dc.lft.to/lastmile_qr_scan"}, "lon": -76.99895466666666, "type": "electric_scooter", "fusion_lat": 0.0, "lat": 38.90756916666667, "name": "6526971e923a9f58f72a3837a27f3102", "fusion_lon": 0.0, "bike_id": "6526971e923a9f58f72a3837a27f3102", "is_disabled": 0, "is_reserved": 0}, {"rental_uris": {"ios": "https://dc.lft.to/lastmile_qr_scan", "android": "https://dc.lft.to/lastmile_qr_scan"}, "lon": -76.98559083333333, "type": "electric_bike", "fusion_lat": 0.0, "lat": 38.86890133333333, "name": "77f635df3cbb318078e123df4c1a5158", "fusion_lon": 0.0, "bike_id": "77f635df3cbb318078e123df4c1a5158", "is_disabled": 0, "is_reserved": 0}, {"rental_uris": {"ios": "https://dc.lft.to/lastmile_qr_scan", "android": "https://dc.lft.to/lastmile_qr_scan"}, "lon": -77.01838983333333, "type": "electric_scooter", "fusion_lat": 0.0, "lat": 38.913464166666664, "name": "d0b7b0f65552b48b13711fc069360d6c", "fusion_lon": 0.0, "bike_id": "d0b7b0f65552b48b13711fc069360d6c", "is_disabled": 0, "is_reserved": 0}, {"rental_uris": {"ios": "https://dc.lft.to/lastmile_qr_scan", "android": "https://dc.lft.to/lastmile_qr_scan"}, "lon": -77.0766185, "type": "electric_scooter", "fusion_lat": 0.0, "lat": 38.9062805, "name": "5886bcc6f7d42ac8e115ea6d64e7795c", "fusion_lon": 0.0, "bike_id": "5886bcc6f7d42ac8e115ea6d64e7795c", "is_disabled": 0, "is_reserved": 0}, {"rental_uris": {"ios": "https://dc.lft.to/lastmile_qr_scan", "android": "https://dc.lft.to/lastmile_qr_scan"}, "lon": -77.02197983333333, "type": "electric_scooter", "fusion_lat": 0.0, "lat": 38.91695416666666, "name": "f49af8d3560b9faecc2b30f6fc558110", "fusion_lon": 0.0, "bike_id": "f49af8d3560b9faecc2b30f6fc558110", "is_disabled": 0, "is_reserved": 0}, {"rental_uris": {"ios": "https://dc.lft.to/lastmile_qr_scan", "android": "https://dc.lft.to/lastmile_qr_scan"}, "lon": -77.02697616666667, "type": "electric_scooter", "fusion_lat": 0.0, "lat": 38.90937066666667, "name": "9975a1915a87bb44c12c2d4b37f2a050", "fusion_lon": 0.0, "bike_id": "9975a1915a87bb44c12c2d4b37f2a050", "is_disabled": 0, "is_reserved": 0}, {"rental_uris": {"ios": "https://dc.lft.to/lastmile_qr_scan", "android": "https://dc.lft.to/lastmile_qr_scan"}, "lon": -76.99143033333333, "type": "electric_scooter", "fusion_lat": 0.0, "lat": 38.88592833333333, "name": "2d11f91b92eb2d57db0646f6c8e7d109", "fusion_lon": 0.0, "bike_id": "2d11f91b92eb2d57db0646f6c8e7d109", "is_disabled": 0, "is_reserved": 0}, {"rental_uris": {"ios": "https://dc.lft.to/lastmile_qr_scan", "android": "https://dc.lft.to/lastmile_qr_scan"}, "lon": -77.0422915, "type": "electric_scooter", "fusion_lat": 0.0, "lat": 38.91111216666667, "name": "b8c0d2d6b66cf7c4bba09b469d9f9545", "fusion_lon": 0.0, "bike_id": "b8c0d2d6b66cf7c4bba09b469d9f9545", "is_disabled": 0, "is_reserved": 0}, {"rental_uris": {"ios": "https://dc.lft.to/lastmile_qr_scan", "android": "https://dc.lft.to/lastmile_qr_scan"}, "lon": -77.0513095, "type": "electric_scooter", "fusion_lat": 0.0, "lat": 38.90595, "name": "02eda55947893c997f1923df57ddd347", "fusion_lon": 0.0, "bike_id": "02eda55947893c997f1923df57ddd347", "is_disabled": 0, "is_reserved": 0}, {"rental_uris": {"ios": "https://dc.lft.to/lastmile_qr_scan", "android": "https://dc.lft.to/lastmile_qr_scan"}, "lon": -77.024938, "type": "electric_scooter", "fusion_lat": 0.0, "lat": 38.906416166666666, "name": "7d01023fcb3151704d0e62f0e1368329", "fusion_lon": 0.0, "bike_id": "7d01023fcb3151704d0e62f0e1368329", "is_disabled": 0, "is_reserved": 0}, {"rental_uris": {"ios": "https://dc.lft.to/lastmile_qr_scan", "android": "https://dc.lft.to/lastmile_qr_scan"}, "lon": -77.041565, "type": "electric_scooter", "fusion_lat": 0.0, "lat": 38.9174665, "name": "e6678053717b9743f2426188790c39bd", "fusion_lon": 0.0, "bike_id": "e6678053717b9743f2426188790c39bd", "is_disabled": 0, "is_reserved": 0}, {"rental_uris": {"ios": "https://dc.lft.to/lastmile_qr_scan", "android": "https://dc.lft.to/lastmile_qr_scan"}, "lon": -76.955181, "type": "electric_scooter", "fusion_lat": 0.0, "lat": 38.8905465, "name": "2c27e15b7b3914dd1947e417120b4abd", "fusion_lon": 0.0, "bike_id": "2c27e15b7b3914dd1947e417120b4abd", "is_disabled": 0, "is_reserved": 0}, {"rental_uris": {"ios": "https://dc.lft.to/lastmile_qr_scan", "android": "https://dc.lft.to/lastmile_qr_scan"}, "lon": -77.04266633333333, "type": "electric_scooter", "fusion_lat": 0.0, "lat": 38.93416233333333, "name": "43e21370403db3960cb5170a1f828bd7", "fusion_lon": 0.0, "bike_id": "43e21370403db3960cb5170a1f828bd7", "is_disabled": 0, "is_reserved": 0}, {"rental_uris": {"ios": "https://dc.lft.to/lastmile_qr_scan", "android": "https://dc.lft.to/lastmile_qr_scan"}, "lon": -76.97206183333333, "type": "electric_scooter", "fusion_lat": 0.0, "lat": 38.854949166666664, "name": "983fcf918c65fe38b8872df15b3626b6", "fusion_lon": 0.0, "bike_id": "983fcf918c65fe38b8872df15b3626b6", "is_disabled": 0, "is_reserved": 0}, {"rental_uris": {"ios": "https://dc.lft.to/lastmile_qr_scan", "android": "https://dc.lft.to/lastmile_qr_scan"}, "lon": -77.03269233333333, "type": "electric_scooter", "fusion_lat": 0.0, "lat": 38.92887916666667, "name": "4a391d33d5c58b3db3389e09056ee7d2", "fusion_lon": 0.0, "bike_id": "4a391d33d5c58b3db3389e09056ee7d2", "is_disabled": 0, "is_reserved": 0}, {"rental_uris": {"ios": "https://dc.lft.to/lastmile_qr_scan", "android": "https://dc.lft.to/lastmile_qr_scan"}, "lon": -77.032016, "type": "electric_scooter", "fusion_lat": 0.0, "lat": 38.89369966666667, "name": "5b754763ecc7f77e0686985dc2882cdb", "fusion_lon": 0.0, "bike_id": "5b754763ecc7f77e0686985dc2882cdb", "is_disabled": 0, "is_reserved": 0}, {"rental_uris": {"ios": "https://dc.lft.to/lastmile_qr_scan", "android": "https://dc.lft.to/lastmile_qr_scan"}, "lon": -77.04638316666667, "type": "electric_scooter", "fusion_lat": 0.0, "lat": 38.89226433333333, "name": "c830ee103892cf2ed29b41f88db19d24", "fusion_lon": 0.0, "bike_id": "c830ee103892cf2ed29b41f88db19d24", "is_disabled": 0, "is_reserved": 0}, {"rental_uris": {"ios": "https://dc.lft.to/lastmile_qr_scan", "android": "https://dc.lft.to/lastmile_qr_scan"}, "lon": -76.94627566666666, "type": "electric_bike", "fusion_lat": 0.0, "lat": 38.94628516666667, "name": "d6544d06f047ff60ff27282d796a6877", "fusion_lon": 0.0, "bike_id": "d6544d06f047ff60ff27282d796a6877", "is_disabled": 0, "is_reserved": 0}, {"rental_uris": {"ios": "https://dc.lft.to/lastmile_qr_scan", "android": "https://dc.lft.to/lastmile_qr_scan"}, "lon": -77.03312516666666, "type": "electric_scooter", "fusion_lat": 0.0, "lat": 38.914179, "name": "5487ba59f271af68346762208c66a555", "fusion_lon": 0.0, "bike_id": "5487ba59f271af68346762208c66a555", "is_disabled": 0, "is_reserved": 0}, {"rental_uris": {"ios": "https://dc.lft.to/lastmile_qr_scan", "android": "https://dc.lft.to/lastmile_qr_scan"}, "lon": -76.98177133333333, "type": "electric_scooter", "fusion_lat": 0.0, "lat": 38.900412833333334, "name": "d3a7b191d909888fb43880d5e0b71043", "fusion_lon": 0.0, "bike_id": "d3a7b191d909888fb43880d5e0b71043", "is_disabled": 0, "is_reserved": 0}, {"rental_uris": {"ios": "https://dc.lft.to/lastmile_qr_scan", "android": "https://dc.lft.to/lastmile_qr_scan"}, "lon": -76.9487225, "type": "electric_bike", "fusion_lat": 0.0, "lat": 38.88963116666667, "name": "e0dc800988580c0d95037201d9f22545", "fusion_lon": 0.0, "bike_id": "e0dc800988580c0d95037201d9f22545", "is_disabled": 0, "is_reserved": 0}, {"rental_uris": {"ios": "https://dc.lft.to/lastmile_qr_scan", "android": "https://dc.lft.to/lastmile_qr_scan"}, "lon": -77.05541233333334, "type": "electric_scooter", "fusion_lat": 0.0, "lat": 38.89878566666667, "name": "d39f4283bd5d86ba314215420b61cb8a", "fusion_lon": 0.0, "bike_id": "d39f4283bd5d86ba314215420b61cb8a", "is_disabled": 0, "is_reserved": 0}, {"rental_uris": {"ios": "https://dc.lft.to/lastmile_qr_scan", "android": "https://dc.lft.to/lastmile_qr_scan"}, "lon": -77.05756283333334, "type": "electric_bike", "fusion_lat": 0.0, "lat": 38.924940166666666, "name": "e48d74cabd8b419b10536c78988dda2d", "fusion_lon": 0.0, "bike_id": "e48d74cabd8b419b10536c78988dda2d", "is_disabled": 0, "is_reserved": 0}, {"rental_uris": {"ios": "https://dc.lft.to/lastmile_qr_scan", "android": "https://dc.lft.to/lastmile_qr_scan"}, "lon": -77.107395, "type": "electric_bike", "fusion_lat": 0.0, "lat": 38.855455166666665, "name": "f5991f0fe5a034f6d8f0a48fb1afbd1f", "fusion_lon": 0.0, "bike_id": "f5991f0fe5a034f6d8f0a48fb1afbd1f", "is_disabled": 0, "is_reserved": 0}, {"rental_uris": {"ios": "https://dc.lft.to/lastmile_qr_scan", "android": "https://dc.lft.to/lastmile_qr_scan"}, "lon": -77.02132133333333, "type": "electric_bike", "fusion_lat": 0.0, "lat": 38.948099666666664, "name": "3c74c195ada3049365795b87c37283ec", "fusion_lon": 0.0, "bike_id": "3c74c195ada3049365795b87c37283ec", "is_disabled": 0, "is_reserved": 0}, {"rental_uris": {"ios": "https://dc.lft.to/lastmile_qr_scan", "android": "https://dc.lft.to/lastmile_qr_scan"}, "lon": -77.03788966666667, "type": "electric_scooter", "fusion_lat": 0.0, "lat": 38.92629866666667, "name": "f8ecdc29bf21c282bd9aa0c47b6254d1", "fusion_lon": 0.0, "bike_id": "f8ecdc29bf21c282bd9aa0c47b6254d1", "is_disabled": 0, "is_reserved": 0}, {"rental_uris": {"ios": "https://dc.lft.to/lastmile_qr_scan", "android": "https://dc.lft.to/lastmile_qr_scan"}, "lon": -76.8781685, "type": "electric_bike", "fusion_lat": 0.0, "lat": 38.992322333333334, "name": "f1723beeebd6030e2878061b20499ff4", "fusion_lon": 0.0, "bike_id": "f1723beeebd6030e2878061b20499ff4", "is_disabled": 0, "is_reserved": 0}, {"rental_uris": {"ios": "https://dc.lft.to/lastmile_qr_scan", "android": "https://dc.lft.to/lastmile_qr_scan"}, "lon": -76.97747433333333, "type": "electric_scooter", "fusion_lat": 0.0, "lat": 38.900113166666664, "name": "82b4d3bea8b280d94ea765ab7d795ba5", "fusion_lon": 0.0, "bike_id": "82b4d3bea8b280d94ea765ab7d795ba5", "is_disabled": 0, "is_reserved": 0}, {"rental_uris": {"ios": "https://dc.lft.to/lastmile_qr_scan", "android": "https://dc.lft.to/lastmile_qr_scan"}, "lon": -77.0011495, "type": "electric_scooter", "fusion_lat": 0.0, "lat": 38.917071166666666, "name": "f35dd1967c254fc5921530a6553c9ff9", "fusion_lon": 0.0, "bike_id": "f35dd1967c254fc5921530a6553c9ff9", "is_disabled": 0, "is_reserved": 0}, {"rental_uris": {"ios": "https://dc.lft.to/lastmile_qr_scan", "android": "https://dc.lft.to/lastmile_qr_scan"}, "lon": -76.9096075, "type": "electric_bike", "fusion_lat": 0.0, "lat": 38.854336, "name": "f818a05b716ffe86df5146c168efd4d4", "fusion_lon": 0.0, "bike_id": "f818a05b716ffe86df5146c168efd4d4", "is_disabled": 0, "is_reserved": 0}, {"rental_uris": {"ios": "https://dc.lft.to/lastmile_qr_scan", "android": "https://dc.lft.to/lastmile_qr_scan"}, "lon": -77.04175, "type": "electric_scooter", "fusion_lat": 0.0, "lat": 38.914654166666665, "name": "43d96dbc93271f6d28ed10bed366bf1d", "fusion_lon": 0.0, "bike_id": "43d96dbc93271f6d28ed10bed366bf1d", "is_disabled": 0, "is_reserved": 0}, {"rental_uris": {"ios": "https://dc.lft.to/lastmile_qr_scan", "android": "https://dc.lft.to/lastmile_qr_scan"}, "lon": -76.98576683333333, "type": "electric_scooter", "fusion_lat": 0.0, "lat": 38.9001, "name": "9815b133c0ebc0d8e436aa6a8f50238a", "fusion_lon": 0.0, "bike_id": "9815b133c0ebc0d8e436aa6a8f50238a", "is_disabled": 0, "is_reserved": 0}, {"rental_uris": {"ios": "https://dc.lft.to/lastmile_qr_scan", "android": "https://dc.lft.to/lastmile_qr_scan"}, "lon": -77.02408833333334, "type": "electric_bike", "fusion_lat": 0.0, "lat": 38.9369375, "name": "19176f5d2789994935da27defbeaa8a5", "fusion_lon": 0.0, "bike_id": "19176f5d2789994935da27defbeaa8a5", "is_disabled": 0, "is_reserved": 0}, {"rental_uris": {"ios": "https://dc.lft.to/lastmile_qr_scan", "android": "https://dc.lft.to/lastmile_qr_scan"}, "lon": -77.04187016666667, "type": "electric_scooter", "fusion_lat": 0.0, "lat": 38.9201095, "name": "d609f425c771bcecdccd86ffe48b4f85", "fusion_lon": 0.0, "bike_id": "d609f425c771bcecdccd86ffe48b4f85", "is_disabled": 0, "is_reserved": 0}, {"rental_uris": {"ios": "https://dc.lft.to/lastmile_qr_scan", "android": "https://dc.lft.to/lastmile_qr_scan"}, "lon": -77.02880816666666, "type": "electric_scooter", "fusion_lat": 0.0, "lat": 38.911265, "name": "86e03a67a3a77667179cf08e491afef3", "fusion_lon": 0.0, "bike_id": "86e03a67a3a77667179cf08e491afef3", "is_disabled": 0, "is_reserved": 0}, {"rental_uris": {"ios": "https://dc.lft.to/lastmile_qr_scan", "android": "https://dc.lft.to/lastmile_qr_scan"}, "lon": -77.04374833333334, "type": "electric_scooter", "fusion_lat": 0.0, "lat": 38.89222933333333, "name": "3c1d23d5e332e1b692cec9ef4ebd742a", "fusion_lon": 0.0, "bike_id": "3c1d23d5e332e1b692cec9ef4ebd742a", "is_disabled": 0, "is_reserved": 0}, {"rental_uris": {"ios": "https://dc.lft.to/lastmile_qr_scan", "android": "https://dc.lft.to/lastmile_qr_scan"}, "lon": -77.01870416666667, "type": "electric_scooter", "fusion_lat": 0.0, "lat": 38.88745433333333, "name": "d60463d401b333d989c3586133deb0a5", "fusion_lon": 0.0, "bike_id": "d60463d401b333d989c3586133deb0a5", "is_disabled": 0, "is_reserved": 0}, {"rental_uris": {"ios": "https://dc.lft.to/lastmile_qr_scan", "android": "https://dc.lft.to/lastmile_qr_scan"},