{"data": {"bikes": [{"rental_uris": {"ios": "https://dc.lft.to/lastmile_qr_scan", "android": "https://dc.lft.to/lastmile_qr_scan"}, "type": "electric_scooter", "name": "0e573d35a8bbf6a8e7f923376a434546", "is_reserved": 0, "lon": -77.02410533333334, "is_disabled": 0, "fusion_lat": 0.0, "lat": 38.909576333333334, "bike_id": "0e573d35a8bbf6a8e7f923376a434546", "fusion_lon": 0.0}, {"rental_uris": {"ios": "https://dc.lft.to/lastmile_qr_scan", "android": "https://dc.lft.to/lastmile_qr_scan"}, "type": "electric_scooter", "name": "6627bce3d792db3595b42b5f0ecda6e9", "is_reserved": 0, "lon": -76.9656505, "is_disabled": 0, "fusion_lat": 0.0, "lat": 38.87610733333333, "bike_id": "6627bce3d792db3595b42b5f0ecda6e9", "fusion_lon": 0.0}, {"rental_uris": {"ios": "https://dc.lft.to/lastmile_qr_scan", "android": "https://dc.lft.to/lastmile_qr_scan"}, "type": "electric_scooter", "name": "d03f2d2ef6ab90e4ed34623612750631", "is_reserved": 0, "lon": -77.04407516666667, "is_disabled": 0, "fusion_lat": 0.0, "lat": 38.92952233333333, "bike_id": "d03f2d2ef6ab90e4ed34623612750631", "fusion_lon": 0.0}, {"rental_uris": {"ios": "https://dc.lft.to/lastmile_qr_scan", "android": "https://dc.lft.to/lastmile_qr_scan"}, "type": "electric_scooter", "name": "eed070fcb20808aadfb16e017a904e78", "is_reserved": 0, "lon": -77.0366135, "is_disabled": 0, "fusion_lat": 0.0, "lat": 38.92286, "bike_id": "eed070fcb20808aadfb16e017a904e78", "fusion_lon": 0.0}, {"rental_uris": {"ios": "https://dc.lft.to/lastmile_qr_scan", "android": "https://dc.lft.to/lastmile_qr_scan"}, "type": "electric_scooter", "name": "7c1581a24c030b33dbfc299c9c60cb2f", "is_reserved": 0, "lon": -76.94382216666666, "is_disabled": 0, "fusion_lat": 0.0, "lat": 38.8911955, "bike_id": "7c1581a24c030b33dbfc299c9c60cb2f", "fusion_lon": 0.0}, {"rental_uris": {"ios": "https://dc.lft.to/lastmile_qr_scan", "android": "https://dc.lft.to/lastmile_qr_scan"}, "type": "electric_scooter", "name": "068bd7b754a54d40cc381260d1f4358f", "is_reserved": 0, "lon": -77.01460516666667, "is_disabled": 0, "fusion_lat": 0.0, "lat": 38.9031205, "bike_id": "068bd7b754a54d40cc381260d1f4358f", "fusion_lon": 0.0}, {"rental_uris": {"ios": "https://dc.lft.to/lastmile_qr_scan", "android": "https://dc.lft.to/lastmile_qr_scan"}, "type": "electric_bike", "name": "7188d7e921fd075d236e82bd97bbc560", "is_reserved": 0, "lon": -77.07014433333333, "is_disabled": 0, "fusion_lat": 0.0, "lat": 38.841161166666666, "bike_id": "7188d7e921fd075d236e82bd97bbc560", "fusion_lon": 0.0}, {"rental_uris": {"ios": "https://dc.lft.to/lastmile_qr_scan", "android": "https://dc.lft.to/lastmile_qr_scan"}, "type": "electric_scooter", "name": "63071f27833ae3a6f65fca6b8cb5428b", "is_reserved": 0, "lon": -77.0381245, "is_disabled": 0, "fusion_lat": 0.0, "lat": 38.915547, "bike_id": "63071f27833ae3a6f65fca6b8cb5428b", "fusion_lon": 0.0}, {"rental_uris": {"ios": "https://dc.lft.to/lastmile_qr_scan", "android": "https://dc.lft.to/lastmile_qr_scan"}, "type": "electric_scooter", "name": "08eff0b2d9a83d53c1803da049224c21", "is_reserved": 0, "lon": -77.07072416666666, "is_disabled": 0, "fusion_lat": 0.0, "lat": 38.897457833333334, "bike_id": "08eff0b2d9a83d53c1803da049224c21", "fusion_lon": 0.0}, {"rental_uris": {"ios": "https://dc.lft.to/lastmile_qr_scan", "android": "https://dc.lft.to/lastmile_qr_scan"}, "type": "electric_scooter", "name": "840aff9d3d2c7e0a469424293c23a9da", "is_reserved": 0, "lon": -76.98767383333333, "is_disabled": 0, "fusion_lat": 0.0, "lat": 38.911974, "bike_id": "840aff9d3d2c7e0a469424293c23a9da", "fusion_lon": 0.0}, {"rental_uris": {"ios": "https://dc.lft.to/lastmile_qr_scan", "android": "https://dc.lft.to/lastmile_qr_scan"}, "type": "electric_scooter", "name": "4b2b6425b8646e92d932f7174ddcd1f9", "is_reserved": 0, "lon": -77.03518583333333, "is_disabled": 0, "fusion_lat": 0.0, "lat": 38.922142666666666, "bike_id": "4b2b6425b8646e92d932f7174ddcd1f9", "fusion_lon": 0.0}, {"rental_uris": {"ios": "https://dc.lft.to/lastmile_qr_scan", "android": "https://dc.lft.to/lastmile_qr_scan"}, "type": "electric_scooter", "name": "00c6177b476a381b8aeff9fa0aa792b6", "is_reserved": 0, "lon": -77.011547, "is_disabled": 0, "fusion_lat": 0.0, "lat": 38.914147166666666, "bike_id": "00c6177b476a381b8aeff9fa0aa792b6", "fusion_lon": 0.0}, {"rental_uris": {"ios": "https://dc.lft.to/lastmile_qr_scan", "android": "https://dc.lft.to/lastmile_qr_scan"}, "type": "electric_scooter", "name": "168f548bc59af9f46049aba3bbaacfe0", "is_reserved": 0, "lon": -77.0242715, "is_disabled": 0, "fusion_lat": 0.0, "lat": 38.90310183333333, "bike_id": "168f548bc59af9f46049aba3bbaacfe0", "fusion_lon": 0.0}, {"rental_uris": {"ios": "https://dc.lft.to/lastmile_qr_scan", "android": "https://dc.lft.to/lastmile_qr_scan"}, "type": "electric_bike", "name": "3014209c0a5c02d2470082584cb6cfea", "is_reserved": 0, "lon": -77.09965083333333, "is_disabled": 0, "fusion_lat": 0.0, "lat": 38.8579115, "bike_id": "3014209c0a5c02d2470082584cb6cfea", "fusion_lon": 0.0}, {"rental_uris": {"ios": "https://dc.lft.to/lastmile_qr_scan", "android": "https://dc.lft.to/lastmile_qr_scan"}, "type": "electric_scooter", "name": "2b36bd1310464fa5a59c3e28637a9d74", "is_reserved": 0, "lon": -77.01117083333334, "is_disabled": 0, "fusion_lat": 0.0, "lat": 38.89505366666667, "bike_id": "2b36bd1310464fa5a59c3e28637a9d74", "fusion_lon": 0.0}, {"rental_uris": {"ios": "https://dc.lft.to/lastmile_qr_scan", "android": "https://dc.lft.to/lastmile_qr_scan"}, "type": "electric_scooter", "name": "bbc3c398f9e3747745cc9bcb8f57f7cb", "is_reserved": 0, "lon": -77.02957333333333, "is_disabled": 0, "fusion_lat": 0.0, "lat": 38.905058833333335, "bike_id": "bbc3c398f9e3747745cc9bcb8f57f7cb", "fusion_lon": 0.0}, {"rental_uris": {"ios": "https://dc.lft.to/lastmile_qr_scan", "android": "https://dc.lft.to/lastmile_qr_scan"}, "type": "electric_scooter", "name": "ffe0c2c65fb3a2fe6dad5c2a7519cad9", "is_reserved": 0, "lon": -77.0057335, "is_disabled": 0, "fusion_lat": 0.0, "lat": 38.874596, "bike_id": "ffe0c2c65fb3a2fe6dad5c2a7519cad9", "fusion_lon": 0.0}, {"rental_uris": {"ios": "https://dc.lft.to/lastmile_qr_scan", "android": "https://dc.lft.to/lastmile_qr_scan"}, "type": "electric_scooter", "name": "d75a5d9d6edc96085311a3df2dd0e9ea", "is_reserved": 0, "lon": -77.02301333333334, "is_disabled": 0, "fusion_lat": 0.0, "lat": 38.878872666666666, "bike_id": "d75a5d9d6edc96085311a3df2dd0e9ea", "fusion_lon": 0.0}, {"rental_uris": {"ios": "https://dc.lft.to/lastmile_qr_scan", "android": "https://dc.lft.to/lastmile_qr_scan"}, "type": "electric_scooter", "name": "5e84239f19c134b2ae3c7ffcfae4ed7b", "is_reserved": 0, "lon": -77.03461233333333, "is_disabled": 0, "fusion_lat": 0.0, "lat": 38.9171085, "bike_id": "5e84239f19c134b2ae3c7ffcfae4ed7b", "fusion_lon": 0.0}, {"rental_uris": {"ios": "https://dc.lft.to/lastmile_qr_scan", "android": "https://dc.lft.to/lastmile_qr_scan"}, "type": "electric_scooter", "name": "d150e9859c46227ce1bbbeedb2e59c66", "is_reserved": 0, "lon": -77.00328566666667, "is_disabled": 0, "fusion_lat": 0.0, "lat": 38.897342333333334, "bike_id": "d150e9859c46227ce1bbbeedb2e59c66", "fusion_lon": 0.0}, {"rental_uris": {"ios": "https://dc.lft.to/lastmile_qr_scan", "android": "https://dc.lft.to/lastmile_qr_scan"}, "type": "electric_scooter", "name": "6f9fd1fff0130696ed75488646ff6c9d", "is_reserved": 0, "lon": -77.0338815, "is_disabled": 0, "fusion_lat": 0.0, "lat": 38.9027005, "bike_id": "6f9fd1fff0130696ed75488646ff6c9d", "fusion_lon": 0.0}, {"rental_uris": {"ios": "https://dc.lft.to/lastmile_qr_scan", "android": "https://dc.lft.to/lastmile_qr_scan"}, "type": "electric_scooter", "name": "6347d03923c7a3969978a945dc5c3c51", "is_reserved": 0, "lon": -77.02279383333334, "is_disabled": 0, "fusion_lat": 0.0, "lat": 38.90960166666667, "bike_id": "6347d03923c7a3969978a945dc5c3c51", "fusion_lon": 0.0}, {"rental_uris": {"ios": "https://dc.lft.to/lastmile_qr_scan", "android": "https://dc.lft.to/lastmile_qr_scan"}, "type": "electric_scooter", "name": "cf7972d4296e70ad5e12e72c966bcab8", "is_reserved": 0, "lon": -76.98001416666666, "is_disabled": 0, "fusion_lat": 0.0, "lat": 38.90678233333333, "bike_id": "cf7972d4296e70ad5e12e72c966bcab8", "fusion_lon": 0.0}, {"rental_uris": {"ios": "https://dc.lft.to/lastmile_qr_scan", "android": "https://dc.lft.to/lastmile_qr_scan"}, "type": "electric_scooter", "name": "bd5fe4871a4b5dd4263de339237cc855", "is_reserved": 0, "lon": -77.01571933333334, "is_disabled": 0, "fusion_lat": 0.0, "lat": 38.91678516666666, "bike_id": "bd5fe4871a4b5dd4263de339237cc855", "fusion_lon": 0.0}, {"rental_uris": {"ios": "https://dc.lft.to/lastmile_qr_scan", "android": "https://dc.lft.to/lastmile_qr_scan"}, "type": "electric_scooter", "name": "9ce8b6bb48bfa83a285125aacc23a32d", "is_reserved": 0, "lon": -76.99171983333333, "is_disabled": 0, "fusion_lat": 0.0, "lat": 38.88927266666666, "bike_id": "9ce8b6bb48bfa83a285125aacc23a32d", "fusion_lon": 0.0}, {"rental_uris": {"ios": "https://dc.lft.to/lastmile_qr_scan", "android": "https://dc.lft.to/lastmile_qr_scan"}, "type": "electric_scooter", "name": "3730f0dae74ec6113f1ed806527c12fb", "is_reserved": 0, "lon": -77.03134533333333, "is_disabled": 0, "fusion_lat": 0.0, "lat": 38.918266833333334, "bike_id": "3730f0dae74ec6113f1ed806527c12fb", "fusion_lon": 0.0}, {"rental_uris": {"ios": "https://dc.lft.to/lastmile_qr_scan", "android": "https://dc.lft.to/lastmile_qr_scan"}, "type": "electric_scooter", "name": "97f05044e62eeb83c2230253336be5f2", "is_reserved": 0, "lon": -76.9840465, "is_disabled": 0, "fusion_lat": 0.0, "lat": 38.92520616666667, "bike_id": "97f05044e62eeb83c2230253336be5f2", "fusion_lon": 0.0}, {"rental_uris": {"ios": "https://dc.lft.to/lastmile_qr_scan", "android": "https://dc.lft.to/lastmile_qr_scan"}, "type": "electric_scooter", "name": "5051c561d4a6dee935616c9e50e7026b", "is_reserved": 0, "lon": -77.04740066666666, "is_disabled": 0, "fusion_lat": 0.0, "lat": 38.91268783333334, "bike_id": "5051c561d4a6dee935616c9e50e7026b", "fusion_lon": 0.0}, {"rental_uris": {"ios": "https://dc.lft.to/lastmile_qr_scan", "android": "https://dc.lft.to/lastmile_qr_scan"}, "type": "electric_scooter", "name": "542cb883546760f8f07b11b3e8da47ee", "is_reserved": 0, "lon": -77.03474133333333, "is_disabled": 0, "fusion_lat": 0.0, "lat": 38.930237166666664, "bike_id": "542cb883546760f8f07b11b3e8da47ee", "fusion_lon": 0.0}, {"rental_uris": {"ios": "https://dc.lft.to/lastmile_qr_scan", "android": "https://dc.lft.to/lastmile_qr_scan"}, "type": "electric_bike", "name": "3f0401e994b181f39179b41e768ef520", "is_reserved": 0, "lon": -76.88973733333333, "is_disabled": 0, "fusion_lat": 0.0, "lat": 39.007749, "bike_id": "3f0401e994b181f39179b41e768ef520", "fusion_lon": 0.0}, {"rental_uris": {"ios": "https://dc.lft.to/lastmile_qr_scan", "android": "https://dc.lft.to/lastmile_qr_scan"}, "type": "electric_scooter", "name": "9b23f0b41dcc0d630d130b2b17fd6573", "is_reserved": 0, "lon": -77.0195385, "is_disabled": 0, "fusion_lat": 0.0, "lat": 38.87653566666667, "bike_id": "9b23f0b41dcc0d630d130b2b17fd6573", "fusion_lon": 0.0}, {"rental_uris": {"ios": "https://dc.lft.to/lastmile_qr_scan", "android": "https://dc.lft.to/lastmile_qr_scan"}, "type": "electric_bike", "name": "dedad43c1d9945dc7e6169d8054435bf", "is_reserved": 0, "lon": -76.98347433333333, "is_disabled": 0, "fusion_lat": 0.0, "lat": 38.8626325, "bike_id": "dedad43c1d9945dc7e6169d8054435bf", "fusion_lon": 0.0}, {"rental_uris": {"ios": "https://dc.lft.to/lastmile_qr_scan", "android": "https://dc.lft.to/lastmile_qr_scan"}, "type": "electric_scooter", "name": "d8c199125b20464c70f4ef49b5d4d5ff", "is_reserved": 0, "lon": -76.98608, "is_disabled": 0, "fusion_lat": 0.0, "lat": 38.87839016666667, "bike_id": "d8c199125b20464c70f4ef49b5d4d5ff", "fusion_lon": 0.0}, {"rental_uris": {"ios": "https://dc.lft.to/lastmile_qr_scan", "android": "https://dc.lft.to/lastmile_qr_scan"}, "type": "electric_scooter", "name": "c6b0ba5fa35f868059ed4b77b7a228a0", "is_reserved": 0, "lon": -77.03460366666667, "is_disabled": 0, "fusion_lat": 0.0, "lat": 38.907347, "bike_id": "c6b0ba5fa35f868059ed4b77b7a228a0", "fusion_lon": 0.0}, {"rental_uris": {"ios": "https://dc.lft.to/lastmile_qr_scan", "android": "https://dc.lft.to/lastmile_qr_scan"}, "type": "electric_scooter", "name": "50686a348a4cd4540f29e675ffd089c2", "is_reserved": 0, "lon": -77.008784, "is_disabled": 0, "fusion_lat": 0.0, "lat": 38.91254166666667, "bike_id": "50686a348a4cd4540f29e675ffd089c2", "fusion_lon": 0.0}, {"rental_uris": {"ios": "https://dc.lft.to/lastmile_qr_scan", "android": "https://dc.lft.to/lastmile_qr_scan"}, "type": "electric_scooter", "name": "71c4f26ffb60b01e2dcd958a6735f0c8", "is_reserved": 0, "lon": -77.024639, "is_disabled": 0, "fusion_lat": 0.0, "lat": 38.925037833333334, "bike_id": "71c4f26ffb60b01e2dcd958a6735f0c8", "fusion_lon": 0.0}, {"rental_uris": {"ios": "https://dc.lft.to/lastmile_qr_scan", "android": "https://dc.lft.to/lastmile_qr_scan"}, "type": "electric_scooter", "name": "17a3668330c9cab8484e8b935739a7ed", "is_reserved": 0, "lon": -76.99411683333334, "is_disabled": 0, "fusion_lat": 0.0, "lat": 38.87787866666667, "bike_id": "17a3668330c9cab8484e8b935739a7ed", "fusion_lon": 0.0}, {"rental_uris": {"ios": "https://dc.lft.to/lastmile_qr_scan", "android": "https://dc.lft.to/lastmile_qr_scan"}, "type": "electric_scooter", "name": "bc4d8485c491610c6095125d46f690db", "is_reserved": 0, "lon": -77.0205595, "is_disabled": 0, "fusion_lat": 0.0, "lat": 38.922473, "bike_id": "bc4d8485c491610c6095125d46f690db", "fusion_lon": 0.0}, {"rental_uris": {"ios": "https://dc.lft.to/lastmile_qr_scan", "android": "https://dc.lft.to/lastmile_qr_scan"}, "type": "electric_scooter", "name": "85b2e85b7b76f0d7e36c1c1208ffb489", "is_reserved": 0, "lon": -77.0395295, "is_disabled": 0, "fusion_lat": 0.0, "lat": 38.892479333333334, "bike_id": "85b2e85b7b76f0d7e36c1c1208ffb489", "fusion_lon": 0.0}, {"rental_uris": {"ios": "https://dc.lft.to/lastmile_qr_scan", "android": "https://dc.lft.to/lastmile_qr_scan"}, "type": "electric_scooter", "name": "792589f4faf0927cb8342eeb4830f453", "is_reserved": 0, "lon": -77.00935433333333, "is_disabled": 0, "fusion_lat": 0.0, "lat": 38.876702, "bike_id": "792589f4faf0927cb8342eeb4830f453", "fusion_lon": 0.0}, {"rental_uris": {"ios": "https://dc.lft.to/lastmile_qr_scan", "android": "https://dc.lft.to/lastmile_qr_scan"}, "type": "electric_scooter", "name": "1991fa5b68eac023d057886bf2716741", "is_reserved": 0, "lon": -77.05806483333333, "is_disabled": 0, "fusion_lat": 0.0, "lat": 38.9059475, "bike_id": "1991fa5b68eac023d057886bf2716741", "fusion_lon": 0.0}, {"rental_uris": {"ios": "https://dc.lft.to/lastmile_qr_scan", "android": "https://dc.lft.to/lastmile_qr_scan"}, "type": "electric_scooter", "name": "163ca1668072a5a073b62ff331ea9094", "is_reserved": 0, "lon": -77.0431375, "is_disabled": 0, "fusion_lat": 0.0, "lat": 38.89706416666667, "bike_id": "163ca1668072a5a073b62ff331ea9094", "fusion_lon": 0.0}, {"rental_uris": {"ios": "https://dc.lft.to/lastmile_qr_scan", "android": "https://dc.lft.to/lastmile_qr_scan"}, "type": "electric_scooter", "name": "b401c4c9df317e4abb4bd8276383c2cb", "is_reserved": 0, "lon": -77.03472016666667, "is_disabled": 0, "fusion_lat": 0.0, "lat": 38.9088235, "bike_id": "b401c4c9df317e4abb4bd8276383c2cb", "fusion_lon": 0.0}, {"rental_uris": {"ios": "https://dc.lft.to/lastmile_qr_scan", "android": "https://dc.lft.to/lastmile_qr_scan"}, "type": "electric_scooter", "name": "f5ea81f1181173558acf8fc1a7ce30d2", "is_reserved": 0, "lon": -77.0239445, "is_disabled": 0, "fusion_lat": 0.0, "lat": 38.921881, "bike_id": "f5ea81f1181173558acf8fc1a7ce30d2", "fusion_lon": 0.0}, {"rental_uris": {"ios": "https://dc.lft.to/lastmile_qr_scan", "android": "https://dc.lft.to/lastmile_qr_scan"}, "type": "electric_scooter", "name": "cdc463f2f0482cf11092ce97b8094096", "is_reserved": 0, "lon": -77.03186166666667, "is_disabled": 0, "fusion_lat": 0.0, "lat": 38.91348816666667, "bike_id": "cdc463f2f0482cf11092ce97b8094096", "fusion_lon": 0.0}, {"rental_uris": {"ios": "https://dc.lft.to/lastmile_qr_scan", "android": "https://dc.lft.to/lastmile_qr_scan"}, "type": "electric_scooter", "name": "59cd6d425e1e668dd5cba8d5a1e1844d", "is_reserved": 0, "lon": -77.04801866666666, "is_disabled": 0, "fusion_lat": 0.0, "lat": 38.909769, "bike_id": "59cd6d425e1e668dd5cba8d5a1e1844d", "fusion_lon": 0.0}, {"rental_uris": {"ios": "https://dc.lft.to/lastmile_qr_scan", "android": "https://dc.lft.to/lastmile_qr_scan"}, "type": "electric_scooter", "name": "e3478689d6a976e120b0ea54d78c56a8", "is_reserved": 0, "lon": -77.04015283333334, "is_disabled": 0, "fusion_lat": 0.0, "lat": 38.925778666666666, "bike_id": "e3478689d6a976e120b0ea54d78c56a8", "fusion_lon": 0.0}, {"rental_uris": {"ios": "https://dc.lft.to/lastmile_qr_scan", "android": "https://dc.lft.to/lastmile_qr_scan"}, "type": "electric_scooter", "name": "632bb118e5bf5b6ffb675d678e7a2540", "is_reserved": 0, "lon": -76.985642, "is_disabled": 0, "fusion_lat": 0.0, "lat": 38.86000033333333, "bike_id": "632bb118e5bf5b6ffb675d678e7a2540", "fusion_lon": 0.0}, {"rental_uris": {"ios": "https://dc.lft.to/lastmile_qr_scan", "android": "https://dc.lft.to/lastmile_qr_scan"}, "type": "electric_bike", "name": "28c93001bc67f12775ad387bbee38215", "is_reserved": 0, "lon": -76.96892933333334, "is_disabled": 0, "fusion_lat": 0.0, "lat": 38.869793666666666, "bike_id": "28c93001bc67f12775ad387bbee38215", "fusion_lon": 0.0}, {"rental_uris": {"ios": "https://dc.lft.to/lastmile_qr_scan", "android": "https://dc.lft.to/lastmile_qr_scan"}, "type": "electric_scooter", "name": "5a5b8729ab2492c968adb44b1618eb3b", "is_reserved": 0, "lon": -77.03660333333333, "is_disabled": 0, "fusion_lat": 0.0, "lat": 38.913855833333336, "bike_id": "5a5b8729ab2492c968adb44b1618eb3b", "fusion_lon": 0.0}, {"rental_uris": {"ios": "https://dc.lft.to/lastmile_qr_scan", "android": "https://dc.lft.to/lastmile_qr_scan"}, "type": "electric_bike", "name": "401f3067bdfab87c428763dc3c82fdab", "is_reserved": 0, "lon": -77.05915083333333, "is_disabled": 0, "fusion_lat": 0.0, "lat": 38.90533466666667, "bike_id": "401f3067bdfab87c428763dc3c82fdab", "fusion_lon": 0.0}, {"rental_uris": {"ios": "https://dc.lft.to/lastmile_qr_scan", "android": "https://dc.lft.to/lastmile_qr_scan"}, "type": "electric_scooter", "name": "244a2729e6ad8c767807f89c6ae17bb1", "is_reserved": 0, "lon": -77.03189166666667, "is_disabled": 0, "fusion_lat": 0.0, "lat": 38.887063833333336, "bike_id": "244a2729e6ad8c767807f89c6ae17bb1", "fusion_lon": 0.0}, {"rental_uris": {"ios": "https://dc.lft.to/lastmile_qr_scan", "android": "https://dc.lft.to/lastmile_qr_scan"}, "type": "electric_scooter", "name": "d67ac13eb745b0dea95399039600d0b4", "is_reserved": 0, "lon": -77.03282683333333, "is_disabled": 0, "fusion_lat": 0.0, "lat": 38.938835166666664, "bike_id": "d67ac13eb745b0dea95399039600d0b4", "fusion_lon": 0.0}, {"rental_uris": {"ios": "https://dc.lft.to/lastmile_qr_scan", "android": "https://dc.lft.to/lastmile_qr_scan"}, "type": "electric_scooter", "name": "dc038fbf0a270da3314f969664cf5ab7", "is_reserved": 0, "lon": -77.02586216666667, "is_disabled": 0, "fusion_lat": 0.0, "lat": 38.92037366666667, "bike_id": "dc038fbf0a270da3314f969664cf5ab7", "fusion_lon": 0.0}, {"rental_uris": {"ios": "https://dc.lft.to/lastmile_qr_scan", "android": "https://dc.lft.to/lastmile_qr_scan"}, "type": "electric_scooter", "name": "c6f7b390769eaa998ce6ba7078eeabab", "is_reserved": 0, "lon": -77.052281, "is_disabled": 0, "fusion_lat": 0.0, "lat": 38.898504333333335, "bike_id": "c6f7b390769eaa998ce6ba7078eeabab", "fusion_lon": 0.0}, {"rental_uris": {"ios": "https://dc.lft.to/lastmile_qr_scan", "android": "https://dc.lft.to/lastmile_qr_scan"}, "type": "electric_scooter", "name": "b51a7ea1c50e22d7388cd43ba2cf9132", "is_reserved": 0, "lon": -77.00151266666667, "is_disabled": 0, "fusion_lat": 0.0, "lat": 38.87375516666667, "bike_id": "b51a7ea1c50e22d7388cd43ba2cf9132", "fusion_lon": 0.0}, {"rental_uris": {"ios": "https://dc.lft.to/lastmile_qr_scan", "android": "https://dc.lft.to/lastmile_qr_scan"}, "type": "electric_bike", "name": "482afd4f7fa3225908c41f359c5c9a2b", "is_reserved": 0, "lon": -77.07524616666667, "is_disabled": 0, "fusion_lat": 0.0, "lat": 38.842871333333335, "bike_id": "482afd4f7fa3225908c41f359c5c9a2b", "fusion_lon": 0.0}, {"rental_uris": {"ios": "https://dc.lft.to/lastmile_qr_scan", "android": "https://dc.lft.to/lastmile_qr_scan"}, "type": "electric_scooter", "name": "5b3543c46166a810d0f41c3245e135dd", "is_reserved": 0, "lon": -77.04595783333333, "is_disabled": 0, "fusion_lat": 0.0, "lat": 38.91864833333333, "bike_id": "5b3543c46166a810d0f41c3245e135dd", "fusion_lon": 0.0}, {"rental_uris": {"ios": "https://dc.lft.to/lastmile_qr_scan", "android": "https://dc.lft.to/lastmile_qr_scan"}, "type": "electric_bike", "name": "842ced4b378037598dd6b20be93c3d15", "is_reserved": 0, "lon": -77.02362366666667, "is_disabled": 0, "fusion_lat": 0.0, "lat": 38.935863833333336, "bike_id": "842ced4b378037598dd6b20be93c3d15", "fusion_lon": 0.0}, {"rental_uris": {"ios": "https://dc.lft.to/lastmile_qr_scan", "android": "https://dc.lft.to/lastmile_qr_scan"}, "type": "electric_scooter", "name": "50924d49355a6a7d784b3b45c3caa92f", "is_reserved": 0, "lon": -77.017597, "is_disabled": 0, "fusion_lat": 0.0, "lat": 38.90266, "bike_id": "50924d49355a6a7d784b3b45c3caa92f", "fusion_lon": 0.0}, {"rental_uris": {"ios": "https://dc.lft.to/lastmile_qr_scan", "android": "https://dc.lft.to/lastmile_qr_scan"}, "type": "electric_scooter", "name": "ac56f4b77304c8afab22eb3373c3c4db", "is_reserved": 0, "lon": -77.03204283333334, "is_disabled": 0, "fusion_lat": 0.0, "lat": 38.899066166666664, "bike_id": "ac56f4b77304c8afab22eb3373c3c4db", "fusion_lon": 0.0}, {"rental_uris": {"ios": "https://dc.lft.to/lastmile_qr_scan", "android": "https://dc.lft.to/lastmile_qr_scan"}, "type": "electric_scooter", "name": "f298835888e5c6e304d22cbe1923d126", "is_reserved": 0, "lon": -77.03699766666666, "is_disabled": 0, "fusion_lat": 0.0, "lat": 38.9327965, "bike_id": "f298835888e5c6e304d22cbe1923d126", "fusion_lon": 0.0}, {"rental_uris": {"ios": "https://dc.lft.to/lastmile_qr_scan", "android": "https://dc.lft.to/lastmile_qr_scan"}, "type": "electric_scooter", "name": "65d272e8f0c5f1ef3f5f0d9ef050f79b", "is_reserved": 0, "lon": -77.0252045, "is_disabled": 0, "fusion_lat": 0.0, "lat": 38.94009416666667, "bike_id": "65d272e8f0c5f1ef3f5f0d9ef050f79b", "fusion_lon": 0.0}, {"rental_uris": {"ios": "https://dc.lft.to/lastmile_qr_scan", "android": "https://dc.lft.to/lastmile_qr_scan"}, "type": "electric_scooter", "name": "149467ad4c465d20df6c60c59b92830f", "is_reserved": 0, "lon": -77.00343716666667, "is_disabled": 0, "fusion_lat": 0.0, "lat": 38.899129, "bike_id": "149467ad4c465d20df6c60c59b92830f", "fusion_lon": 0.0}, {"rental_uris": {"ios": "https://dc.lft.to/lastmile_qr_scan", "android": "https://dc.lft.to/lastmile_qr_scan"}, "type": "electric_scooter", "name": "ab71c7e130257d11ac809b1caaf118ad", "is_reserved": 0, "lon": -77.03133566666666, "is_disabled": 0, "fusion_lat": 0.0, "lat": 38.923745333333336, "bike_id": "ab71c7e130257d11ac809b1caaf118ad", "fusion_lon": 0.0}, {"rental_uris": {"ios": "https://dc.lft.to/lastmile_qr_scan", "android": "https://dc.lft.to/lastmile_qr_scan"}, "type": "electric_scooter", "name": "46277292f6e4c8c19d5a4cf147054e1e", "is_reserved": 0, "lon": -77.04449333333334, "is_disabled": 0, "fusion_lat": 0.0, "lat": 38.90125166666667, "bike_id": "46277292f6e4c8c19d5a4cf147054e1e", "fusion_lon": 0.0}, {"rental_uris": {"ios": "https://dc.lft.to/lastmile_qr_scan", "android": "https://dc.lft.to/lastmile_qr_scan"}, "type": "electric_scooter", "name": "c729ac9ee7d3849694e4432d47d25527", "is_reserved": 0, "lon": -77.01300533333334, "is_disabled": 0, "fusion_lat": 0.0, "lat": 38.900561333333336, "bike_id": "c729ac9ee7d3849694e4432d47d25527", "fusion_lon": 0.0}, {"rental_uris": {"ios": "https://dc.lft.to/lastmile_qr_scan", "android": "https://dc.lft.to/lastmile_qr_scan"}, "type": "electric_scooter", "name": "84b6fe2eb03648b33ed10c3eda5f3565", "is_reserved": 0, "lon": -77.0191275, "is_disabled": 0, "fusion_lat": 0.0, "lat": 38.902469833333335, "bike_id": "84b6fe2eb03648b33ed10c3eda5f3565", "fusion_lon": 0.0}, {"rental_uris": {"ios": "https://dc.lft.to/lastmile_qr_scan", "android": "https://dc.lft.to/lastmile_qr_scan"}, "type": "electric_scooter", "name": "f8540de5f15c3cc164db78443eb7d7bc", "is_reserved": 0, "lon": -77.041398, "is_disabled": 0, "fusion_lat": 0.0, "lat": 38.92297816666667, "bike_id": "f8540de5f15c3cc164db78443eb7d7bc", "fusion_lon": 0.0}, {"rental_uris": {"ios": "https://dc.lft.to/lastmile_qr_scan", "android": "https://dc.lft.to/lastmile_qr_scan"}, "type": "electric_scooter", "name": "8c8f76113518491496c9150c4db05abc", "is_reserved": 0, "lon": -77.037763, "is_disabled": 0, "fusion_lat": 0.0, "lat": 38.93964033333334, "bike_id": "8c8f76113518491496c9150c4db05abc", "fusion_lon": 0.0}, {"rental_uris": {"ios": "https://dc.lft.to/lastmile_qr_scan", "android": "https://dc.lft.to/lastmile_qr_scan"}, "type": "electric_scooter", "name": "57d50905b77423c718e0aee6ec76c27f", "is_reserved": 0, "lon": -77.02702433333333, "is_disabled": 0, "fusion_lat": 0.0, "lat": 38.89734383333333, "bike_id": "57d50905b77423c718e0aee6ec76c27f", "fusion_lon": 0.0}, {"rental_uris": {"ios": "https://dc.lft.to/lastmile_qr_scan", "android": "https://dc.lft.to/lastmile_qr_scan"}, "type": "electric_scooter", "name": "dcfae5c0572cec19a29e5e5bc6c80312", "is_reserved": 0, "lon": -77.02199233333333, "is_disabled": 0, "fusion_lat": 0.0, "lat": 38.88717, "bike_id": "dcfae5c0572cec19a29e5e5bc6c80312", "fusion_lon": 0.0}, {"rental_uris": {"ios": "https://dc.lft.to/lastmile_qr_scan", "android": "https://dc.lft.to/lastmile_qr_scan"}, "type": "electric_bike", "name": "fcb5a3b8ca96d9620cb82d08517ecc49", "is_reserved": 0, "lon": -76.98464066666666, "is_disabled": 0, "fusion_lat": 0.0, "lat": 38.909760166666665, "bike_id": "fcb5a3b8ca96d9620cb82d08517ecc49", "fusion_lon": 0.0}, {"rental_uris": {"ios": "https://dc.lft.to/lastmile_qr_scan", "android": "https://dc.lft.to/lastmile_qr_scan"}, "type": "electric_scooter", "name": "f37f6df027a032c3c5d98f4234ec1a69", "is_reserved": 0, "lon": -77.0469415, "is_disabled": 0, "fusion_lat": 0.0, "lat": 38.9216165, "bike_id": "f37f6df027a032c3c5d98f4234ec1a69", "fusion_lon": 0.0}, {"rental_uris": {"ios": "https://dc.lft.to/lastmile_qr_scan", "android": "https://dc.lft.to/lastmile_qr_scan"}, "type": "electric_scooter", "name": "c38ce431f1f362cbf54e1f36587e02ec", "is_reserved": 0, "lon": -77.026021, "is_disabled": 0, "fusion_lat": 0.0, "lat": 38.9288845, "bike_id": "c38ce431f1f362cbf54e1f36587e02ec", "fusion_lon": 0.0}, {"rental_uris": {"ios": "https://dc.lft.to/lastmile_qr_scan", "android": "https://dc.lft.to/lastmile_qr_scan"}, "type": "electric_bike", "name": "88a659d4c3b898a39fd5aa8d770ee61f", "is_reserved": 0, "lon": -76.95760766666666, "is_disabled": 0, "fusion_lat": 0.0, "lat": 38.884902, "bike_id": "88a659d4c3b898a39fd5aa8d770ee61f", "fusion_lon": 0.0}, {"rental_uris": {"ios": "https://dc.lft.to/lastmile_qr_scan", "android": "https://dc.lft.to/lastmile_qr_scan"}, "type": "electric_scooter", "name": "672eb0a8501f7b987ac8309406253d88", "is_reserved": 0, "lon": -77.0247605, "is_disabled": 0, "fusion_lat": 0.0, "lat": 38.918175, "bike_id": "672eb0a8501f7b987ac8309406253d88", "fusion_lon": 0.0}, {"rental_uris": {"ios": "https://dc.lft.to/lastmile_qr_scan", "android": "https://dc.lft.to/lastmile_qr_scan"}, "type": "electric_scooter", "name": "59ceebf3f94bd71267929fe25dbabe24", "is_reserved": 0, "lon": -77.02976833333334, "is_disabled": 0, "fusion_lat": 0.0, "lat": 38.904702666666665, "bike_id": "59ceebf3f94bd71267929fe25dbabe24", "fusion_lon": 0.0}, {"rental_uris": {"ios": "https://dc.lft.to/lastmile_qr_scan", "android": "https://dc.lft.to/lastmile_qr_scan"}, "type": "electric_scooter", "name": "04fcbc6528f87a227d3309b2b1d0ee06", "is_reserved": 0, "lon": -77.04424916666666, "is_disabled": 0, "fusion_lat": 0.0, "lat": 38.90134916666667, "bike_id": "04fcbc6528f87a227d3309b2b1d0ee06", "fusion_lon": 0.0}, {"rental_uris": {"ios": "https://dc.lft.to/lastmile_qr_scan", "android": "https://dc.lft.to/lastmile_qr_scan"}, "type": "electric_scooter", "name": "8b98e81c9e75c8937f315451981ab970", "is_reserved": 0, "lon": -76.98218933333334, "is_disabled": 0, "fusion_lat": 0.0, "lat": 38.886605833333334, "bike_id": "8b98e81c9e75c8937f315451981ab970", "fusion_lon": 0.0}, {"rental_uris": {"ios": "https://dc.lft.to/lastmile_qr_scan", "android": "https://dc.lft.to/lastmile_qr_scan"}, "type": "electric_scooter", "name": "97dbf1d4e43a23e8159b17d24f0c5464", "is_reserved": 0, "lon": -77.01764916666667, "is_disabled": 0, "fusion_lat": 0.0, "lat": 38.921101666666665, "bike_id": "97dbf1d4e43a23e8159b17d24f0c5464", "fusion_lon": 0.0}, {"rental_uris": {"ios": "https://dc.lft.to/lastmile_qr_scan", "android": "https://dc.lft.to/lastmile_qr_scan"}, "type": "electric_scooter", "name": "9734b5653df01da759ea211ef07a7887", "is_reserved": 0, "lon": -77.067493, "is_disabled": 0, "fusion_lat": 0.0, "lat": 38.905164666666664, "bike_id": "9734b5653df01da759ea211ef07a7887", "fusion_lon": 0.0}, {"rental_uris": {"ios": "https://dc.lft.to/lastmile_qr_scan", "android": "https://dc.lft.to/lastmile_qr_scan"}, "type": "electric_scooter", "name": "aa0b4ea3741a12fd7675b5435bfb74d8", "is_reserved": 0, "lon": -77.01361483333334, "is_disabled": 0, "fusion_lat": 0.0, "lat": 38.91926316666667, "bike_id": "aa0b4ea3741a12fd7675b5435bfb74d8", "fusion_lon": 0.0}, {"rental_uris": {"ios": "https://dc.lft.to/lastmile_qr_scan", "android": "https://dc.lft.to/lastmile_qr_scan"}, "type": "electric_scooter", "name": "4b93ffc71cd8f24d5af636101fdca4c2", "is_reserved": 0, "lon": -77.0318955, "is_disabled": 0, "fusion_lat": 0.0, "lat": 38.9202275, "bike_id": "4b93ffc71cd8f24d5af636101fdca4c2", "fusion_lon": 0.0}, {"rental_uris": {"ios": "https://dc.lft.to/lastmile_qr_scan", "android": "https://dc.lft.to/lastmile_qr_scan"}, "type": "electric_scooter", "name": "8603be41f20c6adc1e526554ea11e34e", "is_reserved": 0, "lon": -77.04515, "is_disabled": 0, "fusion_lat": 0.0, "lat": 38.91815666666667, "bike_id": "8603be41f20c6adc1e526554ea11e34e", "fusion_lon": 0.0}, {"rental_uris": {"ios": "https://dc.lft.to/lastmile_qr_scan", "android": "https://dc.lft.to/lastmile_qr_scan"}, "type": "electric_scooter", "name": "0a5c1bced7613c0d736ece893791962c", "is_reserved": 0, "lon": -77.02606266666666, "is_disabled": 0, "fusion_lat": 0.0, "lat": 38.893109333333335, "bike_id": "0a5c1bced7613c0d736ece893791962c", "fusion_lon": 0.0}, {"rental_uris": {"ios": "https://dc.lft.to/lastmile_qr_scan", "android": "https://dc.lft.to/lastmile_qr_scan"}, "type": "electric_scooter", "name": "993afddc36e54aa3892ceffd611344bf", "is_reserved": 0, "lon": -76.994225, "is_disabled": 0, "fusion_lat": 0.0, "lat": 38.91684683333333, "bike_id": "993afddc36e54aa3892ceffd611344bf", "fusion_lon": 0.0}, {"rental_uris": {"ios": "https://dc.lft.to/lastmile_qr_scan", "android": "https://dc.lft.to/lastmile_qr_scan"}, "type": "electric_scooter", "name": "ac4945337511e1ae073bb244d18cdc2b", "is_reserved": 0, "lon": -77.03795966666667, "is_disabled": 0, "fusion_lat": 0.0, "lat": 38.915415333333335, "bike_id": "ac4945337511e1ae073bb244d18cdc2b", "fusion_lon": 0.0}, {"rental_uris": {"ios": "https://dc.lft.to/lastmile_qr_scan", "android": "https://dc.lft.to/lastmile_qr_scan"}, "type": "electric_scooter", "name": "bbc8abcd7eb59221272a98a5bdb9f066", "is_reserved": 0, "lon": -77.03229283333333, "is_disabled": 0, "fusion_lat": 0.0, "lat": 38.90962866666667, "bike_id": "bbc8abcd7eb59221272a98a5bdb9f066", "fusion_lon": 0.0}, {"rental_uris": {"ios": "https://dc.lft.to/lastmile_qr_scan", "android": "https://dc.lft.to/lastmile_qr_scan"}, "type": "electric_scooter", "name": "3a781e1b8007b527ce7970fe65dae6eb", "is_reserved": 0, "lon": -77.02426033333333, "is_disabled": 0, "fusion_lat": 0.0, "lat": 38.90316966666666, "bike_id": "3a781e1b8007b527ce7970fe65dae6eb", "fusion_lon": 0.0}, {"rental_uris": {"ios": "https://dc.lft.to/lastmile_qr_scan", "android": "https://dc.lft.to/lastmile_qr_scan"}, "type": "electric_scooter", "name": "daf9021483100ce21b3abd66dd311eb5", "is_reserved": 0, "lon": -77.04732016666667, "is_disabled": 0, "fusion_lat": 0.0, "lat": 38.89557333333333, "bike_id": "daf9021483100ce21b3abd66dd311eb5", "fusion_lon": 0.0}, {"rental_uris": {"ios": "https://dc.lft.to/lastmile_qr_scan", "android": "https://dc.lft.to/lastmile_qr_scan"}, "type": "electric_scooter", "name": "36a67caf550f3fdea51735c3db6cf070", "is_reserved": 0, "lon": -77.02093366666666, "is_disabled": 0, "fusion_lat": 0.0, "lat": 38.92913866666667, "bike_id": "36a67caf550f3fdea51735c3db6cf070", "fusion_lon": 0.0}, {"rental_uris": {"ios": "https://dc.lft.to/lastmile_qr_scan", "android": "https://dc.lft.to/lastmile_qr_scan"}, "type": "electric_scooter", "name": "b05a7c6cfad723df6acb9d0a7d0b6b35", "is_reserved": 0, "lon": -77.03250933333334, "is_disabled": 0, "fusion_lat": 0.0, "lat": 38.91709733333333, "bike_id": "b05a7c6cfad723df6acb9d0a7d0b6b35", "fusion_lon": 0.0}, {"rental_uris": {"ios": "https://dc.lft.to/lastmile_qr_scan", "android": "https://dc.lft.to/lastmile_qr_scan"}, "type": "electric_scooter", "name": "4c73e2e5576179ec10bc95d7d3a6a420", "is_reserved": 0, "lon": -76.99753733333333, "is_disabled": 0, "fusion_lat": 0.0, "lat": 38.90049966666667, "bike_id": "4c73e2e5576179ec10bc95d7d3a6a420", "fusion_lon": 0.0}, {"rental_uris": {"ios": "https://dc.lft.to/lastmile_qr_scan", "android": "https://dc.lft.to/lastmile_qr_scan"}, "type": "electric_scooter", "name": "d28ee4591c9fe8e37518b466b4481dcb", "is_reserved": 0, "lon": -77.087779, "is_disabled": 0, "fusion_lat": 0.0, "lat": 38.9355995, "bike_id": "d28ee4591c9fe8e37518b466b4481dcb", "fusion_lon": 0.0}, {"rental_uris": {"ios": "https://dc.lft.to/lastmile_qr_scan", "android": "https://dc.lft.to/lastmile_qr_scan"}, "type": "electric_scooter", "name": "086f466dfa59d224dc0962eabec0f1d2", "is_reserved": 0, "lon": -77.06321316666667, "is_disabled": 0, "fusion_lat": 0.0, "lat": 38.91337466666667, "bike_id": "086f466dfa59d224dc0962eabec0f1d2", "fusion_lon": 0.0}, {"rental_uris": {"ios": "https://dc.lft.to/lastmile_qr_scan", "android": "https://dc.lft.to/lastmile_qr_scan"}, "type": "electric_scooter", "name": "e91b295345c4d4a9d221f12a86d487b8", "is_reserved": 0, "lon": -77.01811016666667, "is_disabled": 0, "fusion_lat": 0.0, "lat": 38.90083283333333, "bike_id": "e91b295345c4d4a9d221f12a86d487b8", "fusion_lon": 0.0}, {"rental_uris": {"ios": "https://dc.lft.to/lastmile_qr_scan", "android": "https://dc.lft.to/lastmile_qr_scan"}, "type": "electric_bike", "name": "2b6fd8b80c2213f3ec50c975cd6ffd77", "is_reserved": 0, "lon": -77.1117545, "is_disabled": 0, "fusion_lat": 0.0, "lat": 38.827852, "bike_id": "2b6fd8b80c2213f3ec50c975cd6ffd77", "fusion_lon": 0.0}, {"rental_uris": {"ios": "https://dc.lft.to/lastmile_qr_scan", "android": "https://dc.lft.to/lastmile_qr_scan"}, "type": "electric_scooter", "name": "283efd2733fc6e2d066ebd4434d40053", "is_reserved": 0, "lon": -77.02977183333333, "is_disabled": 0, "fusion_lat": 0.0, "lat": 38.90471616666667, "bike_id": "283efd2733fc6e2d066ebd4434d40053", "fusion_lon": 0.0}, {"rental_uris": {"ios": "https://dc.lft.to/lastmile_qr_scan", "android": "https://dc.lft.to/lastmile_qr_scan"}, "type": "electric_scooter", "name": "1a35ee490224a50f974f1099c877fb87", "is_reserved": 0, "lon": -77.00685133333333, "is_disabled": 0, "fusion_lat": 0.0, "lat": 38.9060615, "bike_id": "1a35ee490224a50f974f1099c877fb87", "fusion_lon": 0.0}, {"rental_uris": {"ios": "https://dc.lft.to/lastmile_qr_scan", "android": "https://dc.lft.to/lastmile_qr_scan"}, "type": "electric_scooter", "name": "2931775f195e857f36cf888aac39b2a3", "is_reserved": 0, "lon": -77.02338533333334, "is_disabled": 0, "fusion_lat": 0.0, "lat": 38.91117716666667, "bike_id": "2931775f195e857f36cf888aac39b2a3", "fusion_lon": 0.0}, {"rental_uris": {"ios": "https://dc.lft.to/lastmile_qr_scan", "android": "https://dc.lft.to/lastmile_qr_scan"}, "type": "electric_scooter", "name": "ff9d25607ae82f08659204deefcb02d7", "is_reserved": 0, "lon": -77.03048016666666, "is_disabled": 0, "fusion_lat": 0.0, "lat": 38.88433416666667, "bike_id": "ff9d25607ae82f08659204deefcb02d7", "fusion_lon": 0.0}, {"rental_uris": {"ios": "https://dc.lft.to/lastmile_qr_scan", "android": "https://dc.lft.to/lastmile_qr_scan"}, "type": "electric_scooter", "name": "4dc5a01550ab2979f77aae0a74573238", "is_reserved": 0, "lon": -77.040181, "is_disabled": 0, "fusion_lat": 0.0, "lat": 38.92251383333333, "bike_id": "4dc5a01550ab2979f77aae0a74573238", "fusion_lon": 0.0}, {"rental_uris": {"ios": "https://dc.lft.to/lastmile_qr_scan", "android": "https://dc.lft.to/lastmile_qr_scan"}, "type": "electric_scooter", "name": "45ad4161e72d2729261257a74bc81305", "is_reserved": 0, "lon": -77.03956966666667, "is_disabled": 0, "fusion_lat": 0.0, "lat": 38.892482, "bike_id": "45ad4161e72d2729261257a74bc81305", "fusion_lon": 0.0}, {"rental_uris": {"ios": "https://dc.lft.to/lastmile_qr_scan", "android": "https://dc.lft.to/lastmile_qr_scan"}, "type": "electric_scooter", "name": "1fbd781ca6cba5086fcadc5d77539e62", "is_reserved": 0, "lon": -77.020635, "is_disabled": 0, "fusion_lat": 0.0, "lat": 38.92410016666667, "bike_id": "1fbd781ca6cba5086fcadc5d77539e62", "fusion_lon": 0.0}, {"rental_uris": {"ios": "https://dc.lft.to/lastmile_qr_scan", "android": "https://dc.lft.to/lastmile_qr_scan"}, "type": "electric_scooter", "name": "3fac1f6dfbb17bcfea87a95f7cbde37a", "is_reserved": 0, "lon": -76.98500483333333, "is_disabled": 0, "fusion_lat": 0.0, "lat": 38.92008516666667, "bike_id": "3fac1f6dfbb17bcfea87a95f7cbde37a", "fusion_lon": 0.0}, {"rental_uris": {"ios": "https://dc.lft.to/lastmile_qr_scan", "android": "https://dc.lft.to/lastmile_qr_scan"}, "type": "electric_scooter", "name": "a489bde54c1e378fd35a092661d72ee6", "is_reserved": 0, "lon": -76.92944416666667, "is_disabled": 0, "fusion_lat": 0.0, "lat": 38.90336, "bike_id": "a489bde54c1e378fd35a092661d72ee6", "fusion_lon": 0.0}, {"rental_uris": {"ios": "https://dc.lft.to/lastmile_qr_scan", "android": "https://dc.lft.to/lastmile_qr_scan"}, "type": "electric_scooter", "name": "82d787152dc056dbdd891d485d624e8c", "is_reserved": 0, "lon": -77.03066733333333, "is_disabled": 0, "fusion_lat": 0.0, "lat": 38.92254, "bike_id": "82d787152dc056dbdd891d485d624e8c", "fusion_lon": 0.0}, {"rental_uris": {"ios": "https://dc.lft.to/lastmile_qr_scan", "android": "https://dc.lft.to/lastmile_qr_scan"}, "type": "electric_scooter", "name": "e15ead40f337c763eafe83c838d48626", "is_reserved": 0, "lon": -77.07599933333333, "is_disabled": 0, "fusion_lat": 0.0, "lat": 38.937576166666666, "bike_id": "e15ead40f337c763eafe83c838d48626", "fusion_lon": 0.0}, {"rental_uris": {"ios": "https://dc.lft.to/lastmile_qr_scan", "android": "https://dc.lft.to/lastmile_qr_scan"}, "type": "electric_scooter", "name": "2cfc3214adcf62c0652a0e24be5f58a5", "is_reserved": 0, "lon": -77.01591916666666, "is_disabled": 0, "fusion_lat": 0.0, "lat": 38.87222833333333, "bike_id": "2cfc3214adcf62c0652a0e24be5f58a5", "fusion_lon": 0.0}, {"rental_uris": {"ios": "https://dc.lft.to/lastmile_qr_scan", "android": "https://dc.lft.to/lastmile_qr_scan"}, "type": "electric_scooter", "name": "f7db186e88ffaa26a1bab3d9ce8ef351", "is_reserved": 0, "lon": -77.03343783333334, "is_disabled": 0, "fusion_lat": 0.0, "lat": 38.8991185, "bike_id": "f7db186e88ffaa26a1bab3d9ce8ef351", "fusion_lon": 0.0}, {"rental_uris": {"ios": "https://dc.lft.to/lastmile_qr_scan", "android": "https://dc.lft.to/lastmile_qr_scan"}, "type": "electric_scooter", "name": "bad507843fff12c78bb3fe1716d78499", "is_reserved": 0, "lon": -77.09037816666667, "is_disabled": 0, "fusion_lat": 0.0, "lat": 38.956051, "bike_id": "bad507843fff12c78bb3fe1716d78499", "fusion_lon": 0.0}, {"rental_uris": {"ios": "https://dc.lft.to/lastmile_qr_scan", "android": "https://dc.lft.to/lastmile_qr_scan"}, "type": "electric_scooter", "name": "97b04599ef84cdd21e19ddca4df155c2", "is_reserved": 0, "lon": -76.96974333333333, "is_disabled": 0, "fusion_lat": 0.0, "lat": 38.861458, "bike_id": "97b04599ef84cdd21e19ddca4df155c2", "fusion_lon": 0.0}, {"rental_uris": {"ios": "https://dc.lft.to/lastmile_qr_scan", "android": "https://dc.lft.to/lastmile_qr_scan"}, "type": "electric_scooter", "name": "1129f56c755955dbf10b1536b8c8cedd", "is_reserved": 0, "lon": -77.032722, "is_disabled": 0, "fusion_lat": 0.0, "lat": 38.929341666666666, "bike_id": "1129f56c755955dbf10b1536b8c8cedd", "fusion_lon": 0.0}, {"rental_uris": {"ios": "https://dc.lft.to/lastmile_qr_scan", "android": "https://dc.lft.to/lastmile_qr_scan"}, "type": "electric_scooter", "name": "254976a169f9700ca8e4caaf46514563", "is_reserved": 0, "lon": -77.0342485, "is_disabled": 0, "fusion_lat": 0.0, "lat": 38.922055666666665, "bike_id": "254976a169f9700ca8e4caaf46514563", "fusion_lon": 0.0}, {"rental_uris": {"ios": "https://dc.lft.to/lastmile_qr_scan", "android": "https://dc.lft.to/lastmile_qr_scan"}, "type": "electric_scooter", "name": "adba81e92972f835898b436baf2ac3d1", "is_reserved": 0, "lon": -77.017896, "is_disabled": 0, "fusion_lat": 0.0, "lat": 38.900826333333335, "bike_id": "adba81e92972f835898b436baf2ac3d1", "fusion_lon": 0.0}, {"rental_uris": {"ios": "https://dc.lft.to/lastmile_qr_scan", "android": "https://dc.lft.to/lastmile_qr_scan"}, "type": "electric_scooter", "name": "199e1bb3a8d0e3704ebdd4ef10a505e8", "is_reserved": 0, "lon": -77.01950016666666, "is_disabled": 0, "fusion_lat": 0.0, "lat": 38.92428266666667, "bike_id": "199e1bb3a8d0e3704ebdd4ef10a505e8", "fusion_lon": 0.0}, {"rental_uris": {"ios": "https://dc.lft.to/lastmile_qr_scan", "android": "https://dc.lft.to/lastmile_qr_scan"}, "type": "electric_bike", "name": "9b97b325a94f0117375bcad993338663", "is_reserved": 0, "lon": -77.085298, "is_disabled": 0, "fusion_lat": 0.0, "lat": 38.85651516666667, "bike_id": "9b97b325a94f0117375bcad993338663", "fusion_lon": 0.0}, {"rental_uris": {"ios": "https://dc.lft.to/lastmile_qr_scan", "android": "https://dc.lft.to/lastmile_qr_scan"}, "type": "electric_scooter", "name": "5899bee07ab76d149c28e8595b62c341", "is_reserved": 0, "lon": -77.0436775, "is_disabled": 0, "fusion_lat": 0.0, "lat": 38.892215666666665, "bike_id": "5899bee07ab76d149c28e8595b62c341", "fusion_lon": 0.0}, {"rental_uris": {"ios": "https://dc.lft.to/lastmile_qr_scan", "android": "https://dc.lft.to/lastmile_qr_scan"}, "type": "electric_scooter", "name": "aae1765adaaddc3e794374e4b3ac36dd", "is_reserved": 0, "lon": -77.05206416666667, "is_disabled": 0, "fusion_lat": 0.0, "lat": 38.924364833333335, "bike_id": "aae1765adaaddc3e794374e4b3ac36dd", "fusion_lon": 0.0}, {"rental_uris": {"ios": "https://dc.lft.to/lastmile_qr_scan", "android": "https://dc.lft.to/lastmile_qr_scan"}, "type": "electric_scooter", "name": "ab5c545e4e1c54988896b23ae4420070", "is_reserved": 0, "lon": -77.03030966666667, "is_disabled": 0, "fusion_lat": 0.0, "lat": 38.922497166666666, "bike_id": "ab5c545e4e1c54988896b23ae4420070", "fusion_lon": 0.0}, {"rental_uris": {"ios": "https://dc.lft.to/lastmile_qr_scan", "android": "https://dc.lft.to/lastmile_qr_scan"}, "type": "electric_scooter", "name": "66b8d16982974dd51d511927d6403e44", "is_reserved": 0, "lon": -77.0021165, "is_disabled": 0, "fusion_lat": 0.0, "lat": 38.90035566666667, "bike_id": "66b8d16982974dd51d511927d6403e44", "fusion_lon": 0.0}, {"rental_uris": {"ios": "https://dc.lft.to/lastmile_qr_scan", "android": "https://dc.lft.to/lastmile_qr_scan"}, "type": "electric_scooter", "name": "732f2f555fccc0df4ff9d642a4cb8aed", "is_reserved": 0, "lon": -77.0262845, "is_disabled": 0, "fusion_lat": 0.0, "lat": 38.89224333333333, "bike_id": "732f2f555fccc0df4ff9d642a4cb8aed", "fusion_lon": 0.0}, {"rental_uris": {"ios": "https://dc.lft.to/lastmile_qr_scan", "android": "https://dc.lft.to/lastmile_qr_scan"}, "type": "electric_bike", "name": "4d62947e50a5d9e08169b392c26157ee", "is_reserved": 0, "lon": -77.06694033333333, "is_disabled": 0, "fusion_lat": 0.0, "lat": 38.831722, "bike_id": "4d62947e50a5d9e08169b392c26157ee", "fusion_lon": 0.0}, {"rental_uris": {"ios": "https://dc.lft.to/lastmile_qr_scan", "android": "https://dc.lft.to/lastmile_qr_scan"}, "type": "electric_scooter", "name": "d1c32e265164ab6400603c41bee39cfe", "is_reserved": 0, "lon": -77.02414683333333, "is_disabled": 0, "fusion_lat": 0.0, "lat": 38.90959566666667, "bike_id": "d1c32e265164ab6400603c41bee39cfe", "fusion_lon": 0.0}, {"rental_uris": {"ios": "https://dc.lft.to/lastmile_qr_scan", "android": "https://dc.lft.to/lastmile_qr_scan"}, "type": "electric_scooter", "name": "702831ed7b6124baae82dea0a41e8e8e", "is_reserved": 0, "lon": -76.9705545, "is_disabled": 0, "fusion_lat": 0.0, "lat": 38.873279, "bike_id": "702831ed7b6124baae82dea0a41e8e8e", "fusion_lon": 0.0}, {"rental_uris": {"ios": "https://dc.lft.to/lastmile_qr_scan", "android": "https://dc.lft.to/lastmile_qr_scan"}, "type": "electric_scooter", "name": "84cb8acf8b0e4d47631b069f70d67c8d", "is_reserved": 0, "lon": -77.02898816666666, "is_disabled": 0, "fusion_lat": 0.0, "lat": 38.940435, "bike_id": "84cb8acf8b0e4d47631b069f70d67c8d", "fusion_lon": 0.0}, {"rental_uris": {"ios": "https://dc.lft.to/lastmile_qr_scan", "android": "https://dc.lft.to/lastmile_qr_scan"}, "type": "electric_scooter", "name": "05be62f91eef52b0ff509d1030d70204", "is_reserved": 0, "lon": -77.0395925, "is_disabled": 0, "fusion_lat": 0.0, "lat": 38.892414333333335, "bike_id": "05be62f91eef52b0ff509d1030d70204", "fusion_lon": 0.0}, {"rental_uris": {"ios": "https://dc.lft.to/lastmile_qr_scan", "android": "https://dc.lft.to/lastmile_qr_scan"}, "type": "electric_scooter", "name": "ec5bd84473f35ba8eb691dfcdb89f06d", "is_reserved": 0, "lon": -76.98602266666667, "is_disabled": 0, "fusion_lat": 0.0, "lat": 38.87834016666667, "bike_id": "ec5bd84473f35ba8eb691dfcdb89f06d", "fusion_lon": 0.0}, {"rental_uris": {"ios": "https://dc.lft.to/lastmile_qr_scan", "android": "https://dc.lft.to/lastmile_qr_scan"}, "type": "electric_scooter", "name": "fb9e5286cd8ef2d73e916aab25573369", "is_reserved": 0, "lon": -77.01897183333334, "is_disabled": 0, "fusion_lat": 0.0, "lat": 38.89800866666667, "bike_id": "fb9e5286cd8ef2d73e916aab25573369", "fusion_lon": 0.0}, {"rental_uris": {"ios": "https://dc.lft.to/lastmile_qr_scan", "android": "https://dc.lft.to/lastmile_qr_scan"}, "type": "electric_bike", "name": "89e262927ffb2d0140c3761210aa4015", "is_reserved": 0, "lon": -76.99445833333333, "is_disabled": 0, "fusion_lat": 0.0, "lat": 38.83104683333333, "bike_id": "89e262927ffb2d0140c3761210aa4015", "fusion_lon": 0.0}, {"rental_uris": {"ios": "https://dc.lft.to/lastmile_qr_scan", "android": "https://dc.lft.to/lastmile_qr_scan"}, "type": "electric_bike", "name": "e7bc181f2bcfcd5fc761c881f65a06bf", "is_reserved": 0, "lon": -77.08318316666667, "is_disabled": 0, "fusion_lat": 0.0, "lat": 38.85436766666667, "bike_id": "e7bc181f2bcfcd5fc761c881f65a06bf", "fusion_lon": 0.0}, {"rental_uris": {"ios": "https://dc.lft.to/lastmile_qr_scan", "android": "https://dc.lft.to/lastmile_qr_scan"}, "type": "electric_scooter", "name": "3d628db4589edd06196dec1e22d58368", "is_reserved": 0, "lon": -77.0049455, "is_disabled": 0, "fusion_lat": 0.0, "lat": 38.87936633333333, "bike_id": "3d628db4589edd06196dec1e22d58368", "fusion_lon": 0.0}, {"rental_uris": {"ios": "https://dc.lft.to/lastmile_qr_scan", "android": "https://dc.lft.to/lastmile_qr_scan"}, "type": "electric_scooter", "name": "6e6c40284277578fe43c4aff7061568b", "is_reserved": 0, "lon": -77.00416583333333, "is_disabled": 0, "fusion_lat": 0.0, "lat": 38.9119265, "bike_id": "6e6c40284277578fe43c4aff7061568b", "fusion_lon": 0.0}, {"rental_uris": {"ios": "https://dc.lft.to/lastmile_qr_scan", "android": "https://dc.lft.to/lastmile_qr_scan"}, "type": "electric_scooter", "name": "3854fd8dccc2e7dd4807bf9c3384d84d", "is_reserved": 0, "lon": -77.04686066666666, "is_disabled": 0, "fusion_lat": 0.0, "lat": 38.892257, "bike_id": "3854fd8dccc2e7dd4807bf9c3384d84d", "fusion_lon": 0.0}, {"rental_uris": {"ios": "https://dc.lft.to/lastmile_qr_scan", "android": "https://dc.lft.to/lastmile_qr_scan"}, "type": "electric_scooter", "name": "676b085ad76ef19ab229931235c922ca", "is_reserved": 0, "lon": -77.02285683333334, "is_disabled": 0, "fusion_lat": 0.0, "lat": 38.90957516666667, "bike_id": "676b085ad76ef19ab229931235c922ca", "fusion_lon": 0.0}, {"rental_uris": {"ios": "https://dc.lft.to/lastmile_qr_scan", "android": "https://dc.lft.to/lastmile_qr_scan"}, "type": "electric_scooter", "name": "ac85d60b44a233a518e367597020b67b", "is_reserved": 0, "lon": -76.96545266666666, "is_disabled": 0, "fusion_lat": 0.0, "lat": 38.878865, "bike_id": "ac85d60b44a233a518e367597020b67b", "fusion_lon": 0.0}, {"rental_uris": {"ios": "https://dc.lft.to/lastmile_qr_scan", "android": "https://dc.lft.to/lastmile_qr_scan"}, "type": "electric_scooter", "name": "5bc38a6c499f8eb2b79d2ee8d643e1c8", "is_reserved": 0, "lon": -77.0271025, "is_disabled": 0, "fusion_lat": 0.0, "lat": 38.91526666666667, "bike_id": "5bc38a6c499f8eb2b79d2ee8d643e1c8", "fusion_lon": 0.0}, {"rental_uris": {"ios": "https://dc.lft.to/lastmile_qr_scan", "android": "https://dc.lft.to/lastmile_qr_scan"}, "type": "electric_scooter", "name": "952a4e5bb282e3d9c779400cad9258fc", "is_reserved": 0, "lon": -77.02163433333334, "is_disabled": 0, "fusion_lat": 0.0, "lat": 38.915583166666664, "bike_id": "952a4e5bb282e3d9c779400cad9258fc", "fusion_lon": 0.0}, {"rental_uris": {"ios": "https://dc.lft.to/lastmile_qr_scan", "android": "https://dc.lft.to/lastmile_qr_scan"}, "type": "electric_scooter", "name": "522c79a145df435587944f2add06a0dc", "is_reserved": 0, "lon": -77.03811566666667, "is_disabled": 0, "fusion_lat": 0.0, "lat": 38.915554666666665, "bike_id": "522c79a145df435587944f2add06a0dc", "fusion_lon": 0.0}, {"rental_uris": {"ios": "https://dc.lft.to/lastmile_qr_scan", "android": "https://dc.lft.to/lastmile_qr_scan"}, "type": "electric_scooter", "name": "30334028f6e61eafa61b9dc304184cae", "is_reserved": 0, "lon": -77.03662, "is_disabled": 0, "fusion_lat": 0.0, "lat": 38.939541166666665, "bike_id": "30334028f6e61eafa61b9dc304184cae", "fusion_lon": 0.0}, {"rental_uris": {"ios": "https://dc.lft.to/lastmile_qr_scan", "android": "https://dc.lft.to/lastmile_qr_scan"}, "type": "electric_scooter", "name": "9517ac8999bbd3e4d8cdd86d9b81fb3e", "is_reserved": 0, "lon": -77.01053566666667, "is_disabled": 0, "fusion_lat": 0.0, "lat": 38.91642916666667, "bike_id": "9517ac8999bbd3e4d8cdd86d9b81fb3e", "fusion_lon": 0.0}, {"rental_uris": {"ios": "https://dc.lft.to/lastmile_qr_scan", "android": "https://dc.lft.to/lastmile_qr_scan"}, "type": "electric_scooter", "name": "46f88227bc6951b9d39a572931da53f5", "is_reserved": 0, "lon": -77.046702, "is_disabled": 0, "fusion_lat": 0.0, "lat": 38.90292866666667, "bike_id": "46f88227bc6951b9d39a572931da53f5", "fusion_lon": 0.0}, {"rental_uris": {"ios": "https://dc.lft.to/lastmile_qr_scan", "android": "https://dc.lft.to/lastmile_qr_scan"}, "type": "electric_scooter", "name": "702273f2362093ccb943bb4eca5c004a", "is_reserved": 0, "lon": -77.00642266666667, "is_disabled": 0, "fusion_lat": 0.0, "lat": 38.90549383333333, "bike_id": "702273f2362093ccb943bb4eca5c004a", "fusion_lon": 0.0}, {"rental_uris": {"ios": "https://dc.lft.to/lastmile_qr_scan", "android": "https://dc.lft.to/lastmile_qr_scan"}, "type": "electric_bike", "name": "bf6d6f5052b9c3887b4b381daf563237", "is_reserved": 0, "lon": -77.01224783333333, "is_disabled": 0, "fusion_lat": 0.0, "lat": 38.95088233333333, "bike_id": "bf6d6f5052b9c3887b4b381daf563237", "fusion_lon": 0.0}, {"rental_uris": {"ios": "https://dc.lft.to/lastmile_qr_scan", "android": "https://dc.lft.to/lastmile_qr_scan"}, "type": "electric_bike", "name": "51308bbb0faa62c58ca6959e12561bca", "is_reserved": 0, "lon": -77.12730333333333, "is_disabled": 0, "fusion_lat": 0.0, "lat": 38.89563916666667, "bike_id": "51308bbb0faa62c58ca6959e12561bca", "fusion_lon": 0.0}, {"rental_uris": {"ios": "https://dc.lft.to/lastmile_qr_scan", "android": "https://dc.lft.to/lastmile_qr_scan"}, "type": "electric_scooter", "name": "ea57eded4c29b0a229d742c76d9d84cc", "is_reserved": 0, "lon": -76.93475333333333, "is_disabled": 0, "fusion_lat": 0.0, "lat": 38.895023333333334, "bike_id": "ea57eded4c29b0a229d742c76d9d84cc", "fusion_lon": 0.0}, {"rental_uris": {"ios": "https://dc.lft.to/lastmile_qr_scan", "android": "https://dc.lft.to/lastmile_qr_scan"}, "type": "electric_scooter", "name": "79820421fae968608f7af04ad16d826f", "is_reserved": 0, "lon": -77.04339083333333, "is_disabled": 0, "fusion_lat": 0.0, "lat": 38.907327, "bike_id": "79820421fae968608f7af04ad16d826f", "fusion_lon": 0.0}, {"rental_uris": {"ios": "https://dc.lft.to/lastmile_qr_scan", "android": "https://dc.lft.to/lastmile_qr_scan"}, "type": "electric_scooter", "name": "506fdd4284c83e4e50aeb515e355072d", "is_reserved": 0, "lon": -77.03144966666666, "is_disabled": 0, "fusion_lat": 0.0, "lat": 38.887445666666665, "bike_id": "506fdd4284c83e4e50aeb515e355072d", "fusion_lon": 0.0}, {"rental_uris": {"ios": "https://dc.lft.to/lastmile_qr_scan", "android": "https://dc.lft.to/lastmile_qr_scan"}, "type": "electric_scooter", "name": "e2eda6f8ba649751291e4b9c68348a52", "is_reserved": 0, "lon": -77.0259815, "is_disabled": 0, "fusion_lat": 0.0, "lat": 38.9169055, "bike_id": "e2eda6f8ba649751291e4b9c68348a52", "fusion_lon": 0.0}, {"rental_uris": {"ios": "https://dc.lft.to/lastmile_qr_scan", "android": "https://dc.lft.to/lastmile_qr_scan"}, "type": "electric_scooter", "name": "48da67c9f78bdc35b256b0279cf28516", "is_reserved": 0, "lon": -77.01790266666667, "is_disabled": 0, "fusion_lat": 0.0, "lat": 38.874690333333334, "bike_id": "48da67c9f78bdc35b256b0279cf28516", "fusion_lon": 0.0}, {"rental_uris": {"ios": "https://dc.lft.to/lastmile_qr_scan", "android": "https://dc.lft.to/lastmile_qr_scan"}, "type": "electric_scooter", "name": "ca6fadfdc1bccba1a2ed018cfb729de4", "is_reserved": 0, "lon": -77.01218683333333, "is_disabled": 0, "fusion_lat": 0.0, "lat": 38.91664183333334, "bike_id": "ca6fadfdc1bccba1a2ed018cfb729de4", "fusion_lon": 0.0}, {"rental_uris": {"ios": "https://dc.lft.to/lastmile_qr_scan", "android": "https://dc.lft.to/lastmile_qr_scan"}, "type": "electric_scooter", "name": "907d9078d5a0aa9b31f8b0f64f0311c0", "is_reserved": 0, "lon": -77.025317, "is_disabled": 0, "fusion_lat": 0.0, "lat": 38.945341, "bike_id": "907d9078d5a0aa9b31f8b0f64f0311c0", "fusion_lon": 0.0}, {"rental_uris": {"ios": "https://dc.lft.to/lastmile_qr_scan", "android": "https://dc.lft.to/lastmile_qr_scan"}, "type": "electric_scooter", "name": "39b8e9eb36e0794daa1cd22bd507b889", "is_reserved": 0, "lon": -76.99661583333334, "is_disabled": 0, "fusion_lat": 0.0, "lat": 38.8923275, "bike_id": "39b8e9eb36e0794daa1cd22bd507b889", "fusion_lon": 0.0}, {"rental_uris": {"ios": "https://dc.lft.to/lastmile_qr_scan", "android": "https://dc.lft.to/lastmile_qr_scan"}, "type": "electric_scooter", "name": "d522453210e2488e4463f6eb6d16f2c6", "is_reserved": 0, "lon": -77.03226566666666, "is_disabled": 0, "fusion_lat": 0.0, "lat": 38.90968766666667, "bike_id": "d522453210e2488e4463f6eb6d16f2c6", "fusion_lon": 0.0}, {"rental_uris": {"ios": "https://dc.lft.to/lastmile_qr_scan", "android": "https://dc.lft.to/lastmile_qr_scan"}, "type": "electric_scooter", "name": "6d46d86861f998ab31cf357b59d7b586", "is_reserved": 0, "lon": -76.997146, "is_disabled": 0, "fusion_lat": 0.0, "lat": 38.897421333333334, "bike_id": "6d46d86861f998ab31cf357b59d7b586", "fusion_lon": 0.0}, {"rental_uris": {"ios": "https://dc.lft.to/lastmile_qr_scan", "android": "https://dc.lft.to/lastmile_qr_scan"}, "type": "electric_bike", "name": "6d8b4eca4350ee033d5cea01e86b9800", "is_reserved": 0, "lon": -76.99578616666666, "is_disabled": 0, "fusion_lat": 0.0, "lat": 38.831562166666664, "bike_id": "6d8b4eca4350ee033d5cea01e86b9800", "fusion_lon": 0.0}, {"rental_uris": {"ios": "https://dc.lft.to/lastmile_qr_scan", "android": "https://dc.lft.to/lastmile_qr_scan"}, "type": "electric_scooter", "name": "e0fe48a447befed63be3b9fc32613078", "is_reserved": 0, "lon": -77.002539, "is_disabled": 0, "fusion_lat": 0.0, "lat": 38.9085835, "bike_id": "e0fe48a447befed63be3b9fc32613078", "fusion_lon": 0.0}, {"rental_uris": {"ios": "https://dc.lft.to/lastmile_qr_scan", "android": "https://dc.lft.to/lastmile_qr_scan"}, "type": "electric_scooter", "name": "e6fe6c303c7b17382b9e1b9ed7fb475e", "is_reserved": 0, "lon": -77.02804333333333, "is_disabled": 0, "fusion_lat": 0.0, "lat": 38.90736283333333, "bike_id": "e6fe6c303c7b17382b9e1b9ed7fb475e", "fusion_lon": 0.0}, {"rental_uris": {"ios": "https://dc.lft.to/lastmile_qr_scan", "android": "https://dc.lft.to/lastmile_qr_scan"}, "type": "electric_scooter", "name": "041d4d75d57554c952856ab5440da18b", "is_reserved": 0, "lon": -76.99595, "is_disabled": 0, "fusion_lat": 0.0, "lat": 38.900307166666664, "bike_id": "041d4d75d57554c952856ab5440da18b", "fusion_lon": 0.0}, {"rental_uris": {"ios": "https://dc.lft.to/lastmile_qr_scan", "android": "https://dc.lft.to/lastmile_qr_scan"}, "type": "electric_scooter", "name": "ca41f9f2d924d0c4643a57c4bb2e4700", "is_reserved": 0, "lon": -77.02801683333334, "is_disabled": 0, "fusion_lat": 0.0, "lat": 38.907347, "bike_id": "ca41f9f2d924d0c4643a57c4bb2e4700", "fusion_lon": 0.0}, {"rental_uris": {"ios": "https://dc.lft.to/lastmile_qr_scan", "android": "https://dc.lft.to/lastmile_qr_scan"}, "type": "electric_scooter", "name": "44db62b3bf6e71eae131304159c92174", "is_reserved": 0, "lon": -77.05220166666666, "is_disabled": 0, "fusion_lat": 0.0, "lat": 38.900168666666666, "bike_id": "44db62b3bf6e71eae131304159c92174", "fusion_lon": 0.0}, {"rental_uris": {"ios": "https://dc.lft.to/lastmile_qr_scan", "android": "https://dc.lft.to/lastmile_qr_scan"}, "type": "electric_scooter", "name": "62bed0df72c20310f241db9e057003b3", "is_reserved": 0, "lon": -77.03332183333333, "is_disabled": 0, "fusion_lat": 0.0, "lat": 38.913338833333334, "bike_id": "62bed0df72c20310f241db9e057003b3", "fusion_lon": 0.0}, {"rental_uris": {"ios": "https://dc.lft.to/lastmile_qr_scan", "android": "https://dc.lft.to/lastmile_qr_scan"}, "type": "electric_scooter", "name": "42d8143a5dba85476e29d3f531f30c0b", "is_reserved": 0, "lon": -77.00758583333334, "is_disabled": 0, "fusion_lat": 0.0, "lat": 38.925293333333336, "bike_id": "42d8143a5dba85476e29d3f531f30c0b", "fusion_lon": 0.0}, {"rental_uris": {"ios": "https://dc.lft.to/lastmile_qr_scan", "android": "https://dc.lft.to/lastmile_qr_scan"}, "type": "electric_scooter", "name": "4f29f393c0ef467bcb99bbc8b52d7c63", "is_reserved": 0, "lon": -77.0647405, "is_disabled": 0, "fusion_lat": 0.0, "lat": 38.9102375, "bike_id": "4f29f393c0ef467bcb99bbc8b52d7c63", "fusion_lon": 0.0}, {"rental_uris": {"ios": "https://dc.lft.to/lastmile_qr_scan", "android": "https://dc.lft.to/lastmile_qr_scan"}, "type": "electric_scooter", "name": "399aa832784056078977eeaabc18220a", "is_reserved": 0, "lon": -77.00908966666667, "is_disabled": 0, "fusion_lat": 0.0, "lat": 38.898822833333334, "bike_id": "399aa832784056078977eeaabc18220a", "fusion_lon": 0.0}, {"rental_uris": {"ios": "https://dc.lft.to/lastmile_qr_scan", "android": "https://dc.lft.to/lastmile_qr_scan"}, "type": "electric_scooter", "name": "9adc4d86e6d64e42038f15612aee0208", "is_reserved": 0, "lon": -77.04740233333334, "is_disabled": 0, "fusion_lat": 0.0, "lat": 38.908549, "bike_id": "9adc4d86e6d64e42038f15612aee0208", "fusion_lon": 0.0}, {"rental_uris": {"ios": "https://dc.lft.to/lastmile_qr_scan", "android": "https://dc.lft.to/lastmile_qr_scan"}, "type": "electric_scooter", "name": "c88b56a4e4ba2456342fc12c91bc9334", "is_reserved": 0, "lon": -77.004131, "is_disabled": 0, "fusion_lat": 0.0, "lat": 38.905500833333335, "bike_id": "c88b56a4e4ba2456342fc12c91bc9334", "fusion_lon": 0.0}, {"rental_uris": {"ios": "https://dc.lft.to/lastmile_qr_scan", "android": "https://dc.lft.to/lastmile_qr_scan"}, "type": "electric_scooter", "name": "271d7d5c2ad8a85bbc253d7fef6eaaba", "is_reserved": 0, "lon": -77.03465933333334, "is_disabled": 0, "fusion_lat": 0.0, "lat": 38.91701283333333, "bike_id": "271d7d5c2ad8a85bbc253d7fef6eaaba", "fusion_lon": 0.0}, {"rental_uris": {"ios": "https://dc.lft.to/lastmile_qr_scan", "android": "https://dc.lft.to/lastmile_qr_scan"}, "type": "electric_scooter", "name": "1d24953ab513996a044360fd72db6b93", "is_reserved": 0, "lon": -76.97942616666667, "is_disabled": 0, "fusion_lat": 0.0, "lat": 38.90662283333333, "bike_id": "1d24953ab513996a044360fd72db6b93", "fusion_lon": 0.0}, {"rental_uris": {"ios": "https://dc.lft.to/lastmile_qr_scan", "android": "https://dc.lft.to/lastmile_qr_scan"}, "type": "electric_scooter", "name": "42fe3d681daadc8996f205b3912fdad8", "is_reserved": 0, "lon": -77.02697766666667, "is_disabled": 0, "fusion_lat": 0.0, "lat": 38.91800933333333, "bike_id": "42fe3d681daadc8996f205b3912fdad8", "fusion_lon": 0.0}, {"rental_uris": {"ios": "https://dc.lft.to/lastmile_qr_scan", "android": "https://dc.lft.to/lastmile_qr_scan"}, "type": "electric_scooter", "name": "1933a58876b65c89a8224b53f08de04c", "is_reserved": 0, "lon": -77.03659666666667, "is_disabled": 0, "fusion_lat": 0.0, "lat": 38.922859333333335, "bike_id": "1933a58876b65c89a8224b53f08de04c", "fusion_lon": 0.0}, {"rental_uris": {"ios": "https://dc.lft.to/lastmile_qr_scan", "android": "https://dc.lft.to/lastmile_qr_scan"}, "type": "electric_bike", "name": "c6623c3b12fcc1d13c241727c4c3446f", "is_reserved": 0, "lon": -77.00136616666667, "is_disabled": 0, "fusion_lat": 0.0, "lat": 38.995033666666664, "bike_id": "c6623c3b12fcc1d13c241727c4c3446f", "fusion_lon": 0.0}, {"rental_uris": {"ios": "https://dc.lft.to/lastmile_qr_scan", "android": "https://dc.lft.to/lastmile_qr_scan"}, "type": "electric_scooter", "name": "3f960d3a645613a2b7017d249f869c81", "is_reserved": 0, "lon": -77.0353225, "is_disabled": 0, "fusion_lat": 0.0, "lat": 38.92341066666667, "bike_id": "3f960d3a645613a2b7017d249f869c81", "fusion_lon": 0.0}, {"rental_uris": {"ios": "https://dc.lft.to/lastmile_qr_scan", "android": "https://dc.lft.to/lastmile_qr_scan"}, "type": "electric_scooter", "name": "7e14cf5a34583d851c3d442cb589978a", "is_reserved": 0, "lon": -77.03449816666667, "is_disabled": 0, "fusion_lat": 0.0, "lat": 38.934323166666665, "bike_id": "7e14cf5a34583d851c3d442cb589978a", "fusion_lon": 0.0}, {"rental_uris": {"ios": "https://dc.lft.to/lastmile_qr_scan", "android": "https://dc.lft.to/lastmile_qr_scan"}, "type": "electric_scooter", "name": "c120cfe960f09337c0fd9af15ecb5034", "is_reserved": 0, "lon": -77.02219416666667, "is_disabled": 0, "fusion_lat": 0.0, "lat": 38.88736, "bike_id": "c120cfe960f09337c0fd9af15ecb5034", "fusion_lon": 0.0}, {"rental_uris": {"ios": "https://dc.lft.to/lastmile_qr_scan", "android": "https://dc.lft.to/lastmile_qr_scan"}, "type": "electric_scooter", "name": "38703ec314ce50bab38b9092c5522761", "is_reserved": 0, "lon": -77.048679, "is_disabled": 0, "fusion_lat": 0.0, "lat": 38.8991085, "bike_id": "38703ec314ce50bab38b9092c5522761", "fusion_lon": 0.0}, {"rental_uris": {"ios": "https://dc.lft.to/lastmile_qr_scan", "android": "https://dc.lft.to/lastmile_qr_scan"}, "type": "electric_scooter", "name": "1ede5a148b00e28ca754c0074c2357b9", "is_reserved": 0, "lon": -77.03141466666666, "is_disabled": 0, "fusion_lat": 0.0, "lat": 38.91277616666667, "bike_id": "1ede5a148b00e28ca754c0074c2357b9", "fusion_lon": 0.0}, {"rental_uris": {"ios": "https://dc.lft.to/lastmile_qr_scan", "android": "https://dc.lft.to/lastmile_qr_scan"}, "type": "electric_bike", "name": "287ee0d125c997a065c8f989b3c93784", "is_reserved": 0, "lon": -76.97529833333333, "is_disabled": 0, "fusion_lat": 0.0, "lat": 38.90329283333333, "bike_id": "287ee0d125c997a065c8f989b3c93784", "fusion_lon": 0.0}, {"rental_uris": {"ios": "https://dc.lft.to/lastmile_qr_scan", "android": "https://dc.lft.to/lastmile_qr_scan"}, "type": "electric_scooter", "name": "199f4f3cf83f2e5c0a10791692426fb3", "is_reserved": 0, "lon": -76.99387483333334, "is_disabled": 0, "fusion_lat": 0.0, "lat": 38.9101405, "bike_id": "199f4f3cf83f2e5c0a10791692426fb3", "fusion_lon": 0.0}, {"rental_uris": {"ios": "https://dc.lft.to/lastmile_qr_scan", "android": "https://dc.lft.to/lastmile_qr_scan"}, "type": "electric_scooter", "name": "2091b4d0f8273d03c0a4fa8f3d3f6c79", "is_reserved": 0, "lon": -77.05687483333334, "is_disabled": 0, "fusion_lat": 0.0, "lat": 38.93388616666667, "bike_id": "2091b4d0f8273d03c0a4fa8f3d3f6c79", "fusion_lon": 0.0}, {"rental_uris": {"ios": "https://dc.lft.to/lastmile_qr_scan", "android": "https://dc.lft.to/lastmile_qr_scan"}, "type": "electric_bike", "name": "7434e01e82805faca0f80af76295c052", "is_reserved": 0, "lon": -76.97423316666666, "is_disabled": 0, "fusion_lat": 0.0, "lat": 38.932390833333336, "bike_id": "7434e01e82805faca0f80af76295c052", "fusion_lon": 0.0}, {"rental_uris": {"ios": "https://dc.lft.to/lastmile_qr_scan", "android": "https://dc.lft.to/lastmile_qr_scan"}, "type": "electric_scooter", "name": "037dc9aa49bc20d1f4f3bb8601699377", "is_reserved": 0, "lon": -77.018211, "is_disabled": 0, "fusion_lat": 0.0, "lat": 38.911049, "bike_id": "037dc9aa49bc20d1f4f3bb8601699377", "fusion_lon": 0.0}, {"rental_uris": {"ios": "https://dc.lft.to/lastmile_qr_scan", "android": "https://dc.lft.to/lastmile_qr_scan"}, "type": "electric_scooter", "name": "83207be26be9fcd0419eadb66930859e", "is_reserved": 0, "lon": -76.998413, "is_disabled": 0, "fusion_lat": 0.0, "lat": 38.900409, "bike_id": "83207be26be9fcd0419eadb66930859e", "fusion_lon": 0.0}, {"rental_uris": {"ios": "https://dc.lft.to/lastmile_qr_scan", "android": "https://dc.lft.to/lastmile_qr_scan"}, "type": "electric_scooter", "name": "64220c2d4235e7e5b2ecc2af419d43dd", "is_reserved": 0, "lon": -77.026306, "is_disabled": 0, "fusion_lat": 0.0, "lat": 38.892227166666665, "bike_id": "64220c2d4235e7e5b2ecc2af419d43dd", "fusion_lon": 0.0}, {"rental_uris": {"ios": "https://dc.lft.to/lastmile_qr_scan", "android": "https://dc.lft.to/lastmile_qr_scan"}, "type": "electric_scooter", "name": "eb4d522900b1eed9904fc641950d83d6", "is_reserved": 0, "lon": -77.0226305, "is_disabled": 0, "fusion_lat": 0.0, "lat": 38.927395, "bike_id": "eb4d522900b1eed9904fc641950d83d6", "fusion_lon": 0.0}, {"rental_uris": {"ios": "https://dc.lft.to/lastmile_qr_scan", "android": "https://dc.lft.to/lastmile_qr_scan"}, "type": "electric_scooter", "name": "7d2aaa7c46597b6f5f9de7dacc5cab6c", "is_reserved": 0, "lon": -77.05016733333333, "is_disabled": 0, "fusion_lat": 0.0, "lat": 38.90549466666667, "bike_id": "7d2aaa7c46597b6f5f9de7dacc5cab6c", "fusion_lon": 0.0}, {"rental_uris": {"ios": "https://dc.lft.to/lastmile_qr_scan", "android": "https://dc.lft.to/lastmile_qr_scan"}, "type": "electric_scooter", "name": "7e7564f97337fc6c4b30ff1fda0695a3", "is_reserved": 0, "lon": -77.03079833333334, "is_disabled": 0, "fusion_lat": 0.0, "lat": 38.93879, "bike_id": "7e7564f97337fc6c4b30ff1fda0695a3", "fusion_lon": 0.0}, {"rental_uris": {"ios": "https://dc.lft.to/lastmile_qr_scan", "android": "https://dc.lft.to/lastmile_qr_scan"}, "type": "electric_scooter", "name": "c3e29a7891baeec6d34f5e3398ef4b29", "is_reserved": 0, "lon": -76.99883066666666, "is_disabled": 0, "fusion_lat": 0.0, "lat": 38.92054316666667, "bike_id": "c3e29a7891baeec6d34f5e3398ef4b29", "fusion_lon": 0.0}, {"rental_uris": {"ios": "https://dc.lft.to/lastmile_qr_scan", "android": "https://dc.lft.to/lastmile_qr_scan"}, "type": "electric_scooter", "name": "905a4cea27ef788655e70f3252493a7e", "is_reserved": 0, "lon": -77.07716733333334, "is_disabled": 0, "fusion_lat": 0.0, "lat": 38.94292933333333, "bike_id": "905a4cea27ef788655e70f3252493a7e", "fusion_lon": 0.0}, {"rental_uris": {"ios": "https://dc.lft.to/lastmile_qr_scan", "android": "https://dc.lft.to/lastmile_qr_scan"}, "type": "electric_scooter", "name": "047a04be9b715781c3055e981e0cafcf", "is_reserved": 0, "lon": -77.036654, "is_disabled": 0, "fusion_lat": 0.0, "lat": 38.91850616666667, "bike_id": "047a04be9b715781c3055e981e0cafcf", "fusion_lon": 0.0}, {"rental_uris": {"ios": "https://dc.lft.to/lastmile_qr_scan", "android": "https://dc.lft.to/lastmile_qr_scan"}, "type": "electric_scooter", "name": "1289dbda5dc4a6a30d790bc9e7d18d73", "is_reserved": 0, "lon": -77.045401, "is_disabled": 0, "fusion_lat": 0.0, "lat": 38.8975525, "bike_id": "1289dbda5dc4a6a30d790bc9e7d18d73", "fusion_lon": 0.0}, {"rental_uris": {"ios": "https://dc.lft.to/lastmile_qr_scan", "android": "https://dc.lft.to/lastmile_qr_scan"}, "type": "electric_scooter", "name": "7313d5da19b56d397c54909e509cfff1", "is_reserved": 0, "lon": -77.01963266666667, "is_disabled": 0, "fusion_lat": 0.0, "lat": 38.933848833333336, "bike_id": "7313d5da19b56d397c54909e509cfff1", "fusion_lon": 0.0}, {"rental_uris": {"ios": "https://dc.lft.to/lastmile_qr_scan", "android": "https://dc.lft.to/lastmile_qr_scan"}, "type": "electric_scooter", "name": "7acd057dee707d4e358952ad499594d3", "is_reserved": 0, "lon": -77.02586833333334, "is_disabled": 0, "fusion_lat": 0.0, "lat": 38.920359833333336, "bike_id": "7acd057dee707d4e358952ad499594d3", "fusion_lon": 0.0}, {"rental_uris": {"ios": "https://dc.lft.to/lastmile_qr_scan", "android": "https://dc.lft.to/lastmile_qr_scan"}, "type": "electric_scooter", "name": "da62e06548c8d59b52a767147719c46b", "is_reserved": 0, "lon": -77.06518833333334, "is_disabled": 0, "fusion_lat": 0.0, "lat": 38.949893333333335, "bike_id": "da62e06548c8d59b52a767147719c46b", "fusion_lon": 0.0}, {"rental_uris": {"ios": "https://dc.lft.to/lastmile_qr_scan", "android": "https://dc.lft.to/lastmile_qr_scan"}, "type": "electric_scooter", "name": "6a5772598a57bb282d444392be3ffe63", "is_reserved": 0, "lon": -77.03288, "is_disabled": 0, "fusion_lat": 0.0, "lat": 38.927593, "bike_id": "6a5772598a57bb282d444392be3ffe63", "fusion_lon": 0.0}, {"rental_uris": {"ios": "https://dc.lft.to/lastmile_qr_scan", "android": "https://dc.lft.to/lastmile_qr_scan"}, "type": "electric_scooter", "name": "5261e21a1b1c358c5dca49af4cf6ed90", "is_reserved": 0, "lon": -76.98985783333333, "is_disabled": 0, "fusion_lat": 0.0, "lat": 38.865015166666666, "bike_id": "5261e21a1b1c358c5dca49af4cf6ed90", "fusion_lon": 0.0}, {"rental_uris": {"ios": "https://dc.lft.to/lastmile_qr_scan", "android": "https://dc.lft.to/lastmile_qr_scan"}, "type": "electric_scooter", "name": "d77d8a5013987ef119ef81b5d5e3c86c", "is_reserved": 0, "lon": -77.04671166666667, "is_disabled": 0, "fusion_lat": 0.0, "lat": 38.91804916666667, "bike_id": "d77d8a5013987ef119ef81b5d5e3c86c", "fusion_lon": 0.0}, {"rental_uris": {"ios": "https://dc.lft.to/lastmile_qr_scan", "android": "https://dc.lft.to/lastmile_qr_scan"}, "type": "electric_scooter", "name": "fbe66517171ce4c192f630dc94c68faf", "is_reserved": 0, "lon": -77.04032033333333, "is_disabled": 0, "fusion_lat": 0.0, "lat": 38.9048035, "bike_id": "fbe66517171ce4c192f630dc94c68faf", "fusion_lon": 0.0}, {"rental_uris": {"ios": "https://dc.lft.to/lastmile_qr_scan", "android": "https://dc.lft.to/lastmile_qr_scan"}, "type": "electric_scooter", "name": "a04d9715c2eeba9af8a86fff7b5386da", "is_reserved": 0, "lon": -77.04122633333333, "is_disabled": 0, "fusion_lat": 0.0, "lat": 38.92122233333333, "bike_id": "a04d9715c2eeba9af8a86fff7b5386da", "fusion_lon": 0.0}, {"rental_uris": {"ios": "https://dc.lft.to/lastmile_qr_scan", "android": "https://dc.lft.to/lastmile_qr_scan"}, "type": "electric_scooter", "name": "0e49a0df5e4e2ebccb4593ceb980de2e", "is_reserved": 0, "lon": -77.0371475, "is_disabled": 0, "fusion_lat": 0.0, "lat": 38.911855833333334, "bike_id": "0e49a0df5e4e2ebccb4593ceb980de2e", "fusion_lon": 0.0}, {"rental_uris": {"ios": "https://dc.lft.to/lastmile_qr_scan", "android": "https://dc.lft.to/lastmile_qr_scan"}, "type": "electric_scooter", "name": "d11ea2405c28efdc1519ba61ca738b1f", "is_reserved": 0, "lon": -77.00798033333334, "is_disabled": 0, "fusion_lat": 0.0, "lat": 38.91269833333333, "bike_id": "d11ea2405c28efdc1519ba61ca738b1f", "fusion_lon": 0.0}, {"rental_uris": {"ios": "https://dc.lft.to/lastmile_qr_scan", "android": "https://dc.lft.to/lastmile_qr_scan"}, "type": "electric_scooter", "name": "8299328d93e101bc98f637cda8cb66ac", "is_reserved": 0, "lon": -77.03657433333333, "is_disabled": 0, "fusion_lat": 0.0, "lat": 38.92386416666667, "bike_id": "8299328d93e101bc98f637cda8cb66ac", "fusion_lon": 0.0}, {"rental_uris": {"ios": "https://dc.lft.to/lastmile_qr_scan", "android": "https://dc.lft.to/lastmile_qr_scan"}, "type": "electric_scooter", "name": "b83bde0c422b21c9f9f4ef043b5dd2aa", "is_reserved": 0, "lon": -77.032068, "is_disabled": 0, "fusion_lat": 0.0, "lat": 38.88707133333333, "bike_id": "b83bde0c422b21c9f9f4ef043b5dd2aa", "fusion_lon": 0.0}, {"rental_uris": {"ios": "https://dc.lft.to/lastmile_qr_scan", "android": "https://dc.lft.to/lastmile_qr_scan"}, "type": "electric_scooter", "name": "8c01e4e0797ded9a29c7f3005a67bb2d", "is_reserved": 0, "lon": -76.982122, "is_disabled": 0, "fusion_lat": 0.0, "lat": 38.8864405, "bike_id": "8c01e4e0797ded9a29c7f3005a67bb2d", "fusion_lon": 0.0}, {"rental_uris": {"ios": "https://dc.lft.to/lastmile_qr_scan", "android": "https://dc.lft.to/lastmile_qr_scan"}, "type": "electric_scooter", "name": "42addfdf420c9ca0cef109c7ca45bd55", "is_reserved": 0, "lon": -77.0219885, "is_disabled": 0, "fusion_lat": 0.0, "lat": 38.88718316666667, "bike_id": "42addfdf420c9ca0cef109c7ca45bd55", "fusion_lon": 0.0}, {"rental_uris": {"ios": "https://dc.lft.to/lastmile_qr_scan", "android": "https://dc.lft.to/lastmile_qr_scan"}, "type": "electric_scooter", "name": "3c992e8aa54f88ecd77e9b21f83f9f46", "is_reserved": 0, "lon": -77.032597, "is_disabled": 0, "fusion_lat": 0.0, "lat": 38.90964133333333, "bike_id": "3c992e8aa54f88ecd77e9b21f83f9f46", "fusion_lon": 0.0}, {"rental_uris": {"ios": "https://dc.lft.to/lastmile_qr_scan", "android": "https://dc.lft.to/lastmile_qr_scan"}, "type": "electric_scooter", "name": "d4072a7ebcc73eca88aa1a06b11c00a8", "is_reserved": 0, "lon": -77.0099325, "is_disabled": 0, "fusion_lat": 0.0, "lat": 38.911283166666664, "bike_id": "d4072a7ebcc73eca88aa1a06b11c00a8", "fusion_lon": 0.0}, {"rental_uris": {"ios": "https://dc.lft.to/lastmile_qr_scan", "android": "https://dc.lft.to/lastmile_qr_scan"}, "type": "electric_scooter", "name": "0d36c24eeea81c876b87eba5ac8b0e36", "is_reserved": 0, "lon": -77.02692166666667, "is_disabled": 0, "fusion_lat": 0.0, "lat": 38.9497845, "bike_id": "0d36c24eeea81c876b87eba5ac8b0e36", "fusion_lon": 0.0}, {"rental_uris": {"ios": "https://dc.lft.to/lastmile_qr_scan", "android": "https://dc.lft.to/lastmile_qr_scan"}, "type": "electric_scooter", "name": "2fd021eeafbd90d73b94989b08792735", "is_reserved": 0, "lon": -77.00050483333334, "is_disabled": 0, "fusion_lat": 0.0, "lat": 38.923290333333334, "bike_id": "2fd021eeafbd90d73b94989b08792735", "fusion_lon": 0.0}, {"rental_uris": {"ios": "https://dc.lft.to/lastmile_qr_scan", "android": "https://dc.lft.to/lastmile_qr_scan"}, "type": "electric_bike", "name": "386dad42826026e407b428319fd34453", "is_reserved": 0, "lon": -77.0442475, "is_disabled": 0, "fusion_lat": 0.0, "lat": 39.01566783333333, "bike_id": "386dad42826026e407b428319fd34453", "fusion_lon": 0.0}, {"rental_uris": {"ios": "https://dc.lft.to/lastmile_qr_scan", "android": "https://dc.lft.to/lastmile_qr_scan"}, "type": "electric_bike", "name": "a9356e1e91fd618e875bc59870fbde5f", "is_reserved": 0, "lon": -77.12740716666667, "is_disabled": 0, "fusion_lat": 0.0, "lat": 38.89568033333333, "bike_id": "a9356e1e91fd618e875bc59870fbde5f", "fusion_lon": 0.0}, {"rental_uris": {"ios": "https://dc.lft.to/lastmile_qr_scan", "android": "https://dc.lft.to/lastmile_qr_scan"}, "type": "electric_scooter", "name": "a29e18b28918f87f86c06744d0bc9812", "is_reserved": 0, "lon": -77.033398, "is_disabled": 0, "fusion_lat": 0.0, "lat": 38.89226016666667, "bike_id": "a29e18b28918f87f86c06744d0bc9812", "fusion_lon": 0.0}, {"rental_uris": {"ios": "https://dc.lft.to/lastmile_qr_scan", "android": "https://dc.lft.to/lastmile_qr_scan"}, "type": "electric_bike", "name": "c955cdf92a7acb40c04a3b6b87193195", "is_reserved": 0, "lon": -77.03429716666666, "is_disabled": 0, "fusion_lat": 0.0, "lat": 38.965326833333336, "bike_id": "c955cdf92a7acb40c04a3b6b87193195", "fusion_lon": 0.0}, {"rental_uris": {"ios": "https://dc.lft.to/lastmile_qr_scan", "android": "https://dc.lft.to/lastmile_qr_scan"}, "type": "electric_bike", "name": "12737fdb1ba2a9c706e03f90e03338f2", "is_reserved": 0, "lon": -77.09626966666667, "is_disabled": 0, "fusion_lat": 0.0, "lat": 38.9525025, "bike_id": "12737fdb1ba2a9c706e03f90e03338f2", "fusion_lon": 0.0}, {"rental_uris": {"ios": "https://dc.lft.to/lastmile_qr_scan", "android": "https://dc.lft.to/lastmile_qr_scan"}, "type": "electric_scooter", "name": "8b78f1a7d22d6d869fa476bbcb15278d", "is_reserved": 0, "lon": -76.99618766666667, "is_disabled": 0, "fusion_lat": 0.0, "lat": 38.891907333333336, "bike_id": "8b78f1a7d22d6d869fa476bbcb15278d", "fusion_lon": 0.0}, {"rental_uris": {"ios": "https://dc.lft.to/lastmile_qr_scan", "android": "https://dc.lft.to/lastmile_qr_scan"}, "type": "electric_scooter", "name": "b7b4b8dcfa650879fd2ee88c590b1e4c", "is_reserved": 0, "lon": -77.02291283333334, "is_disabled": 0, "fusion_lat": 0.0, "lat": 38.90749816666667, "bike_id": "b7b4b8dcfa650879fd2ee88c590b1e4c", "fusion_lon": 0.0}, {"rental_uris": {"ios": "https://dc.lft.to/lastmile_qr_scan", "android": "https://dc.lft.to/lastmile_qr_scan"}, "type": "electric_scooter", "name": "622c1a11ffc907bab1cb57edeaaba703", "is_reserved": 0, "lon": -77.02161583333333, "is_disabled": 0, "fusion_lat": 0.0, "lat": 38.899225, "bike_id": "622c1a11ffc907bab1cb57edeaaba703", "fusion_lon": 0.0}, {"rental_uris": {"ios": "https://dc.lft.to/lastmile_qr_scan", "android": "https://dc.lft.to/lastmile_qr_scan"}, "type": "electric_scooter", "name": "b095e4ab6fd6c37662497ef15fad1e13", "is_reserved": 0, "lon": -76.98893216666667, "is_disabled": 0, "fusion_lat": 0.0, "lat": 38.89963983333333, "bike_id": "b095e4ab6fd6c37662497ef15fad1e13", "fusion_lon": 0.0}, {"rental_uris": {"ios": "https://dc.lft.to/lastmile_qr_scan", "android": "https://dc.lft.to/lastmile_qr_scan"}, "type": "electric_scooter", "name": "2756013733a52e7eaf9d8ed7b4eb320a", "is_reserved": 0, "lon": -77.01575933333334, "is_disabled": 0, "fusion_lat": 0.0, "lat": 38.91683466666667, "bike_id": "2756013733a52e7eaf9d8ed7b4eb320a", "fusion_lon": 0.0}, {"rental_uris": {"ios": "https://dc.lft.to/lastmile_qr_scan", "android": "https://dc.lft.to/lastmile_qr_scan"}, "type": "electric_scooter", "name": "7833d821808b73720bba94173fc52b11", "is_reserved": 0, "lon": -76.99100783333333, "is_disabled": 0, "fusion_lat": 0.0, "lat": 38.857302833333335, "bike_id": "7833d821808b73720bba94173fc52b11", "fusion_lon": 0.0}, {"rental_uris": {"ios": "https://dc.lft.to/lastmile_qr_scan", "android": "https://dc.lft.to/lastmile_qr_scan"}, "type": "electric_scooter", "name": "3fbf87ca1516e69219d94f7149acd3c1", "is_reserved": 0, "lon": -77.02074916666666, "is_disabled": 0, "fusion_lat": 0.0, "lat": 38.927019, "bike_id": "3fbf87ca1516e69219d94f7149acd3c1", "fusion_lon": 0.0}, {"rental_uris": {"ios": "https://dc.lft.to/lastmile_qr_scan", "android": "https://dc.lft.to/lastmile_qr_scan"}, "type": "electric_scooter", "name": "f41785e450560cffaf9977c6ad60971b", "is_reserved": 0, "lon": -77.008677, "is_disabled": 0, "fusion_lat": 0.0, "lat": 38.897427666666665, "bike_id": "f41785e450560cffaf9977c6ad60971b", "fusion_lon": 0.0}, {"rental_uris": {"ios": "https://dc.lft.to/lastmile_qr_scan", "android": "https://dc.lft.to/lastmile_qr_scan"}, "type": "electric_scooter", "name": "2a9b34db3db57a625beeb4ebd9c9c7bf", "is_reserved": 0, "lon": -77.0323445, "is_disabled": 0, "fusion_lat": 0.0, "lat": 38.907207666666665, "bike_id": "2a9b34db3db57a625beeb4ebd9c9c7bf", "fusion_lon": 0.0}, {"rental_uris": {"ios": "https://dc.lft.to/lastmile_qr_scan", "android": "https://dc.lft.to/lastmile_qr_scan"}, "type": "electric_scooter", "name": "991a36cea66cfc1df732eb2a61c14aef", "is_reserved": 0, "lon": -77.04182583333333, "is_disabled": 0, "fusion_lat": 0.0, "lat": 38.911246, "bike_id": "991a36cea66cfc1df732eb2a61c14aef", "fusion_lon": 0.0}, {"rental_uris": {"ios": "https://dc.lft.to/lastmile_qr_scan", "android": "https://dc.lft.to/lastmile_qr_scan"}, "type": "electric_scooter", "name": "bdd4f9e3e7e0741880d744d54700c94a", "is_reserved": 0, "lon": -77.027188, "is_disabled": 0, "fusion_lat": 0.0, "lat": 38.90523016666667, "bike_id": "bdd4f9e3e7e0741880d744d54700c94a", "fusion_lon": 0.0}, {"rental_uris": {"ios": "https://dc.lft.to/lastmile_qr_scan", "android": "https://dc.lft.to/lastmile_qr_scan"}, "type": "electric_scooter", "name": "0bee2161589b924a8365be18026af7a5", "is_reserved": 0, "lon": -77.00415683333334, "is_disabled": 0, "fusion_lat": 0.0, "lat": 38.87913066666667, "bike_id": "0bee2161589b924a8365be18026af7a5", "fusion_lon": 0.0}, {"rental_uris": {"ios": "https://dc.lft.to/lastmile_qr_scan", "android": "https://dc.lft.to/lastmile_qr_scan"}, "type": "electric_scooter", "name": "b722dd8a1151d95315ce0972b398d19f", "is_reserved": 0, "lon": -76.92304333333334, "is_disabled": 0, "fusion_lat": 0.0, "lat": 38.893854833333336, "bike_id": "b722dd8a1151d95315ce0972b398d19f", "fusion_lon": 0.0}, {"rental_uris": {"ios": "https://dc.lft.to/lastmile_qr_scan", "android": "https://dc.lft.to/lastmile_qr_scan"}, "type": "electric_scooter", "name": "f551cc5b1071ba4547ed628abc703c12", "is_reserved": 0, "lon": -77.0246695, "is_disabled": 0, "fusion_lat": 0.0, "lat": 38.95779316666667, "bike_id": "f551cc5b1071ba4547ed628abc703c12", "fusion_lon": 0.0}, {"rental_uris": {"ios": "https://dc.lft.to/lastmile_qr_scan", "android": "https://dc.lft.to/lastmile_qr_scan"}, "type": "electric_bike", "name": "0e81a0e895bef05ef467c41e0e2dccf1", "is_reserved": 0, "lon": -77.07645666666667, "is_disabled": 0, "fusion_lat": 0.0, "lat": 38.845388, "bike_id": "0e81a0e895bef05ef467c41e0e2dccf1", "fusion_lon": 0.0}, {"rental_uris": {"ios": "https://dc.lft.to/lastmile_qr_scan", "android": "https://dc.lft.to/lastmile_qr_scan"}, "type": "electric_scooter", "name": "69bee593123ffd37f44ce6f0e15ebcd8", "is_reserved": 0, "lon": -77.07411016666667, "is_disabled": 0, "fusion_lat": 0.0, "lat": 38.89725933333333, "bike_id": "69bee593123ffd37f44ce6f0e15ebcd8", "fusion_lon": 0.0}, {"rental_uris": {"ios": "https://dc.lft.to/lastmile_qr_scan", "android": "https://dc.lft.to/lastmile_qr_scan"}, "type": "electric_scooter", "name": "a6b0614e5d6baba2897b4ca130ab8bdc", "is_reserved": 0, "lon": -77.02031783333334, "is_disabled": 0, "fusion_lat": 0.0, "lat": 38.92443183333334, "bike_id": "a6b0614e5d6baba2897b4ca130ab8bdc", "fusion_lon": 0.0}, {"rental_uris": {"ios": "https://dc.lft.to/lastmile_qr_scan", "android": "https://dc.lft.to/lastmile_qr_scan"}, "type": "electric_scooter", "name": "48038f46bc4c758c91c7f795a2b7fcd4", "is_reserved": 0, "lon": -77.0244795, "is_disabled": 0, "fusion_lat": 0.0, "lat": 38.94979033333333, "bike_id": "48038f46bc4c758c91c7f795a2b7fcd4", "fusion_lon": 0.0}, {"rental_uris": {"ios": "https://dc.lft.to/lastmile_qr_scan", "android": "https://dc.lft.to/lastmile_qr_scan"}, "type": "electric_scooter", "name": "c9f2faeed9bfe9ef8e2ae79dc977ba4a", "is_reserved": 0, "lon": -76.9886905, "is_disabled": 0, "fusion_lat": 0.0, "lat": 38.9003385, "bike_id": "c9f2faeed9bfe9ef8e2ae79dc977ba4a", "fusion_lon": 0.0}, {"rental_uris": {"ios": "https://dc.lft.to/lastmile_qr_scan", "android": "https://dc.lft.to/lastmile_qr_scan"}, "type": "electric_scooter", "name": "725db7c574441a85e1ffaac3042988b8", "is_reserved": 0, "lon": -76.99011933333334, "is_disabled": 0, "fusion_lat": 0.0, "lat": 38.89890333333334, "bike_id": "725db7c574441a85e1ffaac3042988b8", "fusion_lon": 0.0}, {"rental_uris": {"ios": "https://dc.lft.to/lastmile_qr_scan", "android": "https://dc.lft.to/lastmile_qr_scan"}, "type": "electric_scooter", "name": "add42917e9449cdfc5511d2bcbb97d5c", "is_reserved": 0, "lon": -77.0349845, "is_disabled": 0, "fusion_lat": 0.0, "lat": 38.9327525, "bike_id": "add42917e9449cdfc5511d2bcbb97d5c", "fusion_lon": 0.0}, {"rental_uris": {"ios": "https://dc.lft.to/lastmile_qr_scan", "android": "https://dc.lft.to/lastmile_qr_scan"}, "type": "electric_scooter", "name": "95abbdf9e246d9644cfcd586857bc2ef", "is_reserved": 0, "lon": -77.02457033333333, "is_disabled": 0, "fusion_lat": 0.0, "lat": 38.8999755, "bike_id": "95abbdf9e246d9644cfcd586857bc2ef", "fusion_lon": 0.0}, {"rental_uris": {"ios": "https://dc.lft.to/lastmile_qr_scan", "android": "https://dc.lft.to/lastmile_qr_scan"}, "type": "electric_bike", "name": "654bbaf978137b59351e9a0cd759ca7a", "is_reserved": 0, "lon": -77.1062335, "is_disabled": 0, "fusion_lat": 0.0, "lat": 38.873253166666665, "bike_id": "654bbaf978137b59351e9a0cd759ca7a", "fusion_lon": 0.0}, {"rental_uris": {"ios": "https://dc.lft.to/lastmile_qr_scan", "android": "https://dc.lft.to/lastmile_qr_scan"}, "type": "electric_scooter", "name": "765e5a66c65d90caa9c2ea64b82ad707", "is_reserved": 0, "lon": -76.98652183333333, "is_disabled": 0, "fusion_lat": 0.0, "lat": 38.90537116666667, "bike_id": "765e5a66c65d90caa9c2ea64b82ad707", "fusion_lon": 0.0}, {"rental_uris": {"ios": "https://dc.lft.to/lastmile_qr_scan", "android": "https://dc.lft.to/lastmile_qr_scan"}, "type": "electric_scooter", "name": "917599af73c37f56bbddc06a314d00f8", "is_reserved": 0, "lon": -77.0220205, "is_disabled": 0, "fusion_lat": 0.0, "lat": 38.91134916666667, "bike_id": "917599af73c37f56bbddc06a314d00f8", "fusion_lon": 0.0}, {"rental_uris": {"ios": "https://dc.lft.to/lastmile_qr_scan", "android": "https://dc.lft.to/lastmile_qr_scan"}, "type": "electric_scooter", "name": "37127de22eab4078ba1ef93350fd7cd7", "is_reserved": 0, "lon": -77.02508683333333, "is_disabled": 0, "fusion_lat": 0.0, "lat": 38.903991500000004, "bike_id": "37127de22eab4078ba1ef93350fd7cd7", "fusion_lon": 0.0}, {"rental_uris": {"ios": "https://dc.lft.to/lastmile_qr_scan", "android": "https://dc.lft.to/lastmile_qr_scan"}, "type": "electric_scooter", "name": "0a3bdf2b2b1bc2e65aca4079e35e203f", "is_reserved": 0, "lon": -77.04755516666667, "is_disabled": 0, "fusion_lat": 0.0, "lat": 38.9008175, "bike_id": "0a3bdf2b2b1bc2e65aca4079e35e203f", "fusion_lon": 0.0}, {"rental_uris": {"ios": "https://dc.lft.to/lastmile_qr_scan", "android": "https://dc.lft.to/lastmile_qr_scan"}, "type": "electric_scooter", "name": "f58b34fd51800fc5d523038f0dbc0ba7", "is_reserved": 0, "lon": -77.02382066666667, "is_disabled": 0, "fusion_lat": 0.0, "lat": 38.93391883333334, "bike_id": "f58b34fd51800fc5d523038f0dbc0ba7", "fusion_lon": 0.0}, {"rental_uris": {"ios": "https://dc.lft.to/lastmile_qr_scan", "android": "https://dc.lft.to/lastmile_qr_scan"}, "type": "electric_scooter", "name": "771759cecc0362e2e0958f14c48ff042", "is_reserved": 0, "lon": -77.03826766666667, "is_disabled": 0, "fusion_lat": 0.0, "lat": 38.910303166666665, "bike_id": "771759cecc0362e2e0958f14c48ff042", "fusion_lon": 0.0}, {"rental_uris": {"ios": "https://dc.lft.to/lastmile_qr_scan", "android": "https://dc.lft.to/lastmile_qr_scan"}, "type": "electric_bike", "name": "5bc164bb0be139813a4bc0473ccda4a6", "is_reserved": 0, "lon": -77.07390916666667, "is_disabled": 0, "fusion_lat": 0.0, "lat": 38.914422, "bike_id": "5bc164bb0be139813a4bc0473ccda4a6", "fusion_lon": 0.0}, {"rental_uris": {"ios": "https://dc.lft.to/lastmile_qr_scan", "android": "https://dc.lft.to/lastmile_qr_scan"}, "type": "electric_scooter", "name": "0d56dce529ba0f6ed1aba288629e7308", "is_reserved": 0, "lon": -77.03443133333333, "is_disabled": 0, "fusion_lat": 0.0, "lat": 38.909742666666666, "bike_id": "0d56dce529ba0f6ed1aba288629e7308", "fusion_lon": 0.0}, {"rental_uris": {"ios": "https://dc.lft.to/lastmile_qr_scan", "android": "https://dc.lft.to/lastmile_qr_scan"}, "type": "electric_scooter", "name": "848d1ad3807b881402d33abd27673cee", "is_reserved": 0, "lon": -77.0302745, "is_disabled": 0, "fusion_lat": 0.0, "lat": 38.92243766666667, "bike_id": "848d1ad3807b881402d33abd27673cee", "fusion_lon": 0.0}, {"rental_uris": {"ios": "https://dc.lft.to/lastmile_qr_scan", "android": "https://dc.lft.to/lastmile_qr_scan"}, "type": "electric_scooter", "name": "5e350b8f2b7f87534378a283db9facbf", "is_reserved": 0, "lon": -77.03276, "is_disabled": 0, "fusion_lat": 0.0, "lat": 38.93263116666667, "bike_id": "5e350b8f2b7f87534378a283db9facbf", "fusion_lon": 0.0}, {"rental_uris": {"ios": "https://dc.lft.to/lastmile_qr_scan", "android": "https://dc.lft.to/lastmile_qr_scan"}, "type": "electric_scooter", "name": "835de331936d12c15a9c6ea394259f06", "is_reserved": 0, "lon": -76.9959505, "is_disabled": 0, "fusion_lat": 0.0, "lat": 38.900337, "bike_id": "835de331936d12c15a9c6ea394259f06", "fusion_lon": 0.0}, {"rental_uris": {"ios": "https://dc.lft.to/lastmile_qr_scan", "android": "https://dc.lft.to/lastmile_qr_scan"}, "type": "electric_scooter", "name": "7584510544ae18a82e5a56e0eeb35c8a", "is_reserved": 0, "lon": -77.02721266666667, "is_disabled": 0, "fusion_lat": 0.0, "lat": 38.92482233333333, "bike_id": "7584510544ae18a82e5a56e0eeb35c8a", "fusion_lon": 0.0}, {"rental_uris": {"ios": "https://dc.lft.to/lastmile_qr_scan", "android": "https://dc.lft.to/lastmile_qr_scan"}, "type": "electric_scooter", "name": "f01c3c6293c75ac8dc79463d9674fc60", "is_reserved": 0, "lon": -76.988439, "is_disabled": 0, "fusion_lat": 0.0, "lat": 38.894952333333336, "bike_id": "f01c3c6293c75ac8dc79463d9674fc60", "fusion_lon": 0.0}, {"rental_uris": {"ios": "https://dc.lft.to/lastmile_qr_scan", "android": "https://dc.lft.to/lastmile_qr_scan"}, "type": "electric_scooter", "name": "fccfd42567feaa9338333739d877d2f4", "is_reserved": 0, "lon": -77.0177055, "is_disabled": 0, "fusion_lat": 0.0, "lat": 38.8832445, "bike_id": "fccfd42567feaa9338333739d877d2f4", "fusion_lon": 0.0}, {"rental_uris": {"ios": "https://dc.lft.to/lastmile_qr_scan", "android": "https://dc.lft.to/lastmile_qr_scan"}, "type": "electric_scooter", "name": "6ddf4d04d8d91cda6de6310e7a70a59d", "is_reserved": 0, "lon": -77.033609, "is_disabled": 0, "fusion_lat": 0.0, "lat": 38.9223685, "bike_id": "6ddf4d04d8d91cda6de6310e7a70a59d", "fusion_lon": 0.0}, {"rental_uris": {"ios": "https://dc.lft.to/lastmile_qr_scan", "android": "https://dc.lft.to/lastmile_qr_scan"}, "type": "electric_scooter", "name": "1f66b0212a94d5dcda41c474dab7a2df", "is_reserved": 0, "lon": -77.034535, "is_disabled": 0, "fusion_lat": 0.0, "lat": 38.905645, "bike_id": "1f66b0212a94d5dcda41c474dab7a2df", "fusion_lon": 0.0}, {"rental_uris": {"ios": "https://dc.lft.to/lastmile_qr_scan", "android": "https://dc.lft.to/lastmile_qr_scan"}, "type": "electric_scooter", "name": "70434248dcacbb51df48ae169700870a", "is_reserved": 0, "lon": -77.02265683333333, "is_disabled": 0, "fusion_lat": 0.0, "lat": 38.927437, "bike_id": "70434248dcacbb51df48ae169700870a", "fusion_lon": 0.0}, {"rental_uris": {"ios": "https://dc.lft.to/lastmile_qr_scan", "android": "https://dc.lft.to/lastmile_qr_scan"}, "type": "electric_bike", "name": "e3a1786ea7c19570a023ecc23323cf0f", "is_reserved": 0, "lon": -76.98763633333333, "is_disabled": 0, "fusion_lat": 0.0, "lat": 38.85762666666667, "bike_id": "e3a1786ea7c19570a023ecc23323cf0f", "fusion_lon": 0.0}, {"rental_uris": {"ios": "https://dc.lft.to/lastmile_qr_scan", "android": "https://dc.lft.to/lastmile_qr_scan"}, "type": "electric_scooter", "name": "1b28d04ebfd15258e584c118507f404d", "is_reserved": 0, "lon": -77.0064525, "is_disabled": 0, "fusion_lat": 0.0, "lat": 38.87680816666666, "bike_id": "1b28d04ebfd15258e584c118507f404d", "fusion_lon": 0.0}, {"rental_uris": {"ios": "https://dc.lft.to/lastmile_qr_scan", "android": "https://dc.lft.to/lastmile_qr_scan"}, "type": "electric_scooter", "name": "e75691a07d0caeb897eaebc64fa73600", "is_reserved": 0, "lon": -77.0379255, "is_disabled": 0, "fusion_lat": 0.0, "lat": 38.91540366666667, "bike_id": "e75691a07d0caeb897eaebc64fa73600", "fusion_lon": 0.0}, {"rental_uris": {"ios": "https://dc.lft.to/lastmile_qr_scan", "android": "https://dc.lft.to/lastmile_qr_scan"}, "type": "electric_scooter", "name": "9da9480a3618344ba8834d59fb964c82", "is_reserved": 0, "lon": -76.98065633333333, "is_disabled": 0, "fusion_lat": 0.0, "lat": 38.90171683333333, "bike_id": "9da9480a3618344ba8834d59fb964c82", "fusion_lon": 0.0}, {"rental_uris": {"ios": "https://dc.lft.to/lastmile_qr_scan", "android": "https://dc.lft.to/lastmile_qr_scan"}, "type": "electric_scooter", "name": "78c333c4d3a814f22def943c97224be3", "is_reserved": 0, "lon": -77.00689383333334, "is_disabled": 0, "fusion_lat": 0.0, "lat": 38.87936916666666, "bike_id": "78c333c4d3a814f22def943c97224be3", "fusion_lon": 0.0}, {"rental_uris": {"ios": "https://dc.lft.to/lastmile_qr_scan", "android": "https://dc.lft.to/lastmile_qr_scan"}, "type": "electric_scooter", "name": "73bed81f068d24f0febb8d84e1e02190", "is_reserved": 0, "lon": -77.02434933333333, "is_disabled": 0, "fusion_lat": 0.0, "lat": 38.89904583333333, "bike_id": "73bed81f068d24f0febb8d84e1e02190", "fusion_lon": 0.0}, {"rental_uris": {"ios": "https://dc.lft.to/lastmile_qr_scan", "android": "https://dc.lft.to/lastmile_qr_scan"}, "type": "electric_bike", "name": "1da53dfb15b8ca7dda92ec1ce57d77d8", "is_reserved": 0, "lon": -77.00198183333333, "is_disabled": 0, "fusion_lat": 0.0, "lat": 38.94151866666667, "bike_id": "1da53dfb15b8ca7dda92ec1ce57d77d8", "fusion_lon": 0.0}, {"rental_uris": {"ios": "https://dc.lft.to/lastmile_qr_scan", "android": "https://dc.lft.to/lastmile_qr_scan"}, "type": "electric_scooter", "name": "9e1df45be307e29160847e1a7223f80a", "is_reserved": 0, "lon": -77.02168833333333, "is_disabled": 0, "fusion_lat": 0.0, "lat": 38.929966, "bike_id": "9e1df45be307e29160847e1a7223f80a", "fusion_lon": 0.0}, {"rental_uris": {"ios": "https://dc.lft.to/lastmile_qr_scan", "android": "https://dc.lft.to/lastmile_qr_scan"}, "type": "electric_scooter", "name": "b5a69c6e2f40943dd4ec4fe60d43004f", "is_reserved": 0, "lon": -77.0437985, "is_disabled": 0, "fusion_lat": 0.0, "lat": 38.93422916666667, "bike_id": "b5a69c6e2f40943dd4ec4fe60d43004f", "fusion_lon": 0.0}, {"rental_uris": {"ios": "https://dc.lft.to/lastmile_qr_scan", "android": "https://dc.lft.to/lastmile_qr_scan"}, "type": "electric_scooter", "name": "3a58ca7124cbd5e42a70b5719a147994", "is_reserved": 0, "lon": -77.04134916666666, "is_disabled": 0, "fusion_lat": 0.0, "lat": 38.92167716666667, "bike_id": "3a58ca7124cbd5e42a70b5719a147994", "fusion_lon": 0.0}, {"rental_uris": {"ios": "https://dc.lft.to/lastmile_qr_scan", "android": "https://dc.lft.to/lastmile_qr_scan"}, "type": "electric_scooter", "name": "609bb2ae00dbf6f6894126540a63084a", "is_reserved": 0, "lon": -77.03389066666666, "is_disabled": 0, "fusion_lat": 0.0, "lat": 38.89981516666667, "bike_id": "609bb2ae00dbf6f6894126540a63084a", "fusion_lon": 0.0}, {"rental_uris": {"ios": "https://dc.lft.to/lastmile_qr_scan", "android": "https://dc.lft.to/lastmile_qr_scan"}, "type": "electric_scooter", "name": "b10482b5e4362daaa94a29431f1fc1fa", "is_reserved": 0, "lon": -77.03484883333333, "is_disabled": 0, "fusion_lat": 0.0, "lat": 38.93111866666667, "bike_id": "b10482b5e4362daaa94a29431f1fc1fa", "fusion_lon": 0.0}, {"rental_uris": {"ios": "https://dc.lft.to/lastmile_qr_scan", "android": "https://dc.lft.to/lastmile_qr_scan"}, "type": "electric_scooter", "name": "e3601de7b874d0bc5805ec175b3395b7", "is_reserved": 0, "lon": -77.020394, "is_disabled": 0, "fusion_lat": 0.0, "lat": 38.892951, "bike_id": "e3601de7b874d0bc5805ec175b3395b7", "fusion_lon": 0.0}, {"rental_uris": {"ios": "https://dc.lft.to/lastmile_qr_scan", "android": "https://dc.lft.to/lastmile_qr_scan"}, "type": "electric_scooter", "name": "a8332902645cbde95aad88e52c15653c", "is_reserved": 0, "lon": -77.03054233333333, "is_disabled": 0, "fusion_lat": 0.0, "lat": 38.92247416666667, "bike_id": "a8332902645cbde95aad88e52c15653c", "fusion_lon": 0.0}, {"rental_uris": {"ios": "https://dc.lft.to/lastmile_qr_scan", "android": "https://dc.lft.to/lastmile_qr_scan"}, "type": "electric_scooter", "name": "8dd9a6a63c16c4ff2ff3e4b158be9e16", "is_reserved": 0, "lon": -76.98337533333333, "is_disabled": 0, "fusion_lat": 0.0, "lat": 38.90089533333333, "bike_id": "8dd9a6a63c16c4ff2ff3e4b158be9e16", "fusion_lon": 0.0}, {"rental_uris": {"ios": "https://dc.lft.to/lastmile_qr_scan", "android": "https://dc.lft.to/lastmile_qr_scan"}, "type": "electric_scooter", "name": "80a776f8b81d073f5419ce889007b117", "is_reserved": 0, "lon": -77.022917, "is_disabled": 0, "fusion_lat": 0.0, "lat": 38.91645333333334, "bike_id": "80a776f8b81d073f5419ce889007b117", "fusion_lon": 0.0}, {"rental_uris": {"ios": "https://dc.lft.to/lastmile_qr_scan", "android": "https://dc.lft.to/lastmile_qr_scan"}, "type": "electric_scooter", "name": "a3c98c46070ddc913ec6a1da301a383f", "is_reserved": 0, "lon": -77.03759933333333, "is_disabled": 0, "fusion_lat": 0.0, "lat": 38.906715166666665, "bike_id": "a3c98c46070ddc913ec6a1da301a383f", "fusion_lon": 0.0}, {"rental_uris": {"ios": "https://dc.lft.to/lastmile_qr_scan", "android": "https://dc.lft.to/lastmile_qr_scan"}, "type": "electric_scooter", "name": "1d6307592213c7d47e1458fc57e3ff99", "is_reserved": 0, "lon": -77.03259266666667, "is_disabled": 0, "fusion_lat": 0.0, "lat": 38.9397865, "bike_id": "1d6307592213c7d47e1458fc57e3ff99", "fusion_lon": 0.0}, {"rental_uris": {"ios": "https://dc.lft.to/lastmile_qr_scan", "android": "https://dc.lft.to/lastmile_qr_scan"}, "type": "electric_scooter", "name": "1d352dcc4b29f7a1b32419a23fe737cb", "is_reserved": 0, "lon": -77.0177625, "is_disabled": 0, "fusion_lat": 0.0, "lat": 38.905098333333335, "bike_id": "1d352dcc4b29f7a1b32419a23fe737cb", "fusion_lon": 0.0}, {"rental_uris": {"ios": "https://dc.lft.to/lastmile_qr_scan", "android": "https://dc.lft.to/lastmile_qr_scan"}, "type": "electric_scooter", "name": "659206b03c9855e5a49e33d047e351f8", "is_reserved": 0, "lon": -76.95189983333333, "is_disabled": 0, "fusion_lat": 0.0, "lat": 38.90513716666667, "bike_id": "659206b03c9855e5a49e33d047e351f8", "fusion_lon": 0.0}, {"rental_uris": {"ios": "https://dc.lft.to/lastmile_qr_scan", "android": "https://dc.lft.to/lastmile_qr_scan"}, "type": "electric_scooter", "name": "75c67a2fa4e4b10ca549ec08859c15ae", "is_reserved": 0, "lon": -77.03450616666667, "is_disabled": 0, "fusion_lat": 0.0, "lat": 38.9073355, "bike_id": "75c67a2fa4e4b10ca549ec08859c15ae", "fusion_lon": 0.0}, {"rental_uris": {"ios": "https://dc.lft.to/lastmile_qr_scan", "android": "https://dc.lft.to/lastmile_qr_scan"}, "type": "electric_scooter", "name": "512def17cf203775e8da7b2af4b47fa2", "is_reserved": 0, "lon": -77.00584516666666, "is_disabled": 0, "fusion_lat": 0.0, "lat": 38.90575533333333, "bike_id": "512def17cf203775e8da7b2af4b47fa2", "fusion_lon": 0.0}, {"rental_uris": {"ios": "https://dc.lft.to/lastmile_qr_scan", "android": "https://dc.lft.to/lastmile_qr_scan"}, "type": "electric_scooter", "name": "bda7190490d9ea11f9a3eb5939e66ad0", "is_reserved": 0, "lon": -77.01755833333333, "is_disabled": 0, "fusion_lat": 0.0, "lat": 38.876846666666665, "bike_id": "bda7190490d9ea11f9a3eb5939e66ad0", "fusion_lon": 0.0}, {"rental_uris": {"ios": "https://dc.lft.to/lastmile_qr_scan", "android": "https://dc.lft.to/lastmile_qr_scan"}, "type": "electric_scooter", "name": "003f5edeef0979b7c67453b95f8d854f", "is_reserved": 0, "lon": -76.9263655, "is_disabled": 0, "fusion_lat": 0.0, "lat": 38.9019225, "bike_id": "003f5edeef0979b7c67453b95f8d854f", "fusion_lon": 0.0}, {"rental_uris": {"ios": "https://dc.lft.to/lastmile_qr_scan", "android": "https://dc.lft.to/lastmile_qr_scan"}, "type": "electric_scooter", "name": "7cc7602403b0e493665fad831fc40511", "is_reserved": 0, "lon": -77.02504, "is_disabled": 0, "fusion_lat": 0.0, "lat": 38.9420845, "bike_id": "7cc7602403b0e493665fad831fc40511", "fusion_lon": 0.0}, {"rental_uris": {"ios": "https://dc.lft.to/lastmile_qr_scan", "android": "https://dc.lft.to/lastmile_qr_scan"}, "type": "electric_bike", "name": "69913463296ca8e96df82f3d7f933df4", "is_reserved": 0, "lon": -77.00729716666666, "is_disabled": 0, "fusion_lat": 0.0, "lat": 38.832467333333334, "bike_id": "69913463296ca8e96df82f3d7f933df4", "fusion_lon": 0.0}, {"rental_uris": {"ios": "https://dc.lft.to/lastmile_qr_scan", "android": "https://dc.lft.to/lastmile_qr_scan"}, "type": "electric_scooter", "name": "05f40085bb124ad2af386b2e9f11b34e", "is_reserved": 0, "lon": -76.98314733333333, "is_disabled": 0, "fusion_lat": 0.0, "lat": 38.92586166666667, "bike_id": "05f40085bb124ad2af386b2e9f11b34e", "fusion_lon": 0.0},